{"last_updated":1740643960,"ttl":60,"version":"2.2","data":{"bikes":[{"bike_id":"5cdbad39-439d-4eca-9691-1461f25a0624","system_id":"levelo_inurba_marseille","lat":43.337444,"lon":5.374475,"is_reserved":false,"is_disabled":true,"rental_uris":{"android":"levelo://app?vid=5cdbad39-439d-4eca-9691-1461f25a0624","ios":"levelo://app?vid=5cdbad39-439d-4eca-9691-1461f25a0624"},"vehicle_type_id":"4","last_reported":1740643960,"current_range_meters":0,"station_id":"","pricing_plan_id":"cebpf4jnsgd1na2vs0mg"},{"bike_id":"32d39ccd-0c40-4cda-a0e5-98cc976b3566","system_id":"levelo_inurba_marseille","lat":43.23693,"lon":5.4359,"is_reserved":false,"is_disabled":true,"rental_uris":{"android":"levelo://app?vid=32d39ccd-0c40-4cda-a0e5-98cc976b3566","ios":"levelo://app?vid=32d39ccd-0c40-4cda-a0e5-98cc976b3566"},"vehicle_type_id":"4","last_reported":1740643960,"current_range_meters":0,"station_id":"","pricing_plan_id":"cebpf4jnsgd1na2vs0mg"},{"bike_id":"6d99bc09-c99a-4a9b-99f9-820af25155d9","system_id":"levelo_inurba_marseille","lat":43.31659,"lon":5.37367,"is_reserved":false,"is_disabled":true,"rental_uris":{"android":"levelo://app?vid=6d99bc09-c99a-4a9b-99f9-820af25155d9","ios":"levelo://app?vid=6d99bc09-c99a-4a9b-99f9-820af25155d9"},"vehicle_type_id":"4","last_reported":1740643960,"current_range_meters":0,"station_id":"","pricing_plan_id":"cebpf4jnsgd1na2vs0mg"},{"bike_id":"442e2452-c880-40be-ba16-2c28d16331dd","system_id":"levelo_inurba_marseille","lat":43.26525,"lon":5.39055,"is_reserved":false,"is_disabled":true,"rental_uris":{"android":"levelo://app?vid=442e2452-c880-40be-ba16-2c28d16331dd","ios":"levelo://app?vid=442e2452-c880-40be-ba16-2c28d16331dd"},"vehicle_type_id":"4","last_reported":1740643960,"current_range_meters":0,"station_id":"","pricing_plan_id":"cebpf4jnsgd1na2vs0mg"},{"bike_id":"8076121a-677e-4003-9390-44a362df1a15","system_id":"levelo_inurba_marseille","lat":43.30856,"lon":5.40393,"is_reserved":false,"is_disabled":true,"rental_uris":{"android":"levelo://app?vid=8076121a-677e-4003-9390-44a362df1a15","ios":"levelo://app?vid=8076121a-677e-4003-9390-44a362df1a15"},"vehicle_type_id":"4","last_reported":1740643960,"current_range_meters":0,"station_id":"","pricing_plan_id":"cebpf4jnsgd1na2vs0mg"},{"bike_id":"3f4e2407-7a00-4b4e-afb8-7f4135930ef0","system_id":"levelo_inurba_marseille","lat":43.29376,"lon":5.42826,"is_reserved":false,"is_disabled":true,"rental_uris":{"android":"levelo://app?vid=3f4e2407-7a00-4b4e-afb8-7f4135930ef0","ios":"levelo://app?vid=3f4e2407-7a00-4b4e-afb8-7f4135930ef0"},"vehicle_type_id":"4","last_reported":1740643960,"current_range_meters":0,"station_id":"","pricing_plan_id":"cebpf4jnsgd1na2vs0mg"},{"bike_id":"32963120-229a-4888-842b-fb1a33892029","system_id":"levelo_inurba_marseille","lat":43.29786,"lon":5.38097,"is_reserved":false,"is_disabled":true,"rental_uris":{"android":"levelo://app?vid=32963120-229a-4888-842b-fb1a33892029","ios":"levelo://app?vid=32963120-229a-4888-842b-fb1a33892029"},"vehicle_type_id":"4","last_reported":1740643960,"current_range_meters":0,"station_id":"ce4bgip2rcd13ifvqbb0","pricing_plan_id":"cebpf4jnsgd1na2vs0mg"},{"bike_id":"c5b23376-fc14-4524-8b90-5dd07fabfc34","system_id":"levelo_inurba_marseille","lat":43.304493,"lon":5.388935,"is_reserved":false,"is_disabled":true,"rental_uris":{"android":"levelo://app?vid=c5b23376-fc14-4524-8b90-5dd07fabfc34","ios":"levelo://app?vid=c5b23376-fc14-4524-8b90-5dd07fabfc34"},"vehicle_type_id":"4","last_reported":1740643960,"current_range_meters":0,"station_id":"ce4bgk12rcd13ifvqbi0","pricing_plan_id":"cebpf4jnsgd1na2vs0mg"},{"bike_id":"67fb0d9f-e65a-48ec-939c-f8877b05448c","system_id":"levelo_inurba_marseille","lat":43.30549,"lon":5.36713,"is_reserved":false,"is_disabled":true,"rental_uris":{"android":"levelo://app?vid=67fb0d9f-e65a-48ec-939c-f8877b05448c","ios":"levelo://app?vid=67fb0d9f-e65a-48ec-939c-f8877b05448c"},"vehicle_type_id":"4","last_reported":1740643960,"current_range_meters":0,"station_id":"ce4bgrp2rcd13ifvqc9g","pricing_plan_id":"cebpf4jnsgd1na2vs0mg"},{"bike_id":"e5e7bfa5-9b4e-400f-a807-acd2dd587386","system_id":"levelo_inurba_marseille","lat":43.30228,"lon":5.39473,"is_reserved":false,"is_disabled":true,"rental_uris":{"android":"levelo://app?vid=e5e7bfa5-9b4e-400f-a807-acd2dd587386","ios":"levelo://app?vid=e5e7bfa5-9b4e-400f-a807-acd2dd587386"},"vehicle_type_id":"4","last_reported":1740643960,"current_range_meters":0,"station_id":"ce4bh0p2rcd13ifvqd70","pricing_plan_id":"cebpf4jnsgd1na2vs0mg"},{"bike_id":"e8fd03cc-c75f-4907-8398-37e332ac2d32","system_id":"levelo_inurba_marseille","lat":43.30606,"lon":5.39353,"is_reserved":false,"is_disabled":true,"rental_uris":{"android":"levelo://app?vid=e8fd03cc-c75f-4907-8398-37e332ac2d32","ios":"levelo://app?vid=e8fd03cc-c75f-4907-8398-37e332ac2d32"},"vehicle_type_id":"4","last_reported":1740643960,"current_range_meters":0,"station_id":"ce4bh0p2rcd13ifvqd80","pricing_plan_id":"cebpf4jnsgd1na2vs0mg"},{"bike_id":"5ff87126-e9a1-4042-b22d-d4ea3ca2621d","system_id":"levelo_inurba_marseille","lat":43.29066,"lon":5.35581,"is_reserved":false,"is_disabled":true,"rental_uris":{"android":"levelo://app?vid=5ff87126-e9a1-4042-b22d-d4ea3ca2621d","ios":"levelo://app?vid=5ff87126-e9a1-4042-b22d-d4ea3ca2621d"},"vehicle_type_id":"4","last_reported":1740643960,"current_range_meters":0,"station_id":"ce4bhb92rcd13ifvqen0","pricing_plan_id":"cebpf4jnsgd1na2vs0mg"},{"bike_id":"4993e8c3-b5c8-428a-b6ef-81f653e97404","system_id":"levelo_inurba_marseille","lat":43.29263,"lon":5.36853,"is_reserved":false,"is_disabled":false,"rental_uris":{"android":"levelo://app?vid=4993e8c3-b5c8-428a-b6ef-81f653e97404","ios":"levelo://app?vid=4993e8c3-b5c8-428a-b6ef-81f653e97404"},"vehicle_type_id":"4","last_reported":1740643960,"current_range_meters":0,"station_id":"ce4bhbp2rcd13ifvqesg","pricing_plan_id":"cebpf4jnsgd1na2vs0mg"},{"bike_id":"aabb265a-235b-4e83-ad28-490224c786f3","system_id":"levelo_inurba_marseille","lat":43.29278,"lon":5.36848,"is_reserved":false,"is_disabled":true,"rental_uris":{"android":"levelo://app?vid=aabb265a-235b-4e83-ad28-490224c786f3","ios":"levelo://app?vid=aabb265a-235b-4e83-ad28-490224c786f3"},"vehicle_type_id":"4","last_reported":1740643960,"current_range_meters":0,"station_id":"ce4bhbp2rcd13ifvqesg","pricing_plan_id":"cebpf4jnsgd1na2vs0mg"},{"bike_id":"9c361fa6-26c0-491f-9537-2addcdf5cc40","system_id":"levelo_inurba_marseille","lat":43.26689,"lon":5.38273,"is_reserved":false,"is_disabled":true,"rental_uris":{"android":"levelo://app?vid=9c361fa6-26c0-491f-9537-2addcdf5cc40","ios":"levelo://app?vid=9c361fa6-26c0-491f-9537-2addcdf5cc40"},"vehicle_type_id":"4","last_reported":1740643960,"current_range_meters":0,"station_id":"ce4bhg92rcd13ifvqf90","pricing_plan_id":"cebpf4jnsgd1na2vs0mg"},{"bike_id":"e1df8887-57bd-458a-b049-5160ff90d97b","system_id":"levelo_inurba_marseille","lat":43.2695,"lon":5.38635,"is_reserved":false,"is_disabled":false,"rental_uris":{"android":"levelo://app?vid=e1df8887-57bd-458a-b049-5160ff90d97b","ios":"levelo://app?vid=e1df8887-57bd-458a-b049-5160ff90d97b"},"vehicle_type_id":"4","last_reported":1740643960,"current_range_meters":0,"station_id":"ce4bhh92rcd13ifvqfh0","pricing_plan_id":"cebpf4jnsgd1na2vs0mg"},{"bike_id":"7ac62084-c98b-41f9-95f4-b2f3b748734c","system_id":"levelo_inurba_marseille","lat":43.27824,"lon":5.39199,"is_reserved":false,"is_disabled":true,"rental_uris":{"android":"levelo://app?vid=7ac62084-c98b-41f9-95f4-b2f3b748734c","ios":"levelo://app?vid=7ac62084-c98b-41f9-95f4-b2f3b748734c"},"vehicle_type_id":"4","last_reported":1740643960,"current_range_meters":0,"station_id":"ce4bhjp2rcd13ifvqga0","pricing_plan_id":"cebpf4jnsgd1na2vs0mg"},{"bike_id":"f988e888-7d09-43e4-8d9c-ece04719794d","system_id":"levelo_inurba_marseille","lat":43.25926,"lon":5.40901,"is_reserved":false,"is_disabled":true,"rental_uris":{"android":"levelo://app?vid=f988e888-7d09-43e4-8d9c-ece04719794d","ios":"levelo://app?vid=f988e888-7d09-43e4-8d9c-ece04719794d"},"vehicle_type_id":"4","last_reported":1740643960,"current_range_meters":0,"station_id":"ce4bhm92rcd13ifvqglg","pricing_plan_id":"cebpf4jnsgd1na2vs0mg"},{"bike_id":"5e97a04f-8513-4bd6-9741-0d7a392bf2c5","system_id":"levelo_inurba_marseille","lat":43.23156,"lon":5.4372,"is_reserved":false,"is_disabled":true,"rental_uris":{"android":"levelo://app?vid=5e97a04f-8513-4bd6-9741-0d7a392bf2c5","ios":"levelo://app?vid=5e97a04f-8513-4bd6-9741-0d7a392bf2c5"},"vehicle_type_id":"4","last_reported":1740643960,"current_range_meters":0,"station_id":"ce4bhmp2rcd13ifvqgog","pricing_plan_id":"cebpf4jnsgd1na2vs0mg"},{"bike_id":"8c3333d9-3301-4b9e-821f-823af33d18da","system_id":"levelo_inurba_marseille","lat":43.315906,"lon":5.423982,"is_reserved":false,"is_disabled":true,"rental_uris":{"android":"levelo://app?vid=8c3333d9-3301-4b9e-821f-823af33d18da","ios":"levelo://app?vid=8c3333d9-3301-4b9e-821f-823af33d18da"},"vehicle_type_id":"4","last_reported":1740643960,"current_range_meters":0,"station_id":"ce4bhp92rcd13ifvqhcg","pricing_plan_id":"cebpf4jnsgd1na2vs0mg"},{"bike_id":"7aa21f11-8eb7-443d-8ab3-65620f929cca","system_id":"levelo_inurba_marseille","lat":43.32542,"lon":5.41438,"is_reserved":false,"is_disabled":true,"rental_uris":{"android":"levelo://app?vid=7aa21f11-8eb7-443d-8ab3-65620f929cca","ios":"levelo://app?vid=7aa21f11-8eb7-443d-8ab3-65620f929cca"},"vehicle_type_id":"4","last_reported":1740643960,"current_range_meters":0,"station_id":"ce4bhq12rcd13ifvqhhg","pricing_plan_id":"cebpf4jnsgd1na2vs0mg"},{"bike_id":"fd9f64d4-d06f-4df6-872f-b3450a0dc06c","system_id":"levelo_inurba_marseille","lat":43.30954,"lon":5.39039,"is_reserved":false,"is_disabled":true,"rental_uris":{"android":"levelo://app?vid=fd9f64d4-d06f-4df6-872f-b3450a0dc06c","ios":"levelo://app?vid=fd9f64d4-d06f-4df6-872f-b3450a0dc06c"},"vehicle_type_id":"4","last_reported":1740643960,"current_range_meters":400,"station_id":"ce4bgup2rcd13ifvqco0","pricing_plan_id":"cebpf4jnsgd1na2vs0mg"},{"bike_id":"3f43ae96-be01-45ae-bb0d-8031a591d62d","system_id":"levelo_inurba_marseille","lat":43.28945,"lon":5.3664,"is_reserved":false,"is_disabled":true,"rental_uris":{"android":"levelo://app?vid=3f43ae96-be01-45ae-bb0d-8031a591d62d","ios":"levelo://app?vid=3f43ae96-be01-45ae-bb0d-8031a591d62d"},"vehicle_type_id":"4","last_reported":1740643960,"current_range_meters":400,"station_id":"ce4bhap2rcd13ifvqek0","pricing_plan_id":"cebpf4jnsgd1na2vs0mg"},{"bike_id":"524ae601-5110-41a7-a86d-4cd95b7d3f9d","system_id":"levelo_inurba_marseille","lat":43.28038,"lon":5.40842,"is_reserved":false,"is_disabled":true,"rental_uris":{"android":"levelo://app?vid=524ae601-5110-41a7-a86d-4cd95b7d3f9d","ios":"levelo://app?vid=524ae601-5110-41a7-a86d-4cd95b7d3f9d"},"vehicle_type_id":"4","last_reported":1740643960,"current_range_meters":1200,"station_id":"","pricing_plan_id":"cebpf4jnsgd1na2vs0mg"},{"bike_id":"e3ed74ba-8236-4d02-9903-031916667cf5","system_id":"levelo_inurba_marseille","lat":43.33745,"lon":5.37467,"is_reserved":false,"is_disabled":true,"rental_uris":{"android":"levelo://app?vid=e3ed74ba-8236-4d02-9903-031916667cf5","ios":"levelo://app?vid=e3ed74ba-8236-4d02-9903-031916667cf5"},"vehicle_type_id":"4","last_reported":1740643960,"current_range_meters":1200,"station_id":"","pricing_plan_id":"cebpf4jnsgd1na2vs0mg"},{"bike_id":"3ea1bc40-2951-4249-b4f5-ab03d2401183","system_id":"levelo_inurba_marseille","lat":43.30324,"lon":5.37717,"is_reserved":false,"is_disabled":true,"rental_uris":{"android":"levelo://app?vid=3ea1bc40-2951-4249-b4f5-ab03d2401183","ios":"levelo://app?vid=3ea1bc40-2951-4249-b4f5-ab03d2401183"},"vehicle_type_id":"4","last_reported":1740643960,"current_range_meters":1200,"station_id":"ce4bguh2rcd13ifvqcj0","pricing_plan_id":"cebpf4jnsgd1na2vs0mg"},{"bike_id":"7c6be47b-dd97-42fd-aca8-0ab01ac1f238","system_id":"levelo_inurba_marseille","lat":43.29422,"lon":5.38619,"is_reserved":false,"is_disabled":true,"rental_uris":{"android":"levelo://app?vid=7c6be47b-dd97-42fd-aca8-0ab01ac1f238","ios":"levelo://app?vid=7c6be47b-dd97-42fd-aca8-0ab01ac1f238"},"vehicle_type_id":"4","last_reported":1740643960,"current_range_meters":1200,"station_id":"ce4bh2h2rcd13ifvqdh0","pricing_plan_id":"cebpf4jnsgd1na2vs0mg"},{"bike_id":"ff2f8e29-353c-4b9e-a88d-e5874ae72686","system_id":"levelo_inurba_marseille","lat":43.28936,"lon":5.36633,"is_reserved":false,"is_disabled":true,"rental_uris":{"android":"levelo://app?vid=ff2f8e29-353c-4b9e-a88d-e5874ae72686","ios":"levelo://app?vid=ff2f8e29-353c-4b9e-a88d-e5874ae72686"},"vehicle_type_id":"4","last_reported":1740643960,"current_range_meters":1200,"station_id":"ce4bhap2rcd13ifvqek0","pricing_plan_id":"cebpf4jnsgd1na2vs0mg"},{"bike_id":"2762f6a9-d1ca-40e0-835c-6af6419e40c1","system_id":"levelo_inurba_marseille","lat":43.27361,"lon":5.36234,"is_reserved":false,"is_disabled":true,"rental_uris":{"android":"levelo://app?vid=2762f6a9-d1ca-40e0-835c-6af6419e40c1","ios":"levelo://app?vid=2762f6a9-d1ca-40e0-835c-6af6419e40c1"},"vehicle_type_id":"4","last_reported":1740643960,"current_range_meters":1200,"station_id":"ce4bhbh2rcd13ifvqeo0","pricing_plan_id":"cebpf4jnsgd1na2vs0mg"},{"bike_id":"349e0b42-9005-4524-ae81-70f682769f76","system_id":"levelo_inurba_marseille","lat":43.239623,"lon":5.36641,"is_reserved":false,"is_disabled":true,"rental_uris":{"android":"levelo://app?vid=349e0b42-9005-4524-ae81-70f682769f76","ios":"levelo://app?vid=349e0b42-9005-4524-ae81-70f682769f76"},"vehicle_type_id":"4","last_reported":1740643960,"current_range_meters":1200,"station_id":"ce4bhi12rcd13ifvqfp0","pricing_plan_id":"cebpf4jnsgd1na2vs0mg"},{"bike_id":"cc867899-a8a3-4438-a54f-65c8b4529f60","system_id":"levelo_inurba_marseille","lat":43.2587,"lon":5.39889,"is_reserved":false,"is_disabled":true,"rental_uris":{"android":"levelo://app?vid=cc867899-a8a3-4438-a54f-65c8b4529f60","ios":"levelo://app?vid=cc867899-a8a3-4438-a54f-65c8b4529f60"},"vehicle_type_id":"4","last_reported":1740643960,"current_range_meters":1200,"station_id":"ce4bhl92rcd13ifvqghg","pricing_plan_id":"cebpf4jnsgd1na2vs0mg"},{"bike_id":"0de00391-07d6-4c9d-918c-e97333f0d2c7","system_id":"levelo_inurba_marseille","lat":43.30157,"lon":5.38085,"is_reserved":false,"is_disabled":true,"rental_uris":{"android":"levelo://app?vid=0de00391-07d6-4c9d-918c-e97333f0d2c7","ios":"levelo://app?vid=0de00391-07d6-4c9d-918c-e97333f0d2c7"},"vehicle_type_id":"4","last_reported":1740643960,"current_range_meters":1600,"station_id":"ce4bgjp2rcd13ifvqbh0","pricing_plan_id":"cebpf4jnsgd1na2vs0mg"},{"bike_id":"84025aa4-e3e8-4afd-9223-f08943624804","system_id":"levelo_inurba_marseille","lat":43.30805,"lon":5.38147,"is_reserved":false,"is_disabled":true,"rental_uris":{"android":"levelo://app?vid=84025aa4-e3e8-4afd-9223-f08943624804","ios":"levelo://app?vid=84025aa4-e3e8-4afd-9223-f08943624804"},"vehicle_type_id":"4","last_reported":1740643960,"current_range_meters":1600,"station_id":"ce4bgt12rcd13ifvqce0","pricing_plan_id":"cebpf4jnsgd1na2vs0mg"},{"bike_id":"37031312-406e-4333-9582-fdb59ecf2d5e","system_id":"levelo_inurba_marseille","lat":43.292022,"lon":5.393289,"is_reserved":false,"is_disabled":false,"rental_uris":{"android":"levelo://app?vid=37031312-406e-4333-9582-fdb59ecf2d5e","ios":"levelo://app?vid=37031312-406e-4333-9582-fdb59ecf2d5e"},"vehicle_type_id":"4","last_reported":1740643960,"current_range_meters":1600,"station_id":"ce4bgvh2rcd13ifvqcs0","pricing_plan_id":"cebpf4jnsgd1na2vs0mg"},{"bike_id":"9d413b70-1700-44c7-a4d1-77f0c898030e","system_id":"levelo_inurba_marseille","lat":43.29261,"lon":5.40164,"is_reserved":false,"is_disabled":true,"rental_uris":{"android":"levelo://app?vid=9d413b70-1700-44c7-a4d1-77f0c898030e","ios":"levelo://app?vid=9d413b70-1700-44c7-a4d1-77f0c898030e"},"vehicle_type_id":"4","last_reported":1740643960,"current_range_meters":1600,"station_id":"ce4bh312rcd13ifvqdk0","pricing_plan_id":"cebpf4jnsgd1na2vs0mg"},{"bike_id":"8672a90a-3d31-4889-8b34-7f9ccaebc950","system_id":"levelo_inurba_marseille","lat":43.27838,"lon":5.39192,"is_reserved":false,"is_disabled":true,"rental_uris":{"android":"levelo://app?vid=8672a90a-3d31-4889-8b34-7f9ccaebc950","ios":"levelo://app?vid=8672a90a-3d31-4889-8b34-7f9ccaebc950"},"vehicle_type_id":"4","last_reported":1740643960,"current_range_meters":1600,"station_id":"ce4bhjp2rcd13ifvqga0","pricing_plan_id":"cebpf4jnsgd1na2vs0mg"},{"bike_id":"b0f47ceb-892e-44ba-9967-0c1596a36b2d","system_id":"levelo_inurba_marseille","lat":43.29351,"lon":5.3787,"is_reserved":false,"is_disabled":true,"rental_uris":{"android":"levelo://app?vid=b0f47ceb-892e-44ba-9967-0c1596a36b2d","ios":"levelo://app?vid=b0f47ceb-892e-44ba-9967-0c1596a36b2d"},"vehicle_type_id":"4","last_reported":1740643960,"current_range_meters":2000,"station_id":"ce4bgjh2rcd13ifvqbf0","pricing_plan_id":"cebpf4jnsgd1na2vs0mg"},{"bike_id":"8fc5825c-4528-4452-9009-27be708f6675","system_id":"levelo_inurba_marseille","lat":43.2408,"lon":5.3776,"is_reserved":false,"is_disabled":true,"rental_uris":{"android":"levelo://app?vid=8fc5825c-4528-4452-9009-27be708f6675","ios":"levelo://app?vid=8fc5825c-4528-4452-9009-27be708f6675"},"vehicle_type_id":"4","last_reported":1740643960,"current_range_meters":2000,"station_id":"ce4bhnp2rcd13ifvqgvg","pricing_plan_id":"cebpf4jnsgd1na2vs0mg"},{"bike_id":"b74f3b1a-922c-4535-a57a-990a90756f4f","system_id":"levelo_inurba_marseille","lat":43.24071,"lon":5.37754,"is_reserved":false,"is_disabled":true,"rental_uris":{"android":"levelo://app?vid=b74f3b1a-922c-4535-a57a-990a90756f4f","ios":"levelo://app?vid=b74f3b1a-922c-4535-a57a-990a90756f4f"},"vehicle_type_id":"4","last_reported":1740643960,"current_range_meters":2000,"station_id":"ce4bhnp2rcd13ifvqgvg","pricing_plan_id":"cebpf4jnsgd1na2vs0mg"},{"bike_id":"a1879da5-9e75-4549-8cce-fa10e10e4d66","system_id":"levelo_inurba_marseille","lat":43.32329,"lon":5.40798,"is_reserved":false,"is_disabled":false,"rental_uris":{"android":"levelo://app?vid=a1879da5-9e75-4549-8cce-fa10e10e4d66","ios":"levelo://app?vid=a1879da5-9e75-4549-8cce-fa10e10e4d66"},"vehicle_type_id":"4","last_reported":1740643960,"current_range_meters":2800,"station_id":"","pricing_plan_id":"cebpf4jnsgd1na2vs0mg"},{"bike_id":"0126918d-c894-403a-9f80-16ba35e15fd1","system_id":"levelo_inurba_marseille","lat":43.2991,"lon":5.38146,"is_reserved":false,"is_disabled":true,"rental_uris":{"android":"levelo://app?vid=0126918d-c894-403a-9f80-16ba35e15fd1","ios":"levelo://app?vid=0126918d-c894-403a-9f80-16ba35e15fd1"},"vehicle_type_id":"4","last_reported":1740643960,"current_range_meters":2800,"station_id":"ce4bgj12rcd13ifvqbc0","pricing_plan_id":"cebpf4jnsgd1na2vs0mg"},{"bike_id":"e528cd20-f255-450b-99b3-5d9d7376f8a6","system_id":"levelo_inurba_marseille","lat":43.24643,"lon":5.38891,"is_reserved":false,"is_disabled":false,"rental_uris":{"android":"levelo://app?vid=e528cd20-f255-450b-99b3-5d9d7376f8a6","ios":"levelo://app?vid=e528cd20-f255-450b-99b3-5d9d7376f8a6"},"vehicle_type_id":"4","last_reported":1740643960,"current_range_meters":2800,"station_id":"ce4bhg12rcd13ifvqf60","pricing_plan_id":"cebpf4jnsgd1na2vs0mg"},{"bike_id":"77d72656-ec37-44f1-ab2b-c05ee9e3e3e9","system_id":"levelo_inurba_marseille","lat":43.29267,"lon":5.37599,"is_reserved":false,"is_disabled":false,"rental_uris":{"android":"levelo://app?vid=77d72656-ec37-44f1-ab2b-c05ee9e3e3e9","ios":"levelo://app?vid=77d72656-ec37-44f1-ab2b-c05ee9e3e3e9"},"vehicle_type_id":"4","last_reported":1740643960,"current_range_meters":3200,"station_id":"ce4bgi12rcd13ifvqb80","pricing_plan_id":"cebpf4jnsgd1na2vs0mg"},{"bike_id":"26f59472-0ab2-4e36-ba1c-28ed8253e740","system_id":"levelo_inurba_marseille","lat":43.27498,"lon":5.42467,"is_reserved":false,"is_disabled":false,"rental_uris":{"android":"levelo://app?vid=26f59472-0ab2-4e36-ba1c-28ed8253e740","ios":"levelo://app?vid=26f59472-0ab2-4e36-ba1c-28ed8253e740"},"vehicle_type_id":"4","last_reported":1740643960,"current_range_meters":3200,"station_id":"ce4bhn92rcd13ifvqgrg","pricing_plan_id":"cebpf4jnsgd1na2vs0mg"},{"bike_id":"42f871f8-18c0-4a1c-9a68-89c4fc0cfcf4","system_id":"levelo_inurba_marseille","lat":43.28121,"lon":5.41222,"is_reserved":false,"is_disabled":false,"rental_uris":{"android":"levelo://app?vid=42f871f8-18c0-4a1c-9a68-89c4fc0cfcf4","ios":"levelo://app?vid=42f871f8-18c0-4a1c-9a68-89c4fc0cfcf4"},"vehicle_type_id":"4","last_reported":1740643960,"current_range_meters":3600,"station_id":"","pricing_plan_id":"cebpf4jnsgd1na2vs0mg"},{"bike_id":"d6f2517a-d7cb-4654-8976-90e0e6d3745a","system_id":"levelo_inurba_marseille","lat":43.30961,"lon":5.39031,"is_reserved":false,"is_disabled":false,"rental_uris":{"android":"levelo://app?vid=d6f2517a-d7cb-4654-8976-90e0e6d3745a","ios":"levelo://app?vid=d6f2517a-d7cb-4654-8976-90e0e6d3745a"},"vehicle_type_id":"4","last_reported":1740643960,"current_range_meters":3600,"station_id":"ce4bgup2rcd13ifvqco0","pricing_plan_id":"cebpf4jnsgd1na2vs0mg"},{"bike_id":"a2471654-b844-4806-bd45-c2c5b9bd290a","system_id":"levelo_inurba_marseille","lat":43.28984,"lon":5.37832,"is_reserved":false,"is_disabled":false,"rental_uris":{"android":"levelo://app?vid=a2471654-b844-4806-bd45-c2c5b9bd290a","ios":"levelo://app?vid=a2471654-b844-4806-bd45-c2c5b9bd290a"},"vehicle_type_id":"4","last_reported":1740643960,"current_range_meters":3600,"station_id":"ce4bh9p2rcd13ifvqed0","pricing_plan_id":"cebpf4jnsgd1na2vs0mg"},{"bike_id":"66fbe46a-601e-43db-abc8-01c6a5763a4b","system_id":"levelo_inurba_marseille","lat":43.25114,"lon":5.40333,"is_reserved":false,"is_disabled":false,"rental_uris":{"android":"levelo://app?vid=66fbe46a-601e-43db-abc8-01c6a5763a4b","ios":"levelo://app?vid=66fbe46a-601e-43db-abc8-01c6a5763a4b"},"vehicle_type_id":"4","last_reported":1740643960,"current_range_meters":3600,"station_id":"ce4bhlh2rcd13ifvqgig","pricing_plan_id":"cebpf4jnsgd1na2vs0mg"},{"bike_id":"0dcc0352-3717-4f22-a65a-a320d0beaf65","system_id":"levelo_inurba_marseille","lat":43.26925,"lon":5.40297,"is_reserved":false,"is_disabled":false,"rental_uris":{"android":"levelo://app?vid=0dcc0352-3717-4f22-a65a-a320d0beaf65","ios":"levelo://app?vid=0dcc0352-3717-4f22-a65a-a320d0beaf65"},"vehicle_type_id":"4","last_reported":1740643960,"current_range_meters":3600,"station_id":"cjm6bp8fraef2m0cb0m0","pricing_plan_id":"cebpf4jnsgd1na2vs0mg"},{"bike_id":"671fb837-dc6f-4929-85ca-be029595b002","system_id":"levelo_inurba_marseille","lat":43.26567,"lon":5.37282,"is_reserved":false,"is_disabled":false,"rental_uris":{"android":"levelo://app?vid=671fb837-dc6f-4929-85ca-be029595b002","ios":"levelo://app?vid=671fb837-dc6f-4929-85ca-be029595b002"},"vehicle_type_id":"4","last_reported":1740643960,"current_range_meters":4000,"station_id":"ce4bhg12rcd13ifvqf70","pricing_plan_id":"cebpf4jnsgd1na2vs0mg"},{"bike_id":"2fe276d9-1fc2-4080-b6f8-d139dc20be6e","system_id":"levelo_inurba_marseille","lat":43.24182,"lon":5.3973,"is_reserved":false,"is_disabled":false,"rental_uris":{"android":"levelo://app?vid=2fe276d9-1fc2-4080-b6f8-d139dc20be6e","ios":"levelo://app?vid=2fe276d9-1fc2-4080-b6f8-d139dc20be6e"},"vehicle_type_id":"4","last_reported":1740643960,"current_range_meters":4000,"station_id":"ce4bhn12rcd13ifvqgpg","pricing_plan_id":"cebpf4jnsgd1na2vs0mg"},{"bike_id":"590fd91f-447d-49fc-a9a5-5d0d81b4c6be","system_id":"levelo_inurba_marseille","lat":43.24081,"lon":5.3773,"is_reserved":false,"is_disabled":false,"rental_uris":{"android":"levelo://app?vid=590fd91f-447d-49fc-a9a5-5d0d81b4c6be","ios":"levelo://app?vid=590fd91f-447d-49fc-a9a5-5d0d81b4c6be"},"vehicle_type_id":"4","last_reported":1740643960,"current_range_meters":4000,"station_id":"ce4bhnp2rcd13ifvqgvg","pricing_plan_id":"cebpf4jnsgd1na2vs0mg"},{"bike_id":"b191c7be-59d7-47d1-8534-d99b88ff45f1","system_id":"levelo_inurba_marseille","lat":43.30137,"lon":5.38802,"is_reserved":false,"is_disabled":false,"rental_uris":{"android":"levelo://app?vid=b191c7be-59d7-47d1-8534-d99b88ff45f1","ios":"levelo://app?vid=b191c7be-59d7-47d1-8534-d99b88ff45f1"},"vehicle_type_id":"4","last_reported":1740643960,"current_range_meters":4400,"station_id":"ce4bghh2rcd13ifvqb60","pricing_plan_id":"cebpf4jnsgd1na2vs0mg"},{"bike_id":"8feacef8-9c4a-4ffc-884e-dad5414314ed","system_id":"levelo_inurba_marseille","lat":43.30136,"lon":5.39909,"is_reserved":false,"is_disabled":false,"rental_uris":{"android":"levelo://app?vid=8feacef8-9c4a-4ffc-884e-dad5414314ed","ios":"levelo://app?vid=8feacef8-9c4a-4ffc-884e-dad5414314ed"},"vehicle_type_id":"4","last_reported":1740643960,"current_range_meters":4400,"station_id":"ce4bh0h2rcd13ifvqd40","pricing_plan_id":"cebpf4jnsgd1na2vs0mg"},{"bike_id":"b5368874-e19e-4e33-8e44-b3ac25e43af6","system_id":"levelo_inurba_marseille","lat":43.31314,"lon":5.37082,"is_reserved":false,"is_disabled":false,"rental_uris":{"android":"levelo://app?vid=b5368874-e19e-4e33-8e44-b3ac25e43af6","ios":"levelo://app?vid=b5368874-e19e-4e33-8e44-b3ac25e43af6"},"vehicle_type_id":"4","last_reported":1740643960,"current_range_meters":4800,"station_id":"","pricing_plan_id":"cebpf4jnsgd1na2vs0mg"},{"bike_id":"8b77da35-3145-4c33-be84-75dbb6cad8a6","system_id":"levelo_inurba_marseille","lat":43.26957,"lon":5.38637,"is_reserved":false,"is_disabled":false,"rental_uris":{"android":"levelo://app?vid=8b77da35-3145-4c33-be84-75dbb6cad8a6","ios":"levelo://app?vid=8b77da35-3145-4c33-be84-75dbb6cad8a6"},"vehicle_type_id":"4","last_reported":1740643960,"current_range_meters":4800,"station_id":"ce4bhh92rcd13ifvqfh0","pricing_plan_id":"cebpf4jnsgd1na2vs0mg"},{"bike_id":"8eab1cbe-1522-4ed4-962b-f7b632ef97e2","system_id":"levelo_inurba_marseille","lat":43.30187,"lon":5.38069,"is_reserved":false,"is_disabled":false,"rental_uris":{"android":"levelo://app?vid=8eab1cbe-1522-4ed4-962b-f7b632ef97e2","ios":"levelo://app?vid=8eab1cbe-1522-4ed4-962b-f7b632ef97e2"},"vehicle_type_id":"4","last_reported":1740643960,"current_range_meters":5600,"station_id":"","pricing_plan_id":"cebpf4jnsgd1na2vs0mg"},{"bike_id":"68db716c-6572-40ea-b079-987ee4623b4d","system_id":"levelo_inurba_marseille","lat":43.26868,"lon":5.40969,"is_reserved":false,"is_disabled":false,"rental_uris":{"android":"levelo://app?vid=68db716c-6572-40ea-b079-987ee4623b4d","ios":"levelo://app?vid=68db716c-6572-40ea-b079-987ee4623b4d"},"vehicle_type_id":"4","last_reported":1740643960,"current_range_meters":5600,"station_id":"","pricing_plan_id":"cebpf4jnsgd1na2vs0mg"},{"bike_id":"b8f922ce-6062-4679-a034-97e43d216e79","system_id":"levelo_inurba_marseille","lat":43.30915,"lon":5.36839,"is_reserved":false,"is_disabled":false,"rental_uris":{"android":"levelo://app?vid=b8f922ce-6062-4679-a034-97e43d216e79","ios":"levelo://app?vid=b8f922ce-6062-4679-a034-97e43d216e79"},"vehicle_type_id":"4","last_reported":1740643960,"current_range_meters":5600,"station_id":"ce4bgn92rcd13ifvqbvg","pricing_plan_id":"cebpf4jnsgd1na2vs0mg"},{"bike_id":"97de9012-c4e9-4c1f-ab41-3205dbcf4e8b","system_id":"levelo_inurba_marseille","lat":43.29067,"lon":5.37715,"is_reserved":false,"is_disabled":false,"rental_uris":{"android":"levelo://app?vid=97de9012-c4e9-4c1f-ab41-3205dbcf4e8b","ios":"levelo://app?vid=97de9012-c4e9-4c1f-ab41-3205dbcf4e8b"},"vehicle_type_id":"4","last_reported":1740643960,"current_range_meters":5600,"station_id":"ce4bh9p2rcd13ifvqed0","pricing_plan_id":"cebpf4jnsgd1na2vs0mg"},{"bike_id":"70fa00c4-be33-4417-aecc-15176e05bec9","system_id":"levelo_inurba_marseille","lat":43.28456,"lon":5.35895,"is_reserved":false,"is_disabled":false,"rental_uris":{"android":"levelo://app?vid=70fa00c4-be33-4417-aecc-15176e05bec9","ios":"levelo://app?vid=70fa00c4-be33-4417-aecc-15176e05bec9"},"vehicle_type_id":"4","last_reported":1740643960,"current_range_meters":5600,"station_id":"ce4bhah2rcd13ifvqei0","pricing_plan_id":"cebpf4jnsgd1na2vs0mg"},{"bike_id":"f1faf2fc-57a1-41df-872d-9e9db2db7ea2","system_id":"levelo_inurba_marseille","lat":43.27818,"lon":5.40712,"is_reserved":false,"is_disabled":false,"rental_uris":{"android":"levelo://app?vid=f1faf2fc-57a1-41df-872d-9e9db2db7ea2","ios":"levelo://app?vid=f1faf2fc-57a1-41df-872d-9e9db2db7ea2"},"vehicle_type_id":"4","last_reported":1740643960,"current_range_meters":5600,"station_id":"ce4bhnh2rcd13ifvqgtg","pricing_plan_id":"cebpf4jnsgd1na2vs0mg"},{"bike_id":"cc65f0f1-c134-42fb-b4a2-84e0fa2d66f3","system_id":"levelo_inurba_marseille","lat":43.29572,"lon":5.37528,"is_reserved":false,"is_disabled":false,"rental_uris":{"android":"levelo://app?vid=cc65f0f1-c134-42fb-b4a2-84e0fa2d66f3","ios":"levelo://app?vid=cc65f0f1-c134-42fb-b4a2-84e0fa2d66f3"},"vehicle_type_id":"4","last_reported":1740643960,"current_range_meters":6000,"station_id":"ce4bgh92rcd13ifvqb50","pricing_plan_id":"cebpf4jnsgd1na2vs0mg"},{"bike_id":"0a76ef27-703f-4597-a05c-3fe305952571","system_id":"levelo_inurba_marseille","lat":43.30152,"lon":5.39854,"is_reserved":false,"is_disabled":false,"rental_uris":{"android":"levelo://app?vid=0a76ef27-703f-4597-a05c-3fe305952571","ios":"levelo://app?vid=0a76ef27-703f-4597-a05c-3fe305952571"},"vehicle_type_id":"4","last_reported":1740643960,"current_range_meters":6000,"station_id":"ce4bh0h2rcd13ifvqd40","pricing_plan_id":"cebpf4jnsgd1na2vs0mg"},{"bike_id":"64d1dcdb-2974-4aea-a074-f7aa761c6db6","system_id":"levelo_inurba_marseille","lat":43.25085,"lon":5.4108,"is_reserved":false,"is_disabled":false,"rental_uris":{"android":"levelo://app?vid=64d1dcdb-2974-4aea-a074-f7aa761c6db6","ios":"levelo://app?vid=64d1dcdb-2974-4aea-a074-f7aa761c6db6"},"vehicle_type_id":"4","last_reported":1740643960,"current_range_meters":6400,"station_id":"","pricing_plan_id":"cebpf4jnsgd1na2vs0mg"},{"bike_id":"8f4f5c61-91cc-4fd5-85ad-d5b23eff483d","system_id":"levelo_inurba_marseille","lat":43.29847,"lon":5.36289,"is_reserved":false,"is_disabled":false,"rental_uris":{"android":"levelo://app?vid=8f4f5c61-91cc-4fd5-85ad-d5b23eff483d","ios":"levelo://app?vid=8f4f5c61-91cc-4fd5-85ad-d5b23eff483d"},"vehicle_type_id":"4","last_reported":1740643960,"current_range_meters":6400,"station_id":"ce4bgpp2rcd13ifvqc3g","pricing_plan_id":"cebpf4jnsgd1na2vs0mg"},{"bike_id":"50a7fa34-b628-492b-acdb-6900c61b8237","system_id":"levelo_inurba_marseille","lat":43.3095,"lon":5.39046,"is_reserved":false,"is_disabled":false,"rental_uris":{"android":"levelo://app?vid=50a7fa34-b628-492b-acdb-6900c61b8237","ios":"levelo://app?vid=50a7fa34-b628-492b-acdb-6900c61b8237"},"vehicle_type_id":"4","last_reported":1740643960,"current_range_meters":6400,"station_id":"ce4bgup2rcd13ifvqco0","pricing_plan_id":"cebpf4jnsgd1na2vs0mg"},{"bike_id":"aea01dfa-58d9-4833-a72f-a47d99c03c48","system_id":"levelo_inurba_marseille","lat":43.26794,"lon":5.39412,"is_reserved":false,"is_disabled":false,"rental_uris":{"android":"levelo://app?vid=aea01dfa-58d9-4833-a72f-a47d99c03c48","ios":"levelo://app?vid=aea01dfa-58d9-4833-a72f-a47d99c03c48"},"vehicle_type_id":"4","last_reported":1740643960,"current_range_meters":6400,"station_id":"ce4bhh12rcd13ifvqfg0","pricing_plan_id":"cebpf4jnsgd1na2vs0mg"},{"bike_id":"8aefae3d-8df9-4738-afa0-b68595c80fcb","system_id":"levelo_inurba_marseille","lat":43.24039,"lon":5.37734,"is_reserved":false,"is_disabled":false,"rental_uris":{"android":"levelo://app?vid=8aefae3d-8df9-4738-afa0-b68595c80fcb","ios":"levelo://app?vid=8aefae3d-8df9-4738-afa0-b68595c80fcb"},"vehicle_type_id":"4","last_reported":1740643960,"current_range_meters":6400,"station_id":"ce4bhnp2rcd13ifvqgvg","pricing_plan_id":"cebpf4jnsgd1na2vs0mg"},{"bike_id":"4d472430-f798-4d66-a15e-a2aa6ed57ca5","system_id":"levelo_inurba_marseille","lat":43.30945,"lon":5.39032,"is_reserved":false,"is_disabled":false,"rental_uris":{"android":"levelo://app?vid=4d472430-f798-4d66-a15e-a2aa6ed57ca5","ios":"levelo://app?vid=4d472430-f798-4d66-a15e-a2aa6ed57ca5"},"vehicle_type_id":"4","last_reported":1740643960,"current_range_meters":6800,"station_id":"ce4bgup2rcd13ifvqco0","pricing_plan_id":"cebpf4jnsgd1na2vs0mg"},{"bike_id":"c3cc0010-30de-4fa5-b8ea-235932ab4e5d","system_id":"levelo_inurba_marseille","lat":43.27449,"lon":5.39426,"is_reserved":false,"is_disabled":false,"rental_uris":{"android":"levelo://app?vid=c3cc0010-30de-4fa5-b8ea-235932ab4e5d","ios":"levelo://app?vid=c3cc0010-30de-4fa5-b8ea-235932ab4e5d"},"vehicle_type_id":"4","last_reported":1740643960,"current_range_meters":6800,"station_id":"ce4bhdp2rcd13ifvqf20","pricing_plan_id":"cebpf4jnsgd1na2vs0mg"},{"bike_id":"32545551-9f8e-4a9b-b7f1-c4ec1daecff6","system_id":"levelo_inurba_marseille","lat":43.25024,"lon":5.38947,"is_reserved":false,"is_disabled":false,"rental_uris":{"android":"levelo://app?vid=32545551-9f8e-4a9b-b7f1-c4ec1daecff6","ios":"levelo://app?vid=32545551-9f8e-4a9b-b7f1-c4ec1daecff6"},"vehicle_type_id":"4","last_reported":1740643960,"current_range_meters":6800,"station_id":"ce4bhgp2rcd13ifvqfd0","pricing_plan_id":"cebpf4jnsgd1na2vs0mg"},{"bike_id":"0d9fff21-6d6d-4df8-bdae-baf4fa12e6b7","system_id":"levelo_inurba_marseille","lat":43.24389,"lon":5.37058,"is_reserved":false,"is_disabled":false,"rental_uris":{"android":"levelo://app?vid=0d9fff21-6d6d-4df8-bdae-baf4fa12e6b7","ios":"levelo://app?vid=0d9fff21-6d6d-4df8-bdae-baf4fa12e6b7"},"vehicle_type_id":"4","last_reported":1740643960,"current_range_meters":6800,"station_id":"ce4bhhh2rcd13ifvqfk0","pricing_plan_id":"cebpf4jnsgd1na2vs0mg"},{"bike_id":"cad6f757-1c5d-4533-aa5b-f245a029ce60","system_id":"levelo_inurba_marseille","lat":43.31708,"lon":5.43715,"is_reserved":false,"is_disabled":false,"rental_uris":{"android":"levelo://app?vid=cad6f757-1c5d-4533-aa5b-f245a029ce60","ios":"levelo://app?vid=cad6f757-1c5d-4533-aa5b-f245a029ce60"},"vehicle_type_id":"4","last_reported":1740643960,"current_range_meters":6800,"station_id":"ce4bhp92rcd13ifvqhcg","pricing_plan_id":"cebpf4jnsgd1na2vs0mg"},{"bike_id":"93ef41ab-6ea5-4ecf-bbc9-47eb29a30277","system_id":"levelo_inurba_marseille","lat":43.33608,"lon":5.41015,"is_reserved":false,"is_disabled":false,"rental_uris":{"android":"levelo://app?vid=93ef41ab-6ea5-4ecf-bbc9-47eb29a30277","ios":"levelo://app?vid=93ef41ab-6ea5-4ecf-bbc9-47eb29a30277"},"vehicle_type_id":"4","last_reported":1740643960,"current_range_meters":6800,"station_id":"ce4bhqh2rcd13ifvqhmg","pricing_plan_id":"cebpf4jnsgd1na2vs0mg"},{"bike_id":"347471e0-c6c5-45b9-8c90-15cfbce09405","system_id":"levelo_inurba_marseille","lat":43.309185,"lon":5.368517,"is_reserved":false,"is_disabled":false,"rental_uris":{"android":"levelo://app?vid=347471e0-c6c5-45b9-8c90-15cfbce09405","ios":"levelo://app?vid=347471e0-c6c5-45b9-8c90-15cfbce09405"},"vehicle_type_id":"4","last_reported":1740643960,"current_range_meters":7200,"station_id":"ce4bgn92rcd13ifvqbvg","pricing_plan_id":"cebpf4jnsgd1na2vs0mg"},{"bike_id":"f64b50fd-c0d3-4766-aa8c-920c7166ef73","system_id":"levelo_inurba_marseille","lat":43.31372,"lon":5.36698,"is_reserved":false,"is_disabled":false,"rental_uris":{"android":"levelo://app?vid=f64b50fd-c0d3-4766-aa8c-920c7166ef73","ios":"levelo://app?vid=f64b50fd-c0d3-4766-aa8c-920c7166ef73"},"vehicle_type_id":"4","last_reported":1740643960,"current_range_meters":7200,"station_id":"ce4bgr92rcd13ifvqc6g","pricing_plan_id":"cebpf4jnsgd1na2vs0mg"},{"bike_id":"56f71a77-b79b-4f75-b3b0-82cc5b65ca0b","system_id":"levelo_inurba_marseille","lat":43.2894,"lon":5.36635,"is_reserved":false,"is_disabled":false,"rental_uris":{"android":"levelo://app?vid=56f71a77-b79b-4f75-b3b0-82cc5b65ca0b","ios":"levelo://app?vid=56f71a77-b79b-4f75-b3b0-82cc5b65ca0b"},"vehicle_type_id":"4","last_reported":1740643960,"current_range_meters":7200,"station_id":"ce4bhap2rcd13ifvqek0","pricing_plan_id":"cebpf4jnsgd1na2vs0mg"},{"bike_id":"b0e2d516-c387-43ec-bccd-1bf33aa90f24","system_id":"levelo_inurba_marseille","lat":43.29229,"lon":5.36078,"is_reserved":false,"is_disabled":false,"rental_uris":{"android":"levelo://app?vid=b0e2d516-c387-43ec-bccd-1bf33aa90f24","ios":"levelo://app?vid=b0e2d516-c387-43ec-bccd-1bf33aa90f24"},"vehicle_type_id":"4","last_reported":1740643960,"current_range_meters":7200,"station_id":"ce4bhbh2rcd13ifvqeqg","pricing_plan_id":"cebpf4jnsgd1na2vs0mg"},{"bike_id":"14046264-07f4-483f-86f5-50db7913a349","system_id":"levelo_inurba_marseille","lat":43.28926,"lon":5.36399,"is_reserved":false,"is_disabled":false,"rental_uris":{"android":"levelo://app?vid=14046264-07f4-483f-86f5-50db7913a349","ios":"levelo://app?vid=14046264-07f4-483f-86f5-50db7913a349"},"vehicle_type_id":"4","last_reported":1740643960,"current_range_meters":7200,"station_id":"ce4bhc92rcd13ifvqetg","pricing_plan_id":"cebpf4jnsgd1na2vs0mg"},{"bike_id":"f6cd5296-8796-4d18-a7a6-56945f8da21a","system_id":"levelo_inurba_marseille","lat":43.26573,"lon":5.37283,"is_reserved":false,"is_disabled":false,"rental_uris":{"android":"levelo://app?vid=f6cd5296-8796-4d18-a7a6-56945f8da21a","ios":"levelo://app?vid=f6cd5296-8796-4d18-a7a6-56945f8da21a"},"vehicle_type_id":"4","last_reported":1740643960,"current_range_meters":7200,"station_id":"ce4bhg12rcd13ifvqf70","pricing_plan_id":"cebpf4jnsgd1na2vs0mg"},{"bike_id":"4f8a9d79-53af-423b-80f2-a9547013fb71","system_id":"levelo_inurba_marseille","lat":43.25936,"lon":5.40907,"is_reserved":false,"is_disabled":false,"rental_uris":{"android":"levelo://app?vid=4f8a9d79-53af-423b-80f2-a9547013fb71","ios":"levelo://app?vid=4f8a9d79-53af-423b-80f2-a9547013fb71"},"vehicle_type_id":"4","last_reported":1740643960,"current_range_meters":7200,"station_id":"ce4bhm92rcd13ifvqglg","pricing_plan_id":"cebpf4jnsgd1na2vs0mg"},{"bike_id":"3c22e421-6443-45e7-8f7d-9fe4ff96cfe5","system_id":"levelo_inurba_marseille","lat":43.29854,"lon":5.36278,"is_reserved":false,"is_disabled":false,"rental_uris":{"android":"levelo://app?vid=3c22e421-6443-45e7-8f7d-9fe4ff96cfe5","ios":"levelo://app?vid=3c22e421-6443-45e7-8f7d-9fe4ff96cfe5"},"vehicle_type_id":"4","last_reported":1740643960,"current_range_meters":8000,"station_id":"ce4bgpp2rcd13ifvqc3g","pricing_plan_id":"cebpf4jnsgd1na2vs0mg"},{"bike_id":"e3598939-2b97-43e6-9610-d009dd5cf8f1","system_id":"levelo_inurba_marseille","lat":43.3032,"lon":5.36895,"is_reserved":false,"is_disabled":false,"rental_uris":{"android":"levelo://app?vid=e3598939-2b97-43e6-9610-d009dd5cf8f1","ios":"levelo://app?vid=e3598939-2b97-43e6-9610-d009dd5cf8f1"},"vehicle_type_id":"4","last_reported":1740643960,"current_range_meters":8000,"station_id":"ce4bgqh2rcd13ifvqc5g","pricing_plan_id":"cebpf4jnsgd1na2vs0mg"},{"bike_id":"7c62469b-5202-49e6-bba3-f619a26dfa9a","system_id":"levelo_inurba_marseille","lat":43.30549,"lon":5.36718,"is_reserved":false,"is_disabled":false,"rental_uris":{"android":"levelo://app?vid=7c62469b-5202-49e6-bba3-f619a26dfa9a","ios":"levelo://app?vid=7c62469b-5202-49e6-bba3-f619a26dfa9a"},"vehicle_type_id":"4","last_reported":1740643960,"current_range_meters":8000,"station_id":"ce4bgrp2rcd13ifvqc9g","pricing_plan_id":"cebpf4jnsgd1na2vs0mg"},{"bike_id":"6044a9b8-af6a-4f20-9667-936d28d49500","system_id":"levelo_inurba_marseille","lat":43.27964,"lon":5.38735,"is_reserved":false,"is_disabled":false,"rental_uris":{"android":"levelo://app?vid=6044a9b8-af6a-4f20-9667-936d28d49500","ios":"levelo://app?vid=6044a9b8-af6a-4f20-9667-936d28d49500"},"vehicle_type_id":"4","last_reported":1740643960,"current_range_meters":8000,"station_id":"ce4bhg12rcd13ifvqf80","pricing_plan_id":"cebpf4jnsgd1na2vs0mg"},{"bike_id":"cd24ac23-d617-45a9-8d26-0e2f188d9d4a","system_id":"levelo_inurba_marseille","lat":43.30549,"lon":5.36553,"is_reserved":false,"is_disabled":false,"rental_uris":{"android":"levelo://app?vid=cd24ac23-d617-45a9-8d26-0e2f188d9d4a","ios":"levelo://app?vid=cd24ac23-d617-45a9-8d26-0e2f188d9d4a"},"vehicle_type_id":"4","last_reported":1740643960,"current_range_meters":8400,"station_id":"ce4bgs12rcd13ifvqcag","pricing_plan_id":"cebpf4jnsgd1na2vs0mg"},{"bike_id":"016677d5-73fa-4b9c-819d-b10927eb5aa6","system_id":"levelo_inurba_marseille","lat":43.3048,"lon":5.37907,"is_reserved":false,"is_disabled":false,"rental_uris":{"android":"levelo://app?vid=016677d5-73fa-4b9c-819d-b10927eb5aa6","ios":"levelo://app?vid=016677d5-73fa-4b9c-819d-b10927eb5aa6"},"vehicle_type_id":"4","last_reported":1740643960,"current_range_meters":8400,"station_id":"ce4bgup2rcd13ifvqcn0","pricing_plan_id":"cebpf4jnsgd1na2vs0mg"},{"bike_id":"c3b99a94-f646-4cee-813c-169f6b62ae5c","system_id":"levelo_inurba_marseille","lat":43.31692,"lon":5.4049,"is_reserved":false,"is_disabled":false,"rental_uris":{"android":"levelo://app?vid=c3b99a94-f646-4cee-813c-169f6b62ae5c","ios":"levelo://app?vid=c3b99a94-f646-4cee-813c-169f6b62ae5c"},"vehicle_type_id":"4","last_reported":1740643960,"current_range_meters":8400,"station_id":"ce4bh012rcd13ifvqd00","pricing_plan_id":"cebpf4jnsgd1na2vs0mg"},{"bike_id":"284a0e7b-046c-4a6a-972f-6192daeb9a55","system_id":"levelo_inurba_marseille","lat":43.29515,"lon":5.39413,"is_reserved":false,"is_disabled":false,"rental_uris":{"android":"levelo://app?vid=284a0e7b-046c-4a6a-972f-6192daeb9a55","ios":"levelo://app?vid=284a0e7b-046c-4a6a-972f-6192daeb9a55"},"vehicle_type_id":"4","last_reported":1740643960,"current_range_meters":8400,"station_id":"ce4bh292rcd13ifvqdf0","pricing_plan_id":"cebpf4jnsgd1na2vs0mg"},{"bike_id":"26d1edd1-2a52-428c-b2a6-7dd75e71037c","system_id":"levelo_inurba_marseille","lat":43.28619,"lon":5.35113,"is_reserved":false,"is_disabled":false,"rental_uris":{"android":"levelo://app?vid=26d1edd1-2a52-428c-b2a6-7dd75e71037c","ios":"levelo://app?vid=26d1edd1-2a52-428c-b2a6-7dd75e71037c"},"vehicle_type_id":"4","last_reported":1740643960,"current_range_meters":8400,"station_id":"ce4bhch2rcd13ifvqeug","pricing_plan_id":"cebpf4jnsgd1na2vs0mg"},{"bike_id":"1e37517c-7c13-497e-93a6-2c0209fd3d04","system_id":"levelo_inurba_marseille","lat":43.2862,"lon":5.35106,"is_reserved":false,"is_disabled":false,"rental_uris":{"android":"levelo://app?vid=1e37517c-7c13-497e-93a6-2c0209fd3d04","ios":"levelo://app?vid=1e37517c-7c13-497e-93a6-2c0209fd3d04"},"vehicle_type_id":"4","last_reported":1740643960,"current_range_meters":8400,"station_id":"ce4bhch2rcd13ifvqeug","pricing_plan_id":"cebpf4jnsgd1na2vs0mg"},{"bike_id":"d3aeeb92-b7ef-4040-9829-a7339e685d8d","system_id":"levelo_inurba_marseille","lat":43.27375,"lon":5.39067,"is_reserved":false,"is_disabled":false,"rental_uris":{"android":"levelo://app?vid=d3aeeb92-b7ef-4040-9829-a7339e685d8d","ios":"levelo://app?vid=d3aeeb92-b7ef-4040-9829-a7339e685d8d"},"vehicle_type_id":"4","last_reported":1740643960,"current_range_meters":8400,"station_id":"ce4bhgp2rcd13ifvqfe0","pricing_plan_id":"cebpf4jnsgd1na2vs0mg"},{"bike_id":"cc5b8803-1413-4f2d-912e-42c063433ae4","system_id":"levelo_inurba_marseille","lat":43.321062,"lon":5.367694,"is_reserved":false,"is_disabled":false,"rental_uris":{"android":"levelo://app?vid=cc5b8803-1413-4f2d-912e-42c063433ae4","ios":"levelo://app?vid=cc5b8803-1413-4f2d-912e-42c063433ae4"},"vehicle_type_id":"4","last_reported":1740643960,"current_range_meters":8400,"station_id":"ce4bhrh2rcd13ifvqhug","pricing_plan_id":"cebpf4jnsgd1na2vs0mg"},{"bike_id":"e19f7dab-e7ec-4a64-957b-25d1ae9239da","system_id":"levelo_inurba_marseille","lat":43.29559,"lon":5.38151,"is_reserved":false,"is_disabled":false,"rental_uris":{"android":"levelo://app?vid=e19f7dab-e7ec-4a64-957b-25d1ae9239da","ios":"levelo://app?vid=e19f7dab-e7ec-4a64-957b-25d1ae9239da"},"vehicle_type_id":"4","last_reported":1740643960,"current_range_meters":8800,"station_id":"","pricing_plan_id":"cebpf4jnsgd1na2vs0mg"},{"bike_id":"afdf7256-e945-468a-866b-14648fba4265","system_id":"levelo_inurba_marseille","lat":43.29315,"lon":5.37162,"is_reserved":false,"is_disabled":false,"rental_uris":{"android":"levelo://app?vid=afdf7256-e945-468a-866b-14648fba4265","ios":"levelo://app?vid=afdf7256-e945-468a-866b-14648fba4265"},"vehicle_type_id":"4","last_reported":1740643960,"current_range_meters":8800,"station_id":"ce4bgh92rcd13ifvqb40","pricing_plan_id":"cebpf4jnsgd1na2vs0mg"},{"bike_id":"f1794ca8-1264-4b91-a167-7ad42e45d486","system_id":"levelo_inurba_marseille","lat":43.30292,"lon":5.36876,"is_reserved":false,"is_disabled":false,"rental_uris":{"android":"levelo://app?vid=f1794ca8-1264-4b91-a167-7ad42e45d486","ios":"levelo://app?vid=f1794ca8-1264-4b91-a167-7ad42e45d486"},"vehicle_type_id":"4","last_reported":1740643960,"current_range_meters":8800,"station_id":"ce4bgqh2rcd13ifvqc5g","pricing_plan_id":"cebpf4jnsgd1na2vs0mg"},{"bike_id":"0844a524-fe27-4a49-aa65-2c2742fd552e","system_id":"levelo_inurba_marseille","lat":43.31384,"lon":5.36674,"is_reserved":false,"is_disabled":false,"rental_uris":{"android":"levelo://app?vid=0844a524-fe27-4a49-aa65-2c2742fd552e","ios":"levelo://app?vid=0844a524-fe27-4a49-aa65-2c2742fd552e"},"vehicle_type_id":"4","last_reported":1740643960,"current_range_meters":8800,"station_id":"ce4bgr92rcd13ifvqc6g","pricing_plan_id":"cebpf4jnsgd1na2vs0mg"},{"bike_id":"4c573859-c879-4dd9-b3bf-1356046b34b8","system_id":"levelo_inurba_marseille","lat":43.29983,"lon":5.37186,"is_reserved":false,"is_disabled":false,"rental_uris":{"android":"levelo://app?vid=4c573859-c879-4dd9-b3bf-1356046b34b8","ios":"levelo://app?vid=4c573859-c879-4dd9-b3bf-1356046b34b8"},"vehicle_type_id":"4","last_reported":1740643960,"current_range_meters":8800,"station_id":"ce4bgr92rcd13ifvqc7g","pricing_plan_id":"cebpf4jnsgd1na2vs0mg"},{"bike_id":"a8d45914-f203-4521-9494-485516e3e5eb","system_id":"levelo_inurba_marseille","lat":43.30124,"lon":5.39882,"is_reserved":false,"is_disabled":false,"rental_uris":{"android":"levelo://app?vid=a8d45914-f203-4521-9494-485516e3e5eb","ios":"levelo://app?vid=a8d45914-f203-4521-9494-485516e3e5eb"},"vehicle_type_id":"4","last_reported":1740643960,"current_range_meters":8800,"station_id":"ce4bh0h2rcd13ifvqd40","pricing_plan_id":"cebpf4jnsgd1na2vs0mg"},{"bike_id":"9f4ebea0-1844-4cd6-b15a-4bdeb3ff54e9","system_id":"levelo_inurba_marseille","lat":43.29888,"lon":5.38913,"is_reserved":false,"is_disabled":false,"rental_uris":{"android":"levelo://app?vid=9f4ebea0-1844-4cd6-b15a-4bdeb3ff54e9","ios":"levelo://app?vid=9f4ebea0-1844-4cd6-b15a-4bdeb3ff54e9"},"vehicle_type_id":"4","last_reported":1740643960,"current_range_meters":8800,"station_id":"ce4bh392rcd13ifvqdl0","pricing_plan_id":"cebpf4jnsgd1na2vs0mg"},{"bike_id":"3b226969-b858-4e41-8af0-d5dfb800735d","system_id":"levelo_inurba_marseille","lat":43.29084,"lon":5.3816,"is_reserved":false,"is_disabled":false,"rental_uris":{"android":"levelo://app?vid=3b226969-b858-4e41-8af0-d5dfb800735d","ios":"levelo://app?vid=3b226969-b858-4e41-8af0-d5dfb800735d"},"vehicle_type_id":"4","last_reported":1740643960,"current_range_meters":8800,"station_id":"ce4bh512rcd13ifvqe2g","pricing_plan_id":"cebpf4jnsgd1na2vs0mg"},{"bike_id":"53f6206c-2750-42e7-a8f3-9533b6f35c4a","system_id":"levelo_inurba_marseille","lat":43.28613,"lon":5.35104,"is_reserved":false,"is_disabled":false,"rental_uris":{"android":"levelo://app?vid=53f6206c-2750-42e7-a8f3-9533b6f35c4a","ios":"levelo://app?vid=53f6206c-2750-42e7-a8f3-9533b6f35c4a"},"vehicle_type_id":"4","last_reported":1740643960,"current_range_meters":8800,"station_id":"ce4bhch2rcd13ifvqeug","pricing_plan_id":"cebpf4jnsgd1na2vs0mg"},{"bike_id":"c24dd236-5c90-4f51-a57a-2f44c040fc1a","system_id":"levelo_inurba_marseille","lat":43.25941,"lon":5.40911,"is_reserved":false,"is_disabled":false,"rental_uris":{"android":"levelo://app?vid=c24dd236-5c90-4f51-a57a-2f44c040fc1a","ios":"levelo://app?vid=c24dd236-5c90-4f51-a57a-2f44c040fc1a"},"vehicle_type_id":"4","last_reported":1740643960,"current_range_meters":8800,"station_id":"ce4bhm92rcd13ifvqglg","pricing_plan_id":"cebpf4jnsgd1na2vs0mg"},{"bike_id":"5925fc9d-0217-43db-be70-d313f2b8e15c","system_id":"levelo_inurba_marseille","lat":43.28154,"lon":5.42652,"is_reserved":false,"is_disabled":false,"rental_uris":{"android":"levelo://app?vid=5925fc9d-0217-43db-be70-d313f2b8e15c","ios":"levelo://app?vid=5925fc9d-0217-43db-be70-d313f2b8e15c"},"vehicle_type_id":"4","last_reported":1740643960,"current_range_meters":8800,"station_id":"ce4bhnh2rcd13ifvqgug","pricing_plan_id":"cebpf4jnsgd1na2vs0mg"},{"bike_id":"07231509-f031-44bd-a024-8b5dd56e800b","system_id":"levelo_inurba_marseille","lat":43.316573,"lon":5.396019,"is_reserved":false,"is_disabled":false,"rental_uris":{"android":"levelo://app?vid=07231509-f031-44bd-a024-8b5dd56e800b","ios":"levelo://app?vid=07231509-f031-44bd-a024-8b5dd56e800b"},"vehicle_type_id":"4","last_reported":1740643960,"current_range_meters":9200,"station_id":"","pricing_plan_id":"cebpf4jnsgd1na2vs0mg"},{"bike_id":"fef3ecb8-09ca-4266-8165-ee8eeb4851d7","system_id":"levelo_inurba_marseille","lat":43.3017,"lon":5.36646,"is_reserved":false,"is_disabled":false,"rental_uris":{"android":"levelo://app?vid=fef3ecb8-09ca-4266-8165-ee8eeb4851d7","ios":"levelo://app?vid=fef3ecb8-09ca-4266-8165-ee8eeb4851d7"},"vehicle_type_id":"4","last_reported":1740643960,"current_range_meters":9200,"station_id":"ce4bgrh2rcd13ifvqc8g","pricing_plan_id":"cebpf4jnsgd1na2vs0mg"},{"bike_id":"f1040076-51cd-4119-a3d0-75f656deebc8","system_id":"levelo_inurba_marseille","lat":43.30543,"lon":5.36567,"is_reserved":false,"is_disabled":false,"rental_uris":{"android":"levelo://app?vid=f1040076-51cd-4119-a3d0-75f656deebc8","ios":"levelo://app?vid=f1040076-51cd-4119-a3d0-75f656deebc8"},"vehicle_type_id":"4","last_reported":1740643960,"current_range_meters":9200,"station_id":"ce4bgs12rcd13ifvqcag","pricing_plan_id":"cebpf4jnsgd1na2vs0mg"},{"bike_id":"96538e64-3767-44af-950d-21bd547be24d","system_id":"levelo_inurba_marseille","lat":43.30401,"lon":5.39768,"is_reserved":false,"is_disabled":false,"rental_uris":{"android":"levelo://app?vid=96538e64-3767-44af-950d-21bd547be24d","ios":"levelo://app?vid=96538e64-3767-44af-950d-21bd547be24d"},"vehicle_type_id":"4","last_reported":1740643960,"current_range_meters":9200,"station_id":"ce4bh092rcd13ifvqd20","pricing_plan_id":"cebpf4jnsgd1na2vs0mg"},{"bike_id":"2da828eb-ceb1-490f-ba6e-6557a2f25d6b","system_id":"levelo_inurba_marseille","lat":43.25572,"lon":5.38242,"is_reserved":false,"is_disabled":false,"rental_uris":{"android":"levelo://app?vid=2da828eb-ceb1-490f-ba6e-6557a2f25d6b","ios":"levelo://app?vid=2da828eb-ceb1-490f-ba6e-6557a2f25d6b"},"vehicle_type_id":"4","last_reported":1740643960,"current_range_meters":9200,"station_id":"ce4bhih2rcd13ifvqfs0","pricing_plan_id":"cebpf4jnsgd1na2vs0mg"},{"bike_id":"40ec3fe1-da6e-4290-b01c-9b9c53736076","system_id":"levelo_inurba_marseille","lat":43.24075,"lon":5.37763,"is_reserved":false,"is_disabled":false,"rental_uris":{"android":"levelo://app?vid=40ec3fe1-da6e-4290-b01c-9b9c53736076","ios":"levelo://app?vid=40ec3fe1-da6e-4290-b01c-9b9c53736076"},"vehicle_type_id":"4","last_reported":1740643960,"current_range_meters":9200,"station_id":"ce4bhnp2rcd13ifvqgvg","pricing_plan_id":"cebpf4jnsgd1na2vs0mg"},{"bike_id":"895ea6b4-325f-47ea-8f8c-5ecd0d861eba","system_id":"levelo_inurba_marseille","lat":43.30965,"lon":5.39034,"is_reserved":false,"is_disabled":false,"rental_uris":{"android":"levelo://app?vid=895ea6b4-325f-47ea-8f8c-5ecd0d861eba","ios":"levelo://app?vid=895ea6b4-325f-47ea-8f8c-5ecd0d861eba"},"vehicle_type_id":"4","last_reported":1740643960,"current_range_meters":9600,"station_id":"ce4bgup2rcd13ifvqco0","pricing_plan_id":"cebpf4jnsgd1na2vs0mg"},{"bike_id":"82dafd09-08da-403d-aa21-026c30855a50","system_id":"levelo_inurba_marseille","lat":43.28373,"lon":5.38648,"is_reserved":false,"is_disabled":false,"rental_uris":{"android":"levelo://app?vid=82dafd09-08da-403d-aa21-026c30855a50","ios":"levelo://app?vid=82dafd09-08da-403d-aa21-026c30855a50"},"vehicle_type_id":"4","last_reported":1740643960,"current_range_meters":9600,"station_id":"ce4bh492rcd13ifvqdvg","pricing_plan_id":"cebpf4jnsgd1na2vs0mg"},{"bike_id":"9721a8d2-5ed5-4c5c-8f41-41104e93930e","system_id":"levelo_inurba_marseille","lat":43.27949,"lon":5.38751,"is_reserved":false,"is_disabled":false,"rental_uris":{"android":"levelo://app?vid=9721a8d2-5ed5-4c5c-8f41-41104e93930e","ios":"levelo://app?vid=9721a8d2-5ed5-4c5c-8f41-41104e93930e"},"vehicle_type_id":"4","last_reported":1740643960,"current_range_meters":9600,"station_id":"ce4bhg12rcd13ifvqf80","pricing_plan_id":"cebpf4jnsgd1na2vs0mg"},{"bike_id":"2ddd76cf-99e2-47b6-baa1-5133bc8aab87","system_id":"levelo_inurba_marseille","lat":43.26947,"lon":5.38643,"is_reserved":false,"is_disabled":false,"rental_uris":{"android":"levelo://app?vid=2ddd76cf-99e2-47b6-baa1-5133bc8aab87","ios":"levelo://app?vid=2ddd76cf-99e2-47b6-baa1-5133bc8aab87"},"vehicle_type_id":"4","last_reported":1740643960,"current_range_meters":9600,"station_id":"ce4bhh92rcd13ifvqfh0","pricing_plan_id":"cebpf4jnsgd1na2vs0mg"},{"bike_id":"698bc51e-c6d0-40d7-98c8-f5928f5e5e74","system_id":"levelo_inurba_marseille","lat":43.27563,"lon":5.38421,"is_reserved":false,"is_disabled":false,"rental_uris":{"android":"levelo://app?vid=698bc51e-c6d0-40d7-98c8-f5928f5e5e74","ios":"levelo://app?vid=698bc51e-c6d0-40d7-98c8-f5928f5e5e74"},"vehicle_type_id":"4","last_reported":1740643960,"current_range_meters":9600,"station_id":"ce4bhh92rcd13ifvqfi0","pricing_plan_id":"cebpf4jnsgd1na2vs0mg"},{"bike_id":"a425e775-b361-4ab4-93f9-fa2ea28a8286","system_id":"levelo_inurba_marseille","lat":43.32464,"lon":5.36589,"is_reserved":false,"is_disabled":false,"rental_uris":{"android":"levelo://app?vid=a425e775-b361-4ab4-93f9-fa2ea28a8286","ios":"levelo://app?vid=a425e775-b361-4ab4-93f9-fa2ea28a8286"},"vehicle_type_id":"4","last_reported":1740643960,"current_range_meters":9600,"station_id":"ce4bhs12rcd13ifvqhvg","pricing_plan_id":"cebpf4jnsgd1na2vs0mg"},{"bike_id":"731e8a79-8ea6-46b1-8272-aedf76193379","system_id":"levelo_inurba_marseille","lat":43.30135,"lon":5.37436,"is_reserved":false,"is_disabled":false,"rental_uris":{"android":"levelo://app?vid=731e8a79-8ea6-46b1-8272-aedf76193379","ios":"levelo://app?vid=731e8a79-8ea6-46b1-8272-aedf76193379"},"vehicle_type_id":"4","last_reported":1740643960,"current_range_meters":10000,"station_id":"ce4bgs92rcd13ifvqcc0","pricing_plan_id":"cebpf4jnsgd1na2vs0mg"},{"bike_id":"f80b506c-38f2-45b2-8ae3-fef2bd454d37","system_id":"levelo_inurba_marseille","lat":43.3048,"lon":5.37914,"is_reserved":false,"is_disabled":false,"rental_uris":{"android":"levelo://app?vid=f80b506c-38f2-45b2-8ae3-fef2bd454d37","ios":"levelo://app?vid=f80b506c-38f2-45b2-8ae3-fef2bd454d37"},"vehicle_type_id":"4","last_reported":1740643960,"current_range_meters":10000,"station_id":"ce4bgup2rcd13ifvqcn0","pricing_plan_id":"cebpf4jnsgd1na2vs0mg"},{"bike_id":"287731ea-7613-478e-87d9-102b06726ec0","system_id":"levelo_inurba_marseille","lat":43.30142,"lon":5.3985,"is_reserved":false,"is_disabled":false,"rental_uris":{"android":"levelo://app?vid=287731ea-7613-478e-87d9-102b06726ec0","ios":"levelo://app?vid=287731ea-7613-478e-87d9-102b06726ec0"},"vehicle_type_id":"4","last_reported":1740643960,"current_range_meters":10000,"station_id":"ce4bh0h2rcd13ifvqd40","pricing_plan_id":"cebpf4jnsgd1na2vs0mg"},{"bike_id":"81011008-4f27-4615-8d97-c7d494737292","system_id":"levelo_inurba_marseille","lat":43.29035,"lon":5.40002,"is_reserved":false,"is_disabled":false,"rental_uris":{"android":"levelo://app?vid=81011008-4f27-4615-8d97-c7d494737292","ios":"levelo://app?vid=81011008-4f27-4615-8d97-c7d494737292"},"vehicle_type_id":"4","last_reported":1740643960,"current_range_meters":10000,"station_id":"ce4bh392rcd13ifvqdm0","pricing_plan_id":"cebpf4jnsgd1na2vs0mg"},{"bike_id":"f66913d8-adc8-4497-b81a-8613461ae8a9","system_id":"levelo_inurba_marseille","lat":43.28438,"lon":5.34998,"is_reserved":false,"is_disabled":false,"rental_uris":{"android":"levelo://app?vid=f66913d8-adc8-4497-b81a-8613461ae8a9","ios":"levelo://app?vid=f66913d8-adc8-4497-b81a-8613461ae8a9"},"vehicle_type_id":"4","last_reported":1740643960,"current_range_meters":10000,"station_id":"ce4bhbh2rcd13ifvqepg","pricing_plan_id":"cebpf4jnsgd1na2vs0mg"},{"bike_id":"844c2627-4659-4d06-9db8-0803d69b326a","system_id":"levelo_inurba_marseille","lat":43.29208,"lon":5.3607,"is_reserved":false,"is_disabled":false,"rental_uris":{"android":"levelo://app?vid=844c2627-4659-4d06-9db8-0803d69b326a","ios":"levelo://app?vid=844c2627-4659-4d06-9db8-0803d69b326a"},"vehicle_type_id":"4","last_reported":1740643960,"current_range_meters":10000,"station_id":"ce4bhbh2rcd13ifvqeqg","pricing_plan_id":"cebpf4jnsgd1na2vs0mg"},{"bike_id":"0a40adb5-1234-4a56-bcf8-4a61668f1659","system_id":"levelo_inurba_marseille","lat":43.2418,"lon":5.39739,"is_reserved":false,"is_disabled":false,"rental_uris":{"android":"levelo://app?vid=0a40adb5-1234-4a56-bcf8-4a61668f1659","ios":"levelo://app?vid=0a40adb5-1234-4a56-bcf8-4a61668f1659"},"vehicle_type_id":"4","last_reported":1740643960,"current_range_meters":10000,"station_id":"ce4bhn12rcd13ifvqgpg","pricing_plan_id":"cebpf4jnsgd1na2vs0mg"},{"bike_id":"17973595-0627-4cbe-be09-6d52168568c1","system_id":"levelo_inurba_marseille","lat":43.27817,"lon":5.40727,"is_reserved":false,"is_disabled":false,"rental_uris":{"android":"levelo://app?vid=17973595-0627-4cbe-be09-6d52168568c1","ios":"levelo://app?vid=17973595-0627-4cbe-be09-6d52168568c1"},"vehicle_type_id":"4","last_reported":1740643960,"current_range_meters":10000,"station_id":"ce4bhnh2rcd13ifvqgtg","pricing_plan_id":"cebpf4jnsgd1na2vs0mg"},{"bike_id":"620faf8f-9860-4e84-b6cd-4559a0b9a89c","system_id":"levelo_inurba_marseille","lat":43.32515,"lon":5.36568,"is_reserved":false,"is_disabled":false,"rental_uris":{"android":"levelo://app?vid=620faf8f-9860-4e84-b6cd-4559a0b9a89c","ios":"levelo://app?vid=620faf8f-9860-4e84-b6cd-4559a0b9a89c"},"vehicle_type_id":"4","last_reported":1740643960,"current_range_meters":10000,"station_id":"ce4bhs12rcd13ifvqhvg","pricing_plan_id":"cebpf4jnsgd1na2vs0mg"},{"bike_id":"aa1c1254-8b09-4cc6-908c-bacac335dd0d","system_id":"levelo_inurba_marseille","lat":43.2406,"lon":5.37701,"is_reserved":false,"is_disabled":false,"rental_uris":{"android":"levelo://app?vid=aa1c1254-8b09-4cc6-908c-bacac335dd0d","ios":"levelo://app?vid=aa1c1254-8b09-4cc6-908c-bacac335dd0d"},"vehicle_type_id":"4","last_reported":1740643960,"current_range_meters":10800,"station_id":"","pricing_plan_id":"cebpf4jnsgd1na2vs0mg"},{"bike_id":"afd98e29-9e65-49b1-96e9-da6c0e62de76","system_id":"levelo_inurba_marseille","lat":43.29275,"lon":5.38215,"is_reserved":false,"is_disabled":false,"rental_uris":{"android":"levelo://app?vid=afd98e29-9e65-49b1-96e9-da6c0e62de76","ios":"levelo://app?vid=afd98e29-9e65-49b1-96e9-da6c0e62de76"},"vehicle_type_id":"4","last_reported":1740643960,"current_range_meters":10800,"station_id":"","pricing_plan_id":"cebpf4jnsgd1na2vs0mg"},{"bike_id":"c2c07c19-dbd0-4199-be99-931320c34757","system_id":"levelo_inurba_marseille","lat":43.297651,"lon":5.363337,"is_reserved":false,"is_disabled":false,"rental_uris":{"android":"levelo://app?vid=c2c07c19-dbd0-4199-be99-931320c34757","ios":"levelo://app?vid=c2c07c19-dbd0-4199-be99-931320c34757"},"vehicle_type_id":"4","last_reported":1740643960,"current_range_meters":10800,"station_id":"ce4bgpp2rcd13ifvqc3g","pricing_plan_id":"cebpf4jnsgd1na2vs0mg"},{"bike_id":"4cd0c7b9-2810-4907-9294-3a4209e8580e","system_id":"levelo_inurba_marseille","lat":43.31483,"lon":5.37341,"is_reserved":false,"is_disabled":false,"rental_uris":{"android":"levelo://app?vid=4cd0c7b9-2810-4907-9294-3a4209e8580e","ios":"levelo://app?vid=4cd0c7b9-2810-4907-9294-3a4209e8580e"},"vehicle_type_id":"4","last_reported":1740643960,"current_range_meters":10800,"station_id":"ce4bgt12rcd13ifvqcd0","pricing_plan_id":"cebpf4jnsgd1na2vs0mg"},{"bike_id":"7f5c8962-3c26-494a-9dd5-ffc07bce14b6","system_id":"levelo_inurba_marseille","lat":43.30459,"lon":5.3791,"is_reserved":false,"is_disabled":false,"rental_uris":{"android":"levelo://app?vid=7f5c8962-3c26-494a-9dd5-ffc07bce14b6","ios":"levelo://app?vid=7f5c8962-3c26-494a-9dd5-ffc07bce14b6"},"vehicle_type_id":"4","last_reported":1740643960,"current_range_meters":10800,"station_id":"ce4bgup2rcd13ifvqcn0","pricing_plan_id":"cebpf4jnsgd1na2vs0mg"},{"bike_id":"35593f52-cea1-47f3-bc31-1b5a2af0d4d0","system_id":"levelo_inurba_marseille","lat":43.30942,"lon":5.39052,"is_reserved":false,"is_disabled":false,"rental_uris":{"android":"levelo://app?vid=35593f52-cea1-47f3-bc31-1b5a2af0d4d0","ios":"levelo://app?vid=35593f52-cea1-47f3-bc31-1b5a2af0d4d0"},"vehicle_type_id":"4","last_reported":1740643960,"current_range_meters":10800,"station_id":"ce4bgup2rcd13ifvqco0","pricing_plan_id":"cebpf4jnsgd1na2vs0mg"},{"bike_id":"9ea15ae9-9c11-486a-bb35-d4dcef991c05","system_id":"levelo_inurba_marseille","lat":43.28608,"lon":5.35107,"is_reserved":false,"is_disabled":false,"rental_uris":{"android":"levelo://app?vid=9ea15ae9-9c11-486a-bb35-d4dcef991c05","ios":"levelo://app?vid=9ea15ae9-9c11-486a-bb35-d4dcef991c05"},"vehicle_type_id":"4","last_reported":1740643960,"current_range_meters":10800,"station_id":"ce4bhch2rcd13ifvqeug","pricing_plan_id":"cebpf4jnsgd1na2vs0mg"},{"bike_id":"24b07dc4-93de-4604-95be-5b9e27138a1d","system_id":"levelo_inurba_marseille","lat":43.25931,"lon":5.40906,"is_reserved":false,"is_disabled":false,"rental_uris":{"android":"levelo://app?vid=24b07dc4-93de-4604-95be-5b9e27138a1d","ios":"levelo://app?vid=24b07dc4-93de-4604-95be-5b9e27138a1d"},"vehicle_type_id":"4","last_reported":1740643960,"current_range_meters":10800,"station_id":"ce4bhm92rcd13ifvqglg","pricing_plan_id":"cebpf4jnsgd1na2vs0mg"},{"bike_id":"7df888cc-c346-4f38-990a-fc3c220f7083","system_id":"levelo_inurba_marseille","lat":43.23146,"lon":5.43725,"is_reserved":false,"is_disabled":false,"rental_uris":{"android":"levelo://app?vid=7df888cc-c346-4f38-990a-fc3c220f7083","ios":"levelo://app?vid=7df888cc-c346-4f38-990a-fc3c220f7083"},"vehicle_type_id":"4","last_reported":1740643960,"current_range_meters":10800,"station_id":"ce4bhmp2rcd13ifvqgog","pricing_plan_id":"cebpf4jnsgd1na2vs0mg"},{"bike_id":"48629be7-0cbd-43a1-9464-c2ac347ae9ff","system_id":"levelo_inurba_marseille","lat":43.23153,"lon":5.43707,"is_reserved":false,"is_disabled":false,"rental_uris":{"android":"levelo://app?vid=48629be7-0cbd-43a1-9464-c2ac347ae9ff","ios":"levelo://app?vid=48629be7-0cbd-43a1-9464-c2ac347ae9ff"},"vehicle_type_id":"4","last_reported":1740643960,"current_range_meters":10800,"station_id":"ce4bhmp2rcd13ifvqgog","pricing_plan_id":"cebpf4jnsgd1na2vs0mg"},{"bike_id":"219da876-5708-4dd0-931a-bee55e45df10","system_id":"levelo_inurba_marseille","lat":43.24174,"lon":5.39733,"is_reserved":false,"is_disabled":false,"rental_uris":{"android":"levelo://app?vid=219da876-5708-4dd0-931a-bee55e45df10","ios":"levelo://app?vid=219da876-5708-4dd0-931a-bee55e45df10"},"vehicle_type_id":"4","last_reported":1740643960,"current_range_meters":10800,"station_id":"ce4bhn12rcd13ifvqgpg","pricing_plan_id":"cebpf4jnsgd1na2vs0mg"},{"bike_id":"dbbfe273-fe78-4ee1-abd4-c84186b9f85c","system_id":"levelo_inurba_marseille","lat":43.24065,"lon":5.37758,"is_reserved":false,"is_disabled":false,"rental_uris":{"android":"levelo://app?vid=dbbfe273-fe78-4ee1-abd4-c84186b9f85c","ios":"levelo://app?vid=dbbfe273-fe78-4ee1-abd4-c84186b9f85c"},"vehicle_type_id":"4","last_reported":1740643960,"current_range_meters":10800,"station_id":"ce4bhnp2rcd13ifvqgvg","pricing_plan_id":"cebpf4jnsgd1na2vs0mg"},{"bike_id":"184016d6-cf70-4a4b-a51a-ef0c2c23e437","system_id":"levelo_inurba_marseille","lat":43.30545,"lon":5.36689,"is_reserved":false,"is_disabled":false,"rental_uris":{"android":"levelo://app?vid=184016d6-cf70-4a4b-a51a-ef0c2c23e437","ios":"levelo://app?vid=184016d6-cf70-4a4b-a51a-ef0c2c23e437"},"vehicle_type_id":"4","last_reported":1740643960,"current_range_meters":11200,"station_id":"","pricing_plan_id":"cebpf4jnsgd1na2vs0mg"},{"bike_id":"62cbb18c-2f31-4f5c-9351-9e9b31dd9036","system_id":"levelo_inurba_marseille","lat":43.2984,"lon":5.3868,"is_reserved":false,"is_disabled":false,"rental_uris":{"android":"levelo://app?vid=62cbb18c-2f31-4f5c-9351-9e9b31dd9036","ios":"levelo://app?vid=62cbb18c-2f31-4f5c-9351-9e9b31dd9036"},"vehicle_type_id":"4","last_reported":1740643960,"current_range_meters":11200,"station_id":"","pricing_plan_id":"cebpf4jnsgd1na2vs0mg"},{"bike_id":"2f2518ed-5931-464f-a46c-757a71f5d7f0","system_id":"levelo_inurba_marseille","lat":43.288474,"lon":5.393103,"is_reserved":false,"is_disabled":false,"rental_uris":{"android":"levelo://app?vid=2f2518ed-5931-464f-a46c-757a71f5d7f0","ios":"levelo://app?vid=2f2518ed-5931-464f-a46c-757a71f5d7f0"},"vehicle_type_id":"4","last_reported":1740643960,"current_range_meters":11200,"station_id":"ce4bh2p2rcd13ifvqdi0","pricing_plan_id":"cebpf4jnsgd1na2vs0mg"},{"bike_id":"19e4983d-b74d-4524-9c14-80fb6905f947","system_id":"levelo_inurba_marseille","lat":43.32152,"lon":5.3675,"is_reserved":false,"is_disabled":false,"rental_uris":{"android":"levelo://app?vid=19e4983d-b74d-4524-9c14-80fb6905f947","ios":"levelo://app?vid=19e4983d-b74d-4524-9c14-80fb6905f947"},"vehicle_type_id":"4","last_reported":1740643960,"current_range_meters":11600,"station_id":"","pricing_plan_id":"cebpf4jnsgd1na2vs0mg"},{"bike_id":"8e8c8f28-5ded-4009-8b85-0abff2958a77","system_id":"levelo_inurba_marseille","lat":43.31518,"lon":5.37307,"is_reserved":false,"is_disabled":false,"rental_uris":{"android":"levelo://app?vid=8e8c8f28-5ded-4009-8b85-0abff2958a77","ios":"levelo://app?vid=8e8c8f28-5ded-4009-8b85-0abff2958a77"},"vehicle_type_id":"4","last_reported":1740643960,"current_range_meters":11600,"station_id":"ce4bgt12rcd13ifvqcd0","pricing_plan_id":"cebpf4jnsgd1na2vs0mg"},{"bike_id":"7eebcedb-18f4-4398-b9bd-d7d8a33415a2","system_id":"levelo_inurba_marseille","lat":43.29213,"lon":5.35994,"is_reserved":false,"is_disabled":false,"rental_uris":{"android":"levelo://app?vid=7eebcedb-18f4-4398-b9bd-d7d8a33415a2","ios":"levelo://app?vid=7eebcedb-18f4-4398-b9bd-d7d8a33415a2"},"vehicle_type_id":"4","last_reported":1740643960,"current_range_meters":11600,"station_id":"ce4bhbh2rcd13ifvqeqg","pricing_plan_id":"cebpf4jnsgd1na2vs0mg"},{"bike_id":"946ffe70-3e7c-49a6-8659-388e8c6a00a1","system_id":"levelo_inurba_marseille","lat":43.26956,"lon":5.38622,"is_reserved":false,"is_disabled":false,"rental_uris":{"android":"levelo://app?vid=946ffe70-3e7c-49a6-8659-388e8c6a00a1","ios":"levelo://app?vid=946ffe70-3e7c-49a6-8659-388e8c6a00a1"},"vehicle_type_id":"4","last_reported":1740643960,"current_range_meters":11600,"station_id":"ce4bhh92rcd13ifvqfh0","pricing_plan_id":"cebpf4jnsgd1na2vs0mg"},{"bike_id":"295b0419-415d-42cd-9c8a-f34cdd0f33af","system_id":"levelo_inurba_marseille","lat":43.24069,"lon":5.37734,"is_reserved":false,"is_disabled":false,"rental_uris":{"android":"levelo://app?vid=295b0419-415d-42cd-9c8a-f34cdd0f33af","ios":"levelo://app?vid=295b0419-415d-42cd-9c8a-f34cdd0f33af"},"vehicle_type_id":"4","last_reported":1740643960,"current_range_meters":11600,"station_id":"ce4bhnp2rcd13ifvqgvg","pricing_plan_id":"cebpf4jnsgd1na2vs0mg"},{"bike_id":"7ba56adb-fef1-4fb4-94ed-3de8114f6441","system_id":"levelo_inurba_marseille","lat":43.31388,"lon":5.367,"is_reserved":false,"is_disabled":false,"rental_uris":{"android":"levelo://app?vid=7ba56adb-fef1-4fb4-94ed-3de8114f6441","ios":"levelo://app?vid=7ba56adb-fef1-4fb4-94ed-3de8114f6441"},"vehicle_type_id":"4","last_reported":1740643960,"current_range_meters":12000,"station_id":"","pricing_plan_id":"cebpf4jnsgd1na2vs0mg"},{"bike_id":"84dfffd9-f433-4741-bcbd-d9a1bb4aa66b","system_id":"levelo_inurba_marseille","lat":43.30952,"lon":5.39032,"is_reserved":false,"is_disabled":false,"rental_uris":{"android":"levelo://app?vid=84dfffd9-f433-4741-bcbd-d9a1bb4aa66b","ios":"levelo://app?vid=84dfffd9-f433-4741-bcbd-d9a1bb4aa66b"},"vehicle_type_id":"4","last_reported":1740643960,"current_range_meters":12000,"station_id":"ce4bgup2rcd13ifvqco0","pricing_plan_id":"cebpf4jnsgd1na2vs0mg"},{"bike_id":"d8938040-d0ed-4a41-b22a-3220f3d52c64","system_id":"levelo_inurba_marseille","lat":43.30127,"lon":5.39857,"is_reserved":false,"is_disabled":false,"rental_uris":{"android":"levelo://app?vid=d8938040-d0ed-4a41-b22a-3220f3d52c64","ios":"levelo://app?vid=d8938040-d0ed-4a41-b22a-3220f3d52c64"},"vehicle_type_id":"4","last_reported":1740643960,"current_range_meters":12000,"station_id":"ce4bh0h2rcd13ifvqd40","pricing_plan_id":"cebpf4jnsgd1na2vs0mg"},{"bike_id":"d50e7abb-a9a6-49fc-9353-31e2cf29d83c","system_id":"levelo_inurba_marseille","lat":43.2408,"lon":5.37759,"is_reserved":false,"is_disabled":false,"rental_uris":{"android":"levelo://app?vid=d50e7abb-a9a6-49fc-9353-31e2cf29d83c","ios":"levelo://app?vid=d50e7abb-a9a6-49fc-9353-31e2cf29d83c"},"vehicle_type_id":"4","last_reported":1740643960,"current_range_meters":12000,"station_id":"ce4bhnp2rcd13ifvqgvg","pricing_plan_id":"cebpf4jnsgd1na2vs0mg"},{"bike_id":"de4144b6-9df0-4f21-b399-cad32f716fda","system_id":"levelo_inurba_marseille","lat":43.30951,"lon":5.3905,"is_reserved":false,"is_disabled":false,"rental_uris":{"android":"levelo://app?vid=de4144b6-9df0-4f21-b399-cad32f716fda","ios":"levelo://app?vid=de4144b6-9df0-4f21-b399-cad32f716fda"},"vehicle_type_id":"4","last_reported":1740643960,"current_range_meters":12400,"station_id":"ce4bgup2rcd13ifvqco0","pricing_plan_id":"cebpf4jnsgd1na2vs0mg"},{"bike_id":"31ff79d6-0675-4ab4-81e0-3ab2045f5aaa","system_id":"levelo_inurba_marseille","lat":43.30147,"lon":5.39896,"is_reserved":false,"is_disabled":false,"rental_uris":{"android":"levelo://app?vid=31ff79d6-0675-4ab4-81e0-3ab2045f5aaa","ios":"levelo://app?vid=31ff79d6-0675-4ab4-81e0-3ab2045f5aaa"},"vehicle_type_id":"4","last_reported":1740643960,"current_range_meters":12400,"station_id":"ce4bh0h2rcd13ifvqd40","pricing_plan_id":"cebpf4jnsgd1na2vs0mg"},{"bike_id":"26b18852-1457-40e7-acd7-9e5d84039a45","system_id":"levelo_inurba_marseille","lat":43.28153,"lon":5.42647,"is_reserved":false,"is_disabled":false,"rental_uris":{"android":"levelo://app?vid=26b18852-1457-40e7-acd7-9e5d84039a45","ios":"levelo://app?vid=26b18852-1457-40e7-acd7-9e5d84039a45"},"vehicle_type_id":"4","last_reported":1740643960,"current_range_meters":12400,"station_id":"ce4bhnh2rcd13ifvqgug","pricing_plan_id":"cebpf4jnsgd1na2vs0mg"},{"bike_id":"5fdbaa49-16e6-43d7-bb68-6ad87f72c301","system_id":"levelo_inurba_marseille","lat":43.33063,"lon":5.40825,"is_reserved":false,"is_disabled":false,"rental_uris":{"android":"levelo://app?vid=5fdbaa49-16e6-43d7-bb68-6ad87f72c301","ios":"levelo://app?vid=5fdbaa49-16e6-43d7-bb68-6ad87f72c301"},"vehicle_type_id":"4","last_reported":1740643960,"current_range_meters":12800,"station_id":"","pricing_plan_id":"cebpf4jnsgd1na2vs0mg"},{"bike_id":"9c05c137-ce73-4888-83ec-51c9674942d3","system_id":"levelo_inurba_marseille","lat":43.3142,"lon":5.36696,"is_reserved":false,"is_disabled":false,"rental_uris":{"android":"levelo://app?vid=9c05c137-ce73-4888-83ec-51c9674942d3","ios":"levelo://app?vid=9c05c137-ce73-4888-83ec-51c9674942d3"},"vehicle_type_id":"4","last_reported":1740643960,"current_range_meters":12800,"station_id":"","pricing_plan_id":"cebpf4jnsgd1na2vs0mg"},{"bike_id":"574a9002-9895-49da-baac-459cbf1a4d4b","system_id":"levelo_inurba_marseille","lat":43.23147,"lon":5.43725,"is_reserved":false,"is_disabled":false,"rental_uris":{"android":"levelo://app?vid=574a9002-9895-49da-baac-459cbf1a4d4b","ios":"levelo://app?vid=574a9002-9895-49da-baac-459cbf1a4d4b"},"vehicle_type_id":"4","last_reported":1740643960,"current_range_meters":12800,"station_id":"ce4bhmp2rcd13ifvqgog","pricing_plan_id":"cebpf4jnsgd1na2vs0mg"},{"bike_id":"7cbcf61c-d417-4ce5-a78a-d6ffbf5cef76","system_id":"levelo_inurba_marseille","lat":43.30143,"lon":5.37426,"is_reserved":false,"is_disabled":false,"rental_uris":{"android":"levelo://app?vid=7cbcf61c-d417-4ce5-a78a-d6ffbf5cef76","ios":"levelo://app?vid=7cbcf61c-d417-4ce5-a78a-d6ffbf5cef76"},"vehicle_type_id":"4","last_reported":1740643960,"current_range_meters":13600,"station_id":"ce4bgs92rcd13ifvqcc0","pricing_plan_id":"cebpf4jnsgd1na2vs0mg"},{"bike_id":"dc1deb5f-be60-47dd-a397-2458bf714b12","system_id":"levelo_inurba_marseille","lat":43.2305,"lon":5.35489,"is_reserved":false,"is_disabled":false,"rental_uris":{"android":"levelo://app?vid=dc1deb5f-be60-47dd-a397-2458bf714b12","ios":"levelo://app?vid=dc1deb5f-be60-47dd-a397-2458bf714b12"},"vehicle_type_id":"4","last_reported":1740643960,"current_range_meters":13600,"station_id":"cpo3342slgdg3j2ifvpg","pricing_plan_id":"cebpf4jnsgd1na2vs0mg"},{"bike_id":"0a520157-e17a-4f27-962b-10893c18adc7","system_id":"levelo_inurba_marseille","lat":43.29387,"lon":5.38215,"is_reserved":false,"is_disabled":false,"rental_uris":{"android":"levelo://app?vid=0a520157-e17a-4f27-962b-10893c18adc7","ios":"levelo://app?vid=0a520157-e17a-4f27-962b-10893c18adc7"},"vehicle_type_id":"4","last_reported":1740643960,"current_range_meters":14000,"station_id":"ce4bgj92rcd13ifvqbd0","pricing_plan_id":"cebpf4jnsgd1na2vs0mg"},{"bike_id":"fbbd7bed-9c33-4ef8-9ed0-eea11b7dd5b7","system_id":"levelo_inurba_marseille","lat":43.30172,"lon":5.36614,"is_reserved":false,"is_disabled":false,"rental_uris":{"android":"levelo://app?vid=fbbd7bed-9c33-4ef8-9ed0-eea11b7dd5b7","ios":"levelo://app?vid=fbbd7bed-9c33-4ef8-9ed0-eea11b7dd5b7"},"vehicle_type_id":"4","last_reported":1740643960,"current_range_meters":14000,"station_id":"ce4bgrh2rcd13ifvqc8g","pricing_plan_id":"cebpf4jnsgd1na2vs0mg"},{"bike_id":"39471b53-c0a0-473b-9380-1c93b5fef53b","system_id":"levelo_inurba_marseille","lat":43.30144,"lon":5.37419,"is_reserved":false,"is_disabled":false,"rental_uris":{"android":"levelo://app?vid=39471b53-c0a0-473b-9380-1c93b5fef53b","ios":"levelo://app?vid=39471b53-c0a0-473b-9380-1c93b5fef53b"},"vehicle_type_id":"4","last_reported":1740643960,"current_range_meters":14000,"station_id":"ce4bgs92rcd13ifvqcc0","pricing_plan_id":"cebpf4jnsgd1na2vs0mg"},{"bike_id":"fec1fe1c-b0c4-410d-9c4c-f92357be5239","system_id":"levelo_inurba_marseille","lat":43.31497,"lon":5.37301,"is_reserved":false,"is_disabled":false,"rental_uris":{"android":"levelo://app?vid=fec1fe1c-b0c4-410d-9c4c-f92357be5239","ios":"levelo://app?vid=fec1fe1c-b0c4-410d-9c4c-f92357be5239"},"vehicle_type_id":"4","last_reported":1740643960,"current_range_meters":14000,"station_id":"ce4bgt12rcd13ifvqcd0","pricing_plan_id":"cebpf4jnsgd1na2vs0mg"},{"bike_id":"cdc21177-0942-4c5b-a1dc-b82b13b9f8d6","system_id":"levelo_inurba_marseille","lat":43.3089,"lon":5.37195,"is_reserved":false,"is_disabled":false,"rental_uris":{"android":"levelo://app?vid=cdc21177-0942-4c5b-a1dc-b82b13b9f8d6","ios":"levelo://app?vid=cdc21177-0942-4c5b-a1dc-b82b13b9f8d6"},"vehicle_type_id":"4","last_reported":1740643960,"current_range_meters":14000,"station_id":"ce4bguh2rcd13ifvqckg","pricing_plan_id":"cebpf4jnsgd1na2vs0mg"},{"bike_id":"b1a2e03b-1e57-48ac-abbe-3c891f2329ea","system_id":"levelo_inurba_marseille","lat":43.30883,"lon":5.37196,"is_reserved":false,"is_disabled":false,"rental_uris":{"android":"levelo://app?vid=b1a2e03b-1e57-48ac-abbe-3c891f2329ea","ios":"levelo://app?vid=b1a2e03b-1e57-48ac-abbe-3c891f2329ea"},"vehicle_type_id":"4","last_reported":1740643960,"current_range_meters":14000,"station_id":"ce4bguh2rcd13ifvqckg","pricing_plan_id":"cebpf4jnsgd1na2vs0mg"},{"bike_id":"cf7e32f1-5c1a-4386-b5b8-514275380d62","system_id":"levelo_inurba_marseille","lat":43.279532,"lon":5.415431,"is_reserved":false,"is_disabled":false,"rental_uris":{"android":"levelo://app?vid=cf7e32f1-5c1a-4386-b5b8-514275380d62","ios":"levelo://app?vid=cf7e32f1-5c1a-4386-b5b8-514275380d62"},"vehicle_type_id":"4","last_reported":1740643960,"current_range_meters":14000,"station_id":"ce4bho12rcd13ifvqh1g","pricing_plan_id":"cebpf4jnsgd1na2vs0mg"},{"bike_id":"7224fe2b-b61b-402c-9357-22d4caef14c8","system_id":"levelo_inurba_marseille","lat":43.30961,"lon":5.39028,"is_reserved":false,"is_disabled":false,"rental_uris":{"android":"levelo://app?vid=7224fe2b-b61b-402c-9357-22d4caef14c8","ios":"levelo://app?vid=7224fe2b-b61b-402c-9357-22d4caef14c8"},"vehicle_type_id":"4","last_reported":1740643960,"current_range_meters":14400,"station_id":"ce4bgup2rcd13ifvqco0","pricing_plan_id":"cebpf4jnsgd1na2vs0mg"},{"bike_id":"fd5e8533-291d-4f54-84e6-000d68f89708","system_id":"levelo_inurba_marseille","lat":43.2621,"lon":5.37447,"is_reserved":false,"is_disabled":false,"rental_uris":{"android":"levelo://app?vid=fd5e8533-291d-4f54-84e6-000d68f89708","ios":"levelo://app?vid=fd5e8533-291d-4f54-84e6-000d68f89708"},"vehicle_type_id":"4","last_reported":1740643960,"current_range_meters":14400,"station_id":"ce4bhgp2rcd13ifvqfc0","pricing_plan_id":"cebpf4jnsgd1na2vs0mg"},{"bike_id":"4e301411-7343-477c-92b5-2f19dd975245","system_id":"levelo_inurba_marseille","lat":43.30287,"lon":5.39229,"is_reserved":false,"is_disabled":false,"rental_uris":{"android":"levelo://app?vid=4e301411-7343-477c-92b5-2f19dd975245","ios":"levelo://app?vid=4e301411-7343-477c-92b5-2f19dd975245"},"vehicle_type_id":"4","last_reported":1740643960,"current_range_meters":14800,"station_id":"ce4bgkh2rcd13ifvqbk0","pricing_plan_id":"cebpf4jnsgd1na2vs0mg"},{"bike_id":"29345f8d-f23f-4d7a-9146-eb58e4bac72c","system_id":"levelo_inurba_marseille","lat":43.30918,"lon":5.36851,"is_reserved":false,"is_disabled":false,"rental_uris":{"android":"levelo://app?vid=29345f8d-f23f-4d7a-9146-eb58e4bac72c","ios":"levelo://app?vid=29345f8d-f23f-4d7a-9146-eb58e4bac72c"},"vehicle_type_id":"4","last_reported":1740643960,"current_range_meters":14800,"station_id":"ce4bgn92rcd13ifvqbvg","pricing_plan_id":"cebpf4jnsgd1na2vs0mg"},{"bike_id":"57b1c3ae-4036-448f-9965-55a14ec36317","system_id":"levelo_inurba_marseille","lat":43.24177,"lon":5.39737,"is_reserved":false,"is_disabled":false,"rental_uris":{"android":"levelo://app?vid=57b1c3ae-4036-448f-9965-55a14ec36317","ios":"levelo://app?vid=57b1c3ae-4036-448f-9965-55a14ec36317"},"vehicle_type_id":"4","last_reported":1740643960,"current_range_meters":14800,"station_id":"ce4bhn12rcd13ifvqgpg","pricing_plan_id":"cebpf4jnsgd1na2vs0mg"},{"bike_id":"4c56b05b-d311-4d1d-b526-605a805d1bd4","system_id":"levelo_inurba_marseille","lat":43.28099,"lon":5.40589,"is_reserved":false,"is_disabled":false,"rental_uris":{"android":"levelo://app?vid=4c56b05b-d311-4d1d-b526-605a805d1bd4","ios":"levelo://app?vid=4c56b05b-d311-4d1d-b526-605a805d1bd4"},"vehicle_type_id":"4","last_reported":1740643960,"current_range_meters":15200,"station_id":"","pricing_plan_id":"cebpf4jnsgd1na2vs0mg"},{"bike_id":"322b4ad3-46bf-4b03-9f85-72dc136cdb3a","system_id":"levelo_inurba_marseille","lat":43.31233,"lon":5.36857,"is_reserved":false,"is_disabled":false,"rental_uris":{"android":"levelo://app?vid=322b4ad3-46bf-4b03-9f85-72dc136cdb3a","ios":"levelo://app?vid=322b4ad3-46bf-4b03-9f85-72dc136cdb3a"},"vehicle_type_id":"4","last_reported":1740643960,"current_range_meters":15200,"station_id":"ce4bgl92rcd13ifvqbq0","pricing_plan_id":"cebpf4jnsgd1na2vs0mg"},{"bike_id":"6bf62df5-9f2c-4676-be2e-3425368f3119","system_id":"levelo_inurba_marseille","lat":43.29332,"lon":5.38248,"is_reserved":false,"is_disabled":false,"rental_uris":{"android":"levelo://app?vid=6bf62df5-9f2c-4676-be2e-3425368f3119","ios":"levelo://app?vid=6bf62df5-9f2c-4676-be2e-3425368f3119"},"vehicle_type_id":"4","last_reported":1740643960,"current_range_meters":16000,"station_id":"","pricing_plan_id":"cebpf4jnsgd1na2vs0mg"},{"bike_id":"9fe307f5-10f4-46df-9eba-046b639172f4","system_id":"levelo_inurba_marseille","lat":43.30169,"lon":5.38076,"is_reserved":false,"is_disabled":false,"rental_uris":{"android":"levelo://app?vid=9fe307f5-10f4-46df-9eba-046b639172f4","ios":"levelo://app?vid=9fe307f5-10f4-46df-9eba-046b639172f4"},"vehicle_type_id":"4","last_reported":1740643960,"current_range_meters":16000,"station_id":"ce4bgjp2rcd13ifvqbh0","pricing_plan_id":"cebpf4jnsgd1na2vs0mg"},{"bike_id":"7c6f2e19-e14e-482e-81a7-645fe762ee86","system_id":"levelo_inurba_marseille","lat":43.29592,"lon":5.36752,"is_reserved":false,"is_disabled":false,"rental_uris":{"android":"levelo://app?vid=7c6f2e19-e14e-482e-81a7-645fe762ee86","ios":"levelo://app?vid=7c6f2e19-e14e-482e-81a7-645fe762ee86"},"vehicle_type_id":"4","last_reported":1740643960,"current_range_meters":16000,"station_id":"ce4bgph2rcd13ifvqc2g","pricing_plan_id":"cebpf4jnsgd1na2vs0mg"},{"bike_id":"d87a4773-6328-43f6-871f-76210bb4e613","system_id":"levelo_inurba_marseille","lat":43.31493,"lon":5.37309,"is_reserved":false,"is_disabled":false,"rental_uris":{"android":"levelo://app?vid=d87a4773-6328-43f6-871f-76210bb4e613","ios":"levelo://app?vid=d87a4773-6328-43f6-871f-76210bb4e613"},"vehicle_type_id":"4","last_reported":1740643960,"current_range_meters":16000,"station_id":"ce4bgt12rcd13ifvqcd0","pricing_plan_id":"cebpf4jnsgd1na2vs0mg"},{"bike_id":"12fb450a-6431-42aa-998a-e09649dc8230","system_id":"levelo_inurba_marseille","lat":43.30276,"lon":5.37711,"is_reserved":false,"is_disabled":false,"rental_uris":{"android":"levelo://app?vid=12fb450a-6431-42aa-998a-e09649dc8230","ios":"levelo://app?vid=12fb450a-6431-42aa-998a-e09649dc8230"},"vehicle_type_id":"4","last_reported":1740643960,"current_range_meters":16000,"station_id":"ce4bguh2rcd13ifvqcj0","pricing_plan_id":"cebpf4jnsgd1na2vs0mg"},{"bike_id":"af1ddcad-43e7-43b3-af98-bb940c88b0c3","system_id":"levelo_inurba_marseille","lat":43.30948,"lon":5.39014,"is_reserved":false,"is_disabled":false,"rental_uris":{"android":"levelo://app?vid=af1ddcad-43e7-43b3-af98-bb940c88b0c3","ios":"levelo://app?vid=af1ddcad-43e7-43b3-af98-bb940c88b0c3"},"vehicle_type_id":"4","last_reported":1740643960,"current_range_meters":16000,"station_id":"ce4bgup2rcd13ifvqco0","pricing_plan_id":"cebpf4jnsgd1na2vs0mg"},{"bike_id":"f2652af0-7f89-4f32-835a-da4ab8b102ce","system_id":"levelo_inurba_marseille","lat":43.28426,"lon":5.35,"is_reserved":false,"is_disabled":false,"rental_uris":{"android":"levelo://app?vid=f2652af0-7f89-4f32-835a-da4ab8b102ce","ios":"levelo://app?vid=f2652af0-7f89-4f32-835a-da4ab8b102ce"},"vehicle_type_id":"4","last_reported":1740643960,"current_range_meters":16000,"station_id":"ce4bhbh2rcd13ifvqepg","pricing_plan_id":"cebpf4jnsgd1na2vs0mg"},{"bike_id":"40e25f70-02b5-4811-add6-6e8dbc26a035","system_id":"levelo_inurba_marseille","lat":43.28419,"lon":5.3501,"is_reserved":false,"is_disabled":false,"rental_uris":{"android":"levelo://app?vid=40e25f70-02b5-4811-add6-6e8dbc26a035","ios":"levelo://app?vid=40e25f70-02b5-4811-add6-6e8dbc26a035"},"vehicle_type_id":"4","last_reported":1740643960,"current_range_meters":16000,"station_id":"ce4bhbh2rcd13ifvqepg","pricing_plan_id":"cebpf4jnsgd1na2vs0mg"},{"bike_id":"3648d549-1aa7-44d1-bde4-30bac4ece65c","system_id":"levelo_inurba_marseille","lat":43.25576,"lon":5.38233,"is_reserved":false,"is_disabled":false,"rental_uris":{"android":"levelo://app?vid=3648d549-1aa7-44d1-bde4-30bac4ece65c","ios":"levelo://app?vid=3648d549-1aa7-44d1-bde4-30bac4ece65c"},"vehicle_type_id":"4","last_reported":1740643960,"current_range_meters":16000,"station_id":"ce4bhih2rcd13ifvqfs0","pricing_plan_id":"cebpf4jnsgd1na2vs0mg"},{"bike_id":"d337cc62-b29d-4e4a-bd4f-e767bd643d41","system_id":"levelo_inurba_marseille","lat":43.32097,"lon":5.36793,"is_reserved":false,"is_disabled":false,"rental_uris":{"android":"levelo://app?vid=d337cc62-b29d-4e4a-bd4f-e767bd643d41","ios":"levelo://app?vid=d337cc62-b29d-4e4a-bd4f-e767bd643d41"},"vehicle_type_id":"4","last_reported":1740643960,"current_range_meters":16000,"station_id":"ce4bhrh2rcd13ifvqhug","pricing_plan_id":"cebpf4jnsgd1na2vs0mg"},{"bike_id":"201b43e1-9166-4b93-9ecb-211bb1985890","system_id":"levelo_inurba_marseille","lat":43.3236,"lon":5.36768,"is_reserved":false,"is_disabled":false,"rental_uris":{"android":"levelo://app?vid=201b43e1-9166-4b93-9ecb-211bb1985890","ios":"levelo://app?vid=201b43e1-9166-4b93-9ecb-211bb1985890"},"vehicle_type_id":"4","last_reported":1740643960,"current_range_meters":16000,"station_id":"ce4bhsh2rcd13ifvqi2g","pricing_plan_id":"cebpf4jnsgd1na2vs0mg"},{"bike_id":"260e9eff-62b8-49ef-ab7f-7a286d72c19a","system_id":"levelo_inurba_marseille","lat":43.30277,"lon":5.37723,"is_reserved":false,"is_disabled":false,"rental_uris":{"android":"levelo://app?vid=260e9eff-62b8-49ef-ab7f-7a286d72c19a","ios":"levelo://app?vid=260e9eff-62b8-49ef-ab7f-7a286d72c19a"},"vehicle_type_id":"4","last_reported":1740643960,"current_range_meters":16400,"station_id":"ce4bguh2rcd13ifvqcj0","pricing_plan_id":"cebpf4jnsgd1na2vs0mg"},{"bike_id":"a05f0b98-a92c-4bff-8a2e-dc25e96a6b19","system_id":"levelo_inurba_marseille","lat":43.28619,"lon":5.35099,"is_reserved":false,"is_disabled":false,"rental_uris":{"android":"levelo://app?vid=a05f0b98-a92c-4bff-8a2e-dc25e96a6b19","ios":"levelo://app?vid=a05f0b98-a92c-4bff-8a2e-dc25e96a6b19"},"vehicle_type_id":"4","last_reported":1740643960,"current_range_meters":16400,"station_id":"ce4bhch2rcd13ifvqeug","pricing_plan_id":"cebpf4jnsgd1na2vs0mg"},{"bike_id":"31c58e5d-9342-432b-b32a-4dfcdf1667fa","system_id":"levelo_inurba_marseille","lat":43.24405,"lon":5.37074,"is_reserved":false,"is_disabled":false,"rental_uris":{"android":"levelo://app?vid=31c58e5d-9342-432b-b32a-4dfcdf1667fa","ios":"levelo://app?vid=31c58e5d-9342-432b-b32a-4dfcdf1667fa"},"vehicle_type_id":"4","last_reported":1740643960,"current_range_meters":16400,"station_id":"ce4bhhh2rcd13ifvqfk0","pricing_plan_id":"cebpf4jnsgd1na2vs0mg"},{"bike_id":"5c9bd7db-8a6c-43a7-bede-f07d72b67bf3","system_id":"levelo_inurba_marseille","lat":43.24086,"lon":5.37754,"is_reserved":false,"is_disabled":false,"rental_uris":{"android":"levelo://app?vid=5c9bd7db-8a6c-43a7-bede-f07d72b67bf3","ios":"levelo://app?vid=5c9bd7db-8a6c-43a7-bede-f07d72b67bf3"},"vehicle_type_id":"4","last_reported":1740643960,"current_range_meters":16400,"station_id":"ce4bhnp2rcd13ifvqgvg","pricing_plan_id":"cebpf4jnsgd1na2vs0mg"},{"bike_id":"8e5970ad-dc10-42e4-955e-ae8f9c3e18b8","system_id":"levelo_inurba_marseille","lat":43.27947,"lon":5.41067,"is_reserved":false,"is_disabled":false,"rental_uris":{"android":"levelo://app?vid=8e5970ad-dc10-42e4-955e-ae8f9c3e18b8","ios":"levelo://app?vid=8e5970ad-dc10-42e4-955e-ae8f9c3e18b8"},"vehicle_type_id":"4","last_reported":1740643960,"current_range_meters":16400,"station_id":"ce4bhnp2rcd13ifvqh0g","pricing_plan_id":"cebpf4jnsgd1na2vs0mg"},{"bike_id":"3de9aeda-1f9a-4bbc-8b90-e02a49e56ca9","system_id":"levelo_inurba_marseille","lat":43.23193,"lon":5.35564,"is_reserved":false,"is_disabled":false,"rental_uris":{"android":"levelo://app?vid=3de9aeda-1f9a-4bbc-8b90-e02a49e56ca9","ios":"levelo://app?vid=3de9aeda-1f9a-4bbc-8b90-e02a49e56ca9"},"vehicle_type_id":"4","last_reported":1740643960,"current_range_meters":16400,"station_id":"ce4bhu92rcd13ifvqi70","pricing_plan_id":"cebpf4jnsgd1na2vs0mg"},{"bike_id":"3e2b3fbe-cd63-4ef4-b263-efb1e006238b","system_id":"levelo_inurba_marseille","lat":43.30542,"lon":5.36558,"is_reserved":false,"is_disabled":false,"rental_uris":{"android":"levelo://app?vid=3e2b3fbe-cd63-4ef4-b263-efb1e006238b","ios":"levelo://app?vid=3e2b3fbe-cd63-4ef4-b263-efb1e006238b"},"vehicle_type_id":"4","last_reported":1740643960,"current_range_meters":16800,"station_id":"ce4bgs12rcd13ifvqcag","pricing_plan_id":"cebpf4jnsgd1na2vs0mg"},{"bike_id":"afaf37e6-5bf7-40bd-b7df-0795e8e45354","system_id":"levelo_inurba_marseille","lat":43.30289,"lon":5.3772,"is_reserved":false,"is_disabled":false,"rental_uris":{"android":"levelo://app?vid=afaf37e6-5bf7-40bd-b7df-0795e8e45354","ios":"levelo://app?vid=afaf37e6-5bf7-40bd-b7df-0795e8e45354"},"vehicle_type_id":"4","last_reported":1740643960,"current_range_meters":16800,"station_id":"ce4bguh2rcd13ifvqcj0","pricing_plan_id":"cebpf4jnsgd1na2vs0mg"},{"bike_id":"4e361d7e-a39a-446a-9f33-440e50fda21f","system_id":"levelo_inurba_marseille","lat":43.26213,"lon":5.37438,"is_reserved":false,"is_disabled":false,"rental_uris":{"android":"levelo://app?vid=4e361d7e-a39a-446a-9f33-440e50fda21f","ios":"levelo://app?vid=4e361d7e-a39a-446a-9f33-440e50fda21f"},"vehicle_type_id":"4","last_reported":1740643960,"current_range_meters":16800,"station_id":"ce4bhgp2rcd13ifvqfc0","pricing_plan_id":"cebpf4jnsgd1na2vs0mg"},{"bike_id":"b4236267-056a-42da-9163-64ba115e377a","system_id":"levelo_inurba_marseille","lat":43.27495,"lon":5.42466,"is_reserved":false,"is_disabled":false,"rental_uris":{"android":"levelo://app?vid=b4236267-056a-42da-9163-64ba115e377a","ios":"levelo://app?vid=b4236267-056a-42da-9163-64ba115e377a"},"vehicle_type_id":"4","last_reported":1740643960,"current_range_meters":16800,"station_id":"ce4bhn92rcd13ifvqgrg","pricing_plan_id":"cebpf4jnsgd1na2vs0mg"},{"bike_id":"f758054b-4291-4e44-a848-761f12279971","system_id":"levelo_inurba_marseille","lat":43.27489,"lon":5.42466,"is_reserved":false,"is_disabled":false,"rental_uris":{"android":"levelo://app?vid=f758054b-4291-4e44-a848-761f12279971","ios":"levelo://app?vid=f758054b-4291-4e44-a848-761f12279971"},"vehicle_type_id":"4","last_reported":1740643960,"current_range_meters":16800,"station_id":"ce4bhn92rcd13ifvqgrg","pricing_plan_id":"cebpf4jnsgd1na2vs0mg"},{"bike_id":"db2ad124-ff7f-4b99-8cdc-312b57437ef9","system_id":"levelo_inurba_marseille","lat":43.2407,"lon":5.37718,"is_reserved":false,"is_disabled":false,"rental_uris":{"android":"levelo://app?vid=db2ad124-ff7f-4b99-8cdc-312b57437ef9","ios":"levelo://app?vid=db2ad124-ff7f-4b99-8cdc-312b57437ef9"},"vehicle_type_id":"4","last_reported":1740643960,"current_range_meters":16800,"station_id":"ce4bhnp2rcd13ifvqgvg","pricing_plan_id":"cebpf4jnsgd1na2vs0mg"},{"bike_id":"627f9d50-99ab-4386-b5d3-b08940f1d52a","system_id":"levelo_inurba_marseille","lat":43.25542,"lon":5.38273,"is_reserved":false,"is_disabled":false,"rental_uris":{"android":"levelo://app?vid=627f9d50-99ab-4386-b5d3-b08940f1d52a","ios":"levelo://app?vid=627f9d50-99ab-4386-b5d3-b08940f1d52a"},"vehicle_type_id":"4","last_reported":1740643960,"current_range_meters":17200,"station_id":"","pricing_plan_id":"cebpf4jnsgd1na2vs0mg"},{"bike_id":"636160dc-69f4-40ef-b2ca-42dddff5e4c3","system_id":"levelo_inurba_marseille","lat":43.30167,"lon":5.38081,"is_reserved":false,"is_disabled":false,"rental_uris":{"android":"levelo://app?vid=636160dc-69f4-40ef-b2ca-42dddff5e4c3","ios":"levelo://app?vid=636160dc-69f4-40ef-b2ca-42dddff5e4c3"},"vehicle_type_id":"4","last_reported":1740643960,"current_range_meters":17200,"station_id":"ce4bgjp2rcd13ifvqbh0","pricing_plan_id":"cebpf4jnsgd1na2vs0mg"},{"bike_id":"a2035f8a-71d6-4907-9d48-9df7f337d1f0","system_id":"levelo_inurba_marseille","lat":43.31356,"lon":5.36692,"is_reserved":false,"is_disabled":false,"rental_uris":{"android":"levelo://app?vid=a2035f8a-71d6-4907-9d48-9df7f337d1f0","ios":"levelo://app?vid=a2035f8a-71d6-4907-9d48-9df7f337d1f0"},"vehicle_type_id":"4","last_reported":1740643960,"current_range_meters":17200,"station_id":"ce4bgr92rcd13ifvqc6g","pricing_plan_id":"cebpf4jnsgd1na2vs0mg"},{"bike_id":"822d4039-b8c9-4ac6-8818-dbaac4d02f79","system_id":"levelo_inurba_marseille","lat":43.30949,"lon":5.3904,"is_reserved":false,"is_disabled":false,"rental_uris":{"android":"levelo://app?vid=822d4039-b8c9-4ac6-8818-dbaac4d02f79","ios":"levelo://app?vid=822d4039-b8c9-4ac6-8818-dbaac4d02f79"},"vehicle_type_id":"4","last_reported":1740643960,"current_range_meters":17200,"station_id":"ce4bgup2rcd13ifvqco0","pricing_plan_id":"cebpf4jnsgd1na2vs0mg"},{"bike_id":"026c2382-fecb-44ba-8024-a189ac3dd4b2","system_id":"levelo_inurba_marseille","lat":43.30143,"lon":5.39872,"is_reserved":false,"is_disabled":false,"rental_uris":{"android":"levelo://app?vid=026c2382-fecb-44ba-8024-a189ac3dd4b2","ios":"levelo://app?vid=026c2382-fecb-44ba-8024-a189ac3dd4b2"},"vehicle_type_id":"4","last_reported":1740643960,"current_range_meters":17200,"station_id":"ce4bh0h2rcd13ifvqd40","pricing_plan_id":"cebpf4jnsgd1na2vs0mg"},{"bike_id":"a8f24c51-1307-4035-a214-7b4bdc3371a6","system_id":"levelo_inurba_marseille","lat":43.29184,"lon":5.35605,"is_reserved":false,"is_disabled":false,"rental_uris":{"android":"levelo://app?vid=a8f24c51-1307-4035-a214-7b4bdc3371a6","ios":"levelo://app?vid=a8f24c51-1307-4035-a214-7b4bdc3371a6"},"vehicle_type_id":"4","last_reported":1740643960,"current_range_meters":17200,"station_id":"ce4bh512rcd13ifvqe2g","pricing_plan_id":"cebpf4jnsgd1na2vs0mg"},{"bike_id":"26323dc2-e8b2-43f9-80bb-1c7b85e1a16d","system_id":"levelo_inurba_marseille","lat":43.28429,"lon":5.35005,"is_reserved":false,"is_disabled":false,"rental_uris":{"android":"levelo://app?vid=26323dc2-e8b2-43f9-80bb-1c7b85e1a16d","ios":"levelo://app?vid=26323dc2-e8b2-43f9-80bb-1c7b85e1a16d"},"vehicle_type_id":"4","last_reported":1740643960,"current_range_meters":17200,"station_id":"ce4bhbh2rcd13ifvqepg","pricing_plan_id":"cebpf4jnsgd1na2vs0mg"},{"bike_id":"304df838-b133-4174-bfb6-4755460cc02a","system_id":"levelo_inurba_marseille","lat":43.28615,"lon":5.35104,"is_reserved":false,"is_disabled":false,"rental_uris":{"android":"levelo://app?vid=304df838-b133-4174-bfb6-4755460cc02a","ios":"levelo://app?vid=304df838-b133-4174-bfb6-4755460cc02a"},"vehicle_type_id":"4","last_reported":1740643960,"current_range_meters":17200,"station_id":"ce4bhch2rcd13ifvqeug","pricing_plan_id":"cebpf4jnsgd1na2vs0mg"},{"bike_id":"a9da3dc9-ca2e-494e-9892-84cc0468751b","system_id":"levelo_inurba_marseille","lat":43.32475,"lon":5.36565,"is_reserved":false,"is_disabled":false,"rental_uris":{"android":"levelo://app?vid=a9da3dc9-ca2e-494e-9892-84cc0468751b","ios":"levelo://app?vid=a9da3dc9-ca2e-494e-9892-84cc0468751b"},"vehicle_type_id":"4","last_reported":1740643960,"current_range_meters":17200,"station_id":"ce4bhs12rcd13ifvqhvg","pricing_plan_id":"cebpf4jnsgd1na2vs0mg"},{"bike_id":"7cf7b894-d393-4f1a-903c-6b57f99cdc54","system_id":"levelo_inurba_marseille","lat":43.26378,"lon":5.3843,"is_reserved":false,"is_disabled":false,"rental_uris":{"android":"levelo://app?vid=7cf7b894-d393-4f1a-903c-6b57f99cdc54","ios":"levelo://app?vid=7cf7b894-d393-4f1a-903c-6b57f99cdc54"},"vehicle_type_id":"4","last_reported":1740643960,"current_range_meters":17600,"station_id":"","pricing_plan_id":"cebpf4jnsgd1na2vs0mg"},{"bike_id":"ef77bf7f-5b88-41c9-8d3b-c8c9c0447dd9","system_id":"levelo_inurba_marseille","lat":43.28052,"lon":5.35075,"is_reserved":false,"is_disabled":false,"rental_uris":{"android":"levelo://app?vid=ef77bf7f-5b88-41c9-8d3b-c8c9c0447dd9","ios":"levelo://app?vid=ef77bf7f-5b88-41c9-8d3b-c8c9c0447dd9"},"vehicle_type_id":"4","last_reported":1740643960,"current_range_meters":17600,"station_id":"","pricing_plan_id":"cebpf4jnsgd1na2vs0mg"},{"bike_id":"8e100345-e773-4b5f-aa04-a4e55e7b32d1","system_id":"levelo_inurba_marseille","lat":43.3149,"lon":5.37305,"is_reserved":false,"is_disabled":false,"rental_uris":{"android":"levelo://app?vid=8e100345-e773-4b5f-aa04-a4e55e7b32d1","ios":"levelo://app?vid=8e100345-e773-4b5f-aa04-a4e55e7b32d1"},"vehicle_type_id":"4","last_reported":1740643960,"current_range_meters":17600,"station_id":"ce4bgt12rcd13ifvqcd0","pricing_plan_id":"cebpf4jnsgd1na2vs0mg"},{"bike_id":"dcda7cff-b78d-4a28-864d-a0bcfc3e5fcf","system_id":"levelo_inurba_marseille","lat":43.295715,"lon":5.375214,"is_reserved":false,"is_disabled":false,"rental_uris":{"android":"levelo://app?vid=dcda7cff-b78d-4a28-864d-a0bcfc3e5fcf","ios":"levelo://app?vid=dcda7cff-b78d-4a28-864d-a0bcfc3e5fcf"},"vehicle_type_id":"4","last_reported":1740643960,"current_range_meters":17600,"station_id":"ce4bgup2rcd13ifvqco0","pricing_plan_id":"cebpf4jnsgd1na2vs0mg"},{"bike_id":"568ca6bb-90f0-4978-a30f-31d6c18f0131","system_id":"levelo_inurba_marseille","lat":43.30242,"lon":5.40072,"is_reserved":false,"is_disabled":false,"rental_uris":{"android":"levelo://app?vid=568ca6bb-90f0-4978-a30f-31d6c18f0131","ios":"levelo://app?vid=568ca6bb-90f0-4978-a30f-31d6c18f0131"},"vehicle_type_id":"4","last_reported":1740643960,"current_range_meters":17600,"station_id":"ce4bgvh2rcd13ifvqcs0","pricing_plan_id":"cebpf4jnsgd1na2vs0mg"},{"bike_id":"8e6795ef-5cc7-4703-bc55-898144eada56","system_id":"levelo_inurba_marseille","lat":43.28426,"lon":5.34991,"is_reserved":false,"is_disabled":false,"rental_uris":{"android":"levelo://app?vid=8e6795ef-5cc7-4703-bc55-898144eada56","ios":"levelo://app?vid=8e6795ef-5cc7-4703-bc55-898144eada56"},"vehicle_type_id":"4","last_reported":1740643960,"current_range_meters":17600,"station_id":"ce4bhbh2rcd13ifvqepg","pricing_plan_id":"cebpf4jnsgd1na2vs0mg"},{"bike_id":"43d6aa6f-20c7-4a1b-bcb8-31b660876567","system_id":"levelo_inurba_marseille","lat":43.26555,"lon":5.37327,"is_reserved":false,"is_disabled":false,"rental_uris":{"android":"levelo://app?vid=43d6aa6f-20c7-4a1b-bcb8-31b660876567","ios":"levelo://app?vid=43d6aa6f-20c7-4a1b-bcb8-31b660876567"},"vehicle_type_id":"4","last_reported":1740643960,"current_range_meters":17600,"station_id":"ce4bhg12rcd13ifvqf70","pricing_plan_id":"cebpf4jnsgd1na2vs0mg"},{"bike_id":"2cca7cb6-6b6b-497e-8a56-b7cd0e9f4274","system_id":"levelo_inurba_marseille","lat":43.23149,"lon":5.43699,"is_reserved":false,"is_disabled":false,"rental_uris":{"android":"levelo://app?vid=2cca7cb6-6b6b-497e-8a56-b7cd0e9f4274","ios":"levelo://app?vid=2cca7cb6-6b6b-497e-8a56-b7cd0e9f4274"},"vehicle_type_id":"4","last_reported":1740643960,"current_range_meters":17600,"station_id":"ce4bhmp2rcd13ifvqgog","pricing_plan_id":"cebpf4jnsgd1na2vs0mg"},{"bike_id":"4de3df94-923d-4f39-b3cf-6e34de3f925a","system_id":"levelo_inurba_marseille","lat":43.24065,"lon":5.37769,"is_reserved":false,"is_disabled":false,"rental_uris":{"android":"levelo://app?vid=4de3df94-923d-4f39-b3cf-6e34de3f925a","ios":"levelo://app?vid=4de3df94-923d-4f39-b3cf-6e34de3f925a"},"vehicle_type_id":"4","last_reported":1740643960,"current_range_meters":17600,"station_id":"ce4bhnp2rcd13ifvqgvg","pricing_plan_id":"cebpf4jnsgd1na2vs0mg"},{"bike_id":"3f5e4c77-943b-4a46-b257-614bf13afec4","system_id":"levelo_inurba_marseille","lat":43.24171,"lon":5.36397,"is_reserved":false,"is_disabled":false,"rental_uris":{"android":"levelo://app?vid=3f5e4c77-943b-4a46-b257-614bf13afec4","ios":"levelo://app?vid=3f5e4c77-943b-4a46-b257-614bf13afec4"},"vehicle_type_id":"4","last_reported":1740643960,"current_range_meters":17600,"station_id":"cpo36qri1sfpv3e86is0","pricing_plan_id":"cebpf4jnsgd1na2vs0mg"},{"bike_id":"fd33affc-65f2-491a-afd7-94e02c2bf6b7","system_id":"levelo_inurba_marseille","lat":43.29914,"lon":5.3748,"is_reserved":false,"is_disabled":false,"rental_uris":{"android":"levelo://app?vid=fd33affc-65f2-491a-afd7-94e02c2bf6b7","ios":"levelo://app?vid=fd33affc-65f2-491a-afd7-94e02c2bf6b7"},"vehicle_type_id":"4","last_reported":1740643960,"current_range_meters":18000,"station_id":"ce4bgjh2rcd13ifvqbg0","pricing_plan_id":"cebpf4jnsgd1na2vs0mg"},{"bike_id":"25396255-a5b9-41b8-90e6-f1f610bbaa89","system_id":"levelo_inurba_marseille","lat":43.30961,"lon":5.39045,"is_reserved":false,"is_disabled":false,"rental_uris":{"android":"levelo://app?vid=25396255-a5b9-41b8-90e6-f1f610bbaa89","ios":"levelo://app?vid=25396255-a5b9-41b8-90e6-f1f610bbaa89"},"vehicle_type_id":"4","last_reported":1740643960,"current_range_meters":18000,"station_id":"ce4bgup2rcd13ifvqco0","pricing_plan_id":"cebpf4jnsgd1na2vs0mg"},{"bike_id":"4d97de54-06b3-4266-a3cf-47ca7161b144","system_id":"levelo_inurba_marseille","lat":43.31271,"lon":5.40184,"is_reserved":false,"is_disabled":false,"rental_uris":{"android":"levelo://app?vid=4d97de54-06b3-4266-a3cf-47ca7161b144","ios":"levelo://app?vid=4d97de54-06b3-4266-a3cf-47ca7161b144"},"vehicle_type_id":"4","last_reported":1740643960,"current_range_meters":18000,"station_id":"ce4bh092rcd13ifvqd30","pricing_plan_id":"cebpf4jnsgd1na2vs0mg"},{"bike_id":"de1a8174-9c1c-4eb4-b967-ef10930e7cd8","system_id":"levelo_inurba_marseille","lat":43.28992,"lon":5.3784,"is_reserved":false,"is_disabled":false,"rental_uris":{"android":"levelo://app?vid=de1a8174-9c1c-4eb4-b967-ef10930e7cd8","ios":"levelo://app?vid=de1a8174-9c1c-4eb4-b967-ef10930e7cd8"},"vehicle_type_id":"4","last_reported":1740643960,"current_range_meters":18000,"station_id":"ce4bh9p2rcd13ifvqed0","pricing_plan_id":"cebpf4jnsgd1na2vs0mg"},{"bike_id":"0cbb84e0-d2b4-464c-8596-e5878a1ebf78","system_id":"levelo_inurba_marseille","lat":43.27917,"lon":5.39587,"is_reserved":false,"is_disabled":false,"rental_uris":{"android":"levelo://app?vid=0cbb84e0-d2b4-464c-8596-e5878a1ebf78","ios":"levelo://app?vid=0cbb84e0-d2b4-464c-8596-e5878a1ebf78"},"vehicle_type_id":"4","last_reported":1740643960,"current_range_meters":18000,"station_id":"ce4bhf92rcd13ifvqf40","pricing_plan_id":"cebpf4jnsgd1na2vs0mg"},{"bike_id":"23571aa0-2e97-46a3-9ed2-542ddaea5066","system_id":"levelo_inurba_marseille","lat":43.27488,"lon":5.42468,"is_reserved":false,"is_disabled":false,"rental_uris":{"android":"levelo://app?vid=23571aa0-2e97-46a3-9ed2-542ddaea5066","ios":"levelo://app?vid=23571aa0-2e97-46a3-9ed2-542ddaea5066"},"vehicle_type_id":"4","last_reported":1740643960,"current_range_meters":18000,"station_id":"ce4bhn92rcd13ifvqgrg","pricing_plan_id":"cebpf4jnsgd1na2vs0mg"},