{"last_updated":1727657213,"ttl":60,"version":"2.2","data":{"bikes":[{"bike_id":"fc63f147-84a5-415c-bb98-25ba16874896","system_id":"levelo_inurba_marseille","lat":43.23195,"lon":5.3556,"is_reserved":false,"is_disabled":false,"rental_uris":{"android":"levelo://app?vid=fc63f147-84a5-415c-bb98-25ba16874896","ios":"levelo://app?vid=fc63f147-84a5-415c-bb98-25ba16874896"},"vehicle_type_id":"4","last_reported":1727657213,"current_range_meters":38400,"station_id":"ce4bhu92rcd13ifvqi70","pricing_plan_id":"cebpf4jnsgd1na2vs0mg"},{"bike_id":"a7a62028-afd7-4edb-9cb3-d283aa91113b","system_id":"levelo_inurba_marseille","lat":43.30481,"lon":5.390669,"is_reserved":false,"is_disabled":false,"rental_uris":{"android":"levelo://app?vid=a7a62028-afd7-4edb-9cb3-d283aa91113b","ios":"levelo://app?vid=a7a62028-afd7-4edb-9cb3-d283aa91113b"},"vehicle_type_id":"4","last_reported":1727657213,"current_range_meters":37600,"station_id":"ce4bgk12rcd13ifvqbi0","pricing_plan_id":"cebpf4jnsgd1na2vs0mg"},{"bike_id":"a78ef135-8636-4c7f-8ea0-04e46d0f96bc","system_id":"levelo_inurba_marseille","lat":43.2756,"lon":5.38421,"is_reserved":false,"is_disabled":false,"rental_uris":{"android":"levelo://app?vid=a78ef135-8636-4c7f-8ea0-04e46d0f96bc","ios":"levelo://app?vid=a78ef135-8636-4c7f-8ea0-04e46d0f96bc"},"vehicle_type_id":"4","last_reported":1727657213,"current_range_meters":30400,"station_id":"ce4bhh92rcd13ifvqfi0","pricing_plan_id":"cebpf4jnsgd1na2vs0mg"},{"bike_id":"f811606a-b2c6-4ddd-ae20-d2e017211649","system_id":"levelo_inurba_marseille","lat":43.30422,"lon":5.4129,"is_reserved":false,"is_disabled":false,"rental_uris":{"android":"levelo://app?vid=f811606a-b2c6-4ddd-ae20-d2e017211649","ios":"levelo://app?vid=f811606a-b2c6-4ddd-ae20-d2e017211649"},"vehicle_type_id":"4","last_reported":1727657213,"current_range_meters":36400,"station_id":"ce4bhop2rcd13ifvqh8g","pricing_plan_id":"cebpf4jnsgd1na2vs0mg"},{"bike_id":"b0faf830-2456-4369-b1dc-cb8009ad1478","system_id":"levelo_inurba_marseille","lat":43.31484,"lon":5.37258,"is_reserved":false,"is_disabled":false,"rental_uris":{"android":"levelo://app?vid=b0faf830-2456-4369-b1dc-cb8009ad1478","ios":"levelo://app?vid=b0faf830-2456-4369-b1dc-cb8009ad1478"},"vehicle_type_id":"4","last_reported":1727657213,"current_range_meters":38400,"station_id":"ce4bgt12rcd13ifvqcd0","pricing_plan_id":"cebpf4jnsgd1na2vs0mg"},{"bike_id":"ce22a016-129a-4ba8-bee7-01a9d6489f14","system_id":"levelo_inurba_marseille","lat":43.29568,"lon":5.39962,"is_reserved":false,"is_disabled":false,"rental_uris":{"android":"levelo://app?vid=ce22a016-129a-4ba8-bee7-01a9d6489f14","ios":"levelo://app?vid=ce22a016-129a-4ba8-bee7-01a9d6489f14"},"vehicle_type_id":"4","last_reported":1727657213,"current_range_meters":10000,"station_id":"ce4bh312rcd13ifvqdj0","pricing_plan_id":"cebpf4jnsgd1na2vs0mg"},{"bike_id":"9083a365-5b13-496f-88c7-3d155c1c89ba","system_id":"levelo_inurba_marseille","lat":43.29869,"lon":5.39739,"is_reserved":false,"is_disabled":false,"rental_uris":{"android":"levelo://app?vid=9083a365-5b13-496f-88c7-3d155c1c89ba","ios":"levelo://app?vid=9083a365-5b13-496f-88c7-3d155c1c89ba"},"vehicle_type_id":"4","last_reported":1727657213,"current_range_meters":38400,"station_id":"ce4bh0h2rcd13ifvqd50","pricing_plan_id":"cebpf4jnsgd1na2vs0mg"},{"bike_id":"dc24d4c3-9cb1-4022-b2a3-0568500844b7","system_id":"levelo_inurba_marseille","lat":43.28451,"lon":5.35887,"is_reserved":false,"is_disabled":false,"rental_uris":{"android":"levelo://app?vid=dc24d4c3-9cb1-4022-b2a3-0568500844b7","ios":"levelo://app?vid=dc24d4c3-9cb1-4022-b2a3-0568500844b7"},"vehicle_type_id":"4","last_reported":1727657213,"current_range_meters":19600,"station_id":"ce4bhah2rcd13ifvqei0","pricing_plan_id":"cebpf4jnsgd1na2vs0mg"},{"bike_id":"0ea9e4c4-cc08-41d9-862d-a80f7d54740c","system_id":"levelo_inurba_marseille","lat":43.3268,"lon":5.37494,"is_reserved":false,"is_disabled":false,"rental_uris":{"android":"levelo://app?vid=0ea9e4c4-cc08-41d9-862d-a80f7d54740c","ios":"levelo://app?vid=0ea9e4c4-cc08-41d9-862d-a80f7d54740c"},"vehicle_type_id":"4","last_reported":1727657213,"current_range_meters":34800,"station_id":"","pricing_plan_id":"cebpf4jnsgd1na2vs0mg"},{"bike_id":"4c916341-3683-414d-9c10-1d32039755c0","system_id":"levelo_inurba_marseille","lat":43.28451,"lon":5.39176,"is_reserved":false,"is_disabled":false,"rental_uris":{"android":"levelo://app?vid=4c916341-3683-414d-9c10-1d32039755c0","ios":"levelo://app?vid=4c916341-3683-414d-9c10-1d32039755c0"},"vehicle_type_id":"4","last_reported":1727657213,"current_range_meters":14400,"station_id":"ce4bhoh2rcd13ifvqh5g","pricing_plan_id":"cebpf4jnsgd1na2vs0mg"},{"bike_id":"66199279-4f65-44e6-9eaf-44a55c28ea16","system_id":"levelo_inurba_marseille","lat":43.28112,"lon":5.3783,"is_reserved":false,"is_disabled":false,"rental_uris":{"android":"levelo://app?vid=66199279-4f65-44e6-9eaf-44a55c28ea16","ios":"levelo://app?vid=66199279-4f65-44e6-9eaf-44a55c28ea16"},"vehicle_type_id":"4","last_reported":1727657213,"current_range_meters":36000,"station_id":"ce4bha12rcd13ifvqee0","pricing_plan_id":"cebpf4jnsgd1na2vs0mg"},{"bike_id":"431acd76-2fda-479a-af23-895917a7252a","system_id":"levelo_inurba_marseille","lat":43.32172,"lon":5.38772,"is_reserved":false,"is_disabled":false,"rental_uris":{"android":"levelo://app?vid=431acd76-2fda-479a-af23-895917a7252a","ios":"levelo://app?vid=431acd76-2fda-479a-af23-895917a7252a"},"vehicle_type_id":"4","last_reported":1727657213,"current_range_meters":21600,"station_id":"","pricing_plan_id":"cebpf4jnsgd1na2vs0mg"},{"bike_id":"5816cec8-8917-4734-9ca3-2441e17f7ba1","system_id":"levelo_inurba_marseille","lat":43.24169,"lon":5.36402,"is_reserved":false,"is_disabled":false,"rental_uris":{"android":"levelo://app?vid=5816cec8-8917-4734-9ca3-2441e17f7ba1","ios":"levelo://app?vid=5816cec8-8917-4734-9ca3-2441e17f7ba1"},"vehicle_type_id":"4","last_reported":1727657213,"current_range_meters":23200,"station_id":"cpo36qri1sfpv3e86is0","pricing_plan_id":"cebpf4jnsgd1na2vs0mg"},{"bike_id":"d4c74265-2442-4454-aa29-65e3cce400cc","system_id":"levelo_inurba_marseille","lat":43.32295,"lon":5.38666,"is_reserved":false,"is_disabled":false,"rental_uris":{"android":"levelo://app?vid=d4c74265-2442-4454-aa29-65e3cce400cc","ios":"levelo://app?vid=d4c74265-2442-4454-aa29-65e3cce400cc"},"vehicle_type_id":"4","last_reported":1727657213,"current_range_meters":36000,"station_id":"","pricing_plan_id":"cebpf4jnsgd1na2vs0mg"},{"bike_id":"3701e278-db4f-496c-8858-723875cbdd20","system_id":"levelo_inurba_marseille","lat":43.28414,"lon":5.37523,"is_reserved":false,"is_disabled":false,"rental_uris":{"android":"levelo://app?vid=3701e278-db4f-496c-8858-723875cbdd20","ios":"levelo://app?vid=3701e278-db4f-496c-8858-723875cbdd20"},"vehicle_type_id":"4","last_reported":1727657213,"current_range_meters":33600,"station_id":"ce4bh412rcd13ifvqds0","pricing_plan_id":"cebpf4jnsgd1na2vs0mg"},{"bike_id":"af6ac25d-d36b-4e61-82a0-7e16798e6711","system_id":"levelo_inurba_marseille","lat":43.26568,"lon":5.39011,"is_reserved":false,"is_disabled":false,"rental_uris":{"android":"levelo://app?vid=af6ac25d-d36b-4e61-82a0-7e16798e6711","ios":"levelo://app?vid=af6ac25d-d36b-4e61-82a0-7e16798e6711"},"vehicle_type_id":"4","last_reported":1727657213,"current_range_meters":38800,"station_id":"ce4bhe12rcd13ifvqf30","pricing_plan_id":"cebpf4jnsgd1na2vs0mg"},{"bike_id":"9a47dcb1-61bb-411f-affb-55731480b4cc","system_id":"levelo_inurba_marseille","lat":43.23967,"lon":5.36611,"is_reserved":false,"is_disabled":false,"rental_uris":{"android":"levelo://app?vid=9a47dcb1-61bb-411f-affb-55731480b4cc","ios":"levelo://app?vid=9a47dcb1-61bb-411f-affb-55731480b4cc"},"vehicle_type_id":"4","last_reported":1727657213,"current_range_meters":35600,"station_id":"ce4bhi12rcd13ifvqfp0","pricing_plan_id":"cebpf4jnsgd1na2vs0mg"},{"bike_id":"eaad5887-be8f-44ad-901f-8e88f39a4594","system_id":"levelo_inurba_marseille","lat":43.27575,"lon":5.38429,"is_reserved":false,"is_disabled":false,"rental_uris":{"android":"levelo://app?vid=eaad5887-be8f-44ad-901f-8e88f39a4594","ios":"levelo://app?vid=eaad5887-be8f-44ad-901f-8e88f39a4594"},"vehicle_type_id":"4","last_reported":1727657213,"current_range_meters":38000,"station_id":"ce4bhh92rcd13ifvqfi0","pricing_plan_id":"cebpf4jnsgd1na2vs0mg"},{"bike_id":"ace3e40a-0db9-464b-934f-3d6ab66f439d","system_id":"levelo_inurba_marseille","lat":43.27067,"lon":5.42269,"is_reserved":false,"is_disabled":false,"rental_uris":{"android":"levelo://app?vid=ace3e40a-0db9-464b-934f-3d6ab66f439d","ios":"levelo://app?vid=ace3e40a-0db9-464b-934f-3d6ab66f439d"},"vehicle_type_id":"4","last_reported":1727657213,"current_range_meters":36400,"station_id":"ce4bhk92rcd13ifvqgb0","pricing_plan_id":"cebpf4jnsgd1na2vs0mg"},{"bike_id":"c74ce1f8-eba2-44ef-ba2a-4a0bf0f62595","system_id":"levelo_inurba_marseille","lat":43.30886,"lon":5.37203,"is_reserved":false,"is_disabled":false,"rental_uris":{"android":"levelo://app?vid=c74ce1f8-eba2-44ef-ba2a-4a0bf0f62595","ios":"levelo://app?vid=c74ce1f8-eba2-44ef-ba2a-4a0bf0f62595"},"vehicle_type_id":"4","last_reported":1727657213,"current_range_meters":17200,"station_id":"ce4bguh2rcd13ifvqckg","pricing_plan_id":"cebpf4jnsgd1na2vs0mg"},{"bike_id":"76e6ba9f-8f24-47d5-a6ef-9536a1d68289","system_id":"levelo_inurba_marseille","lat":43.28693,"lon":5.37388,"is_reserved":false,"is_disabled":false,"rental_uris":{"android":"levelo://app?vid=76e6ba9f-8f24-47d5-a6ef-9536a1d68289","ios":"levelo://app?vid=76e6ba9f-8f24-47d5-a6ef-9536a1d68289"},"vehicle_type_id":"4","last_reported":1727657213,"current_range_meters":38000,"station_id":"ce4bh3p2rcd13ifvqdq0","pricing_plan_id":"cebpf4jnsgd1na2vs0mg"},{"bike_id":"fc1335cc-dbe1-4769-bd3c-939e4d912230","system_id":"levelo_inurba_marseille","lat":43.29782,"lon":5.37098,"is_reserved":false,"is_disabled":false,"rental_uris":{"android":"levelo://app?vid=fc1335cc-dbe1-4769-bd3c-939e4d912230","ios":"levelo://app?vid=fc1335cc-dbe1-4769-bd3c-939e4d912230"},"vehicle_type_id":"4","last_reported":1727657213,"current_range_meters":37600,"station_id":"ce4bgop2rcd13ifvqc1g","pricing_plan_id":"cebpf4jnsgd1na2vs0mg"},{"bike_id":"0c83b881-2104-4096-b03b-bb90e8cfa37c","system_id":"levelo_inurba_marseille","lat":43.28414,"lon":5.37522,"is_reserved":false,"is_disabled":false,"rental_uris":{"android":"levelo://app?vid=0c83b881-2104-4096-b03b-bb90e8cfa37c","ios":"levelo://app?vid=0c83b881-2104-4096-b03b-bb90e8cfa37c"},"vehicle_type_id":"4","last_reported":1727657213,"current_range_meters":38800,"station_id":"ce4bh412rcd13ifvqds0","pricing_plan_id":"cebpf4jnsgd1na2vs0mg"},{"bike_id":"774fb271-ce7e-434d-a9d4-c38b1218490c","system_id":"levelo_inurba_marseille","lat":43.24658,"lon":5.38889,"is_reserved":false,"is_disabled":false,"rental_uris":{"android":"levelo://app?vid=774fb271-ce7e-434d-a9d4-c38b1218490c","ios":"levelo://app?vid=774fb271-ce7e-434d-a9d4-c38b1218490c"},"vehicle_type_id":"4","last_reported":1727657213,"current_range_meters":10000,"station_id":"ce4bhg12rcd13ifvqf60","pricing_plan_id":"cebpf4jnsgd1na2vs0mg"},{"bike_id":"ad39acce-a3c1-44d4-971b-ebc578fc76ab","system_id":"levelo_inurba_marseille","lat":43.28158,"lon":5.42642,"is_reserved":false,"is_disabled":false,"rental_uris":{"android":"levelo://app?vid=ad39acce-a3c1-44d4-971b-ebc578fc76ab","ios":"levelo://app?vid=ad39acce-a3c1-44d4-971b-ebc578fc76ab"},"vehicle_type_id":"4","last_reported":1727657213,"current_range_meters":30800,"station_id":"ce4bhnh2rcd13ifvqgug","pricing_plan_id":"cebpf4jnsgd1na2vs0mg"},{"bike_id":"4c4d2c5f-5f49-42be-9e75-2a37d1d48435","system_id":"levelo_inurba_marseille","lat":43.31178,"lon":5.38726,"is_reserved":false,"is_disabled":false,"rental_uris":{"android":"levelo://app?vid=4c4d2c5f-5f49-42be-9e75-2a37d1d48435","ios":"levelo://app?vid=4c4d2c5f-5f49-42be-9e75-2a37d1d48435"},"vehicle_type_id":"4","last_reported":1727657213,"current_range_meters":32000,"station_id":"ce4bgv12rcd13ifvqcp0","pricing_plan_id":"cebpf4jnsgd1na2vs0mg"},{"bike_id":"0234082f-c00c-45ec-a164-58c109919eae","system_id":"levelo_inurba_marseille","lat":43.2511,"lon":5.40325,"is_reserved":false,"is_disabled":false,"rental_uris":{"android":"levelo://app?vid=0234082f-c00c-45ec-a164-58c109919eae","ios":"levelo://app?vid=0234082f-c00c-45ec-a164-58c109919eae"},"vehicle_type_id":"4","last_reported":1727657213,"current_range_meters":38800,"station_id":"ce4bhlh2rcd13ifvqgig","pricing_plan_id":"cebpf4jnsgd1na2vs0mg"},{"bike_id":"a7f9067a-1b54-4cc7-955d-3bd52b65355a","system_id":"levelo_inurba_marseille","lat":43.30649,"lon":5.40085,"is_reserved":false,"is_disabled":false,"rental_uris":{"android":"levelo://app?vid=a7f9067a-1b54-4cc7-955d-3bd52b65355a","ios":"levelo://app?vid=a7f9067a-1b54-4cc7-955d-3bd52b65355a"},"vehicle_type_id":"4","last_reported":1727657213,"current_range_meters":7200,"station_id":"ce4bh112rcd13ifvqda0","pricing_plan_id":"cebpf4jnsgd1na2vs0mg"},{"bike_id":"0521cc37-3a0f-4bc8-964a-96f026706e98","system_id":"levelo_inurba_marseille","lat":43.28018,"lon":5.36085,"is_reserved":false,"is_disabled":false,"rental_uris":{"android":"levelo://app?vid=0521cc37-3a0f-4bc8-964a-96f026706e98","ios":"levelo://app?vid=0521cc37-3a0f-4bc8-964a-96f026706e98"},"vehicle_type_id":"4","last_reported":1727657213,"current_range_meters":22000,"station_id":"","pricing_plan_id":"cebpf4jnsgd1na2vs0mg"},{"bike_id":"b7e783cf-2e99-47af-aa70-59c0709d4797","system_id":"levelo_inurba_marseille","lat":43.31705,"lon":5.37749,"is_reserved":false,"is_disabled":false,"rental_uris":{"android":"levelo://app?vid=b7e783cf-2e99-47af-aa70-59c0709d4797","ios":"levelo://app?vid=b7e783cf-2e99-47af-aa70-59c0709d4797"},"vehicle_type_id":"4","last_reported":1727657213,"current_range_meters":38800,"station_id":"ce4bgth2rcd13ifvqch0","pricing_plan_id":"cebpf4jnsgd1na2vs0mg"},{"bike_id":"85e14133-988d-4b21-9098-bd3c14cace39","system_id":"levelo_inurba_marseille","lat":43.274921,"lon":5.424334,"is_reserved":false,"is_disabled":false,"rental_uris":{"android":"levelo://app?vid=85e14133-988d-4b21-9098-bd3c14cace39","ios":"levelo://app?vid=85e14133-988d-4b21-9098-bd3c14cace39"},"vehicle_type_id":"4","last_reported":1727657213,"current_range_meters":35600,"station_id":"ce4bhn92rcd13ifvqgrg","pricing_plan_id":"cebpf4jnsgd1na2vs0mg"},{"bike_id":"a65274c5-a672-4ff9-8c78-bf687f232a6b","system_id":"levelo_inurba_marseille","lat":43.27843,"lon":5.39211,"is_reserved":false,"is_disabled":false,"rental_uris":{"android":"levelo://app?vid=a65274c5-a672-4ff9-8c78-bf687f232a6b","ios":"levelo://app?vid=a65274c5-a672-4ff9-8c78-bf687f232a6b"},"vehicle_type_id":"4","last_reported":1727657213,"current_range_meters":34800,"station_id":"ce4bhjp2rcd13ifvqga0","pricing_plan_id":"cebpf4jnsgd1na2vs0mg"},{"bike_id":"0040b39a-a047-4725-a4ce-a062b24cc79f","system_id":"levelo_inurba_marseille","lat":43.25821,"lon":5.39421,"is_reserved":false,"is_disabled":false,"rental_uris":{"android":"levelo://app?vid=0040b39a-a047-4725-a4ce-a062b24cc79f","ios":"levelo://app?vid=0040b39a-a047-4725-a4ce-a062b24cc79f"},"vehicle_type_id":"4","last_reported":1727657213,"current_range_meters":38800,"station_id":"ce4bhip2rcd13ifvqft0","pricing_plan_id":"cebpf4jnsgd1na2vs0mg"},{"bike_id":"45273442-0258-4613-8edf-b25bf26f941c","system_id":"levelo_inurba_marseille","lat":43.29531,"lon":5.3904,"is_reserved":false,"is_disabled":false,"rental_uris":{"android":"levelo://app?vid=45273442-0258-4613-8edf-b25bf26f941c","ios":"levelo://app?vid=45273442-0258-4613-8edf-b25bf26f941c"},"vehicle_type_id":"4","last_reported":1727657213,"current_range_meters":38800,"station_id":"ce4bh3p2rcd13ifvqdp0","pricing_plan_id":"cebpf4jnsgd1na2vs0mg"},{"bike_id":"2ec78b01-d2c8-4577-ace2-fa6a643f8218","system_id":"levelo_inurba_marseille","lat":43.31366,"lon":5.385,"is_reserved":false,"is_disabled":false,"rental_uris":{"android":"levelo://app?vid=2ec78b01-d2c8-4577-ace2-fa6a643f8218","ios":"levelo://app?vid=2ec78b01-d2c8-4577-ace2-fa6a643f8218"},"vehicle_type_id":"4","last_reported":1727657213,"current_range_meters":21600,"station_id":"ce4bgt92rcd13ifvqcf0","pricing_plan_id":"cebpf4jnsgd1na2vs0mg"},{"bike_id":"9897413b-73f0-4239-985c-48ee52d8143f","system_id":"levelo_inurba_marseille","lat":43.33606,"lon":5.41034,"is_reserved":false,"is_disabled":false,"rental_uris":{"android":"levelo://app?vid=9897413b-73f0-4239-985c-48ee52d8143f","ios":"levelo://app?vid=9897413b-73f0-4239-985c-48ee52d8143f"},"vehicle_type_id":"4","last_reported":1727657213,"current_range_meters":10000,"station_id":"ce4bhqh2rcd13ifvqhmg","pricing_plan_id":"cebpf4jnsgd1na2vs0mg"},{"bike_id":"1ce7c25b-6bd2-4b64-b4ae-543ea784fc5d","system_id":"levelo_inurba_marseille","lat":43.337444,"lon":5.374475,"is_reserved":false,"is_disabled":false,"rental_uris":{"android":"levelo://app?vid=1ce7c25b-6bd2-4b64-b4ae-543ea784fc5d","ios":"levelo://app?vid=1ce7c25b-6bd2-4b64-b4ae-543ea784fc5d"},"vehicle_type_id":"4","last_reported":1727657213,"current_range_meters":30400,"station_id":"","pricing_plan_id":"cebpf4jnsgd1na2vs0mg"},{"bike_id":"dda2bca1-17aa-4dee-93b7-7c752c09dbea","system_id":"levelo_inurba_marseille","lat":43.27196,"lon":5.40983,"is_reserved":false,"is_disabled":false,"rental_uris":{"android":"levelo://app?vid=dda2bca1-17aa-4dee-93b7-7c752c09dbea","ios":"levelo://app?vid=dda2bca1-17aa-4dee-93b7-7c752c09dbea"},"vehicle_type_id":"4","last_reported":1727657213,"current_range_meters":31200,"station_id":"ce4bhl12rcd13ifvqgf0","pricing_plan_id":"cebpf4jnsgd1na2vs0mg"},{"bike_id":"533fc6b5-1780-4f3e-8be8-1902180b5e1a","system_id":"levelo_inurba_marseille","lat":43.29253,"lon":5.40908,"is_reserved":false,"is_disabled":false,"rental_uris":{"android":"levelo://app?vid=533fc6b5-1780-4f3e-8be8-1902180b5e1a","ios":"levelo://app?vid=533fc6b5-1780-4f3e-8be8-1902180b5e1a"},"vehicle_type_id":"4","last_reported":1727657213,"current_range_meters":31200,"station_id":"ce4bh192rcd13ifvqdc0","pricing_plan_id":"cebpf4jnsgd1na2vs0mg"},{"bike_id":"eeb4b54b-284a-4a51-af38-bfe005d55c3e","system_id":"levelo_inurba_marseille","lat":43.24814,"lon":5.37468,"is_reserved":false,"is_disabled":false,"rental_uris":{"android":"levelo://app?vid=eeb4b54b-284a-4a51-af38-bfe005d55c3e","ios":"levelo://app?vid=eeb4b54b-284a-4a51-af38-bfe005d55c3e"},"vehicle_type_id":"4","last_reported":1727657213,"current_range_meters":38000,"station_id":"ce4bhgh2rcd13ifvqfb0","pricing_plan_id":"cebpf4jnsgd1na2vs0mg"},{"bike_id":"10077ee4-0bcd-44f2-8cff-e3c46aed5ac8","system_id":"levelo_inurba_marseille","lat":43.3093,"lon":5.40141,"is_reserved":false,"is_disabled":false,"rental_uris":{"android":"levelo://app?vid=10077ee4-0bcd-44f2-8cff-e3c46aed5ac8","ios":"levelo://app?vid=10077ee4-0bcd-44f2-8cff-e3c46aed5ac8"},"vehicle_type_id":"4","last_reported":1727657213,"current_range_meters":38800,"station_id":"ce4bgvp2rcd13ifvqct0","pricing_plan_id":"cebpf4jnsgd1na2vs0mg"},{"bike_id":"fe63aca9-f90d-44e5-bf3b-1762a5fc8634","system_id":"levelo_inurba_marseille","lat":43.28702,"lon":5.39992,"is_reserved":false,"is_disabled":false,"rental_uris":{"android":"levelo://app?vid=fe63aca9-f90d-44e5-bf3b-1762a5fc8634","ios":"levelo://app?vid=fe63aca9-f90d-44e5-bf3b-1762a5fc8634"},"vehicle_type_id":"4","last_reported":1727657213,"current_range_meters":27600,"station_id":"ce4bho92rcd13ifvqh3g","pricing_plan_id":"cebpf4jnsgd1na2vs0mg"},{"bike_id":"0c6a3edd-0259-43fd-a8d1-3d4bb6023605","system_id":"levelo_inurba_marseille","lat":43.2439,"lon":5.37053,"is_reserved":false,"is_disabled":false,"rental_uris":{"android":"levelo://app?vid=0c6a3edd-0259-43fd-a8d1-3d4bb6023605","ios":"levelo://app?vid=0c6a3edd-0259-43fd-a8d1-3d4bb6023605"},"vehicle_type_id":"4","last_reported":1727657213,"current_range_meters":38800,"station_id":"ce4bhhh2rcd13ifvqfk0","pricing_plan_id":"cebpf4jnsgd1na2vs0mg"},{"bike_id":"fac2a876-c1ca-45d8-9292-8e7874d4b8de","system_id":"levelo_inurba_marseille","lat":43.3117,"lon":5.38719,"is_reserved":false,"is_disabled":false,"rental_uris":{"android":"levelo://app?vid=fac2a876-c1ca-45d8-9292-8e7874d4b8de","ios":"levelo://app?vid=fac2a876-c1ca-45d8-9292-8e7874d4b8de"},"vehicle_type_id":"4","last_reported":1727657213,"current_range_meters":35600,"station_id":"ce4bgv12rcd13ifvqcp0","pricing_plan_id":"cebpf4jnsgd1na2vs0mg"},{"bike_id":"a52d80fa-df02-4016-ba63-eea77d56a608","system_id":"levelo_inurba_marseille","lat":43.2827,"lon":5.35074,"is_reserved":false,"is_disabled":false,"rental_uris":{"android":"levelo://app?vid=a52d80fa-df02-4016-ba63-eea77d56a608","ios":"levelo://app?vid=a52d80fa-df02-4016-ba63-eea77d56a608"},"vehicle_type_id":"4","last_reported":1727657213,"current_range_meters":38000,"station_id":"ce4bhbp2rcd13ifvqerg","pricing_plan_id":"cebpf4jnsgd1na2vs0mg"},{"bike_id":"2984e241-0d85-429f-b743-7e3cc710001b","system_id":"levelo_inurba_marseille","lat":43.2481,"lon":5.3746,"is_reserved":false,"is_disabled":false,"rental_uris":{"android":"levelo://app?vid=2984e241-0d85-429f-b743-7e3cc710001b","ios":"levelo://app?vid=2984e241-0d85-429f-b743-7e3cc710001b"},"vehicle_type_id":"4","last_reported":1727657213,"current_range_meters":20000,"station_id":"ce4bhgh2rcd13ifvqfb0","pricing_plan_id":"cebpf4jnsgd1na2vs0mg"},{"bike_id":"d2e1be36-7c5e-44b0-8899-49fb5f54f6ea","system_id":"levelo_inurba_marseille","lat":43.308857,"lon":5.37186,"is_reserved":false,"is_disabled":false,"rental_uris":{"android":"levelo://app?vid=d2e1be36-7c5e-44b0-8899-49fb5f54f6ea","ios":"levelo://app?vid=d2e1be36-7c5e-44b0-8899-49fb5f54f6ea"},"vehicle_type_id":"4","last_reported":1727657213,"current_range_meters":38800,"station_id":"ce4bguh2rcd13ifvqckg","pricing_plan_id":"cebpf4jnsgd1na2vs0mg"},{"bike_id":"c6cdd776-a8f9-4bfe-af70-cd3b412fbeb3","system_id":"levelo_inurba_marseille","lat":43.25109,"lon":5.40319,"is_reserved":false,"is_disabled":false,"rental_uris":{"android":"levelo://app?vid=c6cdd776-a8f9-4bfe-af70-cd3b412fbeb3","ios":"levelo://app?vid=c6cdd776-a8f9-4bfe-af70-cd3b412fbeb3"},"vehicle_type_id":"4","last_reported":1727657213,"current_range_meters":30800,"station_id":"ce4bhlh2rcd13ifvqgig","pricing_plan_id":"cebpf4jnsgd1na2vs0mg"},{"bike_id":"cf3d3117-7367-4299-a0d1-3e4137ac8fcb","system_id":"levelo_inurba_marseille","lat":43.30806,"lon":5.38176,"is_reserved":false,"is_disabled":false,"rental_uris":{"android":"levelo://app?vid=cf3d3117-7367-4299-a0d1-3e4137ac8fcb","ios":"levelo://app?vid=cf3d3117-7367-4299-a0d1-3e4137ac8fcb"},"vehicle_type_id":"4","last_reported":1727657213,"current_range_meters":36800,"station_id":"ce4bgt12rcd13ifvqce0","pricing_plan_id":"cebpf4jnsgd1na2vs0mg"},{"bike_id":"ce46a156-d0b3-42ea-a724-f29a983e40e7","system_id":"levelo_inurba_marseille","lat":43.28459,"lon":5.35882,"is_reserved":false,"is_disabled":false,"rental_uris":{"android":"levelo://app?vid=ce46a156-d0b3-42ea-a724-f29a983e40e7","ios":"levelo://app?vid=ce46a156-d0b3-42ea-a724-f29a983e40e7"},"vehicle_type_id":"4","last_reported":1727657213,"current_range_meters":37600,"station_id":"ce4bhah2rcd13ifvqei0","pricing_plan_id":"cebpf4jnsgd1na2vs0mg"},{"bike_id":"6a52f468-9bf5-46c2-819d-2c732c18128e","system_id":"levelo_inurba_marseille","lat":43.23961,"lon":5.36628,"is_reserved":false,"is_disabled":false,"rental_uris":{"android":"levelo://app?vid=6a52f468-9bf5-46c2-819d-2c732c18128e","ios":"levelo://app?vid=6a52f468-9bf5-46c2-819d-2c732c18128e"},"vehicle_type_id":"4","last_reported":1727657213,"current_range_meters":32400,"station_id":"ce4bhi12rcd13ifvqfp0","pricing_plan_id":"cebpf4jnsgd1na2vs0mg"},{"bike_id":"c2e4e91c-22c9-44ca-af85-4b0d4deb4a68","system_id":"levelo_inurba_marseille","lat":43.23189,"lon":5.39976,"is_reserved":false,"is_disabled":false,"rental_uris":{"android":"levelo://app?vid=c2e4e91c-22c9-44ca-af85-4b0d4deb4a68","ios":"levelo://app?vid=c2e4e91c-22c9-44ca-af85-4b0d4deb4a68"},"vehicle_type_id":"4","last_reported":1727657213,"current_range_meters":38800,"station_id":"ce4bhn12rcd13ifvqgqg","pricing_plan_id":"cebpf4jnsgd1na2vs0mg"},{"bike_id":"d2084bc9-c4ff-4f4a-9690-b66bb8b978c2","system_id":"levelo_inurba_marseille","lat":43.30137,"lon":5.37423,"is_reserved":false,"is_disabled":false,"rental_uris":{"android":"levelo://app?vid=d2084bc9-c4ff-4f4a-9690-b66bb8b978c2","ios":"levelo://app?vid=d2084bc9-c4ff-4f4a-9690-b66bb8b978c2"},"vehicle_type_id":"4","last_reported":1727657213,"current_range_meters":38000,"station_id":"ce4bgs92rcd13ifvqcc0","pricing_plan_id":"cebpf4jnsgd1na2vs0mg"},{"bike_id":"d9614a14-f95d-40a5-beaa-7cd0675a0b19","system_id":"levelo_inurba_marseille","lat":43.3064,"lon":5.40062,"is_reserved":false,"is_disabled":false,"rental_uris":{"android":"levelo://app?vid=d9614a14-f95d-40a5-beaa-7cd0675a0b19","ios":"levelo://app?vid=d9614a14-f95d-40a5-beaa-7cd0675a0b19"},"vehicle_type_id":"4","last_reported":1727657213,"current_range_meters":34000,"station_id":"ce4bh112rcd13ifvqda0","pricing_plan_id":"cebpf4jnsgd1na2vs0mg"},{"bike_id":"8e9ee29d-b361-4f31-a242-a9656a46109c","system_id":"levelo_inurba_marseille","lat":43.31279,"lon":5.40173,"is_reserved":false,"is_disabled":false,"rental_uris":{"android":"levelo://app?vid=8e9ee29d-b361-4f31-a242-a9656a46109c","ios":"levelo://app?vid=8e9ee29d-b361-4f31-a242-a9656a46109c"},"vehicle_type_id":"4","last_reported":1727657213,"current_range_meters":16800,"station_id":"ce4bh092rcd13ifvqd30","pricing_plan_id":"cebpf4jnsgd1na2vs0mg"},{"bike_id":"02ff239a-a163-4944-a8bd-470b8c379b68","system_id":"levelo_inurba_marseille","lat":43.23963,"lon":5.36629,"is_reserved":false,"is_disabled":false,"rental_uris":{"android":"levelo://app?vid=02ff239a-a163-4944-a8bd-470b8c379b68","ios":"levelo://app?vid=02ff239a-a163-4944-a8bd-470b8c379b68"},"vehicle_type_id":"4","last_reported":1727657213,"current_range_meters":38800,"station_id":"ce4bhi12rcd13ifvqfp0","pricing_plan_id":"cebpf4jnsgd1na2vs0mg"},{"bike_id":"4d90109a-9b86-4224-9383-3d65baa175a1","system_id":"levelo_inurba_marseille","lat":43.30607,"lon":5.37227,"is_reserved":false,"is_disabled":false,"rental_uris":{"android":"levelo://app?vid=4d90109a-9b86-4224-9383-3d65baa175a1","ios":"levelo://app?vid=4d90109a-9b86-4224-9383-3d65baa175a1"},"vehicle_type_id":"4","last_reported":1727657213,"current_range_meters":32000,"station_id":"ce4bgqh2rcd13ifvqc4g","pricing_plan_id":"cebpf4jnsgd1na2vs0mg"},{"bike_id":"033c94d5-2b44-402c-96cc-56e2e658328d","system_id":"levelo_inurba_marseille","lat":43.31365,"lon":5.38503,"is_reserved":false,"is_disabled":false,"rental_uris":{"android":"levelo://app?vid=033c94d5-2b44-402c-96cc-56e2e658328d","ios":"levelo://app?vid=033c94d5-2b44-402c-96cc-56e2e658328d"},"vehicle_type_id":"4","last_reported":1727657213,"current_range_meters":30800,"station_id":"ce4bgt92rcd13ifvqcf0","pricing_plan_id":"cebpf4jnsgd1na2vs0mg"},{"bike_id":"9cab4b77-e73b-485b-9196-05681379298d","system_id":"levelo_inurba_marseille","lat":43.32327,"lon":5.38278,"is_reserved":false,"is_disabled":false,"rental_uris":{"android":"levelo://app?vid=9cab4b77-e73b-485b-9196-05681379298d","ios":"levelo://app?vid=9cab4b77-e73b-485b-9196-05681379298d"},"vehicle_type_id":"4","last_reported":1727657213,"current_range_meters":36000,"station_id":"ce4bhr12rcd13ifvqhqg","pricing_plan_id":"cebpf4jnsgd1na2vs0mg"},{"bike_id":"4f682116-162b-43a9-aed3-2625f7f0af28","system_id":"levelo_inurba_marseille","lat":43.30593,"lon":5.39353,"is_reserved":false,"is_disabled":false,"rental_uris":{"android":"levelo://app?vid=4f682116-162b-43a9-aed3-2625f7f0af28","ios":"levelo://app?vid=4f682116-162b-43a9-aed3-2625f7f0af28"},"vehicle_type_id":"4","last_reported":1727657213,"current_range_meters":38000,"station_id":"ce4bh0p2rcd13ifvqd80","pricing_plan_id":"cebpf4jnsgd1na2vs0mg"},{"bike_id":"691cc2ed-9094-472f-8b35-466f1924ad13","system_id":"levelo_inurba_marseille","lat":43.31367,"lon":5.38504,"is_reserved":false,"is_disabled":false,"rental_uris":{"android":"levelo://app?vid=691cc2ed-9094-472f-8b35-466f1924ad13","ios":"levelo://app?vid=691cc2ed-9094-472f-8b35-466f1924ad13"},"vehicle_type_id":"4","last_reported":1727657213,"current_range_meters":24800,"station_id":"ce4bgt92rcd13ifvqcf0","pricing_plan_id":"cebpf4jnsgd1na2vs0mg"},{"bike_id":"a32546a5-c9a6-4798-80cc-aa08f50be90d","system_id":"levelo_inurba_marseille","lat":43.28854,"lon":5.39324,"is_reserved":false,"is_disabled":false,"rental_uris":{"android":"levelo://app?vid=a32546a5-c9a6-4798-80cc-aa08f50be90d","ios":"levelo://app?vid=a32546a5-c9a6-4798-80cc-aa08f50be90d"},"vehicle_type_id":"4","last_reported":1727657213,"current_range_meters":30000,"station_id":"ce4bh2p2rcd13ifvqdi0","pricing_plan_id":"cebpf4jnsgd1na2vs0mg"},{"bike_id":"b60dce8c-09c4-4c52-8770-95d209f08890","system_id":"levelo_inurba_marseille","lat":43.29878,"lon":5.39733,"is_reserved":false,"is_disabled":false,"rental_uris":{"android":"levelo://app?vid=b60dce8c-09c4-4c52-8770-95d209f08890","ios":"levelo://app?vid=b60dce8c-09c4-4c52-8770-95d209f08890"},"vehicle_type_id":"4","last_reported":1727657213,"current_range_meters":38800,"station_id":"ce4bh0h2rcd13ifvqd50","pricing_plan_id":"cebpf4jnsgd1na2vs0mg"},{"bike_id":"f45711f0-e8e8-402d-9f64-2758c05d0296","system_id":"levelo_inurba_marseille","lat":43.25581,"lon":5.38228,"is_reserved":false,"is_disabled":false,"rental_uris":{"android":"levelo://app?vid=f45711f0-e8e8-402d-9f64-2758c05d0296","ios":"levelo://app?vid=f45711f0-e8e8-402d-9f64-2758c05d0296"},"vehicle_type_id":"4","last_reported":1727657213,"current_range_meters":28400,"station_id":"ce4bhih2rcd13ifvqfs0","pricing_plan_id":"cebpf4jnsgd1na2vs0mg"},{"bike_id":"5b4a633f-0b63-474b-abd4-9003a7b86eed","system_id":"levelo_inurba_marseille","lat":43.32338,"lon":5.40629,"is_reserved":false,"is_disabled":false,"rental_uris":{"android":"levelo://app?vid=5b4a633f-0b63-474b-abd4-9003a7b86eed","ios":"levelo://app?vid=5b4a633f-0b63-474b-abd4-9003a7b86eed"},"vehicle_type_id":"4","last_reported":1727657213,"current_range_meters":38800,"station_id":"ce4bhq92rcd13ifvqhjg","pricing_plan_id":"cebpf4jnsgd1na2vs0mg"},{"bike_id":"f317aa86-5363-4257-8ca7-06b8ea9f26bb","system_id":"levelo_inurba_marseille","lat":43.31539,"lon":5.3802,"is_reserved":false,"is_disabled":false,"rental_uris":{"android":"levelo://app?vid=f317aa86-5363-4257-8ca7-06b8ea9f26bb","ios":"levelo://app?vid=f317aa86-5363-4257-8ca7-06b8ea9f26bb"},"vehicle_type_id":"4","last_reported":1727657213,"current_range_meters":30400,"station_id":"ce4bhsp2rcd13ifvqi50","pricing_plan_id":"cebpf4jnsgd1na2vs0mg"},{"bike_id":"38ee35b9-0713-42c5-8f9b-101cceaa88a9","system_id":"levelo_inurba_marseille","lat":43.24679,"lon":5.38155,"is_reserved":false,"is_disabled":false,"rental_uris":{"android":"levelo://app?vid=38ee35b9-0713-42c5-8f9b-101cceaa88a9","ios":"levelo://app?vid=38ee35b9-0713-42c5-8f9b-101cceaa88a9"},"vehicle_type_id":"4","last_reported":1727657213,"current_range_meters":10800,"station_id":"ce4bhih2rcd13ifvqfr0","pricing_plan_id":"cebpf4jnsgd1na2vs0mg"},{"bike_id":"e150718b-3b11-4746-aaf5-ed9fe54bd243","system_id":"levelo_inurba_marseille","lat":43.24078,"lon":5.37745,"is_reserved":false,"is_disabled":false,"rental_uris":{"android":"levelo://app?vid=e150718b-3b11-4746-aaf5-ed9fe54bd243","ios":"levelo://app?vid=e150718b-3b11-4746-aaf5-ed9fe54bd243"},"vehicle_type_id":"4","last_reported":1727657213,"current_range_meters":14400,"station_id":"ce4bhnp2rcd13ifvqgvg","pricing_plan_id":"cebpf4jnsgd1na2vs0mg"},{"bike_id":"5346e7a2-e1c2-46db-bb9f-77125f9b3250","system_id":"levelo_inurba_marseille","lat":43.28724,"lon":5.37932,"is_reserved":false,"is_disabled":false,"rental_uris":{"android":"levelo://app?vid=5346e7a2-e1c2-46db-bb9f-77125f9b3250","ios":"levelo://app?vid=5346e7a2-e1c2-46db-bb9f-77125f9b3250"},"vehicle_type_id":"4","last_reported":1727657213,"current_range_meters":30000,"station_id":"ce4bh9p2rcd13ifvqec0","pricing_plan_id":"cebpf4jnsgd1na2vs0mg"},{"bike_id":"73bc85b9-959b-4487-b86b-75e0a4fe28a2","system_id":"levelo_inurba_marseille","lat":43.27064,"lon":5.42281,"is_reserved":false,"is_disabled":false,"rental_uris":{"android":"levelo://app?vid=73bc85b9-959b-4487-b86b-75e0a4fe28a2","ios":"levelo://app?vid=73bc85b9-959b-4487-b86b-75e0a4fe28a2"},"vehicle_type_id":"4","last_reported":1727657213,"current_range_meters":20400,"station_id":"ce4bhk92rcd13ifvqgb0","pricing_plan_id":"cebpf4jnsgd1na2vs0mg"},{"bike_id":"883dbd06-c2fc-4488-9b5e-ef4f05339f9b","system_id":"levelo_inurba_marseille","lat":43.30216,"lon":5.36625,"is_reserved":false,"is_disabled":false,"rental_uris":{"android":"levelo://app?vid=883dbd06-c2fc-4488-9b5e-ef4f05339f9b","ios":"levelo://app?vid=883dbd06-c2fc-4488-9b5e-ef4f05339f9b"},"vehicle_type_id":"4","last_reported":1727657213,"current_range_meters":27600,"station_id":"ce4bgrh2rcd13ifvqc8g","pricing_plan_id":"cebpf4jnsgd1na2vs0mg"},{"bike_id":"6c8b138c-21e2-45bf-a989-ce45493ac988","system_id":"levelo_inurba_marseille","lat":43.23198,"lon":5.35554,"is_reserved":false,"is_disabled":false,"rental_uris":{"android":"levelo://app?vid=6c8b138c-21e2-45bf-a989-ce45493ac988","ios":"levelo://app?vid=6c8b138c-21e2-45bf-a989-ce45493ac988"},"vehicle_type_id":"4","last_reported":1727657213,"current_range_meters":38400,"station_id":"ce4bhu92rcd13ifvqi70","pricing_plan_id":"cebpf4jnsgd1na2vs0mg"},{"bike_id":"61b80206-8211-4df0-b90b-eee6dba44a64","system_id":"levelo_inurba_marseille","lat":43.27557,"lon":5.38427,"is_reserved":false,"is_disabled":false,"rental_uris":{"android":"levelo://app?vid=61b80206-8211-4df0-b90b-eee6dba44a64","ios":"levelo://app?vid=61b80206-8211-4df0-b90b-eee6dba44a64"},"vehicle_type_id":"4","last_reported":1727657213,"current_range_meters":22000,"station_id":"ce4bhh92rcd13ifvqfi0","pricing_plan_id":"cebpf4jnsgd1na2vs0mg"},{"bike_id":"cf2a99f0-171d-46e2-b5f9-b8e518581e33","system_id":"levelo_inurba_marseille","lat":43.23966,"lon":5.36623,"is_reserved":false,"is_disabled":false,"rental_uris":{"android":"levelo://app?vid=cf2a99f0-171d-46e2-b5f9-b8e518581e33","ios":"levelo://app?vid=cf2a99f0-171d-46e2-b5f9-b8e518581e33"},"vehicle_type_id":"4","last_reported":1727657213,"current_range_meters":30000,"station_id":"ce4bhi12rcd13ifvqfp0","pricing_plan_id":"cebpf4jnsgd1na2vs0mg"},{"bike_id":"06b0b27b-bc9b-42ef-b165-9c5e2046e3e4","system_id":"levelo_inurba_marseille","lat":43.26799,"lon":5.40263,"is_reserved":false,"is_disabled":false,"rental_uris":{"android":"levelo://app?vid=06b0b27b-bc9b-42ef-b165-9c5e2046e3e4","ios":"levelo://app?vid=06b0b27b-bc9b-42ef-b165-9c5e2046e3e4"},"vehicle_type_id":"4","last_reported":1727657213,"current_range_meters":39200,"station_id":"ce501612rcd8frsf0b60","pricing_plan_id":"cebpf4jnsgd1na2vs0mg"},{"bike_id":"81e736a4-03cb-4865-8070-28f6daa88205","system_id":"levelo_inurba_marseille","lat":43.29799,"lon":5.39348,"is_reserved":false,"is_disabled":false,"rental_uris":{"android":"levelo://app?vid=81e736a4-03cb-4865-8070-28f6daa88205","ios":"levelo://app?vid=81e736a4-03cb-4865-8070-28f6daa88205"},"vehicle_type_id":"4","last_reported":1727657213,"current_range_meters":19600,"station_id":"chh1huq6cuj3fo74tm60","pricing_plan_id":"cebpf4jnsgd1na2vs0mg"},{"bike_id":"6427a805-0f66-4346-96b4-4be0ebb43bb5","system_id":"levelo_inurba_marseille","lat":43.32365,"lon":5.38886,"is_reserved":false,"is_disabled":false,"rental_uris":{"android":"levelo://app?vid=6427a805-0f66-4346-96b4-4be0ebb43bb5","ios":"levelo://app?vid=6427a805-0f66-4346-96b4-4be0ebb43bb5"},"vehicle_type_id":"4","last_reported":1727657213,"current_range_meters":26000,"station_id":"ce4bhqp2rcd13ifvqhog","pricing_plan_id":"cebpf4jnsgd1na2vs0mg"},{"bike_id":"4c59b6a6-13a5-4f15-8ea7-e82f231118a7","system_id":"levelo_inurba_marseille","lat":43.30932,"lon":5.40149,"is_reserved":false,"is_disabled":false,"rental_uris":{"android":"levelo://app?vid=4c59b6a6-13a5-4f15-8ea7-e82f231118a7","ios":"levelo://app?vid=4c59b6a6-13a5-4f15-8ea7-e82f231118a7"},"vehicle_type_id":"4","last_reported":1727657213,"current_range_meters":30800,"station_id":"ce4bgvp2rcd13ifvqct0","pricing_plan_id":"cebpf4jnsgd1na2vs0mg"},{"bike_id":"25c16f4a-bedb-4b62-b21b-458b8d7ec09e","system_id":"levelo_inurba_marseille","lat":43.27818,"lon":5.40711,"is_reserved":false,"is_disabled":false,"rental_uris":{"android":"levelo://app?vid=25c16f4a-bedb-4b62-b21b-458b8d7ec09e","ios":"levelo://app?vid=25c16f4a-bedb-4b62-b21b-458b8d7ec09e"},"vehicle_type_id":"4","last_reported":1727657213,"current_range_meters":35600,"station_id":"ce4bhnh2rcd13ifvqgtg","pricing_plan_id":"cebpf4jnsgd1na2vs0mg"},{"bike_id":"0c9acc8e-34a5-4946-bbed-837f3f3ff81d","system_id":"levelo_inurba_marseille","lat":43.30879,"lon":5.39648,"is_reserved":false,"is_disabled":false,"rental_uris":{"android":"levelo://app?vid=0c9acc8e-34a5-4946-bbed-837f3f3ff81d","ios":"levelo://app?vid=0c9acc8e-34a5-4946-bbed-837f3f3ff81d"},"vehicle_type_id":"4","last_reported":1727657213,"current_range_meters":38800,"station_id":"ce4bh012rcd13ifvqcv0","pricing_plan_id":"cebpf4jnsgd1na2vs0mg"},{"bike_id":"bcb5ef74-cf8a-40af-9e9f-d416925dc622","system_id":"levelo_inurba_marseille","lat":43.29525,"lon":5.39043,"is_reserved":false,"is_disabled":false,"rental_uris":{"android":"levelo://app?vid=bcb5ef74-cf8a-40af-9e9f-d416925dc622","ios":"levelo://app?vid=bcb5ef74-cf8a-40af-9e9f-d416925dc622"},"vehicle_type_id":"4","last_reported":1727657213,"current_range_meters":25600,"station_id":"ce4bh3p2rcd13ifvqdp0","pricing_plan_id":"cebpf4jnsgd1na2vs0mg"},{"bike_id":"52f17877-110a-422d-89ae-fdeda162e6f3","system_id":"levelo_inurba_marseille","lat":43.2396,"lon":5.36618,"is_reserved":false,"is_disabled":false,"rental_uris":{"android":"levelo://app?vid=52f17877-110a-422d-89ae-fdeda162e6f3","ios":"levelo://app?vid=52f17877-110a-422d-89ae-fdeda162e6f3"},"vehicle_type_id":"4","last_reported":1727657213,"current_range_meters":3600,"station_id":"ce4bhi12rcd13ifvqfp0","pricing_plan_id":"cebpf4jnsgd1na2vs0mg"},{"bike_id":"306b57b5-0aa3-40e2-a129-4df713bbc6fc","system_id":"levelo_inurba_marseille","lat":43.28716,"lon":5.39997,"is_reserved":false,"is_disabled":false,"rental_uris":{"android":"levelo://app?vid=306b57b5-0aa3-40e2-a129-4df713bbc6fc","ios":"levelo://app?vid=306b57b5-0aa3-40e2-a129-4df713bbc6fc"},"vehicle_type_id":"4","last_reported":1727657213,"current_range_meters":35200,"station_id":"ce4bho92rcd13ifvqh3g","pricing_plan_id":"cebpf4jnsgd1na2vs0mg"},{"bike_id":"1a00221f-aae4-4ab0-a6df-b37bd531256d","system_id":"levelo_inurba_marseille","lat":43.27491,"lon":5.42454,"is_reserved":false,"is_disabled":false,"rental_uris":{"android":"levelo://app?vid=1a00221f-aae4-4ab0-a6df-b37bd531256d","ios":"levelo://app?vid=1a00221f-aae4-4ab0-a6df-b37bd531256d"},"vehicle_type_id":"4","last_reported":1727657213,"current_range_meters":35200,"station_id":"ce4bhn92rcd13ifvqgrg","pricing_plan_id":"cebpf4jnsgd1na2vs0mg"},{"bike_id":"af03e41a-a549-4090-868a-cec610610a75","system_id":"levelo_inurba_marseille","lat":43.31233,"lon":5.36867,"is_reserved":false,"is_disabled":false,"rental_uris":{"android":"levelo://app?vid=af03e41a-a549-4090-868a-cec610610a75","ios":"levelo://app?vid=af03e41a-a549-4090-868a-cec610610a75"},"vehicle_type_id":"4","last_reported":1727657213,"current_range_meters":38800,"station_id":"ce4bgl92rcd13ifvqbq0","pricing_plan_id":"cebpf4jnsgd1na2vs0mg"},{"bike_id":"e9c9a824-77dd-4a8d-b5f7-16a11637475b","system_id":"levelo_inurba_marseille","lat":43.3254,"lon":5.41445,"is_reserved":false,"is_disabled":false,"rental_uris":{"android":"levelo://app?vid=e9c9a824-77dd-4a8d-b5f7-16a11637475b","ios":"levelo://app?vid=e9c9a824-77dd-4a8d-b5f7-16a11637475b"},"vehicle_type_id":"4","last_reported":1727657213,"current_range_meters":39200,"station_id":"ce4bhq12rcd13ifvqhhg","pricing_plan_id":"cebpf4jnsgd1na2vs0mg"},{"bike_id":"07bdc09b-6dde-4b6b-b725-e27a36c64e07","system_id":"levelo_inurba_marseille","lat":43.28493,"lon":5.38518,"is_reserved":false,"is_disabled":false,"rental_uris":{"android":"levelo://app?vid=07bdc09b-6dde-4b6b-b725-e27a36c64e07","ios":"levelo://app?vid=07bdc09b-6dde-4b6b-b725-e27a36c64e07"},"vehicle_type_id":"4","last_reported":1727657213,"current_range_meters":39200,"station_id":"ce4bh8p2rcd13ifvqeb0","pricing_plan_id":"cebpf4jnsgd1na2vs0mg"},{"bike_id":"d87af6af-7ad4-4bce-96ae-080c876cc48c","system_id":"levelo_inurba_marseille","lat":43.24392,"lon":5.37061,"is_reserved":false,"is_disabled":false,"rental_uris":{"android":"levelo://app?vid=d87af6af-7ad4-4bce-96ae-080c876cc48c","ios":"levelo://app?vid=d87af6af-7ad4-4bce-96ae-080c876cc48c"},"vehicle_type_id":"4","last_reported":1727657213,"current_range_meters":38800,"station_id":"ce4bhhh2rcd13ifvqfk0","pricing_plan_id":"cebpf4jnsgd1na2vs0mg"},{"bike_id":"124cc49e-bc3f-4ee2-96b6-78f4c29aba27","system_id":"levelo_inurba_marseille","lat":43.25001,"lon":5.38918,"is_reserved":false,"is_disabled":false,"rental_uris":{"android":"levelo://app?vid=124cc49e-bc3f-4ee2-96b6-78f4c29aba27","ios":"levelo://app?vid=124cc49e-bc3f-4ee2-96b6-78f4c29aba27"},"vehicle_type_id":"4","last_reported":1727657213,"current_range_meters":20000,"station_id":"ce4bhgp2rcd13ifvqfd0","pricing_plan_id":"cebpf4jnsgd1na2vs0mg"},{"bike_id":"fd14ba81-3f44-4ac1-b066-8941269a20c6","system_id":"levelo_inurba_marseille","lat":43.29244,"lon":5.42693,"is_reserved":false,"is_disabled":false,"rental_uris":{"android":"levelo://app?vid=fd14ba81-3f44-4ac1-b066-8941269a20c6","ios":"levelo://app?vid=fd14ba81-3f44-4ac1-b066-8941269a20c6"},"vehicle_type_id":"4","last_reported":1727657213,"current_range_meters":16400,"station_id":"ce4bhnh2rcd13ifvqgug","pricing_plan_id":"cebpf4jnsgd1na2vs0mg"},{"bike_id":"d68626d3-b38e-4eab-bcdd-30642681f59d","system_id":"levelo_inurba_marseille","lat":43.3088,"lon":5.39645,"is_reserved":false,"is_disabled":false,"rental_uris":{"android":"levelo://app?vid=d68626d3-b38e-4eab-bcdd-30642681f59d","ios":"levelo://app?vid=d68626d3-b38e-4eab-bcdd-30642681f59d"},"vehicle_type_id":"4","last_reported":1727657213,"current_range_meters":38800,"station_id":"ce4bh012rcd13ifvqcv0","pricing_plan_id":"cebpf4jnsgd1na2vs0mg"},{"bike_id":"f8a61521-df5a-4c6b-ba30-9a18625134fc","system_id":"levelo_inurba_marseille","lat":43.26679,"lon":5.38276,"is_reserved":false,"is_disabled":false,"rental_uris":{"android":"levelo://app?vid=f8a61521-df5a-4c6b-ba30-9a18625134fc","ios":"levelo://app?vid=f8a61521-df5a-4c6b-ba30-9a18625134fc"},"vehicle_type_id":"4","last_reported":1727657213,"current_range_meters":38800,"station_id":"ce4bhg92rcd13ifvqf90","pricing_plan_id":"cebpf4jnsgd1na2vs0mg"},{"bike_id":"bd361e97-30d0-4702-9649-73d68261767f","system_id":"levelo_inurba_marseille","lat":43.29043,"lon":5.39946,"is_reserved":false,"is_disabled":false,"rental_uris":{"android":"levelo://app?vid=bd361e97-30d0-4702-9649-73d68261767f","ios":"levelo://app?vid=bd361e97-30d0-4702-9649-73d68261767f"},"vehicle_type_id":"4","last_reported":1727657213,"current_range_meters":38800,"station_id":"ce4bh392rcd13ifvqdm0","pricing_plan_id":"cebpf4jnsgd1na2vs0mg"},{"bike_id":"4295c0cc-b3ba-4861-aaab-51d6deeb7e24","system_id":"levelo_inurba_marseille","lat":43.28837,"lon":5.39331,"is_reserved":false,"is_disabled":false,"rental_uris":{"android":"levelo://app?vid=4295c0cc-b3ba-4861-aaab-51d6deeb7e24","ios":"levelo://app?vid=4295c0cc-b3ba-4861-aaab-51d6deeb7e24"},"vehicle_type_id":"4","last_reported":1727657213,"current_range_meters":19600,"station_id":"ce4bh2p2rcd13ifvqdi0","pricing_plan_id":"cebpf4jnsgd1na2vs0mg"},{"bike_id":"ded7c34d-2345-47c9-835d-dc3c344079ef","system_id":"levelo_inurba_marseille","lat":43.29548,"lon":5.42275,"is_reserved":false,"is_disabled":false,"rental_uris":{"android":"levelo://app?vid=ded7c34d-2345-47c9-835d-dc3c344079ef","ios":"levelo://app?vid=ded7c34d-2345-47c9-835d-dc3c344079ef"},"vehicle_type_id":"4","last_reported":1727657213,"current_range_meters":38000,"station_id":"ce4bhph2rcd13ifvqhdg","pricing_plan_id":"cebpf4jnsgd1na2vs0mg"},{"bike_id":"e1a95736-b2e1-4fb6-93af-8f2be10af632","system_id":"levelo_inurba_marseille","lat":43.25107,"lon":5.40316,"is_reserved":false,"is_disabled":false,"rental_uris":{"android":"levelo://app?vid=e1a95736-b2e1-4fb6-93af-8f2be10af632","ios":"levelo://app?vid=e1a95736-b2e1-4fb6-93af-8f2be10af632"},"vehicle_type_id":"4","last_reported":1727657213,"current_range_meters":38000,"station_id":"ce4bhlh2rcd13ifvqgig","pricing_plan_id":"cebpf4jnsgd1na2vs0mg"},{"bike_id":"a19575a6-df26-4cef-9c23-66c2680d0499","system_id":"levelo_inurba_marseille","lat":43.29197,"lon":5.39316,"is_reserved":false,"is_disabled":false,"rental_uris":{"android":"levelo://app?vid=a19575a6-df26-4cef-9c23-66c2680d0499","ios":"levelo://app?vid=a19575a6-df26-4cef-9c23-66c2680d0499"},"vehicle_type_id":"4","last_reported":1727657213,"current_range_meters":34000,"station_id":"ce4bh192rcd13ifvqdd0","pricing_plan_id":"cebpf4jnsgd1na2vs0mg"},{"bike_id":"7783cbb7-0ab7-4f4c-9612-9e4f22942bc7","system_id":"levelo_inurba_marseille","lat":43.27054,"lon":5.40262,"is_reserved":false,"is_disabled":false,"rental_uris":{"android":"levelo://app?vid=7783cbb7-0ab7-4f4c-9612-9e4f22942bc7","ios":"levelo://app?vid=7783cbb7-0ab7-4f4c-9612-9e4f22942bc7"},"vehicle_type_id":"4","last_reported":1727657213,"current_range_meters":24000,"station_id":"ce4bhk92rcd13ifvqgc0","pricing_plan_id":"cebpf4jnsgd1na2vs0mg"},{"bike_id":"c464bef0-fd18-414e-a883-ea989398668d","system_id":"levelo_inurba_marseille","lat":43.25107,"lon":5.40324,"is_reserved":false,"is_disabled":false,"rental_uris":{"android":"levelo://app?vid=c464bef0-fd18-414e-a883-ea989398668d","ios":"levelo://app?vid=c464bef0-fd18-414e-a883-ea989398668d"},"vehicle_type_id":"4","last_reported":1727657213,"current_range_meters":33600,"station_id":"ce4bhlh2rcd13ifvqgig","pricing_plan_id":"cebpf4jnsgd1na2vs0mg"},{"bike_id":"85a7ce6d-c78a-4356-8d69-4e768e529bde","system_id":"levelo_inurba_marseille","lat":43.32263,"lon":5.40649,"is_reserved":false,"is_disabled":false,"rental_uris":{"android":"levelo://app?vid=85a7ce6d-c78a-4356-8d69-4e768e529bde","ios":"levelo://app?vid=85a7ce6d-c78a-4356-8d69-4e768e529bde"},"vehicle_type_id":"4","last_reported":1727657213,"current_range_meters":28000,"station_id":"","pricing_plan_id":"cebpf4jnsgd1na2vs0mg"},{"bike_id":"18b188e6-aa6a-4bd7-ad05-6ca16854b93f","system_id":"levelo_inurba_marseille","lat":43.27068,"lon":5.42276,"is_reserved":false,"is_disabled":false,"rental_uris":{"android":"levelo://app?vid=18b188e6-aa6a-4bd7-ad05-6ca16854b93f","ios":"levelo://app?vid=18b188e6-aa6a-4bd7-ad05-6ca16854b93f"},"vehicle_type_id":"4","last_reported":1727657213,"current_range_meters":32000,"station_id":"ce4bhk92rcd13ifvqgb0","pricing_plan_id":"cebpf4jnsgd1na2vs0mg"},{"bike_id":"408d9401-5194-45b1-948e-a2c15040c41f","system_id":"levelo_inurba_marseille","lat":43.23199,"lon":5.35547,"is_reserved":false,"is_disabled":false,"rental_uris":{"android":"levelo://app?vid=408d9401-5194-45b1-948e-a2c15040c41f","ios":"levelo://app?vid=408d9401-5194-45b1-948e-a2c15040c41f"},"vehicle_type_id":"4","last_reported":1727657213,"current_range_meters":12800,"station_id":"ce4bhu92rcd13ifvqi70","pricing_plan_id":"cebpf4jnsgd1na2vs0mg"},{"bike_id":"94fdfe10-8c09-41e0-b800-38c859b3f321","system_id":"levelo_inurba_marseille","lat":43.32915,"lon":5.39069,"is_reserved":false,"is_disabled":false,"rental_uris":{"android":"levelo://app?vid=94fdfe10-8c09-41e0-b800-38c859b3f321","ios":"levelo://app?vid=94fdfe10-8c09-41e0-b800-38c859b3f321"},"vehicle_type_id":"4","last_reported":1727657213,"current_range_meters":36000,"station_id":"","pricing_plan_id":"cebpf4jnsgd1na2vs0mg"},{"bike_id":"b8f7edaf-ab4b-4656-a5a6-f73fabed2083","system_id":"levelo_inurba_marseille","lat":43.30957,"lon":5.39048,"is_reserved":false,"is_disabled":false,"rental_uris":{"android":"levelo://app?vid=b8f7edaf-ab4b-4656-a5a6-f73fabed2083","ios":"levelo://app?vid=b8f7edaf-ab4b-4656-a5a6-f73fabed2083"},"vehicle_type_id":"4","last_reported":1727657213,"current_range_meters":38000,"station_id":"ce4bgup2rcd13ifvqco0","pricing_plan_id":"cebpf4jnsgd1na2vs0mg"},{"bike_id":"408a7762-e992-4738-9665-4e6b4d5116b5","system_id":"levelo_inurba_marseille","lat":43.28705,"lon":5.37393,"is_reserved":false,"is_disabled":false,"rental_uris":{"android":"levelo://app?vid=408a7762-e992-4738-9665-4e6b4d5116b5","ios":"levelo://app?vid=408a7762-e992-4738-9665-4e6b4d5116b5"},"vehicle_type_id":"4","last_reported":1727657213,"current_range_meters":37600,"station_id":"ce4bh3p2rcd13ifvqdq0","pricing_plan_id":"cebpf4jnsgd1na2vs0mg"},{"bike_id":"4cfe844a-4391-4edc-a439-69107c9f31af","system_id":"levelo_inurba_marseille","lat":43.28926,"lon":5.38403,"is_reserved":false,"is_disabled":false,"rental_uris":{"android":"levelo://app?vid=4cfe844a-4391-4edc-a439-69107c9f31af","ios":"levelo://app?vid=4cfe844a-4391-4edc-a439-69107c9f31af"},"vehicle_type_id":"4","last_reported":1727657213,"current_range_meters":37600,"station_id":"ce4bh612rcd13ifvqe6g","pricing_plan_id":"cebpf4jnsgd1na2vs0mg"},{"bike_id":"56907489-7ce6-4456-8c85-fdd01a3866e3","system_id":"levelo_inurba_marseille","lat":43.29208,"lon":5.39319,"is_reserved":false,"is_disabled":false,"rental_uris":{"android":"levelo://app?vid=56907489-7ce6-4456-8c85-fdd01a3866e3","ios":"levelo://app?vid=56907489-7ce6-4456-8c85-fdd01a3866e3"},"vehicle_type_id":"4","last_reported":1727657213,"current_range_meters":35600,"station_id":"ce4bh192rcd13ifvqdd0","pricing_plan_id":"cebpf4jnsgd1na2vs0mg"},{"bike_id":"078024eb-8d93-49e8-aa9b-94cdb7e0550d","system_id":"levelo_inurba_marseille","lat":43.30103,"lon":5.39067,"is_reserved":false,"is_disabled":false,"rental_uris":{"android":"levelo://app?vid=078024eb-8d93-49e8-aa9b-94cdb7e0550d","ios":"levelo://app?vid=078024eb-8d93-49e8-aa9b-94cdb7e0550d"},"vehicle_type_id":"4","last_reported":1727657213,"current_range_meters":16800,"station_id":"ce4bh192rcd13ifvqdb0","pricing_plan_id":"cebpf4jnsgd1na2vs0mg"},{"bike_id":"6c1daff6-f54d-4648-b1a6-371a827d8209","system_id":"levelo_inurba_marseille","lat":43.33021,"lon":5.39043,"is_reserved":false,"is_disabled":false,"rental_uris":{"android":"levelo://app?vid=6c1daff6-f54d-4648-b1a6-371a827d8209","ios":"levelo://app?vid=6c1daff6-f54d-4648-b1a6-371a827d8209"},"vehicle_type_id":"4","last_reported":1727657213,"current_range_meters":38800,"station_id":"ce4bhr92rcd13ifvqhrg","pricing_plan_id":"cebpf4jnsgd1na2vs0mg"},{"bike_id":"40af7eb4-6cd7-462c-b9fb-34273e78aa71","system_id":"levelo_inurba_marseille","lat":43.24075,"lon":5.37759,"is_reserved":false,"is_disabled":false,"rental_uris":{"android":"levelo://app?vid=40af7eb4-6cd7-462c-b9fb-34273e78aa71","ios":"levelo://app?vid=40af7eb4-6cd7-462c-b9fb-34273e78aa71"},"vehicle_type_id":"4","last_reported":1727657213,"current_range_meters":8800,"station_id":"ce4bhnp2rcd13ifvqgvg","pricing_plan_id":"cebpf4jnsgd1na2vs0mg"},{"bike_id":"55b9e4b2-af8b-41a1-93e5-6004b819fac8","system_id":"levelo_inurba_marseille","lat":43.28468,"lon":5.35886,"is_reserved":false,"is_disabled":false,"rental_uris":{"android":"levelo://app?vid=55b9e4b2-af8b-41a1-93e5-6004b819fac8","ios":"levelo://app?vid=55b9e4b2-af8b-41a1-93e5-6004b819fac8"},"vehicle_type_id":"4","last_reported":1727657213,"current_range_meters":10800,"station_id":"ce4bhah2rcd13ifvqei0","pricing_plan_id":"cebpf4jnsgd1na2vs0mg"},{"bike_id":"a63d4449-4f5a-4f1c-9a3c-27c8d74bd2a3","system_id":"levelo_inurba_marseille","lat":43.24386,"lon":5.37065,"is_reserved":false,"is_disabled":false,"rental_uris":{"android":"levelo://app?vid=a63d4449-4f5a-4f1c-9a3c-27c8d74bd2a3","ios":"levelo://app?vid=a63d4449-4f5a-4f1c-9a3c-27c8d74bd2a3"},"vehicle_type_id":"4","last_reported":1727657213,"current_range_meters":8400,"station_id":"ce4bhhh2rcd13ifvqfk0","pricing_plan_id":"cebpf4jnsgd1na2vs0mg"},{"bike_id":"5fdc7006-20fd-49cc-8d31-e5c00de1f90d","system_id":"levelo_inurba_marseille","lat":43.29278,"lon":5.40129,"is_reserved":false,"is_disabled":false,"rental_uris":{"android":"levelo://app?vid=5fdc7006-20fd-49cc-8d31-e5c00de1f90d","ios":"levelo://app?vid=5fdc7006-20fd-49cc-8d31-e5c00de1f90d"},"vehicle_type_id":"4","last_reported":1727657213,"current_range_meters":38800,"station_id":"ce4bh312rcd13ifvqdk0","pricing_plan_id":"cebpf4jnsgd1na2vs0mg"},{"bike_id":"b187d656-363f-4d58-ae4c-249a3172d21b","system_id":"levelo_inurba_marseille","lat":43.27075,"lon":5.42276,"is_reserved":false,"is_disabled":false,"rental_uris":{"android":"levelo://app?vid=b187d656-363f-4d58-ae4c-249a3172d21b","ios":"levelo://app?vid=b187d656-363f-4d58-ae4c-249a3172d21b"},"vehicle_type_id":"4","last_reported":1727657213,"current_range_meters":34800,"station_id":"ce4bhk92rcd13ifvqgb0","pricing_plan_id":"cebpf4jnsgd1na2vs0mg"},{"bike_id":"f0d756a4-9211-4b22-83eb-7505e550378a","system_id":"levelo_inurba_marseille","lat":43.28426,"lon":5.3499,"is_reserved":false,"is_disabled":false,"rental_uris":{"android":"levelo://app?vid=f0d756a4-9211-4b22-83eb-7505e550378a","ios":"levelo://app?vid=f0d756a4-9211-4b22-83eb-7505e550378a"},"vehicle_type_id":"4","last_reported":1727657213,"current_range_meters":32400,"station_id":"ce4bhbh2rcd13ifvqepg","pricing_plan_id":"cebpf4jnsgd1na2vs0mg"},{"bike_id":"705dc837-5d43-43af-8ff9-e7e283136076","system_id":"levelo_inurba_marseille","lat":43.30875,"lon":5.39652,"is_reserved":false,"is_disabled":false,"rental_uris":{"android":"levelo://app?vid=705dc837-5d43-43af-8ff9-e7e283136076","ios":"levelo://app?vid=705dc837-5d43-43af-8ff9-e7e283136076"},"vehicle_type_id":"4","last_reported":1727657213,"current_range_meters":38800,"station_id":"ce4bh012rcd13ifvqcv0","pricing_plan_id":"cebpf4jnsgd1na2vs0mg"},{"bike_id":"029c5ad5-e943-4c73-a9a6-69f56245669d","system_id":"levelo_inurba_marseille","lat":43.23966,"lon":5.36623,"is_reserved":false,"is_disabled":false,"rental_uris":{"android":"levelo://app?vid=029c5ad5-e943-4c73-a9a6-69f56245669d","ios":"levelo://app?vid=029c5ad5-e943-4c73-a9a6-69f56245669d"},"vehicle_type_id":"4","last_reported":1727657213,"current_range_meters":38800,"station_id":"ce4bhi12rcd13ifvqfp0","pricing_plan_id":"cebpf4jnsgd1na2vs0mg"},{"bike_id":"7eda30fe-d024-4258-b0e3-cac7d23be01b","system_id":"levelo_inurba_marseille","lat":43.24809,"lon":5.37456,"is_reserved":false,"is_disabled":false,"rental_uris":{"android":"levelo://app?vid=7eda30fe-d024-4258-b0e3-cac7d23be01b","ios":"levelo://app?vid=7eda30fe-d024-4258-b0e3-cac7d23be01b"},"vehicle_type_id":"4","last_reported":1727657213,"current_range_meters":22000,"station_id":"ce4bhgh2rcd13ifvqfb0","pricing_plan_id":"cebpf4jnsgd1na2vs0mg"},{"bike_id":"4dcb809b-3292-4776-8893-7eaa35d8ecd3","system_id":"levelo_inurba_marseille","lat":43.29878,"lon":5.39746,"is_reserved":false,"is_disabled":false,"rental_uris":{"android":"levelo://app?vid=4dcb809b-3292-4776-8893-7eaa35d8ecd3","ios":"levelo://app?vid=4dcb809b-3292-4776-8893-7eaa35d8ecd3"},"vehicle_type_id":"4","last_reported":1727657213,"current_range_meters":19200,"station_id":"ce4bh0h2rcd13ifvqd50","pricing_plan_id":"cebpf4jnsgd1na2vs0mg"},{"bike_id":"9b5c8671-60f5-4270-a7f1-4b1f61657b16","system_id":"levelo_inurba_marseille","lat":43.25114,"lon":5.40318,"is_reserved":false,"is_disabled":false,"rental_uris":{"android":"levelo://app?vid=9b5c8671-60f5-4270-a7f1-4b1f61657b16","ios":"levelo://app?vid=9b5c8671-60f5-4270-a7f1-4b1f61657b16"},"vehicle_type_id":"4","last_reported":1727657213,"current_range_meters":38800,"station_id":"ce4bhlh2rcd13ifvqgig","pricing_plan_id":"cebpf4jnsgd1na2vs0mg"},{"bike_id":"aed00bc5-cb73-4d97-b65f-9d72ac1bbcc0","system_id":"levelo_inurba_marseille","lat":43.31282,"lon":5.40153,"is_reserved":false,"is_disabled":false,"rental_uris":{"android":"levelo://app?vid=aed00bc5-cb73-4d97-b65f-9d72ac1bbcc0","ios":"levelo://app?vid=aed00bc5-cb73-4d97-b65f-9d72ac1bbcc0"},"vehicle_type_id":"4","last_reported":1727657213,"current_range_meters":16000,"station_id":"ce4bh092rcd13ifvqd30","pricing_plan_id":"cebpf4jnsgd1na2vs0mg"},{"bike_id":"8bd4d1bb-8d78-40d5-b4f7-984df59cf0ce","system_id":"levelo_inurba_marseille","lat":43.31075,"lon":5.38342,"is_reserved":false,"is_disabled":false,"rental_uris":{"android":"levelo://app?vid=8bd4d1bb-8d78-40d5-b4f7-984df59cf0ce","ios":"levelo://app?vid=8bd4d1bb-8d78-40d5-b4f7-984df59cf0ce"},"vehicle_type_id":"4","last_reported":1727657213,"current_range_meters":9600,"station_id":"ce4bgv92rcd13ifvqcr0","pricing_plan_id":"cebpf4jnsgd1na2vs0mg"},{"bike_id":"11fd99af-1ad0-4cd3-9609-5f9d6cd88aee","system_id":"levelo_inurba_marseille","lat":43.30957,"lon":5.39052,"is_reserved":false,"is_disabled":false,"rental_uris":{"android":"levelo://app?vid=11fd99af-1ad0-4cd3-9609-5f9d6cd88aee","ios":"levelo://app?vid=11fd99af-1ad0-4cd3-9609-5f9d6cd88aee"},"vehicle_type_id":"4","last_reported":1727657213,"current_range_meters":32000,"station_id":"ce4bgup2rcd13ifvqco0","pricing_plan_id":"cebpf4jnsgd1na2vs0mg"},{"bike_id":"007b7d32-944c-4503-914a-33cee824c269","system_id":"levelo_inurba_marseille","lat":43.30652,"lon":5.40089,"is_reserved":false,"is_disabled":false,"rental_uris":{"android":"levelo://app?vid=007b7d32-944c-4503-914a-33cee824c269","ios":"levelo://app?vid=007b7d32-944c-4503-914a-33cee824c269"},"vehicle_type_id":"4","last_reported":1727657213,"current_range_meters":38800,"station_id":"ce4bh112rcd13ifvqda0","pricing_plan_id":"cebpf4jnsgd1na2vs0mg"},{"bike_id":"2d2afea1-d874-4ff7-9bc4-e52245f98677","system_id":"levelo_inurba_marseille","lat":43.28701,"lon":5.37385,"is_reserved":false,"is_disabled":false,"rental_uris":{"android":"levelo://app?vid=2d2afea1-d874-4ff7-9bc4-e52245f98677","ios":"levelo://app?vid=2d2afea1-d874-4ff7-9bc4-e52245f98677"},"vehicle_type_id":"4","last_reported":1727657213,"current_range_meters":28000,"station_id":"ce4bh3p2rcd13ifvqdq0","pricing_plan_id":"cebpf4jnsgd1na2vs0mg"},{"bike_id":"fd81dd9e-41a0-48cb-80a2-481a81723d32","system_id":"levelo_inurba_marseille","lat":43.25111,"lon":5.40325,"is_reserved":false,"is_disabled":false,"rental_uris":{"android":"levelo://app?vid=fd81dd9e-41a0-48cb-80a2-481a81723d32","ios":"levelo://app?vid=fd81dd9e-41a0-48cb-80a2-481a81723d32"},"vehicle_type_id":"4","last_reported":1727657213,"current_range_meters":38800,"station_id":"ce4bhlh2rcd13ifvqgig","pricing_plan_id":"cebpf4jnsgd1na2vs0mg"},{"bike_id":"d56908f3-eaf5-4e90-8c94-794e25aaa96b","system_id":"levelo_inurba_marseille","lat":43.28406,"lon":5.37512,"is_reserved":false,"is_disabled":false,"rental_uris":{"android":"levelo://app?vid=d56908f3-eaf5-4e90-8c94-794e25aaa96b","ios":"levelo://app?vid=d56908f3-eaf5-4e90-8c94-794e25aaa96b"},"vehicle_type_id":"4","last_reported":1727657213,"current_range_meters":27200,"station_id":"ce4bh412rcd13ifvqds0","pricing_plan_id":"cebpf4jnsgd1na2vs0mg"},{"bike_id":"796b2c36-e666-4c21-b06b-2df13e7fc282","system_id":"levelo_inurba_marseille","lat":43.29531,"lon":5.39401,"is_reserved":false,"is_disabled":false,"rental_uris":{"android":"levelo://app?vid=796b2c36-e666-4c21-b06b-2df13e7fc282","ios":"levelo://app?vid=796b2c36-e666-4c21-b06b-2df13e7fc282"},"vehicle_type_id":"4","last_reported":1727657213,"current_range_meters":20000,"station_id":"ce4bh292rcd13ifvqdf0","pricing_plan_id":"cebpf4jnsgd1na2vs0mg"},{"bike_id":"31846e81-3a87-468c-8781-a080b27e3357","system_id":"levelo_inurba_marseille","lat":43.24672,"lon":5.38159,"is_reserved":false,"is_disabled":false,"rental_uris":{"android":"levelo://app?vid=31846e81-3a87-468c-8781-a080b27e3357","ios":"levelo://app?vid=31846e81-3a87-468c-8781-a080b27e3357"},"vehicle_type_id":"4","last_reported":1727657213,"current_range_meters":24400,"station_id":"ce4bhih2rcd13ifvqfr0","pricing_plan_id":"cebpf4jnsgd1na2vs0mg"},{"bike_id":"0b1f2f1f-d1fc-44f8-b618-3733346626ac","system_id":"levelo_inurba_marseille","lat":43.30544,"lon":5.38426,"is_reserved":false,"is_disabled":false,"rental_uris":{"android":"levelo://app?vid=0b1f2f1f-d1fc-44f8-b618-3733346626ac","ios":"levelo://app?vid=0b1f2f1f-d1fc-44f8-b618-3733346626ac"},"vehicle_type_id":"4","last_reported":1727657213,"current_range_meters":32400,"station_id":"ce4bgg92rcd13ifvqb30","pricing_plan_id":"cebpf4jnsgd1na2vs0mg"},{"bike_id":"b13a6c79-a3e0-462a-934d-41334957cdc8","system_id":"levelo_inurba_marseille","lat":43.32663,"lon":5.40977,"is_reserved":false,"is_disabled":false,"rental_uris":{"android":"levelo://app?vid=b13a6c79-a3e0-462a-934d-41334957cdc8","ios":"levelo://app?vid=b13a6c79-a3e0-462a-934d-41334957cdc8"},"vehicle_type_id":"4","last_reported":1727657213,"current_range_meters":38800,"station_id":"ce4bhpp2rcd13ifvqhgg","pricing_plan_id":"cebpf4jnsgd1na2vs0mg"},{"bike_id":"0cd47eef-ff06-4f7f-a905-0dee6fe6447c","system_id":"levelo_inurba_marseille","lat":43.24074,"lon":5.37757,"is_reserved":false,"is_disabled":false,"rental_uris":{"android":"levelo://app?vid=0cd47eef-ff06-4f7f-a905-0dee6fe6447c","ios":"levelo://app?vid=0cd47eef-ff06-4f7f-a905-0dee6fe6447c"},"vehicle_type_id":"4","last_reported":1727657213,"current_range_meters":32000,"station_id":"ce4bhnp2rcd13ifvqgvg","pricing_plan_id":"cebpf4jnsgd1na2vs0mg"},{"bike_id":"517bf19b-6722-45c0-bf8b-08925e1fbd62","system_id":"levelo_inurba_marseille","lat":43.28711,"lon":5.39989,"is_reserved":false,"is_disabled":false,"rental_uris":{"android":"levelo://app?vid=517bf19b-6722-45c0-bf8b-08925e1fbd62","ios":"levelo://app?vid=517bf19b-6722-45c0-bf8b-08925e1fbd62"},"vehicle_type_id":"4","last_reported":1727657213,"current_range_meters":37600,"station_id":"ce4bho92rcd13ifvqh3g","pricing_plan_id":"cebpf4jnsgd1na2vs0mg"},{"bike_id":"d10e4c18-d8ff-4085-a7ba-ec9faaa34e61","system_id":"levelo_inurba_marseille","lat":43.26058,"lon":5.39391,"is_reserved":false,"is_disabled":false,"rental_uris":{"android":"levelo://app?vid=d10e4c18-d8ff-4085-a7ba-ec9faaa34e61","ios":"levelo://app?vid=d10e4c18-d8ff-4085-a7ba-ec9faaa34e61"},"vehicle_type_id":"4","last_reported":1727657213,"current_range_meters":20000,"station_id":"ce4bhh92rcd13ifvqfj0","pricing_plan_id":"cebpf4jnsgd1na2vs0mg"},{"bike_id":"67e16eeb-d218-4638-ae97-82e780905b9a","system_id":"levelo_inurba_marseille","lat":43.27426,"lon":5.39398,"is_reserved":false,"is_disabled":false,"rental_uris":{"android":"levelo://app?vid=67e16eeb-d218-4638-ae97-82e780905b9a","ios":"levelo://app?vid=67e16eeb-d218-4638-ae97-82e780905b9a"},"vehicle_type_id":"4","last_reported":1727657213,"current_range_meters":38000,"station_id":"ce4bhdp2rcd13ifvqf20","pricing_plan_id":"cebpf4jnsgd1na2vs0mg"},{"bike_id":"66ca816c-c4fd-4e9c-80f5-51bc6f105d0f","system_id":"levelo_inurba_marseille","lat":43.30643,"lon":5.40086,"is_reserved":false,"is_disabled":false,"rental_uris":{"android":"levelo://app?vid=66ca816c-c4fd-4e9c-80f5-51bc6f105d0f","ios":"levelo://app?vid=66ca816c-c4fd-4e9c-80f5-51bc6f105d0f"},"vehicle_type_id":"4","last_reported":1727657213,"current_range_meters":24000,"station_id":"ce4bh112rcd13ifvqda0","pricing_plan_id":"cebpf4jnsgd1na2vs0mg"},{"bike_id":"ebd94cba-8da0-47fb-874d-a3bfbeb5be79","system_id":"levelo_inurba_marseille","lat":43.26957,"lon":5.38625,"is_reserved":false,"is_disabled":false,"rental_uris":{"android":"levelo://app?vid=ebd94cba-8da0-47fb-874d-a3bfbeb5be79","ios":"levelo://app?vid=ebd94cba-8da0-47fb-874d-a3bfbeb5be79"},"vehicle_type_id":"4","last_reported":1727657213,"current_range_meters":26000,"station_id":"ce4bhh92rcd13ifvqfh0","pricing_plan_id":"cebpf4jnsgd1na2vs0mg"},{"bike_id":"29f38da5-2fff-4949-a290-5d4e17fc7555","system_id":"levelo_inurba_marseille","lat":43.24673,"lon":5.38167,"is_reserved":false,"is_disabled":false,"rental_uris":{"android":"levelo://app?vid=29f38da5-2fff-4949-a290-5d4e17fc7555","ios":"levelo://app?vid=29f38da5-2fff-4949-a290-5d4e17fc7555"},"vehicle_type_id":"4","last_reported":1727657213,"current_range_meters":27200,"station_id":"ce4bhih2rcd13ifvqfr0","pricing_plan_id":"cebpf4jnsgd1na2vs0mg"},{"bike_id":"7497ada0-4e52-442c-9aa1-86afe522b93f","system_id":"levelo_inurba_marseille","lat":43.29897,"lon":5.43655,"is_reserved":false,"is_disabled":false,"rental_uris":{"android":"levelo://app?vid=7497ada0-4e52-442c-9aa1-86afe522b93f","ios":"levelo://app?vid=7497ada0-4e52-442c-9aa1-86afe522b93f"},"vehicle_type_id":"4","last_reported":1727657213,"current_range_meters":22800,"station_id":"ce4bhpp2rcd13ifvqhfg","pricing_plan_id":"cebpf4jnsgd1na2vs0mg"},{"bike_id":"d93a5d29-a09a-426c-a2f2-26f88912312a","system_id":"levelo_inurba_marseille","lat":43.31361,"lon":5.385,"is_reserved":false,"is_disabled":false,"rental_uris":{"android":"levelo://app?vid=d93a5d29-a09a-426c-a2f2-26f88912312a","ios":"levelo://app?vid=d93a5d29-a09a-426c-a2f2-26f88912312a"},"vehicle_type_id":"4","last_reported":1727657213,"current_range_meters":21600,"station_id":"ce4bgt92rcd13ifvqcf0","pricing_plan_id":"cebpf4jnsgd1na2vs0mg"},{"bike_id":"cf536289-0b11-45bf-bd81-411c843c39f6","system_id":"levelo_inurba_marseille","lat":43.30142,"lon":5.39893,"is_reserved":false,"is_disabled":false,"rental_uris":{"android":"levelo://app?vid=cf536289-0b11-45bf-bd81-411c843c39f6","ios":"levelo://app?vid=cf536289-0b11-45bf-bd81-411c843c39f6"},"vehicle_type_id":"4","last_reported":1727657213,"current_range_meters":37600,"station_id":"ce4bh0h2rcd13ifvqd40","pricing_plan_id":"cebpf4jnsgd1na2vs0mg"},{"bike_id":"cb22e9b7-585c-4f42-9dd6-d94fa3677323","system_id":"levelo_inurba_marseille","lat":43.25824,"lon":5.39423,"is_reserved":false,"is_disabled":false,"rental_uris":{"android":"levelo://app?vid=cb22e9b7-585c-4f42-9dd6-d94fa3677323","ios":"levelo://app?vid=cb22e9b7-585c-4f42-9dd6-d94fa3677323"},"vehicle_type_id":"4","last_reported":1727657213,"current_range_meters":38800,"station_id":"ce4bhip2rcd13ifvqft0","pricing_plan_id":"cebpf4jnsgd1na2vs0mg"},{"bike_id":"951cd018-ca7a-49d1-bede-856d82c01db8","system_id":"levelo_inurba_marseille","lat":43.2893,"lon":5.36405,"is_reserved":false,"is_disabled":false,"rental_uris":{"android":"levelo://app?vid=951cd018-ca7a-49d1-bede-856d82c01db8","ios":"levelo://app?vid=951cd018-ca7a-49d1-bede-856d82c01db8"},"vehicle_type_id":"4","last_reported":1727657213,"current_range_meters":23200,"station_id":"ce4bhc92rcd13ifvqetg","pricing_plan_id":"cebpf4jnsgd1na2vs0mg"},{"bike_id":"530ebee0-3821-4918-8f9b-3c2003125331","system_id":"levelo_inurba_marseille","lat":43.24076,"lon":5.37744,"is_reserved":false,"is_disabled":false,"rental_uris":{"android":"levelo://app?vid=530ebee0-3821-4918-8f9b-3c2003125331","ios":"levelo://app?vid=530ebee0-3821-4918-8f9b-3c2003125331"},"vehicle_type_id":"4","last_reported":1727657213,"current_range_meters":9600,"station_id":"ce4bhnp2rcd13ifvqgvg","pricing_plan_id":"cebpf4jnsgd1na2vs0mg"},{"bike_id":"7a51f335-7b51-4cda-99d6-a4f3d46e298a","system_id":"levelo_inurba_marseille","lat":43.30697,"lon":5.40416,"is_reserved":false,"is_disabled":false,"rental_uris":{"android":"levelo://app?vid=7a51f335-7b51-4cda-99d6-a4f3d46e298a","ios":"levelo://app?vid=7a51f335-7b51-4cda-99d6-a4f3d46e298a"},"vehicle_type_id":"4","last_reported":1727657213,"current_range_meters":22000,"station_id":"","pricing_plan_id":"cebpf4jnsgd1na2vs0mg"},{"bike_id":"4e25d64d-a1d1-48a2-8157-ea3e068196d4","system_id":"levelo_inurba_marseille","lat":43.28435,"lon":5.39194,"is_reserved":false,"is_disabled":false,"rental_uris":{"android":"levelo://app?vid=4e25d64d-a1d1-48a2-8157-ea3e068196d4","ios":"levelo://app?vid=4e25d64d-a1d1-48a2-8157-ea3e068196d4"},"vehicle_type_id":"4","last_reported":1727657213,"current_range_meters":32400,"station_id":"ce4bhoh2rcd13ifvqh5g","pricing_plan_id":"cebpf4jnsgd1na2vs0mg"},{"bike_id":"900bb84c-0c4a-43e7-93e4-7b917e9de5e5","system_id":"levelo_inurba_marseille","lat":43.23191,"lon":5.39982,"is_reserved":false,"is_disabled":false,"rental_uris":{"android":"levelo://app?vid=900bb84c-0c4a-43e7-93e4-7b917e9de5e5","ios":"levelo://app?vid=900bb84c-0c4a-43e7-93e4-7b917e9de5e5"},"vehicle_type_id":"4","last_reported":1727657213,"current_range_meters":22800,"station_id":"ce4bhn12rcd13ifvqgqg","pricing_plan_id":"cebpf4jnsgd1na2vs0mg"},{"bike_id":"9f05bc58-98dc-4d91-89c9-625701f10a87","system_id":"levelo_inurba_marseille","lat":43.25111,"lon":5.4033,"is_reserved":false,"is_disabled":false,"rental_uris":{"android":"levelo://app?vid=9f05bc58-98dc-4d91-89c9-625701f10a87","ios":"levelo://app?vid=9f05bc58-98dc-4d91-89c9-625701f10a87"},"vehicle_type_id":"4","last_reported":1727657213,"current_range_meters":24400,"station_id":"ce4bhlh2rcd13ifvqgig","pricing_plan_id":"cebpf4jnsgd1na2vs0mg"},{"bike_id":"2339f218-edd1-4dd1-a1a9-f89fa2d778c1","system_id":"levelo_inurba_marseille","lat":43.28691,"lon":5.37382,"is_reserved":false,"is_disabled":false,"rental_uris":{"android":"levelo://app?vid=2339f218-edd1-4dd1-a1a9-f89fa2d778c1","ios":"levelo://app?vid=2339f218-edd1-4dd1-a1a9-f89fa2d778c1"},"vehicle_type_id":"4","last_reported":1727657213,"current_range_meters":30400,"station_id":"ce4bh3p2rcd13ifvqdq0","pricing_plan_id":"cebpf4jnsgd1na2vs0mg"},{"bike_id":"487875d6-25b0-49e7-84cf-47e6797f6636","system_id":"levelo_inurba_marseille","lat":43.26568,"lon":5.39006,"is_reserved":false,"is_disabled":false,"rental_uris":{"android":"levelo://app?vid=487875d6-25b0-49e7-84cf-47e6797f6636","ios":"levelo://app?vid=487875d6-25b0-49e7-84cf-47e6797f6636"},"vehicle_type_id":"4","last_reported":1727657213,"current_range_meters":30000,"station_id":"ce4bhe12rcd13ifvqf30","pricing_plan_id":"cebpf4jnsgd1na2vs0mg"},{"bike_id":"be65cb47-d5bc-46c9-aa6a-406aa1aa300a","system_id":"levelo_inurba_marseille","lat":43.32489,"lon":5.36558,"is_reserved":false,"is_disabled":false,"rental_uris":{"android":"levelo://app?vid=be65cb47-d5bc-46c9-aa6a-406aa1aa300a","ios":"levelo://app?vid=be65cb47-d5bc-46c9-aa6a-406aa1aa300a"},"vehicle_type_id":"4","last_reported":1727657213,"current_range_meters":27600,"station_id":"ce4bhs12rcd13ifvqhvg","pricing_plan_id":"cebpf4jnsgd1na2vs0mg"},{"bike_id":"02f7044d-925a-4322-af22-e72369104b31","system_id":"levelo_inurba_marseille","lat":43.29806,"lon":5.40408,"is_reserved":false,"is_disabled":false,"rental_uris":{"android":"levelo://app?vid=02f7044d-925a-4322-af22-e72369104b31","ios":"levelo://app?vid=02f7044d-925a-4322-af22-e72369104b31"},"vehicle_type_id":"4","last_reported":1727657213,"current_range_meters":16000,"station_id":"ce4bh112rcd13ifvqd90","pricing_plan_id":"cebpf4jnsgd1na2vs0mg"},{"bike_id":"8f2bcad6-58f1-4bc3-a7a8-5151c9a3b8bd","system_id":"levelo_inurba_marseille","lat":43.28701,"lon":5.3998,"is_reserved":false,"is_disabled":false,"rental_uris":{"android":"levelo://app?vid=8f2bcad6-58f1-4bc3-a7a8-5151c9a3b8bd","ios":"levelo://app?vid=8f2bcad6-58f1-4bc3-a7a8-5151c9a3b8bd"},"vehicle_type_id":"4","last_reported":1727657213,"current_range_meters":11200,"station_id":"ce4bho92rcd13ifvqh3g","pricing_plan_id":"cebpf4jnsgd1na2vs0mg"},{"bike_id":"65b2f456-4440-45e9-b691-5d85d81e32a5","system_id":"levelo_inurba_marseille","lat":43.28075,"lon":5.39639,"is_reserved":false,"is_disabled":false,"rental_uris":{"android":"levelo://app?vid=65b2f456-4440-45e9-b691-5d85d81e32a5","ios":"levelo://app?vid=65b2f456-4440-45e9-b691-5d85d81e32a5"},"vehicle_type_id":"4","last_reported":1727657213,"current_range_meters":36800,"station_id":"ce4bho12rcd13ifvqh2g","pricing_plan_id":"cebpf4jnsgd1na2vs0mg"},{"bike_id":"cac58c63-4211-471e-b8c9-9d14b0c0904b","system_id":"levelo_inurba_marseille","lat":43.28109,"lon":5.37839,"is_reserved":false,"is_disabled":false,"rental_uris":{"android":"levelo://app?vid=cac58c63-4211-471e-b8c9-9d14b0c0904b","ios":"levelo://app?vid=cac58c63-4211-471e-b8c9-9d14b0c0904b"},"vehicle_type_id":"4","last_reported":1727657213,"current_range_meters":35600,"station_id":"ce4bha12rcd13ifvqee0","pricing_plan_id":"cebpf4jnsgd1na2vs0mg"},{"bike_id":"4bf17278-821c-44d9-9e1b-8440f028916f","system_id":"levelo_inurba_marseille","lat":43.2481,"lon":5.37457,"is_reserved":false,"is_disabled":false,"rental_uris":{"android":"levelo://app?vid=4bf17278-821c-44d9-9e1b-8440f028916f","ios":"levelo://app?vid=4bf17278-821c-44d9-9e1b-8440f028916f"},"vehicle_type_id":"4","last_reported":1727657213,"current_range_meters":9200,"station_id":"ce4bhgh2rcd13ifvqfb0","pricing_plan_id":"cebpf4jnsgd1na2vs0mg"},{"bike_id":"3c0bcc5b-8c96-466b-aa1a-717c68363936","system_id":"levelo_inurba_marseille","lat":43.31122,"lon":5.377624,"is_reserved":false,"is_disabled":false,"rental_uris":{"android":"levelo://app?vid=3c0bcc5b-8c96-466b-aa1a-717c68363936","ios":"levelo://app?vid=3c0bcc5b-8c96-466b-aa1a-717c68363936"},"vehicle_type_id":"4","last_reported":1727657213,"current_range_meters":38800,"station_id":"ce4bgt92rcd13ifvqcg0","pricing_plan_id":"cebpf4jnsgd1na2vs0mg"},{"bike_id":"fffa2861-250b-4f0b-b251-bc4a93e6a064","system_id":"levelo_inurba_marseille","lat":43.25862,"lon":5.39902,"is_reserved":false,"is_disabled":false,"rental_uris":{"android":"levelo://app?vid=fffa2861-250b-4f0b-b251-bc4a93e6a064","ios":"levelo://app?vid=fffa2861-250b-4f0b-b251-bc4a93e6a064"},"vehicle_type_id":"4","last_reported":1727657213,"current_range_meters":38800,"station_id":"ce4bhl92rcd13ifvqghg","pricing_plan_id":"cebpf4jnsgd1na2vs0mg"},{"bike_id":"80052677-a184-47b6-b7ba-4401badcd8a9","system_id":"levelo_inurba_marseille","lat":43.32295,"lon":5.3828,"is_reserved":false,"is_disabled":false,"rental_uris":{"android":"levelo://app?vid=80052677-a184-47b6-b7ba-4401badcd8a9","ios":"levelo://app?vid=80052677-a184-47b6-b7ba-4401badcd8a9"},"vehicle_type_id":"4","last_reported":1727657213,"current_range_meters":38800,"station_id":"ce4bhr12rcd13ifvqhqg","pricing_plan_id":"cebpf4jnsgd1na2vs0mg"},{"bike_id":"9fbb39a0-1abd-4aad-8ee4-f65d831afc58","system_id":"levelo_inurba_marseille","lat":43.26578,"lon":5.39031,"is_reserved":false,"is_disabled":false,"rental_uris":{"android":"levelo://app?vid=9fbb39a0-1abd-4aad-8ee4-f65d831afc58","ios":"levelo://app?vid=9fbb39a0-1abd-4aad-8ee4-f65d831afc58"},"vehicle_type_id":"4","last_reported":1727657213,"current_range_meters":35600,"station_id":"ce4bhe12rcd13ifvqf30","pricing_plan_id":"cebpf4jnsgd1na2vs0mg"},{"bike_id":"f0989cbb-fb01-4980-9c6e-703851a4b0af","system_id":"levelo_inurba_marseille","lat":43.30257,"lon":5.404,"is_reserved":false,"is_disabled":false,"rental_uris":{"android":"levelo://app?vid=f0989cbb-fb01-4980-9c6e-703851a4b0af","ios":"levelo://app?vid=f0989cbb-fb01-4980-9c6e-703851a4b0af"},"vehicle_type_id":"4","last_reported":1727657213,"current_range_meters":10000,"station_id":"","pricing_plan_id":"cebpf4jnsgd1na2vs0mg"},{"bike_id":"b8d288be-6fe2-4dc7-8d5b-56533e2dc1b3","system_id":"levelo_inurba_marseille","lat":43.28156,"lon":5.42646,"is_reserved":false,"is_disabled":false,"rental_uris":{"android":"levelo://app?vid=b8d288be-6fe2-4dc7-8d5b-56533e2dc1b3","ios":"levelo://app?vid=b8d288be-6fe2-4dc7-8d5b-56533e2dc1b3"},"vehicle_type_id":"4","last_reported":1727657213,"current_range_meters":28800,"station_id":"ce4bhnh2rcd13ifvqgug","pricing_plan_id":"cebpf4jnsgd1na2vs0mg"},{"bike_id":"c429f741-e09b-4c0e-8c65-ff71e1baa928","system_id":"levelo_inurba_marseille","lat":43.30145,"lon":5.40457,"is_reserved":false,"is_disabled":false,"rental_uris":{"android":"levelo://app?vid=c429f741-e09b-4c0e-8c65-ff71e1baa928","ios":"levelo://app?vid=c429f741-e09b-4c0e-8c65-ff71e1baa928"},"vehicle_type_id":"4","last_reported":1727657213,"current_range_meters":16800,"station_id":"","pricing_plan_id":"cebpf4jnsgd1na2vs0mg"},{"bike_id":"a974d009-942e-477b-b4db-19f84bd48313","system_id":"levelo_inurba_marseille","lat":43.32115,"lon":5.387099,"is_reserved":false,"is_disabled":false,"rental_uris":{"android":"levelo://app?vid=a974d009-942e-477b-b4db-19f84bd48313","ios":"levelo://app?vid=a974d009-942e-477b-b4db-19f84bd48313"},"vehicle_type_id":"4","last_reported":1727657213,"current_range_meters":37600,"station_id":"","pricing_plan_id":"cebpf4jnsgd1na2vs0mg"},{"bike_id":"dd40af67-a5d2-4728-a3bc-95126175c8b8","system_id":"levelo_inurba_marseille","lat":43.29039,"lon":5.3863,"is_reserved":false,"is_disabled":false,"rental_uris":{"android":"levelo://app?vid=dd40af67-a5d2-4728-a3bc-95126175c8b8","ios":"levelo://app?vid=dd40af67-a5d2-4728-a3bc-95126175c8b8"},"vehicle_type_id":"4","last_reported":1727657213,"current_range_meters":16000,"station_id":"ce4bh4p2rcd13ifvqe0g","pricing_plan_id":"cebpf4jnsgd1na2vs0mg"},{"bike_id":"625d6a88-eabd-4781-bcf3-17f173c69536","system_id":"levelo_inurba_marseille","lat":43.281558,"lon":5.426423,"is_reserved":false,"is_disabled":false,"rental_uris":{"android":"levelo://app?vid=625d6a88-eabd-4781-bcf3-17f173c69536","ios":"levelo://app?vid=625d6a88-eabd-4781-bcf3-17f173c69536"},"vehicle_type_id":"4","last_reported":1727657213,"current_range_meters":32000,"station_id":"ce4bhnh2rcd13ifvqgug","pricing_plan_id":"cebpf4jnsgd1na2vs0mg"},{"bike_id":"8737a042-e0c1-41ca-b82a-c53655df8446","system_id":"levelo_inurba_marseille","lat":43.2848,"lon":5.38409,"is_reserved":false,"is_disabled":false,"rental_uris":{"android":"levelo://app?vid=8737a042-e0c1-41ca-b82a-c53655df8446","ios":"levelo://app?vid=8737a042-e0c1-41ca-b82a-c53655df8446"},"vehicle_type_id":"4","last_reported":1727657213,"current_range_meters":37600,"station_id":"ce4bh512rcd13ifvqe3g","pricing_plan_id":"cebpf4jnsgd1na2vs0mg"},{"bike_id":"8d0ad09d-941b-47c3-9c55-657fa073943b","system_id":"levelo_inurba_marseille","lat":43.27967,"lon":5.38739,"is_reserved":false,"is_disabled":false,"rental_uris":{"android":"levelo://app?vid=8d0ad09d-941b-47c3-9c55-657fa073943b","ios":"levelo://app?vid=8d0ad09d-941b-47c3-9c55-657fa073943b"},"vehicle_type_id":"4","last_reported":1727657213,"current_range_meters":14800,"station_id":"ce4bhg12rcd13ifvqf80","pricing_plan_id":"cebpf4jnsgd1na2vs0mg"},{"bike_id":"66fa91f4-c481-4eff-a9d6-cf208440a473","system_id":"levelo_inurba_marseille","lat":43.29253,"lon":5.409,"is_reserved":false,"is_disabled":false,"rental_uris":{"android":"levelo://app?vid=66fa91f4-c481-4eff-a9d6-cf208440a473","ios":"levelo://app?vid=66fa91f4-c481-4eff-a9d6-cf208440a473"},"vehicle_type_id":"4","last_reported":1727657213,"current_range_meters":28400,"station_id":"ce4bh192rcd13ifvqdc0","pricing_plan_id":"cebpf4jnsgd1na2vs0mg"},{"bike_id":"3ae16357-9b43-46d1-bbc8-483fcc70804b","system_id":"levelo_inurba_marseille","lat":43.25724,"lon":5.41113,"is_reserved":false,"is_disabled":false,"rental_uris":{"android":"levelo://app?vid=3ae16357-9b43-46d1-bbc8-483fcc70804b","ios":"levelo://app?vid=3ae16357-9b43-46d1-bbc8-483fcc70804b"},"vehicle_type_id":"4","last_reported":1727657213,"current_range_meters":26800,"station_id":"ce4bhkp2rcd13ifvqgd0","pricing_plan_id":"cebpf4jnsgd1na2vs0mg"},{"bike_id":"ecadd1d8-c333-48e3-a2c2-b7fd196b9ab8","system_id":"levelo_inurba_marseille","lat":43.27444,"lon":5.39403,"is_reserved":false,"is_disabled":false,"rental_uris":{"android":"levelo://app?vid=ecadd1d8-c333-48e3-a2c2-b7fd196b9ab8","ios":"levelo://app?vid=ecadd1d8-c333-48e3-a2c2-b7fd196b9ab8"},"vehicle_type_id":"4","last_reported":1727657213,"current_range_meters":37600,"station_id":"ce4bhdp2rcd13ifvqf20","pricing_plan_id":"cebpf4jnsgd1na2vs0mg"},{"bike_id":"6fa87e93-6693-4dbd-bd24-0bf4f166cbf9","system_id":"levelo_inurba_marseille","lat":43.29534,"lon":5.39045,"is_reserved":false,"is_disabled":false,"rental_uris":{"android":"levelo://app?vid=6fa87e93-6693-4dbd-bd24-0bf4f166cbf9","ios":"levelo://app?vid=6fa87e93-6693-4dbd-bd24-0bf4f166cbf9"},"vehicle_type_id":"4","last_reported":1727657213,"current_range_meters":38000,"station_id":"ce4bh3p2rcd13ifvqdp0","pricing_plan_id":"cebpf4jnsgd1na2vs0mg"},{"bike_id":"e0976dae-bcb8-43e8-bba6-c9ef6415841f","system_id":"levelo_inurba_marseille","lat":43.28724,"lon":5.3793,"is_reserved":false,"is_disabled":false,"rental_uris":{"android":"levelo://app?vid=e0976dae-bcb8-43e8-bba6-c9ef6415841f","ios":"levelo://app?vid=e0976dae-bcb8-43e8-bba6-c9ef6415841f"},"vehicle_type_id":"4","last_reported":1727657213,"current_range_meters":18000,"station_id":"ce4bh9p2rcd13ifvqec0","pricing_plan_id":"cebpf4jnsgd1na2vs0mg"},{"bike_id":"0701cf2a-674c-4c9d-af1e-6650acbaaf74","system_id":"levelo_inurba_marseille","lat":43.28383,"lon":5.37307,"is_reserved":false,"is_disabled":false,"rental_uris":{"android":"levelo://app?vid=0701cf2a-674c-4c9d-af1e-6650acbaaf74","ios":"levelo://app?vid=0701cf2a-674c-4c9d-af1e-6650acbaaf74"},"vehicle_type_id":"4","last_reported":1727657213,"current_range_meters":8000,"station_id":"","pricing_plan_id":"cebpf4jnsgd1na2vs0mg"},{"bike_id":"ca2820ea-9af8-4890-a9e2-9a2c711a4ed5","system_id":"levelo_inurba_marseille","lat":43.27561,"lon":5.38415,"is_reserved":false,"is_disabled":false,"rental_uris":{"android":"levelo://app?vid=ca2820ea-9af8-4890-a9e2-9a2c711a4ed5","ios":"levelo://app?vid=ca2820ea-9af8-4890-a9e2-9a2c711a4ed5"},"vehicle_type_id":"4","last_reported":1727657213,"current_range_meters":20000,"station_id":"ce4bhh92rcd13ifvqfi0","pricing_plan_id":"cebpf4jnsgd1na2vs0mg"},{"bike_id":"3a458830-390b-4adc-ab3a-1e6223b58346","system_id":"levelo_inurba_marseille","lat":43.31168,"lon":5.38719,"is_reserved":false,"is_disabled":false,"rental_uris":{"android":"levelo://app?vid=3a458830-390b-4adc-ab3a-1e6223b58346","ios":"levelo://app?vid=3a458830-390b-4adc-ab3a-1e6223b58346"},"vehicle_type_id":"4","last_reported":1727657213,"current_range_meters":36000,"station_id":"ce4bgv12rcd13ifvqcp0","pricing_plan_id":"cebpf4jnsgd1na2vs0mg"},{"bike_id":"a057292b-320e-4913-9865-6f90b330112d","system_id":"levelo_inurba_marseille","lat":43.26937,"lon":5.38914,"is_reserved":false,"is_disabled":false,"rental_uris":{"android":"levelo://app?vid=a057292b-320e-4913-9865-6f90b330112d","ios":"levelo://app?vid=a057292b-320e-4913-9865-6f90b330112d"},"vehicle_type_id":"4","last_reported":1727657213,"current_range_meters":38000,"station_id":"ce4bhhh2rcd13ifvqfl0","pricing_plan_id":"cebpf4jnsgd1na2vs0mg"},{"bike_id":"3950c017-b208-4a2f-a021-50aca1cd5294","system_id":"levelo_inurba_marseille","lat":43.28439,"lon":5.3918,"is_reserved":false,"is_disabled":false,"rental_uris":{"android":"levelo://app?vid=3950c017-b208-4a2f-a021-50aca1cd5294","ios":"levelo://app?vid=3950c017-b208-4a2f-a021-50aca1cd5294"},"vehicle_type_id":"4","last_reported":1727657213,"current_range_meters":39200,"station_id":"ce4bhoh2rcd13ifvqh5g","pricing_plan_id":"cebpf4jnsgd1na2vs0mg"},{"bike_id":"80a479a7-6b52-4502-9fa1-1e3c9c081d64","system_id":"levelo_inurba_marseille","lat":43.28471,"lon":5.38551,"is_reserved":false,"is_disabled":false,"rental_uris":{"android":"levelo://app?vid=80a479a7-6b52-4502-9fa1-1e3c9c081d64","ios":"levelo://app?vid=80a479a7-6b52-4502-9fa1-1e3c9c081d64"},"vehicle_type_id":"4","last_reported":1727657213,"current_range_meters":16400,"station_id":"ce4bh8p2rcd13ifvqeb0","pricing_plan_id":"cebpf4jnsgd1na2vs0mg"},{"bike_id":"7199a17f-8505-4d54-b9b6-2ec943c49cf2","system_id":"levelo_inurba_marseille","lat":43.33033,"lon":5.39383,"is_reserved":false,"is_disabled":false,"rental_uris":{"android":"levelo://app?vid=7199a17f-8505-4d54-b9b6-2ec943c49cf2","ios":"levelo://app?vid=7199a17f-8505-4d54-b9b6-2ec943c49cf2"},"vehicle_type_id":"4","last_reported":1727657213,"current_range_meters":37600,"station_id":"","pricing_plan_id":"cebpf4jnsgd1na2vs0mg"},{"bike_id":"9f4b8806-0737-4c36-bde4-6bc8c0d0630a","system_id":"levelo_inurba_marseille","lat":43.23959,"lon":5.36624,"is_reserved":false,"is_disabled":false,"rental_uris":{"android":"levelo://app?vid=9f4b8806-0737-4c36-bde4-6bc8c0d0630a","ios":"levelo://app?vid=9f4b8806-0737-4c36-bde4-6bc8c0d0630a"},"vehicle_type_id":"4","last_reported":1727657213,"current_range_meters":38800,"station_id":"ce4bhi12rcd13ifvqfp0","pricing_plan_id":"cebpf4jnsgd1na2vs0mg"},{"bike_id":"4d706b30-b324-49e3-84d2-6545a9f5eedc","system_id":"levelo_inurba_marseille","lat":43.29049,"lon":5.39958,"is_reserved":false,"is_disabled":false,"rental_uris":{"android":"levelo://app?vid=4d706b30-b324-49e3-84d2-6545a9f5eedc","ios":"levelo://app?vid=4d706b30-b324-49e3-84d2-6545a9f5eedc"},"vehicle_type_id":"4","last_reported":1727657213,"current_range_meters":39200,"station_id":"ce4bh392rcd13ifvqdm0","pricing_plan_id":"cebpf4jnsgd1na2vs0mg"},{"bike_id":"cdb3e8f7-bfdd-49ef-8891-5d7de459d996","system_id":"levelo_inurba_marseille","lat":43.30886,"lon":5.39634,"is_reserved":false,"is_disabled":false,"rental_uris":{"android":"levelo://app?vid=cdb3e8f7-bfdd-49ef-8891-5d7de459d996","ios":"levelo://app?vid=cdb3e8f7-bfdd-49ef-8891-5d7de459d996"},"vehicle_type_id":"4","last_reported":1727657213,"current_range_meters":20800,"station_id":"ce4bh012rcd13ifvqcv0","pricing_plan_id":"cebpf4jnsgd1na2vs0mg"},{"bike_id":"24942973-7c0b-4deb-b224-1f3f2512ab35","system_id":"levelo_inurba_marseille","lat":43.24671,"lon":5.38157,"is_reserved":false,"is_disabled":false,"rental_uris":{"android":"levelo://app?vid=24942973-7c0b-4deb-b224-1f3f2512ab35","ios":"levelo://app?vid=24942973-7c0b-4deb-b224-1f3f2512ab35"},"vehicle_type_id":"4","last_reported":1727657213,"current_range_meters":36400,"station_id":"ce4bhih2rcd13ifvqfr0","pricing_plan_id":"cebpf4jnsgd1na2vs0mg"},{"bike_id":"6cdca13d-24d1-4302-912a-54d18c748242","system_id":"levelo_inurba_marseille","lat":43.31083,"lon":5.40132,"is_reserved":false,"is_disabled":false,"rental_uris":{"android":"levelo://app?vid=6cdca13d-24d1-4302-912a-54d18c748242","ios":"levelo://app?vid=6cdca13d-24d1-4302-912a-54d18c748242"},"vehicle_type_id":"4","last_reported":1727657213,"current_range_meters":2800,"station_id":"","pricing_plan_id":"cebpf4jnsgd1na2vs0mg"},{"bike_id":"b6420d36-17d1-4cea-9ae0-11ffb6d1414e","system_id":"levelo_inurba_marseille","lat":43.30316,"lon":5.36896,"is_reserved":false,"is_disabled":false,"rental_uris":{"android":"levelo://app?vid=b6420d36-17d1-4cea-9ae0-11ffb6d1414e","ios":"levelo://app?vid=b6420d36-17d1-4cea-9ae0-11ffb6d1414e"},"vehicle_type_id":"4","last_reported":1727657213,"current_range_meters":38800,"station_id":"ce4bgqh2rcd13ifvqc5g","pricing_plan_id":"cebpf4jnsgd1na2vs0mg"},{"bike_id":"9898c78e-6b7c-4c47-a425-00e7a1b1b6f0","system_id":"levelo_inurba_marseille","lat":43.29378,"lon":5.37859,"is_reserved":false,"is_disabled":false,"rental_uris":{"android":"levelo://app?vid=9898c78e-6b7c-4c47-a425-00e7a1b1b6f0","ios":"levelo://app?vid=9898c78e-6b7c-4c47-a425-00e7a1b1b6f0"},"vehicle_type_id":"4","last_reported":1727657213,"current_range_meters":38000,"station_id":"ce4bgjh2rcd13ifvqbf0","pricing_plan_id":"cebpf4jnsgd1na2vs0mg"},{"bike_id":"f71053ad-27a7-41b9-9f03-d61008a8b176","system_id":"levelo_inurba_marseille","lat":43.30141,"lon":5.38782,"is_reserved":false,"is_disabled":false,"rental_uris":{"android":"levelo://app?vid=f71053ad-27a7-41b9-9f03-d61008a8b176","ios":"levelo://app?vid=f71053ad-27a7-41b9-9f03-d61008a8b176"},"vehicle_type_id":"4","last_reported":1727657213,"current_range_meters":17600,"station_id":"ce4bghh2rcd13ifvqb60","pricing_plan_id":"cebpf4jnsgd1na2vs0mg"},{"bike_id":"80c40c0b-c8c6-4e3d-a38c-d2ef4da13896","system_id":"levelo_inurba_marseille","lat":43.30949,"lon":5.39056,"is_reserved":false,"is_disabled":false,"rental_uris":{"android":"levelo://app?vid=80c40c0b-c8c6-4e3d-a38c-d2ef4da13896","ios":"levelo://app?vid=80c40c0b-c8c6-4e3d-a38c-d2ef4da13896"},"vehicle_type_id":"4","last_reported":1727657213,"current_range_meters":8000,"station_id":"ce4bgup2rcd13ifvqco0","pricing_plan_id":"cebpf4jnsgd1na2vs0mg"},{"bike_id":"87bcb155-2c64-48cf-a45a-91afda2f95f7","system_id":"levelo_inurba_marseille","lat":43.27996,"lon":5.40016,"is_reserved":false,"is_disabled":false,"rental_uris":{"android":"levelo://app?vid=87bcb155-2c64-48cf-a45a-91afda2f95f7","ios":"levelo://app?vid=87bcb155-2c64-48cf-a45a-91afda2f95f7"},"vehicle_type_id":"4","last_reported":1727657213,"current_range_meters":39200,"station_id":"ce4bho92rcd13ifvqh4g","pricing_plan_id":"cebpf4jnsgd1na2vs0mg"},{"bike_id":"40844c04-10a3-4b72-a8ef-7a099f37b384","system_id":"levelo_inurba_marseille","lat":43.27182,"lon":5.40995,"is_reserved":false,"is_disabled":false,"rental_uris":{"android":"levelo://app?vid=40844c04-10a3-4b72-a8ef-7a099f37b384","ios":"levelo://app?vid=40844c04-10a3-4b72-a8ef-7a099f37b384"},"vehicle_type_id":"4","last_reported":1727657213,"current_range_meters":36400,"station_id":"ce4bhl12rcd13ifvqgf0","pricing_plan_id":"cebpf4jnsgd1na2vs0mg"},{"bike_id":"9bc5accd-5ddd-4d20-b0de-78b23d24bb0d","system_id":"levelo_inurba_marseille","lat":43.31121,"lon":5.3777,"is_reserved":false,"is_disabled":false,"rental_uris":{"android":"levelo://app?vid=9bc5accd-5ddd-4d20-b0de-78b23d24bb0d","ios":"levelo://app?vid=9bc5accd-5ddd-4d20-b0de-78b23d24bb0d"},"vehicle_type_id":"4","last_reported":1727657213,"current_range_meters":38800,"station_id":"ce4bgt92rcd13ifvqcg0","pricing_plan_id":"cebpf4jnsgd1na2vs0mg"},{"bike_id":"d37af953-d682-43ed-9078-8dbbc62ce49a","system_id":"levelo_inurba_marseille","lat":43.24674,"lon":5.38154,"is_reserved":false,"is_disabled":false,"rental_uris":{"android":"levelo://app?vid=d37af953-d682-43ed-9078-8dbbc62ce49a","ios":"levelo://app?vid=d37af953-d682-43ed-9078-8dbbc62ce49a"},"vehicle_type_id":"4","last_reported":1727657213,"current_range_meters":38400,"station_id":"ce4bhih2rcd13ifvqfr0","pricing_plan_id":"cebpf4jnsgd1na2vs0mg"},{"bike_id":"6bbdf29d-e1b4-4eef-8609-f78d6cd6358e","system_id":"levelo_inurba_marseille","lat":43.31714,"lon":5.37764,"is_reserved":false,"is_disabled":false,"rental_uris":{"android":"levelo://app?vid=6bbdf29d-e1b4-4eef-8609-f78d6cd6358e","ios":"levelo://app?vid=6bbdf29d-e1b4-4eef-8609-f78d6cd6358e"},"vehicle_type_id":"4","last_reported":1727657213,"current_range_meters":28800,"station_id":"ce4bgth2rcd13ifvqch0","pricing_plan_id":"cebpf4jnsgd1na2vs0mg"},{"bike_id":"c7bd2519-2094-49e9-9d5a-56c00b1a2b1c","system_id":"levelo_inurba_marseille","lat":43.26568,"lon":5.3903,"is_reserved":false,"is_disabled":false,"rental_uris":{"android":"levelo://app?vid=c7bd2519-2094-49e9-9d5a-56c00b1a2b1c","ios":"levelo://app?vid=c7bd2519-2094-49e9-9d5a-56c00b1a2b1c"},"vehicle_type_id":"4","last_reported":1727657213,"current_range_meters":38800,"station_id":"ce4bhe12rcd13ifvqf30","pricing_plan_id":"cebpf4jnsgd1na2vs0mg"},{"bike_id":"387f39da-cccd-4c68-82b5-2559650c70a6","system_id":"levelo_inurba_marseille","lat":43.29259,"lon":5.40906,"is_reserved":false,"is_disabled":false,"rental_uris":{"android":"levelo://app?vid=387f39da-cccd-4c68-82b5-2559650c70a6","ios":"levelo://app?vid=387f39da-cccd-4c68-82b5-2559650c70a6"},"vehicle_type_id":"4","last_reported":1727657213,"current_range_meters":38800,"station_id":"ce4bh192rcd13ifvqdc0","pricing_plan_id":"cebpf4jnsgd1na2vs0mg"},{"bike_id":"4bedc093-723a-47c7-9b5d-3ab22888fbf1","system_id":"levelo_inurba_marseille","lat":43.28717,"lon":5.39988,"is_reserved":false,"is_disabled":false,"rental_uris":{"android":"levelo://app?vid=4bedc093-723a-47c7-9b5d-3ab22888fbf1","ios":"levelo://app?vid=4bedc093-723a-47c7-9b5d-3ab22888fbf1"},"vehicle_type_id":"4","last_reported":1727657213,"current_range_meters":24000,"station_id":"ce4bho92rcd13ifvqh3g","pricing_plan_id":"cebpf4jnsgd1na2vs0mg"},{"bike_id":"6a73a29b-a8cf-447a-b3c9-2b0e30545c36","system_id":"levelo_inurba_marseille","lat":43.23199,"lon":5.35542,"is_reserved":false,"is_disabled":false,"rental_uris":{"android":"levelo://app?vid=6a73a29b-a8cf-447a-b3c9-2b0e30545c36","ios":"levelo://app?vid=6a73a29b-a8cf-447a-b3c9-2b0e30545c36"},"vehicle_type_id":"4","last_reported":1727657213,"current_range_meters":18000,"station_id":"ce4bhu92rcd13ifvqi70","pricing_plan_id":"cebpf4jnsgd1na2vs0mg"},{"bike_id":"2ab05bf8-eca7-437d-b897-4c5c531ec1af","system_id":"levelo_inurba_marseille","lat":43.31694,"lon":5.37724,"is_reserved":false,"is_disabled":false,"rental_uris":{"android":"levelo://app?vid=2ab05bf8-eca7-437d-b897-4c5c531ec1af","ios":"levelo://app?vid=2ab05bf8-eca7-437d-b897-4c5c531ec1af"},"vehicle_type_id":"4","last_reported":1727657213,"current_range_meters":6800,"station_id":"ce4bgth2rcd13ifvqch0","pricing_plan_id":"cebpf4jnsgd1na2vs0mg"},{"bike_id":"acf18a21-c944-4e59-b63d-489d756fe630","system_id":"levelo_inurba_marseille","lat":43.3133,"lon":5.39694,"is_reserved":false,"is_disabled":false,"rental_uris":{"android":"levelo://app?vid=acf18a21-c944-4e59-b63d-489d756fe630","ios":"levelo://app?vid=acf18a21-c944-4e59-b63d-489d756fe630"},"vehicle_type_id":"4","last_reported":1727657213,"current_range_meters":38000,"station_id":"ce4bgvp2rcd13ifvqcu0","pricing_plan_id":"cebpf4jnsgd1na2vs0mg"},{"bike_id":"fbf3741c-5282-4263-869b-0d40f3292f60","system_id":"levelo_inurba_marseille","lat":43.28458,"lon":5.35879,"is_reserved":false,"is_disabled":false,"rental_uris":{"android":"levelo://app?vid=fbf3741c-5282-4263-869b-0d40f3292f60","ios":"levelo://app?vid=fbf3741c-5282-4263-869b-0d40f3292f60"},"vehicle_type_id":"4","last_reported":1727657213,"current_range_meters":8000,"station_id":"ce4bhah2rcd13ifvqei0","pricing_plan_id":"cebpf4jnsgd1na2vs0mg"},{"bike_id":"91e68b6b-0b6c-408b-ad07-f9a8fd24ef88","system_id":"levelo_inurba_marseille","lat":43.29266,"lon":5.36851,"is_reserved":false,"is_disabled":false,"rental_uris":{"android":"levelo://app?vid=91e68b6b-0b6c-408b-ad07-f9a8fd24ef88","ios":"levelo://app?vid=91e68b6b-0b6c-408b-ad07-f9a8fd24ef88"},"vehicle_type_id":"4","last_reported":1727657213,"current_range_meters":17200,"station_id":"ce4bhbp2rcd13ifvqesg","pricing_plan_id":"cebpf4jnsgd1na2vs0mg"},{"bike_id":"6b57b26e-3f5d-4a85-ad81-d06defb88518","system_id":"levelo_inurba_marseille","lat":43.336,"lon":5.41022,"is_reserved":false,"is_disabled":false,"rental_uris":{"android":"levelo://app?vid=6b57b26e-3f5d-4a85-ad81-d06defb88518","ios":"levelo://app?vid=6b57b26e-3f5d-4a85-ad81-d06defb88518"},"vehicle_type_id":"4","last_reported":1727657213,"current_range_meters":26000,"station_id":"ce4bhqh2rcd13ifvqhmg","pricing_plan_id":"cebpf4jnsgd1na2vs0mg"},{"bike_id":"33a4579d-a125-4efa-8233-ee31afbe59e0","system_id":"levelo_inurba_marseille","lat":43.2732,"lon":5.39105,"is_reserved":false,"is_disabled":false,"rental_uris":{"android":"levelo://app?vid=33a4579d-a125-4efa-8233-ee31afbe59e0","ios":"levelo://app?vid=33a4579d-a125-4efa-8233-ee31afbe59e0"},"vehicle_type_id":"4","last_reported":1727657213,"current_range_meters":38800,"station_id":"ce4bhgp2rcd13ifvqfe0","pricing_plan_id":"cebpf4jnsgd1na2vs0mg"},{"bike_id":"16aef7bc-6e34-4da1-be38-669be00420e2","system_id":"levelo_inurba_marseille","lat":43.29892,"lon":5.43663,"is_reserved":false,"is_disabled":false,"rental_uris":{"android":"levelo://app?vid=16aef7bc-6e34-4da1-be38-669be00420e2","ios":"levelo://app?vid=16aef7bc-6e34-4da1-be38-669be00420e2"},"vehicle_type_id":"4","last_reported":1727657213,"current_range_meters":26000,"station_id":"ce4bhpp2rcd13ifvqhfg","pricing_plan_id":"cebpf4jnsgd1na2vs0mg"},{"bike_id":"a4a57129-960a-4063-956d-af7837f760de","system_id":"levelo_inurba_marseille","lat":43.30329,"lon":5.4044,"is_reserved":false,"is_disabled":false,"rental_uris":{"android":"levelo://app?vid=a4a57129-960a-4063-956d-af7837f760de","ios":"levelo://app?vid=a4a57129-960a-4063-956d-af7837f760de"},"vehicle_type_id":"4","last_reported":1727657213,"current_range_meters":30800,"station_id":"ce4bh012rcd13ifvqd10","pricing_plan_id":"cebpf4jnsgd1na2vs0mg"},{"bike_id":"2447a2cc-9c32-44c7-a331-e4b2f454ae72","system_id":"levelo_inurba_marseille","lat":43.28003,"lon":5.40009,"is_reserved":false,"is_disabled":false,"rental_uris":{"android":"levelo://app?vid=2447a2cc-9c32-44c7-a331-e4b2f454ae72","ios":"levelo://app?vid=2447a2cc-9c32-44c7-a331-e4b2f454ae72"},"vehicle_type_id":"4","last_reported":1727657213,"current_range_meters":36800,"station_id":"ce4bho92rcd13ifvqh4g","pricing_plan_id":"cebpf4jnsgd1na2vs0mg"},{"bike_id":"f3eb5318-be75-4013-92e8-342d3c54666e","system_id":"levelo_inurba_marseille","lat":43.32545,"lon":5.41434,"is_reserved":false,"is_disabled":false,"rental_uris":{"android":"levelo://app?vid=f3eb5318-be75-4013-92e8-342d3c54666e","ios":"levelo://app?vid=f3eb5318-be75-4013-92e8-342d3c54666e"},"vehicle_type_id":"4","last_reported":1727657213,"current_range_meters":28400,"station_id":"ce4bhq12rcd13ifvqhhg","pricing_plan_id":"cebpf4jnsgd1na2vs0mg"},{"bike_id":"275b0a25-1a9f-498c-9202-be550b06c3de","system_id":"levelo_inurba_marseille","lat":43.32294,"lon":5.38276,"is_reserved":false,"is_disabled":false,"rental_uris":{"android":"levelo://app?vid=275b0a25-1a9f-498c-9202-be550b06c3de","ios":"levelo://app?vid=275b0a25-1a9f-498c-9202-be550b06c3de"},"vehicle_type_id":"4","last_reported":1727657213,"current_range_meters":38800,"station_id":"ce4bhr12rcd13ifvqhqg","pricing_plan_id":"cebpf4jnsgd1na2vs0mg"},{"bike_id":"cace9a80-3018-4935-8380-842e8d7b8e89","system_id":"levelo_inurba_marseille","lat":43.28697,"lon":5.38681,"is_reserved":false,"is_disabled":false,"rental_uris":{"android":"levelo://app?vid=cace9a80-3018-4935-8380-842e8d7b8e89","ios":"levelo://app?vid=cace9a80-3018-4935-8380-842e8d7b8e89"},"vehicle_type_id":"4","last_reported":1727657213,"current_range_meters":38800,"station_id":"ce4bh492rcd13ifvqdug","pricing_plan_id":"cebpf4jnsgd1na2vs0mg"},{"bike_id":"08db7da2-8c02-411c-836a-43ba51a9ae6f","system_id":"levelo_inurba_marseille","lat":43.28442,"lon":5.39191,"is_reserved":false,"is_disabled":false,"rental_uris":{"android":"levelo://app?vid=08db7da2-8c02-411c-836a-43ba51a9ae6f","ios":"levelo://app?vid=08db7da2-8c02-411c-836a-43ba51a9ae6f"},"vehicle_type_id":"4","last_reported":1727657213,"current_range_meters":35200,"station_id":"ce4bhoh2rcd13ifvqh5g","pricing_plan_id":"cebpf4jnsgd1na2vs0mg"},{"bike_id":"d5298c24-3767-42cc-a3dc-622191cc7182","system_id":"levelo_inurba_marseille","lat":43.23194,"lon":5.39978,"is_reserved":false,"is_disabled":false,"rental_uris":{"android":"levelo://app?vid=d5298c24-3767-42cc-a3dc-622191cc7182","ios":"levelo://app?vid=d5298c24-3767-42cc-a3dc-622191cc7182"},"vehicle_type_id":"4","last_reported":1727657213,"current_range_meters":30400,"station_id":"ce4bhn12rcd13ifvqgqg","pricing_plan_id":"cebpf4jnsgd1na2vs0mg"},{"bike_id":"cdce5ed8-1437-41e2-b4e5-ad6337242012","system_id":"levelo_inurba_marseille","lat":43.31121,"lon":5.37765,"is_reserved":false,"is_disabled":false,"rental_uris":{"android":"levelo://app?vid=cdce5ed8-1437-41e2-b4e5-ad6337242012","ios":"levelo://app?vid=cdce5ed8-1437-41e2-b4e5-ad6337242012"},"vehicle_type_id":"4","last_reported":1727657213,"current_range_meters":38800,"station_id":"ce4bgt92rcd13ifvqcg0","pricing_plan_id":"cebpf4jnsgd1na2vs0mg"},{"bike_id":"0c3f0369-7cdf-4cba-a0db-09435ab8c8da","system_id":"levelo_inurba_marseille","lat":43.23195,"lon":5.39988,"is_reserved":false,"is_disabled":false,"rental_uris":{"android":"levelo://app?vid=0c3f0369-7cdf-4cba-a0db-09435ab8c8da","ios":"levelo://app?vid=0c3f0369-7cdf-4cba-a0db-09435ab8c8da"},"vehicle_type_id":"4","last_reported":1727657213,"current_range_meters":24000,"station_id":"ce4bhn12rcd13ifvqgqg","pricing_plan_id":"cebpf4jnsgd1na2vs0mg"},{"bike_id":"e058369b-45c2-4d7c-87fc-2ba5e979e52d","system_id":"levelo_inurba_marseille","lat":43.26577,"lon":5.39052,"is_reserved":false,"is_disabled":false,"rental_uris":{"android":"levelo://app?vid=e058369b-45c2-4d7c-87fc-2ba5e979e52d","ios":"levelo://app?vid=e058369b-45c2-4d7c-87fc-2ba5e979e52d"},"vehicle_type_id":"4","last_reported":1727657213,"current_range_meters":12400,"station_id":"ce4bhe12rcd13ifvqf30","pricing_plan_id":"cebpf4jnsgd1na2vs0mg"},{"bike_id":"9884cc31-b476-40cd-8167-3eb122f2d5db","system_id":"levelo_inurba_marseille","lat":43.28408,"lon":5.37518,"is_reserved":false,"is_disabled":false,"rental_uris":{"android":"levelo://app?vid=9884cc31-b476-40cd-8167-3eb122f2d5db","ios":"levelo://app?vid=9884cc31-b476-40cd-8167-3eb122f2d5db"},"vehicle_type_id":"4","last_reported":1727657213,"current_range_meters":32000,"station_id":"ce4bh412rcd13ifvqds0","pricing_plan_id":"cebpf4jnsgd1na2vs0mg"},{"bike_id":"23ef1aa6-2589-4a02-a24a-f5f3352e03cf","system_id":"levelo_inurba_marseille","lat":43.29269,"lon":5.40113,"is_reserved":false,"is_disabled":false,"rental_uris":{"android":"levelo://app?vid=23ef1aa6-2589-4a02-a24a-f5f3352e03cf","ios":"levelo://app?vid=23ef1aa6-2589-4a02-a24a-f5f3352e03cf"},"vehicle_type_id":"4","last_reported":1727657213,"current_range_meters":36000,"station_id":"ce4bh312rcd13ifvqdk0","pricing_plan_id":"cebpf4jnsgd1na2vs0mg"},{"bike_id":"4db49256-52da-4b24-bc91-56eb058f00e1","system_id":"levelo_inurba_marseille","lat":43.25714,"lon":5.4112,"is_reserved":false,"is_disabled":false,"rental_uris":{"android":"levelo://app?vid=4db49256-52da-4b24-bc91-56eb058f00e1","ios":"levelo://app?vid=4db49256-52da-4b24-bc91-56eb058f00e1"},"vehicle_type_id":"4","last_reported":1727657213,"current_range_meters":38800,"station_id":"ce4bhkp2rcd13ifvqgd0","pricing_plan_id":"cebpf4jnsgd1na2vs0mg"},{"bike_id":"b6f8e7c8-f7dd-4596-8625-290394cf0839","system_id":"levelo_inurba_marseille","lat":43.25082,"lon":5.39513,"is_reserved":false,"is_disabled":false,"rental_uris":{"android":"levelo://app?vid=b6f8e7c8-f7dd-4596-8625-290394cf0839","ios":"levelo://app?vid=b6f8e7c8-f7dd-4596-8625-290394cf0839"},"vehicle_type_id":"4","last_reported":1727657213,"current_range_meters":39200,"station_id":"ce4bhm12rcd13ifvqgkg","pricing_plan_id":"cebpf4jnsgd1na2vs0mg"},