{"last_updated":1747472995,"ttl":60,"version":"2.2","data":{"bikes":[{"bike_id":"c0b9fd4f-e181-46ce-b0bf-f5119973334f","system_id":"levelo_inurba_marseille","lat":43.33771,"lon":5.37424,"is_reserved":false,"is_disabled":false,"rental_uris":{"android":"levelo://app?vid=c0b9fd4f-e181-46ce-b0bf-f5119973334f","ios":"levelo://app?vid=c0b9fd4f-e181-46ce-b0bf-f5119973334f"},"vehicle_type_id":"4","last_reported":1747472995,"current_range_meters":6400,"station_id":"","pricing_plan_id":"cebpf4jnsgd1na2vs0mg"},{"bike_id":"fc2577e7-1497-425b-9d4f-ab8d7dc843c6","system_id":"levelo_inurba_marseille","lat":43.33771,"lon":5.37485,"is_reserved":false,"is_disabled":true,"rental_uris":{"android":"levelo://app?vid=fc2577e7-1497-425b-9d4f-ab8d7dc843c6","ios":"levelo://app?vid=fc2577e7-1497-425b-9d4f-ab8d7dc843c6"},"vehicle_type_id":"4","last_reported":1747472995,"current_range_meters":0,"station_id":"","pricing_plan_id":"cebpf4jnsgd1na2vs0mg"},{"bike_id":"0322f8c0-478a-4036-9bba-8fce70858e9a","system_id":"levelo_inurba_marseille","lat":43.2822,"lon":5.34904,"is_reserved":false,"is_disabled":true,"rental_uris":{"android":"levelo://app?vid=0322f8c0-478a-4036-9bba-8fce70858e9a","ios":"levelo://app?vid=0322f8c0-478a-4036-9bba-8fce70858e9a"},"vehicle_type_id":"4","last_reported":1747472995,"current_range_meters":0,"station_id":"","pricing_plan_id":"cebpf4jnsgd1na2vs0mg"},{"bike_id":"ce4325af-2448-4172-bdec-81d552ee0b62","system_id":"levelo_inurba_marseille","lat":43.26154,"lon":5.42024,"is_reserved":false,"is_disabled":true,"rental_uris":{"android":"levelo://app?vid=ce4325af-2448-4172-bdec-81d552ee0b62","ios":"levelo://app?vid=ce4325af-2448-4172-bdec-81d552ee0b62"},"vehicle_type_id":"4","last_reported":1747472995,"current_range_meters":0,"station_id":"","pricing_plan_id":"cebpf4jnsgd1na2vs0mg"},{"bike_id":"23939faf-d206-4b93-ade4-199417584041","system_id":"levelo_inurba_marseille","lat":43.24949,"lon":5.375364,"is_reserved":false,"is_disabled":true,"rental_uris":{"android":"levelo://app?vid=23939faf-d206-4b93-ade4-199417584041","ios":"levelo://app?vid=23939faf-d206-4b93-ade4-199417584041"},"vehicle_type_id":"4","last_reported":1747472995,"current_range_meters":0,"station_id":"","pricing_plan_id":"cebpf4jnsgd1na2vs0mg"},{"bike_id":"792567c6-0442-4011-aff0-9c05e25deb48","system_id":"levelo_inurba_marseille","lat":43.337444,"lon":5.374475,"is_reserved":false,"is_disabled":true,"rental_uris":{"android":"levelo://app?vid=792567c6-0442-4011-aff0-9c05e25deb48","ios":"levelo://app?vid=792567c6-0442-4011-aff0-9c05e25deb48"},"vehicle_type_id":"4","last_reported":1747472995,"current_range_meters":0,"station_id":"","pricing_plan_id":"cebpf4jnsgd1na2vs0mg"},{"bike_id":"bb0baa39-1e01-43e0-a77c-5ba8d631e8a2","system_id":"levelo_inurba_marseille","lat":43.27246,"lon":5.38594,"is_reserved":false,"is_disabled":true,"rental_uris":{"android":"levelo://app?vid=bb0baa39-1e01-43e0-a77c-5ba8d631e8a2","ios":"levelo://app?vid=bb0baa39-1e01-43e0-a77c-5ba8d631e8a2"},"vehicle_type_id":"4","last_reported":1747472995,"current_range_meters":0,"station_id":"","pricing_plan_id":"cebpf4jnsgd1na2vs0mg"},{"bike_id":"0f675544-f8c4-47f6-8715-748185f670df","system_id":"levelo_inurba_marseille","lat":43.30125,"lon":5.39872,"is_reserved":false,"is_disabled":true,"rental_uris":{"android":"levelo://app?vid=0f675544-f8c4-47f6-8715-748185f670df","ios":"levelo://app?vid=0f675544-f8c4-47f6-8715-748185f670df"},"vehicle_type_id":"4","last_reported":1747472995,"current_range_meters":0,"station_id":"ce4bh0h2rcd13ifvqd40","pricing_plan_id":"cebpf4jnsgd1na2vs0mg"},{"bike_id":"237e6cf1-b2c5-4bc0-b927-d3f06e5decdb","system_id":"levelo_inurba_marseille","lat":43.25111,"lon":5.40327,"is_reserved":false,"is_disabled":true,"rental_uris":{"android":"levelo://app?vid=237e6cf1-b2c5-4bc0-b927-d3f06e5decdb","ios":"levelo://app?vid=237e6cf1-b2c5-4bc0-b927-d3f06e5decdb"},"vehicle_type_id":"4","last_reported":1747472995,"current_range_meters":0,"station_id":"ce4bhlh2rcd13ifvqgig","pricing_plan_id":"cebpf4jnsgd1na2vs0mg"},{"bike_id":"e1d6e113-4fcf-4512-9f3f-caf4299f0e22","system_id":"levelo_inurba_marseille","lat":43.3059,"lon":5.39359,"is_reserved":false,"is_disabled":true,"rental_uris":{"android":"levelo://app?vid=e1d6e113-4fcf-4512-9f3f-caf4299f0e22","ios":"levelo://app?vid=e1d6e113-4fcf-4512-9f3f-caf4299f0e22"},"vehicle_type_id":"4","last_reported":1747472995,"current_range_meters":400,"station_id":"ce4bh0p2rcd13ifvqd80","pricing_plan_id":"cebpf4jnsgd1na2vs0mg"},{"bike_id":"80d0d83f-909d-4568-b4e7-8a3ef4eed2de","system_id":"levelo_inurba_marseille","lat":43.25387,"lon":5.41906,"is_reserved":false,"is_disabled":true,"rental_uris":{"android":"levelo://app?vid=80d0d83f-909d-4568-b4e7-8a3ef4eed2de","ios":"levelo://app?vid=80d0d83f-909d-4568-b4e7-8a3ef4eed2de"},"vehicle_type_id":"4","last_reported":1747472995,"current_range_meters":800,"station_id":"","pricing_plan_id":"cebpf4jnsgd1na2vs0mg"},{"bike_id":"14548008-668b-4d54-8a78-45b827ace5cb","system_id":"levelo_inurba_marseille","lat":43.29436,"lon":5.38592,"is_reserved":false,"is_disabled":true,"rental_uris":{"android":"levelo://app?vid=14548008-668b-4d54-8a78-45b827ace5cb","ios":"levelo://app?vid=14548008-668b-4d54-8a78-45b827ace5cb"},"vehicle_type_id":"4","last_reported":1747472995,"current_range_meters":800,"station_id":"ce4bh2h2rcd13ifvqdh0","pricing_plan_id":"cebpf4jnsgd1na2vs0mg"},{"bike_id":"6a97f1ff-c59d-459e-a0e2-afcfca4524a9","system_id":"levelo_inurba_marseille","lat":43.28618,"lon":5.35103,"is_reserved":false,"is_disabled":true,"rental_uris":{"android":"levelo://app?vid=6a97f1ff-c59d-459e-a0e2-afcfca4524a9","ios":"levelo://app?vid=6a97f1ff-c59d-459e-a0e2-afcfca4524a9"},"vehicle_type_id":"4","last_reported":1747472995,"current_range_meters":800,"station_id":"ce4bhch2rcd13ifvqeug","pricing_plan_id":"cebpf4jnsgd1na2vs0mg"},{"bike_id":"e9db12b8-433e-4feb-ba80-53055cd3235c","system_id":"levelo_inurba_marseille","lat":43.260615,"lon":5.393966,"is_reserved":false,"is_disabled":true,"rental_uris":{"android":"levelo://app?vid=e9db12b8-433e-4feb-ba80-53055cd3235c","ios":"levelo://app?vid=e9db12b8-433e-4feb-ba80-53055cd3235c"},"vehicle_type_id":"4","last_reported":1747472995,"current_range_meters":1200,"station_id":"ce4bhh92rcd13ifvqfj0","pricing_plan_id":"cebpf4jnsgd1na2vs0mg"},{"bike_id":"a6def583-e81f-4a5c-9207-5ec517882cb4","system_id":"levelo_inurba_marseille","lat":43.28159,"lon":5.42643,"is_reserved":false,"is_disabled":true,"rental_uris":{"android":"levelo://app?vid=a6def583-e81f-4a5c-9207-5ec517882cb4","ios":"levelo://app?vid=a6def583-e81f-4a5c-9207-5ec517882cb4"},"vehicle_type_id":"4","last_reported":1747472995,"current_range_meters":1200,"station_id":"ce4bhnh2rcd13ifvqgug","pricing_plan_id":"cebpf4jnsgd1na2vs0mg"},{"bike_id":"ba5ab320-31c5-4422-859e-649e85bc69dc","system_id":"levelo_inurba_marseille","lat":43.30157,"lon":5.38097,"is_reserved":false,"is_disabled":true,"rental_uris":{"android":"levelo://app?vid=ba5ab320-31c5-4422-859e-649e85bc69dc","ios":"levelo://app?vid=ba5ab320-31c5-4422-859e-649e85bc69dc"},"vehicle_type_id":"4","last_reported":1747472995,"current_range_meters":2000,"station_id":"ce4bgjp2rcd13ifvqbh0","pricing_plan_id":"cebpf4jnsgd1na2vs0mg"},{"bike_id":"e1b7a976-e597-4839-8588-dea52a80bad0","system_id":"levelo_inurba_marseille","lat":43.29038,"lon":5.39975,"is_reserved":false,"is_disabled":true,"rental_uris":{"android":"levelo://app?vid=e1b7a976-e597-4839-8588-dea52a80bad0","ios":"levelo://app?vid=e1b7a976-e597-4839-8588-dea52a80bad0"},"vehicle_type_id":"4","last_reported":1747472995,"current_range_meters":2000,"station_id":"ce4bh392rcd13ifvqdm0","pricing_plan_id":"cebpf4jnsgd1na2vs0mg"},{"bike_id":"6e54b1e5-5329-4d32-902a-730fdc1660b5","system_id":"levelo_inurba_marseille","lat":43.257204,"lon":5.41113,"is_reserved":false,"is_disabled":false,"rental_uris":{"android":"levelo://app?vid=6e54b1e5-5329-4d32-902a-730fdc1660b5","ios":"levelo://app?vid=6e54b1e5-5329-4d32-902a-730fdc1660b5"},"vehicle_type_id":"4","last_reported":1747472995,"current_range_meters":2800,"station_id":"ce4bhkp2rcd13ifvqgd0","pricing_plan_id":"cebpf4jnsgd1na2vs0mg"},{"bike_id":"ef79e362-92b1-4a03-a294-4f0fb964dbc4","system_id":"levelo_inurba_marseille","lat":43.286154,"lon":5.350956,"is_reserved":false,"is_disabled":false,"rental_uris":{"android":"levelo://app?vid=ef79e362-92b1-4a03-a294-4f0fb964dbc4","ios":"levelo://app?vid=ef79e362-92b1-4a03-a294-4f0fb964dbc4"},"vehicle_type_id":"4","last_reported":1747472995,"current_range_meters":3200,"station_id":"ce4bhch2rcd13ifvqeug","pricing_plan_id":"cebpf4jnsgd1na2vs0mg"},{"bike_id":"e554be52-0069-4613-8c91-4b173bd328e2","system_id":"levelo_inurba_marseille","lat":43.26208,"lon":5.37444,"is_reserved":false,"is_disabled":false,"rental_uris":{"android":"levelo://app?vid=e554be52-0069-4613-8c91-4b173bd328e2","ios":"levelo://app?vid=e554be52-0069-4613-8c91-4b173bd328e2"},"vehicle_type_id":"4","last_reported":1747472995,"current_range_meters":3200,"station_id":"ce4bhgp2rcd13ifvqfc0","pricing_plan_id":"cebpf4jnsgd1na2vs0mg"},{"bike_id":"c395aea5-4c2d-41cc-b839-9a9c86f56d36","system_id":"levelo_inurba_marseille","lat":43.231826,"lon":5.399985,"is_reserved":false,"is_disabled":false,"rental_uris":{"android":"levelo://app?vid=c395aea5-4c2d-41cc-b839-9a9c86f56d36","ios":"levelo://app?vid=c395aea5-4c2d-41cc-b839-9a9c86f56d36"},"vehicle_type_id":"4","last_reported":1747472995,"current_range_meters":3200,"station_id":"ce4bhn12rcd13ifvqgqg","pricing_plan_id":"cebpf4jnsgd1na2vs0mg"},{"bike_id":"ec2cf44a-d2ce-40ed-aaeb-ddb24e07b8b0","system_id":"levelo_inurba_marseille","lat":43.231886,"lon":5.399796,"is_reserved":false,"is_disabled":false,"rental_uris":{"android":"levelo://app?vid=ec2cf44a-d2ce-40ed-aaeb-ddb24e07b8b0","ios":"levelo://app?vid=ec2cf44a-d2ce-40ed-aaeb-ddb24e07b8b0"},"vehicle_type_id":"4","last_reported":1747472995,"current_range_meters":3600,"station_id":"ce4bhn12rcd13ifvqgqg","pricing_plan_id":"cebpf4jnsgd1na2vs0mg"},{"bike_id":"0ccc1627-4fb7-44bd-9d86-c7d570997830","system_id":"levelo_inurba_marseille","lat":43.27812,"lon":5.40718,"is_reserved":false,"is_disabled":false,"rental_uris":{"android":"levelo://app?vid=0ccc1627-4fb7-44bd-9d86-c7d570997830","ios":"levelo://app?vid=0ccc1627-4fb7-44bd-9d86-c7d570997830"},"vehicle_type_id":"4","last_reported":1747472995,"current_range_meters":3600,"station_id":"ce4bhnh2rcd13ifvqgtg","pricing_plan_id":"cebpf4jnsgd1na2vs0mg"},{"bike_id":"d93d0c6d-be90-4a1f-bc81-4d02d1453c4b","system_id":"levelo_inurba_marseille","lat":43.22498,"lon":5.34788,"is_reserved":false,"is_disabled":false,"rental_uris":{"android":"levelo://app?vid=d93d0c6d-be90-4a1f-bc81-4d02d1453c4b","ios":"levelo://app?vid=d93d0c6d-be90-4a1f-bc81-4d02d1453c4b"},"vehicle_type_id":"4","last_reported":1747472995,"current_range_meters":3600,"station_id":"st_cvj5dfep6f1abm77gieg","pricing_plan_id":"cebpf4jnsgd1na2vs0mg"},{"bike_id":"9b4153e6-a0b2-4ae8-91a3-e3f79ebbc8c6","system_id":"levelo_inurba_marseille","lat":43.29874,"lon":5.39738,"is_reserved":false,"is_disabled":false,"rental_uris":{"android":"levelo://app?vid=9b4153e6-a0b2-4ae8-91a3-e3f79ebbc8c6","ios":"levelo://app?vid=9b4153e6-a0b2-4ae8-91a3-e3f79ebbc8c6"},"vehicle_type_id":"4","last_reported":1747472995,"current_range_meters":4000,"station_id":"ce4bh0h2rcd13ifvqd50","pricing_plan_id":"cebpf4jnsgd1na2vs0mg"},{"bike_id":"360640c1-bed8-49a0-96d7-f19089c8c22d","system_id":"levelo_inurba_marseille","lat":43.28464,"lon":5.35886,"is_reserved":false,"is_disabled":false,"rental_uris":{"android":"levelo://app?vid=360640c1-bed8-49a0-96d7-f19089c8c22d","ios":"levelo://app?vid=360640c1-bed8-49a0-96d7-f19089c8c22d"},"vehicle_type_id":"4","last_reported":1747472995,"current_range_meters":4000,"station_id":"ce4bhah2rcd13ifvqei0","pricing_plan_id":"cebpf4jnsgd1na2vs0mg"},{"bike_id":"6db26e33-3495-40b3-b67c-1eb4ec98e4e4","system_id":"levelo_inurba_marseille","lat":43.28415,"lon":5.35002,"is_reserved":false,"is_disabled":false,"rental_uris":{"android":"levelo://app?vid=6db26e33-3495-40b3-b67c-1eb4ec98e4e4","ios":"levelo://app?vid=6db26e33-3495-40b3-b67c-1eb4ec98e4e4"},"vehicle_type_id":"4","last_reported":1747472995,"current_range_meters":4000,"station_id":"ce4bhbh2rcd13ifvqepg","pricing_plan_id":"cebpf4jnsgd1na2vs0mg"},{"bike_id":"5999a061-ecb1-489d-8671-970f6931cd67","system_id":"levelo_inurba_marseille","lat":43.29367,"lon":5.37835,"is_reserved":false,"is_disabled":false,"rental_uris":{"android":"levelo://app?vid=5999a061-ecb1-489d-8671-970f6931cd67","ios":"levelo://app?vid=5999a061-ecb1-489d-8671-970f6931cd67"},"vehicle_type_id":"4","last_reported":1747472995,"current_range_meters":4400,"station_id":"ce4bgjh2rcd13ifvqbf0","pricing_plan_id":"cebpf4jnsgd1na2vs0mg"},{"bike_id":"7d59e848-f826-4f99-b42b-3965a02bf182","system_id":"levelo_inurba_marseille","lat":43.31341,"lon":5.36711,"is_reserved":false,"is_disabled":false,"rental_uris":{"android":"levelo://app?vid=7d59e848-f826-4f99-b42b-3965a02bf182","ios":"levelo://app?vid=7d59e848-f826-4f99-b42b-3965a02bf182"},"vehicle_type_id":"4","last_reported":1747472995,"current_range_meters":4400,"station_id":"ce4bgr92rcd13ifvqc6g","pricing_plan_id":"cebpf4jnsgd1na2vs0mg"},{"bike_id":"73c20352-7595-4725-bab6-9c956401bf5d","system_id":"levelo_inurba_marseille","lat":43.28847,"lon":5.39341,"is_reserved":false,"is_disabled":false,"rental_uris":{"android":"levelo://app?vid=73c20352-7595-4725-bab6-9c956401bf5d","ios":"levelo://app?vid=73c20352-7595-4725-bab6-9c956401bf5d"},"vehicle_type_id":"4","last_reported":1747472995,"current_range_meters":4400,"station_id":"ce4bh2p2rcd13ifvqdi0","pricing_plan_id":"cebpf4jnsgd1na2vs0mg"},{"bike_id":"8727685a-c6f1-4b13-aeba-346688a8de9d","system_id":"levelo_inurba_marseille","lat":43.27558,"lon":5.3841,"is_reserved":false,"is_disabled":false,"rental_uris":{"android":"levelo://app?vid=8727685a-c6f1-4b13-aeba-346688a8de9d","ios":"levelo://app?vid=8727685a-c6f1-4b13-aeba-346688a8de9d"},"vehicle_type_id":"4","last_reported":1747472995,"current_range_meters":4400,"station_id":"ce4bhh92rcd13ifvqfi0","pricing_plan_id":"cebpf4jnsgd1na2vs0mg"},{"bike_id":"dbd93b19-c56c-4737-802b-46f46f18c33c","system_id":"levelo_inurba_marseille","lat":43.24393,"lon":5.37069,"is_reserved":false,"is_disabled":false,"rental_uris":{"android":"levelo://app?vid=dbd93b19-c56c-4737-802b-46f46f18c33c","ios":"levelo://app?vid=dbd93b19-c56c-4737-802b-46f46f18c33c"},"vehicle_type_id":"4","last_reported":1747472995,"current_range_meters":4400,"station_id":"ce4bhhh2rcd13ifvqfk0","pricing_plan_id":"cebpf4jnsgd1na2vs0mg"},{"bike_id":"06e20113-a5f1-4fe5-b188-f647ff408cc7","system_id":"levelo_inurba_marseille","lat":43.277023,"lon":5.419667,"is_reserved":false,"is_disabled":false,"rental_uris":{"android":"levelo://app?vid=06e20113-a5f1-4fe5-b188-f647ff408cc7","ios":"levelo://app?vid=06e20113-a5f1-4fe5-b188-f647ff408cc7"},"vehicle_type_id":"4","last_reported":1747472995,"current_range_meters":5600,"station_id":"","pricing_plan_id":"cebpf4jnsgd1na2vs0mg"},{"bike_id":"877d4f21-d8a2-44c5-8fe1-659ed90d5d01","system_id":"levelo_inurba_marseille","lat":43.24811,"lon":5.37466,"is_reserved":false,"is_disabled":false,"rental_uris":{"android":"levelo://app?vid=877d4f21-d8a2-44c5-8fe1-659ed90d5d01","ios":"levelo://app?vid=877d4f21-d8a2-44c5-8fe1-659ed90d5d01"},"vehicle_type_id":"4","last_reported":1747472995,"current_range_meters":5600,"station_id":"ce4bhgh2rcd13ifvqfb0","pricing_plan_id":"cebpf4jnsgd1na2vs0mg"},{"bike_id":"f60743d0-8cbf-4386-87d9-1cc250dcb7e9","system_id":"levelo_inurba_marseille","lat":43.31991,"lon":5.38145,"is_reserved":false,"is_disabled":false,"rental_uris":{"android":"levelo://app?vid=f60743d0-8cbf-4386-87d9-1cc250dcb7e9","ios":"levelo://app?vid=f60743d0-8cbf-4386-87d9-1cc250dcb7e9"},"vehicle_type_id":"4","last_reported":1747472995,"current_range_meters":5600,"station_id":"ce4bhr12rcd13ifvqhpg","pricing_plan_id":"cebpf4jnsgd1na2vs0mg"},{"bike_id":"d06a81f7-6bbe-4687-bfbe-932949dc466c","system_id":"levelo_inurba_marseille","lat":43.261347,"lon":5.387383,"is_reserved":false,"is_disabled":false,"rental_uris":{"android":"levelo://app?vid=d06a81f7-6bbe-4687-bfbe-932949dc466c","ios":"levelo://app?vid=d06a81f7-6bbe-4687-bfbe-932949dc466c"},"vehicle_type_id":"4","last_reported":1747472995,"current_range_meters":6000,"station_id":"","pricing_plan_id":"cebpf4jnsgd1na2vs0mg"},{"bike_id":"e79d843c-7757-421c-ad78-dd922102352f","system_id":"levelo_inurba_marseille","lat":43.3089,"lon":5.37197,"is_reserved":false,"is_disabled":false,"rental_uris":{"android":"levelo://app?vid=e79d843c-7757-421c-ad78-dd922102352f","ios":"levelo://app?vid=e79d843c-7757-421c-ad78-dd922102352f"},"vehicle_type_id":"4","last_reported":1747472995,"current_range_meters":6000,"station_id":"ce4bguh2rcd13ifvqckg","pricing_plan_id":"cebpf4jnsgd1na2vs0mg"},{"bike_id":"bd77086c-58a9-40da-9ab8-9c068de46d23","system_id":"levelo_inurba_marseille","lat":43.31167,"lon":5.38729,"is_reserved":false,"is_disabled":false,"rental_uris":{"android":"levelo://app?vid=bd77086c-58a9-40da-9ab8-9c068de46d23","ios":"levelo://app?vid=bd77086c-58a9-40da-9ab8-9c068de46d23"},"vehicle_type_id":"4","last_reported":1747472995,"current_range_meters":6000,"station_id":"ce4bgv12rcd13ifvqcp0","pricing_plan_id":"cebpf4jnsgd1na2vs0mg"},{"bike_id":"df7aacd4-c458-4cbf-9f0d-618ad9b1c168","system_id":"levelo_inurba_marseille","lat":43.32485,"lon":5.36574,"is_reserved":false,"is_disabled":false,"rental_uris":{"android":"levelo://app?vid=df7aacd4-c458-4cbf-9f0d-618ad9b1c168","ios":"levelo://app?vid=df7aacd4-c458-4cbf-9f0d-618ad9b1c168"},"vehicle_type_id":"4","last_reported":1747472995,"current_range_meters":6000,"station_id":"ce4bhs12rcd13ifvqhvg","pricing_plan_id":"cebpf4jnsgd1na2vs0mg"},{"bike_id":"662c704c-262b-45ad-934a-11f31825a2ce","system_id":"levelo_inurba_marseille","lat":43.2937,"lon":5.37838,"is_reserved":false,"is_disabled":false,"rental_uris":{"android":"levelo://app?vid=662c704c-262b-45ad-934a-11f31825a2ce","ios":"levelo://app?vid=662c704c-262b-45ad-934a-11f31825a2ce"},"vehicle_type_id":"4","last_reported":1747472995,"current_range_meters":6400,"station_id":"","pricing_plan_id":"cebpf4jnsgd1na2vs0mg"},{"bike_id":"02288632-79f4-483c-92bd-91cd61a950da","system_id":"levelo_inurba_marseille","lat":43.296417,"lon":5.36215,"is_reserved":false,"is_disabled":false,"rental_uris":{"android":"levelo://app?vid=02288632-79f4-483c-92bd-91cd61a950da","ios":"levelo://app?vid=02288632-79f4-483c-92bd-91cd61a950da"},"vehicle_type_id":"4","last_reported":1747472995,"current_range_meters":6800,"station_id":"","pricing_plan_id":"cebpf4jnsgd1na2vs0mg"},{"bike_id":"1b515eb5-f42d-4825-abba-489a6df3bcaa","system_id":"levelo_inurba_marseille","lat":43.27937,"lon":5.38708,"is_reserved":false,"is_disabled":false,"rental_uris":{"android":"levelo://app?vid=1b515eb5-f42d-4825-abba-489a6df3bcaa","ios":"levelo://app?vid=1b515eb5-f42d-4825-abba-489a6df3bcaa"},"vehicle_type_id":"4","last_reported":1747472995,"current_range_meters":6800,"station_id":"","pricing_plan_id":"cebpf4jnsgd1na2vs0mg"},{"bike_id":"dcd59faa-6dcd-414d-bf76-f0c0327eadc6","system_id":"levelo_inurba_marseille","lat":43.31496,"lon":5.37307,"is_reserved":false,"is_disabled":false,"rental_uris":{"android":"levelo://app?vid=dcd59faa-6dcd-414d-bf76-f0c0327eadc6","ios":"levelo://app?vid=dcd59faa-6dcd-414d-bf76-f0c0327eadc6"},"vehicle_type_id":"4","last_reported":1747472995,"current_range_meters":6800,"station_id":"ce4bgt12rcd13ifvqcd0","pricing_plan_id":"cebpf4jnsgd1na2vs0mg"},{"bike_id":"5472ecea-0624-4fd8-a912-e7b488153f81","system_id":"levelo_inurba_marseille","lat":43.243888,"lon":5.370594,"is_reserved":false,"is_disabled":false,"rental_uris":{"android":"levelo://app?vid=5472ecea-0624-4fd8-a912-e7b488153f81","ios":"levelo://app?vid=5472ecea-0624-4fd8-a912-e7b488153f81"},"vehicle_type_id":"4","last_reported":1747472995,"current_range_meters":6800,"station_id":"ce4bhhh2rcd13ifvqfk0","pricing_plan_id":"cebpf4jnsgd1na2vs0mg"},{"bike_id":"ef97def4-ba07-4b72-b48a-a2094557d760","system_id":"levelo_inurba_marseille","lat":43.24072,"lon":5.3776,"is_reserved":false,"is_disabled":false,"rental_uris":{"android":"levelo://app?vid=ef97def4-ba07-4b72-b48a-a2094557d760","ios":"levelo://app?vid=ef97def4-ba07-4b72-b48a-a2094557d760"},"vehicle_type_id":"4","last_reported":1747472995,"current_range_meters":6800,"station_id":"ce4bhnp2rcd13ifvqgvg","pricing_plan_id":"cebpf4jnsgd1na2vs0mg"},{"bike_id":"4dbafbac-ebcf-4680-832f-76148f80f07b","system_id":"levelo_inurba_marseille","lat":43.31894,"lon":5.40723,"is_reserved":false,"is_disabled":false,"rental_uris":{"android":"levelo://app?vid=4dbafbac-ebcf-4680-832f-76148f80f07b","ios":"levelo://app?vid=4dbafbac-ebcf-4680-832f-76148f80f07b"},"vehicle_type_id":"4","last_reported":1747472995,"current_range_meters":6800,"station_id":"ce4bhq12rcd13ifvqhig","pricing_plan_id":"cebpf4jnsgd1na2vs0mg"},{"bike_id":"6d36ce03-b344-4b5e-9465-9800cf819cb5","system_id":"levelo_inurba_marseille","lat":43.211953,"lon":5.350763,"is_reserved":false,"is_disabled":false,"rental_uris":{"android":"levelo://app?vid=6d36ce03-b344-4b5e-9465-9800cf819cb5","ios":"levelo://app?vid=6d36ce03-b344-4b5e-9465-9800cf819cb5"},"vehicle_type_id":"4","last_reported":1747472995,"current_range_meters":6800,"station_id":"st_cvj6sg6p6f1abm77japg","pricing_plan_id":"cebpf4jnsgd1na2vs0mg"},{"bike_id":"fe1cd1a7-4f1a-436a-88ed-01a83175e552","system_id":"levelo_inurba_marseille","lat":43.28978,"lon":5.37831,"is_reserved":false,"is_disabled":false,"rental_uris":{"android":"levelo://app?vid=fe1cd1a7-4f1a-436a-88ed-01a83175e552","ios":"levelo://app?vid=fe1cd1a7-4f1a-436a-88ed-01a83175e552"},"vehicle_type_id":"4","last_reported":1747472995,"current_range_meters":7200,"station_id":"","pricing_plan_id":"cebpf4jnsgd1na2vs0mg"},{"bike_id":"57827619-b108-42cf-bdfe-ff3b693e7036","system_id":"levelo_inurba_marseille","lat":43.28854,"lon":5.3585,"is_reserved":false,"is_disabled":false,"rental_uris":{"android":"levelo://app?vid=57827619-b108-42cf-bdfe-ff3b693e7036","ios":"levelo://app?vid=57827619-b108-42cf-bdfe-ff3b693e7036"},"vehicle_type_id":"4","last_reported":1747472995,"current_range_meters":7200,"station_id":"ce4bhb12rcd13ifvqem0","pricing_plan_id":"cebpf4jnsgd1na2vs0mg"},{"bike_id":"4b3ac578-2d7f-469e-8e3d-9a46be572ffc","system_id":"levelo_inurba_marseille","lat":43.26583,"lon":5.39038,"is_reserved":false,"is_disabled":false,"rental_uris":{"android":"levelo://app?vid=4b3ac578-2d7f-469e-8e3d-9a46be572ffc","ios":"levelo://app?vid=4b3ac578-2d7f-469e-8e3d-9a46be572ffc"},"vehicle_type_id":"4","last_reported":1747472995,"current_range_meters":7200,"station_id":"ce4bhe12rcd13ifvqf30","pricing_plan_id":"cebpf4jnsgd1na2vs0mg"},{"bike_id":"5b61d110-3dc1-4b74-bd2e-4051b3fcddcc","system_id":"levelo_inurba_marseille","lat":43.25107,"lon":5.4032,"is_reserved":false,"is_disabled":false,"rental_uris":{"android":"levelo://app?vid=5b61d110-3dc1-4b74-bd2e-4051b3fcddcc","ios":"levelo://app?vid=5b61d110-3dc1-4b74-bd2e-4051b3fcddcc"},"vehicle_type_id":"4","last_reported":1747472995,"current_range_meters":7200,"station_id":"ce4bhlh2rcd13ifvqgig","pricing_plan_id":"cebpf4jnsgd1na2vs0mg"},{"bike_id":"f0f7ca87-7ffb-46bd-ab65-ff44d1578193","system_id":"levelo_inurba_marseille","lat":43.32359,"lon":5.40617,"is_reserved":false,"is_disabled":false,"rental_uris":{"android":"levelo://app?vid=f0f7ca87-7ffb-46bd-ab65-ff44d1578193","ios":"levelo://app?vid=f0f7ca87-7ffb-46bd-ab65-ff44d1578193"},"vehicle_type_id":"4","last_reported":1747472995,"current_range_meters":7200,"station_id":"ce4bhq92rcd13ifvqhjg","pricing_plan_id":"cebpf4jnsgd1na2vs0mg"},{"bike_id":"71d1ecbf-e8ad-4c5b-aa75-945df02cc819","system_id":"levelo_inurba_marseille","lat":43.248026,"lon":5.374563,"is_reserved":false,"is_disabled":false,"rental_uris":{"android":"levelo://app?vid=71d1ecbf-e8ad-4c5b-aa75-945df02cc819","ios":"levelo://app?vid=71d1ecbf-e8ad-4c5b-aa75-945df02cc819"},"vehicle_type_id":"4","last_reported":1747472995,"current_range_meters":8000,"station_id":"ce4bhgh2rcd13ifvqfb0","pricing_plan_id":"cebpf4jnsgd1na2vs0mg"},{"bike_id":"b17002df-4092-41c0-81f6-11460db0716f","system_id":"levelo_inurba_marseille","lat":43.26206,"lon":5.37449,"is_reserved":false,"is_disabled":false,"rental_uris":{"android":"levelo://app?vid=b17002df-4092-41c0-81f6-11460db0716f","ios":"levelo://app?vid=b17002df-4092-41c0-81f6-11460db0716f"},"vehicle_type_id":"4","last_reported":1747472995,"current_range_meters":8000,"station_id":"ce4bhgp2rcd13ifvqfc0","pricing_plan_id":"cebpf4jnsgd1na2vs0mg"},{"bike_id":"b83840fc-e8b5-4516-afbe-00694cb37051","system_id":"levelo_inurba_marseille","lat":43.24413,"lon":5.37066,"is_reserved":false,"is_disabled":false,"rental_uris":{"android":"levelo://app?vid=b83840fc-e8b5-4516-afbe-00694cb37051","ios":"levelo://app?vid=b83840fc-e8b5-4516-afbe-00694cb37051"},"vehicle_type_id":"4","last_reported":1747472995,"current_range_meters":8000,"station_id":"ce4bhhh2rcd13ifvqfk0","pricing_plan_id":"cebpf4jnsgd1na2vs0mg"},{"bike_id":"9d29eb8a-633f-4a3f-bd84-0754a56c14c4","system_id":"levelo_inurba_marseille","lat":43.32481,"lon":5.36622,"is_reserved":false,"is_disabled":false,"rental_uris":{"android":"levelo://app?vid=9d29eb8a-633f-4a3f-bd84-0754a56c14c4","ios":"levelo://app?vid=9d29eb8a-633f-4a3f-bd84-0754a56c14c4"},"vehicle_type_id":"4","last_reported":1747472995,"current_range_meters":8000,"station_id":"ce4bhs12rcd13ifvqhvg","pricing_plan_id":"cebpf4jnsgd1na2vs0mg"},{"bike_id":"388e78d9-3ee0-44ea-bcb7-92beb0601384","system_id":"levelo_inurba_marseille","lat":43.23194,"lon":5.35551,"is_reserved":false,"is_disabled":false,"rental_uris":{"android":"levelo://app?vid=388e78d9-3ee0-44ea-bcb7-92beb0601384","ios":"levelo://app?vid=388e78d9-3ee0-44ea-bcb7-92beb0601384"},"vehicle_type_id":"4","last_reported":1747472995,"current_range_meters":8000,"station_id":"ce4bhu92rcd13ifvqi70","pricing_plan_id":"cebpf4jnsgd1na2vs0mg"},{"bike_id":"5098123d-b36f-482a-a74d-7b81fd65e534","system_id":"levelo_inurba_marseille","lat":43.23927,"lon":5.3667,"is_reserved":false,"is_disabled":false,"rental_uris":{"android":"levelo://app?vid=5098123d-b36f-482a-a74d-7b81fd65e534","ios":"levelo://app?vid=5098123d-b36f-482a-a74d-7b81fd65e534"},"vehicle_type_id":"4","last_reported":1747472995,"current_range_meters":8400,"station_id":"","pricing_plan_id":"cebpf4jnsgd1na2vs0mg"},{"bike_id":"6cd5c425-f8ac-4068-b8ea-a8bfbef29ee5","system_id":"levelo_inurba_marseille","lat":43.249902,"lon":5.379482,"is_reserved":false,"is_disabled":false,"rental_uris":{"android":"levelo://app?vid=6cd5c425-f8ac-4068-b8ea-a8bfbef29ee5","ios":"levelo://app?vid=6cd5c425-f8ac-4068-b8ea-a8bfbef29ee5"},"vehicle_type_id":"4","last_reported":1747472995,"current_range_meters":8400,"station_id":"","pricing_plan_id":"cebpf4jnsgd1na2vs0mg"},{"bike_id":"97cb80bf-97cf-4aa6-88a4-140ab5ebfcac","system_id":"levelo_inurba_marseille","lat":43.29874,"lon":5.39723,"is_reserved":false,"is_disabled":false,"rental_uris":{"android":"levelo://app?vid=97cb80bf-97cf-4aa6-88a4-140ab5ebfcac","ios":"levelo://app?vid=97cb80bf-97cf-4aa6-88a4-140ab5ebfcac"},"vehicle_type_id":"4","last_reported":1747472995,"current_range_meters":8400,"station_id":"ce4bh0h2rcd13ifvqd50","pricing_plan_id":"cebpf4jnsgd1na2vs0mg"},{"bike_id":"97c3d4bf-7de4-4f50-8c72-925486775c13","system_id":"levelo_inurba_marseille","lat":43.28414,"lon":5.34983,"is_reserved":false,"is_disabled":false,"rental_uris":{"android":"levelo://app?vid=97c3d4bf-7de4-4f50-8c72-925486775c13","ios":"levelo://app?vid=97c3d4bf-7de4-4f50-8c72-925486775c13"},"vehicle_type_id":"4","last_reported":1747472995,"current_range_meters":8400,"station_id":"ce4bhbh2rcd13ifvqepg","pricing_plan_id":"cebpf4jnsgd1na2vs0mg"},{"bike_id":"5bd7c68d-bffc-45e6-bca1-d02bf7a1c1bb","system_id":"levelo_inurba_marseille","lat":43.25869,"lon":5.39899,"is_reserved":false,"is_disabled":false,"rental_uris":{"android":"levelo://app?vid=5bd7c68d-bffc-45e6-bca1-d02bf7a1c1bb","ios":"levelo://app?vid=5bd7c68d-bffc-45e6-bca1-d02bf7a1c1bb"},"vehicle_type_id":"4","last_reported":1747472995,"current_range_meters":8400,"station_id":"ce4bhl92rcd13ifvqghg","pricing_plan_id":"cebpf4jnsgd1na2vs0mg"},{"bike_id":"7b7e72f6-267c-4cb5-a0ec-d33198a95264","system_id":"levelo_inurba_marseille","lat":43.24169,"lon":5.3972,"is_reserved":false,"is_disabled":false,"rental_uris":{"android":"levelo://app?vid=7b7e72f6-267c-4cb5-a0ec-d33198a95264","ios":"levelo://app?vid=7b7e72f6-267c-4cb5-a0ec-d33198a95264"},"vehicle_type_id":"4","last_reported":1747472995,"current_range_meters":8400,"station_id":"ce4bhn12rcd13ifvqgpg","pricing_plan_id":"cebpf4jnsgd1na2vs0mg"},{"bike_id":"8cf75296-6b59-4787-bf18-cfee7fac28e0","system_id":"levelo_inurba_marseille","lat":43.24174,"lon":5.39711,"is_reserved":false,"is_disabled":false,"rental_uris":{"android":"levelo://app?vid=8cf75296-6b59-4787-bf18-cfee7fac28e0","ios":"levelo://app?vid=8cf75296-6b59-4787-bf18-cfee7fac28e0"},"vehicle_type_id":"4","last_reported":1747472995,"current_range_meters":8400,"station_id":"ce4bhn12rcd13ifvqgpg","pricing_plan_id":"cebpf4jnsgd1na2vs0mg"},{"bike_id":"5cf74a5b-3237-4306-8708-835ce896cf40","system_id":"levelo_inurba_marseille","lat":43.32,"lon":5.38163,"is_reserved":false,"is_disabled":false,"rental_uris":{"android":"levelo://app?vid=5cf74a5b-3237-4306-8708-835ce896cf40","ios":"levelo://app?vid=5cf74a5b-3237-4306-8708-835ce896cf40"},"vehicle_type_id":"4","last_reported":1747472995,"current_range_meters":8400,"station_id":"ce4bhr12rcd13ifvqhpg","pricing_plan_id":"cebpf4jnsgd1na2vs0mg"},{"bike_id":"3d6b5b36-a314-45fa-8bc0-68e5f98a5dde","system_id":"levelo_inurba_marseille","lat":43.22927,"lon":5.35388,"is_reserved":false,"is_disabled":false,"rental_uris":{"android":"levelo://app?vid=3d6b5b36-a314-45fa-8bc0-68e5f98a5dde","ios":"levelo://app?vid=3d6b5b36-a314-45fa-8bc0-68e5f98a5dde"},"vehicle_type_id":"4","last_reported":1747472995,"current_range_meters":8400,"station_id":"cpo3532slgdg3j2ikp40","pricing_plan_id":"cebpf4jnsgd1na2vs0mg"},{"bike_id":"ac2e19e8-44fd-4bd2-af0a-890fec876a0c","system_id":"levelo_inurba_marseille","lat":43.30144,"lon":5.38081,"is_reserved":false,"is_disabled":false,"rental_uris":{"android":"levelo://app?vid=ac2e19e8-44fd-4bd2-af0a-890fec876a0c","ios":"levelo://app?vid=ac2e19e8-44fd-4bd2-af0a-890fec876a0c"},"vehicle_type_id":"4","last_reported":1747472995,"current_range_meters":8800,"station_id":"ce4bgjp2rcd13ifvqbh0","pricing_plan_id":"cebpf4jnsgd1na2vs0mg"},{"bike_id":"79b0f212-a412-4d78-9698-18a7ce0ce6cd","system_id":"levelo_inurba_marseille","lat":43.233736,"lon":5.360541,"is_reserved":false,"is_disabled":false,"rental_uris":{"android":"levelo://app?vid=79b0f212-a412-4d78-9698-18a7ce0ce6cd","ios":"levelo://app?vid=79b0f212-a412-4d78-9698-18a7ce0ce6cd"},"vehicle_type_id":"4","last_reported":1747472995,"current_range_meters":9200,"station_id":"","pricing_plan_id":"cebpf4jnsgd1na2vs0mg"},{"bike_id":"039dc210-508c-45aa-8a56-26d77c11a26e","system_id":"levelo_inurba_marseille","lat":43.29392,"lon":5.37844,"is_reserved":false,"is_disabled":false,"rental_uris":{"android":"levelo://app?vid=039dc210-508c-45aa-8a56-26d77c11a26e","ios":"levelo://app?vid=039dc210-508c-45aa-8a56-26d77c11a26e"},"vehicle_type_id":"4","last_reported":1747472995,"current_range_meters":9200,"station_id":"ce4bgjh2rcd13ifvqbf0","pricing_plan_id":"cebpf4jnsgd1na2vs0mg"},{"bike_id":"4e9620da-9360-4e50-91a1-087af7cb78d5","system_id":"levelo_inurba_marseille","lat":43.31551,"lon":5.369932,"is_reserved":false,"is_disabled":false,"rental_uris":{"android":"levelo://app?vid=4e9620da-9360-4e50-91a1-087af7cb78d5","ios":"levelo://app?vid=4e9620da-9360-4e50-91a1-087af7cb78d5"},"vehicle_type_id":"4","last_reported":1747472995,"current_range_meters":9200,"station_id":"ce4bgl92rcd13ifvqbq0","pricing_plan_id":"cebpf4jnsgd1na2vs0mg"},{"bike_id":"0a0babc2-26c5-42ba-a79e-338dfe361b88","system_id":"levelo_inurba_marseille","lat":43.240663,"lon":5.377828,"is_reserved":false,"is_disabled":false,"rental_uris":{"android":"levelo://app?vid=0a0babc2-26c5-42ba-a79e-338dfe361b88","ios":"levelo://app?vid=0a0babc2-26c5-42ba-a79e-338dfe361b88"},"vehicle_type_id":"4","last_reported":1747472995,"current_range_meters":9200,"station_id":"ce4bhnp2rcd13ifvqgvg","pricing_plan_id":"cebpf4jnsgd1na2vs0mg"},{"bike_id":"4627f3d1-17fd-49b2-9a60-3f90cc9b16e5","system_id":"levelo_inurba_marseille","lat":43.31713,"lon":5.437017,"is_reserved":false,"is_disabled":false,"rental_uris":{"android":"levelo://app?vid=4627f3d1-17fd-49b2-9a60-3f90cc9b16e5","ios":"levelo://app?vid=4627f3d1-17fd-49b2-9a60-3f90cc9b16e5"},"vehicle_type_id":"4","last_reported":1747472995,"current_range_meters":9200,"station_id":"ce4bhp92rcd13ifvqhcg","pricing_plan_id":"cebpf4jnsgd1na2vs0mg"},{"bike_id":"6dc41c7d-d886-4d51-bd29-ec1aa88f4fac","system_id":"levelo_inurba_marseille","lat":43.24164,"lon":5.36399,"is_reserved":false,"is_disabled":false,"rental_uris":{"android":"levelo://app?vid=6dc41c7d-d886-4d51-bd29-ec1aa88f4fac","ios":"levelo://app?vid=6dc41c7d-d886-4d51-bd29-ec1aa88f4fac"},"vehicle_type_id":"4","last_reported":1747472995,"current_range_meters":9200,"station_id":"cpo36qri1sfpv3e86is0","pricing_plan_id":"cebpf4jnsgd1na2vs0mg"},{"bike_id":"d8f9bf78-f3cf-40e2-a345-999fd56241e8","system_id":"levelo_inurba_marseille","lat":43.30782,"lon":5.38155,"is_reserved":false,"is_disabled":false,"rental_uris":{"android":"levelo://app?vid=d8f9bf78-f3cf-40e2-a345-999fd56241e8","ios":"levelo://app?vid=d8f9bf78-f3cf-40e2-a345-999fd56241e8"},"vehicle_type_id":"4","last_reported":1747472995,"current_range_meters":9600,"station_id":"ce4bgt12rcd13ifvqce0","pricing_plan_id":"cebpf4jnsgd1na2vs0mg"},{"bike_id":"fd36f2b2-ab3f-4773-a649-0c532c529c78","system_id":"levelo_inurba_marseille","lat":43.26554,"lon":5.37289,"is_reserved":false,"is_disabled":false,"rental_uris":{"android":"levelo://app?vid=fd36f2b2-ab3f-4773-a649-0c532c529c78","ios":"levelo://app?vid=fd36f2b2-ab3f-4773-a649-0c532c529c78"},"vehicle_type_id":"4","last_reported":1747472995,"current_range_meters":9600,"station_id":"ce4bhg12rcd13ifvqf70","pricing_plan_id":"cebpf4jnsgd1na2vs0mg"},{"bike_id":"1c4fabb1-f44a-4486-8609-233db3bd88dc","system_id":"levelo_inurba_marseille","lat":43.286162,"lon":5.351023,"is_reserved":false,"is_disabled":false,"rental_uris":{"android":"levelo://app?vid=1c4fabb1-f44a-4486-8609-233db3bd88dc","ios":"levelo://app?vid=1c4fabb1-f44a-4486-8609-233db3bd88dc"},"vehicle_type_id":"4","last_reported":1747472995,"current_range_meters":10000,"station_id":"ce4bhch2rcd13ifvqeug","pricing_plan_id":"cebpf4jnsgd1na2vs0mg"},{"bike_id":"30f22dca-3eac-4339-a090-d4162a8544ea","system_id":"levelo_inurba_marseille","lat":43.24648,"lon":5.38898,"is_reserved":false,"is_disabled":false,"rental_uris":{"android":"levelo://app?vid=30f22dca-3eac-4339-a090-d4162a8544ea","ios":"levelo://app?vid=30f22dca-3eac-4339-a090-d4162a8544ea"},"vehicle_type_id":"4","last_reported":1747472995,"current_range_meters":10000,"station_id":"ce4bhg12rcd13ifvqf60","pricing_plan_id":"cebpf4jnsgd1na2vs0mg"},{"bike_id":"63bca544-195a-4b74-ac50-0e4753b586b4","system_id":"levelo_inurba_marseille","lat":43.24806,"lon":5.37452,"is_reserved":false,"is_disabled":false,"rental_uris":{"android":"levelo://app?vid=63bca544-195a-4b74-ac50-0e4753b586b4","ios":"levelo://app?vid=63bca544-195a-4b74-ac50-0e4753b586b4"},"vehicle_type_id":"4","last_reported":1747472995,"current_range_meters":10000,"station_id":"ce4bhgh2rcd13ifvqfb0","pricing_plan_id":"cebpf4jnsgd1na2vs0mg"},{"bike_id":"4e3dabbc-dd97-4dcb-98cd-df94478075f6","system_id":"levelo_inurba_marseille","lat":43.24994,"lon":5.38935,"is_reserved":false,"is_disabled":false,"rental_uris":{"android":"levelo://app?vid=4e3dabbc-dd97-4dcb-98cd-df94478075f6","ios":"levelo://app?vid=4e3dabbc-dd97-4dcb-98cd-df94478075f6"},"vehicle_type_id":"4","last_reported":1747472995,"current_range_meters":10000,"station_id":"ce4bhgp2rcd13ifvqfd0","pricing_plan_id":"cebpf4jnsgd1na2vs0mg"},{"bike_id":"b6722871-ecb9-4532-8e24-3cb5e6fa1809","system_id":"levelo_inurba_marseille","lat":43.27206,"lon":5.39194,"is_reserved":false,"is_disabled":false,"rental_uris":{"android":"levelo://app?vid=b6722871-ecb9-4532-8e24-3cb5e6fa1809","ios":"levelo://app?vid=b6722871-ecb9-4532-8e24-3cb5e6fa1809"},"vehicle_type_id":"4","last_reported":1747472995,"current_range_meters":10000,"station_id":"ce4bhhp2rcd13ifvqfm0","pricing_plan_id":"cebpf4jnsgd1na2vs0mg"},{"bike_id":"195b2f38-3583-46c4-9a59-e3288cc1c915","system_id":"levelo_inurba_marseille","lat":43.211975,"lon":5.350821,"is_reserved":false,"is_disabled":false,"rental_uris":{"android":"levelo://app?vid=195b2f38-3583-46c4-9a59-e3288cc1c915","ios":"levelo://app?vid=195b2f38-3583-46c4-9a59-e3288cc1c915"},"vehicle_type_id":"4","last_reported":1747472995,"current_range_meters":10000,"station_id":"st_cvj6sg6p6f1abm77japg","pricing_plan_id":"cebpf4jnsgd1na2vs0mg"},{"bike_id":"9ab80c09-a66e-490c-af4e-4ca4b7dc42ea","system_id":"levelo_inurba_marseille","lat":43.29122,"lon":5.37998,"is_reserved":false,"is_disabled":false,"rental_uris":{"android":"levelo://app?vid=9ab80c09-a66e-490c-af4e-4ca4b7dc42ea","ios":"levelo://app?vid=9ab80c09-a66e-490c-af4e-4ca4b7dc42ea"},"vehicle_type_id":"4","last_reported":1747472995,"current_range_meters":10800,"station_id":"","pricing_plan_id":"cebpf4jnsgd1na2vs0mg"},{"bike_id":"6fca7cc7-1f25-47f0-b791-6f1514866824","system_id":"levelo_inurba_marseille","lat":43.290092,"lon":5.356088,"is_reserved":false,"is_disabled":false,"rental_uris":{"android":"levelo://app?vid=6fca7cc7-1f25-47f0-b791-6f1514866824","ios":"levelo://app?vid=6fca7cc7-1f25-47f0-b791-6f1514866824"},"vehicle_type_id":"4","last_reported":1747472995,"current_range_meters":10800,"station_id":"ce4bhb92rcd13ifvqen0","pricing_plan_id":"cebpf4jnsgd1na2vs0mg"},{"bike_id":"8ae76543-602e-4e5d-bae6-747a99dd3a0e","system_id":"levelo_inurba_marseille","lat":43.28259,"lon":5.35062,"is_reserved":false,"is_disabled":false,"rental_uris":{"android":"levelo://app?vid=8ae76543-602e-4e5d-bae6-747a99dd3a0e","ios":"levelo://app?vid=8ae76543-602e-4e5d-bae6-747a99dd3a0e"},"vehicle_type_id":"4","last_reported":1747472995,"current_range_meters":11200,"station_id":"ce4bhbp2rcd13ifvqerg","pricing_plan_id":"cebpf4jnsgd1na2vs0mg"},{"bike_id":"b8e6468b-87db-4ff6-8122-ef13bf5b7c8c","system_id":"levelo_inurba_marseille","lat":43.31379,"lon":5.37916,"is_reserved":false,"is_disabled":false,"rental_uris":{"android":"levelo://app?vid=b8e6468b-87db-4ff6-8122-ef13bf5b7c8c","ios":"levelo://app?vid=b8e6468b-87db-4ff6-8122-ef13bf5b7c8c"},"vehicle_type_id":"4","last_reported":1747472995,"current_range_meters":12000,"station_id":"","pricing_plan_id":"cebpf4jnsgd1na2vs0mg"},{"bike_id":"6da655b8-0421-4e8a-ae32-6637af746f6a","system_id":"levelo_inurba_marseille","lat":43.26814,"lon":5.41139,"is_reserved":false,"is_disabled":false,"rental_uris":{"android":"levelo://app?vid=6da655b8-0421-4e8a-ae32-6637af746f6a","ios":"levelo://app?vid=6da655b8-0421-4e8a-ae32-6637af746f6a"},"vehicle_type_id":"4","last_reported":1747472995,"current_range_meters":12000,"station_id":"","pricing_plan_id":"cebpf4jnsgd1na2vs0mg"},{"bike_id":"2177b1d7-f686-4001-a2d5-99d12ff0980c","system_id":"levelo_inurba_marseille","lat":43.32503,"lon":5.36612,"is_reserved":false,"is_disabled":false,"rental_uris":{"android":"levelo://app?vid=2177b1d7-f686-4001-a2d5-99d12ff0980c","ios":"levelo://app?vid=2177b1d7-f686-4001-a2d5-99d12ff0980c"},"vehicle_type_id":"4","last_reported":1747472995,"current_range_meters":12000,"station_id":"","pricing_plan_id":"cebpf4jnsgd1na2vs0mg"},{"bike_id":"866db910-c9de-4c20-881a-83c325637224","system_id":"levelo_inurba_marseille","lat":43.29198,"lon":5.35813,"is_reserved":false,"is_disabled":false,"rental_uris":{"android":"levelo://app?vid=866db910-c9de-4c20-881a-83c325637224","ios":"levelo://app?vid=866db910-c9de-4c20-881a-83c325637224"},"vehicle_type_id":"4","last_reported":1747472995,"current_range_meters":12000,"station_id":"ce4bhb12rcd13ifvqel0","pricing_plan_id":"cebpf4jnsgd1na2vs0mg"},{"bike_id":"ac89654e-1dc8-4920-855e-0dc7fab895c7","system_id":"levelo_inurba_marseille","lat":43.2827,"lon":5.35095,"is_reserved":false,"is_disabled":false,"rental_uris":{"android":"levelo://app?vid=ac89654e-1dc8-4920-855e-0dc7fab895c7","ios":"levelo://app?vid=ac89654e-1dc8-4920-855e-0dc7fab895c7"},"vehicle_type_id":"4","last_reported":1747472995,"current_range_meters":12000,"station_id":"ce4bhbp2rcd13ifvqerg","pricing_plan_id":"cebpf4jnsgd1na2vs0mg"},{"bike_id":"68a98967-4cbd-4af3-9506-803051750aa2","system_id":"levelo_inurba_marseille","lat":43.28611,"lon":5.35117,"is_reserved":false,"is_disabled":false,"rental_uris":{"android":"levelo://app?vid=68a98967-4cbd-4af3-9506-803051750aa2","ios":"levelo://app?vid=68a98967-4cbd-4af3-9506-803051750aa2"},"vehicle_type_id":"4","last_reported":1747472995,"current_range_meters":12000,"station_id":"ce4bhch2rcd13ifvqeug","pricing_plan_id":"cebpf4jnsgd1na2vs0mg"},{"bike_id":"49d95ef5-01f8-4cb2-81f0-6a6fb0286159","system_id":"levelo_inurba_marseille","lat":43.28479,"lon":5.38426,"is_reserved":false,"is_disabled":false,"rental_uris":{"android":"levelo://app?vid=49d95ef5-01f8-4cb2-81f0-6a6fb0286159","ios":"levelo://app?vid=49d95ef5-01f8-4cb2-81f0-6a6fb0286159"},"vehicle_type_id":"4","last_reported":1747472995,"current_range_meters":12400,"station_id":"ce4bh512rcd13ifvqe3g","pricing_plan_id":"cebpf4jnsgd1na2vs0mg"},{"bike_id":"3e630e9a-3c06-4dcc-97d5-ae78a4ea1500","system_id":"levelo_inurba_marseille","lat":43.29892,"lon":5.43673,"is_reserved":false,"is_disabled":false,"rental_uris":{"android":"levelo://app?vid=3e630e9a-3c06-4dcc-97d5-ae78a4ea1500","ios":"levelo://app?vid=3e630e9a-3c06-4dcc-97d5-ae78a4ea1500"},"vehicle_type_id":"4","last_reported":1747472995,"current_range_meters":12400,"station_id":"ce4bhpp2rcd13ifvqhfg","pricing_plan_id":"cebpf4jnsgd1na2vs0mg"},{"bike_id":"1a324d40-21d8-4b8c-bfe2-7533a91d51ae","system_id":"levelo_inurba_marseille","lat":43.31991,"lon":5.38152,"is_reserved":false,"is_disabled":false,"rental_uris":{"android":"levelo://app?vid=1a324d40-21d8-4b8c-bfe2-7533a91d51ae","ios":"levelo://app?vid=1a324d40-21d8-4b8c-bfe2-7533a91d51ae"},"vehicle_type_id":"4","last_reported":1747472995,"current_range_meters":12400,"station_id":"ce4bhr12rcd13ifvqhpg","pricing_plan_id":"cebpf4jnsgd1na2vs0mg"},{"bike_id":"6e1bd625-3ec1-43df-9657-36d71ae09f8d","system_id":"levelo_inurba_marseille","lat":43.33733,"lon":5.37464,"is_reserved":false,"is_disabled":false,"rental_uris":{"android":"levelo://app?vid=6e1bd625-3ec1-43df-9657-36d71ae09f8d","ios":"levelo://app?vid=6e1bd625-3ec1-43df-9657-36d71ae09f8d"},"vehicle_type_id":"4","last_reported":1747472995,"current_range_meters":12800,"station_id":"","pricing_plan_id":"cebpf4jnsgd1na2vs0mg"},{"bike_id":"303963e5-499b-4199-8204-ce362d2637b2","system_id":"levelo_inurba_marseille","lat":43.29299,"lon":5.37166,"is_reserved":false,"is_disabled":false,"rental_uris":{"android":"levelo://app?vid=303963e5-499b-4199-8204-ce362d2637b2","ios":"levelo://app?vid=303963e5-499b-4199-8204-ce362d2637b2"},"vehicle_type_id":"4","last_reported":1747472995,"current_range_meters":12800,"station_id":"ce4bgh92rcd13ifvqb40","pricing_plan_id":"cebpf4jnsgd1na2vs0mg"},{"bike_id":"146ce72c-dc39-4896-8c1a-531c6a204803","system_id":"levelo_inurba_marseille","lat":43.29004,"lon":5.35608,"is_reserved":false,"is_disabled":false,"rental_uris":{"android":"levelo://app?vid=146ce72c-dc39-4896-8c1a-531c6a204803","ios":"levelo://app?vid=146ce72c-dc39-4896-8c1a-531c6a204803"},"vehicle_type_id":"4","last_reported":1747472995,"current_range_meters":12800,"station_id":"ce4bhb92rcd13ifvqen0","pricing_plan_id":"cebpf4jnsgd1na2vs0mg"},{"bike_id":"3f813208-5592-40bb-8a3c-467a82105aac","system_id":"levelo_inurba_marseille","lat":43.24389,"lon":5.37062,"is_reserved":false,"is_disabled":false,"rental_uris":{"android":"levelo://app?vid=3f813208-5592-40bb-8a3c-467a82105aac","ios":"levelo://app?vid=3f813208-5592-40bb-8a3c-467a82105aac"},"vehicle_type_id":"4","last_reported":1747472995,"current_range_meters":12800,"station_id":"ce4bhhh2rcd13ifvqfk0","pricing_plan_id":"cebpf4jnsgd1na2vs0mg"},{"bike_id":"a4d7457e-a382-4ab7-9876-e9ba20692ec9","system_id":"levelo_inurba_marseille","lat":43.319954,"lon":5.381603,"is_reserved":false,"is_disabled":false,"rental_uris":{"android":"levelo://app?vid=a4d7457e-a382-4ab7-9876-e9ba20692ec9","ios":"levelo://app?vid=a4d7457e-a382-4ab7-9876-e9ba20692ec9"},"vehicle_type_id":"4","last_reported":1747472995,"current_range_meters":12800,"station_id":"ce4bhr12rcd13ifvqhpg","pricing_plan_id":"cebpf4jnsgd1na2vs0mg"},{"bike_id":"fbb3782a-a934-4393-ada0-9ca664fb90b4","system_id":"levelo_inurba_marseille","lat":43.26554,"lon":5.38997,"is_reserved":false,"is_disabled":false,"rental_uris":{"android":"levelo://app?vid=fbb3782a-a934-4393-ada0-9ca664fb90b4","ios":"levelo://app?vid=fbb3782a-a934-4393-ada0-9ca664fb90b4"},"vehicle_type_id":"4","last_reported":1747472995,"current_range_meters":13600,"station_id":"ce4bhe12rcd13ifvqf30","pricing_plan_id":"cebpf4jnsgd1na2vs0mg"},{"bike_id":"ba4af5f9-1bd0-4137-bdd4-43fe5c30cee9","system_id":"levelo_inurba_marseille","lat":43.25582,"lon":5.38236,"is_reserved":false,"is_disabled":false,"rental_uris":{"android":"levelo://app?vid=ba4af5f9-1bd0-4137-bdd4-43fe5c30cee9","ios":"levelo://app?vid=ba4af5f9-1bd0-4137-bdd4-43fe5c30cee9"},"vehicle_type_id":"4","last_reported":1747472995,"current_range_meters":13600,"station_id":"ce4bhih2rcd13ifvqfs0","pricing_plan_id":"cebpf4jnsgd1na2vs0mg"},{"bike_id":"c96873c1-07ae-4fa5-9d39-77223fea8e8c","system_id":"levelo_inurba_marseille","lat":43.2406,"lon":5.377651,"is_reserved":false,"is_disabled":false,"rental_uris":{"android":"levelo://app?vid=c96873c1-07ae-4fa5-9d39-77223fea8e8c","ios":"levelo://app?vid=c96873c1-07ae-4fa5-9d39-77223fea8e8c"},"vehicle_type_id":"4","last_reported":1747472995,"current_range_meters":13600,"station_id":"ce4bhnp2rcd13ifvqgvg","pricing_plan_id":"cebpf4jnsgd1na2vs0mg"},{"bike_id":"9cbeb87d-d8b0-4e27-aceb-943f96e43929","system_id":"levelo_inurba_marseille","lat":43.2984,"lon":5.3627,"is_reserved":false,"is_disabled":false,"rental_uris":{"android":"levelo://app?vid=9cbeb87d-d8b0-4e27-aceb-943f96e43929","ios":"levelo://app?vid=9cbeb87d-d8b0-4e27-aceb-943f96e43929"},"vehicle_type_id":"4","last_reported":1747472995,"current_range_meters":14000,"station_id":"ce4bgpp2rcd13ifvqc3g","pricing_plan_id":"cebpf4jnsgd1na2vs0mg"},{"bike_id":"ff3f45d3-dbed-419e-80a9-672f47ea4c33","system_id":"levelo_inurba_marseille","lat":43.29011,"lon":5.35616,"is_reserved":false,"is_disabled":false,"rental_uris":{"android":"levelo://app?vid=ff3f45d3-dbed-419e-80a9-672f47ea4c33","ios":"levelo://app?vid=ff3f45d3-dbed-419e-80a9-672f47ea4c33"},"vehicle_type_id":"4","last_reported":1747472995,"current_range_meters":14000,"station_id":"ce4bhb92rcd13ifvqen0","pricing_plan_id":"cebpf4jnsgd1na2vs0mg"},{"bike_id":"844e0845-2667-404b-9f3a-f80940d0cad3","system_id":"levelo_inurba_marseille","lat":43.24814,"lon":5.37438,"is_reserved":false,"is_disabled":false,"rental_uris":{"android":"levelo://app?vid=844e0845-2667-404b-9f3a-f80940d0cad3","ios":"levelo://app?vid=844e0845-2667-404b-9f3a-f80940d0cad3"},"vehicle_type_id":"4","last_reported":1747472995,"current_range_meters":14000,"station_id":"ce4bhgh2rcd13ifvqfb0","pricing_plan_id":"cebpf4jnsgd1na2vs0mg"},{"bike_id":"bb186e8f-1b36-4b6b-8780-b05a3a3d91a1","system_id":"levelo_inurba_marseille","lat":43.239577,"lon":5.366503,"is_reserved":false,"is_disabled":false,"rental_uris":{"android":"levelo://app?vid=bb186e8f-1b36-4b6b-8780-b05a3a3d91a1","ios":"levelo://app?vid=bb186e8f-1b36-4b6b-8780-b05a3a3d91a1"},"vehicle_type_id":"4","last_reported":1747472995,"current_range_meters":14000,"station_id":"ce4bhi12rcd13ifvqfp0","pricing_plan_id":"cebpf4jnsgd1na2vs0mg"},{"bike_id":"962eb948-b4c1-4cb1-8d41-1fe5a84ce28c","system_id":"levelo_inurba_marseille","lat":43.29216,"lon":5.360502,"is_reserved":false,"is_disabled":false,"rental_uris":{"android":"levelo://app?vid=962eb948-b4c1-4cb1-8d41-1fe5a84ce28c","ios":"levelo://app?vid=962eb948-b4c1-4cb1-8d41-1fe5a84ce28c"},"vehicle_type_id":"4","last_reported":1747472995,"current_range_meters":14400,"station_id":"ce4bhbh2rcd13ifvqeqg","pricing_plan_id":"cebpf4jnsgd1na2vs0mg"},{"bike_id":"0861c99d-4281-4419-a2c7-71d96aadb620","system_id":"levelo_inurba_marseille","lat":43.23147,"lon":5.43717,"is_reserved":false,"is_disabled":false,"rental_uris":{"android":"levelo://app?vid=0861c99d-4281-4419-a2c7-71d96aadb620","ios":"levelo://app?vid=0861c99d-4281-4419-a2c7-71d96aadb620"},"vehicle_type_id":"4","last_reported":1747472995,"current_range_meters":14400,"station_id":"ce4bhmp2rcd13ifvqgog","pricing_plan_id":"cebpf4jnsgd1na2vs0mg"},{"bike_id":"c6713509-f9b6-468e-bcdf-3d8d03523e79","system_id":"levelo_inurba_marseille","lat":43.29297,"lon":5.37465,"is_reserved":false,"is_disabled":false,"rental_uris":{"android":"levelo://app?vid=c6713509-f9b6-468e-bcdf-3d8d03523e79","ios":"levelo://app?vid=c6713509-f9b6-468e-bcdf-3d8d03523e79"},"vehicle_type_id":"4","last_reported":1747472995,"current_range_meters":14800,"station_id":"ce4bgi12rcd13ifvqb70","pricing_plan_id":"cebpf4jnsgd1na2vs0mg"},{"bike_id":"e314d146-7552-45a4-8888-4aa19500f9e9","system_id":"levelo_inurba_marseille","lat":43.29612,"lon":5.37758,"is_reserved":false,"is_disabled":false,"rental_uris":{"android":"levelo://app?vid=e314d146-7552-45a4-8888-4aa19500f9e9","ios":"levelo://app?vid=e314d146-7552-45a4-8888-4aa19500f9e9"},"vehicle_type_id":"4","last_reported":1747472995,"current_range_meters":15200,"station_id":"ce4bgi92rcd13ifvqb90","pricing_plan_id":"cebpf4jnsgd1na2vs0mg"},{"bike_id":"70f8d792-525c-41c7-85bb-b20f18135b08","system_id":"levelo_inurba_marseille","lat":43.29584,"lon":5.36741,"is_reserved":false,"is_disabled":false,"rental_uris":{"android":"levelo://app?vid=70f8d792-525c-41c7-85bb-b20f18135b08","ios":"levelo://app?vid=70f8d792-525c-41c7-85bb-b20f18135b08"},"vehicle_type_id":"4","last_reported":1747472995,"current_range_meters":15200,"station_id":"ce4bgph2rcd13ifvqc2g","pricing_plan_id":"cebpf4jnsgd1na2vs0mg"},{"bike_id":"f7149ed1-8e2d-4e67-8474-e799e6598017","system_id":"levelo_inurba_marseille","lat":43.29847,"lon":5.3628,"is_reserved":false,"is_disabled":false,"rental_uris":{"android":"levelo://app?vid=f7149ed1-8e2d-4e67-8474-e799e6598017","ios":"levelo://app?vid=f7149ed1-8e2d-4e67-8474-e799e6598017"},"vehicle_type_id":"4","last_reported":1747472995,"current_range_meters":15200,"station_id":"ce4bgpp2rcd13ifvqc3g","pricing_plan_id":"cebpf4jnsgd1na2vs0mg"},{"bike_id":"3466ccf7-a677-4cd6-b608-1e1a67f8d6d7","system_id":"levelo_inurba_marseille","lat":43.24393,"lon":5.37055,"is_reserved":false,"is_disabled":false,"rental_uris":{"android":"levelo://app?vid=3466ccf7-a677-4cd6-b608-1e1a67f8d6d7","ios":"levelo://app?vid=3466ccf7-a677-4cd6-b608-1e1a67f8d6d7"},"vehicle_type_id":"4","last_reported":1747472995,"current_range_meters":15200,"station_id":"ce4bhhh2rcd13ifvqfk0","pricing_plan_id":"cebpf4jnsgd1na2vs0mg"},{"bike_id":"5859aa69-92a8-4d08-a554-05f544a7c60e","system_id":"levelo_inurba_marseille","lat":43.24376,"lon":5.37078,"is_reserved":false,"is_disabled":false,"rental_uris":{"android":"levelo://app?vid=5859aa69-92a8-4d08-a554-05f544a7c60e","ios":"levelo://app?vid=5859aa69-92a8-4d08-a554-05f544a7c60e"},"vehicle_type_id":"4","last_reported":1747472995,"current_range_meters":15200,"station_id":"ce4bhhh2rcd13ifvqfk0","pricing_plan_id":"cebpf4jnsgd1na2vs0mg"},{"bike_id":"fc0c8116-b0d0-42b3-9630-4554b9581da1","system_id":"levelo_inurba_marseille","lat":43.28612,"lon":5.3706,"is_reserved":false,"is_disabled":false,"rental_uris":{"android":"levelo://app?vid=fc0c8116-b0d0-42b3-9630-4554b9581da1","ios":"levelo://app?vid=fc0c8116-b0d0-42b3-9630-4554b9581da1"},"vehicle_type_id":"4","last_reported":1747472995,"current_range_meters":15200,"station_id":"ce4bht12rcd13ifvqi60","pricing_plan_id":"cebpf4jnsgd1na2vs0mg"},{"bike_id":"c734f66f-5037-47ce-b476-1761c5a56348","system_id":"levelo_inurba_marseille","lat":43.3052,"lon":5.36637,"is_reserved":false,"is_disabled":false,"rental_uris":{"android":"levelo://app?vid=c734f66f-5037-47ce-b476-1761c5a56348","ios":"levelo://app?vid=c734f66f-5037-47ce-b476-1761c5a56348"},"vehicle_type_id":"4","last_reported":1747472995,"current_range_meters":16000,"station_id":"","pricing_plan_id":"cebpf4jnsgd1na2vs0mg"},{"bike_id":"194f17c8-93f0-4ff7-9d7b-60238225a3ec","system_id":"levelo_inurba_marseille","lat":43.261599,"lon":5.420695,"is_reserved":false,"is_disabled":false,"rental_uris":{"android":"levelo://app?vid=194f17c8-93f0-4ff7-9d7b-60238225a3ec","ios":"levelo://app?vid=194f17c8-93f0-4ff7-9d7b-60238225a3ec"},"vehicle_type_id":"4","last_reported":1747472995,"current_range_meters":16000,"station_id":"","pricing_plan_id":"cebpf4jnsgd1na2vs0mg"},{"bike_id":"bfb09085-c41a-49dd-adba-c01701bf007a","system_id":"levelo_inurba_marseille","lat":43.28664,"lon":5.38684,"is_reserved":false,"is_disabled":false,"rental_uris":{"android":"levelo://app?vid=bfb09085-c41a-49dd-adba-c01701bf007a","ios":"levelo://app?vid=bfb09085-c41a-49dd-adba-c01701bf007a"},"vehicle_type_id":"4","last_reported":1747472995,"current_range_meters":16000,"station_id":"ce4bh492rcd13ifvqdug","pricing_plan_id":"cebpf4jnsgd1na2vs0mg"},{"bike_id":"74b82775-e7ad-4809-ad83-0741ec16f29d","system_id":"levelo_inurba_marseille","lat":43.282304,"lon":5.350906,"is_reserved":false,"is_disabled":false,"rental_uris":{"android":"levelo://app?vid=74b82775-e7ad-4809-ad83-0741ec16f29d","ios":"levelo://app?vid=74b82775-e7ad-4809-ad83-0741ec16f29d"},"vehicle_type_id":"4","last_reported":1747472995,"current_range_meters":16000,"station_id":"ce4bhbp2rcd13ifvqerg","pricing_plan_id":"cebpf4jnsgd1na2vs0mg"},{"bike_id":"465ca380-6a0b-4a53-aac8-6d66ff8ad361","system_id":"levelo_inurba_marseille","lat":43.279118,"lon":5.395806,"is_reserved":false,"is_disabled":false,"rental_uris":{"android":"levelo://app?vid=465ca380-6a0b-4a53-aac8-6d66ff8ad361","ios":"levelo://app?vid=465ca380-6a0b-4a53-aac8-6d66ff8ad361"},"vehicle_type_id":"4","last_reported":1747472995,"current_range_meters":16000,"station_id":"ce4bhf92rcd13ifvqf40","pricing_plan_id":"cebpf4jnsgd1na2vs0mg"},{"bike_id":"c82efa10-416e-400e-bd08-171f6a1b30ae","system_id":"levelo_inurba_marseille","lat":43.24997,"lon":5.38935,"is_reserved":false,"is_disabled":false,"rental_uris":{"android":"levelo://app?vid=c82efa10-416e-400e-bd08-171f6a1b30ae","ios":"levelo://app?vid=c82efa10-416e-400e-bd08-171f6a1b30ae"},"vehicle_type_id":"4","last_reported":1747472995,"current_range_meters":16000,"station_id":"ce4bhgp2rcd13ifvqfd0","pricing_plan_id":"cebpf4jnsgd1na2vs0mg"},{"bike_id":"013ebac7-c82d-46cc-b7a8-c0e7984bdc62","system_id":"levelo_inurba_marseille","lat":43.26772,"lon":5.39414,"is_reserved":false,"is_disabled":false,"rental_uris":{"android":"levelo://app?vid=013ebac7-c82d-46cc-b7a8-c0e7984bdc62","ios":"levelo://app?vid=013ebac7-c82d-46cc-b7a8-c0e7984bdc62"},"vehicle_type_id":"4","last_reported":1747472995,"current_range_meters":16000,"station_id":"ce4bhh12rcd13ifvqfg0","pricing_plan_id":"cebpf4jnsgd1na2vs0mg"},{"bike_id":"dddd15e3-1d76-4498-a308-2c291dea0585","system_id":"levelo_inurba_marseille","lat":43.24176,"lon":5.3973,"is_reserved":false,"is_disabled":false,"rental_uris":{"android":"levelo://app?vid=dddd15e3-1d76-4498-a308-2c291dea0585","ios":"levelo://app?vid=dddd15e3-1d76-4498-a308-2c291dea0585"},"vehicle_type_id":"4","last_reported":1747472995,"current_range_meters":16000,"station_id":"ce4bhn12rcd13ifvqgpg","pricing_plan_id":"cebpf4jnsgd1na2vs0mg"},{"bike_id":"712f1c4d-f153-4002-ad59-f4eda49ba117","system_id":"levelo_inurba_marseille","lat":43.2319,"lon":5.39989,"is_reserved":false,"is_disabled":false,"rental_uris":{"android":"levelo://app?vid=712f1c4d-f153-4002-ad59-f4eda49ba117","ios":"levelo://app?vid=712f1c4d-f153-4002-ad59-f4eda49ba117"},"vehicle_type_id":"4","last_reported":1747472995,"current_range_meters":16000,"station_id":"ce4bhn12rcd13ifvqgqg","pricing_plan_id":"cebpf4jnsgd1na2vs0mg"},{"bike_id":"78338216-0a2b-4e99-8b78-cff8b95a208b","system_id":"levelo_inurba_marseille","lat":43.235503,"lon":5.403144,"is_reserved":false,"is_disabled":false,"rental_uris":{"android":"levelo://app?vid=78338216-0a2b-4e99-8b78-cff8b95a208b","ios":"levelo://app?vid=78338216-0a2b-4e99-8b78-cff8b95a208b"},"vehicle_type_id":"4","last_reported":1747472995,"current_range_meters":16400,"station_id":"","pricing_plan_id":"cebpf4jnsgd1na2vs0mg"},{"bike_id":"89338b62-f874-48ab-bcd3-40c306bd533c","system_id":"levelo_inurba_marseille","lat":43.29934,"lon":5.36511,"is_reserved":false,"is_disabled":false,"rental_uris":{"android":"levelo://app?vid=89338b62-f874-48ab-bcd3-40c306bd533c","ios":"levelo://app?vid=89338b62-f874-48ab-bcd3-40c306bd533c"},"vehicle_type_id":"4","last_reported":1747472995,"current_range_meters":16800,"station_id":"ce4bgm92rcd13ifvqbr0","pricing_plan_id":"cebpf4jnsgd1na2vs0mg"},{"bike_id":"771f1a2d-9ff5-41f1-aeaf-9a490d83164b","system_id":"levelo_inurba_marseille","lat":43.29191,"lon":5.35814,"is_reserved":false,"is_disabled":false,"rental_uris":{"android":"levelo://app?vid=771f1a2d-9ff5-41f1-aeaf-9a490d83164b","ios":"levelo://app?vid=771f1a2d-9ff5-41f1-aeaf-9a490d83164b"},"vehicle_type_id":"4","last_reported":1747472995,"current_range_meters":16800,"station_id":"ce4bhb12rcd13ifvqel0","pricing_plan_id":"cebpf4jnsgd1na2vs0mg"},{"bike_id":"02770c2d-c0b9-42a5-a6d5-2613c6e8a390","system_id":"levelo_inurba_marseille","lat":43.26215,"lon":5.37464,"is_reserved":false,"is_disabled":false,"rental_uris":{"android":"levelo://app?vid=02770c2d-c0b9-42a5-a6d5-2613c6e8a390","ios":"levelo://app?vid=02770c2d-c0b9-42a5-a6d5-2613c6e8a390"},"vehicle_type_id":"4","last_reported":1747472995,"current_range_meters":16800,"station_id":"ce4bhgp2rcd13ifvqfc0","pricing_plan_id":"cebpf4jnsgd1na2vs0mg"},{"bike_id":"b1d81adc-a2eb-40ee-a6a7-df976c6b6f9b","system_id":"levelo_inurba_marseille","lat":43.29799,"lon":5.40402,"is_reserved":false,"is_disabled":false,"rental_uris":{"android":"levelo://app?vid=b1d81adc-a2eb-40ee-a6a7-df976c6b6f9b","ios":"levelo://app?vid=b1d81adc-a2eb-40ee-a6a7-df976c6b6f9b"},"vehicle_type_id":"4","last_reported":1747472995,"current_range_meters":17200,"station_id":"ce4bh112rcd13ifvqd90","pricing_plan_id":"cebpf4jnsgd1na2vs0mg"},{"bike_id":"27dcaad1-354b-4a47-9573-fb2e8a1c722a","system_id":"levelo_inurba_marseille","lat":43.24799,"lon":5.37454,"is_reserved":false,"is_disabled":false,"rental_uris":{"android":"levelo://app?vid=27dcaad1-354b-4a47-9573-fb2e8a1c722a","ios":"levelo://app?vid=27dcaad1-354b-4a47-9573-fb2e8a1c722a"},"vehicle_type_id":"4","last_reported":1747472995,"current_range_meters":17200,"station_id":"ce4bhgh2rcd13ifvqfb0","pricing_plan_id":"cebpf4jnsgd1na2vs0mg"},{"bike_id":"e3ccfdf2-8984-4f17-a6ad-0d3351116e1d","system_id":"levelo_inurba_marseille","lat":43.2621,"lon":5.37922,"is_reserved":false,"is_disabled":false,"rental_uris":{"android":"levelo://app?vid=e3ccfdf2-8984-4f17-a6ad-0d3351116e1d","ios":"levelo://app?vid=e3ccfdf2-8984-4f17-a6ad-0d3351116e1d"},"vehicle_type_id":"4","last_reported":1747472995,"current_range_meters":17200,"station_id":"ce4bhjp2rcd13ifvqg90","pricing_plan_id":"cebpf4jnsgd1na2vs0mg"},{"bike_id":"a88ec2a1-463f-4ac0-96eb-b2d23da6925e","system_id":"levelo_inurba_marseille","lat":43.245439,"lon":5.395274,"is_reserved":false,"is_disabled":false,"rental_uris":{"android":"levelo://app?vid=a88ec2a1-463f-4ac0-96eb-b2d23da6925e","ios":"levelo://app?vid=a88ec2a1-463f-4ac0-96eb-b2d23da6925e"},"vehicle_type_id":"4","last_reported":1747472995,"current_range_meters":17200,"station_id":"ce4bhlp2rcd13ifvqgjg","pricing_plan_id":"cebpf4jnsgd1na2vs0mg"},{"bike_id":"edd12218-8475-4e8d-b63e-0814f4946c70","system_id":"levelo_inurba_marseille","lat":43.3234,"lon":5.40614,"is_reserved":false,"is_disabled":false,"rental_uris":{"android":"levelo://app?vid=edd12218-8475-4e8d-b63e-0814f4946c70","ios":"levelo://app?vid=edd12218-8475-4e8d-b63e-0814f4946c70"},"vehicle_type_id":"4","last_reported":1747472995,"current_range_meters":17200,"station_id":"ce4bhq92rcd13ifvqhjg","pricing_plan_id":"cebpf4jnsgd1na2vs0mg"},{"bike_id":"b26a0dd7-cbdc-4ab7-8def-31c4b88b224a","system_id":"levelo_inurba_marseille","lat":43.31215,"lon":5.39253,"is_reserved":false,"is_disabled":false,"rental_uris":{"android":"levelo://app?vid=b26a0dd7-cbdc-4ab7-8def-31c4b88b224a","ios":"levelo://app?vid=b26a0dd7-cbdc-4ab7-8def-31c4b88b224a"},"vehicle_type_id":"4","last_reported":1747472995,"current_range_meters":17600,"station_id":"","pricing_plan_id":"cebpf4jnsgd1na2vs0mg"},{"bike_id":"5e6b40b8-d296-4bf0-afc5-64afa04a82e7","system_id":"levelo_inurba_marseille","lat":43.30969,"lon":5.40469,"is_reserved":false,"is_disabled":false,"rental_uris":{"android":"levelo://app?vid=5e6b40b8-d296-4bf0-afc5-64afa04a82e7","ios":"levelo://app?vid=5e6b40b8-d296-4bf0-afc5-64afa04a82e7"},"vehicle_type_id":"4","last_reported":1747472995,"current_range_meters":17600,"station_id":"","pricing_plan_id":"cebpf4jnsgd1na2vs0mg"},{"bike_id":"8e5bfa30-dd95-4cad-a761-99c567ef1643","system_id":"levelo_inurba_marseille","lat":43.30442,"lon":5.38901,"is_reserved":false,"is_disabled":false,"rental_uris":{"android":"levelo://app?vid=8e5bfa30-dd95-4cad-a761-99c567ef1643","ios":"levelo://app?vid=8e5bfa30-dd95-4cad-a761-99c567ef1643"},"vehicle_type_id":"4","last_reported":1747472995,"current_range_meters":17600,"station_id":"ce4bgk12rcd13ifvqbi0","pricing_plan_id":"cebpf4jnsgd1na2vs0mg"},{"bike_id":"f65d2de7-24be-4aa8-9417-2f1a26030031","system_id":"levelo_inurba_marseille","lat":43.251158,"lon":5.403233,"is_reserved":false,"is_disabled":false,"rental_uris":{"android":"levelo://app?vid=f65d2de7-24be-4aa8-9417-2f1a26030031","ios":"levelo://app?vid=f65d2de7-24be-4aa8-9417-2f1a26030031"},"vehicle_type_id":"4","last_reported":1747472995,"current_range_meters":17600,"station_id":"ce4bh0h2rcd13ifvqd60","pricing_plan_id":"cebpf4jnsgd1na2vs0mg"},{"bike_id":"c04afadd-262f-4e6d-97cb-ae17104f887e","system_id":"levelo_inurba_marseille","lat":43.29006,"lon":5.35619,"is_reserved":false,"is_disabled":false,"rental_uris":{"android":"levelo://app?vid=c04afadd-262f-4e6d-97cb-ae17104f887e","ios":"levelo://app?vid=c04afadd-262f-4e6d-97cb-ae17104f887e"},"vehicle_type_id":"4","last_reported":1747472995,"current_range_meters":17600,"station_id":"ce4bhb92rcd13ifvqen0","pricing_plan_id":"cebpf4jnsgd1na2vs0mg"},{"bike_id":"699d068d-8fbb-40ec-9df0-b007af55d5b2","system_id":"levelo_inurba_marseille","lat":43.32353,"lon":5.40603,"is_reserved":false,"is_disabled":false,"rental_uris":{"android":"levelo://app?vid=699d068d-8fbb-40ec-9df0-b007af55d5b2","ios":"levelo://app?vid=699d068d-8fbb-40ec-9df0-b007af55d5b2"},"vehicle_type_id":"4","last_reported":1747472995,"current_range_meters":17600,"station_id":"ce4bhq92rcd13ifvqhjg","pricing_plan_id":"cebpf4jnsgd1na2vs0mg"},{"bike_id":"bfaaeb49-6f81-4645-9ade-93ad3805f16c","system_id":"levelo_inurba_marseille","lat":43.33714,"lon":5.39193,"is_reserved":false,"is_disabled":false,"rental_uris":{"android":"levelo://app?vid=bfaaeb49-6f81-4645-9ade-93ad3805f16c","ios":"levelo://app?vid=bfaaeb49-6f81-4645-9ade-93ad3805f16c"},"vehicle_type_id":"4","last_reported":1747472995,"current_range_meters":17600,"station_id":"ce4bhr92rcd13ifvqhsg","pricing_plan_id":"cebpf4jnsgd1na2vs0mg"},{"bike_id":"5593c7f2-36a3-497f-99da-64fa53a52ee8","system_id":"levelo_inurba_marseille","lat":43.2811,"lon":5.37806,"is_reserved":false,"is_disabled":false,"rental_uris":{"android":"levelo://app?vid=5593c7f2-36a3-497f-99da-64fa53a52ee8","ios":"levelo://app?vid=5593c7f2-36a3-497f-99da-64fa53a52ee8"},"vehicle_type_id":"4","last_reported":1747472995,"current_range_meters":18000,"station_id":"ce4bha12rcd13ifvqee0","pricing_plan_id":"cebpf4jnsgd1na2vs0mg"},{"bike_id":"03f7a965-835e-494e-8937-e44dbdd95b89","system_id":"levelo_inurba_marseille","lat":43.29005,"lon":5.35616,"is_reserved":false,"is_disabled":false,"rental_uris":{"android":"levelo://app?vid=03f7a965-835e-494e-8937-e44dbdd95b89","ios":"levelo://app?vid=03f7a965-835e-494e-8937-e44dbdd95b89"},"vehicle_type_id":"4","last_reported":1747472995,"current_range_meters":18000,"station_id":"ce4bhb92rcd13ifvqen0","pricing_plan_id":"cebpf4jnsgd1na2vs0mg"},{"bike_id":"a6834c38-b640-4741-8cca-d1781922d284","system_id":"levelo_inurba_marseille","lat":43.2927,"lon":5.36852,"is_reserved":false,"is_disabled":false,"rental_uris":{"android":"levelo://app?vid=a6834c38-b640-4741-8cca-d1781922d284","ios":"levelo://app?vid=a6834c38-b640-4741-8cca-d1781922d284"},"vehicle_type_id":"4","last_reported":1747472995,"current_range_meters":18000,"station_id":"ce4bhbp2rcd13ifvqesg","pricing_plan_id":"cebpf4jnsgd1na2vs0mg"},{"bike_id":"db58cf51-02b8-4a92-b828-0106c3bcbff6","system_id":"levelo_inurba_marseille","lat":43.25006,"lon":5.38939,"is_reserved":false,"is_disabled":false,"rental_uris":{"android":"levelo://app?vid=db58cf51-02b8-4a92-b828-0106c3bcbff6","ios":"levelo://app?vid=db58cf51-02b8-4a92-b828-0106c3bcbff6"},"vehicle_type_id":"4","last_reported":1747472995,"current_range_meters":18000,"station_id":"ce4bhgp2rcd13ifvqfd0","pricing_plan_id":"cebpf4jnsgd1na2vs0mg"},{"bike_id":"b72a2798-6948-47f3-9812-fde3070ba8d5","system_id":"levelo_inurba_marseille","lat":43.299224,"lon":5.374689,"is_reserved":false,"is_disabled":false,"rental_uris":{"android":"levelo://app?vid=b72a2798-6948-47f3-9812-fde3070ba8d5","ios":"levelo://app?vid=b72a2798-6948-47f3-9812-fde3070ba8d5"},"vehicle_type_id":"4","last_reported":1747472995,"current_range_meters":18800,"station_id":"ce4bgjh2rcd13ifvqbg0","pricing_plan_id":"cebpf4jnsgd1na2vs0mg"},{"bike_id":"d528bde6-77b1-4f3d-8fc0-769d0f7a8f8f","system_id":"levelo_inurba_marseille","lat":43.28409,"lon":5.34997,"is_reserved":false,"is_disabled":false,"rental_uris":{"android":"levelo://app?vid=d528bde6-77b1-4f3d-8fc0-769d0f7a8f8f","ios":"levelo://app?vid=d528bde6-77b1-4f3d-8fc0-769d0f7a8f8f"},"vehicle_type_id":"4","last_reported":1747472995,"current_range_meters":18800,"station_id":"ce4bhbh2rcd13ifvqepg","pricing_plan_id":"cebpf4jnsgd1na2vs0mg"},{"bike_id":"2cc004ad-3e7a-40e0-9bcf-8bc715405563","system_id":"levelo_inurba_marseille","lat":43.28618,"lon":5.35096,"is_reserved":false,"is_disabled":false,"rental_uris":{"android":"levelo://app?vid=2cc004ad-3e7a-40e0-9bcf-8bc715405563","ios":"levelo://app?vid=2cc004ad-3e7a-40e0-9bcf-8bc715405563"},"vehicle_type_id":"4","last_reported":1747472995,"current_range_meters":18800,"station_id":"ce4bhch2rcd13ifvqeug","pricing_plan_id":"cebpf4jnsgd1na2vs0mg"},{"bike_id":"fcaeefda-0dda-417a-bcc1-0a4dbdcf45c9","system_id":"levelo_inurba_marseille","lat":43.27074,"lon":5.42285,"is_reserved":false,"is_disabled":false,"rental_uris":{"android":"levelo://app?vid=fcaeefda-0dda-417a-bcc1-0a4dbdcf45c9","ios":"levelo://app?vid=fcaeefda-0dda-417a-bcc1-0a4dbdcf45c9"},"vehicle_type_id":"4","last_reported":1747472995,"current_range_meters":18800,"station_id":"ce4bhk92rcd13ifvqgb0","pricing_plan_id":"cebpf4jnsgd1na2vs0mg"},{"bike_id":"e1291dda-99b5-4759-85d1-03c344292341","system_id":"levelo_inurba_marseille","lat":43.3177,"lon":5.3901,"is_reserved":false,"is_disabled":false,"rental_uris":{"android":"levelo://app?vid=e1291dda-99b5-4759-85d1-03c344292341","ios":"levelo://app?vid=e1291dda-99b5-4759-85d1-03c344292341"},"vehicle_type_id":"4","last_reported":1747472995,"current_range_meters":18800,"station_id":"ce4bhqp2rcd13ifvqhng","pricing_plan_id":"cebpf4jnsgd1na2vs0mg"},{"bike_id":"f30a9611-cada-44fd-b78d-eb49cd053e3f","system_id":"levelo_inurba_marseille","lat":43.31725,"lon":5.404,"is_reserved":false,"is_disabled":false,"rental_uris":{"android":"levelo://app?vid=f30a9611-cada-44fd-b78d-eb49cd053e3f","ios":"levelo://app?vid=f30a9611-cada-44fd-b78d-eb49cd053e3f"},"vehicle_type_id":"4","last_reported":1747472995,"current_range_meters":19200,"station_id":"ce4bh012rcd13ifvqd00","pricing_plan_id":"cebpf4jnsgd1na2vs0mg"},{"bike_id":"3d81cca0-d8cd-46cd-97b3-fbc4140b8ece","system_id":"levelo_inurba_marseille","lat":43.25109,"lon":5.40323,"is_reserved":false,"is_disabled":false,"rental_uris":{"android":"levelo://app?vid=3d81cca0-d8cd-46cd-97b3-fbc4140b8ece","ios":"levelo://app?vid=3d81cca0-d8cd-46cd-97b3-fbc4140b8ece"},"vehicle_type_id":"4","last_reported":1747472995,"current_range_meters":19200,"station_id":"ce4bhlh2rcd13ifvqgig","pricing_plan_id":"cebpf4jnsgd1na2vs0mg"},{"bike_id":"ebefafa4-e016-4a1e-933a-e10874df5a61","system_id":"levelo_inurba_marseille","lat":43.292241,"lon":5.360582,"is_reserved":false,"is_disabled":false,"rental_uris":{"android":"levelo://app?vid=ebefafa4-e016-4a1e-933a-e10874df5a61","ios":"levelo://app?vid=ebefafa4-e016-4a1e-933a-e10874df5a61"},"vehicle_type_id":"4","last_reported":1747472995,"current_range_meters":19600,"station_id":"","pricing_plan_id":"cebpf4jnsgd1na2vs0mg"},{"bike_id":"53f2f235-9fc1-4337-9315-cd5a3910fa60","system_id":"levelo_inurba_marseille","lat":43.31322,"lon":5.39706,"is_reserved":false,"is_disabled":false,"rental_uris":{"android":"levelo://app?vid=53f2f235-9fc1-4337-9315-cd5a3910fa60","ios":"levelo://app?vid=53f2f235-9fc1-4337-9315-cd5a3910fa60"},"vehicle_type_id":"4","last_reported":1747472995,"current_range_meters":19600,"station_id":"ce4bgvp2rcd13ifvqcu0","pricing_plan_id":"cebpf4jnsgd1na2vs0mg"},{"bike_id":"a0e9d505-cf02-46ac-8830-1ac6326a531c","system_id":"levelo_inurba_marseille","lat":43.286967,"lon":5.399893,"is_reserved":false,"is_disabled":false,"rental_uris":{"android":"levelo://app?vid=a0e9d505-cf02-46ac-8830-1ac6326a531c","ios":"levelo://app?vid=a0e9d505-cf02-46ac-8830-1ac6326a531c"},"vehicle_type_id":"4","last_reported":1747472995,"current_range_meters":19600,"station_id":"ce4bho92rcd13ifvqh3g","pricing_plan_id":"cebpf4jnsgd1na2vs0mg"},{"bike_id":"f95f6b13-fb6b-4918-aa29-c70dce4e737e","system_id":"levelo_inurba_marseille","lat":43.323371,"lon":5.406221,"is_reserved":false,"is_disabled":false,"rental_uris":{"android":"levelo://app?vid=f95f6b13-fb6b-4918-aa29-c70dce4e737e","ios":"levelo://app?vid=f95f6b13-fb6b-4918-aa29-c70dce4e737e"},"vehicle_type_id":"4","last_reported":1747472995,"current_range_meters":19600,"station_id":"ce4bhq92rcd13ifvqhjg","pricing_plan_id":"cebpf4jnsgd1na2vs0mg"},{"bike_id":"90014d97-06db-4bc1-ab3f-97e958703dbb","system_id":"levelo_inurba_marseille","lat":43.31706,"lon":5.40456,"is_reserved":false,"is_disabled":false,"rental_uris":{"android":"levelo://app?vid=90014d97-06db-4bc1-ab3f-97e958703dbb","ios":"levelo://app?vid=90014d97-06db-4bc1-ab3f-97e958703dbb"},"vehicle_type_id":"4","last_reported":1747472995,"current_range_meters":20000,"station_id":"ce4bh012rcd13ifvqd00","pricing_plan_id":"cebpf4jnsgd1na2vs0mg"},{"bike_id":"6deafa50-890f-463e-a628-8368a315b5ef","system_id":"levelo_inurba_marseille","lat":43.26552,"lon":5.37285,"is_reserved":false,"is_disabled":false,"rental_uris":{"android":"levelo://app?vid=6deafa50-890f-463e-a628-8368a315b5ef","ios":"levelo://app?vid=6deafa50-890f-463e-a628-8368a315b5ef"},"vehicle_type_id":"4","last_reported":1747472995,"current_range_meters":20000,"station_id":"ce4bhg12rcd13ifvqf70","pricing_plan_id":"cebpf4jnsgd1na2vs0mg"},{"bike_id":"ea2d3dd8-83ee-4dd0-b709-3f2a8dd2f74d","system_id":"levelo_inurba_marseille","lat":43.217592,"lon":5.345977,"is_reserved":false,"is_disabled":false,"rental_uris":{"android":"levelo://app?vid=ea2d3dd8-83ee-4dd0-b709-3f2a8dd2f74d","ios":"levelo://app?vid=ea2d3dd8-83ee-4dd0-b709-3f2a8dd2f74d"},"vehicle_type_id":"4","last_reported":1747472995,"current_range_meters":20000,"station_id":"st_cvj6r9ubvosntc0bgbag","pricing_plan_id":"cebpf4jnsgd1na2vs0mg"},{"bike_id":"19456222-7d38-48cf-a950-06daadd07927","system_id":"levelo_inurba_marseille","lat":43.25021,"lon":5.37542,"is_reserved":false,"is_disabled":false,"rental_uris":{"android":"levelo://app?vid=19456222-7d38-48cf-a950-06daadd07927","ios":"levelo://app?vid=19456222-7d38-48cf-a950-06daadd07927"},"vehicle_type_id":"4","last_reported":1747472995,"current_range_meters":20400,"station_id":"","pricing_plan_id":"cebpf4jnsgd1na2vs0mg"},{"bike_id":"3cde89da-d35b-4254-bb4d-cf38f6533889","system_id":"levelo_inurba_marseille","lat":43.26209,"lon":5.37442,"is_reserved":false,"is_disabled":false,"rental_uris":{"android":"levelo://app?vid=3cde89da-d35b-4254-bb4d-cf38f6533889","ios":"levelo://app?vid=3cde89da-d35b-4254-bb4d-cf38f6533889"},"vehicle_type_id":"4","last_reported":1747472995,"current_range_meters":20400,"station_id":"ce4bhgp2rcd13ifvqfc0","pricing_plan_id":"cebpf4jnsgd1na2vs0mg"},{"bike_id":"853ed374-60d5-4054-9312-5a029e078d6f","system_id":"levelo_inurba_marseille","lat":43.24383,"lon":5.37069,"is_reserved":false,"is_disabled":false,"rental_uris":{"android":"levelo://app?vid=853ed374-60d5-4054-9312-5a029e078d6f","ios":"levelo://app?vid=853ed374-60d5-4054-9312-5a029e078d6f"},"vehicle_type_id":"4","last_reported":1747472995,"current_range_meters":20400,"station_id":"ce4bhhh2rcd13ifvqfk0","pricing_plan_id":"cebpf4jnsgd1na2vs0mg"},{"bike_id":"0bbae27d-252b-4ebb-871e-0cea87aa3c08","system_id":"levelo_inurba_marseille","lat":43.30796,"lon":5.43529,"is_reserved":false,"is_disabled":false,"rental_uris":{"android":"levelo://app?vid=0bbae27d-252b-4ebb-871e-0cea87aa3c08","ios":"levelo://app?vid=0bbae27d-252b-4ebb-871e-0cea87aa3c08"},"vehicle_type_id":"4","last_reported":1747472995,"current_range_meters":20400,"station_id":"ce4bhph2rcd13ifvqheg","pricing_plan_id":"cebpf4jnsgd1na2vs0mg"},{"bike_id":"2afaca15-0485-427d-8585-df19badd207b","system_id":"levelo_inurba_marseille","lat":43.22499,"lon":5.34797,"is_reserved":false,"is_disabled":false,"rental_uris":{"android":"levelo://app?vid=2afaca15-0485-427d-8585-df19badd207b","ios":"levelo://app?vid=2afaca15-0485-427d-8585-df19badd207b"},"vehicle_type_id":"4","last_reported":1747472995,"current_range_meters":20400,"station_id":"st_cvj5dfep6f1abm77gieg","pricing_plan_id":"cebpf4jnsgd1na2vs0mg"},{"bike_id":"a79754ca-40d1-4370-bc0f-d34509aa8827","system_id":"levelo_inurba_marseille","lat":43.31681,"lon":5.37534,"is_reserved":false,"is_disabled":false,"rental_uris":{"android":"levelo://app?vid=a79754ca-40d1-4370-bc0f-d34509aa8827","ios":"levelo://app?vid=a79754ca-40d1-4370-bc0f-d34509aa8827"},"vehicle_type_id":"4","last_reported":1747472995,"current_range_meters":20800,"station_id":"","pricing_plan_id":"cebpf4jnsgd1na2vs0mg"},{"bike_id":"86603db7-b462-4e72-8622-a2dee8bb2920","system_id":"levelo_inurba_marseille","lat":43.337444,"lon":5.374475,"is_reserved":false,"is_disabled":false,"rental_uris":{"android":"levelo://app?vid=86603db7-b462-4e72-8622-a2dee8bb2920","ios":"levelo://app?vid=86603db7-b462-4e72-8622-a2dee8bb2920"},"vehicle_type_id":"4","last_reported":1747472995,"current_range_meters":20800,"station_id":"","pricing_plan_id":"cebpf4jnsgd1na2vs0mg"},{"bike_id":"76df6283-872b-4dbe-86bb-00091fbdc439","system_id":"levelo_inurba_marseille","lat":43.30165,"lon":5.38091,"is_reserved":false,"is_disabled":false,"rental_uris":{"android":"levelo://app?vid=76df6283-872b-4dbe-86bb-00091fbdc439","ios":"levelo://app?vid=76df6283-872b-4dbe-86bb-00091fbdc439"},"vehicle_type_id":"4","last_reported":1747472995,"current_range_meters":20800,"station_id":"ce4bgjp2rcd13ifvqbh0","pricing_plan_id":"cebpf4jnsgd1na2vs0mg"},{"bike_id":"b5821378-e436-4c7d-8bb6-705eb30f3c46","system_id":"levelo_inurba_marseille","lat":43.28486,"lon":5.38589,"is_reserved":false,"is_disabled":false,"rental_uris":{"android":"levelo://app?vid=b5821378-e436-4c7d-8bb6-705eb30f3c46","ios":"levelo://app?vid=b5821378-e436-4c7d-8bb6-705eb30f3c46"},"vehicle_type_id":"4","last_reported":1747472995,"current_range_meters":20800,"station_id":"ce4bh8p2rcd13ifvqeb0","pricing_plan_id":"cebpf4jnsgd1na2vs0mg"},{"bike_id":"c296de55-6f4c-42d3-8913-db989e535d3d","system_id":"levelo_inurba_marseille","lat":43.28272,"lon":5.35069,"is_reserved":false,"is_disabled":false,"rental_uris":{"android":"levelo://app?vid=c296de55-6f4c-42d3-8913-db989e535d3d","ios":"levelo://app?vid=c296de55-6f4c-42d3-8913-db989e535d3d"},"vehicle_type_id":"4","last_reported":1747472995,"current_range_meters":20800,"station_id":"ce4bhbp2rcd13ifvqerg","pricing_plan_id":"cebpf4jnsgd1na2vs0mg"},{"bike_id":"ba862878-1d6f-4312-bb9d-0f00ec7d513a","system_id":"levelo_inurba_marseille","lat":43.28615,"lon":5.35115,"is_reserved":false,"is_disabled":false,"rental_uris":{"android":"levelo://app?vid=ba862878-1d6f-4312-bb9d-0f00ec7d513a","ios":"levelo://app?vid=ba862878-1d6f-4312-bb9d-0f00ec7d513a"},"vehicle_type_id":"4","last_reported":1747472995,"current_range_meters":20800,"station_id":"ce4bhch2rcd13ifvqeug","pricing_plan_id":"cebpf4jnsgd1na2vs0mg"},{"bike_id":"22249aa8-0b9a-4b19-9307-e50d75cc0032","system_id":"levelo_inurba_marseille","lat":43.26555,"lon":5.37287,"is_reserved":false,"is_disabled":false,"rental_uris":{"android":"levelo://app?vid=22249aa8-0b9a-4b19-9307-e50d75cc0032","ios":"levelo://app?vid=22249aa8-0b9a-4b19-9307-e50d75cc0032"},"vehicle_type_id":"4","last_reported":1747472995,"current_range_meters":20800,"station_id":"ce4bhg12rcd13ifvqf70","pricing_plan_id":"cebpf4jnsgd1na2vs0mg"},{"bike_id":"2935325f-1f73-4bba-b4aa-ecb008e2ef24","system_id":"levelo_inurba_marseille","lat":43.23059,"lon":5.35493,"is_reserved":false,"is_disabled":false,"rental_uris":{"android":"levelo://app?vid=2935325f-1f73-4bba-b4aa-ecb008e2ef24","ios":"levelo://app?vid=2935325f-1f73-4bba-b4aa-ecb008e2ef24"},"vehicle_type_id":"4","last_reported":1747472995,"current_range_meters":20800,"station_id":"cpo3342slgdg3j2ifvpg","pricing_plan_id":"cebpf4jnsgd1na2vs0mg"},{"bike_id":"8663c425-1f6b-4bf5-80b9-577de7a4898f","system_id":"levelo_inurba_marseille","lat":43.21192,"lon":5.3507,"is_reserved":false,"is_disabled":false,"rental_uris":{"android":"levelo://app?vid=8663c425-1f6b-4bf5-80b9-577de7a4898f","ios":"levelo://app?vid=8663c425-1f6b-4bf5-80b9-577de7a4898f"},"vehicle_type_id":"4","last_reported":1747472995,"current_range_meters":20800,"station_id":"st_cvj6sg6p6f1abm77japg","pricing_plan_id":"cebpf4jnsgd1na2vs0mg"},{"bike_id":"b983ce73-d35f-43d5-897d-9eab47c385d0","system_id":"levelo_inurba_marseille","lat":43.29789,"lon":5.37103,"is_reserved":false,"is_disabled":false,"rental_uris":{"android":"levelo://app?vid=b983ce73-d35f-43d5-897d-9eab47c385d0","ios":"levelo://app?vid=b983ce73-d35f-43d5-897d-9eab47c385d0"},"vehicle_type_id":"4","last_reported":1747472995,"current_range_meters":21600,"station_id":"ce4bgop2rcd13ifvqc1g","pricing_plan_id":"cebpf4jnsgd1na2vs0mg"},{"bike_id":"2fa77ab1-0da5-49a3-ae7e-1abe83dfa57e","system_id":"levelo_inurba_marseille","lat":43.25577,"lon":5.38233,"is_reserved":false,"is_disabled":false,"rental_uris":{"android":"levelo://app?vid=2fa77ab1-0da5-49a3-ae7e-1abe83dfa57e","ios":"levelo://app?vid=2fa77ab1-0da5-49a3-ae7e-1abe83dfa57e"},"vehicle_type_id":"4","last_reported":1747472995,"current_range_meters":21600,"station_id":"ce4bhih2rcd13ifvqfs0","pricing_plan_id":"cebpf4jnsgd1na2vs0mg"},{"bike_id":"92cb7fde-9a83-4916-8ff8-6ff81b8b7a92","system_id":"levelo_inurba_marseille","lat":43.3016,"lon":5.38078,"is_reserved":false,"is_disabled":false,"rental_uris":{"android":"levelo://app?vid=92cb7fde-9a83-4916-8ff8-6ff81b8b7a92","ios":"levelo://app?vid=92cb7fde-9a83-4916-8ff8-6ff81b8b7a92"},"vehicle_type_id":"4","last_reported":1747472995,"current_range_meters":22000,"station_id":"ce4bgjp2rcd13ifvqbh0","pricing_plan_id":"cebpf4jnsgd1na2vs0mg"},{"bike_id":"dcb990e5-aaae-4990-9504-e612749c67a5","system_id":"levelo_inurba_marseille","lat":43.29002,"lon":5.35609,"is_reserved":false,"is_disabled":false,"rental_uris":{"android":"levelo://app?vid=dcb990e5-aaae-4990-9504-e612749c67a5","ios":"levelo://app?vid=dcb990e5-aaae-4990-9504-e612749c67a5"},"vehicle_type_id":"4","last_reported":1747472995,"current_range_meters":22000,"station_id":"ce4bhb92rcd13ifvqen0","pricing_plan_id":"cebpf4jnsgd1na2vs0mg"},{"bike_id":"654b2327-8789-46c8-86a2-5e96c7b7d306","system_id":"levelo_inurba_marseille","lat":43.27373,"lon":5.36258,"is_reserved":false,"is_disabled":false,"rental_uris":{"android":"levelo://app?vid=654b2327-8789-46c8-86a2-5e96c7b7d306","ios":"levelo://app?vid=654b2327-8789-46c8-86a2-5e96c7b7d306"},"vehicle_type_id":"4","last_reported":1747472995,"current_range_meters":22000,"station_id":"ce4bhbh2rcd13ifvqeo0","pricing_plan_id":"cebpf4jnsgd1na2vs0mg"},{"bike_id":"72948de8-b058-4d51-ae67-0f9bf6899795","system_id":"levelo_inurba_marseille","lat":43.28263,"lon":5.35073,"is_reserved":false,"is_disabled":false,"rental_uris":{"android":"levelo://app?vid=72948de8-b058-4d51-ae67-0f9bf6899795","ios":"levelo://app?vid=72948de8-b058-4d51-ae67-0f9bf6899795"},"vehicle_type_id":"4","last_reported":1747472995,"current_range_meters":22000,"station_id":"ce4bhbp2rcd13ifvqerg","pricing_plan_id":"cebpf4jnsgd1na2vs0mg"},{"bike_id":"07d08ebb-ab3b-4b28-a29e-f4bb2b87678a","system_id":"levelo_inurba_marseille","lat":43.26778,"lon":5.39419,"is_reserved":false,"is_disabled":false,"rental_uris":{"android":"levelo://app?vid=07d08ebb-ab3b-4b28-a29e-f4bb2b87678a","ios":"levelo://app?vid=07d08ebb-ab3b-4b28-a29e-f4bb2b87678a"},"vehicle_type_id":"4","last_reported":1747472995,"current_range_meters":22000,"station_id":"ce4bhh12rcd13ifvqfg0","pricing_plan_id":"cebpf4jnsgd1na2vs0mg"},{"bike_id":"dc98d87c-d426-4760-a0c9-433da32a5d9a","system_id":"levelo_inurba_marseille","lat":43.24176,"lon":5.39707,"is_reserved":false,"is_disabled":false,"rental_uris":{"android":"levelo://app?vid=dc98d87c-d426-4760-a0c9-433da32a5d9a","ios":"levelo://app?vid=dc98d87c-d426-4760-a0c9-433da32a5d9a"},"vehicle_type_id":"4","last_reported":1747472995,"current_range_meters":22000,"station_id":"ce4bhn12rcd13ifvqgpg","pricing_plan_id":"cebpf4jnsgd1na2vs0mg"},{"bike_id":"ed34fad4-c48e-4c1a-b9b1-8eb1cd77d573","system_id":"levelo_inurba_marseille","lat":43.30944,"lon":5.38646,"is_reserved":false,"is_disabled":false,"rental_uris":{"android":"levelo://app?vid=ed34fad4-c48e-4c1a-b9b1-8eb1cd77d573","ios":"levelo://app?vid=ed34fad4-c48e-4c1a-b9b1-8eb1cd77d573"},"vehicle_type_id":"4","last_reported":1747472995,"current_range_meters":22000,"station_id":"ce4bhqh2rcd13ifvqhmg","pricing_plan_id":"cebpf4jnsgd1na2vs0mg"},{"bike_id":"fa6f5703-9919-4807-8b55-5837878e2480","system_id":"levelo_inurba_marseille","lat":43.21181,"lon":5.350837,"is_reserved":false,"is_disabled":false,"rental_uris":{"android":"levelo://app?vid=fa6f5703-9919-4807-8b55-5837878e2480","ios":"levelo://app?vid=fa6f5703-9919-4807-8b55-5837878e2480"},"vehicle_type_id":"4","last_reported":1747472995,"current_range_meters":22000,"station_id":"st_cvj6sg6p6f1abm77japg","pricing_plan_id":"cebpf4jnsgd1na2vs0mg"},{"bike_id":"f3bfb993-c944-4c5b-aed0-b120e3ae23bf","system_id":"levelo_inurba_marseille","lat":43.29787,"lon":5.37103,"is_reserved":false,"is_disabled":false,"rental_uris":{"android":"levelo://app?vid=f3bfb993-c944-4c5b-aed0-b120e3ae23bf","ios":"levelo://app?vid=f3bfb993-c944-4c5b-aed0-b120e3ae23bf"},"vehicle_type_id":"4","last_reported":1747472995,"current_range_meters":22400,"station_id":"ce4bgop2rcd13ifvqc1g","pricing_plan_id":"cebpf4jnsgd1na2vs0mg"},{"bike_id":"eeba79b8-1813-484e-b68c-4c7a8dea3f27","system_id":"levelo_inurba_marseille","lat":43.29952,"lon":5.37165,"is_reserved":false,"is_disabled":false,"rental_uris":{"android":"levelo://app?vid=eeba79b8-1813-484e-b68c-4c7a8dea3f27","ios":"levelo://app?vid=eeba79b8-1813-484e-b68c-4c7a8dea3f27"},"vehicle_type_id":"4","last_reported":1747472995,"current_range_meters":22400,"station_id":"ce4bgr92rcd13ifvqc7g","pricing_plan_id":"cebpf4jnsgd1na2vs0mg"},{"bike_id":"c3055e28-dbbe-45a2-a995-0e64eede785c","system_id":"levelo_inurba_marseille","lat":43.290324,"lon":5.35923,"is_reserved":false,"is_disabled":false,"rental_uris":{"android":"levelo://app?vid=c3055e28-dbbe-45a2-a995-0e64eede785c","ios":"levelo://app?vid=c3055e28-dbbe-45a2-a995-0e64eede785c"},"vehicle_type_id":"4","last_reported":1747472995,"current_range_meters":22400,"station_id":"ce4bha92rcd13ifvqeg0","pricing_plan_id":"cebpf4jnsgd1na2vs0mg"},{"bike_id":"a5dc45f6-28b3-4a15-a9b4-bf841cf8abf6","system_id":"levelo_inurba_marseille","lat":43.31717,"lon":5.42398,"is_reserved":false,"is_disabled":false,"rental_uris":{"android":"levelo://app?vid=a5dc45f6-28b3-4a15-a9b4-bf841cf8abf6","ios":"levelo://app?vid=a5dc45f6-28b3-4a15-a9b4-bf841cf8abf6"},"vehicle_type_id":"4","last_reported":1747472995,"current_range_meters":22400,"station_id":"ce4bhp92rcd13ifvqhbg","pricing_plan_id":"cebpf4jnsgd1na2vs0mg"},{"bike_id":"0b70a673-0e57-4b98-b294-273ada3db241","system_id":"levelo_inurba_marseille","lat":43.23198,"lon":5.35555,"is_reserved":false,"is_disabled":false,"rental_uris":{"android":"levelo://app?vid=0b70a673-0e57-4b98-b294-273ada3db241","ios":"levelo://app?vid=0b70a673-0e57-4b98-b294-273ada3db241"},"vehicle_type_id":"4","last_reported":1747472995,"current_range_meters":22400,"station_id":"ce4bhu92rcd13ifvqi70","pricing_plan_id":"cebpf4jnsgd1na2vs0mg"},{"bike_id":"d9d55df6-0e02-4701-8acb-d00b6ea14931","system_id":"levelo_inurba_marseille","lat":43.29551,"lon":5.37502,"is_reserved":false,"is_disabled":false,"rental_uris":{"android":"levelo://app?vid=d9d55df6-0e02-4701-8acb-d00b6ea14931","ios":"levelo://app?vid=d9d55df6-0e02-4701-8acb-d00b6ea14931"},"vehicle_type_id":"4","last_reported":1747472995,"current_range_meters":22800,"station_id":"ce4bgkp2rcd13ifvqbmg","pricing_plan_id":"cebpf4jnsgd1na2vs0mg"},{"bike_id":"bd16ba6d-296b-4332-a35e-68e22592fbc3","system_id":"levelo_inurba_marseille","lat":43.30905,"lon":5.36839,"is_reserved":false,"is_disabled":false,"rental_uris":{"android":"levelo://app?vid=bd16ba6d-296b-4332-a35e-68e22592fbc3","ios":"levelo://app?vid=bd16ba6d-296b-4332-a35e-68e22592fbc3"},"vehicle_type_id":"4","last_reported":1747472995,"current_range_meters":22800,"station_id":"ce4bgn92rcd13ifvqbvg","pricing_plan_id":"cebpf4jnsgd1na2vs0mg"},{"bike_id":"74b36a19-9022-4f23-8fa2-134d1ee6707f","system_id":"levelo_inurba_marseille","lat":43.29002,"lon":5.35612,"is_reserved":false,"is_disabled":false,"rental_uris":{"android":"levelo://app?vid=74b36a19-9022-4f23-8fa2-134d1ee6707f","ios":"levelo://app?vid=74b36a19-9022-4f23-8fa2-134d1ee6707f"},"vehicle_type_id":"4","last_reported":1747472995,"current_range_meters":22800,"station_id":"ce4bhb92rcd13ifvqen0","pricing_plan_id":"cebpf4jnsgd1na2vs0mg"},{"bike_id":"d426c298-2bc6-48bb-8025-e430a630e9a2","system_id":"levelo_inurba_marseille","lat":43.305445,"lon":5.367124,"is_reserved":false,"is_disabled":false,"rental_uris":{"android":"levelo://app?vid=d426c298-2bc6-48bb-8025-e430a630e9a2","ios":"levelo://app?vid=d426c298-2bc6-48bb-8025-e430a630e9a2"},"vehicle_type_id":"4","last_reported":1747472995,"current_range_meters":23200,"station_id":"ce4bgrp2rcd13ifvqc9g","pricing_plan_id":"cebpf4jnsgd1na2vs0mg"},{"bike_id":"3497fa20-f052-42a0-b04a-d3c034d73669","system_id":"levelo_inurba_marseille","lat":43.31691,"lon":5.40477,"is_reserved":false,"is_disabled":false,"rental_uris":{"android":"levelo://app?vid=3497fa20-f052-42a0-b04a-d3c034d73669","ios":"levelo://app?vid=3497fa20-f052-42a0-b04a-d3c034d73669"},"vehicle_type_id":"4","last_reported":1747472995,"current_range_meters":23200,"station_id":"ce4bh012rcd13ifvqd00","pricing_plan_id":"cebpf4jnsgd1na2vs0mg"},{"bike_id":"e600e679-6f02-4e3f-aae4-d41c90a4bbdd","system_id":"levelo_inurba_marseille","lat":43.29261,"lon":5.36861,"is_reserved":false,"is_disabled":false,"rental_uris":{"android":"levelo://app?vid=e600e679-6f02-4e3f-aae4-d41c90a4bbdd","ios":"levelo://app?vid=e600e679-6f02-4e3f-aae4-d41c90a4bbdd"},"vehicle_type_id":"4","last_reported":1747472995,"current_range_meters":23200,"station_id":"ce4bhbp2rcd13ifvqesg","pricing_plan_id":"cebpf4jnsgd1na2vs0mg"},{"bike_id":"c1c6615d-cb88-4e32-9249-de7eca74a550","system_id":"levelo_inurba_marseille","lat":43.24989,"lon":5.38947,"is_reserved":false,"is_disabled":false,"rental_uris":{"android":"levelo://app?vid=c1c6615d-cb88-4e32-9249-de7eca74a550","ios":"levelo://app?vid=c1c6615d-cb88-4e32-9249-de7eca74a550"},"vehicle_type_id":"4","last_reported":1747472995,"current_range_meters":23200,"station_id":"ce4bhgp2rcd13ifvqfd0","pricing_plan_id":"cebpf4jnsgd1na2vs0mg"},{"bike_id":"e6fa7464-f141-40ea-ac8a-87d2f4315718","system_id":"levelo_inurba_marseille","lat":43.23965,"lon":5.36634,"is_reserved":false,"is_disabled":false,"rental_uris":{"android":"levelo://app?vid=e6fa7464-f141-40ea-ac8a-87d2f4315718","ios":"levelo://app?vid=e6fa7464-f141-40ea-ac8a-87d2f4315718"},"vehicle_type_id":"4","last_reported":1747472995,"current_range_meters":23200,"station_id":"ce4bhi12rcd13ifvqfp0","pricing_plan_id":"cebpf4jnsgd1na2vs0mg"},{"bike_id":"5d6f2f0f-6e8c-4691-bacd-b25a36d8bbe8","system_id":"levelo_inurba_marseille","lat":43.2707,"lon":5.42278,"is_reserved":false,"is_disabled":false,"rental_uris":{"android":"levelo://app?vid=5d6f2f0f-6e8c-4691-bacd-b25a36d8bbe8","ios":"levelo://app?vid=5d6f2f0f-6e8c-4691-bacd-b25a36d8bbe8"},"vehicle_type_id":"4","last_reported":1747472995,"current_range_meters":23200,"station_id":"ce4bhk92rcd13ifvqgb0","pricing_plan_id":"cebpf4jnsgd1na2vs0mg"},{"bike_id":"821dc4bd-f497-4a38-96ec-825dca7fd2bc","system_id":"levelo_inurba_marseille","lat":43.32487,"lon":5.365435,"is_reserved":false,"is_disabled":false,"rental_uris":{"android":"levelo://app?vid=821dc4bd-f497-4a38-96ec-825dca7fd2bc","ios":"levelo://app?vid=821dc4bd-f497-4a38-96ec-825dca7fd2bc"},"vehicle_type_id":"4","last_reported":1747472995,"current_range_meters":23200,"station_id":"ce4bhs12rcd13ifvqhvg","pricing_plan_id":"cebpf4jnsgd1na2vs0mg"},{"bike_id":"e9707782-0a3c-43d6-ae77-eef5e2ad4104","system_id":"levelo_inurba_marseille","lat":43.28488,"lon":5.38419,"is_reserved":false,"is_disabled":false,"rental_uris":{"android":"levelo://app?vid=e9707782-0a3c-43d6-ae77-eef5e2ad4104","ios":"levelo://app?vid=e9707782-0a3c-43d6-ae77-eef5e2ad4104"},"vehicle_type_id":"4","last_reported":1747472995,"current_range_meters":24000,"station_id":"ce4bh512rcd13ifvqe3g","pricing_plan_id":"cebpf4jnsgd1na2vs0mg"},{"bike_id":"49b95b6c-99d8-474b-b2e0-33711d3c8fa4","system_id":"levelo_inurba_marseille","lat":43.26565,"lon":5.37305,"is_reserved":false,"is_disabled":false,"rental_uris":{"android":"levelo://app?vid=49b95b6c-99d8-474b-b2e0-33711d3c8fa4","ios":"levelo://app?vid=49b95b6c-99d8-474b-b2e0-33711d3c8fa4"},"vehicle_type_id":"4","last_reported":1747472995,"current_range_meters":24000,"station_id":"ce4bhg12rcd13ifvqf70","pricing_plan_id":"cebpf4jnsgd1na2vs0mg"},{"bike_id":"afe9f27e-c354-46c8-9e31-877f6d6cc7a1","system_id":"levelo_inurba_marseille","lat":43.26212,"lon":5.37443,"is_reserved":false,"is_disabled":false,"rental_uris":{"android":"levelo://app?vid=afe9f27e-c354-46c8-9e31-877f6d6cc7a1","ios":"levelo://app?vid=afe9f27e-c354-46c8-9e31-877f6d6cc7a1"},"vehicle_type_id":"4","last_reported":1747472995,"current_range_meters":24000,"station_id":"ce4bhgp2rcd13ifvqfc0","pricing_plan_id":"cebpf4jnsgd1na2vs0mg"},{"bike_id":"f0eb2f31-ae15-45b3-af91-01cb8a47e802","system_id":"levelo_inurba_marseille","lat":43.23148,"lon":5.43724,"is_reserved":false,"is_disabled":false,"rental_uris":{"android":"levelo://app?vid=f0eb2f31-ae15-45b3-af91-01cb8a47e802","ios":"levelo://app?vid=f0eb2f31-ae15-45b3-af91-01cb8a47e802"},"vehicle_type_id":"4","last_reported":1747472995,"current_range_meters":24000,"station_id":"ce4bhmp2rcd13ifvqgog","pricing_plan_id":"cebpf4jnsgd1na2vs0mg"},{"bike_id":"7d82a6d1-cdb8-45e8-a21c-3acd1f42c990","system_id":"levelo_inurba_marseille","lat":43.232,"lon":5.4,"is_reserved":false,"is_disabled":false,"rental_uris":{"android":"levelo://app?vid=7d82a6d1-cdb8-45e8-a21c-3acd1f42c990","ios":"levelo://app?vid=7d82a6d1-cdb8-45e8-a21c-3acd1f42c990"},"vehicle_type_id":"4","last_reported":1747472995,"current_range_meters":24000,"station_id":"ce4bhn12rcd13ifvqgqg","pricing_plan_id":"cebpf4jnsgd1na2vs0mg"},{"bike_id":"3ee5051f-9c9d-4335-ac10-931ea4f5b1bb","system_id":"levelo_inurba_marseille","lat":43.31762,"lon":5.39027,"is_reserved":false,"is_disabled":false,"rental_uris":{"android":"levelo://app?vid=3ee5051f-9c9d-4335-ac10-931ea4f5b1bb","ios":"levelo://app?vid=3ee5051f-9c9d-4335-ac10-931ea4f5b1bb"},"vehicle_type_id":"4","last_reported":1747472995,"current_range_meters":24000,"station_id":"ce4bhqp2rcd13ifvqhng","pricing_plan_id":"cebpf4jnsgd1na2vs0mg"},{"bike_id":"677fd9c5-270d-401b-9bdf-7259d2373a68","system_id":"levelo_inurba_marseille","lat":43.2293,"lon":5.35386,"is_reserved":false,"is_disabled":false,"rental_uris":{"android":"levelo://app?vid=677fd9c5-270d-401b-9bdf-7259d2373a68","ios":"levelo://app?vid=677fd9c5-270d-401b-9bdf-7259d2373a68"},"vehicle_type_id":"4","last_reported":1747472995,"current_range_meters":24000,"station_id":"cpo3532slgdg3j2ikp40","pricing_plan_id":"cebpf4jnsgd1na2vs0mg"},{"bike_id":"07f4469e-1f48-4c8f-ad20-32140c45055a","system_id":"levelo_inurba_marseille","lat":43.293583,"lon":5.378333,"is_reserved":false,"is_disabled":false,"rental_uris":{"android":"levelo://app?vid=07f4469e-1f48-4c8f-ad20-32140c45055a","ios":"levelo://app?vid=07f4469e-1f48-4c8f-ad20-32140c45055a"},"vehicle_type_id":"4","last_reported":1747472995,"current_range_meters":24400,"station_id":"ce4bgjh2rcd13ifvqbf0","pricing_plan_id":"cebpf4jnsgd1na2vs0mg"},{"bike_id":"7de0cf05-d998-4507-a9a2-2306e2e0cb9b","system_id":"levelo_inurba_marseille","lat":43.29861,"lon":5.36294,"is_reserved":false,"is_disabled":false,"rental_uris":{"android":"levelo://app?vid=7de0cf05-d998-4507-a9a2-2306e2e0cb9b","ios":"levelo://app?vid=7de0cf05-d998-4507-a9a2-2306e2e0cb9b"},"vehicle_type_id":"4","last_reported":1747472995,"current_range_meters":24400,"station_id":"ce4bgpp2rcd13ifvqc3g","pricing_plan_id":"cebpf4jnsgd1na2vs0mg"},{"bike_id":"a5c91d56-1170-4013-aad9-4ff7bb05ab7b","system_id":"levelo_inurba_marseille","lat":43.28419,"lon":5.37516,"is_reserved":false,"is_disabled":false,"rental_uris":{"android":"levelo://app?vid=a5c91d56-1170-4013-aad9-4ff7bb05ab7b","ios":"levelo://app?vid=a5c91d56-1170-4013-aad9-4ff7bb05ab7b"},"vehicle_type_id":"4","last_reported":1747472995,"current_range_meters":24400,"station_id":"ce4bh412rcd13ifvqds0","pricing_plan_id":"cebpf4jnsgd1na2vs0mg"},{"bike_id":"6b23d1f6-c066-4009-99af-aa5ac53482e4","system_id":"levelo_inurba_marseille","lat":43.284761,"lon":5.385217,"is_reserved":false,"is_disabled":false,"rental_uris":{"android":"levelo://app?vid=6b23d1f6-c066-4009-99af-aa5ac53482e4","ios":"levelo://app?vid=6b23d1f6-c066-4009-99af-aa5ac53482e4"},"vehicle_type_id":"4","last_reported":1747472995,"current_range_meters":24400,"station_id":"ce4bh8p2rcd13ifvqeb0","pricing_plan_id":"cebpf4jnsgd1na2vs0mg"},{"bike_id":"0daab5d8-e809-40ff-a12c-3fee06bf3c3f","system_id":"levelo_inurba_marseille","lat":43.23179,"lon":5.4001,"is_reserved":false,"is_disabled":false,"rental_uris":{"android":"levelo://app?vid=0daab5d8-e809-40ff-a12c-3fee06bf3c3f","ios":"levelo://app?vid=0daab5d8-e809-40ff-a12c-3fee06bf3c3f"},"vehicle_type_id":"4","last_reported":1747472995,"current_range_meters":24400,"station_id":"ce4bhn12rcd13ifvqgqg","pricing_plan_id":"cebpf4jnsgd1na2vs0mg"},{"bike_id":"520d31e4-049a-4cfc-a948-965d294949e5","system_id":"levelo_inurba_marseille","lat":43.24078,"lon":5.37766,"is_reserved":false,"is_disabled":false,"rental_uris":{"android":"levelo://app?vid=520d31e4-049a-4cfc-a948-965d294949e5","ios":"levelo://app?vid=520d31e4-049a-4cfc-a948-965d294949e5"},"vehicle_type_id":"4","last_reported":1747472995,"current_range_meters":24400,"station_id":"ce4bhnp2rcd13ifvqgvg","pricing_plan_id":"cebpf4jnsgd1na2vs0mg"},{"bike_id":"937d22da-7b03-486d-bc9c-7589d105d5c1","system_id":"levelo_inurba_marseille","lat":43.30372,"lon":5.42491,"is_reserved":false,"is_disabled":false,"rental_uris":{"android":"levelo://app?vid=937d22da-7b03-486d-bc9c-7589d105d5c1","ios":"levelo://app?vid=937d22da-7b03-486d-bc9c-7589d105d5c1"},"vehicle_type_id":"4","last_reported":1747472995,"current_range_meters":24400,"station_id":"ce4bhoh2rcd13ifvqh6g","pricing_plan_id":"cebpf4jnsgd1na2vs0mg"},{"bike_id":"d266c433-3476-466a-aaba-b12afae55fdc","system_id":"levelo_inurba_marseille","lat":43.31988,"lon":5.38167,"is_reserved":false,"is_disabled":false,"rental_uris":{"android":"levelo://app?vid=d266c433-3476-466a-aaba-b12afae55fdc","ios":"levelo://app?vid=d266c433-3476-466a-aaba-b12afae55fdc"},"vehicle_type_id":"4","last_reported":1747472995,"current_range_meters":24400,"station_id":"ce4bhr12rcd13ifvqhpg","pricing_plan_id":"cebpf4jnsgd1na2vs0mg"},{"bike_id":"25ed5c16-3b4b-492b-937f-1a3b1d49ad1f","system_id":"levelo_inurba_marseille","lat":43.24164,"lon":5.36378,"is_reserved":false,"is_disabled":false,"rental_uris":{"android":"levelo://app?vid=25ed5c16-3b4b-492b-937f-1a3b1d49ad1f","ios":"levelo://app?vid=25ed5c16-3b4b-492b-937f-1a3b1d49ad1f"},"vehicle_type_id":"4","last_reported":1747472995,"current_range_meters":24400,"station_id":"cpo36qri1sfpv3e86is0","pricing_plan_id":"cebpf4jnsgd1na2vs0mg"},{"bike_id":"753ee86b-7d5e-4b27-92ed-3ebf61503f62","system_id":"levelo_inurba_marseille","lat":43.22497,"lon":5.34784,"is_reserved":false,"is_disabled":false,"rental_uris":{"android":"levelo://app?vid=753ee86b-7d5e-4b27-92ed-3ebf61503f62","ios":"levelo://app?vid=753ee86b-7d5e-4b27-92ed-3ebf61503f62"},"vehicle_type_id":"4","last_reported":1747472995,"current_range_meters":24400,"station_id":"st_cvj5dfep6f1abm77gieg","pricing_plan_id":"cebpf4jnsgd1na2vs0mg"},{"bike_id":"270fe8c1-c8d9-428e-9867-12b7b9f22bf6","system_id":"levelo_inurba_marseille","lat":43.22495,"lon":5.34803,"is_reserved":false,"is_disabled":false,"rental_uris":{"android":"levelo://app?vid=270fe8c1-c8d9-428e-9867-12b7b9f22bf6","ios":"levelo://app?vid=270fe8c1-c8d9-428e-9867-12b7b9f22bf6"},"vehicle_type_id":"4","last_reported":1747472995,"current_range_meters":24400,"station_id":"st_cvj5dfep6f1abm77gieg","pricing_plan_id":"cebpf4jnsgd1na2vs0mg"},{"bike_id":"f1f2c65c-fe91-4fe9-b386-16155fc89d78","system_id":"levelo_inurba_marseille","lat":43.29299,"lon":5.37178,"is_reserved":false,"is_disabled":false,"rental_uris":{"android":"levelo://app?vid=f1f2c65c-fe91-4fe9-b386-16155fc89d78","ios":"levelo://app?vid=f1f2c65c-fe91-4fe9-b386-16155fc89d78"},"vehicle_type_id":"4","last_reported":1747472995,"current_range_meters":24800,"station_id":"ce4bgh92rcd13ifvqb40","pricing_plan_id":"cebpf4jnsgd1na2vs0mg"},{"bike_id":"373b39ff-cd11-4118-bd72-18fd7ad33e48","system_id":"levelo_inurba_marseille","lat":43.243928,"lon":5.370584,"is_reserved":false,"is_disabled":false,"rental_uris":{"android":"levelo://app?vid=373b39ff-cd11-4118-bd72-18fd7ad33e48","ios":"levelo://app?vid=373b39ff-cd11-4118-bd72-18fd7ad33e48"},"vehicle_type_id":"4","last_reported":1747472995,"current_range_meters":24800,"station_id":"ce4bhhh2rcd13ifvqfk0","pricing_plan_id":"cebpf4jnsgd1na2vs0mg"},{"bike_id":"1e4d6381-a4a8-44fc-b3a7-61c3751f60b0","system_id":"levelo_inurba_marseille","lat":43.24387,"lon":5.37072,"is_reserved":false,"is_disabled":false,"rental_uris":{"android":"levelo://app?vid=1e4d6381-a4a8-44fc-b3a7-61c3751f60b0","ios":"levelo://app?vid=1e4d6381-a4a8-44fc-b3a7-61c3751f60b0"},"vehicle_type_id":"4","last_reported":1747472995,"current_range_meters":24800,"station_id":"ce4bhhh2rcd13ifvqfk0","pricing_plan_id":"cebpf4jnsgd1na2vs0mg"},{"bike_id":"4c36e413-edac-4b66-9c45-fa6451a00db9","system_id":"levelo_inurba_marseille","lat":43.25577,"lon":5.38231,"is_reserved":false,"is_disabled":false,"rental_uris":{"android":"levelo://app?vid=4c36e413-edac-4b66-9c45-fa6451a00db9","ios":"levelo://app?vid=4c36e413-edac-4b66-9c45-fa6451a00db9"},"vehicle_type_id":"4","last_reported":1747472995,"current_range_meters":24800,"station_id":"ce4bhih2rcd13ifvqfs0","pricing_plan_id":"cebpf4jnsgd1na2vs0mg"},{"bike_id":"f94fe3de-6b43-4f04-886f-7e18773a99a5","system_id":"levelo_inurba_marseille","lat":43.24087,"lon":5.37767,"is_reserved":false,"is_disabled":false,"rental_uris":{"android":"levelo://app?vid=f94fe3de-6b43-4f04-886f-7e18773a99a5","ios":"levelo://app?vid=f94fe3de-6b43-4f04-886f-7e18773a99a5"},"vehicle_type_id":"4","last_reported":1747472995,"current_range_meters":24800,"station_id":"ce4bhnp2rcd13ifvqgvg","pricing_plan_id":"cebpf4jnsgd1na2vs0mg"},{"bike_id":"54c80718-1468-47f9-9877-bc44f5940722","system_id":"levelo_inurba_marseille","lat":43.21216,"lon":5.35084,"is_reserved":false,"is_disabled":false,"rental_uris":{"android":"levelo://app?vid=54c80718-1468-47f9-9877-bc44f5940722","ios":"levelo://app?vid=54c80718-1468-47f9-9877-bc44f5940722"},"vehicle_type_id":"4","last_reported":1747472995,"current_range_meters":24800,"station_id":"st_cvj6sg6p6f1abm77japg","pricing_plan_id":"cebpf4jnsgd1na2vs0mg"},