{"last_updated":1737540436,"ttl":60,"version":"2.2","data":{"bikes":[{"bike_id":"7426e5d7-ef23-48f2-8bc1-17f3f5acaa9b","system_id":"levelo_inurba_marseille","lat":43.28321,"lon":5.39269,"is_reserved":false,"is_disabled":false,"rental_uris":{"android":"levelo://app?vid=7426e5d7-ef23-48f2-8bc1-17f3f5acaa9b","ios":"levelo://app?vid=7426e5d7-ef23-48f2-8bc1-17f3f5acaa9b"},"vehicle_type_id":"4","last_reported":1737540437,"current_range_meters":12400,"station_id":"","pricing_plan_id":"cebpf4jnsgd1na2vs0mg"},{"bike_id":"a319178b-5f98-41a6-9d48-283823ef5830","system_id":"levelo_inurba_marseille","lat":43.31727,"lon":5.40427,"is_reserved":false,"is_disabled":false,"rental_uris":{"android":"levelo://app?vid=a319178b-5f98-41a6-9d48-283823ef5830","ios":"levelo://app?vid=a319178b-5f98-41a6-9d48-283823ef5830"},"vehicle_type_id":"4","last_reported":1737540437,"current_range_meters":27600,"station_id":"ce4bh012rcd13ifvqd00","pricing_plan_id":"cebpf4jnsgd1na2vs0mg"},{"bike_id":"e606dee1-353a-4112-8809-29d08e091d8e","system_id":"levelo_inurba_marseille","lat":43.30463,"lon":5.37916,"is_reserved":false,"is_disabled":false,"rental_uris":{"android":"levelo://app?vid=e606dee1-353a-4112-8809-29d08e091d8e","ios":"levelo://app?vid=e606dee1-353a-4112-8809-29d08e091d8e"},"vehicle_type_id":"4","last_reported":1737540437,"current_range_meters":27600,"station_id":"ce4bgup2rcd13ifvqcn0","pricing_plan_id":"cebpf4jnsgd1na2vs0mg"},{"bike_id":"e95ead81-6002-43ee-acd4-2ad45ddbcb0b","system_id":"levelo_inurba_marseille","lat":43.29038,"lon":5.39964,"is_reserved":false,"is_disabled":false,"rental_uris":{"android":"levelo://app?vid=e95ead81-6002-43ee-acd4-2ad45ddbcb0b","ios":"levelo://app?vid=e95ead81-6002-43ee-acd4-2ad45ddbcb0b"},"vehicle_type_id":"4","last_reported":1737540437,"current_range_meters":30400,"station_id":"ce4bh392rcd13ifvqdm0","pricing_plan_id":"cebpf4jnsgd1na2vs0mg"},{"bike_id":"efec4c65-7e07-4c76-a631-2288bf6ca836","system_id":"levelo_inurba_marseille","lat":43.27372,"lon":5.36253,"is_reserved":false,"is_disabled":false,"rental_uris":{"android":"levelo://app?vid=efec4c65-7e07-4c76-a631-2288bf6ca836","ios":"levelo://app?vid=efec4c65-7e07-4c76-a631-2288bf6ca836"},"vehicle_type_id":"4","last_reported":1737540437,"current_range_meters":36400,"station_id":"ce4bhbh2rcd13ifvqeo0","pricing_plan_id":"cebpf4jnsgd1na2vs0mg"},{"bike_id":"48bf393d-0be7-4585-87a2-14253a20bbc8","system_id":"levelo_inurba_marseille","lat":43.28608,"lon":5.351,"is_reserved":false,"is_disabled":true,"rental_uris":{"android":"levelo://app?vid=48bf393d-0be7-4585-87a2-14253a20bbc8","ios":"levelo://app?vid=48bf393d-0be7-4585-87a2-14253a20bbc8"},"vehicle_type_id":"4","last_reported":1737540437,"current_range_meters":22800,"station_id":"ce4bhch2rcd13ifvqeug","pricing_plan_id":"cebpf4jnsgd1na2vs0mg"},{"bike_id":"bde1ac53-a500-461b-8a6f-872ee8333fb9","system_id":"levelo_inurba_marseille","lat":43.30269,"lon":5.37738,"is_reserved":false,"is_disabled":false,"rental_uris":{"android":"levelo://app?vid=bde1ac53-a500-461b-8a6f-872ee8333fb9","ios":"levelo://app?vid=bde1ac53-a500-461b-8a6f-872ee8333fb9"},"vehicle_type_id":"4","last_reported":1737540437,"current_range_meters":36000,"station_id":"ce4bguh2rcd13ifvqcj0","pricing_plan_id":"cebpf4jnsgd1na2vs0mg"},{"bike_id":"f91abf7d-c79a-4a1b-9e83-14161df856d8","system_id":"levelo_inurba_marseille","lat":43.32364,"lon":5.3889,"is_reserved":false,"is_disabled":false,"rental_uris":{"android":"levelo://app?vid=f91abf7d-c79a-4a1b-9e83-14161df856d8","ios":"levelo://app?vid=f91abf7d-c79a-4a1b-9e83-14161df856d8"},"vehicle_type_id":"4","last_reported":1737540437,"current_range_meters":24400,"station_id":"ce4bhqp2rcd13ifvqhog","pricing_plan_id":"cebpf4jnsgd1na2vs0mg"},{"bike_id":"276c0837-06db-402c-8123-0c725613593c","system_id":"levelo_inurba_marseille","lat":43.29035,"lon":5.37568,"is_reserved":false,"is_disabled":false,"rental_uris":{"android":"levelo://app?vid=276c0837-06db-402c-8123-0c725613593c","ios":"levelo://app?vid=276c0837-06db-402c-8123-0c725613593c"},"vehicle_type_id":"4","last_reported":1737540437,"current_range_meters":30400,"station_id":"ce4bh692rcd13ifvqe90","pricing_plan_id":"cebpf4jnsgd1na2vs0mg"},{"bike_id":"78903b2f-aa0f-4b8e-8965-93d5e37fcf4c","system_id":"levelo_inurba_marseille","lat":43.31753,"lon":5.39017,"is_reserved":false,"is_disabled":false,"rental_uris":{"android":"levelo://app?vid=78903b2f-aa0f-4b8e-8965-93d5e37fcf4c","ios":"levelo://app?vid=78903b2f-aa0f-4b8e-8965-93d5e37fcf4c"},"vehicle_type_id":"4","last_reported":1737540437,"current_range_meters":32800,"station_id":"ce4bhqp2rcd13ifvqhng","pricing_plan_id":"cebpf4jnsgd1na2vs0mg"},{"bike_id":"6aa486e2-6bff-44bc-8783-105e3573e43d","system_id":"levelo_inurba_marseille","lat":43.29157,"lon":5.37158,"is_reserved":false,"is_disabled":false,"rental_uris":{"android":"levelo://app?vid=6aa486e2-6bff-44bc-8783-105e3573e43d","ios":"levelo://app?vid=6aa486e2-6bff-44bc-8783-105e3573e43d"},"vehicle_type_id":"4","last_reported":1737540437,"current_range_meters":39200,"station_id":"ce4bha92rcd13ifvqeh0","pricing_plan_id":"cebpf4jnsgd1na2vs0mg"},{"bike_id":"4290bcaa-2c5d-43d4-9777-d79974cac771","system_id":"levelo_inurba_marseille","lat":43.29271,"lon":5.38447,"is_reserved":false,"is_disabled":false,"rental_uris":{"android":"levelo://app?vid=4290bcaa-2c5d-43d4-9777-d79974cac771","ios":"levelo://app?vid=4290bcaa-2c5d-43d4-9777-d79974cac771"},"vehicle_type_id":"4","last_reported":1737540437,"current_range_meters":38800,"station_id":"ce4bh692rcd13ifvqea0","pricing_plan_id":"cebpf4jnsgd1na2vs0mg"},{"bike_id":"96ea2076-182b-4d07-bd05-98d9d021ed79","system_id":"levelo_inurba_marseille","lat":43.29606,"lon":5.37699,"is_reserved":false,"is_disabled":false,"rental_uris":{"android":"levelo://app?vid=96ea2076-182b-4d07-bd05-98d9d021ed79","ios":"levelo://app?vid=96ea2076-182b-4d07-bd05-98d9d021ed79"},"vehicle_type_id":"4","last_reported":1737540437,"current_range_meters":38000,"station_id":"ce4bgi92rcd13ifvqb90","pricing_plan_id":"cebpf4jnsgd1na2vs0mg"},{"bike_id":"7dc251a9-9c7a-4f8b-9459-3f4b38c3247f","system_id":"levelo_inurba_marseille","lat":43.33022,"lon":5.39047,"is_reserved":false,"is_disabled":false,"rental_uris":{"android":"levelo://app?vid=7dc251a9-9c7a-4f8b-9459-3f4b38c3247f","ios":"levelo://app?vid=7dc251a9-9c7a-4f8b-9459-3f4b38c3247f"},"vehicle_type_id":"4","last_reported":1737540437,"current_range_meters":37600,"station_id":"ce4bhr92rcd13ifvqhrg","pricing_plan_id":"cebpf4jnsgd1na2vs0mg"},{"bike_id":"6a9d337d-512a-4c40-a63b-3014fda6e05e","system_id":"levelo_inurba_marseille","lat":43.25577,"lon":5.38252,"is_reserved":false,"is_disabled":false,"rental_uris":{"android":"levelo://app?vid=6a9d337d-512a-4c40-a63b-3014fda6e05e","ios":"levelo://app?vid=6a9d337d-512a-4c40-a63b-3014fda6e05e"},"vehicle_type_id":"4","last_reported":1737540437,"current_range_meters":30800,"station_id":"ce4bhih2rcd13ifvqfs0","pricing_plan_id":"cebpf4jnsgd1na2vs0mg"},{"bike_id":"e031958a-e328-4f35-b6d2-974f6ed44238","system_id":"levelo_inurba_marseille","lat":43.32481,"lon":5.36562,"is_reserved":false,"is_disabled":true,"rental_uris":{"android":"levelo://app?vid=e031958a-e328-4f35-b6d2-974f6ed44238","ios":"levelo://app?vid=e031958a-e328-4f35-b6d2-974f6ed44238"},"vehicle_type_id":"4","last_reported":1737540437,"current_range_meters":400,"station_id":"ce4bhs12rcd13ifvqhvg","pricing_plan_id":"cebpf4jnsgd1na2vs0mg"},{"bike_id":"81adb0b4-2404-4c5e-a804-8535af28b08e","system_id":"levelo_inurba_marseille","lat":43.30552,"lon":5.36685,"is_reserved":false,"is_disabled":false,"rental_uris":{"android":"levelo://app?vid=81adb0b4-2404-4c5e-a804-8535af28b08e","ios":"levelo://app?vid=81adb0b4-2404-4c5e-a804-8535af28b08e"},"vehicle_type_id":"4","last_reported":1737540437,"current_range_meters":28800,"station_id":"ce4bgrp2rcd13ifvqc9g","pricing_plan_id":"cebpf4jnsgd1na2vs0mg"},{"bike_id":"73b5b8fa-af4d-461f-91e2-112593d8066e","system_id":"levelo_inurba_marseille","lat":43.24076,"lon":5.37755,"is_reserved":false,"is_disabled":false,"rental_uris":{"android":"levelo://app?vid=73b5b8fa-af4d-461f-91e2-112593d8066e","ios":"levelo://app?vid=73b5b8fa-af4d-461f-91e2-112593d8066e"},"vehicle_type_id":"4","last_reported":1737540437,"current_range_meters":38800,"station_id":"ce4bhnp2rcd13ifvqgvg","pricing_plan_id":"cebpf4jnsgd1na2vs0mg"},{"bike_id":"154c2e47-5af4-4ee4-8d9c-540f68df7228","system_id":"levelo_inurba_marseille","lat":43.29034,"lon":5.37567,"is_reserved":false,"is_disabled":false,"rental_uris":{"android":"levelo://app?vid=154c2e47-5af4-4ee4-8d9c-540f68df7228","ios":"levelo://app?vid=154c2e47-5af4-4ee4-8d9c-540f68df7228"},"vehicle_type_id":"4","last_reported":1737540437,"current_range_meters":28000,"station_id":"ce4bh692rcd13ifvqe90","pricing_plan_id":"cebpf4jnsgd1na2vs0mg"},{"bike_id":"a2771881-b956-4a9a-9bc9-a89642d437c9","system_id":"levelo_inurba_marseille","lat":43.23198,"lon":5.35565,"is_reserved":false,"is_disabled":false,"rental_uris":{"android":"levelo://app?vid=a2771881-b956-4a9a-9bc9-a89642d437c9","ios":"levelo://app?vid=a2771881-b956-4a9a-9bc9-a89642d437c9"},"vehicle_type_id":"4","last_reported":1737540437,"current_range_meters":38000,"station_id":"ce4bhu92rcd13ifvqi70","pricing_plan_id":"cebpf4jnsgd1na2vs0mg"},{"bike_id":"044c29b9-b5e2-466e-976e-c85aa6e52719","system_id":"levelo_inurba_marseille","lat":43.29277,"lon":5.40157,"is_reserved":false,"is_disabled":false,"rental_uris":{"android":"levelo://app?vid=044c29b9-b5e2-466e-976e-c85aa6e52719","ios":"levelo://app?vid=044c29b9-b5e2-466e-976e-c85aa6e52719"},"vehicle_type_id":"4","last_reported":1737540437,"current_range_meters":36800,"station_id":"ce4bh312rcd13ifvqdk0","pricing_plan_id":"cebpf4jnsgd1na2vs0mg"},{"bike_id":"86026dde-12b1-4041-beb7-70a4d634500e","system_id":"levelo_inurba_marseille","lat":43.25568,"lon":5.3824,"is_reserved":false,"is_disabled":false,"rental_uris":{"android":"levelo://app?vid=86026dde-12b1-4041-beb7-70a4d634500e","ios":"levelo://app?vid=86026dde-12b1-4041-beb7-70a4d634500e"},"vehicle_type_id":"4","last_reported":1737540437,"current_range_meters":22800,"station_id":"ce4bhih2rcd13ifvqfs0","pricing_plan_id":"cebpf4jnsgd1na2vs0mg"},{"bike_id":"1aa1f992-d30e-467e-b8b4-6fde596bb930","system_id":"levelo_inurba_marseille","lat":43.29519,"lon":5.3904,"is_reserved":false,"is_disabled":false,"rental_uris":{"android":"levelo://app?vid=1aa1f992-d30e-467e-b8b4-6fde596bb930","ios":"levelo://app?vid=1aa1f992-d30e-467e-b8b4-6fde596bb930"},"vehicle_type_id":"4","last_reported":1737540437,"current_range_meters":19600,"station_id":"ce4bh3p2rcd13ifvqdp0","pricing_plan_id":"cebpf4jnsgd1na2vs0mg"},{"bike_id":"c6ad0b00-50f1-4ab6-8a0c-0c58c9c0bdc8","system_id":"levelo_inurba_marseille","lat":43.29723,"lon":5.37694,"is_reserved":false,"is_disabled":false,"rental_uris":{"android":"levelo://app?vid=c6ad0b00-50f1-4ab6-8a0c-0c58c9c0bdc8","ios":"levelo://app?vid=c6ad0b00-50f1-4ab6-8a0c-0c58c9c0bdc8"},"vehicle_type_id":"4","last_reported":1737540437,"current_range_meters":22000,"station_id":"ce4bgkh2rcd13ifvqbl0","pricing_plan_id":"cebpf4jnsgd1na2vs0mg"},{"bike_id":"46c271a9-84a6-4074-bc6b-ea8b2041c27a","system_id":"levelo_inurba_marseille","lat":43.25566,"lon":5.38268,"is_reserved":false,"is_disabled":false,"rental_uris":{"android":"levelo://app?vid=46c271a9-84a6-4074-bc6b-ea8b2041c27a","ios":"levelo://app?vid=46c271a9-84a6-4074-bc6b-ea8b2041c27a"},"vehicle_type_id":"4","last_reported":1737540437,"current_range_meters":38800,"station_id":"ce4bhih2rcd13ifvqfs0","pricing_plan_id":"cebpf4jnsgd1na2vs0mg"},{"bike_id":"7021d700-d329-4d03-affa-dc0c0d55e223","system_id":"levelo_inurba_marseille","lat":43.27071,"lon":5.42282,"is_reserved":false,"is_disabled":false,"rental_uris":{"android":"levelo://app?vid=7021d700-d329-4d03-affa-dc0c0d55e223","ios":"levelo://app?vid=7021d700-d329-4d03-affa-dc0c0d55e223"},"vehicle_type_id":"4","last_reported":1737540437,"current_range_meters":14000,"station_id":"ce4bhk92rcd13ifvqgb0","pricing_plan_id":"cebpf4jnsgd1na2vs0mg"},{"bike_id":"9b8e59cc-176c-4543-87f0-686d1d230657","system_id":"levelo_inurba_marseille","lat":43.29136,"lon":5.35827,"is_reserved":false,"is_disabled":false,"rental_uris":{"android":"levelo://app?vid=9b8e59cc-176c-4543-87f0-686d1d230657","ios":"levelo://app?vid=9b8e59cc-176c-4543-87f0-686d1d230657"},"vehicle_type_id":"4","last_reported":1737540437,"current_range_meters":38800,"station_id":"","pricing_plan_id":"cebpf4jnsgd1na2vs0mg"},{"bike_id":"0f35782f-f969-40a2-9f3e-14f4f594f78f","system_id":"levelo_inurba_marseille","lat":43.24074,"lon":5.37745,"is_reserved":false,"is_disabled":false,"rental_uris":{"android":"levelo://app?vid=0f35782f-f969-40a2-9f3e-14f4f594f78f","ios":"levelo://app?vid=0f35782f-f969-40a2-9f3e-14f4f594f78f"},"vehicle_type_id":"4","last_reported":1737540437,"current_range_meters":19200,"station_id":"ce4bhnp2rcd13ifvqgvg","pricing_plan_id":"cebpf4jnsgd1na2vs0mg"},{"bike_id":"ce4eb52e-753a-49de-a3cc-2ba7754268ab","system_id":"levelo_inurba_marseille","lat":43.30102,"lon":5.39054,"is_reserved":false,"is_disabled":false,"rental_uris":{"android":"levelo://app?vid=ce4eb52e-753a-49de-a3cc-2ba7754268ab","ios":"levelo://app?vid=ce4eb52e-753a-49de-a3cc-2ba7754268ab"},"vehicle_type_id":"4","last_reported":1737540437,"current_range_meters":22000,"station_id":"ce4bh192rcd13ifvqdb0","pricing_plan_id":"cebpf4jnsgd1na2vs0mg"},{"bike_id":"6c75c142-0955-45f6-ad29-ecdd2f540706","system_id":"levelo_inurba_marseille","lat":43.29588,"lon":5.3774,"is_reserved":false,"is_disabled":false,"rental_uris":{"android":"levelo://app?vid=6c75c142-0955-45f6-ad29-ecdd2f540706","ios":"levelo://app?vid=6c75c142-0955-45f6-ad29-ecdd2f540706"},"vehicle_type_id":"4","last_reported":1737540437,"current_range_meters":34800,"station_id":"ce4bgi92rcd13ifvqb90","pricing_plan_id":"cebpf4jnsgd1na2vs0mg"},{"bike_id":"f704117d-f7e5-4f9a-85fd-f0d266620f17","system_id":"levelo_inurba_marseille","lat":43.27295,"lon":5.39135,"is_reserved":false,"is_disabled":false,"rental_uris":{"android":"levelo://app?vid=f704117d-f7e5-4f9a-85fd-f0d266620f17","ios":"levelo://app?vid=f704117d-f7e5-4f9a-85fd-f0d266620f17"},"vehicle_type_id":"4","last_reported":1737540437,"current_range_meters":38800,"station_id":"","pricing_plan_id":"cebpf4jnsgd1na2vs0mg"},{"bike_id":"e8e2ff4b-263b-4f3d-86f2-89df3874fcb1","system_id":"levelo_inurba_marseille","lat":43.30456,"lon":5.3791,"is_reserved":false,"is_disabled":false,"rental_uris":{"android":"levelo://app?vid=e8e2ff4b-263b-4f3d-86f2-89df3874fcb1","ios":"levelo://app?vid=e8e2ff4b-263b-4f3d-86f2-89df3874fcb1"},"vehicle_type_id":"4","last_reported":1737540437,"current_range_meters":16000,"station_id":"ce4bgup2rcd13ifvqcn0","pricing_plan_id":"cebpf4jnsgd1na2vs0mg"},{"bike_id":"5c01ebfb-992b-4e94-baa6-4615b3d195e3","system_id":"levelo_inurba_marseille","lat":43.26921,"lon":5.40237,"is_reserved":false,"is_disabled":false,"rental_uris":{"android":"levelo://app?vid=5c01ebfb-992b-4e94-baa6-4615b3d195e3","ios":"levelo://app?vid=5c01ebfb-992b-4e94-baa6-4615b3d195e3"},"vehicle_type_id":"4","last_reported":1737540437,"current_range_meters":3200,"station_id":"cjm6bp8fraef2m0cb0m0","pricing_plan_id":"cebpf4jnsgd1na2vs0mg"},{"bike_id":"6eb47bba-2b2a-4496-b25b-c094174d4731","system_id":"levelo_inurba_marseille","lat":43.25932,"lon":5.40913,"is_reserved":false,"is_disabled":false,"rental_uris":{"android":"levelo://app?vid=6eb47bba-2b2a-4496-b25b-c094174d4731","ios":"levelo://app?vid=6eb47bba-2b2a-4496-b25b-c094174d4731"},"vehicle_type_id":"4","last_reported":1737540437,"current_range_meters":17600,"station_id":"ce4bhm92rcd13ifvqglg","pricing_plan_id":"cebpf4jnsgd1na2vs0mg"},{"bike_id":"0ec0257b-90a0-4795-823a-d8d50d2f0d73","system_id":"levelo_inurba_marseille","lat":43.31685,"lon":5.40464,"is_reserved":false,"is_disabled":false,"rental_uris":{"android":"levelo://app?vid=0ec0257b-90a0-4795-823a-d8d50d2f0d73","ios":"levelo://app?vid=0ec0257b-90a0-4795-823a-d8d50d2f0d73"},"vehicle_type_id":"4","last_reported":1737540437,"current_range_meters":16400,"station_id":"ce4bh012rcd13ifvqd00","pricing_plan_id":"cebpf4jnsgd1na2vs0mg"},{"bike_id":"ef459963-0ed0-47f9-a10e-2e49c0408e8a","system_id":"levelo_inurba_marseille","lat":43.29832,"lon":5.36306,"is_reserved":false,"is_disabled":false,"rental_uris":{"android":"levelo://app?vid=ef459963-0ed0-47f9-a10e-2e49c0408e8a","ios":"levelo://app?vid=ef459963-0ed0-47f9-a10e-2e49c0408e8a"},"vehicle_type_id":"4","last_reported":1737540437,"current_range_meters":39200,"station_id":"ce4bgpp2rcd13ifvqc3g","pricing_plan_id":"cebpf4jnsgd1na2vs0mg"},{"bike_id":"56c16567-a209-442e-b152-823591129e8b","system_id":"levelo_inurba_marseille","lat":43.282782,"lon":5.350758,"is_reserved":false,"is_disabled":false,"rental_uris":{"android":"levelo://app?vid=56c16567-a209-442e-b152-823591129e8b","ios":"levelo://app?vid=56c16567-a209-442e-b152-823591129e8b"},"vehicle_type_id":"4","last_reported":1737540437,"current_range_meters":37600,"station_id":"ce4bhbp2rcd13ifvqerg","pricing_plan_id":"cebpf4jnsgd1na2vs0mg"},{"bike_id":"08da3d66-9b8d-4df4-9df4-53cdcc789c9a","system_id":"levelo_inurba_marseille","lat":43.28488,"lon":5.38547,"is_reserved":false,"is_disabled":false,"rental_uris":{"android":"levelo://app?vid=08da3d66-9b8d-4df4-9df4-53cdcc789c9a","ios":"levelo://app?vid=08da3d66-9b8d-4df4-9df4-53cdcc789c9a"},"vehicle_type_id":"4","last_reported":1737540437,"current_range_meters":27200,"station_id":"ce4bh8p2rcd13ifvqeb0","pricing_plan_id":"cebpf4jnsgd1na2vs0mg"},{"bike_id":"cc8190cc-c655-4b6b-b8a9-4a668ec97d5d","system_id":"levelo_inurba_marseille","lat":43.33613,"lon":5.41012,"is_reserved":false,"is_disabled":false,"rental_uris":{"android":"levelo://app?vid=cc8190cc-c655-4b6b-b8a9-4a668ec97d5d","ios":"levelo://app?vid=cc8190cc-c655-4b6b-b8a9-4a668ec97d5d"},"vehicle_type_id":"4","last_reported":1737540437,"current_range_meters":33200,"station_id":"ce4bhqh2rcd13ifvqhmg","pricing_plan_id":"cebpf4jnsgd1na2vs0mg"},{"bike_id":"187dafc1-7da3-4b4e-91c7-1d2144171e71","system_id":"levelo_inurba_marseille","lat":43.30469,"lon":5.37912,"is_reserved":false,"is_disabled":false,"rental_uris":{"android":"levelo://app?vid=187dafc1-7da3-4b4e-91c7-1d2144171e71","ios":"levelo://app?vid=187dafc1-7da3-4b4e-91c7-1d2144171e71"},"vehicle_type_id":"4","last_reported":1737540437,"current_range_meters":33200,"station_id":"ce4bgup2rcd13ifvqcn0","pricing_plan_id":"cebpf4jnsgd1na2vs0mg"},{"bike_id":"c88e7185-5e52-492b-830d-283a32f3fd0d","system_id":"levelo_inurba_marseille","lat":43.29168,"lon":5.37144,"is_reserved":false,"is_disabled":false,"rental_uris":{"android":"levelo://app?vid=c88e7185-5e52-492b-830d-283a32f3fd0d","ios":"levelo://app?vid=c88e7185-5e52-492b-830d-283a32f3fd0d"},"vehicle_type_id":"4","last_reported":1737540437,"current_range_meters":24400,"station_id":"ce4bha92rcd13ifvqeh0","pricing_plan_id":"cebpf4jnsgd1na2vs0mg"},{"bike_id":"9bc726c4-f0ae-46a7-9894-3042b33f1aaf","system_id":"levelo_inurba_marseille","lat":43.23153,"lon":5.43682,"is_reserved":false,"is_disabled":false,"rental_uris":{"android":"levelo://app?vid=9bc726c4-f0ae-46a7-9894-3042b33f1aaf","ios":"levelo://app?vid=9bc726c4-f0ae-46a7-9894-3042b33f1aaf"},"vehicle_type_id":"4","last_reported":1737540437,"current_range_meters":37600,"station_id":"ce4bhmp2rcd13ifvqgog","pricing_plan_id":"cebpf4jnsgd1na2vs0mg"},{"bike_id":"04656797-d164-454b-8244-55edc7fec428","system_id":"levelo_inurba_marseille","lat":43.31713,"lon":5.42412,"is_reserved":false,"is_disabled":false,"rental_uris":{"android":"levelo://app?vid=04656797-d164-454b-8244-55edc7fec428","ios":"levelo://app?vid=04656797-d164-454b-8244-55edc7fec428"},"vehicle_type_id":"4","last_reported":1737540437,"current_range_meters":38800,"station_id":"ce4bhp92rcd13ifvqhbg","pricing_plan_id":"cebpf4jnsgd1na2vs0mg"},{"bike_id":"1f16ad06-6773-4946-8305-97dc88287b9f","system_id":"levelo_inurba_marseille","lat":43.29233,"lon":5.40923,"is_reserved":false,"is_disabled":false,"rental_uris":{"android":"levelo://app?vid=1f16ad06-6773-4946-8305-97dc88287b9f","ios":"levelo://app?vid=1f16ad06-6773-4946-8305-97dc88287b9f"},"vehicle_type_id":"4","last_reported":1737540437,"current_range_meters":39200,"station_id":"ce4bh192rcd13ifvqdc0","pricing_plan_id":"cebpf4jnsgd1na2vs0mg"},{"bike_id":"08498b64-c464-4119-afb2-6f220d6847bc","system_id":"levelo_inurba_marseille","lat":43.28253,"lon":5.35093,"is_reserved":false,"is_disabled":true,"rental_uris":{"android":"levelo://app?vid=08498b64-c464-4119-afb2-6f220d6847bc","ios":"levelo://app?vid=08498b64-c464-4119-afb2-6f220d6847bc"},"vehicle_type_id":"4","last_reported":1737540437,"current_range_meters":35600,"station_id":"ce4bhbp2rcd13ifvqerg","pricing_plan_id":"cebpf4jnsgd1na2vs0mg"},{"bike_id":"72c6a75a-dcec-4bc7-8f9e-96be42e21f17","system_id":"levelo_inurba_marseille","lat":43.25105,"lon":5.40335,"is_reserved":false,"is_disabled":false,"rental_uris":{"android":"levelo://app?vid=72c6a75a-dcec-4bc7-8f9e-96be42e21f17","ios":"levelo://app?vid=72c6a75a-dcec-4bc7-8f9e-96be42e21f17"},"vehicle_type_id":"4","last_reported":1737540437,"current_range_meters":39200,"station_id":"ce4bhlh2rcd13ifvqgig","pricing_plan_id":"cebpf4jnsgd1na2vs0mg"},{"bike_id":"45531429-d606-44c3-8508-f60ef1539dca","system_id":"levelo_inurba_marseille","lat":43.30444,"lon":5.38878,"is_reserved":false,"is_disabled":false,"rental_uris":{"android":"levelo://app?vid=45531429-d606-44c3-8508-f60ef1539dca","ios":"levelo://app?vid=45531429-d606-44c3-8508-f60ef1539dca"},"vehicle_type_id":"4","last_reported":1737540437,"current_range_meters":22000,"station_id":"ce4bgk12rcd13ifvqbi0","pricing_plan_id":"cebpf4jnsgd1na2vs0mg"},{"bike_id":"debafc9f-0156-470f-b1d1-580c5ee03d1b","system_id":"levelo_inurba_marseille","lat":43.30952,"lon":5.39064,"is_reserved":false,"is_disabled":false,"rental_uris":{"android":"levelo://app?vid=debafc9f-0156-470f-b1d1-580c5ee03d1b","ios":"levelo://app?vid=debafc9f-0156-470f-b1d1-580c5ee03d1b"},"vehicle_type_id":"4","last_reported":1737540437,"current_range_meters":38400,"station_id":"ce4bgup2rcd13ifvqco0","pricing_plan_id":"cebpf4jnsgd1na2vs0mg"},{"bike_id":"07a0cdca-365a-428b-982e-4c1fa1e68861","system_id":"levelo_inurba_marseille","lat":43.2511,"lon":5.40318,"is_reserved":false,"is_disabled":false,"rental_uris":{"android":"levelo://app?vid=07a0cdca-365a-428b-982e-4c1fa1e68861","ios":"levelo://app?vid=07a0cdca-365a-428b-982e-4c1fa1e68861"},"vehicle_type_id":"4","last_reported":1737540437,"current_range_meters":22400,"station_id":"ce4bhlh2rcd13ifvqgig","pricing_plan_id":"cebpf4jnsgd1na2vs0mg"},{"bike_id":"e8e584c6-c043-40e1-b43c-3ef61a0da988","system_id":"levelo_inurba_marseille","lat":43.30478,"lon":5.37893,"is_reserved":false,"is_disabled":false,"rental_uris":{"android":"levelo://app?vid=e8e584c6-c043-40e1-b43c-3ef61a0da988","ios":"levelo://app?vid=e8e584c6-c043-40e1-b43c-3ef61a0da988"},"vehicle_type_id":"4","last_reported":1737540437,"current_range_meters":27200,"station_id":"ce4bgup2rcd13ifvqcn0","pricing_plan_id":"cebpf4jnsgd1na2vs0mg"},{"bike_id":"a8679d02-f529-41de-a362-d2fb4d4cfcb9","system_id":"levelo_inurba_marseille","lat":43.26683,"lon":5.38267,"is_reserved":false,"is_disabled":false,"rental_uris":{"android":"levelo://app?vid=a8679d02-f529-41de-a362-d2fb4d4cfcb9","ios":"levelo://app?vid=a8679d02-f529-41de-a362-d2fb4d4cfcb9"},"vehicle_type_id":"4","last_reported":1737540437,"current_range_meters":38800,"station_id":"ce4bhg92rcd13ifvqf90","pricing_plan_id":"cebpf4jnsgd1na2vs0mg"},{"bike_id":"9d3c181f-f6fd-4f8a-8ac3-dfa44fc765c6","system_id":"levelo_inurba_marseille","lat":43.288035,"lon":5.366538,"is_reserved":false,"is_disabled":false,"rental_uris":{"android":"levelo://app?vid=9d3c181f-f6fd-4f8a-8ac3-dfa44fc765c6","ios":"levelo://app?vid=9d3c181f-f6fd-4f8a-8ac3-dfa44fc765c6"},"vehicle_type_id":"4","last_reported":1737540437,"current_range_meters":19600,"station_id":"ce4bhah2rcd13ifvqej0","pricing_plan_id":"cebpf4jnsgd1na2vs0mg"},{"bike_id":"fb051a1b-f405-4fb7-8edb-82e638aff8f9","system_id":"levelo_inurba_marseille","lat":43.29819,"lon":5.36122,"is_reserved":false,"is_disabled":false,"rental_uris":{"android":"levelo://app?vid=fb051a1b-f405-4fb7-8edb-82e638aff8f9","ios":"levelo://app?vid=fb051a1b-f405-4fb7-8edb-82e638aff8f9"},"vehicle_type_id":"4","last_reported":1737540437,"current_range_meters":36400,"station_id":"","pricing_plan_id":"cebpf4jnsgd1na2vs0mg"},{"bike_id":"63468950-507d-45fc-b23b-b241b7129b89","system_id":"levelo_inurba_marseille","lat":43.2319,"lon":5.39978,"is_reserved":false,"is_disabled":false,"rental_uris":{"android":"levelo://app?vid=63468950-507d-45fc-b23b-b241b7129b89","ios":"levelo://app?vid=63468950-507d-45fc-b23b-b241b7129b89"},"vehicle_type_id":"4","last_reported":1737540437,"current_range_meters":32400,"station_id":"ce4bhn12rcd13ifvqgqg","pricing_plan_id":"cebpf4jnsgd1na2vs0mg"},{"bike_id":"245a70c7-2a5d-4a73-a3a8-17e7e21e9a8b","system_id":"levelo_inurba_marseille","lat":43.32339,"lon":5.36744,"is_reserved":false,"is_disabled":false,"rental_uris":{"android":"levelo://app?vid=245a70c7-2a5d-4a73-a3a8-17e7e21e9a8b","ios":"levelo://app?vid=245a70c7-2a5d-4a73-a3a8-17e7e21e9a8b"},"vehicle_type_id":"4","last_reported":1737540437,"current_range_meters":28800,"station_id":"ce4bhsh2rcd13ifvqi2g","pricing_plan_id":"cebpf4jnsgd1na2vs0mg"},{"bike_id":"1b02c112-b381-4166-a3e2-64cf4bda4f82","system_id":"levelo_inurba_marseille","lat":43.26954,"lon":5.38635,"is_reserved":false,"is_disabled":false,"rental_uris":{"android":"levelo://app?vid=1b02c112-b381-4166-a3e2-64cf4bda4f82","ios":"levelo://app?vid=1b02c112-b381-4166-a3e2-64cf4bda4f82"},"vehicle_type_id":"4","last_reported":1737540437,"current_range_meters":8400,"station_id":"ce4bhh92rcd13ifvqfh0","pricing_plan_id":"cebpf4jnsgd1na2vs0mg"},{"bike_id":"85376b56-692e-4f5f-939c-f76decd912d8","system_id":"levelo_inurba_marseille","lat":43.29042,"lon":5.35915,"is_reserved":false,"is_disabled":false,"rental_uris":{"android":"levelo://app?vid=85376b56-692e-4f5f-939c-f76decd912d8","ios":"levelo://app?vid=85376b56-692e-4f5f-939c-f76decd912d8"},"vehicle_type_id":"4","last_reported":1737540437,"current_range_meters":17600,"station_id":"ce4bha92rcd13ifvqeg0","pricing_plan_id":"cebpf4jnsgd1na2vs0mg"},{"bike_id":"8ada8aa5-4540-4225-9587-b1274ded2606","system_id":"levelo_inurba_marseille","lat":43.29523,"lon":5.3904,"is_reserved":false,"is_disabled":false,"rental_uris":{"android":"levelo://app?vid=8ada8aa5-4540-4225-9587-b1274ded2606","ios":"levelo://app?vid=8ada8aa5-4540-4225-9587-b1274ded2606"},"vehicle_type_id":"4","last_reported":1737540437,"current_range_meters":16000,"station_id":"ce4bh3p2rcd13ifvqdp0","pricing_plan_id":"cebpf4jnsgd1na2vs0mg"},{"bike_id":"ce3b9738-597e-4fbc-aa38-4008ce3f0432","system_id":"levelo_inurba_marseille","lat":43.25121,"lon":5.40318,"is_reserved":false,"is_disabled":false,"rental_uris":{"android":"levelo://app?vid=ce3b9738-597e-4fbc-aa38-4008ce3f0432","ios":"levelo://app?vid=ce3b9738-597e-4fbc-aa38-4008ce3f0432"},"vehicle_type_id":"4","last_reported":1737540437,"current_range_meters":19600,"station_id":"ce4bhlh2rcd13ifvqgig","pricing_plan_id":"cebpf4jnsgd1na2vs0mg"},{"bike_id":"b7fe99b3-2520-409c-820c-45dc30488ce6","system_id":"levelo_inurba_marseille","lat":43.30473,"lon":5.37906,"is_reserved":false,"is_disabled":false,"rental_uris":{"android":"levelo://app?vid=b7fe99b3-2520-409c-820c-45dc30488ce6","ios":"levelo://app?vid=b7fe99b3-2520-409c-820c-45dc30488ce6"},"vehicle_type_id":"4","last_reported":1737540437,"current_range_meters":19200,"station_id":"ce4bgup2rcd13ifvqcn0","pricing_plan_id":"cebpf4jnsgd1na2vs0mg"},{"bike_id":"cf6cc3c3-ec68-4af1-9f0b-e76bd62acc1d","system_id":"levelo_inurba_marseille","lat":43.25925,"lon":5.40911,"is_reserved":false,"is_disabled":false,"rental_uris":{"android":"levelo://app?vid=cf6cc3c3-ec68-4af1-9f0b-e76bd62acc1d","ios":"levelo://app?vid=cf6cc3c3-ec68-4af1-9f0b-e76bd62acc1d"},"vehicle_type_id":"4","last_reported":1737540437,"current_range_meters":28400,"station_id":"ce4bhm92rcd13ifvqglg","pricing_plan_id":"cebpf4jnsgd1na2vs0mg"},{"bike_id":"6b4c0df2-1b79-4f2d-88f2-cdef4904ca8e","system_id":"levelo_inurba_marseille","lat":43.27616,"lon":5.36121,"is_reserved":false,"is_disabled":false,"rental_uris":{"android":"levelo://app?vid=6b4c0df2-1b79-4f2d-88f2-cdef4904ca8e","ios":"levelo://app?vid=6b4c0df2-1b79-4f2d-88f2-cdef4904ca8e"},"vehicle_type_id":"4","last_reported":1737540437,"current_range_meters":38000,"station_id":"ce4bgj92rcd13ifvqbe0","pricing_plan_id":"cebpf4jnsgd1na2vs0mg"},{"bike_id":"46819045-a76c-4f28-b0a2-c29d305da33c","system_id":"levelo_inurba_marseille","lat":43.30454,"lon":5.37893,"is_reserved":false,"is_disabled":false,"rental_uris":{"android":"levelo://app?vid=46819045-a76c-4f28-b0a2-c29d305da33c","ios":"levelo://app?vid=46819045-a76c-4f28-b0a2-c29d305da33c"},"vehicle_type_id":"4","last_reported":1737540437,"current_range_meters":28000,"station_id":"","pricing_plan_id":"cebpf4jnsgd1na2vs0mg"},{"bike_id":"6a243d90-aa22-417f-ad42-e4d8ab85b602","system_id":"levelo_inurba_marseille","lat":43.3052,"lon":5.36706,"is_reserved":false,"is_disabled":false,"rental_uris":{"android":"levelo://app?vid=6a243d90-aa22-417f-ad42-e4d8ab85b602","ios":"levelo://app?vid=6a243d90-aa22-417f-ad42-e4d8ab85b602"},"vehicle_type_id":"4","last_reported":1737540437,"current_range_meters":39200,"station_id":"ce4bgrp2rcd13ifvqc9g","pricing_plan_id":"cebpf4jnsgd1na2vs0mg"},{"bike_id":"d6e7e882-1ba0-452e-bda2-861fb950b72a","system_id":"levelo_inurba_marseille","lat":43.31365,"lon":5.36694,"is_reserved":false,"is_disabled":false,"rental_uris":{"android":"levelo://app?vid=d6e7e882-1ba0-452e-bda2-861fb950b72a","ios":"levelo://app?vid=d6e7e882-1ba0-452e-bda2-861fb950b72a"},"vehicle_type_id":"4","last_reported":1737540437,"current_range_meters":27600,"station_id":"ce4bgr92rcd13ifvqc6g","pricing_plan_id":"cebpf4jnsgd1na2vs0mg"},{"bike_id":"229dd1d5-aa46-48d3-b747-f187a4236bff","system_id":"levelo_inurba_marseille","lat":43.32347,"lon":5.38913,"is_reserved":false,"is_disabled":false,"rental_uris":{"android":"levelo://app?vid=229dd1d5-aa46-48d3-b747-f187a4236bff","ios":"levelo://app?vid=229dd1d5-aa46-48d3-b747-f187a4236bff"},"vehicle_type_id":"4","last_reported":1737540437,"current_range_meters":24400,"station_id":"ce4bhqp2rcd13ifvqhog","pricing_plan_id":"cebpf4jnsgd1na2vs0mg"},{"bike_id":"92074eeb-7c24-47b3-a1d7-6aecb177d103","system_id":"levelo_inurba_marseille","lat":43.33601,"lon":5.41025,"is_reserved":false,"is_disabled":false,"rental_uris":{"android":"levelo://app?vid=92074eeb-7c24-47b3-a1d7-6aecb177d103","ios":"levelo://app?vid=92074eeb-7c24-47b3-a1d7-6aecb177d103"},"vehicle_type_id":"4","last_reported":1737540437,"current_range_meters":36400,"station_id":"ce4bhqh2rcd13ifvqhmg","pricing_plan_id":"cebpf4jnsgd1na2vs0mg"},{"bike_id":"388bf2cf-af51-463d-a5ac-6234f3f91974","system_id":"levelo_inurba_marseille","lat":43.30495,"lon":5.37913,"is_reserved":false,"is_disabled":true,"rental_uris":{"android":"levelo://app?vid=388bf2cf-af51-463d-a5ac-6234f3f91974","ios":"levelo://app?vid=388bf2cf-af51-463d-a5ac-6234f3f91974"},"vehicle_type_id":"4","last_reported":1737540437,"current_range_meters":38800,"station_id":"ce4bgup2rcd13ifvqcn0","pricing_plan_id":"cebpf4jnsgd1na2vs0mg"},{"bike_id":"a8d1e8a2-7f0c-48b3-8ec6-103bd14c2b76","system_id":"levelo_inurba_marseille","lat":43.29618,"lon":5.37165,"is_reserved":false,"is_disabled":false,"rental_uris":{"android":"levelo://app?vid=a8d1e8a2-7f0c-48b3-8ec6-103bd14c2b76","ios":"levelo://app?vid=a8d1e8a2-7f0c-48b3-8ec6-103bd14c2b76"},"vehicle_type_id":"4","last_reported":1737540437,"current_range_meters":24400,"station_id":"ce4bgnh2rcd13ifvqc0g","pricing_plan_id":"cebpf4jnsgd1na2vs0mg"},{"bike_id":"2b9b2bd3-d403-463f-bab7-3e9bdaa7f40f","system_id":"levelo_inurba_marseille","lat":43.25948,"lon":5.40889,"is_reserved":false,"is_disabled":false,"rental_uris":{"android":"levelo://app?vid=2b9b2bd3-d403-463f-bab7-3e9bdaa7f40f","ios":"levelo://app?vid=2b9b2bd3-d403-463f-bab7-3e9bdaa7f40f"},"vehicle_type_id":"4","last_reported":1737540437,"current_range_meters":38800,"station_id":"ce4bhm92rcd13ifvqglg","pricing_plan_id":"cebpf4jnsgd1na2vs0mg"},{"bike_id":"dc7762c6-d7a7-4c25-9f15-433649cad754","system_id":"levelo_inurba_marseille","lat":43.2705,"lon":5.40261,"is_reserved":false,"is_disabled":false,"rental_uris":{"android":"levelo://app?vid=dc7762c6-d7a7-4c25-9f15-433649cad754","ios":"levelo://app?vid=dc7762c6-d7a7-4c25-9f15-433649cad754"},"vehicle_type_id":"4","last_reported":1737540437,"current_range_meters":22800,"station_id":"ce4bhk92rcd13ifvqgc0","pricing_plan_id":"cebpf4jnsgd1na2vs0mg"},{"bike_id":"ad50e420-a2d6-4010-9f6f-6a3b93a4d1f6","system_id":"levelo_inurba_marseille","lat":43.29914,"lon":5.3747,"is_reserved":false,"is_disabled":false,"rental_uris":{"android":"levelo://app?vid=ad50e420-a2d6-4010-9f6f-6a3b93a4d1f6","ios":"levelo://app?vid=ad50e420-a2d6-4010-9f6f-6a3b93a4d1f6"},"vehicle_type_id":"4","last_reported":1737540437,"current_range_meters":26000,"station_id":"ce4bgjh2rcd13ifvqbg0","pricing_plan_id":"cebpf4jnsgd1na2vs0mg"},{"bike_id":"33b8b2cb-5642-4f02-b5ac-2d1dbeb1b8ac","system_id":"levelo_inurba_marseille","lat":43.31969,"lon":5.38179,"is_reserved":false,"is_disabled":false,"rental_uris":{"android":"levelo://app?vid=33b8b2cb-5642-4f02-b5ac-2d1dbeb1b8ac","ios":"levelo://app?vid=33b8b2cb-5642-4f02-b5ac-2d1dbeb1b8ac"},"vehicle_type_id":"4","last_reported":1737540437,"current_range_meters":38800,"station_id":"ce4bhr12rcd13ifvqhpg","pricing_plan_id":"cebpf4jnsgd1na2vs0mg"},{"bike_id":"8e81af13-6e30-497c-a6eb-6ceaa22f4f31","system_id":"levelo_inurba_marseille","lat":43.30429,"lon":5.38874,"is_reserved":false,"is_disabled":false,"rental_uris":{"android":"levelo://app?vid=8e81af13-6e30-497c-a6eb-6ceaa22f4f31","ios":"levelo://app?vid=8e81af13-6e30-497c-a6eb-6ceaa22f4f31"},"vehicle_type_id":"4","last_reported":1737540437,"current_range_meters":37600,"station_id":"ce4bgk12rcd13ifvqbi0","pricing_plan_id":"cebpf4jnsgd1na2vs0mg"},{"bike_id":"8e4357be-8821-48bd-91a9-141b212e0b28","system_id":"levelo_inurba_marseille","lat":43.29959,"lon":5.38509,"is_reserved":false,"is_disabled":false,"rental_uris":{"android":"levelo://app?vid=8e4357be-8821-48bd-91a9-141b212e0b28","ios":"levelo://app?vid=8e4357be-8821-48bd-91a9-141b212e0b28"},"vehicle_type_id":"4","last_reported":1737540437,"current_range_meters":38800,"station_id":"ce4bgj92rcd13ifvqbd0","pricing_plan_id":"cebpf4jnsgd1na2vs0mg"},{"bike_id":"bef6c1af-f80b-4a93-9039-cf48e3f45fa6","system_id":"levelo_inurba_marseille","lat":43.23963,"lon":5.36651,"is_reserved":false,"is_disabled":false,"rental_uris":{"android":"levelo://app?vid=bef6c1af-f80b-4a93-9039-cf48e3f45fa6","ios":"levelo://app?vid=bef6c1af-f80b-4a93-9039-cf48e3f45fa6"},"vehicle_type_id":"4","last_reported":1737540437,"current_range_meters":27600,"station_id":"ce4bhi12rcd13ifvqfp0","pricing_plan_id":"cebpf4jnsgd1na2vs0mg"},{"bike_id":"72795c3f-d86e-4a83-b39a-c97870b6590c","system_id":"levelo_inurba_marseille","lat":43.29965,"lon":5.38495,"is_reserved":false,"is_disabled":false,"rental_uris":{"android":"levelo://app?vid=72795c3f-d86e-4a83-b39a-c97870b6590c","ios":"levelo://app?vid=72795c3f-d86e-4a83-b39a-c97870b6590c"},"vehicle_type_id":"4","last_reported":1737540437,"current_range_meters":28400,"station_id":"ce4bgj92rcd13ifvqbd0","pricing_plan_id":"cebpf4jnsgd1na2vs0mg"},{"bike_id":"80efdbfa-1f2e-43a7-af57-c4f0efb138f8","system_id":"levelo_inurba_marseille","lat":43.29553,"lon":5.37524,"is_reserved":false,"is_disabled":false,"rental_uris":{"android":"levelo://app?vid=80efdbfa-1f2e-43a7-af57-c4f0efb138f8","ios":"levelo://app?vid=80efdbfa-1f2e-43a7-af57-c4f0efb138f8"},"vehicle_type_id":"4","last_reported":1737540437,"current_range_meters":21600,"station_id":"ce4bgh92rcd13ifvqb50","pricing_plan_id":"cebpf4jnsgd1na2vs0mg"},{"bike_id":"7913d9ce-121f-49fa-9a7c-09d5d8f80136","system_id":"levelo_inurba_marseille","lat":43.27898,"lon":5.38025,"is_reserved":false,"is_disabled":false,"rental_uris":{"android":"levelo://app?vid=7913d9ce-121f-49fa-9a7c-09d5d8f80136","ios":"levelo://app?vid=7913d9ce-121f-49fa-9a7c-09d5d8f80136"},"vehicle_type_id":"4","last_reported":1737540437,"current_range_meters":38800,"station_id":"ce4bhf92rcd13ifvqf50","pricing_plan_id":"cebpf4jnsgd1na2vs0mg"},{"bike_id":"fe71ffd1-57ef-45b1-8082-78407a87e5dd","system_id":"levelo_inurba_marseille","lat":43.32476,"lon":5.36553,"is_reserved":false,"is_disabled":false,"rental_uris":{"android":"levelo://app?vid=fe71ffd1-57ef-45b1-8082-78407a87e5dd","ios":"levelo://app?vid=fe71ffd1-57ef-45b1-8082-78407a87e5dd"},"vehicle_type_id":"4","last_reported":1737540437,"current_range_meters":26000,"station_id":"ce4bhs12rcd13ifvqhvg","pricing_plan_id":"cebpf4jnsgd1na2vs0mg"},{"bike_id":"67be59f1-7d33-4864-b74d-4497534abf2e","system_id":"levelo_inurba_marseille","lat":43.25819,"lon":5.39435,"is_reserved":false,"is_disabled":false,"rental_uris":{"android":"levelo://app?vid=67be59f1-7d33-4864-b74d-4497534abf2e","ios":"levelo://app?vid=67be59f1-7d33-4864-b74d-4497534abf2e"},"vehicle_type_id":"4","last_reported":1737540437,"current_range_meters":36400,"station_id":"ce4bhip2rcd13ifvqft0","pricing_plan_id":"cebpf4jnsgd1na2vs0mg"},{"bike_id":"6f1b2f5e-bcc7-469a-bcfc-86de7080ad59","system_id":"levelo_inurba_marseille","lat":43.30268,"lon":5.37718,"is_reserved":false,"is_disabled":false,"rental_uris":{"android":"levelo://app?vid=6f1b2f5e-bcc7-469a-bcfc-86de7080ad59","ios":"levelo://app?vid=6f1b2f5e-bcc7-469a-bcfc-86de7080ad59"},"vehicle_type_id":"4","last_reported":1737540437,"current_range_meters":33600,"station_id":"ce4bguh2rcd13ifvqcj0","pricing_plan_id":"cebpf4jnsgd1na2vs0mg"},{"bike_id":"cb1ee9bd-9e3d-444a-8abf-19b0b1abd03e","system_id":"levelo_inurba_marseille","lat":43.28354,"lon":5.38101,"is_reserved":false,"is_disabled":false,"rental_uris":{"android":"levelo://app?vid=cb1ee9bd-9e3d-444a-8abf-19b0b1abd03e","ios":"levelo://app?vid=cb1ee9bd-9e3d-444a-8abf-19b0b1abd03e"},"vehicle_type_id":"4","last_reported":1737540437,"current_range_meters":38000,"station_id":"ce4bh412rcd13ifvqdr0","pricing_plan_id":"cebpf4jnsgd1na2vs0mg"},{"bike_id":"5b0c2773-d5b2-4dbe-bd78-1515ffe55928","system_id":"levelo_inurba_marseille","lat":43.25922,"lon":5.40898,"is_reserved":false,"is_disabled":false,"rental_uris":{"android":"levelo://app?vid=5b0c2773-d5b2-4dbe-bd78-1515ffe55928","ios":"levelo://app?vid=5b0c2773-d5b2-4dbe-bd78-1515ffe55928"},"vehicle_type_id":"4","last_reported":1737540437,"current_range_meters":24400,"station_id":"ce4bhm92rcd13ifvqglg","pricing_plan_id":"cebpf4jnsgd1na2vs0mg"},{"bike_id":"37296be2-71c5-4057-9ec0-05b66a98ee16","system_id":"levelo_inurba_marseille","lat":43.29171,"lon":5.3716,"is_reserved":false,"is_disabled":false,"rental_uris":{"android":"levelo://app?vid=37296be2-71c5-4057-9ec0-05b66a98ee16","ios":"levelo://app?vid=37296be2-71c5-4057-9ec0-05b66a98ee16"},"vehicle_type_id":"4","last_reported":1737540437,"current_range_meters":39200,"station_id":"ce4bha92rcd13ifvqeh0","pricing_plan_id":"cebpf4jnsgd1na2vs0mg"},{"bike_id":"2512448d-137b-4c58-a2dc-a8485ce50ee5","system_id":"levelo_inurba_marseille","lat":43.27796,"lon":5.40741,"is_reserved":false,"is_disabled":false,"rental_uris":{"android":"levelo://app?vid=2512448d-137b-4c58-a2dc-a8485ce50ee5","ios":"levelo://app?vid=2512448d-137b-4c58-a2dc-a8485ce50ee5"},"vehicle_type_id":"4","last_reported":1737540437,"current_range_meters":38800,"station_id":"ce4bhnh2rcd13ifvqgtg","pricing_plan_id":"cebpf4jnsgd1na2vs0mg"},{"bike_id":"e6b4a07a-7142-4c60-ad42-8a9947eb9acf","system_id":"levelo_inurba_marseille","lat":43.31725,"lon":5.40448,"is_reserved":false,"is_disabled":false,"rental_uris":{"android":"levelo://app?vid=e6b4a07a-7142-4c60-ad42-8a9947eb9acf","ios":"levelo://app?vid=e6b4a07a-7142-4c60-ad42-8a9947eb9acf"},"vehicle_type_id":"4","last_reported":1737540437,"current_range_meters":32000,"station_id":"ce4bh012rcd13ifvqd00","pricing_plan_id":"cebpf4jnsgd1na2vs0mg"},{"bike_id":"96e2fa78-a9ec-4b79-b618-7a6b5e10da55","system_id":"levelo_inurba_marseille","lat":43.28352,"lon":5.38108,"is_reserved":false,"is_disabled":true,"rental_uris":{"android":"levelo://app?vid=96e2fa78-a9ec-4b79-b618-7a6b5e10da55","ios":"levelo://app?vid=96e2fa78-a9ec-4b79-b618-7a6b5e10da55"},"vehicle_type_id":"4","last_reported":1737540437,"current_range_meters":32000,"station_id":"ce4bh412rcd13ifvqdr0","pricing_plan_id":"cebpf4jnsgd1na2vs0mg"},{"bike_id":"65af0458-5b43-4e16-8bf6-cc36bd0a7ddf","system_id":"levelo_inurba_marseille","lat":43.30451,"lon":5.37921,"is_reserved":false,"is_disabled":false,"rental_uris":{"android":"levelo://app?vid=65af0458-5b43-4e16-8bf6-cc36bd0a7ddf","ios":"levelo://app?vid=65af0458-5b43-4e16-8bf6-cc36bd0a7ddf"},"vehicle_type_id":"4","last_reported":1737540437,"current_range_meters":32400,"station_id":"ce4bgup2rcd13ifvqcn0","pricing_plan_id":"cebpf4jnsgd1na2vs0mg"},{"bike_id":"3ab3e001-4f5e-4747-b5ef-9f0283fb336c","system_id":"levelo_inurba_marseille","lat":43.28944,"lon":5.36383,"is_reserved":false,"is_disabled":false,"rental_uris":{"android":"levelo://app?vid=3ab3e001-4f5e-4747-b5ef-9f0283fb336c","ios":"levelo://app?vid=3ab3e001-4f5e-4747-b5ef-9f0283fb336c"},"vehicle_type_id":"4","last_reported":1737540437,"current_range_meters":31200,"station_id":"ce4bhc92rcd13ifvqetg","pricing_plan_id":"cebpf4jnsgd1na2vs0mg"},{"bike_id":"30d68251-06ab-4178-b34d-ef7ca51538b3","system_id":"levelo_inurba_marseille","lat":43.3136,"lon":5.38502,"is_reserved":false,"is_disabled":true,"rental_uris":{"android":"levelo://app?vid=30d68251-06ab-4178-b34d-ef7ca51538b3","ios":"levelo://app?vid=30d68251-06ab-4178-b34d-ef7ca51538b3"},"vehicle_type_id":"4","last_reported":1737540437,"current_range_meters":0,"station_id":"ce4bgt92rcd13ifvqcf0","pricing_plan_id":"cebpf4jnsgd1na2vs0mg"},{"bike_id":"1f5cb474-798b-4357-9d76-fbb42e648fb5","system_id":"levelo_inurba_marseille","lat":43.28603,"lon":5.35127,"is_reserved":false,"is_disabled":false,"rental_uris":{"android":"levelo://app?vid=1f5cb474-798b-4357-9d76-fbb42e648fb5","ios":"levelo://app?vid=1f5cb474-798b-4357-9d76-fbb42e648fb5"},"vehicle_type_id":"4","last_reported":1737540437,"current_range_meters":10000,"station_id":"ce4bhch2rcd13ifvqeug","pricing_plan_id":"cebpf4jnsgd1na2vs0mg"},{"bike_id":"7602ec5e-b6be-4286-8ae1-0dcc95a85012","system_id":"levelo_inurba_marseille","lat":43.27365,"lon":5.36255,"is_reserved":false,"is_disabled":false,"rental_uris":{"android":"levelo://app?vid=7602ec5e-b6be-4286-8ae1-0dcc95a85012","ios":"levelo://app?vid=7602ec5e-b6be-4286-8ae1-0dcc95a85012"},"vehicle_type_id":"4","last_reported":1737540437,"current_range_meters":26000,"station_id":"ce4bhbh2rcd13ifvqeo0","pricing_plan_id":"cebpf4jnsgd1na2vs0mg"},{"bike_id":"0097aaa5-ea1c-4726-a554-1ef9b35f0ea2","system_id":"levelo_inurba_marseille","lat":43.30434,"lon":5.37918,"is_reserved":false,"is_disabled":false,"rental_uris":{"android":"levelo://app?vid=0097aaa5-ea1c-4726-a554-1ef9b35f0ea2","ios":"levelo://app?vid=0097aaa5-ea1c-4726-a554-1ef9b35f0ea2"},"vehicle_type_id":"4","last_reported":1737540437,"current_range_meters":38800,"station_id":"","pricing_plan_id":"cebpf4jnsgd1na2vs0mg"},{"bike_id":"219fa9f3-6867-4e38-827d-5c2299c3f70d","system_id":"levelo_inurba_marseille","lat":43.33753,"lon":5.37479,"is_reserved":false,"is_disabled":false,"rental_uris":{"android":"levelo://app?vid=219fa9f3-6867-4e38-827d-5c2299c3f70d","ios":"levelo://app?vid=219fa9f3-6867-4e38-827d-5c2299c3f70d"},"vehicle_type_id":"4","last_reported":1737540437,"current_range_meters":38000,"station_id":"","pricing_plan_id":"cebpf4jnsgd1na2vs0mg"},{"bike_id":"84a96778-eda2-4460-b115-7bed88ca3920","system_id":"levelo_inurba_marseille","lat":43.31078,"lon":5.42426,"is_reserved":false,"is_disabled":false,"rental_uris":{"android":"levelo://app?vid=84a96778-eda2-4460-b115-7bed88ca3920","ios":"levelo://app?vid=84a96778-eda2-4460-b115-7bed88ca3920"},"vehicle_type_id":"4","last_reported":1737540437,"current_range_meters":36400,"station_id":"ce4bhp92rcd13ifvqhag","pricing_plan_id":"cebpf4jnsgd1na2vs0mg"},{"bike_id":"420d5934-3281-481b-85d0-593492eb39f0","system_id":"levelo_inurba_marseille","lat":43.29624,"lon":5.3772,"is_reserved":false,"is_disabled":false,"rental_uris":{"android":"levelo://app?vid=420d5934-3281-481b-85d0-593492eb39f0","ios":"levelo://app?vid=420d5934-3281-481b-85d0-593492eb39f0"},"vehicle_type_id":"4","last_reported":1737540437,"current_range_meters":22800,"station_id":"ce4bgi92rcd13ifvqb90","pricing_plan_id":"cebpf4jnsgd1na2vs0mg"},{"bike_id":"9b3165e9-8183-4de4-ab21-7b1a21a4e2a1","system_id":"levelo_inurba_marseille","lat":43.30532,"lon":5.38429,"is_reserved":false,"is_disabled":false,"rental_uris":{"android":"levelo://app?vid=9b3165e9-8183-4de4-ab21-7b1a21a4e2a1","ios":"levelo://app?vid=9b3165e9-8183-4de4-ab21-7b1a21a4e2a1"},"vehicle_type_id":"4","last_reported":1737540437,"current_range_meters":38800,"station_id":"ce4bgg92rcd13ifvqb30","pricing_plan_id":"cebpf4jnsgd1na2vs0mg"},{"bike_id":"cb81130e-1c32-4378-a0eb-627350e954d9","system_id":"levelo_inurba_marseille","lat":43.24074,"lon":5.37755,"is_reserved":false,"is_disabled":false,"rental_uris":{"android":"levelo://app?vid=cb81130e-1c32-4378-a0eb-627350e954d9","ios":"levelo://app?vid=cb81130e-1c32-4378-a0eb-627350e954d9"},"vehicle_type_id":"4","last_reported":1737540437,"current_range_meters":38400,"station_id":"ce4bhnp2rcd13ifvqgvg","pricing_plan_id":"cebpf4jnsgd1na2vs0mg"},{"bike_id":"095380b9-38d4-4372-8c90-6fc3dcb7c710","system_id":"levelo_inurba_marseille","lat":43.28833,"lon":5.35857,"is_reserved":false,"is_disabled":false,"rental_uris":{"android":"levelo://app?vid=095380b9-38d4-4372-8c90-6fc3dcb7c710","ios":"levelo://app?vid=095380b9-38d4-4372-8c90-6fc3dcb7c710"},"vehicle_type_id":"4","last_reported":1737540437,"current_range_meters":23200,"station_id":"ce4bhb12rcd13ifvqem0","pricing_plan_id":"cebpf4jnsgd1na2vs0mg"},{"bike_id":"2cf918f6-2152-49aa-b918-01ff8a1d8cb0","system_id":"levelo_inurba_marseille","lat":43.30134,"lon":5.3743,"is_reserved":false,"is_disabled":false,"rental_uris":{"android":"levelo://app?vid=2cf918f6-2152-49aa-b918-01ff8a1d8cb0","ios":"levelo://app?vid=2cf918f6-2152-49aa-b918-01ff8a1d8cb0"},"vehicle_type_id":"4","last_reported":1737540437,"current_range_meters":39200,"station_id":"ce4bgs92rcd13ifvqcc0","pricing_plan_id":"cebpf4jnsgd1na2vs0mg"},{"bike_id":"7db55a91-b073-4c5e-bbde-3eaf0a58e70a","system_id":"levelo_inurba_marseille","lat":43.26684,"lon":5.38273,"is_reserved":false,"is_disabled":false,"rental_uris":{"android":"levelo://app?vid=7db55a91-b073-4c5e-bbde-3eaf0a58e70a","ios":"levelo://app?vid=7db55a91-b073-4c5e-bbde-3eaf0a58e70a"},"vehicle_type_id":"4","last_reported":1737540437,"current_range_meters":39200,"station_id":"ce4bhg92rcd13ifvqf90","pricing_plan_id":"cebpf4jnsgd1na2vs0mg"},{"bike_id":"8be60f39-a086-4763-94b5-18b873ffb015","system_id":"levelo_inurba_marseille","lat":43.30885,"lon":5.36909,"is_reserved":false,"is_disabled":false,"rental_uris":{"android":"levelo://app?vid=8be60f39-a086-4763-94b5-18b873ffb015","ios":"levelo://app?vid=8be60f39-a086-4763-94b5-18b873ffb015"},"vehicle_type_id":"4","last_reported":1737540437,"current_range_meters":32400,"station_id":"ce4bgn92rcd13ifvqbvg","pricing_plan_id":"cebpf4jnsgd1na2vs0mg"},{"bike_id":"dfae3e73-0188-4683-9589-24d6f6a1d5af","system_id":"levelo_inurba_marseille","lat":43.24987,"lon":5.38941,"is_reserved":false,"is_disabled":false,"rental_uris":{"android":"levelo://app?vid=dfae3e73-0188-4683-9589-24d6f6a1d5af","ios":"levelo://app?vid=dfae3e73-0188-4683-9589-24d6f6a1d5af"},"vehicle_type_id":"4","last_reported":1737540437,"current_range_meters":27600,"station_id":"ce4bhgp2rcd13ifvqfd0","pricing_plan_id":"cebpf4jnsgd1na2vs0mg"},{"bike_id":"40c1e7e0-485d-4b79-84a8-c7d902e4c81d","system_id":"levelo_inurba_marseille","lat":43.31532,"lon":5.38028,"is_reserved":false,"is_disabled":false,"rental_uris":{"android":"levelo://app?vid=40c1e7e0-485d-4b79-84a8-c7d902e4c81d","ios":"levelo://app?vid=40c1e7e0-485d-4b79-84a8-c7d902e4c81d"},"vehicle_type_id":"4","last_reported":1737540437,"current_range_meters":32400,"station_id":"ce4bhsp2rcd13ifvqi50","pricing_plan_id":"cebpf4jnsgd1na2vs0mg"},{"bike_id":"6b30d96f-f237-432c-a2c8-c1523d3df7c1","system_id":"levelo_inurba_marseille","lat":43.29516,"lon":5.38532,"is_reserved":false,"is_disabled":false,"rental_uris":{"android":"levelo://app?vid=6b30d96f-f237-432c-a2c8-c1523d3df7c1","ios":"levelo://app?vid=6b30d96f-f237-432c-a2c8-c1523d3df7c1"},"vehicle_type_id":"4","last_reported":1737540437,"current_range_meters":38800,"station_id":"ce4bgih2rcd13ifvqba0","pricing_plan_id":"cebpf4jnsgd1na2vs0mg"},{"bike_id":"f5643cb3-d244-4763-ada9-ff8324d131b4","system_id":"levelo_inurba_marseille","lat":43.31381,"lon":5.36681,"is_reserved":false,"is_disabled":false,"rental_uris":{"android":"levelo://app?vid=f5643cb3-d244-4763-ada9-ff8324d131b4","ios":"levelo://app?vid=f5643cb3-d244-4763-ada9-ff8324d131b4"},"vehicle_type_id":"4","last_reported":1737540437,"current_range_meters":38400,"station_id":"","pricing_plan_id":"cebpf4jnsgd1na2vs0mg"},{"bike_id":"966632b3-ddbb-42a2-879d-3bf9ebee52b0","system_id":"levelo_inurba_marseille","lat":43.30598,"lon":5.39347,"is_reserved":false,"is_disabled":false,"rental_uris":{"android":"levelo://app?vid=966632b3-ddbb-42a2-879d-3bf9ebee52b0","ios":"levelo://app?vid=966632b3-ddbb-42a2-879d-3bf9ebee52b0"},"vehicle_type_id":"4","last_reported":1737540437,"current_range_meters":24400,"station_id":"ce4bh0p2rcd13ifvqd80","pricing_plan_id":"cebpf4jnsgd1na2vs0mg"},{"bike_id":"2130eef4-e2de-4563-bef2-4b75b4d123be","system_id":"levelo_inurba_marseille","lat":43.29527,"lon":5.39043,"is_reserved":false,"is_disabled":false,"rental_uris":{"android":"levelo://app?vid=2130eef4-e2de-4563-bef2-4b75b4d123be","ios":"levelo://app?vid=2130eef4-e2de-4563-bef2-4b75b4d123be"},"vehicle_type_id":"4","last_reported":1737540437,"current_range_meters":34000,"station_id":"ce4bh3p2rcd13ifvqdp0","pricing_plan_id":"cebpf4jnsgd1na2vs0mg"},{"bike_id":"48178648-a5cc-49a7-a582-fb3aa5589302","system_id":"levelo_inurba_marseille","lat":43.25079,"lon":5.3951,"is_reserved":false,"is_disabled":false,"rental_uris":{"android":"levelo://app?vid=48178648-a5cc-49a7-a582-fb3aa5589302","ios":"levelo://app?vid=48178648-a5cc-49a7-a582-fb3aa5589302"},"vehicle_type_id":"4","last_reported":1737540437,"current_range_meters":38800,"station_id":"ce4bhm12rcd13ifvqgkg","pricing_plan_id":"cebpf4jnsgd1na2vs0mg"},{"bike_id":"c4a63f1f-ad05-4fdb-b9b6-22e660bf137e","system_id":"levelo_inurba_marseille","lat":43.29972,"lon":5.38493,"is_reserved":false,"is_disabled":false,"rental_uris":{"android":"levelo://app?vid=c4a63f1f-ad05-4fdb-b9b6-22e660bf137e","ios":"levelo://app?vid=c4a63f1f-ad05-4fdb-b9b6-22e660bf137e"},"vehicle_type_id":"4","last_reported":1737540437,"current_range_meters":39200,"station_id":"ce4bgj92rcd13ifvqbd0","pricing_plan_id":"cebpf4jnsgd1na2vs0mg"},{"bike_id":"2501ae24-5703-45d3-ac01-dec581041e28","system_id":"levelo_inurba_marseille","lat":43.28653,"lon":5.3636,"is_reserved":false,"is_disabled":true,"rental_uris":{"android":"levelo://app?vid=2501ae24-5703-45d3-ac01-dec581041e28","ios":"levelo://app?vid=2501ae24-5703-45d3-ac01-dec581041e28"},"vehicle_type_id":"4","last_reported":1737540437,"current_range_meters":8400,"station_id":"ce4bhah2rcd13ifvqej0","pricing_plan_id":"cebpf4jnsgd1na2vs0mg"},{"bike_id":"741aa226-41f7-40d7-9698-9eb35a5fef23","system_id":"levelo_inurba_marseille","lat":43.2511,"lon":5.40351,"is_reserved":false,"is_disabled":false,"rental_uris":{"android":"levelo://app?vid=741aa226-41f7-40d7-9698-9eb35a5fef23","ios":"levelo://app?vid=741aa226-41f7-40d7-9698-9eb35a5fef23"},"vehicle_type_id":"4","last_reported":1737540437,"current_range_meters":22000,"station_id":"ce4bhlh2rcd13ifvqgig","pricing_plan_id":"cebpf4jnsgd1na2vs0mg"},{"bike_id":"e4d0e43a-623c-43c6-9138-f6bcd7e407ba","system_id":"levelo_inurba_marseille","lat":43.30437,"lon":5.39749,"is_reserved":false,"is_disabled":false,"rental_uris":{"android":"levelo://app?vid=e4d0e43a-623c-43c6-9138-f6bcd7e407ba","ios":"levelo://app?vid=e4d0e43a-623c-43c6-9138-f6bcd7e407ba"},"vehicle_type_id":"4","last_reported":1737540437,"current_range_meters":37600,"station_id":"ce4bh092rcd13ifvqd20","pricing_plan_id":"cebpf4jnsgd1na2vs0mg"},{"bike_id":"128e62b3-b4dd-4f12-b01c-22bb2793790f","system_id":"levelo_inurba_marseille","lat":43.23975,"lon":5.3662,"is_reserved":false,"is_disabled":false,"rental_uris":{"android":"levelo://app?vid=128e62b3-b4dd-4f12-b01c-22bb2793790f","ios":"levelo://app?vid=128e62b3-b4dd-4f12-b01c-22bb2793790f"},"vehicle_type_id":"4","last_reported":1737540437,"current_range_meters":8400,"station_id":"ce4bhi12rcd13ifvqfp0","pricing_plan_id":"cebpf4jnsgd1na2vs0mg"},{"bike_id":"ff89db4c-9cbc-4a27-be9e-c6cf5246ce51","system_id":"levelo_inurba_marseille","lat":43.27994,"lon":5.41663,"is_reserved":false,"is_disabled":false,"rental_uris":{"android":"levelo://app?vid=ff89db4c-9cbc-4a27-be9e-c6cf5246ce51","ios":"levelo://app?vid=ff89db4c-9cbc-4a27-be9e-c6cf5246ce51"},"vehicle_type_id":"4","last_reported":1737540437,"current_range_meters":28800,"station_id":"ce4bho12rcd13ifvqh1g","pricing_plan_id":"cebpf4jnsgd1na2vs0mg"},{"bike_id":"e465c8cb-1035-48e3-bfab-7acb09a2c40b","system_id":"levelo_inurba_marseille","lat":43.30458,"lon":5.37906,"is_reserved":false,"is_disabled":false,"rental_uris":{"android":"levelo://app?vid=e465c8cb-1035-48e3-bfab-7acb09a2c40b","ios":"levelo://app?vid=e465c8cb-1035-48e3-bfab-7acb09a2c40b"},"vehicle_type_id":"4","last_reported":1737540437,"current_range_meters":17200,"station_id":"","pricing_plan_id":"cebpf4jnsgd1na2vs0mg"},{"bike_id":"3e2413f1-be2a-4539-9db1-7ce3307c11de","system_id":"levelo_inurba_marseille","lat":43.3066,"lon":5.40091,"is_reserved":false,"is_disabled":false,"rental_uris":{"android":"levelo://app?vid=3e2413f1-be2a-4539-9db1-7ce3307c11de","ios":"levelo://app?vid=3e2413f1-be2a-4539-9db1-7ce3307c11de"},"vehicle_type_id":"4","last_reported":1737540437,"current_range_meters":33600,"station_id":"ce4bh112rcd13ifvqda0","pricing_plan_id":"cebpf4jnsgd1na2vs0mg"},{"bike_id":"74f88829-7875-403e-880a-ffde751a2aa2","system_id":"levelo_inurba_marseille","lat":43.29949,"lon":5.41325,"is_reserved":false,"is_disabled":false,"rental_uris":{"android":"levelo://app?vid=74f88829-7875-403e-880a-ffde751a2aa2","ios":"levelo://app?vid=74f88829-7875-403e-880a-ffde751a2aa2"},"vehicle_type_id":"4","last_reported":1737540437,"current_range_meters":38000,"station_id":"ce4bhp12rcd13ifvqh9g","pricing_plan_id":"cebpf4jnsgd1na2vs0mg"},{"bike_id":"3ec6a8a5-3903-40fb-90e0-8e03f7d13467","system_id":"levelo_inurba_marseille","lat":43.30207,"lon":5.39447,"is_reserved":false,"is_disabled":false,"rental_uris":{"android":"levelo://app?vid=3ec6a8a5-3903-40fb-90e0-8e03f7d13467","ios":"levelo://app?vid=3ec6a8a5-3903-40fb-90e0-8e03f7d13467"},"vehicle_type_id":"4","last_reported":1737540437,"current_range_meters":30000,"station_id":"ce4bh0p2rcd13ifvqd70","pricing_plan_id":"cebpf4jnsgd1na2vs0mg"},{"bike_id":"fa680074-dc31-48c7-9352-4ab7933e6f1c","system_id":"levelo_inurba_marseille","lat":43.24995,"lon":5.3894,"is_reserved":false,"is_disabled":false,"rental_uris":{"android":"levelo://app?vid=fa680074-dc31-48c7-9352-4ab7933e6f1c","ios":"levelo://app?vid=fa680074-dc31-48c7-9352-4ab7933e6f1c"},"vehicle_type_id":"4","last_reported":1737540437,"current_range_meters":11600,"station_id":"ce4bhgp2rcd13ifvqfd0","pricing_plan_id":"cebpf4jnsgd1na2vs0mg"},{"bike_id":"41db3dd6-8867-4dd9-8a4d-d33e2316bd9b","system_id":"levelo_inurba_marseille","lat":43.30337,"lon":5.36477,"is_reserved":false,"is_disabled":false,"rental_uris":{"android":"levelo://app?vid=41db3dd6-8867-4dd9-8a4d-d33e2316bd9b","ios":"levelo://app?vid=41db3dd6-8867-4dd9-8a4d-d33e2316bd9b"},"vehicle_type_id":"4","last_reported":1737540437,"current_range_meters":18000,"station_id":"","pricing_plan_id":"cebpf4jnsgd1na2vs0mg"},{"bike_id":"69da86ec-9be5-4ff5-883c-da38a45c654a","system_id":"levelo_inurba_marseille","lat":43.31703,"lon":5.37777,"is_reserved":false,"is_disabled":false,"rental_uris":{"android":"levelo://app?vid=69da86ec-9be5-4ff5-883c-da38a45c654a","ios":"levelo://app?vid=69da86ec-9be5-4ff5-883c-da38a45c654a"},"vehicle_type_id":"4","last_reported":1737540437,"current_range_meters":33600,"station_id":"ce4bgth2rcd13ifvqch0","pricing_plan_id":"cebpf4jnsgd1na2vs0mg"},{"bike_id":"acca4c6d-813c-4738-8ed5-128138a4a2c2","system_id":"levelo_inurba_marseille","lat":43.28699,"lon":5.37953,"is_reserved":false,"is_disabled":false,"rental_uris":{"android":"levelo://app?vid=acca4c6d-813c-4738-8ed5-128138a4a2c2","ios":"levelo://app?vid=acca4c6d-813c-4738-8ed5-128138a4a2c2"},"vehicle_type_id":"4","last_reported":1737540437,"current_range_meters":20800,"station_id":"ce4bh9p2rcd13ifvqec0","pricing_plan_id":"cebpf4jnsgd1na2vs0mg"},{"bike_id":"358fe26e-996b-40a4-9673-9de108d8fce6","system_id":"levelo_inurba_marseille","lat":43.29407,"lon":5.3862,"is_reserved":false,"is_disabled":false,"rental_uris":{"android":"levelo://app?vid=358fe26e-996b-40a4-9673-9de108d8fce6","ios":"levelo://app?vid=358fe26e-996b-40a4-9673-9de108d8fce6"},"vehicle_type_id":"4","last_reported":1737540437,"current_range_meters":39200,"station_id":"ce4bh2h2rcd13ifvqdh0","pricing_plan_id":"cebpf4jnsgd1na2vs0mg"},{"bike_id":"b75be948-5a35-4727-9a66-f965d347ca07","system_id":"levelo_inurba_marseille","lat":43.29065,"lon":5.371617,"is_reserved":false,"is_disabled":false,"rental_uris":{"android":"levelo://app?vid=b75be948-5a35-4727-9a66-f965d347ca07","ios":"levelo://app?vid=b75be948-5a35-4727-9a66-f965d347ca07"},"vehicle_type_id":"4","last_reported":1737540437,"current_range_meters":28000,"station_id":"ce4bh5p2rcd13ifvqe4g","pricing_plan_id":"cebpf4jnsgd1na2vs0mg"},{"bike_id":"5f8e19c0-9d34-400f-8357-29490985c9f2","system_id":"levelo_inurba_marseille","lat":43.27378,"lon":5.36244,"is_reserved":false,"is_disabled":false,"rental_uris":{"android":"levelo://app?vid=5f8e19c0-9d34-400f-8357-29490985c9f2","ios":"levelo://app?vid=5f8e19c0-9d34-400f-8357-29490985c9f2"},"vehicle_type_id":"4","last_reported":1737540437,"current_range_meters":38000,"station_id":"ce4bhbh2rcd13ifvqeo0","pricing_plan_id":"cebpf4jnsgd1na2vs0mg"},{"bike_id":"80787b54-9707-459b-a955-ac98ef4a37a1","system_id":"levelo_inurba_marseille","lat":43.3149,"lon":5.37306,"is_reserved":false,"is_disabled":false,"rental_uris":{"android":"levelo://app?vid=80787b54-9707-459b-a955-ac98ef4a37a1","ios":"levelo://app?vid=80787b54-9707-459b-a955-ac98ef4a37a1"},"vehicle_type_id":"4","last_reported":1737540437,"current_range_meters":21600,"station_id":"ce4bgt12rcd13ifvqcd0","pricing_plan_id":"cebpf4jnsgd1na2vs0mg"},{"bike_id":"782a366d-5b51-4864-8e8d-a63bbed1e20d","system_id":"levelo_inurba_marseille","lat":43.25913,"lon":5.40877,"is_reserved":false,"is_disabled":false,"rental_uris":{"android":"levelo://app?vid=782a366d-5b51-4864-8e8d-a63bbed1e20d","ios":"levelo://app?vid=782a366d-5b51-4864-8e8d-a63bbed1e20d"},"vehicle_type_id":"4","last_reported":1737540437,"current_range_meters":38800,"station_id":"ce4bhm92rcd13ifvqglg","pricing_plan_id":"cebpf4jnsgd1na2vs0mg"},{"bike_id":"6a32197e-4dab-4fd3-be94-b6670cbe41e5","system_id":"levelo_inurba_marseille","lat":43.28934,"lon":5.38404,"is_reserved":false,"is_disabled":false,"rental_uris":{"android":"levelo://app?vid=6a32197e-4dab-4fd3-be94-b6670cbe41e5","ios":"levelo://app?vid=6a32197e-4dab-4fd3-be94-b6670cbe41e5"},"vehicle_type_id":"4","last_reported":1737540437,"current_range_meters":14000,"station_id":"ce4bh612rcd13ifvqe6g","pricing_plan_id":"cebpf4jnsgd1na2vs0mg"},{"bike_id":"847abf41-fb95-4772-afb9-a2d68d6ebb80","system_id":"levelo_inurba_marseille","lat":43.31368,"lon":5.367,"is_reserved":false,"is_disabled":false,"rental_uris":{"android":"levelo://app?vid=847abf41-fb95-4772-afb9-a2d68d6ebb80","ios":"levelo://app?vid=847abf41-fb95-4772-afb9-a2d68d6ebb80"},"vehicle_type_id":"4","last_reported":1737540437,"current_range_meters":16000,"station_id":"ce4bgr92rcd13ifvqc6g","pricing_plan_id":"cebpf4jnsgd1na2vs0mg"},{"bike_id":"8e1d8b51-c006-49e9-90af-c6bd66e9af45","system_id":"levelo_inurba_marseille","lat":43.31736,"lon":5.40426,"is_reserved":false,"is_disabled":false,"rental_uris":{"android":"levelo://app?vid=8e1d8b51-c006-49e9-90af-c6bd66e9af45","ios":"levelo://app?vid=8e1d8b51-c006-49e9-90af-c6bd66e9af45"},"vehicle_type_id":"4","last_reported":1737540437,"current_range_meters":38400,"station_id":"ce4bh012rcd13ifvqd00","pricing_plan_id":"cebpf4jnsgd1na2vs0mg"},{"bike_id":"d9c40ab6-bac5-4917-9ef3-09d6eec588a5","system_id":"levelo_inurba_marseille","lat":43.3027,"lon":5.3774,"is_reserved":false,"is_disabled":false,"rental_uris":{"android":"levelo://app?vid=d9c40ab6-bac5-4917-9ef3-09d6eec588a5","ios":"levelo://app?vid=d9c40ab6-bac5-4917-9ef3-09d6eec588a5"},"vehicle_type_id":"4","last_reported":1737540437,"current_range_meters":38800,"station_id":"ce4bguh2rcd13ifvqcj0","pricing_plan_id":"cebpf4jnsgd1na2vs0mg"},{"bike_id":"7844c861-9aa9-4fcc-adff-ad97178487a1","system_id":"levelo_inurba_marseille","lat":43.3372,"lon":5.39191,"is_reserved":false,"is_disabled":false,"rental_uris":{"android":"levelo://app?vid=7844c861-9aa9-4fcc-adff-ad97178487a1","ios":"levelo://app?vid=7844c861-9aa9-4fcc-adff-ad97178487a1"},"vehicle_type_id":"4","last_reported":1737540437,"current_range_meters":38000,"station_id":"ce4bhr92rcd13ifvqhsg","pricing_plan_id":"cebpf4jnsgd1na2vs0mg"},{"bike_id":"11fa77bb-0c0a-442b-b723-8002972f3c48","system_id":"levelo_inurba_marseille","lat":43.324776,"lon":5.365508,"is_reserved":false,"is_disabled":true,"rental_uris":{"android":"levelo://app?vid=11fa77bb-0c0a-442b-b723-8002972f3c48","ios":"levelo://app?vid=11fa77bb-0c0a-442b-b723-8002972f3c48"},"vehicle_type_id":"4","last_reported":1737540437,"current_range_meters":30000,"station_id":"ce4bhs12rcd13ifvqhvg","pricing_plan_id":"cebpf4jnsgd1na2vs0mg"},{"bike_id":"dd7100dd-be0e-42a3-b01c-070bb9c830e8","system_id":"levelo_inurba_marseille","lat":43.24071,"lon":5.37753,"is_reserved":false,"is_disabled":false,"rental_uris":{"android":"levelo://app?vid=dd7100dd-be0e-42a3-b01c-070bb9c830e8","ios":"levelo://app?vid=dd7100dd-be0e-42a3-b01c-070bb9c830e8"},"vehicle_type_id":"4","last_reported":1737540437,"current_range_meters":38400,"station_id":"ce4bhnp2rcd13ifvqgvg","pricing_plan_id":"cebpf4jnsgd1na2vs0mg"},{"bike_id":"0b9b413f-7704-4860-841a-7f725dbde95d","system_id":"levelo_inurba_marseille","lat":43.25087,"lon":5.39529,"is_reserved":false,"is_disabled":false,"rental_uris":{"android":"levelo://app?vid=0b9b413f-7704-4860-841a-7f725dbde95d","ios":"levelo://app?vid=0b9b413f-7704-4860-841a-7f725dbde95d"},"vehicle_type_id":"4","last_reported":1737540437,"current_range_meters":32000,"station_id":"ce4bhm12rcd13ifvqgkg","pricing_plan_id":"cebpf4jnsgd1na2vs0mg"},{"bike_id":"ec7f6e68-9379-4400-b205-dbb28c0b058b","system_id":"levelo_inurba_marseille","lat":43.30426,"lon":5.39748,"is_reserved":false,"is_disabled":false,"rental_uris":{"android":"levelo://app?vid=ec7f6e68-9379-4400-b205-dbb28c0b058b","ios":"levelo://app?vid=ec7f6e68-9379-4400-b205-dbb28c0b058b"},"vehicle_type_id":"4","last_reported":1737540437,"current_range_meters":17200,"station_id":"ce4bh092rcd13ifvqd20","pricing_plan_id":"cebpf4jnsgd1na2vs0mg"},{"bike_id":"29e4913b-9c16-4a50-a874-dbc1ddb78ad9","system_id":"levelo_inurba_marseille","lat":43.32544,"lon":5.41456,"is_reserved":false,"is_disabled":false,"rental_uris":{"android":"levelo://app?vid=29e4913b-9c16-4a50-a874-dbc1ddb78ad9","ios":"levelo://app?vid=29e4913b-9c16-4a50-a874-dbc1ddb78ad9"},"vehicle_type_id":"4","last_reported":1737540437,"current_range_meters":38800,"station_id":"ce4bhq12rcd13ifvqhhg","pricing_plan_id":"cebpf4jnsgd1na2vs0mg"},{"bike_id":"f6d34ec5-9a82-496d-91e1-3e7f8d04fbfb","system_id":"levelo_inurba_marseille","lat":43.297696,"lon":5.370977,"is_reserved":false,"is_disabled":false,"rental_uris":{"android":"levelo://app?vid=f6d34ec5-9a82-496d-91e1-3e7f8d04fbfb","ios":"levelo://app?vid=f6d34ec5-9a82-496d-91e1-3e7f8d04fbfb"},"vehicle_type_id":"4","last_reported":1737540437,"current_range_meters":38800,"station_id":"ce4bgop2rcd13ifvqc1g","pricing_plan_id":"cebpf4jnsgd1na2vs0mg"},{"bike_id":"2a054ea0-b7a2-4161-8ee7-2cbfc0fca055","system_id":"levelo_inurba_marseille","lat":43.27207,"lon":5.39187,"is_reserved":false,"is_disabled":false,"rental_uris":{"android":"levelo://app?vid=2a054ea0-b7a2-4161-8ee7-2cbfc0fca055","ios":"levelo://app?vid=2a054ea0-b7a2-4161-8ee7-2cbfc0fca055"},"vehicle_type_id":"4","last_reported":1737540437,"current_range_meters":28400,"station_id":"ce4bhhp2rcd13ifvqfm0","pricing_plan_id":"cebpf4jnsgd1na2vs0mg"},{"bike_id":"1cd05b4a-f688-43b0-b3a4-eaca2bcc4d3d","system_id":"levelo_inurba_marseille","lat":43.31356,"lon":5.36695,"is_reserved":false,"is_disabled":false,"rental_uris":{"android":"levelo://app?vid=1cd05b4a-f688-43b0-b3a4-eaca2bcc4d3d","ios":"levelo://app?vid=1cd05b4a-f688-43b0-b3a4-eaca2bcc4d3d"},"vehicle_type_id":"4","last_reported":1737540437,"current_range_meters":16000,"station_id":"ce4bgr92rcd13ifvqc6g","pricing_plan_id":"cebpf4jnsgd1na2vs0mg"},{"bike_id":"094aabae-ae7a-48cc-9ecf-c007a6b8f7bb","system_id":"levelo_inurba_marseille","lat":43.28417,"lon":5.37522,"is_reserved":false,"is_disabled":false,"rental_uris":{"android":"levelo://app?vid=094aabae-ae7a-48cc-9ecf-c007a6b8f7bb","ios":"levelo://app?vid=094aabae-ae7a-48cc-9ecf-c007a6b8f7bb"},"vehicle_type_id":"4","last_reported":1737540437,"current_range_meters":10000,"station_id":"ce4bh412rcd13ifvqds0","pricing_plan_id":"cebpf4jnsgd1na2vs0mg"},{"bike_id":"dbeab511-8cce-44d3-b9ea-8052c0726590","system_id":"levelo_inurba_marseille","lat":43.30273,"lon":5.37719,"is_reserved":false,"is_disabled":false,"rental_uris":{"android":"levelo://app?vid=dbeab511-8cce-44d3-b9ea-8052c0726590","ios":"levelo://app?vid=dbeab511-8cce-44d3-b9ea-8052c0726590"},"vehicle_type_id":"4","last_reported":1737540437,"current_range_meters":16800,"station_id":"ce4bguh2rcd13ifvqcj0","pricing_plan_id":"cebpf4jnsgd1na2vs0mg"},{"bike_id":"8fba9c64-a694-4f63-b2aa-fb14012cf8b7","system_id":"levelo_inurba_marseille","lat":43.30881,"lon":5.39645,"is_reserved":false,"is_disabled":false,"rental_uris":{"android":"levelo://app?vid=8fba9c64-a694-4f63-b2aa-fb14012cf8b7","ios":"levelo://app?vid=8fba9c64-a694-4f63-b2aa-fb14012cf8b7"},"vehicle_type_id":"4","last_reported":1737540437,"current_range_meters":11200,"station_id":"ce4bh012rcd13ifvqcv0","pricing_plan_id":"cebpf4jnsgd1na2vs0mg"},{"bike_id":"2fc90e2b-7bc3-4c1c-b9a1-54e988a74917","system_id":"levelo_inurba_marseille","lat":43.279439,"lon":5.389008,"is_reserved":false,"is_disabled":true,"rental_uris":{"android":"levelo://app?vid=2fc90e2b-7bc3-4c1c-b9a1-54e988a74917","ios":"levelo://app?vid=2fc90e2b-7bc3-4c1c-b9a1-54e988a74917"},"vehicle_type_id":"4","last_reported":1737540437,"current_range_meters":30000,"station_id":"","pricing_plan_id":"cebpf4jnsgd1na2vs0mg"},{"bike_id":"6afeeefa-11c0-4f74-82c2-cb592a43a0b2","system_id":"levelo_inurba_marseille","lat":43.2813,"lon":5.42666,"is_reserved":false,"is_disabled":false,"rental_uris":{"android":"levelo://app?vid=6afeeefa-11c0-4f74-82c2-cb592a43a0b2","ios":"levelo://app?vid=6afeeefa-11c0-4f74-82c2-cb592a43a0b2"},"vehicle_type_id":"4","last_reported":1737540437,"current_range_meters":38800,"station_id":"ce4bhnh2rcd13ifvqgug","pricing_plan_id":"cebpf4jnsgd1na2vs0mg"},{"bike_id":"55adac87-a97d-4351-9514-15db307f5142","system_id":"levelo_inurba_marseille","lat":43.28618,"lon":5.35108,"is_reserved":false,"is_disabled":false,"rental_uris":{"android":"levelo://app?vid=55adac87-a97d-4351-9514-15db307f5142","ios":"levelo://app?vid=55adac87-a97d-4351-9514-15db307f5142"},"vehicle_type_id":"4","last_reported":1737540437,"current_range_meters":6800,"station_id":"ce4bhch2rcd13ifvqeug","pricing_plan_id":"cebpf4jnsgd1na2vs0mg"},{"bike_id":"ff4441ec-6591-454f-a7af-97b2f1af1fac","system_id":"levelo_inurba_marseille","lat":43.32656,"lon":5.40963,"is_reserved":false,"is_disabled":false,"rental_uris":{"android":"levelo://app?vid=ff4441ec-6591-454f-a7af-97b2f1af1fac","ios":"levelo://app?vid=ff4441ec-6591-454f-a7af-97b2f1af1fac"},"vehicle_type_id":"4","last_reported":1737540437,"current_range_meters":37600,"station_id":"ce4bhpp2rcd13ifvqhgg","pricing_plan_id":"cebpf4jnsgd1na2vs0mg"},{"bike_id":"23eb4461-43a1-4020-9a5d-31b940fcfcf0","system_id":"levelo_inurba_marseille","lat":43.25498,"lon":5.3767,"is_reserved":false,"is_disabled":false,"rental_uris":{"android":"levelo://app?vid=23eb4461-43a1-4020-9a5d-31b940fcfcf0","ios":"levelo://app?vid=23eb4461-43a1-4020-9a5d-31b940fcfcf0"},"vehicle_type_id":"4","last_reported":1737540437,"current_range_meters":39200,"station_id":"ce4bhh12rcd13ifvqff0","pricing_plan_id":"cebpf4jnsgd1na2vs0mg"},{"bike_id":"1a8a4bef-9181-43aa-8488-f1468f2687e7","system_id":"levelo_inurba_marseille","lat":43.30537,"lon":5.38424,"is_reserved":false,"is_disabled":false,"rental_uris":{"android":"levelo://app?vid=1a8a4bef-9181-43aa-8488-f1468f2687e7","ios":"levelo://app?vid=1a8a4bef-9181-43aa-8488-f1468f2687e7"},"vehicle_type_id":"4","last_reported":1737540437,"current_range_meters":28000,"station_id":"ce4bgg92rcd13ifvqb30","pricing_plan_id":"cebpf4jnsgd1na2vs0mg"},{"bike_id":"227e78bf-cdca-4dfa-9c62-95921093e4a7","system_id":"levelo_inurba_marseille","lat":43.28407,"lon":5.35011,"is_reserved":false,"is_disabled":false,"rental_uris":{"android":"levelo://app?vid=227e78bf-cdca-4dfa-9c62-95921093e4a7","ios":"levelo://app?vid=227e78bf-cdca-4dfa-9c62-95921093e4a7"},"vehicle_type_id":"4","last_reported":1737540437,"current_range_meters":11200,"station_id":"ce4bhbh2rcd13ifvqepg","pricing_plan_id":"cebpf4jnsgd1na2vs0mg"},{"bike_id":"3fc74b94-ed11-4e63-a3db-79791383adef","system_id":"levelo_inurba_marseille","lat":43.30591,"lon":5.39363,"is_reserved":false,"is_disabled":false,"rental_uris":{"android":"levelo://app?vid=3fc74b94-ed11-4e63-a3db-79791383adef","ios":"levelo://app?vid=3fc74b94-ed11-4e63-a3db-79791383adef"},"vehicle_type_id":"4","last_reported":1737540437,"current_range_meters":26000,"station_id":"ce4bh0p2rcd13ifvqd80","pricing_plan_id":"cebpf4jnsgd1na2vs0mg"},{"bike_id":"89d63c8f-3869-4131-9a49-0e70acd87fda","system_id":"levelo_inurba_marseille","lat":43.2649,"lon":5.39548,"is_reserved":false,"is_disabled":false,"rental_uris":{"android":"levelo://app?vid=89d63c8f-3869-4131-9a49-0e70acd87fda","ios":"levelo://app?vid=89d63c8f-3869-4131-9a49-0e70acd87fda"},"vehicle_type_id":"4","last_reported":1737540437,"current_range_meters":38000,"station_id":"ce4bhi12rcd13ifvqfq0","pricing_plan_id":"cebpf4jnsgd1na2vs0mg"},{"bike_id":"72bb8888-cebe-4a55-b856-00b6d55d2023","system_id":"levelo_inurba_marseille","lat":43.31271,"lon":5.40167,"is_reserved":false,"is_disabled":false,"rental_uris":{"android":"levelo://app?vid=72bb8888-cebe-4a55-b856-00b6d55d2023","ios":"levelo://app?vid=72bb8888-cebe-4a55-b856-00b6d55d2023"},"vehicle_type_id":"4","last_reported":1737540437,"current_range_meters":18000,"station_id":"ce4bh092rcd13ifvqd30","pricing_plan_id":"cebpf4jnsgd1na2vs0mg"},{"bike_id":"eeefd484-3680-49b0-b86c-6040ba350151","system_id":"levelo_inurba_marseille","lat":43.25914,"lon":5.40883,"is_reserved":false,"is_disabled":false,"rental_uris":{"android":"levelo://app?vid=eeefd484-3680-49b0-b86c-6040ba350151","ios":"levelo://app?vid=eeefd484-3680-49b0-b86c-6040ba350151"},"vehicle_type_id":"4","last_reported":1737540437,"current_range_meters":14800,"station_id":"ce4bhm92rcd13ifvqglg","pricing_plan_id":"cebpf4jnsgd1na2vs0mg"},{"bike_id":"a682d88e-6980-4805-add3-b5ca420126df","system_id":"levelo_inurba_marseille","lat":43.30427,"lon":5.39734,"is_reserved":false,"is_disabled":false,"rental_uris":{"android":"levelo://app?vid=a682d88e-6980-4805-add3-b5ca420126df","ios":"levelo://app?vid=a682d88e-6980-4805-add3-b5ca420126df"},"vehicle_type_id":"4","last_reported":1737540437,"current_range_meters":16800,"station_id":"ce4bh092rcd13ifvqd20","pricing_plan_id":"cebpf4jnsgd1na2vs0mg"},{"bike_id":"bddf35ca-dd2d-4f20-a02e-f63c144fc458","system_id":"levelo_inurba_marseille","lat":43.3136,"lon":5.38495,"is_reserved":false,"is_disabled":false,"rental_uris":{"android":"levelo://app?vid=bddf35ca-dd2d-4f20-a02e-f63c144fc458","ios":"levelo://app?vid=bddf35ca-dd2d-4f20-a02e-f63c144fc458"},"vehicle_type_id":"4","last_reported":1737540437,"current_range_meters":29600,"station_id":"ce4bgt92rcd13ifvqcf0","pricing_plan_id":"cebpf4jnsgd1na2vs0mg"},{"bike_id":"34d4460c-2a86-4690-9dea-0c5faca166cb","system_id":"levelo_inurba_marseille","lat":43.29894,"lon":5.38921,"is_reserved":false,"is_disabled":true,"rental_uris":{"android":"levelo://app?vid=34d4460c-2a86-4690-9dea-0c5faca166cb","ios":"levelo://app?vid=34d4460c-2a86-4690-9dea-0c5faca166cb"},"vehicle_type_id":"4","last_reported":1737540437,"current_range_meters":400,"station_id":"ce4bh392rcd13ifvqdl0","pricing_plan_id":"cebpf4jnsgd1na2vs0mg"},{"bike_id":"36d6976f-5e20-4fce-a58f-51e64fb9f354","system_id":"levelo_inurba_marseille","lat":43.30928,"lon":5.40152,"is_reserved":false,"is_disabled":true,"rental_uris":{"android":"levelo://app?vid=36d6976f-5e20-4fce-a58f-51e64fb9f354","ios":"levelo://app?vid=36d6976f-5e20-4fce-a58f-51e64fb9f354"},"vehicle_type_id":"4","last_reported":1737540437,"current_range_meters":9600,"station_id":"ce4bgvp2rcd13ifvqct0","pricing_plan_id":"cebpf4jnsgd1na2vs0mg"},{"bike_id":"cca7c8ae-fa8d-46ec-9d51-72c0d185533b","system_id":"levelo_inurba_marseille","lat":43.2909,"lon":5.38136,"is_reserved":false,"is_disabled":false,"rental_uris":{"android":"levelo://app?vid=cca7c8ae-fa8d-46ec-9d51-72c0d185533b","ios":"levelo://app?vid=cca7c8ae-fa8d-46ec-9d51-72c0d185533b"},"vehicle_type_id":"4","last_reported":1737540437,"current_range_meters":29600,"station_id":"ce4bh512rcd13ifvqe2g","pricing_plan_id":"cebpf4jnsgd1na2vs0mg"},{"bike_id":"dc74b879-2cc8-4841-a998-1997b255115b","system_id":"levelo_inurba_marseille","lat":43.30429,"lon":5.37908,"is_reserved":false,"is_disabled":false,"rental_uris":{"android":"levelo://app?vid=dc74b879-2cc8-4841-a998-1997b255115b","ios":"levelo://app?vid=dc74b879-2cc8-4841-a998-1997b255115b"},"vehicle_type_id":"4","last_reported":1737540437,"current_range_meters":29600,"station_id":"ce4bgup2rcd13ifvqcn0","pricing_plan_id":"cebpf4jnsgd1na2vs0mg"},{"bike_id":"96c51aad-ee75-4f00-896d-bac249442a79","system_id":"levelo_inurba_marseille","lat":43.30904,"lon":5.36863,"is_reserved":false,"is_disabled":false,"rental_uris":{"android":"levelo://app?vid=96c51aad-ee75-4f00-896d-bac249442a79","ios":"levelo://app?vid=96c51aad-ee75-4f00-896d-bac249442a79"},"vehicle_type_id":"4","last_reported":1737540437,"current_range_meters":37600,"station_id":"ce4bgn92rcd13ifvqbvg","pricing_plan_id":"cebpf4jnsgd1na2vs0mg"},{"bike_id":"9c50f19d-512d-40f6-a0dc-110bcd3b3fb8","system_id":"levelo_inurba_marseille","lat":43.29889,"lon":5.43647,"is_reserved":false,"is_disabled":false,"rental_uris":{"android":"levelo://app?vid=9c50f19d-512d-40f6-a0dc-110bcd3b3fb8","ios":"levelo://app?vid=9c50f19d-512d-40f6-a0dc-110bcd3b3fb8"},"vehicle_type_id":"4","last_reported":1737540437,"current_range_meters":30400,"station_id":"ce4bhpp2rcd13ifvqhfg","pricing_plan_id":"cebpf4jnsgd1na2vs0mg"},{"bike_id":"4be10568-0913-42a8-b207-c944d44ca55b","system_id":"levelo_inurba_marseille","lat":43.29551,"lon":5.42291,"is_reserved":false,"is_disabled":false,"rental_uris":{"android":"levelo://app?vid=4be10568-0913-42a8-b207-c944d44ca55b","ios":"levelo://app?vid=4be10568-0913-42a8-b207-c944d44ca55b"},"vehicle_type_id":"4","last_reported":1737540437,"current_range_meters":38800,"station_id":"ce4bhph2rcd13ifvqhdg","pricing_plan_id":"cebpf4jnsgd1na2vs0mg"},{"bike_id":"b43e8111-3df3-4a97-a358-3562f670a124","system_id":"levelo_inurba_marseille","lat":43.3053,"lon":5.36703,"is_reserved":false,"is_disabled":false,"rental_uris":{"android":"levelo://app?vid=b43e8111-3df3-4a97-a358-3562f670a124","ios":"levelo://app?vid=b43e8111-3df3-4a97-a358-3562f670a124"},"vehicle_type_id":"4","last_reported":1737540437,"current_range_meters":25200,"station_id":"ce4bgrp2rcd13ifvqc9g","pricing_plan_id":"cebpf4jnsgd1na2vs0mg"},{"bike_id":"dfec2e79-8ba2-4382-a2a5-5ea9be223e64","system_id":"levelo_inurba_marseille","lat":43.32351,"lon":5.36764,"is_reserved":false,"is_disabled":false,"rental_uris":{"android":"levelo://app?vid=dfec2e79-8ba2-4382-a2a5-5ea9be223e64","ios":"levelo://app?vid=dfec2e79-8ba2-4382-a2a5-5ea9be223e64"},"vehicle_type_id":"4","last_reported":1737540437,"current_range_meters":17200,"station_id":"ce4bhsh2rcd13ifvqi2g","pricing_plan_id":"cebpf4jnsgd1na2vs0mg"},{"bike_id":"94380587-7578-43dc-aef7-139131c62c22","system_id":"levelo_inurba_marseille","lat":43.30269,"lon":5.37721,"is_reserved":false,"is_disabled":false,"rental_uris":{"android":"levelo://app?vid=94380587-7578-43dc-aef7-139131c62c22","ios":"levelo://app?vid=94380587-7578-43dc-aef7-139131c62c22"},"vehicle_type_id":"4","last_reported":1737540437,"current_range_meters":36400,"station_id":"ce4bguh2rcd13ifvqcj0","pricing_plan_id":"cebpf4jnsgd1na2vs0mg"},{"bike_id":"98d1a980-3533-4bf6-ba69-8bc84ff34d18","system_id":"levelo_inurba_marseille","lat":43.30125,"lon":5.37425,"is_reserved":false,"is_disabled":false,"rental_uris":{"android":"levelo://app?vid=98d1a980-3533-4bf6-ba69-8bc84ff34d18","ios":"levelo://app?vid=98d1a980-3533-4bf6-ba69-8bc84ff34d18"},"vehicle_type_id":"4","last_reported":1737540437,"current_range_meters":24400,"station_id":"ce4bgs92rcd13ifvqcc0","pricing_plan_id":"cebpf4jnsgd1na2vs0mg"},{"bike_id":"1523ad92-f97a-4e32-985b-07285132063a","system_id":"levelo_inurba_marseille","lat":43.30952,"lon":5.39059,"is_reserved":false,"is_disabled":false,"rental_uris":{"android":"levelo://app?vid=1523ad92-f97a-4e32-985b-07285132063a","ios":"levelo://app?vid=1523ad92-f97a-4e32-985b-07285132063a"},"vehicle_type_id":"4","last_reported":1737540437,"current_range_meters":39200,"station_id":"ce4bgup2rcd13ifvqco0","pricing_plan_id":"cebpf4jnsgd1na2vs0mg"},{"bike_id":"daab083a-e730-4f8d-9642-dfbd5f808198","system_id":"levelo_inurba_marseille","lat":43.25711,"lon":5.41115,"is_reserved":false,"is_disabled":false,"rental_uris":{"android":"levelo://app?vid=daab083a-e730-4f8d-9642-dfbd5f808198","ios":"levelo://app?vid=daab083a-e730-4f8d-9642-dfbd5f808198"},"vehicle_type_id":"4","last_reported":1737540437,"current_range_meters":18000,"station_id":"ce4bhkp2rcd13ifvqgd0","pricing_plan_id":"cebpf4jnsgd1na2vs0mg"},{"bike_id":"c2585015-904a-4609-a64e-a02117955d78","system_id":"levelo_inurba_marseille","lat":43.31351,"lon":5.38516,"is_reserved":false,"is_disabled":false,"rental_uris":{"android":"levelo://app?vid=c2585015-904a-4609-a64e-a02117955d78","ios":"levelo://app?vid=c2585015-904a-4609-a64e-a02117955d78"},"vehicle_type_id":"4","last_reported":1737540437,"current_range_meters":18800,"station_id":"ce4bgt92rcd13ifvqcf0","pricing_plan_id":"cebpf4jnsgd1na2vs0mg"},{"bike_id":"48ea403c-49f4-4f4d-8ef5-83bd0805946d","system_id":"levelo_inurba_marseille","lat":43.30106,"lon":5.39081,"is_reserved":false,"is_disabled":false,"rental_uris":{"android":"levelo://app?vid=48ea403c-49f4-4f4d-8ef5-83bd0805946d","ios":"levelo://app?vid=48ea403c-49f4-4f4d-8ef5-83bd0805946d"},"vehicle_type_id":"4","last_reported":1737540437,"current_range_meters":38800,"station_id":"ce4bh192rcd13ifvqdb0","pricing_plan_id":"cebpf4jnsgd1na2vs0mg"},{"bike_id":"791753af-f52a-4381-a458-8b27405d5e3d","system_id":"levelo_inurba_marseille","lat":43.303,"lon":5.36465,"is_reserved":false,"is_disabled":false,"rental_uris":{"android":"levelo://app?vid=791753af-f52a-4381-a458-8b27405d5e3d","ios":"levelo://app?vid=791753af-f52a-4381-a458-8b27405d5e3d"},"vehicle_type_id":"4","last_reported":1737540437,"current_range_meters":38800,"station_id":"","pricing_plan_id":"cebpf4jnsgd1na2vs0mg"},{"bike_id":"543b8410-55e3-4a06-bb54-16dd884e952f","system_id":"levelo_inurba_marseille","lat":43.29268,"lon":5.40901,"is_reserved":false,"is_disabled":false,"rental_uris":{"android":"levelo://app?vid=543b8410-55e3-4a06-bb54-16dd884e952f","ios":"levelo://app?vid=543b8410-55e3-4a06-bb54-16dd884e952f"},"vehicle_type_id":"4","last_reported":1737540437,"current_range_meters":3600,"station_id":"ce4bh192rcd13ifvqdc0","pricing_plan_id":"cebpf4jnsgd1na2vs0mg"},{"bike_id":"a478c8e4-70f7-4330-80af-a80f08fe66b3","system_id":"levelo_inurba_marseille","lat":43.25717,"lon":5.41121,"is_reserved":false,"is_disabled":false,"rental_uris":{"android":"levelo://app?vid=a478c8e4-70f7-4330-80af-a80f08fe66b3","ios":"levelo://app?vid=a478c8e4-70f7-4330-80af-a80f08fe66b3"},"vehicle_type_id":"4","last_reported":1737540437,"current_range_meters":20400,"station_id":"ce4bhkp2rcd13ifvqgd0","pricing_plan_id":"cebpf4jnsgd1na2vs0mg"},{"bike_id":"cae2d61f-f314-477c-bd30-db7b7de4ba43","system_id":"levelo_inurba_marseille","lat":43.33735,"lon":5.39188,"is_reserved":false,"is_disabled":false,"rental_uris":{"android":"levelo://app?vid=cae2d61f-f314-477c-bd30-db7b7de4ba43","ios":"levelo://app?vid=cae2d61f-f314-477c-bd30-db7b7de4ba43"},"vehicle_type_id":"4","last_reported":1737540437,"current_range_meters":38800,"station_id":"ce4bhr92rcd13ifvqhsg","pricing_plan_id":"cebpf4jnsgd1na2vs0mg"},{"bike_id":"6e918997-88c7-4f08-8e47-531bd457d91e","system_id":"levelo_inurba_marseille","lat":43.30456,"lon":5.37917,"is_reserved":false,"is_disabled":false,"rental_uris":{"android":"levelo://app?vid=6e918997-88c7-4f08-8e47-531bd457d91e","ios":"levelo://app?vid=6e918997-88c7-4f08-8e47-531bd457d91e"},"vehicle_type_id":"4","last_reported":1737540437,"current_range_meters":38800,"station_id":"ce4bgup2rcd13ifvqcn0","pricing_plan_id":"cebpf4jnsgd1na2vs0mg"},{"bike_id":"5ca0c40f-c01a-44fb-a897-efaa615e7850","system_id":"levelo_inurba_marseille","lat":43.24056,"lon":5.37788,"is_reserved":false,"is_disabled":false,"rental_uris":{"android":"levelo://app?vid=5ca0c40f-c01a-44fb-a897-efaa615e7850","ios":"levelo://app?vid=5ca0c40f-c01a-44fb-a897-efaa615e7850"},"vehicle_type_id":"4","last_reported":1737540437,"current_range_meters":24000,"station_id":"ce4bhnp2rcd13ifvqgvg","pricing_plan_id":"cebpf4jnsgd1na2vs0mg"},{"bike_id":"b834a014-a9be-4559-bbaa-15aa5f1cbaa1","system_id":"levelo_inurba_marseille","lat":43.23189,"lon":5.35556,"is_reserved":false,"is_disabled":false,"rental_uris":{"android":"levelo://app?vid=b834a014-a9be-4559-bbaa-15aa5f1cbaa1","ios":"levelo://app?vid=b834a014-a9be-4559-bbaa-15aa5f1cbaa1"},"vehicle_type_id":"4","last_reported":1737540437,"current_range_meters":34000,"station_id":"ce4bhu92rcd13ifvqi70","pricing_plan_id":"cebpf4jnsgd1na2vs0mg"},{"bike_id":"78913557-6238-45f5-983b-a7f59414645a","system_id":"levelo_inurba_marseille","lat":43.29427,"lon":5.38632,"is_reserved":false,"is_disabled":false,"rental_uris":{"android":"levelo://app?vid=78913557-6238-45f5-983b-a7f59414645a","ios":"levelo://app?vid=78913557-6238-45f5-983b-a7f59414645a"},"vehicle_type_id":"4","last_reported":1737540437,"current_range_meters":37600,"station_id":"ce4bh2h2rcd13ifvqdh0","pricing_plan_id":"cebpf4jnsgd1na2vs0mg"},{"bike_id":"d35b00f9-ff6b-4f56-bf5b-00f17ff83f4b","system_id":"levelo_inurba_marseille","lat":43.31743,"lon":5.39035,"is_reserved":false,"is_disabled":true,"rental_uris":{"android":"levelo://app?vid=d35b00f9-ff6b-4f56-bf5b-00f17ff83f4b","ios":"levelo://app?vid=d35b00f9-ff6b-4f56-bf5b-00f17ff83f4b"},"vehicle_type_id":"4","last_reported":1737540437,"current_range_meters":0,"station_id":"ce4bhqp2rcd13ifvqhng","pricing_plan_id":"cebpf4jnsgd1na2vs0mg"},{"bike_id":"5f776b34-b727-4c57-9619-656fb56904de","system_id":"levelo_inurba_marseille","lat":43.31727,"lon":5.42395,"is_reserved":false,"is_disabled":false,"rental_uris":{"android":"levelo://app?vid=5f776b34-b727-4c57-9619-656fb56904de","ios":"levelo://app?vid=5f776b34-b727-4c57-9619-656fb56904de"},"vehicle_type_id":"4","last_reported":1737540437,"current_range_meters":35600,"station_id":"ce4bhp92rcd13ifvqhbg","pricing_plan_id":"cebpf4jnsgd1na2vs0mg"},{"bike_id":"ca0dc8e0-206b-40b7-8d43-9b4ec69057c7","system_id":"levelo_inurba_marseille","lat":43.24157,"lon":5.3642,"is_reserved":false,"is_disabled":false,"rental_uris":{"android":"levelo://app?vid=ca0dc8e0-206b-40b7-8d43-9b4ec69057c7","ios":"levelo://app?vid=ca0dc8e0-206b-40b7-8d43-9b4ec69057c7"},"vehicle_type_id":"4","last_reported":1737540437,"current_range_meters":17200,"station_id":"cpo36qri1sfpv3e86is0","pricing_plan_id":"cebpf4jnsgd1na2vs0mg"},{"bike_id":"6ff3890b-4ee4-40dd-9c01-ccb6adedf00e","system_id":"levelo_inurba_marseille","lat":43.28497,"lon":5.38548,"is_reserved":false,"is_disabled":false,"rental_uris":{"android":"levelo://app?vid=6ff3890b-4ee4-40dd-9c01-ccb6adedf00e","ios":"levelo://app?vid=6ff3890b-4ee4-40dd-9c01-ccb6adedf00e"},"vehicle_type_id":"4","last_reported":1737540437,"current_range_meters":38800,"station_id":"ce4bh8p2rcd13ifvqeb0","pricing_plan_id":"cebpf4jnsgd1na2vs0mg"},{"bike_id":"ff193dfe-87fc-43b0-8645-1c528b0db9ab","system_id":"levelo_inurba_marseille","lat":43.29029,"lon":5.39996,"is_reserved":false,"is_disabled":false,"rental_uris":{"android":"levelo://app?vid=ff193dfe-87fc-43b0-8645-1c528b0db9ab","ios":"levelo://app?vid=ff193dfe-87fc-43b0-8645-1c528b0db9ab"},"vehicle_type_id":"4","last_reported":1737540437,"current_range_meters":12400,"station_id":"ce4bh392rcd13ifvqdm0","pricing_plan_id":"cebpf4jnsgd1na2vs0mg"},{"bike_id":"71d19b1d-59f2-4592-bcb4-3264f760a2a1","system_id":"levelo_inurba_marseille","lat":43.33598,"lon":5.41013,"is_reserved":false,"is_disabled":false,"rental_uris":{"android":"levelo://app?vid=71d19b1d-59f2-4592-bcb4-3264f760a2a1","ios":"levelo://app?vid=71d19b1d-59f2-4592-bcb4-3264f760a2a1"},"vehicle_type_id":"4","last_reported":1737540437,"current_range_meters":8400,"station_id":"ce4bhqh2rcd13ifvqhmg","pricing_plan_id":"cebpf4jnsgd1na2vs0mg"},{"bike_id":"d8b49f42-144a-4cb8-8172-0b5099baab4f","system_id":"levelo_inurba_marseille","lat":43.23942,"lon":5.36659,"is_reserved":false,"is_disabled":false,"rental_uris":{"android":"levelo://app?vid=d8b49f42-144a-4cb8-8172-0b5099baab4f","ios":"levelo://app?vid=d8b49f42-144a-4cb8-8172-0b5099baab4f"},"vehicle_type_id":"4","last_reported":1737540437,"current_range_meters":24800,"station_id":"ce4bhi12rcd13ifvqfp0","pricing_plan_id":"cebpf4jnsgd1na2vs0mg"},{"bike_id":"df7c011c-5cd5-4fbb-8a4e-d73dd3867dd2","system_id":"levelo_inurba_marseille","lat":43.324723,"lon":5.365817,"is_reserved":false,"is_disabled":true,"rental_uris":{"android":"levelo://app?vid=df7c011c-5cd5-4fbb-8a4e-d73dd3867dd2","ios":"levelo://app?vid=df7c011c-5cd5-4fbb-8a4e-d73dd3867dd2"},"vehicle_type_id":"4","last_reported":1737540437,"current_range_meters":38400,"station_id":"ce4bhs12rcd13ifvqhvg","pricing_plan_id":"cebpf4jnsgd1na2vs0mg"},{"bike_id":"aed5fa70-4990-42bd-9642-b2e4c9490fce","system_id":"levelo_inurba_marseille","lat":43.30138,"lon":5.37426,"is_reserved":false,"is_disabled":false,"rental_uris":{"android":"levelo://app?vid=aed5fa70-4990-42bd-9642-b2e4c9490fce","ios":"levelo://app?vid=aed5fa70-4990-42bd-9642-b2e4c9490fce"},"vehicle_type_id":"4","last_reported":1737540437,"current_range_meters":26800,"station_id":"ce4bgs92rcd13ifvqcc0","pricing_plan_id":"cebpf4jnsgd1na2vs0mg"},{"bike_id":"5fbadc7f-8eb5-4e6d-96ee-20e5fde4a45a","system_id":"levelo_inurba_marseille","lat":43.26196,"lon":5.37428,"is_reserved":false,"is_disabled":false,"rental_uris":{"android":"levelo://app?vid=5fbadc7f-8eb5-4e6d-96ee-20e5fde4a45a","ios":"levelo://app?vid=5fbadc7f-8eb5-4e6d-96ee-20e5fde4a45a"},"vehicle_type_id":"4","last_reported":1737540437,"current_range_meters":28400,"station_id":"ce4bhgp2rcd13ifvqfc0","pricing_plan_id":"cebpf4jnsgd1na2vs0mg"},{"bike_id":"768ad8c7-b3e9-446d-a522-5deca7a3ccce","system_id":"levelo_inurba_marseille","lat":43.29957,"lon":5.37176,"is_reserved":false,"is_disabled":false,"rental_uris":{"android":"levelo://app?vid=768ad8c7-b3e9-446d-a522-5deca7a3ccce","ios":"levelo://app?vid=768ad8c7-b3e9-446d-a522-5deca7a3ccce"},"vehicle_type_id":"4","last_reported":1737540437,"current_range_meters":39200,"station_id":"ce4bgr92rcd13ifvqc7g","pricing_plan_id":"cebpf4jnsgd1na2vs0mg"},{"bike_id":"e1e36e1e-7ddd-43af-8b95-1136cd322423","system_id":"levelo_inurba_marseille","lat":43.31061,"lon":5.38344,"is_reserved":false,"is_disabled":false,"rental_uris":{"android":"levelo://app?vid=e1e36e1e-7ddd-43af-8b95-1136cd322423","ios":"levelo://app?vid=e1e36e1e-7ddd-43af-8b95-1136cd322423"},"vehicle_type_id":"4","last_reported":1737540437,"current_range_meters":32800,"station_id":"ce4bgv92rcd13ifvqcr0","pricing_plan_id":"cebpf4jnsgd1na2vs0mg"},{"bike_id":"027378f8-2c5c-4c72-b210-6dfc28ef5d93","system_id":"levelo_inurba_marseille","lat":43.30144,"lon":5.3808,"is_reserved":false,"is_disabled":false,"rental_uris":{"android":"levelo://app?vid=027378f8-2c5c-4c72-b210-6dfc28ef5d93","ios":"levelo://app?vid=027378f8-2c5c-4c72-b210-6dfc28ef5d93"},"vehicle_type_id":"4","last_reported":1737540437,"current_range_meters":33600,"station_id":"ce4bgjp2rcd13ifvqbh0","pricing_plan_id":"cebpf4jnsgd1na2vs0mg"},{"bike_id":"2cc6f5df-1b42-4b6d-87d2-2a8900168535","system_id":"levelo_inurba_marseille","lat":43.29808,"lon":5.40416,"is_reserved":false,"is_disabled":true,"rental_uris":{"android":"levelo://app?vid=2cc6f5df-1b42-4b6d-87d2-2a8900168535","ios":"levelo://app?vid=2cc6f5df-1b42-4b6d-87d2-2a8900168535"},"vehicle_type_id":"4","last_reported":1737540437,"current_range_meters":12000,"station_id":"ce4bh112rcd13ifvqd90","pricing_plan_id":"cebpf4jnsgd1na2vs0mg"},{"bike_id":"ffaf86fb-00bc-4579-9ef6-95b6d70d54ee","system_id":"levelo_inurba_marseille","lat":43.29538,"lon":5.42291,"is_reserved":false,"is_disabled":false,"rental_uris":{"android":"levelo://app?vid=ffaf86fb-00bc-4579-9ef6-95b6d70d54ee","ios":"levelo://app?vid=ffaf86fb-00bc-4579-9ef6-95b6d70d54ee"},"vehicle_type_id":"4","last_reported":1737540437,"current_range_meters":31200,"station_id":"ce4bhph2rcd13ifvqhdg","pricing_plan_id":"cebpf4jnsgd1na2vs0mg"},{"bike_id":"cb662706-1259-41de-8e51-a8b72ac231ab","system_id":"levelo_inurba_marseille","lat":43.33755,"lon":5.37472,"is_reserved":false,"is_disabled":false,"rental_uris":{"android":"levelo://app?vid=cb662706-1259-41de-8e51-a8b72ac231ab","ios":"levelo://app?vid=cb662706-1259-41de-8e51-a8b72ac231ab"},"vehicle_type_id":"4","last_reported":1737540437,"current_range_meters":30000,"station_id":"","pricing_plan_id":"cebpf4jnsgd1na2vs0mg"},{"bike_id":"831839bf-2ac1-4d68-9eb7-f6760e3805da","system_id":"levelo_inurba_marseille","lat":43.26777,"lon":5.39432,"is_reserved":false,"is_disabled":false,"rental_uris":{"android":"levelo://app?vid=831839bf-2ac1-4d68-9eb7-f6760e3805da","ios":"levelo://app?vid=831839bf-2ac1-4d68-9eb7-f6760e3805da"},"vehicle_type_id":"4","last_reported":1737540437,"current_range_meters":35200,"station_id":"ce4bhh12rcd13ifvqfg0","pricing_plan_id":"cebpf4jnsgd1na2vs0mg"},{"bike_id":"968dfe85-013d-4026-93da-1b24a5ec3146","system_id":"levelo_inurba_marseille","lat":43.29256,"lon":5.38471,"is_reserved":false,"is_disabled":false,"rental_uris":{"android":"levelo://app?vid=968dfe85-013d-4026-93da-1b24a5ec3146","ios":"levelo://app?vid=968dfe85-013d-4026-93da-1b24a5ec3146"},"vehicle_type_id":"4","last_reported":1737540437,"current_range_meters":30800,"station_id":"ce4bh692rcd13ifvqea0","pricing_plan_id":"cebpf4jnsgd1na2vs0mg"},{"bike_id":"61d4266f-fc8a-4049-a3f0-d3cb8b6a79aa","system_id":"levelo_inurba_marseille","lat":43.28966,"lon":5.364,"is_reserved":false,"is_disabled":false,"rental_uris":{"android":"levelo://app?vid=61d4266f-fc8a-4049-a3f0-d3cb8b6a79aa","ios":"levelo://app?vid=61d4266f-fc8a-4049-a3f0-d3cb8b6a79aa"},"vehicle_type_id":"4","last_reported":1737540437,"current_range_meters":30000,"station_id":"ce4bhc92rcd13ifvqetg","pricing_plan_id":"cebpf4jnsgd1na2vs0mg"},{"bike_id":"916717a5-95f9-470a-a448-ded4166de1e1","system_id":"levelo_inurba_marseille","lat":43.29979,"lon":5.38501,"is_reserved":false,"is_disabled":false,"rental_uris":{"android":"levelo://app?vid=916717a5-95f9-470a-a448-ded4166de1e1","ios":"levelo://app?vid=916717a5-95f9-470a-a448-ded4166de1e1"},"vehicle_type_id":"4","last_reported":1737540437,"current_range_meters":38800,"station_id":"ce4bgj92rcd13ifvqbd0","pricing_plan_id":"cebpf4jnsgd1na2vs0mg"},{"bike_id":"2be8a492-b0a5-45f9-96eb-de53f9a32280","system_id":"levelo_inurba_marseille","lat":43.30479,"lon":5.37902,"is_reserved":false,"is_disabled":false,"rental_uris":{"android":"levelo://app?vid=2be8a492-b0a5-45f9-96eb-de53f9a32280","ios":"levelo://app?vid=2be8a492-b0a5-45f9-96eb-de53f9a32280"},"vehicle_type_id":"4","last_reported":1737540437,"current_range_meters":19600,"station_id":"ce4bgup2rcd13ifvqcn0","pricing_plan_id":"cebpf4jnsgd1na2vs0mg"},{"bike_id":"bc4dbbf2-b8b1-4d06-aa56-d5e08bcfade1","system_id":"levelo_inurba_marseille","lat":43.23148,"lon":5.43714,"is_reserved":false,"is_disabled":false,"rental_uris":{"android":"levelo://app?vid=bc4dbbf2-b8b1-4d06-aa56-d5e08bcfade1","ios":"levelo://app?vid=bc4dbbf2-b8b1-4d06-aa56-d5e08bcfade1"},"vehicle_type_id":"4","last_reported":1737540437,"current_range_meters":5600,"station_id":"ce4bhmp2rcd13ifvqgog","pricing_plan_id":"cebpf4jnsgd1na2vs0mg"},{"bike_id":"c05d17e6-8ff9-46c6-8c1e-4a317d252d9d","system_id":"levelo_inurba_marseille","lat":43.32351,"lon":5.36745,"is_reserved":false,"is_disabled":false,"rental_uris":{"android":"levelo://app?vid=c05d17e6-8ff9-46c6-8c1e-4a317d252d9d","ios":"levelo://app?vid=c05d17e6-8ff9-46c6-8c1e-4a317d252d9d"},"vehicle_type_id":"4","last_reported":1737540437,"current_range_meters":28400,"station_id":"ce4bhsh2rcd13ifvqi2g","pricing_plan_id":"cebpf4jnsgd1na2vs0mg"},{"bike_id":"b33c73f5-a38a-4a60-86e0-f6597995f8b9","system_id":"levelo_inurba_marseille","lat":43.26786,"lon":5.39409,"is_reserved":false,"is_disabled":false,"rental_uris":{"android":"levelo://app?vid=b33c73f5-a38a-4a60-86e0-f6597995f8b9","ios":"levelo://app?vid=b33c73f5-a38a-4a60-86e0-f6597995f8b9"},"vehicle_type_id":"4","last_reported":1737540437,"current_range_meters":38800,"station_id":"ce4bhh12rcd13ifvqfg0","pricing_plan_id":"cebpf4jnsgd1na2vs0mg"},{"bike_id":"70c457e0-4412-429f-834d-73746f9cc5ef","system_id":"levelo_inurba_marseille","lat":43.30506,"lon":5.36536,"is_reserved":false,"is_disabled":false,"rental_uris":{"android":"levelo://app?vid=70c457e0-4412-429f-834d-73746f9cc5ef","ios":"levelo://app?vid=70c457e0-4412-429f-834d-73746f9cc5ef"},"vehicle_type_id":"4","last_reported":1737540437,"current_range_meters":31200,"station_id":"ce4bgs12rcd13ifvqcag","pricing_plan_id":"cebpf4jnsgd1na2vs0mg"},{"bike_id":"ec9864b4-299b-47f3-ba8a-38b5cf795a7a","system_id":"levelo_inurba_marseille","lat":43.24651,"lon":5.38902,"is_reserved":false,"is_disabled":false,"rental_uris":{"android":"levelo://app?vid=ec9864b4-299b-47f3-ba8a-38b5cf795a7a","ios":"levelo://app?vid=ec9864b4-299b-47f3-ba8a-38b5cf795a7a"},"vehicle_type_id":"4","last_reported":1737540437,"current_range_meters":38800,"station_id":"ce4bhg12rcd13ifvqf60","pricing_plan_id":"cebpf4jnsgd1na2vs0mg"},{"bike_id":"2abcb777-2f75-44f8-b2ed-158bcd3e9732","system_id":"levelo_inurba_marseille","lat":43.304083,"lon":5.41287,"is_reserved":false,"is_disabled":false,"rental_uris":{"android":"levelo://app?vid=2abcb777-2f75-44f8-b2ed-158bcd3e9732","ios":"levelo://app?vid=2abcb777-2f75-44f8-b2ed-158bcd3e9732"},"vehicle_type_id":"4","last_reported":1737540437,"current_range_meters":39200,"station_id":"ce4bhop2rcd13ifvqh8g","pricing_plan_id":"cebpf4jnsgd1na2vs0mg"},{"bike_id":"188bc35e-b96d-4353-8224-81939b718e35","system_id":"levelo_inurba_marseille","lat":43.32368,"lon":5.38887,"is_reserved":false,"is_disabled":false,"rental_uris":{"android":"levelo://app?vid=188bc35e-b96d-4353-8224-81939b718e35","ios":"levelo://app?vid=188bc35e-b96d-4353-8224-81939b718e35"},"vehicle_type_id":"4","last_reported":1737540437,"current_range_meters":27200,"station_id":"ce4bhqp2rcd13ifvqhog","pricing_plan_id":"cebpf4jnsgd1na2vs0mg"},{"bike_id":"42707e4f-fc86-4055-94d3-267e0305077b","system_id":"levelo_inurba_marseille","lat":43.29861,"lon":5.36299,"is_reserved":false,"is_disabled":false,"rental_uris":{"android":"levelo://app?vid=42707e4f-fc86-4055-94d3-267e0305077b","ios":"levelo://app?vid=42707e4f-fc86-4055-94d3-267e0305077b"},"vehicle_type_id":"4","last_reported":1737540437,"current_range_meters":37600,"station_id":"ce4bgpp2rcd13ifvqc3g","pricing_plan_id":"cebpf4jnsgd1na2vs0mg"},{"bike_id":"b1de27c6-4ff9-4317-bc37-3665265c6806","system_id":"levelo_inurba_marseille","lat":43.30132,"lon":5.37422,"is_reserved":false,"is_disabled":false,"rental_uris":{"android":"levelo://app?vid=b1de27c6-4ff9-4317-bc37-3665265c6806","ios":"levelo://app?vid=b1de27c6-4ff9-4317-bc37-3665265c6806"},"vehicle_type_id":"4","last_reported":1737540437,"current_range_meters":16400,"station_id":"ce4bgs92rcd13ifvqcc0","pricing_plan_id":"cebpf4jnsgd1na2vs0mg"},{"bike_id":"41162eaf-1d86-4562-a41f-047ccb2288c4","system_id":"levelo_inurba_marseille","lat":43.31503,"lon":5.42966,"is_reserved":false,"is_disabled":true,"rental_uris":{"android":"levelo://app?vid=41162eaf-1d86-4562-a41f-047ccb2288c4","ios":"levelo://app?vid=41162eaf-1d86-4562-a41f-047ccb2288c4"},"vehicle_type_id":"4","last_reported":1737540437,"current_range_meters":33200,"station_id":"","pricing_plan_id":"cebpf4jnsgd1na2vs0mg"},{"bike_id":"e663cbca-8d21-483d-9d65-e899a2d8edc6","system_id":"levelo_inurba_marseille","lat":43.31318,"lon":5.39705,"is_reserved":false,"is_disabled":false,"rental_uris":{"android":"levelo://app?vid=e663cbca-8d21-483d-9d65-e899a2d8edc6","ios":"levelo://app?vid=e663cbca-8d21-483d-9d65-e899a2d8edc6"},"vehicle_type_id":"4","last_reported":1737540437,"current_range_meters":28400,"station_id":"ce4bgvp2rcd13ifvqcu0","pricing_plan_id":"cebpf4jnsgd1na2vs0mg"},{"bike_id":"92b1553e-063e-4a75-8df6-139bf5f9d010","system_id":"levelo_inurba_marseille","lat":43.28143,"lon":5.42642,"is_reserved":false,"is_disabled":true,"rental_uris":{"android":"levelo://app?vid=92b1553e-063e-4a75-8df6-139bf5f9d010","ios":"levelo://app?vid=92b1553e-063e-4a75-8df6-139bf5f9d010"},"vehicle_type_id":"4","last_reported":1737540437,"current_range_meters":0,"station_id":"ce4bhnh2rcd13ifvqgug","pricing_plan_id":"cebpf4jnsgd1na2vs0mg"},{"bike_id":"e447e487-6c47-478f-9799-3acfc1afc628","system_id":"levelo_inurba_marseille","lat":43.29623,"lon":5.37146,"is_reserved":false,"is_disabled":false,"rental_uris":{"android":"levelo://app?vid=e447e487-6c47-478f-9799-3acfc1afc628","ios":"levelo://app?vid=e447e487-6c47-478f-9799-3acfc1afc628"},"vehicle_type_id":"4","last_reported":1737540437,"current_range_meters":36800,"station_id":"ce4bgnh2rcd13ifvqc0g","pricing_plan_id":"cebpf4jnsgd1na2vs0mg"},{"bike_id":"05aec987-260e-4e56-87eb-9461afc6ca55","system_id":"levelo_inurba_marseille","lat":43.30433,"lon":5.39755,"is_reserved":false,"is_disabled":false,"rental_uris":{"android":"levelo://app?vid=05aec987-260e-4e56-87eb-9461afc6ca55","ios":"levelo://app?vid=05aec987-260e-4e56-87eb-9461afc6ca55"},"vehicle_type_id":"4","last_reported":1737540437,"current_range_meters":34800,"station_id":"ce4bh092rcd13ifvqd20","pricing_plan_id":"cebpf4jnsgd1na2vs0mg"},{"bike_id":"634e500c-74ef-4cdc-830f-99b7d06c375b","system_id":"levelo_inurba_marseille","lat":43.30365,"lon":5.41874,"is_reserved":false,"is_disabled":false,"rental_uris":{"android":"levelo://app?vid=634e500c-74ef-4cdc-830f-99b7d06c375b","ios":"levelo://app?vid=634e500c-74ef-4cdc-830f-99b7d06c375b"},"vehicle_type_id":"4","last_reported":1737540437,"current_range_meters":38800,"station_id":"ce4bhop2rcd13ifvqh7g","pricing_plan_id":"cebpf4jnsgd1na2vs0mg"},{"bike_id":"332ed00f-1a13-4d8b-8b0c-d1b24118bc07","system_id":"levelo_inurba_marseille","lat":43.29634,"lon":5.37161,"is_reserved":false,"is_disabled":false,"rental_uris":{"android":"levelo://app?vid=332ed00f-1a13-4d8b-8b0c-d1b24118bc07","ios":"levelo://app?vid=332ed00f-1a13-4d8b-8b0c-d1b24118bc07"},"vehicle_type_id":"4","last_reported":1737540437,"current_range_meters":16000,"station_id":"ce4bgnh2rcd13ifvqc0g","pricing_plan_id":"cebpf4jnsgd1na2vs0mg"},{"bike_id":"cd4173de-fac2-4f70-a8a5-1fb681dfbecf","system_id":"levelo_inurba_marseille","lat":43.29632,"lon":5.37147,"is_reserved":false,"is_disabled":false,"rental_uris":{"android":"levelo://app?vid=cd4173de-fac2-4f70-a8a5-1fb681dfbecf","ios":"levelo://app?vid=cd4173de-fac2-4f70-a8a5-1fb681dfbecf"},"vehicle_type_id":"4","last_reported":1737540437,"current_range_meters":30000,"station_id":"ce4bgnh2rcd13ifvqc0g","pricing_plan_id":"cebpf4jnsgd1na2vs0mg"},