{"last_updated":1680458840,"ttl":30,"version":"2.2","data":{"bikes":[{"bike_id":"ccdf53ba-7cc7-4231-8523-0c45c2ea3ae6","system_id":"levelo_inurba_marseille","lat":43.314811,"lon":5.373103,"is_reserved":false,"is_disabled":false,"rental_uris":{"android":"levelo://app?vid=ccdf53ba-7cc7-4231-8523-0c45c2ea3ae6","ios":"levelo://app?vid=ccdf53ba-7cc7-4231-8523-0c45c2ea3ae6"},"vehicle_type_id":"4","last_reported":1680458841,"current_range_meters":18800,"station_id":"ce4bgt12rcd13ifvqcd0","pricing_plan_id":"free"},{"bike_id":"847a0bbe-4ddd-4d7f-9367-52c9ea04027e","system_id":"levelo_inurba_marseille","lat":43.30509,"lon":5.36718,"is_reserved":false,"is_disabled":false,"rental_uris":{"android":"levelo://app?vid=847a0bbe-4ddd-4d7f-9367-52c9ea04027e","ios":"levelo://app?vid=847a0bbe-4ddd-4d7f-9367-52c9ea04027e"},"vehicle_type_id":"4","last_reported":1680458841,"current_range_meters":31200,"station_id":"","pricing_plan_id":"free"},{"bike_id":"d1b4a2f9-29d3-48f5-8eb3-727e33a0a88a","system_id":"levelo_inurba_marseille","lat":43.3049,"lon":5.36711,"is_reserved":false,"is_disabled":false,"rental_uris":{"android":"levelo://app?vid=d1b4a2f9-29d3-48f5-8eb3-727e33a0a88a","ios":"levelo://app?vid=d1b4a2f9-29d3-48f5-8eb3-727e33a0a88a"},"vehicle_type_id":"4","last_reported":1680458841,"current_range_meters":0,"station_id":"ce4bgh92rcd13ifvqb50","pricing_plan_id":"free"},{"bike_id":"cd51c82c-a857-4fd3-9b09-99a1fb0aa78c","system_id":"levelo_inurba_marseille","lat":43.30844,"lon":5.37656,"is_reserved":false,"is_disabled":false,"rental_uris":{"android":"levelo://app?vid=cd51c82c-a857-4fd3-9b09-99a1fb0aa78c","ios":"levelo://app?vid=cd51c82c-a857-4fd3-9b09-99a1fb0aa78c"},"vehicle_type_id":"4","last_reported":1680458841,"current_range_meters":20800,"station_id":"","pricing_plan_id":"free"},{"bike_id":"ad2c8ba9-5378-40c0-b0b7-95fd0f271488","system_id":"levelo_inurba_marseille","lat":43.31148,"lon":5.37838,"is_reserved":false,"is_disabled":false,"rental_uris":{"android":"levelo://app?vid=ad2c8ba9-5378-40c0-b0b7-95fd0f271488","ios":"levelo://app?vid=ad2c8ba9-5378-40c0-b0b7-95fd0f271488"},"vehicle_type_id":"4","last_reported":1680458841,"current_range_meters":8000,"station_id":"","pricing_plan_id":"free"},{"bike_id":"7c72b8e2-b2c0-4633-88e6-d467740bfe8b","system_id":"levelo_inurba_marseille","lat":43.311,"lon":5.37835,"is_reserved":false,"is_disabled":false,"rental_uris":{"android":"levelo://app?vid=7c72b8e2-b2c0-4633-88e6-d467740bfe8b","ios":"levelo://app?vid=7c72b8e2-b2c0-4633-88e6-d467740bfe8b"},"vehicle_type_id":"4","last_reported":1680458841,"current_range_meters":5200,"station_id":"","pricing_plan_id":"free"},{"bike_id":"f426b641-1d31-4c19-9eff-22597774c7e4","system_id":"levelo_inurba_marseille","lat":43.30428,"lon":5.36987,"is_reserved":false,"is_disabled":false,"rental_uris":{"android":"levelo://app?vid=f426b641-1d31-4c19-9eff-22597774c7e4","ios":"levelo://app?vid=f426b641-1d31-4c19-9eff-22597774c7e4"},"vehicle_type_id":"4","last_reported":1680458841,"current_range_meters":0,"station_id":"","pricing_plan_id":"free"},{"bike_id":"9b963f2d-13df-48a1-a15a-62a5da014a54","system_id":"levelo_inurba_marseille","lat":43.302818,"lon":5.368972,"is_reserved":false,"is_disabled":false,"rental_uris":{"android":"levelo://app?vid=9b963f2d-13df-48a1-a15a-62a5da014a54","ios":"levelo://app?vid=9b963f2d-13df-48a1-a15a-62a5da014a54"},"vehicle_type_id":"4","last_reported":1680458841,"current_range_meters":6000,"station_id":"ce4bhpp2rcd13ifvqhfg","pricing_plan_id":"free"},{"bike_id":"cff3532b-1adb-4225-97a3-7ed99179678f","system_id":"levelo_inurba_marseille","lat":43.31357,"lon":5.38252,"is_reserved":false,"is_disabled":false,"rental_uris":{"android":"levelo://app?vid=cff3532b-1adb-4225-97a3-7ed99179678f","ios":"levelo://app?vid=cff3532b-1adb-4225-97a3-7ed99179678f"},"vehicle_type_id":"4","last_reported":1680458841,"current_range_meters":16000,"station_id":"","pricing_plan_id":"free"},{"bike_id":"a361f1bd-a14c-4d2b-98a4-cbd05180ffa6","system_id":"levelo_inurba_marseille","lat":43.31361,"lon":5.38312,"is_reserved":false,"is_disabled":false,"rental_uris":{"android":"levelo://app?vid=a361f1bd-a14c-4d2b-98a4-cbd05180ffa6","ios":"levelo://app?vid=a361f1bd-a14c-4d2b-98a4-cbd05180ffa6"},"vehicle_type_id":"4","last_reported":1680458841,"current_range_meters":0,"station_id":"","pricing_plan_id":"free"},{"bike_id":"b5b2f41a-ea29-48ce-b94d-b68438dc1b12","system_id":"levelo_inurba_marseille","lat":43.299094,"lon":5.365415,"is_reserved":false,"is_disabled":false,"rental_uris":{"android":"levelo://app?vid=b5b2f41a-ea29-48ce-b94d-b68438dc1b12","ios":"levelo://app?vid=b5b2f41a-ea29-48ce-b94d-b68438dc1b12"},"vehicle_type_id":"4","last_reported":1680458841,"current_range_meters":11600,"station_id":"ce4bgm92rcd13ifvqbr0","pricing_plan_id":"free"},{"bike_id":"414692ba-d54c-4699-addb-6050c4c35bd5","system_id":"levelo_inurba_marseille","lat":43.29985,"lon":5.37305,"is_reserved":false,"is_disabled":false,"rental_uris":{"android":"levelo://app?vid=414692ba-d54c-4699-addb-6050c4c35bd5","ios":"levelo://app?vid=414692ba-d54c-4699-addb-6050c4c35bd5"},"vehicle_type_id":"4","last_reported":1680458841,"current_range_meters":0,"station_id":"","pricing_plan_id":"free"},{"bike_id":"facab095-ea81-4d41-94a0-f78536ca1a78","system_id":"levelo_inurba_marseille","lat":43.311722,"lon":5.387247,"is_reserved":false,"is_disabled":false,"rental_uris":{"android":"levelo://app?vid=facab095-ea81-4d41-94a0-f78536ca1a78","ios":"levelo://app?vid=facab095-ea81-4d41-94a0-f78536ca1a78"},"vehicle_type_id":"4","last_reported":1680458841,"current_range_meters":0,"station_id":"ce4bgv12rcd13ifvqcp0","pricing_plan_id":"free"},{"bike_id":"93397470-033b-4e9b-b879-3cc365e43f62","system_id":"levelo_inurba_marseille","lat":43.32255,"lon":5.38751,"is_reserved":false,"is_disabled":false,"rental_uris":{"android":"levelo://app?vid=93397470-033b-4e9b-b879-3cc365e43f62","ios":"levelo://app?vid=93397470-033b-4e9b-b879-3cc365e43f62"},"vehicle_type_id":"4","last_reported":1680458841,"current_range_meters":0,"station_id":"","pricing_plan_id":"free"},{"bike_id":"393d90bb-ac4d-48b6-9dc4-698c4e769367","system_id":"levelo_inurba_marseille","lat":43.298037,"lon":5.381066,"is_reserved":false,"is_disabled":false,"rental_uris":{"android":"levelo://app?vid=393d90bb-ac4d-48b6-9dc4-698c4e769367","ios":"levelo://app?vid=393d90bb-ac4d-48b6-9dc4-698c4e769367"},"vehicle_type_id":"4","last_reported":1680458841,"current_range_meters":19200,"station_id":"ce4bgip2rcd13ifvqbb0","pricing_plan_id":"free"},{"bike_id":"2c949645-037b-4395-94cd-e6c21976515f","system_id":"levelo_inurba_marseille","lat":43.299682,"lon":5.38497,"is_reserved":false,"is_disabled":false,"rental_uris":{"android":"levelo://app?vid=2c949645-037b-4395-94cd-e6c21976515f","ios":"levelo://app?vid=2c949645-037b-4395-94cd-e6c21976515f"},"vehicle_type_id":"4","last_reported":1680458841,"current_range_meters":9600,"station_id":"ce4bgt92rcd13ifvqcf0","pricing_plan_id":"free"},{"bike_id":"a835b559-729d-4905-bc5f-022d3ada5e8b","system_id":"levelo_inurba_marseille","lat":43.293259,"lon":5.371586,"is_reserved":false,"is_disabled":false,"rental_uris":{"android":"levelo://app?vid=a835b559-729d-4905-bc5f-022d3ada5e8b","ios":"levelo://app?vid=a835b559-729d-4905-bc5f-022d3ada5e8b"},"vehicle_type_id":"4","last_reported":1680458841,"current_range_meters":2800,"station_id":"ce4bgh92rcd13ifvqb40","pricing_plan_id":"free"},{"bike_id":"36f5ffa6-b584-4b69-9f49-a292181a27fa","system_id":"levelo_inurba_marseille","lat":43.293009,"lon":5.374584,"is_reserved":false,"is_disabled":false,"rental_uris":{"android":"levelo://app?vid=36f5ffa6-b584-4b69-9f49-a292181a27fa","ios":"levelo://app?vid=36f5ffa6-b584-4b69-9f49-a292181a27fa"},"vehicle_type_id":"4","last_reported":1680458841,"current_range_meters":31200,"station_id":"ce4bgi12rcd13ifvqb70","pricing_plan_id":"free"},{"bike_id":"6f133e2c-e529-43c5-bb7d-e3c2de7838b7","system_id":"levelo_inurba_marseille","lat":43.30535,"lon":5.3936,"is_reserved":false,"is_disabled":false,"rental_uris":{"android":"levelo://app?vid=6f133e2c-e529-43c5-bb7d-e3c2de7838b7","ios":"levelo://app?vid=6f133e2c-e529-43c5-bb7d-e3c2de7838b7"},"vehicle_type_id":"4","last_reported":1680458841,"current_range_meters":12800,"station_id":"","pricing_plan_id":"free"},{"bike_id":"0e5da46a-6527-4589-ab5f-0e1b1c7211f5","system_id":"levelo_inurba_marseille","lat":43.2936,"lon":5.37835,"is_reserved":false,"is_disabled":false,"rental_uris":{"android":"levelo://app?vid=0e5da46a-6527-4589-ab5f-0e1b1c7211f5","ios":"levelo://app?vid=0e5da46a-6527-4589-ab5f-0e1b1c7211f5"},"vehicle_type_id":"4","last_reported":1680458841,"current_range_meters":0,"station_id":"ce4bgjh2rcd13ifvqbf0","pricing_plan_id":"free"},{"bike_id":"d32a0082-b63f-4fcb-95b9-29ce244c95ae","system_id":"levelo_inurba_marseille","lat":43.292311,"lon":5.360731,"is_reserved":false,"is_disabled":false,"rental_uris":{"android":"levelo://app?vid=d32a0082-b63f-4fcb-95b9-29ce244c95ae","ios":"levelo://app?vid=d32a0082-b63f-4fcb-95b9-29ce244c95ae"},"vehicle_type_id":"4","last_reported":1680458841,"current_range_meters":0,"station_id":"ce4bhbh2rcd13ifvqeqg","pricing_plan_id":"free"},{"bike_id":"958b5486-c69b-4894-88e2-622431e20b3b","system_id":"levelo_inurba_marseille","lat":43.298764,"lon":5.388973,"is_reserved":false,"is_disabled":false,"rental_uris":{"android":"levelo://app?vid=958b5486-c69b-4894-88e2-622431e20b3b","ios":"levelo://app?vid=958b5486-c69b-4894-88e2-622431e20b3b"},"vehicle_type_id":"4","last_reported":1680458841,"current_range_meters":400,"station_id":"ce4bh392rcd13ifvqdl0","pricing_plan_id":"free"},{"bike_id":"5efe221e-82d5-461d-b152-fa137dbe8ec3","system_id":"levelo_inurba_marseille","lat":43.298764,"lon":5.388973,"is_reserved":false,"is_disabled":false,"rental_uris":{"android":"levelo://app?vid=5efe221e-82d5-461d-b152-fa137dbe8ec3","ios":"levelo://app?vid=5efe221e-82d5-461d-b152-fa137dbe8ec3"},"vehicle_type_id":"4","last_reported":1680458841,"current_range_meters":5600,"station_id":"ce4bh392rcd13ifvqdl0","pricing_plan_id":"free"},{"bike_id":"36eea95b-07a4-4501-99cc-c6af02e79b6e","system_id":"levelo_inurba_marseille","lat":43.29529,"lon":5.385581,"is_reserved":false,"is_disabled":false,"rental_uris":{"android":"levelo://app?vid=36eea95b-07a4-4501-99cc-c6af02e79b6e","ios":"levelo://app?vid=36eea95b-07a4-4501-99cc-c6af02e79b6e"},"vehicle_type_id":"4","last_reported":1680458841,"current_range_meters":0,"station_id":"ce4bgih2rcd13ifvqba0","pricing_plan_id":"free"},{"bike_id":"7dc32fb6-5e3a-4279-9a8f-5d1f5981d347","system_id":"levelo_inurba_marseille","lat":43.29529,"lon":5.385581,"is_reserved":false,"is_disabled":false,"rental_uris":{"android":"levelo://app?vid=7dc32fb6-5e3a-4279-9a8f-5d1f5981d347","ios":"levelo://app?vid=7dc32fb6-5e3a-4279-9a8f-5d1f5981d347"},"vehicle_type_id":"4","last_reported":1680458841,"current_range_meters":1200,"station_id":"ce4bgih2rcd13ifvqba0","pricing_plan_id":"free"},{"bike_id":"7fff05ae-e632-4091-839d-4964a7df6f56","system_id":"levelo_inurba_marseille","lat":43.294162,"lon":5.386292,"is_reserved":false,"is_disabled":false,"rental_uris":{"android":"levelo://app?vid=7fff05ae-e632-4091-839d-4964a7df6f56","ios":"levelo://app?vid=7fff05ae-e632-4091-839d-4964a7df6f56"},"vehicle_type_id":"4","last_reported":1680458841,"current_range_meters":0,"station_id":"ce4bh2h2rcd13ifvqdh0","pricing_plan_id":"free"},{"bike_id":"4691d434-6110-49b0-b80b-f643e887fc23","system_id":"levelo_inurba_marseille","lat":43.29099,"lon":5.38136,"is_reserved":false,"is_disabled":false,"rental_uris":{"android":"levelo://app?vid=4691d434-6110-49b0-b80b-f643e887fc23","ios":"levelo://app?vid=4691d434-6110-49b0-b80b-f643e887fc23"},"vehicle_type_id":"4","last_reported":1680458841,"current_range_meters":400,"station_id":"ce4bh512rcd13ifvqe2g","pricing_plan_id":"free"},{"bike_id":"18224f97-905a-4084-817e-f4e6b1f18d7b","system_id":"levelo_inurba_marseille","lat":43.28877,"lon":5.3608,"is_reserved":false,"is_disabled":false,"rental_uris":{"android":"levelo://app?vid=18224f97-905a-4084-817e-f4e6b1f18d7b","ios":"levelo://app?vid=18224f97-905a-4084-817e-f4e6b1f18d7b"},"vehicle_type_id":"4","last_reported":1680458841,"current_range_meters":0,"station_id":"","pricing_plan_id":"free"},{"bike_id":"9f2a98a3-8046-4298-99dc-579e1cd8c033","system_id":"levelo_inurba_marseille","lat":43.30996,"lon":5.40083,"is_reserved":false,"is_disabled":false,"rental_uris":{"android":"levelo://app?vid=9f2a98a3-8046-4298-99dc-579e1cd8c033","ios":"levelo://app?vid=9f2a98a3-8046-4298-99dc-579e1cd8c033"},"vehicle_type_id":"4","last_reported":1680458841,"current_range_meters":14800,"station_id":"","pricing_plan_id":"free"},{"bike_id":"6274e74e-e4b8-494c-9625-add9298072c0","system_id":"levelo_inurba_marseille","lat":43.30739,"lon":5.40103,"is_reserved":false,"is_disabled":false,"rental_uris":{"android":"levelo://app?vid=6274e74e-e4b8-494c-9625-add9298072c0","ios":"levelo://app?vid=6274e74e-e4b8-494c-9625-add9298072c0"},"vehicle_type_id":"4","last_reported":1680458841,"current_range_meters":3200,"station_id":"","pricing_plan_id":"free"},{"bike_id":"aa1870c7-8d26-4c48-8327-d3bf18efd2fe","system_id":"levelo_inurba_marseille","lat":43.30642,"lon":5.401031,"is_reserved":false,"is_disabled":false,"rental_uris":{"android":"levelo://app?vid=aa1870c7-8d26-4c48-8327-d3bf18efd2fe","ios":"levelo://app?vid=aa1870c7-8d26-4c48-8327-d3bf18efd2fe"},"vehicle_type_id":"4","last_reported":1680458841,"current_range_meters":800,"station_id":"ce4bh112rcd13ifvqda0","pricing_plan_id":"free"},{"bike_id":"8da554b7-a47d-4580-b62d-82b554803b69","system_id":"levelo_inurba_marseille","lat":43.33761,"lon":5.37457,"is_reserved":false,"is_disabled":false,"rental_uris":{"android":"levelo://app?vid=8da554b7-a47d-4580-b62d-82b554803b69","ios":"levelo://app?vid=8da554b7-a47d-4580-b62d-82b554803b69"},"vehicle_type_id":"4","last_reported":1680458841,"current_range_meters":22800,"station_id":"","pricing_plan_id":"free"},{"bike_id":"084c121d-a41d-4d84-8dbd-f2c23d8416c4","system_id":"levelo_inurba_marseille","lat":43.301117,"lon":5.398795,"is_reserved":false,"is_disabled":false,"rental_uris":{"android":"levelo://app?vid=084c121d-a41d-4d84-8dbd-f2c23d8416c4","ios":"levelo://app?vid=084c121d-a41d-4d84-8dbd-f2c23d8416c4"},"vehicle_type_id":"4","last_reported":1680458841,"current_range_meters":6400,"station_id":"ce4bh0h2rcd13ifvqd40","pricing_plan_id":"free"},{"bike_id":"3e678f60-8fe3-49da-a2f2-28a4960aaf05","system_id":"levelo_inurba_marseille","lat":43.298681,"lon":5.397225,"is_reserved":false,"is_disabled":false,"rental_uris":{"android":"levelo://app?vid=3e678f60-8fe3-49da-a2f2-28a4960aaf05","ios":"levelo://app?vid=3e678f60-8fe3-49da-a2f2-28a4960aaf05"},"vehicle_type_id":"4","last_reported":1680458841,"current_range_meters":7200,"station_id":"ce4bh0h2rcd13ifvqd50","pricing_plan_id":"free"},{"bike_id":"f84552c6-72fd-4502-a5e3-72e6c1ab79d2","system_id":"levelo_inurba_marseille","lat":43.287185,"lon":5.379373,"is_reserved":false,"is_disabled":false,"rental_uris":{"android":"levelo://app?vid=f84552c6-72fd-4502-a5e3-72e6c1ab79d2","ios":"levelo://app?vid=f84552c6-72fd-4502-a5e3-72e6c1ab79d2"},"vehicle_type_id":"4","last_reported":1680458841,"current_range_meters":2000,"station_id":"ce4bh9p2rcd13ifvqec0","pricing_plan_id":"free"},{"bike_id":"bce5674c-138c-4d80-8802-8472d08b899f","system_id":"levelo_inurba_marseille","lat":43.291,"lon":5.38953,"is_reserved":false,"is_disabled":false,"rental_uris":{"android":"levelo://app?vid=bce5674c-138c-4d80-8802-8472d08b899f","ios":"levelo://app?vid=bce5674c-138c-4d80-8802-8472d08b899f"},"vehicle_type_id":"4","last_reported":1680458841,"current_range_meters":14800,"station_id":"","pricing_plan_id":"free"},{"bike_id":"faedd159-a06f-4dbf-bac4-5a885da2ec04","system_id":"levelo_inurba_marseille","lat":43.284534,"lon":5.358662,"is_reserved":false,"is_disabled":false,"rental_uris":{"android":"levelo://app?vid=faedd159-a06f-4dbf-bac4-5a885da2ec04","ios":"levelo://app?vid=faedd159-a06f-4dbf-bac4-5a885da2ec04"},"vehicle_type_id":"4","last_reported":1680458841,"current_range_meters":0,"station_id":"ce4bhah2rcd13ifvqei0","pricing_plan_id":"free"},{"bike_id":"8c7dbc56-9ee3-42bf-b6aa-6494a5275b03","system_id":"levelo_inurba_marseille","lat":43.29428,"lon":5.39785,"is_reserved":false,"is_disabled":false,"rental_uris":{"android":"levelo://app?vid=8c7dbc56-9ee3-42bf-b6aa-6494a5275b03","ios":"levelo://app?vid=8c7dbc56-9ee3-42bf-b6aa-6494a5275b03"},"vehicle_type_id":"4","last_reported":1680458841,"current_range_meters":4000,"station_id":"","pricing_plan_id":"free"},{"bike_id":"fab75fff-55b8-48d5-85e7-4a09e089b745","system_id":"levelo_inurba_marseille","lat":43.29562,"lon":5.39967,"is_reserved":false,"is_disabled":false,"rental_uris":{"android":"levelo://app?vid=fab75fff-55b8-48d5-85e7-4a09e089b745","ios":"levelo://app?vid=fab75fff-55b8-48d5-85e7-4a09e089b745"},"vehicle_type_id":"4","last_reported":1680458841,"current_range_meters":0,"station_id":"","pricing_plan_id":"free"},{"bike_id":"e7dbb7c6-79eb-4f9f-8b67-3bfe38a70a93","system_id":"levelo_inurba_marseille","lat":43.295713,"lon":5.399639,"is_reserved":false,"is_disabled":false,"rental_uris":{"android":"levelo://app?vid=e7dbb7c6-79eb-4f9f-8b67-3bfe38a70a93","ios":"levelo://app?vid=e7dbb7c6-79eb-4f9f-8b67-3bfe38a70a93"},"vehicle_type_id":"4","last_reported":1680458841,"current_range_meters":800,"station_id":"ce4bh312rcd13ifvqdj0","pricing_plan_id":"free"},{"bike_id":"cfaea9e0-96bf-41ba-a96d-aaa161010bfa","system_id":"levelo_inurba_marseille","lat":43.28535,"lon":5.38379,"is_reserved":false,"is_disabled":false,"rental_uris":{"android":"levelo://app?vid=cfaea9e0-96bf-41ba-a96d-aaa161010bfa","ios":"levelo://app?vid=cfaea9e0-96bf-41ba-a96d-aaa161010bfa"},"vehicle_type_id":"4","last_reported":1680458841,"current_range_meters":7600,"station_id":"","pricing_plan_id":"free"},{"bike_id":"790f5fd6-2349-461c-9afb-33a1b7ed3146","system_id":"levelo_inurba_marseille","lat":43.284793,"lon":5.384113,"is_reserved":false,"is_disabled":false,"rental_uris":{"android":"levelo://app?vid=790f5fd6-2349-461c-9afb-33a1b7ed3146","ios":"levelo://app?vid=790f5fd6-2349-461c-9afb-33a1b7ed3146"},"vehicle_type_id":"4","last_reported":1680458841,"current_range_meters":2000,"station_id":"ce4bh512rcd13ifvqe3g","pricing_plan_id":"free"},{"bike_id":"f136a4a0-46e8-4ad4-8dfc-672cf0eb14d4","system_id":"levelo_inurba_marseille","lat":43.30819,"lon":5.408971,"is_reserved":false,"is_disabled":false,"rental_uris":{"android":"levelo://app?vid=f136a4a0-46e8-4ad4-8dfc-672cf0eb14d4","ios":"levelo://app?vid=f136a4a0-46e8-4ad4-8dfc-672cf0eb14d4"},"vehicle_type_id":"4","last_reported":1680458841,"current_range_meters":10800,"station_id":"","pricing_plan_id":"free"},{"bike_id":"1d85d5bc-eb8f-4934-a3b8-84babf1adaac","system_id":"levelo_inurba_marseille","lat":43.284219,"lon":5.3497,"is_reserved":false,"is_disabled":false,"rental_uris":{"android":"levelo://app?vid=1d85d5bc-eb8f-4934-a3b8-84babf1adaac","ios":"levelo://app?vid=1d85d5bc-eb8f-4934-a3b8-84babf1adaac"},"vehicle_type_id":"4","last_reported":1680458841,"current_range_meters":2000,"station_id":"ce4bhbh2rcd13ifvqepg","pricing_plan_id":"free"},{"bike_id":"a9478676-3a69-4128-a65f-6484f65bc7db","system_id":"levelo_inurba_marseille","lat":43.284145,"lon":5.349813,"is_reserved":false,"is_disabled":false,"rental_uris":{"android":"levelo://app?vid=a9478676-3a69-4128-a65f-6484f65bc7db","ios":"levelo://app?vid=a9478676-3a69-4128-a65f-6484f65bc7db"},"vehicle_type_id":"4","last_reported":1680458841,"current_range_meters":2800,"station_id":"ce4bhb92rcd13ifvqen0","pricing_plan_id":"free"},{"bike_id":"18dabaa1-3d93-413c-ad26-0258c7aaad12","system_id":"levelo_inurba_marseille","lat":43.28036,"lon":5.36951,"is_reserved":false,"is_disabled":false,"rental_uris":{"android":"levelo://app?vid=18dabaa1-3d93-413c-ad26-0258c7aaad12","ios":"levelo://app?vid=18dabaa1-3d93-413c-ad26-0258c7aaad12"},"vehicle_type_id":"4","last_reported":1680458841,"current_range_meters":1200,"station_id":"","pricing_plan_id":"free"},{"bike_id":"71e43858-2c00-4d13-a675-6d299020eadd","system_id":"levelo_inurba_marseille","lat":43.284462,"lon":5.392121,"is_reserved":false,"is_disabled":false,"rental_uris":{"android":"levelo://app?vid=71e43858-2c00-4d13-a675-6d299020eadd","ios":"levelo://app?vid=71e43858-2c00-4d13-a675-6d299020eadd"},"vehicle_type_id":"4","last_reported":1680458841,"current_range_meters":3200,"station_id":"ce4bhoh2rcd13ifvqh5g","pricing_plan_id":"free"},{"bike_id":"2ae38538-898c-4eaf-bb6a-f8bd49f10b49","system_id":"levelo_inurba_marseille","lat":43.287154,"lon":5.399979,"is_reserved":false,"is_disabled":false,"rental_uris":{"android":"levelo://app?vid=2ae38538-898c-4eaf-bb6a-f8bd49f10b49","ios":"levelo://app?vid=2ae38538-898c-4eaf-bb6a-f8bd49f10b49"},"vehicle_type_id":"4","last_reported":1680458841,"current_range_meters":3600,"station_id":"ce4bho92rcd13ifvqh3g","pricing_plan_id":"free"},{"bike_id":"ef6afacb-5241-4cec-bf4b-26be13699c0f","system_id":"levelo_inurba_marseille","lat":43.27974,"lon":5.38737,"is_reserved":false,"is_disabled":false,"rental_uris":{"android":"levelo://app?vid=ef6afacb-5241-4cec-bf4b-26be13699c0f","ios":"levelo://app?vid=ef6afacb-5241-4cec-bf4b-26be13699c0f"},"vehicle_type_id":"4","last_reported":1680458841,"current_range_meters":0,"station_id":"ce4bhg12rcd13ifvqf80","pricing_plan_id":"free"},{"bike_id":"f3ffea93-a659-42c8-8c79-10d7791a4d7f","system_id":"levelo_inurba_marseille","lat":43.320045,"lon":5.415048,"is_reserved":false,"is_disabled":false,"rental_uris":{"android":"levelo://app?vid=f3ffea93-a659-42c8-8c79-10d7791a4d7f","ios":"levelo://app?vid=f3ffea93-a659-42c8-8c79-10d7791a4d7f"},"vehicle_type_id":"4","last_reported":1680458841,"current_range_meters":0,"station_id":"ce4bhq92rcd13ifvqhkg","pricing_plan_id":"free"},{"bike_id":"3dbfff54-c6c6-4d49-ba15-2c4dcf453013","system_id":"levelo_inurba_marseille","lat":43.27671,"lon":5.38896,"is_reserved":false,"is_disabled":false,"rental_uris":{"android":"levelo://app?vid=3dbfff54-c6c6-4d49-ba15-2c4dcf453013","ios":"levelo://app?vid=3dbfff54-c6c6-4d49-ba15-2c4dcf453013"},"vehicle_type_id":"4","last_reported":1680458841,"current_range_meters":0,"station_id":"ce4bhi12rcd13ifvqfo0","pricing_plan_id":"free"},{"bike_id":"8a39d9e8-d31e-4535-b063-eb8f0b85a9ea","system_id":"levelo_inurba_marseille","lat":43.310785,"lon":5.424305,"is_reserved":false,"is_disabled":false,"rental_uris":{"android":"levelo://app?vid=8a39d9e8-d31e-4535-b063-eb8f0b85a9ea","ios":"levelo://app?vid=8a39d9e8-d31e-4535-b063-eb8f0b85a9ea"},"vehicle_type_id":"4","last_reported":1680458841,"current_range_meters":10400,"station_id":"ce4bhp92rcd13ifvqhag","pricing_plan_id":"free"},{"bike_id":"7a6ca930-3e6b-4ae7-8106-6ae671ec6cbe","system_id":"levelo_inurba_marseille","lat":43.273125,"lon":5.390731,"is_reserved":false,"is_disabled":false,"rental_uris":{"android":"levelo://app?vid=7a6ca930-3e6b-4ae7-8106-6ae671ec6cbe","ios":"levelo://app?vid=7a6ca930-3e6b-4ae7-8106-6ae671ec6cbe"},"vehicle_type_id":"4","last_reported":1680458841,"current_range_meters":19600,"station_id":"ce4bhgp2rcd13ifvqfe0","pricing_plan_id":"free"},{"bike_id":"e823df88-a2cb-4012-a2ce-9efc54f6a445","system_id":"levelo_inurba_marseille","lat":43.30414,"lon":5.42539,"is_reserved":false,"is_disabled":false,"rental_uris":{"android":"levelo://app?vid=e823df88-a2cb-4012-a2ce-9efc54f6a445","ios":"levelo://app?vid=e823df88-a2cb-4012-a2ce-9efc54f6a445"},"vehicle_type_id":"4","last_reported":1680458841,"current_range_meters":0,"station_id":"","pricing_plan_id":"free"},{"bike_id":"0da5c6c9-86fb-462d-9860-70fcb22a9a61","system_id":"levelo_inurba_marseille","lat":43.278128,"lon":5.407195,"is_reserved":false,"is_disabled":false,"rental_uris":{"android":"levelo://app?vid=0da5c6c9-86fb-462d-9860-70fcb22a9a61","ios":"levelo://app?vid=0da5c6c9-86fb-462d-9860-70fcb22a9a61"},"vehicle_type_id":"4","last_reported":1680458841,"current_range_meters":4800,"station_id":"ce4bhnh2rcd13ifvqgtg","pricing_plan_id":"free"},{"bike_id":"515786e3-7f63-4f71-b63b-0aa4cf8d7f91","system_id":"levelo_inurba_marseille","lat":43.278128,"lon":5.407195,"is_reserved":false,"is_disabled":false,"rental_uris":{"android":"levelo://app?vid=515786e3-7f63-4f71-b63b-0aa4cf8d7f91","ios":"levelo://app?vid=515786e3-7f63-4f71-b63b-0aa4cf8d7f91"},"vehicle_type_id":"4","last_reported":1680458841,"current_range_meters":11200,"station_id":"ce4bhnh2rcd13ifvqgtg","pricing_plan_id":"free"},{"bike_id":"4b91856f-c243-4f7b-8727-9c7e8943ba0f","system_id":"levelo_inurba_marseille","lat":43.269467,"lon":5.386439,"is_reserved":false,"is_disabled":false,"rental_uris":{"android":"levelo://app?vid=4b91856f-c243-4f7b-8727-9c7e8943ba0f","ios":"levelo://app?vid=4b91856f-c243-4f7b-8727-9c7e8943ba0f"},"vehicle_type_id":"4","last_reported":1680458841,"current_range_meters":14400,"station_id":"ce4bhh92rcd13ifvqfh0","pricing_plan_id":"free"},{"bike_id":"ae0b28bf-88ef-484a-acfa-c4990b998f0f","system_id":"levelo_inurba_marseille","lat":43.269467,"lon":5.386439,"is_reserved":false,"is_disabled":false,"rental_uris":{"android":"levelo://app?vid=ae0b28bf-88ef-484a-acfa-c4990b998f0f","ios":"levelo://app?vid=ae0b28bf-88ef-484a-acfa-c4990b998f0f"},"vehicle_type_id":"4","last_reported":1680458841,"current_range_meters":0,"station_id":"ce4bhh92rcd13ifvqfh0","pricing_plan_id":"free"},{"bike_id":"1a0c6be5-99a3-4a9f-b407-7df72aa0b6a6","system_id":"levelo_inurba_marseille","lat":43.29188,"lon":5.42262,"is_reserved":false,"is_disabled":false,"rental_uris":{"android":"levelo://app?vid=1a0c6be5-99a3-4a9f-b407-7df72aa0b6a6","ios":"levelo://app?vid=1a0c6be5-99a3-4a9f-b407-7df72aa0b6a6"},"vehicle_type_id":"4","last_reported":1680458841,"current_range_meters":15600,"station_id":"","pricing_plan_id":"free"},{"bike_id":"a213e1fa-4a9d-4fbf-b725-d1789057e2d5","system_id":"levelo_inurba_marseille","lat":43.25102,"lon":5.403214,"is_reserved":false,"is_disabled":false,"rental_uris":{"android":"levelo://app?vid=a213e1fa-4a9d-4fbf-b725-d1789057e2d5","ios":"levelo://app?vid=a213e1fa-4a9d-4fbf-b725-d1789057e2d5"},"vehicle_type_id":"4","last_reported":1680458841,"current_range_meters":13200,"station_id":"ce4bhlh2rcd13ifvqgig","pricing_plan_id":"free"},{"bike_id":"fe6b02fb-4b4b-44f3-ab93-315275670c33","system_id":"levelo_inurba_marseille","lat":43.26187,"lon":5.37447,"is_reserved":false,"is_disabled":false,"rental_uris":{"android":"levelo://app?vid=fe6b02fb-4b4b-44f3-ab93-315275670c33","ios":"levelo://app?vid=fe6b02fb-4b4b-44f3-ab93-315275670c33"},"vehicle_type_id":"4","last_reported":1680458841,"current_range_meters":0,"station_id":"ce4bhgp2rcd13ifvqfc0","pricing_plan_id":"free"},{"bike_id":"6e8c92ff-1587-43d6-a056-5aac48918100","system_id":"levelo_inurba_marseille","lat":43.26185,"lon":5.37448,"is_reserved":false,"is_disabled":false,"rental_uris":{"android":"levelo://app?vid=6e8c92ff-1587-43d6-a056-5aac48918100","ios":"levelo://app?vid=6e8c92ff-1587-43d6-a056-5aac48918100"},"vehicle_type_id":"4","last_reported":1680458841,"current_range_meters":0,"station_id":"ce4bhgp2rcd13ifvqfc0","pricing_plan_id":"free"},{"bike_id":"da25626b-580a-4304-9256-96c74cd91fcd","system_id":"levelo_inurba_marseille","lat":43.29883,"lon":5.43671,"is_reserved":false,"is_disabled":false,"rental_uris":{"android":"levelo://app?vid=da25626b-580a-4304-9256-96c74cd91fcd","ios":"levelo://app?vid=da25626b-580a-4304-9256-96c74cd91fcd"},"vehicle_type_id":"4","last_reported":1680458841,"current_range_meters":0,"station_id":"ce4bhpp2rcd13ifvqhfg","pricing_plan_id":"free"},{"bike_id":"adefc240-4b09-42cf-ab9f-653187581229","system_id":"levelo_inurba_marseille","lat":43.254945,"lon":5.376454,"is_reserved":false,"is_disabled":false,"rental_uris":{"android":"levelo://app?vid=adefc240-4b09-42cf-ab9f-653187581229","ios":"levelo://app?vid=adefc240-4b09-42cf-ab9f-653187581229"},"vehicle_type_id":"4","last_reported":1680458841,"current_range_meters":16400,"station_id":"ce4bhh12rcd13ifvqff0","pricing_plan_id":"free"},{"bike_id":"b163fb88-6e41-424a-8409-0f3a5633b5f7","system_id":"levelo_inurba_marseille","lat":43.258658,"lon":5.398935,"is_reserved":false,"is_disabled":false,"rental_uris":{"android":"levelo://app?vid=b163fb88-6e41-424a-8409-0f3a5633b5f7","ios":"levelo://app?vid=b163fb88-6e41-424a-8409-0f3a5633b5f7"},"vehicle_type_id":"4","last_reported":1680458841,"current_range_meters":2000,"station_id":"ce4bhl92rcd13ifvqghg","pricing_plan_id":"free"},{"bike_id":"2a9fbed7-8c36-4551-bc3e-c09a23551b4f","system_id":"levelo_inurba_marseille","lat":43.25424,"lon":5.38149,"is_reserved":false,"is_disabled":false,"rental_uris":{"android":"levelo://app?vid=2a9fbed7-8c36-4551-bc3e-c09a23551b4f","ios":"levelo://app?vid=2a9fbed7-8c36-4551-bc3e-c09a23551b4f"},"vehicle_type_id":"4","last_reported":1680458841,"current_range_meters":15600,"station_id":"","pricing_plan_id":"free"},{"bike_id":"7fe6e462-697e-4a5a-b59f-781bab6ba83e","system_id":"levelo_inurba_marseille","lat":43.27294,"lon":5.43119,"is_reserved":false,"is_disabled":false,"rental_uris":{"android":"levelo://app?vid=7fe6e462-697e-4a5a-b59f-781bab6ba83e","ios":"levelo://app?vid=7fe6e462-697e-4a5a-b59f-781bab6ba83e"},"vehicle_type_id":"4","last_reported":1680458841,"current_range_meters":22400,"station_id":"","pricing_plan_id":"free"},{"bike_id":"59d8950e-c35e-4b93-8bb4-30777d5c69c4","system_id":"levelo_inurba_marseille","lat":43.2805,"lon":5.44063,"is_reserved":false,"is_disabled":false,"rental_uris":{"android":"levelo://app?vid=59d8950e-c35e-4b93-8bb4-30777d5c69c4","ios":"levelo://app?vid=59d8950e-c35e-4b93-8bb4-30777d5c69c4"},"vehicle_type_id":"4","last_reported":1680458841,"current_range_meters":2800,"station_id":"","pricing_plan_id":"free"},{"bike_id":"043e825f-9ea2-4978-be87-020ace181c29","system_id":"levelo_inurba_marseille","lat":43.28022,"lon":5.4427,"is_reserved":false,"is_disabled":false,"rental_uris":{"android":"levelo://app?vid=043e825f-9ea2-4978-be87-020ace181c29","ios":"levelo://app?vid=043e825f-9ea2-4978-be87-020ace181c29"},"vehicle_type_id":"4","last_reported":1680458841,"current_range_meters":8000,"station_id":"","pricing_plan_id":"free"},{"bike_id":"911e584c-6971-4f6e-9ef3-7d350c83fa2d","system_id":"levelo_inurba_marseille","lat":43.250966,"lon":5.395186,"is_reserved":false,"is_disabled":false,"rental_uris":{"android":"levelo://app?vid=911e584c-6971-4f6e-9ef3-7d350c83fa2d","ios":"levelo://app?vid=911e584c-6971-4f6e-9ef3-7d350c83fa2d"},"vehicle_type_id":"4","last_reported":1680458841,"current_range_meters":400,"station_id":"ce4bhm12rcd13ifvqgkg","pricing_plan_id":"free"},{"bike_id":"5a953ba8-23cf-464c-8f14-925558334a64","system_id":"levelo_inurba_marseille","lat":43.25127,"lon":5.40295,"is_reserved":false,"is_disabled":false,"rental_uris":{"android":"levelo://app?vid=5a953ba8-23cf-464c-8f14-925558334a64","ios":"levelo://app?vid=5a953ba8-23cf-464c-8f14-925558334a64"},"vehicle_type_id":"4","last_reported":1680458841,"current_range_meters":0,"station_id":"","pricing_plan_id":"free"},{"bike_id":"1e370f62-7bb0-4599-a12a-c6a008b3aa95","system_id":"levelo_inurba_marseille","lat":43.25102,"lon":5.403214,"is_reserved":false,"is_disabled":false,"rental_uris":{"android":"levelo://app?vid=1e370f62-7bb0-4599-a12a-c6a008b3aa95","ios":"levelo://app?vid=1e370f62-7bb0-4599-a12a-c6a008b3aa95"},"vehicle_type_id":"4","last_reported":1680458841,"current_range_meters":12000,"station_id":"ce4bhlh2rcd13ifvqgig","pricing_plan_id":"free"},{"bike_id":"d9891575-5b29-4f29-ab55-1b934eac086c","system_id":"levelo_inurba_marseille","lat":43.25102,"lon":5.403214,"is_reserved":false,"is_disabled":false,"rental_uris":{"android":"levelo://app?vid=d9891575-5b29-4f29-ab55-1b934eac086c","ios":"levelo://app?vid=d9891575-5b29-4f29-ab55-1b934eac086c"},"vehicle_type_id":"4","last_reported":1680458841,"current_range_meters":4800,"station_id":"ce4bhlh2rcd13ifvqgig","pricing_plan_id":"free"},{"bike_id":"1f695042-0947-499f-a66d-26dfed89096e","system_id":"levelo_inurba_marseille","lat":43.246467,"lon":5.388984,"is_reserved":false,"is_disabled":false,"rental_uris":{"android":"levelo://app?vid=1f695042-0947-499f-a66d-26dfed89096e","ios":"levelo://app?vid=1f695042-0947-499f-a66d-26dfed89096e"},"vehicle_type_id":"4","last_reported":1680458841,"current_range_meters":14000,"station_id":"ce4bhg12rcd13ifvqf60","pricing_plan_id":"free"},{"bike_id":"7cefe55c-255b-44d6-9a70-965584e5a4cf","system_id":"levelo_inurba_marseille","lat":43.245581,"lon":5.395069,"is_reserved":false,"is_disabled":false,"rental_uris":{"android":"levelo://app?vid=7cefe55c-255b-44d6-9a70-965584e5a4cf","ios":"levelo://app?vid=7cefe55c-255b-44d6-9a70-965584e5a4cf"},"vehicle_type_id":"4","last_reported":1680458841,"current_range_meters":24400,"station_id":"ce4bhlp2rcd13ifvqgjg","pricing_plan_id":"free"},{"bike_id":"3d215131-40b8-40e9-a242-0f282409f371","system_id":"levelo_inurba_marseille","lat":43.2397,"lon":5.36623,"is_reserved":false,"is_disabled":false,"rental_uris":{"android":"levelo://app?vid=3d215131-40b8-40e9-a242-0f282409f371","ios":"levelo://app?vid=3d215131-40b8-40e9-a242-0f282409f371"},"vehicle_type_id":"4","last_reported":1680458841,"current_range_meters":0,"station_id":"ce4bhi12rcd13ifvqfp0","pricing_plan_id":"free"}]}}