{"last_updated":1716037693,"ttl":30,"version":"2.2","data":{"bikes":[{"bike_id":"d88cdc20-87d2-4c8f-bfc0-2d992ca1f863","system_id":"levelo_inurba_marseille","lat":43.313391,"lon":5.36706,"is_reserved":false,"is_disabled":false,"rental_uris":{"android":"levelo://app?vid=d88cdc20-87d2-4c8f-bfc0-2d992ca1f863","ios":"levelo://app?vid=d88cdc20-87d2-4c8f-bfc0-2d992ca1f863"},"vehicle_type_id":"4","last_reported":1716037693,"current_range_meters":3600,"station_id":"ce4bgr92rcd13ifvqc6g","pricing_plan_id":"cebpf4jnsgd1na2vs0mg"},{"bike_id":"0075149d-2cba-48ec-98c4-f079e924d12e","system_id":"levelo_inurba_marseille","lat":43.313391,"lon":5.36706,"is_reserved":false,"is_disabled":false,"rental_uris":{"android":"levelo://app?vid=0075149d-2cba-48ec-98c4-f079e924d12e","ios":"levelo://app?vid=0075149d-2cba-48ec-98c4-f079e924d12e"},"vehicle_type_id":"4","last_reported":1716037693,"current_range_meters":30800,"station_id":"ce4bgr92rcd13ifvqc6g","pricing_plan_id":"cebpf4jnsgd1na2vs0mg"},{"bike_id":"31e33ece-51ed-493b-8cad-e4f425d75c8b","system_id":"levelo_inurba_marseille","lat":43.313391,"lon":5.36706,"is_reserved":false,"is_disabled":false,"rental_uris":{"android":"levelo://app?vid=31e33ece-51ed-493b-8cad-e4f425d75c8b","ios":"levelo://app?vid=31e33ece-51ed-493b-8cad-e4f425d75c8b"},"vehicle_type_id":"4","last_reported":1716037693,"current_range_meters":26800,"station_id":"ce4bgr92rcd13ifvqc6g","pricing_plan_id":"cebpf4jnsgd1na2vs0mg"},{"bike_id":"7119ce3d-fbb5-4933-8249-c822b1e3df9e","system_id":"levelo_inurba_marseille","lat":43.313391,"lon":5.36706,"is_reserved":false,"is_disabled":false,"rental_uris":{"android":"levelo://app?vid=7119ce3d-fbb5-4933-8249-c822b1e3df9e","ios":"levelo://app?vid=7119ce3d-fbb5-4933-8249-c822b1e3df9e"},"vehicle_type_id":"4","last_reported":1716037693,"current_range_meters":10800,"station_id":"ce4bgr92rcd13ifvqc6g","pricing_plan_id":"cebpf4jnsgd1na2vs0mg"},{"bike_id":"0f4afbea-7a01-4175-b5e1-5596b8c6a0a5","system_id":"levelo_inurba_marseille","lat":43.313538,"lon":5.367062,"is_reserved":false,"is_disabled":false,"rental_uris":{"android":"levelo://app?vid=0f4afbea-7a01-4175-b5e1-5596b8c6a0a5","ios":"levelo://app?vid=0f4afbea-7a01-4175-b5e1-5596b8c6a0a5"},"vehicle_type_id":"4","last_reported":1716037693,"current_range_meters":16800,"station_id":"ce4bgr92rcd13ifvqc6g","pricing_plan_id":"cebpf4jnsgd1na2vs0mg"},{"bike_id":"07fd05b7-cc72-4462-8855-cf7896579598","system_id":"levelo_inurba_marseille","lat":43.312239,"lon":5.368562,"is_reserved":false,"is_disabled":false,"rental_uris":{"android":"levelo://app?vid=07fd05b7-cc72-4462-8855-cf7896579598","ios":"levelo://app?vid=07fd05b7-cc72-4462-8855-cf7896579598"},"vehicle_type_id":"4","last_reported":1716037693,"current_range_meters":20000,"station_id":"ce4bgl92rcd13ifvqbq0","pricing_plan_id":"cebpf4jnsgd1na2vs0mg"},{"bike_id":"afab2cc5-130e-4bbc-976b-ed8f91749591","system_id":"levelo_inurba_marseille","lat":43.312239,"lon":5.368562,"is_reserved":false,"is_disabled":false,"rental_uris":{"android":"levelo://app?vid=afab2cc5-130e-4bbc-976b-ed8f91749591","ios":"levelo://app?vid=afab2cc5-130e-4bbc-976b-ed8f91749591"},"vehicle_type_id":"4","last_reported":1716037693,"current_range_meters":24400,"station_id":"ce4bgl92rcd13ifvqbq0","pricing_plan_id":"cebpf4jnsgd1na2vs0mg"},{"bike_id":"83bed967-7eb2-49ca-a3fe-d0d97fd6b3bc","system_id":"levelo_inurba_marseille","lat":43.312239,"lon":5.368562,"is_reserved":false,"is_disabled":false,"rental_uris":{"android":"levelo://app?vid=83bed967-7eb2-49ca-a3fe-d0d97fd6b3bc","ios":"levelo://app?vid=83bed967-7eb2-49ca-a3fe-d0d97fd6b3bc"},"vehicle_type_id":"4","last_reported":1716037693,"current_range_meters":9200,"station_id":"ce4bgl92rcd13ifvqbq0","pricing_plan_id":"cebpf4jnsgd1na2vs0mg"},{"bike_id":"ac1865ba-dbfb-456f-bcff-2193b1b63abd","system_id":"levelo_inurba_marseille","lat":43.312239,"lon":5.368562,"is_reserved":false,"is_disabled":false,"rental_uris":{"android":"levelo://app?vid=ac1865ba-dbfb-456f-bcff-2193b1b63abd","ios":"levelo://app?vid=ac1865ba-dbfb-456f-bcff-2193b1b63abd"},"vehicle_type_id":"4","last_reported":1716037693,"current_range_meters":7600,"station_id":"ce4bgl92rcd13ifvqbq0","pricing_plan_id":"cebpf4jnsgd1na2vs0mg"},{"bike_id":"69ab14dd-6bd4-4b9e-ac6b-d8060659a21b","system_id":"levelo_inurba_marseille","lat":43.312239,"lon":5.368562,"is_reserved":false,"is_disabled":false,"rental_uris":{"android":"levelo://app?vid=69ab14dd-6bd4-4b9e-ac6b-d8060659a21b","ios":"levelo://app?vid=69ab14dd-6bd4-4b9e-ac6b-d8060659a21b"},"vehicle_type_id":"4","last_reported":1716037693,"current_range_meters":30800,"station_id":"ce4bgl92rcd13ifvqbq0","pricing_plan_id":"cebpf4jnsgd1na2vs0mg"},{"bike_id":"465b73a1-940c-4f30-8d90-3df282c11ca1","system_id":"levelo_inurba_marseille","lat":43.312239,"lon":5.368562,"is_reserved":false,"is_disabled":false,"rental_uris":{"android":"levelo://app?vid=465b73a1-940c-4f30-8d90-3df282c11ca1","ios":"levelo://app?vid=465b73a1-940c-4f30-8d90-3df282c11ca1"},"vehicle_type_id":"4","last_reported":1716037693,"current_range_meters":5200,"station_id":"ce4bgl92rcd13ifvqbq0","pricing_plan_id":"cebpf4jnsgd1na2vs0mg"},{"bike_id":"59ba6b14-e7ec-4423-9be0-8ab7456fc847","system_id":"levelo_inurba_marseille","lat":43.309076,"lon":5.368465,"is_reserved":false,"is_disabled":false,"rental_uris":{"android":"levelo://app?vid=59ba6b14-e7ec-4423-9be0-8ab7456fc847","ios":"levelo://app?vid=59ba6b14-e7ec-4423-9be0-8ab7456fc847"},"vehicle_type_id":"4","last_reported":1716037693,"current_range_meters":24000,"station_id":"ce4bgn92rcd13ifvqbvg","pricing_plan_id":"cebpf4jnsgd1na2vs0mg"},{"bike_id":"8c2a77f3-7091-4950-a8c1-3ed411471361","system_id":"levelo_inurba_marseille","lat":43.309076,"lon":5.368465,"is_reserved":false,"is_disabled":false,"rental_uris":{"android":"levelo://app?vid=8c2a77f3-7091-4950-a8c1-3ed411471361","ios":"levelo://app?vid=8c2a77f3-7091-4950-a8c1-3ed411471361"},"vehicle_type_id":"4","last_reported":1716037693,"current_range_meters":27200,"station_id":"ce4bgn92rcd13ifvqbvg","pricing_plan_id":"cebpf4jnsgd1na2vs0mg"},{"bike_id":"be2352ae-c69e-49a5-9df5-3799eca467da","system_id":"levelo_inurba_marseille","lat":43.314811,"lon":5.373103,"is_reserved":false,"is_disabled":false,"rental_uris":{"android":"levelo://app?vid=be2352ae-c69e-49a5-9df5-3799eca467da","ios":"levelo://app?vid=be2352ae-c69e-49a5-9df5-3799eca467da"},"vehicle_type_id":"4","last_reported":1716037693,"current_range_meters":1200,"station_id":"ce4bgt12rcd13ifvqcd0","pricing_plan_id":"cebpf4jnsgd1na2vs0mg"},{"bike_id":"3f33ecfd-1525-4427-99dc-f132dc7cf874","system_id":"levelo_inurba_marseille","lat":43.314811,"lon":5.373103,"is_reserved":false,"is_disabled":false,"rental_uris":{"android":"levelo://app?vid=3f33ecfd-1525-4427-99dc-f132dc7cf874","ios":"levelo://app?vid=3f33ecfd-1525-4427-99dc-f132dc7cf874"},"vehicle_type_id":"4","last_reported":1716037693,"current_range_meters":18800,"station_id":"ce4bgt12rcd13ifvqcd0","pricing_plan_id":"cebpf4jnsgd1na2vs0mg"},{"bike_id":"22442d9d-786c-4008-85da-7250d51d4510","system_id":"levelo_inurba_marseille","lat":43.314811,"lon":5.373103,"is_reserved":false,"is_disabled":false,"rental_uris":{"android":"levelo://app?vid=22442d9d-786c-4008-85da-7250d51d4510","ios":"levelo://app?vid=22442d9d-786c-4008-85da-7250d51d4510"},"vehicle_type_id":"4","last_reported":1716037693,"current_range_meters":24000,"station_id":"ce4bgt12rcd13ifvqcd0","pricing_plan_id":"cebpf4jnsgd1na2vs0mg"},{"bike_id":"1cebc335-3600-4fae-9d9d-33b348f15ad2","system_id":"levelo_inurba_marseille","lat":43.319935,"lon":5.381699,"is_reserved":false,"is_disabled":false,"rental_uris":{"android":"levelo://app?vid=1cebc335-3600-4fae-9d9d-33b348f15ad2","ios":"levelo://app?vid=1cebc335-3600-4fae-9d9d-33b348f15ad2"},"vehicle_type_id":"4","last_reported":1716037693,"current_range_meters":10000,"station_id":"ce4bhr12rcd13ifvqhpg","pricing_plan_id":"cebpf4jnsgd1na2vs0mg"},{"bike_id":"35f76e15-5878-4056-995c-bafdebab86ca","system_id":"levelo_inurba_marseille","lat":43.309039,"lon":5.371797,"is_reserved":false,"is_disabled":false,"rental_uris":{"android":"levelo://app?vid=35f76e15-5878-4056-995c-bafdebab86ca","ios":"levelo://app?vid=35f76e15-5878-4056-995c-bafdebab86ca"},"vehicle_type_id":"4","last_reported":1716037693,"current_range_meters":31200,"station_id":"ce4bguh2rcd13ifvqckg","pricing_plan_id":"cebpf4jnsgd1na2vs0mg"},{"bike_id":"2d21566c-99fd-41d5-aaff-fc99f3bc5822","system_id":"levelo_inurba_marseille","lat":43.309039,"lon":5.371797,"is_reserved":false,"is_disabled":false,"rental_uris":{"android":"levelo://app?vid=2d21566c-99fd-41d5-aaff-fc99f3bc5822","ios":"levelo://app?vid=2d21566c-99fd-41d5-aaff-fc99f3bc5822"},"vehicle_type_id":"4","last_reported":1716037693,"current_range_meters":4400,"station_id":"ce4bguh2rcd13ifvqckg","pricing_plan_id":"cebpf4jnsgd1na2vs0mg"},{"bike_id":"b194c995-3b6a-41c6-9f5e-07e317e21995","system_id":"levelo_inurba_marseille","lat":43.309039,"lon":5.371797,"is_reserved":false,"is_disabled":false,"rental_uris":{"android":"levelo://app?vid=b194c995-3b6a-41c6-9f5e-07e317e21995","ios":"levelo://app?vid=b194c995-3b6a-41c6-9f5e-07e317e21995"},"vehicle_type_id":"4","last_reported":1716037693,"current_range_meters":7200,"station_id":"ce4bguh2rcd13ifvqckg","pricing_plan_id":"cebpf4jnsgd1na2vs0mg"},{"bike_id":"a277fe65-7ca8-46b0-927f-8ef2dae50fa5","system_id":"levelo_inurba_marseille","lat":43.309034,"lon":5.371783,"is_reserved":false,"is_disabled":false,"rental_uris":{"android":"levelo://app?vid=a277fe65-7ca8-46b0-927f-8ef2dae50fa5","ios":"levelo://app?vid=a277fe65-7ca8-46b0-927f-8ef2dae50fa5"},"vehicle_type_id":"4","last_reported":1716037693,"current_range_meters":3200,"station_id":"ce4bguh2rcd13ifvqckg","pricing_plan_id":"cebpf4jnsgd1na2vs0mg"},{"bike_id":"35693162-dd3e-4b96-b4d0-57fa0ee44a17","system_id":"levelo_inurba_marseille","lat":43.30537,"lon":5.367345,"is_reserved":false,"is_disabled":false,"rental_uris":{"android":"levelo://app?vid=35693162-dd3e-4b96-b4d0-57fa0ee44a17","ios":"levelo://app?vid=35693162-dd3e-4b96-b4d0-57fa0ee44a17"},"vehicle_type_id":"4","last_reported":1716037693,"current_range_meters":10800,"station_id":"ce4bgrp2rcd13ifvqc9g","pricing_plan_id":"cebpf4jnsgd1na2vs0mg"},{"bike_id":"10ceb6dc-97be-4a45-9340-57265251a4ee","system_id":"levelo_inurba_marseille","lat":43.305714,"lon":5.365633,"is_reserved":false,"is_disabled":false,"rental_uris":{"android":"levelo://app?vid=10ceb6dc-97be-4a45-9340-57265251a4ee","ios":"levelo://app?vid=10ceb6dc-97be-4a45-9340-57265251a4ee"},"vehicle_type_id":"4","last_reported":1716037693,"current_range_meters":2800,"station_id":"ce4bgs12rcd13ifvqcag","pricing_plan_id":"cebpf4jnsgd1na2vs0mg"},{"bike_id":"ab73ae83-4c34-4af0-ba00-acf5af268a62","system_id":"levelo_inurba_marseille","lat":43.305706,"lon":5.365654,"is_reserved":false,"is_disabled":false,"rental_uris":{"android":"levelo://app?vid=ab73ae83-4c34-4af0-ba00-acf5af268a62","ios":"levelo://app?vid=ab73ae83-4c34-4af0-ba00-acf5af268a62"},"vehicle_type_id":"4","last_reported":1716037693,"current_range_meters":19600,"station_id":"ce4bgs12rcd13ifvqcag","pricing_plan_id":"cebpf4jnsgd1na2vs0mg"},{"bike_id":"71b957bc-1ac1-44c5-a1eb-1dda084fe27a","system_id":"levelo_inurba_marseille","lat":43.305706,"lon":5.365654,"is_reserved":false,"is_disabled":false,"rental_uris":{"android":"levelo://app?vid=71b957bc-1ac1-44c5-a1eb-1dda084fe27a","ios":"levelo://app?vid=71b957bc-1ac1-44c5-a1eb-1dda084fe27a"},"vehicle_type_id":"4","last_reported":1716037693,"current_range_meters":30000,"station_id":"ce4bgs12rcd13ifvqcag","pricing_plan_id":"cebpf4jnsgd1na2vs0mg"},{"bike_id":"1d90d839-d2e0-43af-9997-073c55763e87","system_id":"levelo_inurba_marseille","lat":43.305706,"lon":5.365654,"is_reserved":false,"is_disabled":false,"rental_uris":{"android":"levelo://app?vid=1d90d839-d2e0-43af-9997-073c55763e87","ios":"levelo://app?vid=1d90d839-d2e0-43af-9997-073c55763e87"},"vehicle_type_id":"4","last_reported":1716037693,"current_range_meters":30800,"station_id":"ce4bgs12rcd13ifvqcag","pricing_plan_id":"cebpf4jnsgd1na2vs0mg"},{"bike_id":"6f3af2ae-f490-4306-af1c-8c6f6754adab","system_id":"levelo_inurba_marseille","lat":43.305989,"lon":5.37225,"is_reserved":false,"is_disabled":false,"rental_uris":{"android":"levelo://app?vid=6f3af2ae-f490-4306-af1c-8c6f6754adab","ios":"levelo://app?vid=6f3af2ae-f490-4306-af1c-8c6f6754adab"},"vehicle_type_id":"4","last_reported":1716037693,"current_range_meters":4000,"station_id":"ce4bgqh2rcd13ifvqc4g","pricing_plan_id":"cebpf4jnsgd1na2vs0mg"},{"bike_id":"af2b05ba-9909-4304-add2-b19729c03595","system_id":"levelo_inurba_marseille","lat":43.305978,"lon":5.372155,"is_reserved":false,"is_disabled":false,"rental_uris":{"android":"levelo://app?vid=af2b05ba-9909-4304-add2-b19729c03595","ios":"levelo://app?vid=af2b05ba-9909-4304-add2-b19729c03595"},"vehicle_type_id":"4","last_reported":1716037693,"current_range_meters":5200,"station_id":"ce4bgqh2rcd13ifvqc4g","pricing_plan_id":"cebpf4jnsgd1na2vs0mg"},{"bike_id":"dc06ba75-2508-460c-9e18-a4b4c6e727ad","system_id":"levelo_inurba_marseille","lat":43.311125,"lon":5.377624,"is_reserved":false,"is_disabled":false,"rental_uris":{"android":"levelo://app?vid=dc06ba75-2508-460c-9e18-a4b4c6e727ad","ios":"levelo://app?vid=dc06ba75-2508-460c-9e18-a4b4c6e727ad"},"vehicle_type_id":"4","last_reported":1716037693,"current_range_meters":0,"station_id":"ce4bgt92rcd13ifvqcg0","pricing_plan_id":"cebpf4jnsgd1na2vs0mg"},{"bike_id":"41d3168a-18fd-4f97-8d82-15f953518f93","system_id":"levelo_inurba_marseille","lat":43.30537,"lon":5.367345,"is_reserved":false,"is_disabled":false,"rental_uris":{"android":"levelo://app?vid=41d3168a-18fd-4f97-8d82-15f953518f93","ios":"levelo://app?vid=41d3168a-18fd-4f97-8d82-15f953518f93"},"vehicle_type_id":"4","last_reported":1716037693,"current_range_meters":17600,"station_id":"ce4bgrp2rcd13ifvqc9g","pricing_plan_id":"cebpf4jnsgd1na2vs0mg"},{"bike_id":"30cac993-6ae3-4a6e-a197-0b3d8367c264","system_id":"levelo_inurba_marseille","lat":43.311125,"lon":5.377624,"is_reserved":false,"is_disabled":false,"rental_uris":{"android":"levelo://app?vid=30cac993-6ae3-4a6e-a197-0b3d8367c264","ios":"levelo://app?vid=30cac993-6ae3-4a6e-a197-0b3d8367c264"},"vehicle_type_id":"4","last_reported":1716037693,"current_range_meters":28000,"station_id":"ce4bgt92rcd13ifvqcg0","pricing_plan_id":"cebpf4jnsgd1na2vs0mg"},{"bike_id":"46a75338-407d-40eb-ab1b-edab4a374e0c","system_id":"levelo_inurba_marseille","lat":43.307945,"lon":5.376487,"is_reserved":false,"is_disabled":false,"rental_uris":{"android":"levelo://app?vid=46a75338-407d-40eb-ab1b-edab4a374e0c","ios":"levelo://app?vid=46a75338-407d-40eb-ab1b-edab4a374e0c"},"vehicle_type_id":"4","last_reported":1716037693,"current_range_meters":23200,"station_id":"ce4bgv92rcd13ifvqcq0","pricing_plan_id":"cebpf4jnsgd1na2vs0mg"},{"bike_id":"df9ddd9e-df4b-48e6-bb16-08a1972fefb7","system_id":"levelo_inurba_marseille","lat":43.307945,"lon":5.376487,"is_reserved":false,"is_disabled":false,"rental_uris":{"android":"levelo://app?vid=df9ddd9e-df4b-48e6-bb16-08a1972fefb7","ios":"levelo://app?vid=df9ddd9e-df4b-48e6-bb16-08a1972fefb7"},"vehicle_type_id":"4","last_reported":1716037693,"current_range_meters":22800,"station_id":"ce4bgv92rcd13ifvqcq0","pricing_plan_id":"cebpf4jnsgd1na2vs0mg"},{"bike_id":"620b2f30-3508-4a2c-89b9-45384c664f66","system_id":"levelo_inurba_marseille","lat":43.307945,"lon":5.376487,"is_reserved":false,"is_disabled":false,"rental_uris":{"android":"levelo://app?vid=620b2f30-3508-4a2c-89b9-45384c664f66","ios":"levelo://app?vid=620b2f30-3508-4a2c-89b9-45384c664f66"},"vehicle_type_id":"4","last_reported":1716037693,"current_range_meters":0,"station_id":"ce4bgv92rcd13ifvqcq0","pricing_plan_id":"cebpf4jnsgd1na2vs0mg"},{"bike_id":"554f7f78-f09b-4b67-89fb-ffd8790712f4","system_id":"levelo_inurba_marseille","lat":43.308012,"lon":5.381511,"is_reserved":false,"is_disabled":false,"rental_uris":{"android":"levelo://app?vid=554f7f78-f09b-4b67-89fb-ffd8790712f4","ios":"levelo://app?vid=554f7f78-f09b-4b67-89fb-ffd8790712f4"},"vehicle_type_id":"4","last_reported":1716037693,"current_range_meters":20800,"station_id":"ce4bgt12rcd13ifvqce0","pricing_plan_id":"cebpf4jnsgd1na2vs0mg"},{"bike_id":"059bc77e-dc24-43b6-a272-ed921d0e5ba5","system_id":"levelo_inurba_marseille","lat":43.303046,"lon":5.368981,"is_reserved":false,"is_disabled":false,"rental_uris":{"android":"levelo://app?vid=059bc77e-dc24-43b6-a272-ed921d0e5ba5","ios":"levelo://app?vid=059bc77e-dc24-43b6-a272-ed921d0e5ba5"},"vehicle_type_id":"4","last_reported":1716037693,"current_range_meters":23200,"station_id":"ce4bgqh2rcd13ifvqc5g","pricing_plan_id":"cebpf4jnsgd1na2vs0mg"},{"bike_id":"fab29b60-cee9-49e3-8cda-56f2dcd2a0b7","system_id":"levelo_inurba_marseille","lat":43.303046,"lon":5.368981,"is_reserved":false,"is_disabled":false,"rental_uris":{"android":"levelo://app?vid=fab29b60-cee9-49e3-8cda-56f2dcd2a0b7","ios":"levelo://app?vid=fab29b60-cee9-49e3-8cda-56f2dcd2a0b7"},"vehicle_type_id":"4","last_reported":1716037693,"current_range_meters":26400,"station_id":"ce4bgqh2rcd13ifvqc5g","pricing_plan_id":"cebpf4jnsgd1na2vs0mg"},{"bike_id":"555070dd-743a-4ad3-a0a7-0ae207ca37c8","system_id":"levelo_inurba_marseille","lat":43.301939,"lon":5.366286,"is_reserved":false,"is_disabled":false,"rental_uris":{"android":"levelo://app?vid=555070dd-743a-4ad3-a0a7-0ae207ca37c8","ios":"levelo://app?vid=555070dd-743a-4ad3-a0a7-0ae207ca37c8"},"vehicle_type_id":"4","last_reported":1716037693,"current_range_meters":26400,"station_id":"ce4bgrh2rcd13ifvqc8g","pricing_plan_id":"cebpf4jnsgd1na2vs0mg"},{"bike_id":"382397aa-0096-4743-a781-d6fc6512e60d","system_id":"levelo_inurba_marseille","lat":43.301939,"lon":5.366286,"is_reserved":false,"is_disabled":false,"rental_uris":{"android":"levelo://app?vid=382397aa-0096-4743-a781-d6fc6512e60d","ios":"levelo://app?vid=382397aa-0096-4743-a781-d6fc6512e60d"},"vehicle_type_id":"4","last_reported":1716037693,"current_range_meters":20000,"station_id":"ce4bgrh2rcd13ifvqc8g","pricing_plan_id":"cebpf4jnsgd1na2vs0mg"},{"bike_id":"529b62cf-ca04-4af6-ba10-c2c7964ec2e3","system_id":"levelo_inurba_marseille","lat":43.308012,"lon":5.381511,"is_reserved":false,"is_disabled":false,"rental_uris":{"android":"levelo://app?vid=529b62cf-ca04-4af6-ba10-c2c7964ec2e3","ios":"levelo://app?vid=529b62cf-ca04-4af6-ba10-c2c7964ec2e3"},"vehicle_type_id":"4","last_reported":1716037693,"current_range_meters":5600,"station_id":"ce4bgt12rcd13ifvqce0","pricing_plan_id":"cebpf4jnsgd1na2vs0mg"},{"bike_id":"4421b467-e871-4712-ad04-f872f22ccb56","system_id":"levelo_inurba_marseille","lat":43.308012,"lon":5.381511,"is_reserved":false,"is_disabled":false,"rental_uris":{"android":"levelo://app?vid=4421b467-e871-4712-ad04-f872f22ccb56","ios":"levelo://app?vid=4421b467-e871-4712-ad04-f872f22ccb56"},"vehicle_type_id":"4","last_reported":1716037693,"current_range_meters":16800,"station_id":"ce4bgt12rcd13ifvqce0","pricing_plan_id":"cebpf4jnsgd1na2vs0mg"},{"bike_id":"26877966-9e24-4d65-92e0-85e492201f32","system_id":"levelo_inurba_marseille","lat":43.308012,"lon":5.381511,"is_reserved":false,"is_disabled":false,"rental_uris":{"android":"levelo://app?vid=26877966-9e24-4d65-92e0-85e492201f32","ios":"levelo://app?vid=26877966-9e24-4d65-92e0-85e492201f32"},"vehicle_type_id":"4","last_reported":1716037693,"current_range_meters":4400,"station_id":"ce4bgt12rcd13ifvqce0","pricing_plan_id":"cebpf4jnsgd1na2vs0mg"},{"bike_id":"e79a0d6a-5500-4c56-aa95-808c1d390c11","system_id":"levelo_inurba_marseille","lat":43.308012,"lon":5.381511,"is_reserved":false,"is_disabled":false,"rental_uris":{"android":"levelo://app?vid=e79a0d6a-5500-4c56-aa95-808c1d390c11","ios":"levelo://app?vid=e79a0d6a-5500-4c56-aa95-808c1d390c11"},"vehicle_type_id":"4","last_reported":1716037693,"current_range_meters":8000,"station_id":"ce4bgt12rcd13ifvqce0","pricing_plan_id":"cebpf4jnsgd1na2vs0mg"},{"bike_id":"b568e956-4f84-4c8b-8a35-6b3d42079ecf","system_id":"levelo_inurba_marseille","lat":43.308012,"lon":5.381511,"is_reserved":false,"is_disabled":false,"rental_uris":{"android":"levelo://app?vid=b568e956-4f84-4c8b-8a35-6b3d42079ecf","ios":"levelo://app?vid=b568e956-4f84-4c8b-8a35-6b3d42079ecf"},"vehicle_type_id":"4","last_reported":1716037693,"current_range_meters":11600,"station_id":"ce4bgt12rcd13ifvqce0","pricing_plan_id":"cebpf4jnsgd1na2vs0mg"},{"bike_id":"10a9b765-dbd3-4b76-9267-d02e515681f3","system_id":"levelo_inurba_marseille","lat":43.304606,"lon":5.379026,"is_reserved":false,"is_disabled":false,"rental_uris":{"android":"levelo://app?vid=10a9b765-dbd3-4b76-9267-d02e515681f3","ios":"levelo://app?vid=10a9b765-dbd3-4b76-9267-d02e515681f3"},"vehicle_type_id":"4","last_reported":1716037693,"current_range_meters":31200,"station_id":"ce4bgup2rcd13ifvqcn0","pricing_plan_id":"cebpf4jnsgd1na2vs0mg"},{"bike_id":"d20cec5a-d48c-403f-8074-eb31c1439d77","system_id":"levelo_inurba_marseille","lat":43.304606,"lon":5.379026,"is_reserved":false,"is_disabled":false,"rental_uris":{"android":"levelo://app?vid=d20cec5a-d48c-403f-8074-eb31c1439d77","ios":"levelo://app?vid=d20cec5a-d48c-403f-8074-eb31c1439d77"},"vehicle_type_id":"4","last_reported":1716037693,"current_range_meters":31200,"station_id":"ce4bgup2rcd13ifvqcn0","pricing_plan_id":"cebpf4jnsgd1na2vs0mg"},{"bike_id":"2d93cccf-6b40-4137-9fac-0cdf5dd84fd4","system_id":"levelo_inurba_marseille","lat":43.304606,"lon":5.379026,"is_reserved":false,"is_disabled":false,"rental_uris":{"android":"levelo://app?vid=2d93cccf-6b40-4137-9fac-0cdf5dd84fd4","ios":"levelo://app?vid=2d93cccf-6b40-4137-9fac-0cdf5dd84fd4"},"vehicle_type_id":"4","last_reported":1716037693,"current_range_meters":4800,"station_id":"ce4bgup2rcd13ifvqcn0","pricing_plan_id":"cebpf4jnsgd1na2vs0mg"},{"bike_id":"6c0c65ea-98b7-470a-9784-6de288fefee7","system_id":"levelo_inurba_marseille","lat":43.304606,"lon":5.379026,"is_reserved":false,"is_disabled":false,"rental_uris":{"android":"levelo://app?vid=6c0c65ea-98b7-470a-9784-6de288fefee7","ios":"levelo://app?vid=6c0c65ea-98b7-470a-9784-6de288fefee7"},"vehicle_type_id":"4","last_reported":1716037693,"current_range_meters":14400,"station_id":"ce4bgup2rcd13ifvqcn0","pricing_plan_id":"cebpf4jnsgd1na2vs0mg"},{"bike_id":"a7808c4a-ec9f-4dc8-9704-fd8bd64e1290","system_id":"levelo_inurba_marseille","lat":43.30471,"lon":5.37907,"is_reserved":false,"is_disabled":false,"rental_uris":{"android":"levelo://app?vid=a7808c4a-ec9f-4dc8-9704-fd8bd64e1290","ios":"levelo://app?vid=a7808c4a-ec9f-4dc8-9704-fd8bd64e1290"},"vehicle_type_id":"4","last_reported":1716037693,"current_range_meters":2000,"station_id":"ce4bgup2rcd13ifvqcn0","pricing_plan_id":"cebpf4jnsgd1na2vs0mg"},{"bike_id":"f09b3915-8340-4c4e-a1df-32b1ce5617c5","system_id":"levelo_inurba_marseille","lat":43.304606,"lon":5.379026,"is_reserved":false,"is_disabled":false,"rental_uris":{"android":"levelo://app?vid=f09b3915-8340-4c4e-a1df-32b1ce5617c5","ios":"levelo://app?vid=f09b3915-8340-4c4e-a1df-32b1ce5617c5"},"vehicle_type_id":"4","last_reported":1716037693,"current_range_meters":12400,"station_id":"ce4bgup2rcd13ifvqcn0","pricing_plan_id":"cebpf4jnsgd1na2vs0mg"},{"bike_id":"f0c2c8c7-bc3c-48bc-827a-ace67f2f7c4a","system_id":"levelo_inurba_marseille","lat":43.304606,"lon":5.379026,"is_reserved":false,"is_disabled":false,"rental_uris":{"android":"levelo://app?vid=f0c2c8c7-bc3c-48bc-827a-ace67f2f7c4a","ios":"levelo://app?vid=f0c2c8c7-bc3c-48bc-827a-ace67f2f7c4a"},"vehicle_type_id":"4","last_reported":1716037693,"current_range_meters":5600,"station_id":"ce4bgup2rcd13ifvqcn0","pricing_plan_id":"cebpf4jnsgd1na2vs0mg"},{"bike_id":"6ffbf249-3396-42b1-871b-5acaac41a9dc","system_id":"levelo_inurba_marseille","lat":43.304606,"lon":5.379026,"is_reserved":false,"is_disabled":false,"rental_uris":{"android":"levelo://app?vid=6ffbf249-3396-42b1-871b-5acaac41a9dc","ios":"levelo://app?vid=6ffbf249-3396-42b1-871b-5acaac41a9dc"},"vehicle_type_id":"4","last_reported":1716037693,"current_range_meters":10000,"station_id":"ce4bgup2rcd13ifvqcn0","pricing_plan_id":"cebpf4jnsgd1na2vs0mg"},{"bike_id":"aa7e120c-9bd4-4e50-8cb8-a465fb65c186","system_id":"levelo_inurba_marseille","lat":43.30469,"lon":5.37911,"is_reserved":false,"is_disabled":false,"rental_uris":{"android":"levelo://app?vid=aa7e120c-9bd4-4e50-8cb8-a465fb65c186","ios":"levelo://app?vid=aa7e120c-9bd4-4e50-8cb8-a465fb65c186"},"vehicle_type_id":"4","last_reported":1716037693,"current_range_meters":1200,"station_id":"ce4bgup2rcd13ifvqcn0","pricing_plan_id":"cebpf4jnsgd1na2vs0mg"},{"bike_id":"db1926dd-42c2-40bd-95cb-98b653204ebf","system_id":"levelo_inurba_marseille","lat":43.304606,"lon":5.379026,"is_reserved":false,"is_disabled":false,"rental_uris":{"android":"levelo://app?vid=db1926dd-42c2-40bd-95cb-98b653204ebf","ios":"levelo://app?vid=db1926dd-42c2-40bd-95cb-98b653204ebf"},"vehicle_type_id":"4","last_reported":1716037693,"current_range_meters":23200,"station_id":"ce4bgup2rcd13ifvqcn0","pricing_plan_id":"cebpf4jnsgd1na2vs0mg"},{"bike_id":"4ccef95b-ad93-4642-8420-cd940266062c","system_id":"levelo_inurba_marseille","lat":43.301939,"lon":5.366286,"is_reserved":false,"is_disabled":false,"rental_uris":{"android":"levelo://app?vid=4ccef95b-ad93-4642-8420-cd940266062c","ios":"levelo://app?vid=4ccef95b-ad93-4642-8420-cd940266062c"},"vehicle_type_id":"4","last_reported":1716037693,"current_range_meters":30800,"station_id":"ce4bgrh2rcd13ifvqc8g","pricing_plan_id":"cebpf4jnsgd1na2vs0mg"},{"bike_id":"b019ca40-f0f6-45bb-808e-e353c7804144","system_id":"levelo_inurba_marseille","lat":43.324771,"lon":5.36557,"is_reserved":false,"is_disabled":false,"rental_uris":{"android":"levelo://app?vid=b019ca40-f0f6-45bb-808e-e353c7804144","ios":"levelo://app?vid=b019ca40-f0f6-45bb-808e-e353c7804144"},"vehicle_type_id":"4","last_reported":1716037693,"current_range_meters":2800,"station_id":"ce4bhs12rcd13ifvqhvg","pricing_plan_id":"cebpf4jnsgd1na2vs0mg"},{"bike_id":"dcb8532d-c67a-4a8d-973a-5b70b87eac69","system_id":"levelo_inurba_marseille","lat":43.304606,"lon":5.379026,"is_reserved":false,"is_disabled":false,"rental_uris":{"android":"levelo://app?vid=dcb8532d-c67a-4a8d-973a-5b70b87eac69","ios":"levelo://app?vid=dcb8532d-c67a-4a8d-973a-5b70b87eac69"},"vehicle_type_id":"4","last_reported":1716037693,"current_range_meters":24800,"station_id":"ce4bgup2rcd13ifvqcn0","pricing_plan_id":"cebpf4jnsgd1na2vs0mg"},{"bike_id":"34cabfc5-9eef-4fe8-a57a-267bbca1a0a2","system_id":"levelo_inurba_marseille","lat":43.32482,"lon":5.36577,"is_reserved":false,"is_disabled":false,"rental_uris":{"android":"levelo://app?vid=34cabfc5-9eef-4fe8-a57a-267bbca1a0a2","ios":"levelo://app?vid=34cabfc5-9eef-4fe8-a57a-267bbca1a0a2"},"vehicle_type_id":"4","last_reported":1716037693,"current_range_meters":26000,"station_id":"","pricing_plan_id":"cebpf4jnsgd1na2vs0mg"},{"bike_id":"e6d736f8-9b8d-4ce5-9f23-7921ed85f212","system_id":"levelo_inurba_marseille","lat":43.310804,"lon":5.38359,"is_reserved":false,"is_disabled":false,"rental_uris":{"android":"levelo://app?vid=e6d736f8-9b8d-4ce5-9f23-7921ed85f212","ios":"levelo://app?vid=e6d736f8-9b8d-4ce5-9f23-7921ed85f212"},"vehicle_type_id":"4","last_reported":1716037693,"current_range_meters":23600,"station_id":"ce4bgv92rcd13ifvqcr0","pricing_plan_id":"cebpf4jnsgd1na2vs0mg"},{"bike_id":"6eccde37-4c26-40c5-8c7f-e8045d9066e9","system_id":"levelo_inurba_marseille","lat":43.30278,"lon":5.376976,"is_reserved":false,"is_disabled":false,"rental_uris":{"android":"levelo://app?vid=6eccde37-4c26-40c5-8c7f-e8045d9066e9","ios":"levelo://app?vid=6eccde37-4c26-40c5-8c7f-e8045d9066e9"},"vehicle_type_id":"4","last_reported":1716037693,"current_range_meters":23200,"station_id":"ce4bguh2rcd13ifvqcj0","pricing_plan_id":"cebpf4jnsgd1na2vs0mg"},{"bike_id":"a7f05cc9-bd08-4721-8ce3-4f58fb4aacfe","system_id":"levelo_inurba_marseille","lat":43.302784,"lon":5.377158,"is_reserved":false,"is_disabled":false,"rental_uris":{"android":"levelo://app?vid=a7f05cc9-bd08-4721-8ce3-4f58fb4aacfe","ios":"levelo://app?vid=a7f05cc9-bd08-4721-8ce3-4f58fb4aacfe"},"vehicle_type_id":"4","last_reported":1716037693,"current_range_meters":18400,"station_id":"ce4bguh2rcd13ifvqcj0","pricing_plan_id":"cebpf4jnsgd1na2vs0mg"},{"bike_id":"a36be420-35d6-4a31-8b62-80ed9547f58f","system_id":"levelo_inurba_marseille","lat":43.316313,"lon":5.383297,"is_reserved":false,"is_disabled":false,"rental_uris":{"android":"levelo://app?vid=a36be420-35d6-4a31-8b62-80ed9547f58f","ios":"levelo://app?vid=a36be420-35d6-4a31-8b62-80ed9547f58f"},"vehicle_type_id":"4","last_reported":1716037693,"current_range_meters":3600,"station_id":"ce4bhbh2rcd13ifvqepg","pricing_plan_id":"cebpf4jnsgd1na2vs0mg"},{"bike_id":"b9404eff-d030-442f-aafe-717e427a8385","system_id":"levelo_inurba_marseille","lat":43.301429,"lon":5.37413,"is_reserved":false,"is_disabled":false,"rental_uris":{"android":"levelo://app?vid=b9404eff-d030-442f-aafe-717e427a8385","ios":"levelo://app?vid=b9404eff-d030-442f-aafe-717e427a8385"},"vehicle_type_id":"4","last_reported":1716037693,"current_range_meters":18800,"station_id":"ce4bgs92rcd13ifvqcc0","pricing_plan_id":"cebpf4jnsgd1na2vs0mg"},{"bike_id":"3c47eda9-0c59-4629-8d15-cb583ac26e0e","system_id":"levelo_inurba_marseille","lat":43.301429,"lon":5.37413,"is_reserved":false,"is_disabled":false,"rental_uris":{"android":"levelo://app?vid=3c47eda9-0c59-4629-8d15-cb583ac26e0e","ios":"levelo://app?vid=3c47eda9-0c59-4629-8d15-cb583ac26e0e"},"vehicle_type_id":"4","last_reported":1716037693,"current_range_meters":19200,"station_id":"ce4bgs92rcd13ifvqcc0","pricing_plan_id":"cebpf4jnsgd1na2vs0mg"},{"bike_id":"2d9b1e04-8023-4676-9925-d54223e86b54","system_id":"levelo_inurba_marseille","lat":43.301429,"lon":5.37413,"is_reserved":false,"is_disabled":false,"rental_uris":{"android":"levelo://app?vid=2d9b1e04-8023-4676-9925-d54223e86b54","ios":"levelo://app?vid=2d9b1e04-8023-4676-9925-d54223e86b54"},"vehicle_type_id":"4","last_reported":1716037693,"current_range_meters":23600,"station_id":"ce4bgs92rcd13ifvqcc0","pricing_plan_id":"cebpf4jnsgd1na2vs0mg"},{"bike_id":"c8485439-af8f-455e-bea4-3262fdf961d6","system_id":"levelo_inurba_marseille","lat":43.301429,"lon":5.37413,"is_reserved":false,"is_disabled":false,"rental_uris":{"android":"levelo://app?vid=c8485439-af8f-455e-bea4-3262fdf961d6","ios":"levelo://app?vid=c8485439-af8f-455e-bea4-3262fdf961d6"},"vehicle_type_id":"4","last_reported":1716037693,"current_range_meters":30400,"station_id":"ce4bgs92rcd13ifvqcc0","pricing_plan_id":"cebpf4jnsgd1na2vs0mg"},{"bike_id":"510e594f-8d78-46a1-98fa-e1f91849b5dc","system_id":"levelo_inurba_marseille","lat":43.301429,"lon":5.37413,"is_reserved":false,"is_disabled":false,"rental_uris":{"android":"levelo://app?vid=510e594f-8d78-46a1-98fa-e1f91849b5dc","ios":"levelo://app?vid=510e594f-8d78-46a1-98fa-e1f91849b5dc"},"vehicle_type_id":"4","last_reported":1716037693,"current_range_meters":14800,"station_id":"ce4bgs92rcd13ifvqcc0","pricing_plan_id":"cebpf4jnsgd1na2vs0mg"},{"bike_id":"d8456218-d7b6-4178-a534-a658e9fdeb62","system_id":"levelo_inurba_marseille","lat":43.30143,"lon":5.37413,"is_reserved":false,"is_disabled":false,"rental_uris":{"android":"levelo://app?vid=d8456218-d7b6-4178-a534-a658e9fdeb62","ios":"levelo://app?vid=d8456218-d7b6-4178-a534-a658e9fdeb62"},"vehicle_type_id":"4","last_reported":1716037693,"current_range_meters":17600,"station_id":"ce4bgs92rcd13ifvqcc0","pricing_plan_id":"cebpf4jnsgd1na2vs0mg"},{"bike_id":"ccc49320-2f77-49f7-93f7-3ffe485c23b7","system_id":"levelo_inurba_marseille","lat":43.30002,"lon":5.36863,"is_reserved":false,"is_disabled":false,"rental_uris":{"android":"levelo://app?vid=ccc49320-2f77-49f7-93f7-3ffe485c23b7","ios":"levelo://app?vid=ccc49320-2f77-49f7-93f7-3ffe485c23b7"},"vehicle_type_id":"4","last_reported":1716037693,"current_range_meters":4800,"station_id":"","pricing_plan_id":"cebpf4jnsgd1na2vs0mg"},{"bike_id":"cf08b403-87a2-4488-b610-15fe426e4ffe","system_id":"levelo_inurba_marseille","lat":43.313571,"lon":5.384829,"is_reserved":false,"is_disabled":false,"rental_uris":{"android":"levelo://app?vid=cf08b403-87a2-4488-b610-15fe426e4ffe","ios":"levelo://app?vid=cf08b403-87a2-4488-b610-15fe426e4ffe"},"vehicle_type_id":"4","last_reported":1716037693,"current_range_meters":13200,"station_id":"ce4bgt92rcd13ifvqcf0","pricing_plan_id":"cebpf4jnsgd1na2vs0mg"},{"bike_id":"66f252f7-5c92-46d8-81fe-aa26385c28a5","system_id":"levelo_inurba_marseille","lat":43.313571,"lon":5.384829,"is_reserved":false,"is_disabled":false,"rental_uris":{"android":"levelo://app?vid=66f252f7-5c92-46d8-81fe-aa26385c28a5","ios":"levelo://app?vid=66f252f7-5c92-46d8-81fe-aa26385c28a5"},"vehicle_type_id":"4","last_reported":1716037693,"current_range_meters":25200,"station_id":"ce4bgt92rcd13ifvqcf0","pricing_plan_id":"cebpf4jnsgd1na2vs0mg"},{"bike_id":"88fe744f-a209-439b-9937-b0562abe6101","system_id":"levelo_inurba_marseille","lat":43.299867,"lon":5.371742,"is_reserved":false,"is_disabled":false,"rental_uris":{"android":"levelo://app?vid=88fe744f-a209-439b-9937-b0562abe6101","ios":"levelo://app?vid=88fe744f-a209-439b-9937-b0562abe6101"},"vehicle_type_id":"4","last_reported":1716037693,"current_range_meters":28000,"station_id":"ce4bgr92rcd13ifvqc7g","pricing_plan_id":"cebpf4jnsgd1na2vs0mg"},{"bike_id":"7a046b0e-6ccc-4caa-876e-43d4dc89f110","system_id":"levelo_inurba_marseille","lat":43.299838,"lon":5.371874,"is_reserved":false,"is_disabled":false,"rental_uris":{"android":"levelo://app?vid=7a046b0e-6ccc-4caa-876e-43d4dc89f110","ios":"levelo://app?vid=7a046b0e-6ccc-4caa-876e-43d4dc89f110"},"vehicle_type_id":"4","last_reported":1716037693,"current_range_meters":28400,"station_id":"ce4bgr92rcd13ifvqc7g","pricing_plan_id":"cebpf4jnsgd1na2vs0mg"},{"bike_id":"a1d5ef04-e014-44f1-b296-574e9dd8f703","system_id":"levelo_inurba_marseille","lat":43.30085,"lon":5.390856,"is_reserved":false,"is_disabled":false,"rental_uris":{"android":"levelo://app?vid=a1d5ef04-e014-44f1-b296-574e9dd8f703","ios":"levelo://app?vid=a1d5ef04-e014-44f1-b296-574e9dd8f703"},"vehicle_type_id":"4","last_reported":1716037693,"current_range_meters":0,"station_id":"ce4bh192rcd13ifvqdb0","pricing_plan_id":"cebpf4jnsgd1na2vs0mg"},{"bike_id":"dc7c5f6e-5bcf-46d8-9c32-84b7ddf88215","system_id":"levelo_inurba_marseille","lat":43.299222,"lon":5.365554,"is_reserved":false,"is_disabled":false,"rental_uris":{"android":"levelo://app?vid=dc7c5f6e-5bcf-46d8-9c32-84b7ddf88215","ios":"levelo://app?vid=dc7c5f6e-5bcf-46d8-9c32-84b7ddf88215"},"vehicle_type_id":"4","last_reported":1716037693,"current_range_meters":22400,"station_id":"ce4bgm92rcd13ifvqbr0","pricing_plan_id":"cebpf4jnsgd1na2vs0mg"},{"bike_id":"d357a0db-7173-4844-80d8-cf1a04046a90","system_id":"levelo_inurba_marseille","lat":43.29975,"lon":5.37165,"is_reserved":false,"is_disabled":false,"rental_uris":{"android":"levelo://app?vid=d357a0db-7173-4844-80d8-cf1a04046a90","ios":"levelo://app?vid=d357a0db-7173-4844-80d8-cf1a04046a90"},"vehicle_type_id":"4","last_reported":1716037693,"current_range_meters":17600,"station_id":"ce4bgr92rcd13ifvqc7g","pricing_plan_id":"cebpf4jnsgd1na2vs0mg"},{"bike_id":"90140259-e9ca-43e0-b94d-e26f2e67569b","system_id":"levelo_inurba_marseille","lat":43.29978,"lon":5.37181,"is_reserved":false,"is_disabled":false,"rental_uris":{"android":"levelo://app?vid=90140259-e9ca-43e0-b94d-e26f2e67569b","ios":"levelo://app?vid=90140259-e9ca-43e0-b94d-e26f2e67569b"},"vehicle_type_id":"4","last_reported":1716037693,"current_range_meters":16000,"station_id":"ce4bgr92rcd13ifvqc7g","pricing_plan_id":"cebpf4jnsgd1na2vs0mg"},{"bike_id":"ab26f8d3-fdff-4f0d-910e-dc9b1ca07964","system_id":"levelo_inurba_marseille","lat":43.299222,"lon":5.365554,"is_reserved":false,"is_disabled":false,"rental_uris":{"android":"levelo://app?vid=ab26f8d3-fdff-4f0d-910e-dc9b1ca07964","ios":"levelo://app?vid=ab26f8d3-fdff-4f0d-910e-dc9b1ca07964"},"vehicle_type_id":"4","last_reported":1716037693,"current_range_meters":14000,"station_id":"ce4bgm92rcd13ifvqbr0","pricing_plan_id":"cebpf4jnsgd1na2vs0mg"},{"bike_id":"bbeb689d-706d-45c0-9230-e8f1c3312161","system_id":"levelo_inurba_marseille","lat":43.29965,"lon":5.37166,"is_reserved":false,"is_disabled":false,"rental_uris":{"android":"levelo://app?vid=bbeb689d-706d-45c0-9230-e8f1c3312161","ios":"levelo://app?vid=bbeb689d-706d-45c0-9230-e8f1c3312161"},"vehicle_type_id":"4","last_reported":1716037693,"current_range_meters":8000,"station_id":"ce4bgr92rcd13ifvqc7g","pricing_plan_id":"cebpf4jnsgd1na2vs0mg"},{"bike_id":"ed78cb13-e024-49be-ba66-d21ebb7bfa2c","system_id":"levelo_inurba_marseille","lat":43.29967,"lon":5.37185,"is_reserved":false,"is_disabled":false,"rental_uris":{"android":"levelo://app?vid=ed78cb13-e024-49be-ba66-d21ebb7bfa2c","ios":"levelo://app?vid=ed78cb13-e024-49be-ba66-d21ebb7bfa2c"},"vehicle_type_id":"4","last_reported":1716037693,"current_range_meters":20400,"station_id":"ce4bgr92rcd13ifvqc7g","pricing_plan_id":"cebpf4jnsgd1na2vs0mg"},{"bike_id":"4d98e5cf-cb8b-413a-85e4-4e451afa577c","system_id":"levelo_inurba_marseille","lat":43.298433,"lon":5.362774,"is_reserved":false,"is_disabled":false,"rental_uris":{"android":"levelo://app?vid=4d98e5cf-cb8b-413a-85e4-4e451afa577c","ios":"levelo://app?vid=4d98e5cf-cb8b-413a-85e4-4e451afa577c"},"vehicle_type_id":"4","last_reported":1716037693,"current_range_meters":28400,"station_id":"ce4bgpp2rcd13ifvqc3g","pricing_plan_id":"cebpf4jnsgd1na2vs0mg"},{"bike_id":"70dc526d-7f92-40eb-82ea-96088b4070fe","system_id":"levelo_inurba_marseille","lat":43.298433,"lon":5.362774,"is_reserved":false,"is_disabled":false,"rental_uris":{"android":"levelo://app?vid=70dc526d-7f92-40eb-82ea-96088b4070fe","ios":"levelo://app?vid=70dc526d-7f92-40eb-82ea-96088b4070fe"},"vehicle_type_id":"4","last_reported":1716037693,"current_range_meters":31200,"station_id":"ce4bgpp2rcd13ifvqc3g","pricing_plan_id":"cebpf4jnsgd1na2vs0mg"},{"bike_id":"a0dd5578-e01e-404d-85b2-4ee44f052d83","system_id":"levelo_inurba_marseille","lat":43.298433,"lon":5.362774,"is_reserved":false,"is_disabled":false,"rental_uris":{"android":"levelo://app?vid=a0dd5578-e01e-404d-85b2-4ee44f052d83","ios":"levelo://app?vid=a0dd5578-e01e-404d-85b2-4ee44f052d83"},"vehicle_type_id":"4","last_reported":1716037693,"current_range_meters":31200,"station_id":"ce4bgpp2rcd13ifvqc3g","pricing_plan_id":"cebpf4jnsgd1na2vs0mg"},{"bike_id":"486116f6-deaa-459f-8d7b-c98085001b39","system_id":"levelo_inurba_marseille","lat":43.298433,"lon":5.362774,"is_reserved":false,"is_disabled":false,"rental_uris":{"android":"levelo://app?vid=486116f6-deaa-459f-8d7b-c98085001b39","ios":"levelo://app?vid=486116f6-deaa-459f-8d7b-c98085001b39"},"vehicle_type_id":"4","last_reported":1716037693,"current_range_meters":29600,"station_id":"ce4bgpp2rcd13ifvqc3g","pricing_plan_id":"cebpf4jnsgd1na2vs0mg"},{"bike_id":"66d2cfe9-247c-4023-8b4c-b4a0b6f134a6","system_id":"levelo_inurba_marseille","lat":43.2985,"lon":5.36275,"is_reserved":false,"is_disabled":false,"rental_uris":{"android":"levelo://app?vid=66d2cfe9-247c-4023-8b4c-b4a0b6f134a6","ios":"levelo://app?vid=66d2cfe9-247c-4023-8b4c-b4a0b6f134a6"},"vehicle_type_id":"4","last_reported":1716037693,"current_range_meters":24800,"station_id":"ce4bgpp2rcd13ifvqc3g","pricing_plan_id":"cebpf4jnsgd1na2vs0mg"},{"bike_id":"da20d867-2bf3-4ecf-99ed-33a9732ddafb","system_id":"levelo_inurba_marseille","lat":43.29925,"lon":5.37455,"is_reserved":false,"is_disabled":false,"rental_uris":{"android":"levelo://app?vid=da20d867-2bf3-4ecf-99ed-33a9732ddafb","ios":"levelo://app?vid=da20d867-2bf3-4ecf-99ed-33a9732ddafb"},"vehicle_type_id":"4","last_reported":1716037693,"current_range_meters":28000,"station_id":"ce4bgjh2rcd13ifvqbg0","pricing_plan_id":"cebpf4jnsgd1na2vs0mg"},{"bike_id":"86cb29ca-50a3-4bac-ac39-85adc2ca5459","system_id":"levelo_inurba_marseille","lat":43.305364,"lon":5.384119,"is_reserved":false,"is_disabled":false,"rental_uris":{"android":"levelo://app?vid=86cb29ca-50a3-4bac-ac39-85adc2ca5459","ios":"levelo://app?vid=86cb29ca-50a3-4bac-ac39-85adc2ca5459"},"vehicle_type_id":"4","last_reported":1716037693,"current_range_meters":20400,"station_id":"ce4bgg92rcd13ifvqb30","pricing_plan_id":"cebpf4jnsgd1na2vs0mg"},{"bike_id":"45c975cf-476c-4722-be75-8f46c0783d24","system_id":"levelo_inurba_marseille","lat":43.29845,"lon":5.36281,"is_reserved":false,"is_disabled":false,"rental_uris":{"android":"levelo://app?vid=45c975cf-476c-4722-be75-8f46c0783d24","ios":"levelo://app?vid=45c975cf-476c-4722-be75-8f46c0783d24"},"vehicle_type_id":"4","last_reported":1716037693,"current_range_meters":16800,"station_id":"ce4bgpp2rcd13ifvqc3g","pricing_plan_id":"cebpf4jnsgd1na2vs0mg"},{"bike_id":"0a56d86a-5bb4-4cb4-a6bf-a65f971df26c","system_id":"levelo_inurba_marseille","lat":43.29845,"lon":5.36266,"is_reserved":false,"is_disabled":false,"rental_uris":{"android":"levelo://app?vid=0a56d86a-5bb4-4cb4-a6bf-a65f971df26c","ios":"levelo://app?vid=0a56d86a-5bb4-4cb4-a6bf-a65f971df26c"},"vehicle_type_id":"4","last_reported":1716037693,"current_range_meters":13600,"station_id":"ce4bgpp2rcd13ifvqc3g","pricing_plan_id":"cebpf4jnsgd1na2vs0mg"},{"bike_id":"99a0a1b6-dec5-4a75-8603-7ea70749cc0c","system_id":"levelo_inurba_marseille","lat":43.298433,"lon":5.362774,"is_reserved":false,"is_disabled":false,"rental_uris":{"android":"levelo://app?vid=99a0a1b6-dec5-4a75-8603-7ea70749cc0c","ios":"levelo://app?vid=99a0a1b6-dec5-4a75-8603-7ea70749cc0c"},"vehicle_type_id":"4","last_reported":1716037693,"current_range_meters":15600,"station_id":"ce4bgpp2rcd13ifvqc3g","pricing_plan_id":"cebpf4jnsgd1na2vs0mg"},{"bike_id":"01c75f59-b51c-4845-aa71-87c16134ae70","system_id":"levelo_inurba_marseille","lat":43.298433,"lon":5.362774,"is_reserved":false,"is_disabled":false,"rental_uris":{"android":"levelo://app?vid=01c75f59-b51c-4845-aa71-87c16134ae70","ios":"levelo://app?vid=01c75f59-b51c-4845-aa71-87c16134ae70"},"vehicle_type_id":"4","last_reported":1716037693,"current_range_meters":0,"station_id":"ce4bgpp2rcd13ifvqc3g","pricing_plan_id":"cebpf4jnsgd1na2vs0mg"},{"bike_id":"27453041-883c-41a0-85eb-f5b2dc58327b","system_id":"levelo_inurba_marseille","lat":43.29841,"lon":5.36277,"is_reserved":false,"is_disabled":false,"rental_uris":{"android":"levelo://app?vid=27453041-883c-41a0-85eb-f5b2dc58327b","ios":"levelo://app?vid=27453041-883c-41a0-85eb-f5b2dc58327b"},"vehicle_type_id":"4","last_reported":1716037693,"current_range_meters":26000,"station_id":"ce4bgpp2rcd13ifvqc3g","pricing_plan_id":"cebpf4jnsgd1na2vs0mg"},{"bike_id":"c3c8b1b0-dee6-448c-abf5-293333bfea52","system_id":"levelo_inurba_marseille","lat":43.298433,"lon":5.362774,"is_reserved":false,"is_disabled":false,"rental_uris":{"android":"levelo://app?vid=c3c8b1b0-dee6-448c-abf5-293333bfea52","ios":"levelo://app?vid=c3c8b1b0-dee6-448c-abf5-293333bfea52"},"vehicle_type_id":"4","last_reported":1716037693,"current_range_meters":20800,"station_id":"ce4bgpp2rcd13ifvqc3g","pricing_plan_id":"cebpf4jnsgd1na2vs0mg"},{"bike_id":"e918b186-749b-4c24-be0c-dc045a4eac1a","system_id":"levelo_inurba_marseille","lat":43.298433,"lon":5.362774,"is_reserved":false,"is_disabled":false,"rental_uris":{"android":"levelo://app?vid=e918b186-749b-4c24-be0c-dc045a4eac1a","ios":"levelo://app?vid=e918b186-749b-4c24-be0c-dc045a4eac1a"},"vehicle_type_id":"4","last_reported":1716037693,"current_range_meters":31200,"station_id":"ce4bgpp2rcd13ifvqc3g","pricing_plan_id":"cebpf4jnsgd1na2vs0mg"},{"bike_id":"1ab9462a-2882-4c6f-97e8-bcf5024a5ff9","system_id":"levelo_inurba_marseille","lat":43.298433,"lon":5.362774,"is_reserved":false,"is_disabled":false,"rental_uris":{"android":"levelo://app?vid=1ab9462a-2882-4c6f-97e8-bcf5024a5ff9","ios":"levelo://app?vid=1ab9462a-2882-4c6f-97e8-bcf5024a5ff9"},"vehicle_type_id":"4","last_reported":1716037693,"current_range_meters":26000,"station_id":"ce4bgpp2rcd13ifvqc3g","pricing_plan_id":"cebpf4jnsgd1na2vs0mg"},{"bike_id":"048acf65-f2ea-4955-be27-6e2d916cb9df","system_id":"levelo_inurba_marseille","lat":43.298433,"lon":5.362774,"is_reserved":false,"is_disabled":false,"rental_uris":{"android":"levelo://app?vid=048acf65-f2ea-4955-be27-6e2d916cb9df","ios":"levelo://app?vid=048acf65-f2ea-4955-be27-6e2d916cb9df"},"vehicle_type_id":"4","last_reported":1716037693,"current_range_meters":26000,"station_id":"ce4bgpp2rcd13ifvqc3g","pricing_plan_id":"cebpf4jnsgd1na2vs0mg"},{"bike_id":"44ee655f-8dde-47d3-bb29-890fa116d240","system_id":"levelo_inurba_marseille","lat":43.298433,"lon":5.362774,"is_reserved":false,"is_disabled":false,"rental_uris":{"android":"levelo://app?vid=44ee655f-8dde-47d3-bb29-890fa116d240","ios":"levelo://app?vid=44ee655f-8dde-47d3-bb29-890fa116d240"},"vehicle_type_id":"4","last_reported":1716037693,"current_range_meters":25600,"station_id":"ce4bgpp2rcd13ifvqc3g","pricing_plan_id":"cebpf4jnsgd1na2vs0mg"},{"bike_id":"4591fb67-144e-4e12-9f7a-df0b0ad799ec","system_id":"levelo_inurba_marseille","lat":43.297794,"lon":5.370888,"is_reserved":false,"is_disabled":false,"rental_uris":{"android":"levelo://app?vid=4591fb67-144e-4e12-9f7a-df0b0ad799ec","ios":"levelo://app?vid=4591fb67-144e-4e12-9f7a-df0b0ad799ec"},"vehicle_type_id":"4","last_reported":1716037693,"current_range_meters":5200,"station_id":"ce4bgop2rcd13ifvqc1g","pricing_plan_id":"cebpf4jnsgd1na2vs0mg"},{"bike_id":"3ad58182-bca2-488b-8e0b-eb32be9cf093","system_id":"levelo_inurba_marseille","lat":43.297794,"lon":5.370888,"is_reserved":false,"is_disabled":false,"rental_uris":{"android":"levelo://app?vid=3ad58182-bca2-488b-8e0b-eb32be9cf093","ios":"levelo://app?vid=3ad58182-bca2-488b-8e0b-eb32be9cf093"},"vehicle_type_id":"4","last_reported":1716037693,"current_range_meters":0,"station_id":"ce4bgop2rcd13ifvqc1g","pricing_plan_id":"cebpf4jnsgd1na2vs0mg"},{"bike_id":"b22379ec-8777-4dcd-8c0e-9642bdad8cfd","system_id":"levelo_inurba_marseille","lat":43.297774,"lon":5.370875,"is_reserved":false,"is_disabled":false,"rental_uris":{"android":"levelo://app?vid=b22379ec-8777-4dcd-8c0e-9642bdad8cfd","ios":"levelo://app?vid=b22379ec-8777-4dcd-8c0e-9642bdad8cfd"},"vehicle_type_id":"4","last_reported":1716037693,"current_range_meters":31200,"station_id":"ce4bgop2rcd13ifvqc1g","pricing_plan_id":"cebpf4jnsgd1na2vs0mg"},{"bike_id":"c9411cb5-49cd-4566-a98e-ac39abb4b11b","system_id":"levelo_inurba_marseille","lat":43.297794,"lon":5.370888,"is_reserved":false,"is_disabled":false,"rental_uris":{"android":"levelo://app?vid=c9411cb5-49cd-4566-a98e-ac39abb4b11b","ios":"levelo://app?vid=c9411cb5-49cd-4566-a98e-ac39abb4b11b"},"vehicle_type_id":"4","last_reported":1716037693,"current_range_meters":0,"station_id":"ce4bgop2rcd13ifvqc1g","pricing_plan_id":"cebpf4jnsgd1na2vs0mg"},{"bike_id":"a78c0371-18a7-4609-8a16-1a99a180568a","system_id":"levelo_inurba_marseille","lat":43.297794,"lon":5.370888,"is_reserved":false,"is_disabled":false,"rental_uris":{"android":"levelo://app?vid=a78c0371-18a7-4609-8a16-1a99a180568a","ios":"levelo://app?vid=a78c0371-18a7-4609-8a16-1a99a180568a"},"vehicle_type_id":"4","last_reported":1716037693,"current_range_meters":30400,"station_id":"ce4bgop2rcd13ifvqc1g","pricing_plan_id":"cebpf4jnsgd1na2vs0mg"},{"bike_id":"b4aa43a4-fee4-4bbb-aa5b-b2df3b770e8e","system_id":"levelo_inurba_marseille","lat":43.297794,"lon":5.370888,"is_reserved":false,"is_disabled":false,"rental_uris":{"android":"levelo://app?vid=b4aa43a4-fee4-4bbb-aa5b-b2df3b770e8e","ios":"levelo://app?vid=b4aa43a4-fee4-4bbb-aa5b-b2df3b770e8e"},"vehicle_type_id":"4","last_reported":1716037693,"current_range_meters":22800,"station_id":"ce4bgop2rcd13ifvqc1g","pricing_plan_id":"cebpf4jnsgd1na2vs0mg"},{"bike_id":"6d1ccc28-56b7-4a1d-bb6e-0a6fde0a1a76","system_id":"levelo_inurba_marseille","lat":43.297774,"lon":5.370875,"is_reserved":false,"is_disabled":false,"rental_uris":{"android":"levelo://app?vid=6d1ccc28-56b7-4a1d-bb6e-0a6fde0a1a76","ios":"levelo://app?vid=6d1ccc28-56b7-4a1d-bb6e-0a6fde0a1a76"},"vehicle_type_id":"4","last_reported":1716037693,"current_range_meters":9200,"station_id":"ce4bgop2rcd13ifvqc1g","pricing_plan_id":"cebpf4jnsgd1na2vs0mg"},{"bike_id":"f9dca72a-1fa0-4a31-b600-4eb9f232b882","system_id":"levelo_inurba_marseille","lat":43.322872,"lon":5.382756,"is_reserved":false,"is_disabled":false,"rental_uris":{"android":"levelo://app?vid=f9dca72a-1fa0-4a31-b600-4eb9f232b882","ios":"levelo://app?vid=f9dca72a-1fa0-4a31-b600-4eb9f232b882"},"vehicle_type_id":"4","last_reported":1716037693,"current_range_meters":11200,"station_id":"ce4bhr12rcd13ifvqhqg","pricing_plan_id":"cebpf4jnsgd1na2vs0mg"},{"bike_id":"a707b68e-7d39-43a1-8319-3f4c99543909","system_id":"levelo_inurba_marseille","lat":43.297163,"lon":5.365866,"is_reserved":false,"is_disabled":false,"rental_uris":{"android":"levelo://app?vid=a707b68e-7d39-43a1-8319-3f4c99543909","ios":"levelo://app?vid=a707b68e-7d39-43a1-8319-3f4c99543909"},"vehicle_type_id":"4","last_reported":1716037693,"current_range_meters":11200,"station_id":"ce4bgn12rcd13ifvqbt0","pricing_plan_id":"cebpf4jnsgd1na2vs0mg"},{"bike_id":"eb8262ed-4b1c-4536-b793-36de2a22ac11","system_id":"levelo_inurba_marseille","lat":43.297163,"lon":5.365866,"is_reserved":false,"is_disabled":false,"rental_uris":{"android":"levelo://app?vid=eb8262ed-4b1c-4536-b793-36de2a22ac11","ios":"levelo://app?vid=eb8262ed-4b1c-4536-b793-36de2a22ac11"},"vehicle_type_id":"4","last_reported":1716037693,"current_range_meters":5600,"station_id":"ce4bgn12rcd13ifvqbt0","pricing_plan_id":"cebpf4jnsgd1na2vs0mg"},{"bike_id":"6df0b08c-9a57-4f89-91da-c537989be421","system_id":"levelo_inurba_marseille","lat":43.297163,"lon":5.365866,"is_reserved":false,"is_disabled":false,"rental_uris":{"android":"levelo://app?vid=6df0b08c-9a57-4f89-91da-c537989be421","ios":"levelo://app?vid=6df0b08c-9a57-4f89-91da-c537989be421"},"vehicle_type_id":"4","last_reported":1716037693,"current_range_meters":2800,"station_id":"ce4bgn12rcd13ifvqbt0","pricing_plan_id":"cebpf4jnsgd1na2vs0mg"},{"bike_id":"9ac7d629-b6fd-4fae-b8d4-3cec240cb731","system_id":"levelo_inurba_marseille","lat":43.284534,"lon":5.358662,"is_reserved":false,"is_disabled":false,"rental_uris":{"android":"levelo://app?vid=9ac7d629-b6fd-4fae-b8d4-3cec240cb731","ios":"levelo://app?vid=9ac7d629-b6fd-4fae-b8d4-3cec240cb731"},"vehicle_type_id":"4","last_reported":1716037693,"current_range_meters":14400,"station_id":"ce4bhah2rcd13ifvqei0","pricing_plan_id":"cebpf4jnsgd1na2vs0mg"},{"bike_id":"77f93ed4-a1fa-49e0-93a9-3b26153d8b73","system_id":"levelo_inurba_marseille","lat":43.297163,"lon":5.365866,"is_reserved":false,"is_disabled":false,"rental_uris":{"android":"levelo://app?vid=77f93ed4-a1fa-49e0-93a9-3b26153d8b73","ios":"levelo://app?vid=77f93ed4-a1fa-49e0-93a9-3b26153d8b73"},"vehicle_type_id":"4","last_reported":1716037693,"current_range_meters":11200,"station_id":"ce4bgn12rcd13ifvqbt0","pricing_plan_id":"cebpf4jnsgd1na2vs0mg"},{"bike_id":"e8b74b53-1f66-4822-bc9f-59e0cd63ffdc","system_id":"levelo_inurba_marseille","lat":43.29695,"lon":5.36896,"is_reserved":false,"is_disabled":false,"rental_uris":{"android":"levelo://app?vid=e8b74b53-1f66-4822-bc9f-59e0cd63ffdc","ios":"levelo://app?vid=e8b74b53-1f66-4822-bc9f-59e0cd63ffdc"},"vehicle_type_id":"4","last_reported":1716037693,"current_range_meters":1200,"station_id":"","pricing_plan_id":"cebpf4jnsgd1na2vs0mg"},{"bike_id":"bb78a422-dc6d-4fcb-bcb0-50d3f6786e19","system_id":"levelo_inurba_marseille","lat":43.297163,"lon":5.365866,"is_reserved":false,"is_disabled":false,"rental_uris":{"android":"levelo://app?vid=bb78a422-dc6d-4fcb-bcb0-50d3f6786e19","ios":"levelo://app?vid=bb78a422-dc6d-4fcb-bcb0-50d3f6786e19"},"vehicle_type_id":"4","last_reported":1716037693,"current_range_meters":1200,"station_id":"ce4bgn12rcd13ifvqbt0","pricing_plan_id":"cebpf4jnsgd1na2vs0mg"},{"bike_id":"3bb1be9b-58e2-4469-82cd-1469cc9f9e2e","system_id":"levelo_inurba_marseille","lat":43.2968,"lon":5.37291,"is_reserved":false,"is_disabled":false,"rental_uris":{"android":"levelo://app?vid=3bb1be9b-58e2-4469-82cd-1469cc9f9e2e","ios":"levelo://app?vid=3bb1be9b-58e2-4469-82cd-1469cc9f9e2e"},"vehicle_type_id":"4","last_reported":1716037693,"current_range_meters":6400,"station_id":"ce4bgk12rcd13ifvqbj0","pricing_plan_id":"cebpf4jnsgd1na2vs0mg"},{"bike_id":"7eb39936-ca2c-4a52-8294-476400be099d","system_id":"levelo_inurba_marseille","lat":43.2968,"lon":5.37291,"is_reserved":false,"is_disabled":false,"rental_uris":{"android":"levelo://app?vid=7eb39936-ca2c-4a52-8294-476400be099d","ios":"levelo://app?vid=7eb39936-ca2c-4a52-8294-476400be099d"},"vehicle_type_id":"4","last_reported":1716037693,"current_range_meters":17600,"station_id":"ce4bgk12rcd13ifvqbj0","pricing_plan_id":"cebpf4jnsgd1na2vs0mg"},{"bike_id":"8446a731-da07-4144-b0d2-621367c31831","system_id":"levelo_inurba_marseille","lat":43.2968,"lon":5.37291,"is_reserved":false,"is_disabled":false,"rental_uris":{"android":"levelo://app?vid=8446a731-da07-4144-b0d2-621367c31831","ios":"levelo://app?vid=8446a731-da07-4144-b0d2-621367c31831"},"vehicle_type_id":"4","last_reported":1716037693,"current_range_meters":31200,"station_id":"ce4bgk12rcd13ifvqbj0","pricing_plan_id":"cebpf4jnsgd1na2vs0mg"},{"bike_id":"104a3ab1-0633-4854-ba43-07cea6eef85e","system_id":"levelo_inurba_marseille","lat":43.2968,"lon":5.37291,"is_reserved":false,"is_disabled":false,"rental_uris":{"android":"levelo://app?vid=104a3ab1-0633-4854-ba43-07cea6eef85e","ios":"levelo://app?vid=104a3ab1-0633-4854-ba43-07cea6eef85e"},"vehicle_type_id":"4","last_reported":1716037693,"current_range_meters":23600,"station_id":"ce4bgk12rcd13ifvqbj0","pricing_plan_id":"cebpf4jnsgd1na2vs0mg"},{"bike_id":"1fc0e84a-317f-48d4-b2ca-aa59471b1aa6","system_id":"levelo_inurba_marseille","lat":43.2968,"lon":5.37291,"is_reserved":false,"is_disabled":false,"rental_uris":{"android":"levelo://app?vid=1fc0e84a-317f-48d4-b2ca-aa59471b1aa6","ios":"levelo://app?vid=1fc0e84a-317f-48d4-b2ca-aa59471b1aa6"},"vehicle_type_id":"4","last_reported":1716037693,"current_range_meters":5600,"station_id":"ce4bgk12rcd13ifvqbj0","pricing_plan_id":"cebpf4jnsgd1na2vs0mg"},{"bike_id":"719046df-ba08-4c52-ab97-3232ae0252df","system_id":"levelo_inurba_marseille","lat":43.296921,"lon":5.376579,"is_reserved":false,"is_disabled":false,"rental_uris":{"android":"levelo://app?vid=719046df-ba08-4c52-ab97-3232ae0252df","ios":"levelo://app?vid=719046df-ba08-4c52-ab97-3232ae0252df"},"vehicle_type_id":"4","last_reported":1716037693,"current_range_meters":17200,"station_id":"ce4bgkh2rcd13ifvqbl0","pricing_plan_id":"cebpf4jnsgd1na2vs0mg"},{"bike_id":"5d1ba5e3-dc49-4a29-b07c-96c46f37e81e","system_id":"levelo_inurba_marseille","lat":43.296921,"lon":5.376579,"is_reserved":false,"is_disabled":false,"rental_uris":{"android":"levelo://app?vid=5d1ba5e3-dc49-4a29-b07c-96c46f37e81e","ios":"levelo://app?vid=5d1ba5e3-dc49-4a29-b07c-96c46f37e81e"},"vehicle_type_id":"4","last_reported":1716037693,"current_range_meters":13600,"station_id":"ce4bgkh2rcd13ifvqbl0","pricing_plan_id":"cebpf4jnsgd1na2vs0mg"},{"bike_id":"16f45eb8-df95-4dcf-9aa0-f842d47a8523","system_id":"levelo_inurba_marseille","lat":43.299028,"lon":5.381509,"is_reserved":false,"is_disabled":false,"rental_uris":{"android":"levelo://app?vid=16f45eb8-df95-4dcf-9aa0-f842d47a8523","ios":"levelo://app?vid=16f45eb8-df95-4dcf-9aa0-f842d47a8523"},"vehicle_type_id":"4","last_reported":1716037693,"current_range_meters":30400,"station_id":"ce4bgj12rcd13ifvqbc0","pricing_plan_id":"cebpf4jnsgd1na2vs0mg"},{"bike_id":"c66a777b-656f-4bbd-80cf-62b1a87db0a3","system_id":"levelo_inurba_marseille","lat":43.299028,"lon":5.381509,"is_reserved":false,"is_disabled":false,"rental_uris":{"android":"levelo://app?vid=c66a777b-656f-4bbd-80cf-62b1a87db0a3","ios":"levelo://app?vid=c66a777b-656f-4bbd-80cf-62b1a87db0a3"},"vehicle_type_id":"4","last_reported":1716037693,"current_range_meters":29200,"station_id":"ce4bgj12rcd13ifvqbc0","pricing_plan_id":"cebpf4jnsgd1na2vs0mg"},{"bike_id":"ef9190f2-8a64-453a-a566-73bae5bc26d0","system_id":"levelo_inurba_marseille","lat":43.296935,"lon":5.376544,"is_reserved":false,"is_disabled":false,"rental_uris":{"android":"levelo://app?vid=ef9190f2-8a64-453a-a566-73bae5bc26d0","ios":"levelo://app?vid=ef9190f2-8a64-453a-a566-73bae5bc26d0"},"vehicle_type_id":"4","last_reported":1716037693,"current_range_meters":3600,"station_id":"ce4bgkh2rcd13ifvqbl0","pricing_plan_id":"cebpf4jnsgd1na2vs0mg"},{"bike_id":"74bb3329-2c96-47c2-ae61-ada45d09aa4f","system_id":"levelo_inurba_marseille","lat":43.296935,"lon":5.376544,"is_reserved":false,"is_disabled":false,"rental_uris":{"android":"levelo://app?vid=74bb3329-2c96-47c2-ae61-ada45d09aa4f","ios":"levelo://app?vid=74bb3329-2c96-47c2-ae61-ada45d09aa4f"},"vehicle_type_id":"4","last_reported":1716037693,"current_range_meters":12800,"station_id":"ce4bgkh2rcd13ifvqbl0","pricing_plan_id":"cebpf4jnsgd1na2vs0mg"},{"bike_id":"1bc87702-42ea-445e-8260-211155cfeec8","system_id":"levelo_inurba_marseille","lat":43.309514,"lon":5.390198,"is_reserved":false,"is_disabled":false,"rental_uris":{"android":"levelo://app?vid=1bc87702-42ea-445e-8260-211155cfeec8","ios":"levelo://app?vid=1bc87702-42ea-445e-8260-211155cfeec8"},"vehicle_type_id":"4","last_reported":1716037693,"current_range_meters":0,"station_id":"ce4bgup2rcd13ifvqco0","pricing_plan_id":"cebpf4jnsgd1na2vs0mg"},{"bike_id":"76fe3798-6e4a-4f3b-a89d-e421fd24c151","system_id":"levelo_inurba_marseille","lat":43.296935,"lon":5.376544,"is_reserved":false,"is_disabled":false,"rental_uris":{"android":"levelo://app?vid=76fe3798-6e4a-4f3b-a89d-e421fd24c151","ios":"levelo://app?vid=76fe3798-6e4a-4f3b-a89d-e421fd24c151"},"vehicle_type_id":"4","last_reported":1716037693,"current_range_meters":14400,"station_id":"ce4bgkh2rcd13ifvqbl0","pricing_plan_id":"cebpf4jnsgd1na2vs0mg"},{"bike_id":"527c99e7-cbcb-4520-80ac-edb8e5738836","system_id":"levelo_inurba_marseille","lat":43.299028,"lon":5.381509,"is_reserved":false,"is_disabled":false,"rental_uris":{"android":"levelo://app?vid=527c99e7-cbcb-4520-80ac-edb8e5738836","ios":"levelo://app?vid=527c99e7-cbcb-4520-80ac-edb8e5738836"},"vehicle_type_id":"4","last_reported":1716037693,"current_range_meters":31200,"station_id":"ce4bgj12rcd13ifvqbc0","pricing_plan_id":"cebpf4jnsgd1na2vs0mg"},{"bike_id":"c6c6d8b0-446f-4e9f-b989-fe51ee2c5416","system_id":"levelo_inurba_marseille","lat":43.299028,"lon":5.381509,"is_reserved":false,"is_disabled":false,"rental_uris":{"android":"levelo://app?vid=c6c6d8b0-446f-4e9f-b989-fe51ee2c5416","ios":"levelo://app?vid=c6c6d8b0-446f-4e9f-b989-fe51ee2c5416"},"vehicle_type_id":"4","last_reported":1716037693,"current_range_meters":18800,"station_id":"ce4bgj12rcd13ifvqbc0","pricing_plan_id":"cebpf4jnsgd1na2vs0mg"},{"bike_id":"43165747-c143-46f8-84a7-b809afd679ad","system_id":"levelo_inurba_marseille","lat":43.296935,"lon":5.376544,"is_reserved":false,"is_disabled":false,"rental_uris":{"android":"levelo://app?vid=43165747-c143-46f8-84a7-b809afd679ad","ios":"levelo://app?vid=43165747-c143-46f8-84a7-b809afd679ad"},"vehicle_type_id":"4","last_reported":1716037693,"current_range_meters":7200,"station_id":"ce4bgkh2rcd13ifvqbl0","pricing_plan_id":"cebpf4jnsgd1na2vs0mg"},{"bike_id":"457d17be-b3be-4ce9-84f8-d672cc74f855","system_id":"levelo_inurba_marseille","lat":43.299028,"lon":5.381509,"is_reserved":false,"is_disabled":false,"rental_uris":{"android":"levelo://app?vid=457d17be-b3be-4ce9-84f8-d672cc74f855","ios":"levelo://app?vid=457d17be-b3be-4ce9-84f8-d672cc74f855"},"vehicle_type_id":"4","last_reported":1716037693,"current_range_meters":8800,"station_id":"ce4bgj12rcd13ifvqbc0","pricing_plan_id":"cebpf4jnsgd1na2vs0mg"},{"bike_id":"5a13974c-e778-4533-b08b-a29cf38577a5","system_id":"levelo_inurba_marseille","lat":43.29889,"lon":5.38136,"is_reserved":false,"is_disabled":false,"rental_uris":{"android":"levelo://app?vid=5a13974c-e778-4533-b08b-a29cf38577a5","ios":"levelo://app?vid=5a13974c-e778-4533-b08b-a29cf38577a5"},"vehicle_type_id":"4","last_reported":1716037693,"current_range_meters":22800,"station_id":"ce4bgj12rcd13ifvqbc0","pricing_plan_id":"cebpf4jnsgd1na2vs0mg"},{"bike_id":"c74747d8-6d58-47ee-94cc-575863943256","system_id":"levelo_inurba_marseille","lat":43.299028,"lon":5.381509,"is_reserved":false,"is_disabled":false,"rental_uris":{"android":"levelo://app?vid=c74747d8-6d58-47ee-94cc-575863943256","ios":"levelo://app?vid=c74747d8-6d58-47ee-94cc-575863943256"},"vehicle_type_id":"4","last_reported":1716037693,"current_range_meters":26800,"station_id":"ce4bgj12rcd13ifvqbc0","pricing_plan_id":"cebpf4jnsgd1na2vs0mg"},{"bike_id":"ffd09bb8-cc11-49ff-ad30-3fc8b6291980","system_id":"levelo_inurba_marseille","lat":43.299028,"lon":5.381509,"is_reserved":false,"is_disabled":false,"rental_uris":{"android":"levelo://app?vid=ffd09bb8-cc11-49ff-ad30-3fc8b6291980","ios":"levelo://app?vid=ffd09bb8-cc11-49ff-ad30-3fc8b6291980"},"vehicle_type_id":"4","last_reported":1716037693,"current_range_meters":20000,"station_id":"ce4bgj12rcd13ifvqbc0","pricing_plan_id":"cebpf4jnsgd1na2vs0mg"},{"bike_id":"ec042edc-fae1-4cd4-9af1-6a20ea5af264","system_id":"levelo_inurba_marseille","lat":43.299028,"lon":5.381509,"is_reserved":false,"is_disabled":false,"rental_uris":{"android":"levelo://app?vid=ec042edc-fae1-4cd4-9af1-6a20ea5af264","ios":"levelo://app?vid=ec042edc-fae1-4cd4-9af1-6a20ea5af264"},"vehicle_type_id":"4","last_reported":1716037693,"current_range_meters":29200,"station_id":"ce4bgj12rcd13ifvqbc0","pricing_plan_id":"cebpf4jnsgd1na2vs0mg"},{"bike_id":"cefaae07-0bbd-48eb-8074-b45b3fd8b77c","system_id":"levelo_inurba_marseille","lat":43.299028,"lon":5.381509,"is_reserved":false,"is_disabled":false,"rental_uris":{"android":"levelo://app?vid=cefaae07-0bbd-48eb-8074-b45b3fd8b77c","ios":"levelo://app?vid=cefaae07-0bbd-48eb-8074-b45b3fd8b77c"},"vehicle_type_id":"4","last_reported":1716037693,"current_range_meters":31200,"station_id":"ce4bgj12rcd13ifvqbc0","pricing_plan_id":"cebpf4jnsgd1na2vs0mg"},{"bike_id":"2555cd6a-1819-40e4-821f-8355d0af91fa","system_id":"levelo_inurba_marseille","lat":43.299028,"lon":5.381509,"is_reserved":false,"is_disabled":false,"rental_uris":{"android":"levelo://app?vid=2555cd6a-1819-40e4-821f-8355d0af91fa","ios":"levelo://app?vid=2555cd6a-1819-40e4-821f-8355d0af91fa"},"vehicle_type_id":"4","last_reported":1716037693,"current_range_meters":20800,"station_id":"ce4bgj12rcd13ifvqbc0","pricing_plan_id":"cebpf4jnsgd1na2vs0mg"},{"bike_id":"15e8a0e7-c887-48f9-b0a2-8f744cfd2512","system_id":"levelo_inurba_marseille","lat":43.299028,"lon":5.381509,"is_reserved":false,"is_disabled":false,"rental_uris":{"android":"levelo://app?vid=15e8a0e7-c887-48f9-b0a2-8f744cfd2512","ios":"levelo://app?vid=15e8a0e7-c887-48f9-b0a2-8f744cfd2512"},"vehicle_type_id":"4","last_reported":1716037693,"current_range_meters":31200,"station_id":"ce4bgj12rcd13ifvqbc0","pricing_plan_id":"cebpf4jnsgd1na2vs0mg"},{"bike_id":"9539bad5-86b4-4dab-aeef-dcb2db03eec7","system_id":"levelo_inurba_marseille","lat":43.29791,"lon":5.38087,"is_reserved":false,"is_disabled":false,"rental_uris":{"android":"levelo://app?vid=9539bad5-86b4-4dab-aeef-dcb2db03eec7","ios":"levelo://app?vid=9539bad5-86b4-4dab-aeef-dcb2db03eec7"},"vehicle_type_id":"4","last_reported":1716037693,"current_range_meters":0,"station_id":"ce4bgip2rcd13ifvqbb0","pricing_plan_id":"cebpf4jnsgd1na2vs0mg"},{"bike_id":"95fb9958-dfd7-4568-bc50-9d2778ac76a3","system_id":"levelo_inurba_marseille","lat":43.295748,"lon":5.37522,"is_reserved":false,"is_disabled":false,"rental_uris":{"android":"levelo://app?vid=95fb9958-dfd7-4568-bc50-9d2778ac76a3","ios":"levelo://app?vid=95fb9958-dfd7-4568-bc50-9d2778ac76a3"},"vehicle_type_id":"4","last_reported":1716037693,"current_range_meters":13200,"station_id":"ce4bgh92rcd13ifvqb50","pricing_plan_id":"cebpf4jnsgd1na2vs0mg"},{"bike_id":"90c822dc-d068-4735-9458-6296169d5d42","system_id":"levelo_inurba_marseille","lat":43.298037,"lon":5.381066,"is_reserved":false,"is_disabled":false,"rental_uris":{"android":"levelo://app?vid=90c822dc-d068-4735-9458-6296169d5d42","ios":"levelo://app?vid=90c822dc-d068-4735-9458-6296169d5d42"},"vehicle_type_id":"4","last_reported":1716037693,"current_range_meters":8400,"station_id":"ce4bgip2rcd13ifvqbb0","pricing_plan_id":"cebpf4jnsgd1na2vs0mg"},{"bike_id":"5b2ad981-07e1-4078-a579-16bc4ea6e62b","system_id":"levelo_inurba_marseille","lat":43.296277,"lon":5.377108,"is_reserved":false,"is_disabled":false,"rental_uris":{"android":"levelo://app?vid=5b2ad981-07e1-4078-a579-16bc4ea6e62b","ios":"levelo://app?vid=5b2ad981-07e1-4078-a579-16bc4ea6e62b"},"vehicle_type_id":"4","last_reported":1716037693,"current_range_meters":26800,"station_id":"ce4bgi92rcd13ifvqb90","pricing_plan_id":"cebpf4jnsgd1na2vs0mg"},{"bike_id":"31c8ebba-8e13-4ae1-b38a-26eeb8e4713c","system_id":"levelo_inurba_marseille","lat":43.297305,"lon":5.37979,"is_reserved":false,"is_disabled":false,"rental_uris":{"android":"levelo://app?vid=31c8ebba-8e13-4ae1-b38a-26eeb8e4713c","ios":"levelo://app?vid=31c8ebba-8e13-4ae1-b38a-26eeb8e4713c"},"vehicle_type_id":"4","last_reported":1716037693,"current_range_meters":26800,"station_id":"","pricing_plan_id":"cebpf4jnsgd1na2vs0mg"},{"bike_id":"06edf538-c340-48ea-9301-58c5c8438e5e","system_id":"levelo_inurba_marseille","lat":43.296277,"lon":5.377108,"is_reserved":false,"is_disabled":false,"rental_uris":{"android":"levelo://app?vid=06edf538-c340-48ea-9301-58c5c8438e5e","ios":"levelo://app?vid=06edf538-c340-48ea-9301-58c5c8438e5e"},"vehicle_type_id":"4","last_reported":1716037693,"current_range_meters":10400,"station_id":"ce4bgi92rcd13ifvqb90","pricing_plan_id":"cebpf4jnsgd1na2vs0mg"},{"bike_id":"307b3853-2cda-4537-a03a-3f970ac8dc26","system_id":"levelo_inurba_marseille","lat":43.295748,"lon":5.37522,"is_reserved":false,"is_disabled":false,"rental_uris":{"android":"levelo://app?vid=307b3853-2cda-4537-a03a-3f970ac8dc26","ios":"levelo://app?vid=307b3853-2cda-4537-a03a-3f970ac8dc26"},"vehicle_type_id":"4","last_reported":1716037693,"current_range_meters":3600,"station_id":"ce4bgh92rcd13ifvqb50","pricing_plan_id":"cebpf4jnsgd1na2vs0mg"},{"bike_id":"1c775ce2-b02c-468f-a634-b72621aafb03","system_id":"levelo_inurba_marseille","lat":43.295748,"lon":5.37522,"is_reserved":false,"is_disabled":false,"rental_uris":{"android":"levelo://app?vid=1c775ce2-b02c-468f-a634-b72621aafb03","ios":"levelo://app?vid=1c775ce2-b02c-468f-a634-b72621aafb03"},"vehicle_type_id":"4","last_reported":1716037693,"current_range_meters":26800,"station_id":"ce4bgh92rcd13ifvqb50","pricing_plan_id":"cebpf4jnsgd1na2vs0mg"},{"bike_id":"ae809620-6de5-4d4e-8f26-6437861d76c1","system_id":"levelo_inurba_marseille","lat":43.295748,"lon":5.37522,"is_reserved":false,"is_disabled":false,"rental_uris":{"android":"levelo://app?vid=ae809620-6de5-4d4e-8f26-6437861d76c1","ios":"levelo://app?vid=ae809620-6de5-4d4e-8f26-6437861d76c1"},"vehicle_type_id":"4","last_reported":1716037693,"current_range_meters":400,"station_id":"ce4bgh92rcd13ifvqb50","pricing_plan_id":"cebpf4jnsgd1na2vs0mg"},{"bike_id":"4c334945-4627-47dc-8696-b028865e089a","system_id":"levelo_inurba_marseille","lat":43.295748,"lon":5.37522,"is_reserved":false,"is_disabled":false,"rental_uris":{"android":"levelo://app?vid=4c334945-4627-47dc-8696-b028865e089a","ios":"levelo://app?vid=4c334945-4627-47dc-8696-b028865e089a"},"vehicle_type_id":"4","last_reported":1716037693,"current_range_meters":12000,"station_id":"ce4bgh92rcd13ifvqb50","pricing_plan_id":"cebpf4jnsgd1na2vs0mg"},{"bike_id":"8020183e-a0d7-42d0-95c0-213bb84d7d7b","system_id":"levelo_inurba_marseille","lat":43.295748,"lon":5.37522,"is_reserved":false,"is_disabled":false,"rental_uris":{"android":"levelo://app?vid=8020183e-a0d7-42d0-95c0-213bb84d7d7b","ios":"levelo://app?vid=8020183e-a0d7-42d0-95c0-213bb84d7d7b"},"vehicle_type_id":"4","last_reported":1716037693,"current_range_meters":2400,"station_id":"ce4bgh92rcd13ifvqb50","pricing_plan_id":"cebpf4jnsgd1na2vs0mg"},{"bike_id":"250e7fec-30f1-44fe-a607-48d8e4345c3b","system_id":"levelo_inurba_marseille","lat":43.295748,"lon":5.37522,"is_reserved":false,"is_disabled":false,"rental_uris":{"android":"levelo://app?vid=250e7fec-30f1-44fe-a607-48d8e4345c3b","ios":"levelo://app?vid=250e7fec-30f1-44fe-a607-48d8e4345c3b"},"vehicle_type_id":"4","last_reported":1716037693,"current_range_meters":1600,"station_id":"ce4bgh92rcd13ifvqb50","pricing_plan_id":"cebpf4jnsgd1na2vs0mg"},{"bike_id":"70a583b6-90e2-4472-ab6f-c57afe9e73d0","system_id":"levelo_inurba_marseille","lat":43.296277,"lon":5.377108,"is_reserved":false,"is_disabled":false,"rental_uris":{"android":"levelo://app?vid=70a583b6-90e2-4472-ab6f-c57afe9e73d0","ios":"levelo://app?vid=70a583b6-90e2-4472-ab6f-c57afe9e73d0"},"vehicle_type_id":"4","last_reported":1716037693,"current_range_meters":2400,"station_id":"ce4bgi92rcd13ifvqb90","pricing_plan_id":"cebpf4jnsgd1na2vs0mg"},{"bike_id":"58e47c54-a64c-466f-b1e6-21054ddc0871","system_id":"levelo_inurba_marseille","lat":43.296277,"lon":5.377108,"is_reserved":false,"is_disabled":false,"rental_uris":{"android":"levelo://app?vid=58e47c54-a64c-466f-b1e6-21054ddc0871","ios":"levelo://app?vid=58e47c54-a64c-466f-b1e6-21054ddc0871"},"vehicle_type_id":"4","last_reported":1716037693,"current_range_meters":15200,"station_id":"ce4bgi92rcd13ifvqb90","pricing_plan_id":"cebpf4jnsgd1na2vs0mg"},{"bike_id":"a1e0574e-f6b0-4c9e-bd1f-057bff9bdf09","system_id":"levelo_inurba_marseille","lat":43.295748,"lon":5.37522,"is_reserved":false,"is_disabled":false,"rental_uris":{"android":"levelo://app?vid=a1e0574e-f6b0-4c9e-bd1f-057bff9bdf09","ios":"levelo://app?vid=a1e0574e-f6b0-4c9e-bd1f-057bff9bdf09"},"vehicle_type_id":"4","last_reported":1716037693,"current_range_meters":15600,"station_id":"ce4bgh92rcd13ifvqb50","pricing_plan_id":"cebpf4jnsgd1na2vs0mg"},{"bike_id":"422071f3-4318-48dd-a677-afb19409ea18","system_id":"levelo_inurba_marseille","lat":43.29562,"lon":5.37521,"is_reserved":false,"is_disabled":false,"rental_uris":{"android":"levelo://app?vid=422071f3-4318-48dd-a677-afb19409ea18","ios":"levelo://app?vid=422071f3-4318-48dd-a677-afb19409ea18"},"vehicle_type_id":"4","last_reported":1716037693,"current_range_meters":20000,"station_id":"ce4bgh92rcd13ifvqb50","pricing_plan_id":"cebpf4jnsgd1na2vs0mg"},{"bike_id":"2c6a5eb6-cfec-495a-a9e4-36d34cc911de","system_id":"levelo_inurba_marseille","lat":43.296263,"lon":5.377094,"is_reserved":false,"is_disabled":false,"rental_uris":{"android":"levelo://app?vid=2c6a5eb6-cfec-495a-a9e4-36d34cc911de","ios":"levelo://app?vid=2c6a5eb6-cfec-495a-a9e4-36d34cc911de"},"vehicle_type_id":"4","last_reported":1716037693,"current_range_meters":4000,"station_id":"ce4bgi92rcd13ifvqb90","pricing_plan_id":"cebpf4jnsgd1na2vs0mg"},{"bike_id":"b07b6a5d-b956-4e0c-8caf-7283676e5f30","system_id":"levelo_inurba_marseille","lat":43.295748,"lon":5.37522,"is_reserved":false,"is_disabled":false,"rental_uris":{"android":"levelo://app?vid=b07b6a5d-b956-4e0c-8caf-7283676e5f30","ios":"levelo://app?vid=b07b6a5d-b956-4e0c-8caf-7283676e5f30"},"vehicle_type_id":"4","last_reported":1716037693,"current_range_meters":12400,"station_id":"ce4bgh92rcd13ifvqb50","pricing_plan_id":"cebpf4jnsgd1na2vs0mg"},{"bike_id":"e139c955-d39a-4fbd-8ac2-e3f72cefe9f5","system_id":"levelo_inurba_marseille","lat":43.295748,"lon":5.37522,"is_reserved":false,"is_disabled":false,"rental_uris":{"android":"levelo://app?vid=e139c955-d39a-4fbd-8ac2-e3f72cefe9f5","ios":"levelo://app?vid=e139c955-d39a-4fbd-8ac2-e3f72cefe9f5"},"vehicle_type_id":"4","last_reported":1716037693,"current_range_meters":1200,"station_id":"ce4bgh92rcd13ifvqb50","pricing_plan_id":"cebpf4jnsgd1na2vs0mg"},{"bike_id":"6c3935e8-2a9e-4155-a1c3-d69c5c1fd9f6","system_id":"levelo_inurba_marseille","lat":43.295748,"lon":5.37522,"is_reserved":false,"is_disabled":false,"rental_uris":{"android":"levelo://app?vid=6c3935e8-2a9e-4155-a1c3-d69c5c1fd9f6","ios":"levelo://app?vid=6c3935e8-2a9e-4155-a1c3-d69c5c1fd9f6"},"vehicle_type_id":"4","last_reported":1716037693,"current_range_meters":14800,"station_id":"ce4bgh92rcd13ifvqb50","pricing_plan_id":"cebpf4jnsgd1na2vs0mg"},{"bike_id":"6d7f5465-5863-4758-bd03-9eb8c956c554","system_id":"levelo_inurba_marseille","lat":43.295748,"lon":5.37522,"is_reserved":false,"is_disabled":false,"rental_uris":{"android":"levelo://app?vid=6d7f5465-5863-4758-bd03-9eb8c956c554","ios":"levelo://app?vid=6d7f5465-5863-4758-bd03-9eb8c956c554"},"vehicle_type_id":"4","last_reported":1716037693,"current_range_meters":3200,"station_id":"ce4bgh92rcd13ifvqb50","pricing_plan_id":"cebpf4jnsgd1na2vs0mg"},{"bike_id":"13418575-b826-4b4f-a33d-32b82cac0f72","system_id":"levelo_inurba_marseille","lat":43.298681,"lon":5.397225,"is_reserved":false,"is_disabled":false,"rental_uris":{"android":"levelo://app?vid=13418575-b826-4b4f-a33d-32b82cac0f72","ios":"levelo://app?vid=13418575-b826-4b4f-a33d-32b82cac0f72"},"vehicle_type_id":"4","last_reported":1716037693,"current_range_meters":27600,"station_id":"ce4bh0h2rcd13ifvqd50","pricing_plan_id":"cebpf4jnsgd1na2vs0mg"},{"bike_id":"4d4d367f-a355-42ba-9401-aabcc4802e8a","system_id":"levelo_inurba_marseille","lat":43.29516,"lon":5.37436,"is_reserved":false,"is_disabled":false,"rental_uris":{"android":"levelo://app?vid=4d4d367f-a355-42ba-9401-aabcc4802e8a","ios":"levelo://app?vid=4d4d367f-a355-42ba-9401-aabcc4802e8a"},"vehicle_type_id":"4","last_reported":1716037693,"current_range_meters":20400,"station_id":"ce4bhbh2rcd13ifvqeo0","pricing_plan_id":"cebpf4jnsgd1na2vs0mg"},{"bike_id":"45e3a040-c12b-4047-8025-b6b253231486","system_id":"levelo_inurba_marseille","lat":43.296034,"lon":5.381019,"is_reserved":false,"is_disabled":false,"rental_uris":{"android":"levelo://app?vid=45e3a040-c12b-4047-8025-b6b253231486","ios":"levelo://app?vid=45e3a040-c12b-4047-8025-b6b253231486"},"vehicle_type_id":"4","last_reported":1716037693,"current_range_meters":24000,"station_id":"","pricing_plan_id":"cebpf4jnsgd1na2vs0mg"},{"bike_id":"fc0ab1b0-d05a-40f4-a0dc-beae5a044117","system_id":"levelo_inurba_marseille","lat":43.29602,"lon":5.381084,"is_reserved":false,"is_disabled":false,"rental_uris":{"android":"levelo://app?vid=fc0ab1b0-d05a-40f4-a0dc-beae5a044117","ios":"levelo://app?vid=fc0ab1b0-d05a-40f4-a0dc-beae5a044117"},"vehicle_type_id":"4","last_reported":1716037693,"current_range_meters":18800,"station_id":"ce4bgl12rcd13ifvqbo0","pricing_plan_id":"cebpf4jnsgd1na2vs0mg"},{"bike_id":"8c944c12-d06f-4b94-80a3-34451e86fb9c","system_id":"levelo_inurba_marseille","lat":43.29864,"lon":5.38574,"is_reserved":false,"is_disabled":false,"rental_uris":{"android":"levelo://app?vid=8c944c12-d06f-4b94-80a3-34451e86fb9c","ios":"levelo://app?vid=8c944c12-d06f-4b94-80a3-34451e86fb9c"},"vehicle_type_id":"4","last_reported":1716037693,"current_range_meters":18800,"station_id":"","pricing_plan_id":"cebpf4jnsgd1na2vs0mg"},{"bike_id":"33114e58-97a7-4cc8-be86-bcd10854f896","system_id":"levelo_inurba_marseille","lat":43.293009,"lon":5.374584,"is_reserved":false,"is_disabled":false,"rental_uris":{"android":"levelo://app?vid=33114e58-97a7-4cc8-be86-bcd10854f896","ios":"levelo://app?vid=33114e58-97a7-4cc8-be86-bcd10854f896"},"vehicle_type_id":"4","last_reported":1716037693,"current_range_meters":13200,"station_id":"ce4bgi12rcd13ifvqb70","pricing_plan_id":"cebpf4jnsgd1na2vs0mg"},{"bike_id":"cdc4ebb7-59c8-4b34-b493-fa5c47c900c9","system_id":"levelo_inurba_marseille","lat":43.305994,"lon":5.393687,"is_reserved":false,"is_disabled":false,"rental_uris":{"android":"levelo://app?vid=cdc4ebb7-59c8-4b34-b493-fa5c47c900c9","ios":"levelo://app?vid=cdc4ebb7-59c8-4b34-b493-fa5c47c900c9"},"vehicle_type_id":"4","last_reported":1716037693,"current_range_meters":0,"station_id":"ce4bh0p2rcd13ifvqd80","pricing_plan_id":"cebpf4jnsgd1na2vs0mg"},{"bike_id":"697e9d9e-a114-4378-96d1-6a86efd295b6","system_id":"levelo_inurba_marseille","lat":43.293009,"lon":5.374584,"is_reserved":false,"is_disabled":false,"rental_uris":{"android":"levelo://app?vid=697e9d9e-a114-4378-96d1-6a86efd295b6","ios":"levelo://app?vid=697e9d9e-a114-4378-96d1-6a86efd295b6"},"vehicle_type_id":"4","last_reported":1716037693,"current_range_meters":24400,"station_id":"ce4bgi12rcd13ifvqb70","pricing_plan_id":"cebpf4jnsgd1na2vs0mg"},{"bike_id":"d948d9c8-27b4-4b80-b6ae-5049c31dfcc5","system_id":"levelo_inurba_marseille","lat":43.293009,"lon":5.374584,"is_reserved":false,"is_disabled":false,"rental_uris":{"android":"levelo://app?vid=d948d9c8-27b4-4b80-b6ae-5049c31dfcc5","ios":"levelo://app?vid=d948d9c8-27b4-4b80-b6ae-5049c31dfcc5"},"vehicle_type_id":"4","last_reported":1716037693,"current_range_meters":26800,"station_id":"ce4bgi12rcd13ifvqb70","pricing_plan_id":"cebpf4jnsgd1na2vs0mg"},{"bike_id":"951212fc-32db-4e9c-9d5e-d644f488aa85","system_id":"levelo_inurba_marseille","lat":43.2936,"lon":5.37835,"is_reserved":false,"is_disabled":false,"rental_uris":{"android":"levelo://app?vid=951212fc-32db-4e9c-9d5e-d644f488aa85","ios":"levelo://app?vid=951212fc-32db-4e9c-9d5e-d644f488aa85"},"vehicle_type_id":"4","last_reported":1716037693,"current_range_meters":27600,"station_id":"ce4bgjh2rcd13ifvqbf0","pricing_plan_id":"cebpf4jnsgd1na2vs0mg"},{"bike_id":"bfd2a143-a6b2-4033-b02a-9e2783a70206","system_id":"levelo_inurba_marseille","lat":43.293753,"lon":5.37854,"is_reserved":false,"is_disabled":false,"rental_uris":{"android":"levelo://app?vid=bfd2a143-a6b2-4033-b02a-9e2783a70206","ios":"levelo://app?vid=bfd2a143-a6b2-4033-b02a-9e2783a70206"},"vehicle_type_id":"4","last_reported":1716037693,"current_range_meters":0,"station_id":"ce4bgjh2rcd13ifvqbf0","pricing_plan_id":"cebpf4jnsgd1na2vs0mg"},{"bike_id":"572b61e8-ad03-4b26-ab37-09dc927158b9","system_id":"levelo_inurba_marseille","lat":43.2936,"lon":5.37835,"is_reserved":false,"is_disabled":false,"rental_uris":{"android":"levelo://app?vid=572b61e8-ad03-4b26-ab37-09dc927158b9","ios":"levelo://app?vid=572b61e8-ad03-4b26-ab37-09dc927158b9"},"vehicle_type_id":"4","last_reported":1716037693,"current_range_meters":2400,"station_id":"ce4bgjh2rcd13ifvqbf0","pricing_plan_id":"cebpf4jnsgd1na2vs0mg"},{"bike_id":"895694a1-9388-4eeb-8dbb-6bf5863da260","system_id":"levelo_inurba_marseille","lat":43.292311,"lon":5.360731,"is_reserved":false,"is_disabled":false,"rental_uris":{"android":"levelo://app?vid=895694a1-9388-4eeb-8dbb-6bf5863da260","ios":"levelo://app?vid=895694a1-9388-4eeb-8dbb-6bf5863da260"},"vehicle_type_id":"4","last_reported":1716037693,"current_range_meters":25200,"station_id":"ce4bhbh2rcd13ifvqeqg","pricing_plan_id":"cebpf4jnsgd1na2vs0mg"},{"bike_id":"dcf60a28-039a-4eac-8ce0-fc0f21f17ac7","system_id":"levelo_inurba_marseille","lat":43.293009,"lon":5.374584,"is_reserved":false,"is_disabled":false,"rental_uris":{"android":"levelo://app?vid=dcf60a28-039a-4eac-8ce0-fc0f21f17ac7","ios":"levelo://app?vid=dcf60a28-039a-4eac-8ce0-fc0f21f17ac7"},"vehicle_type_id":"4","last_reported":1716037693,"current_range_meters":16000,"station_id":"ce4bgi12rcd13ifvqb70","pricing_plan_id":"cebpf4jnsgd1na2vs0mg"},{"bike_id":"924ed4e6-b8a4-46c9-b4cd-41ec0e2bf58d","system_id":"levelo_inurba_marseille","lat":43.292311,"lon":5.360731,"is_reserved":false,"is_disabled":false,"rental_uris":{"android":"levelo://app?vid=924ed4e6-b8a4-46c9-b4cd-41ec0e2bf58d","ios":"levelo://app?vid=924ed4e6-b8a4-46c9-b4cd-41ec0e2bf58d"},"vehicle_type_id":"4","last_reported":1716037693,"current_range_meters":6800,"station_id":"ce4bhbh2rcd13ifvqeqg","pricing_plan_id":"cebpf4jnsgd1na2vs0mg"},{"bike_id":"035ffc7f-67cf-479c-9490-326474ff4a63","system_id":"levelo_inurba_marseille","lat":43.291675,"lon":5.371583,"is_reserved":false,"is_disabled":false,"rental_uris":{"android":"levelo://app?vid=035ffc7f-67cf-479c-9490-326474ff4a63","ios":"levelo://app?vid=035ffc7f-67cf-479c-9490-326474ff4a63"},"vehicle_type_id":"4","last_reported":1716037693,"current_range_meters":10800,"station_id":"ce4bha92rcd13ifvqeh0","pricing_plan_id":"cebpf4jnsgd1na2vs0mg"},{"bike_id":"89c9a43e-1557-4515-95f1-e6a81977a24c","system_id":"levelo_inurba_marseille","lat":43.292311,"lon":5.360731,"is_reserved":false,"is_disabled":false,"rental_uris":{"android":"levelo://app?vid=89c9a43e-1557-4515-95f1-e6a81977a24c","ios":"levelo://app?vid=89c9a43e-1557-4515-95f1-e6a81977a24c"},"vehicle_type_id":"4","last_reported":1716037693,"current_range_meters":0,"station_id":"ce4bhbh2rcd13ifvqeqg","pricing_plan_id":"cebpf4jnsgd1na2vs0mg"},{"bike_id":"d9148242-909f-4f03-988d-94561209186b","system_id":"levelo_inurba_marseille","lat":43.293009,"lon":5.374584,"is_reserved":false,"is_disabled":false,"rental_uris":{"android":"levelo://app?vid=d9148242-909f-4f03-988d-94561209186b","ios":"levelo://app?vid=d9148242-909f-4f03-988d-94561209186b"},"vehicle_type_id":"4","last_reported":1716037693,"current_range_meters":14400,"station_id":"ce4bgi12rcd13ifvqb70","pricing_plan_id":"cebpf4jnsgd1na2vs0mg"},{"bike_id":"d7c5518d-783d-4de9-97fd-767128acead4","system_id":"levelo_inurba_marseille","lat":43.291671,"lon":5.371575,"is_reserved":false,"is_disabled":false,"rental_uris":{"android":"levelo://app?vid=d7c5518d-783d-4de9-97fd-767128acead4","ios":"levelo://app?vid=d7c5518d-783d-4de9-97fd-767128acead4"},"vehicle_type_id":"4","last_reported":1716037693,"current_range_meters":11200,"station_id":"ce4bha92rcd13ifvqeh0","pricing_plan_id":"cebpf4jnsgd1na2vs0mg"},{"bike_id":"1f3e7094-272b-4556-8d17-ae3505035d12","system_id":"levelo_inurba_marseille","lat":43.293009,"lon":5.374584,"is_reserved":false,"is_disabled":false,"rental_uris":{"android":"levelo://app?vid=1f3e7094-272b-4556-8d17-ae3505035d12","ios":"levelo://app?vid=1f3e7094-272b-4556-8d17-ae3505035d12"},"vehicle_type_id":"4","last_reported":1716037693,"current_range_meters":5600,"station_id":"ce4bgi12rcd13ifvqb70","pricing_plan_id":"cebpf4jnsgd1na2vs0mg"},{"bike_id":"472fcdbf-3a1c-495f-b96a-8f36f977139e","system_id":"levelo_inurba_marseille","lat":43.291675,"lon":5.371583,"is_reserved":false,"is_disabled":false,"rental_uris":{"android":"levelo://app?vid=472fcdbf-3a1c-495f-b96a-8f36f977139e","ios":"levelo://app?vid=472fcdbf-3a1c-495f-b96a-8f36f977139e"},"vehicle_type_id":"4","last_reported":1716037693,"current_range_meters":21600,"station_id":"ce4bha92rcd13ifvqeh0","pricing_plan_id":"cebpf4jnsgd1na2vs0mg"},{"bike_id":"765e6e8f-7519-46b2-b0dc-c86a304834fc","system_id":"levelo_inurba_marseille","lat":43.291994,"lon":5.357886,"is_reserved":false,"is_disabled":false,"rental_uris":{"android":"levelo://app?vid=765e6e8f-7519-46b2-b0dc-c86a304834fc","ios":"levelo://app?vid=765e6e8f-7519-46b2-b0dc-c86a304834fc"},"vehicle_type_id":"4","last_reported":1716037693,"current_range_meters":0,"station_id":"ce4bhb12rcd13ifvqel0","pricing_plan_id":"cebpf4jnsgd1na2vs0mg"},{"bike_id":"47f142b5-2385-4c46-a17d-f8824ee5a59d","system_id":"levelo_inurba_marseille","lat":43.309038,"lon":5.396546,"is_reserved":false,"is_disabled":false,"rental_uris":{"android":"levelo://app?vid=47f142b5-2385-4c46-a17d-f8824ee5a59d","ios":"levelo://app?vid=47f142b5-2385-4c46-a17d-f8824ee5a59d"},"vehicle_type_id":"4","last_reported":1716037693,"current_range_meters":12000,"station_id":"ce4bh012rcd13ifvqcv0","pricing_plan_id":"cebpf4jnsgd1na2vs0mg"},{"bike_id":"8036cbee-c882-45c8-a1a9-0ee2eed2a63d","system_id":"levelo_inurba_marseille","lat":43.309047,"lon":5.396551,"is_reserved":false,"is_disabled":false,"rental_uris":{"android":"levelo://app?vid=8036cbee-c882-45c8-a1a9-0ee2eed2a63d","ios":"levelo://app?vid=8036cbee-c882-45c8-a1a9-0ee2eed2a63d"},"vehicle_type_id":"4","last_reported":1716037693,"current_range_meters":9200,"station_id":"ce4bh012rcd13ifvqcv0","pricing_plan_id":"cebpf4jnsgd1na2vs0mg"},{"bike_id":"a0ad73d6-37a6-4e29-b099-f7456cd8290f","system_id":"levelo_inurba_marseille","lat":43.308842,"lon":5.396464,"is_reserved":false,"is_disabled":false,"rental_uris":{"android":"levelo://app?vid=a0ad73d6-37a6-4e29-b099-f7456cd8290f","ios":"levelo://app?vid=a0ad73d6-37a6-4e29-b099-f7456cd8290f"},"vehicle_type_id":"4","last_reported":1716037693,"current_range_meters":30800,"station_id":"ce4bh012rcd13ifvqcv0","pricing_plan_id":"cebpf4jnsgd1na2vs0mg"},{"bike_id":"acd90165-cfe6-409d-8fc1-8489e96ca32a","system_id":"levelo_inurba_marseille","lat":43.30874,"lon":5.39647,"is_reserved":false,"is_disabled":false,"rental_uris":{"android":"levelo://app?vid=acd90165-cfe6-409d-8fc1-8489e96ca32a","ios":"levelo://app?vid=acd90165-cfe6-409d-8fc1-8489e96ca32a"},"vehicle_type_id":"4","last_reported":1716037693,"current_range_meters":14800,"station_id":"ce4bh012rcd13ifvqcv0","pricing_plan_id":"cebpf4jnsgd1na2vs0mg"},{"bike_id":"9f42f966-cef7-43c7-94f4-96a85331073f","system_id":"levelo_inurba_marseille","lat":43.313291,"lon":5.396838,"is_reserved":false,"is_disabled":false,"rental_uris":{"android":"levelo://app?vid=9f42f966-cef7-43c7-94f4-96a85331073f","ios":"levelo://app?vid=9f42f966-cef7-43c7-94f4-96a85331073f"},"vehicle_type_id":"4","last_reported":1716037693,"current_range_meters":31200,"station_id":"ce4bgvp2rcd13ifvqcu0","pricing_plan_id":"cebpf4jnsgd1na2vs0mg"},{"bike_id":"416e3757-a309-45ce-8556-bcb909e769fc","system_id":"levelo_inurba_marseille","lat":43.29533,"lon":5.38544,"is_reserved":false,"is_disabled":false,"rental_uris":{"android":"levelo://app?vid=416e3757-a309-45ce-8556-bcb909e769fc","ios":"levelo://app?vid=416e3757-a309-45ce-8556-bcb909e769fc"},"vehicle_type_id":"4","last_reported":1716037693,"current_range_meters":10800,"station_id":"","pricing_plan_id":"cebpf4jnsgd1na2vs0mg"},{"bike_id":"bed89853-ec92-47c5-885a-57aab5bf0c9b","system_id":"levelo_inurba_marseille","lat":43.290779,"lon":5.371482,"is_reserved":false,"is_disabled":false,"rental_uris":{"android":"levelo://app?vid=bed89853-ec92-47c5-885a-57aab5bf0c9b","ios":"levelo://app?vid=bed89853-ec92-47c5-885a-57aab5bf0c9b"},"vehicle_type_id":"4","last_reported":1716037693,"current_range_meters":22000,"station_id":"ce4bh5p2rcd13ifvqe4g","pricing_plan_id":"cebpf4jnsgd1na2vs0mg"},{"bike_id":"dc83b76d-4e51-45b0-8f1c-b2a3ad3f2c7a","system_id":"levelo_inurba_marseille","lat":43.290779,"lon":5.371482,"is_reserved":false,"is_disabled":false,"rental_uris":{"android":"levelo://app?vid=dc83b76d-4e51-45b0-8f1c-b2a3ad3f2c7a","ios":"levelo://app?vid=dc83b76d-4e51-45b0-8f1c-b2a3ad3f2c7a"},"vehicle_type_id":"4","last_reported":1716037693,"current_range_meters":8400,"station_id":"ce4bh5p2rcd13ifvqe4g","pricing_plan_id":"cebpf4jnsgd1na2vs0mg"},{"bike_id":"cf45eb69-9d33-45ab-976a-199c71ad55df","system_id":"levelo_inurba_marseille","lat":43.304274,"lon":5.397513,"is_reserved":false,"is_disabled":false,"rental_uris":{"android":"levelo://app?vid=cf45eb69-9d33-45ab-976a-199c71ad55df","ios":"levelo://app?vid=cf45eb69-9d33-45ab-976a-199c71ad55df"},"vehicle_type_id":"4","last_reported":1716037693,"current_range_meters":20400,"station_id":"ce4bh092rcd13ifvqd20","pricing_plan_id":"cebpf4jnsgd1na2vs0mg"},{"bike_id":"da2d4368-039a-4be5-8f25-eaac9afe5893","system_id":"levelo_inurba_marseille","lat":43.290319,"lon":5.375732,"is_reserved":false,"is_disabled":false,"rental_uris":{"android":"levelo://app?vid=da2d4368-039a-4be5-8f25-eaac9afe5893","ios":"levelo://app?vid=da2d4368-039a-4be5-8f25-eaac9afe5893"},"vehicle_type_id":"4","last_reported":1716037693,"current_range_meters":0,"station_id":"ce4bh692rcd13ifvqe90","pricing_plan_id":"cebpf4jnsgd1na2vs0mg"},{"bike_id":"d1756240-76de-4da3-80c3-2f6e51efc068","system_id":"levelo_inurba_marseille","lat":43.289639,"lon":5.366663,"is_reserved":false,"is_disabled":false,"rental_uris":{"android":"levelo://app?vid=d1756240-76de-4da3-80c3-2f6e51efc068","ios":"levelo://app?vid=d1756240-76de-4da3-80c3-2f6e51efc068"},"vehicle_type_id":"4","last_reported":1716037693,"current_range_meters":1600,"station_id":"ce4bhap2rcd13ifvqek0","pricing_plan_id":"cebpf4jnsgd1na2vs0mg"},{"bike_id":"2e9f0142-6c42-4558-8ebb-c6434e581888","system_id":"levelo_inurba_marseille","lat":43.290319,"lon":5.375732,"is_reserved":false,"is_disabled":false,"rental_uris":{"android":"levelo://app?vid=2e9f0142-6c42-4558-8ebb-c6434e581888","ios":"levelo://app?vid=2e9f0142-6c42-4558-8ebb-c6434e581888"},"vehicle_type_id":"4","last_reported":1716037693,"current_range_meters":22000,"station_id":"ce4bh692rcd13ifvqe90","pricing_plan_id":"cebpf4jnsgd1na2vs0mg"},{"bike_id":"0b11781c-e469-4b57-a1f4-b47c03a7575a","system_id":"levelo_inurba_marseille","lat":43.289468,"lon":5.363719,"is_reserved":false,"is_disabled":false,"rental_uris":{"android":"levelo://app?vid=0b11781c-e469-4b57-a1f4-b47c03a7575a","ios":"levelo://app?vid=0b11781c-e469-4b57-a1f4-b47c03a7575a"},"vehicle_type_id":"4","last_reported":1716037693,"current_range_meters":0,"station_id":"ce4bhc92rcd13ifvqetg","pricing_plan_id":"cebpf4jnsgd1na2vs0mg"},{"bike_id":"9b1ed111-133a-42be-b7fd-0dc45141a6d8","system_id":"levelo_inurba_marseille","lat":43.290327,"lon":5.375711,"is_reserved":false,"is_disabled":false,"rental_uris":{"android":"levelo://app?vid=9b1ed111-133a-42be-b7fd-0dc45141a6d8","ios":"levelo://app?vid=9b1ed111-133a-42be-b7fd-0dc45141a6d8"},"vehicle_type_id":"4","last_reported":1716037693,"current_range_meters":0,"station_id":"ce4bh692rcd13ifvqe90","pricing_plan_id":"cebpf4jnsgd1na2vs0mg"},{"bike_id":"8224c99d-cfc5-4847-a981-0091f9acf591","system_id":"levelo_inurba_marseille","lat":43.290327,"lon":5.375711,"is_reserved":false,"is_disabled":false,"rental_uris":{"android":"levelo://app?vid=8224c99d-cfc5-4847-a981-0091f9acf591","ios":"levelo://app?vid=8224c99d-cfc5-4847-a981-0091f9acf591"},"vehicle_type_id":"4","last_reported":1716037693,"current_range_meters":0,"station_id":"ce4bh692rcd13ifvqe90","pricing_plan_id":"cebpf4jnsgd1na2vs0mg"},{"bike_id":"238708ed-6c88-4a94-8ad2-1d243166e9a7","system_id":"levelo_inurba_marseille","lat":43.289184,"lon":5.366408,"is_reserved":false,"is_disabled":false,"rental_uris":{"android":"levelo://app?vid=238708ed-6c88-4a94-8ad2-1d243166e9a7","ios":"levelo://app?vid=238708ed-6c88-4a94-8ad2-1d243166e9a7"},"vehicle_type_id":"4","last_reported":1716037693,"current_range_meters":3600,"station_id":"ce4bhap2rcd13ifvqek0","pricing_plan_id":"cebpf4jnsgd1na2vs0mg"},{"bike_id":"ef713df1-79d0-4105-8d20-f7484d239242","system_id":"levelo_inurba_marseille","lat":43.28933,"lon":5.36652,"is_reserved":false,"is_disabled":false,"rental_uris":{"android":"levelo://app?vid=ef713df1-79d0-4105-8d20-f7484d239242","ios":"levelo://app?vid=ef713df1-79d0-4105-8d20-f7484d239242"},"vehicle_type_id":"4","last_reported":1716037693,"current_range_meters":0,"station_id":"ce4bhap2rcd13ifvqek0","pricing_plan_id":"cebpf4jnsgd1na2vs0mg"},{"bike_id":"40e79a71-258f-4c2f-a853-2ef07494ca42","system_id":"levelo_inurba_marseille","lat":43.28933,"lon":5.36638,"is_reserved":false,"is_disabled":false,"rental_uris":{"android":"levelo://app?vid=40e79a71-258f-4c2f-a853-2ef07494ca42","ios":"levelo://app?vid=40e79a71-258f-4c2f-a853-2ef07494ca42"},"vehicle_type_id":"4","last_reported":1716037693,"current_range_meters":2000,"station_id":"ce4bhap2rcd13ifvqek0","pricing_plan_id":"cebpf4jnsgd1na2vs0mg"},{"bike_id":"97c9968b-3618-4851-9ec6-602f11f4a869","system_id":"levelo_inurba_marseille","lat":43.30417,"lon":5.39749,"is_reserved":false,"is_disabled":false,"rental_uris":{"android":"levelo://app?vid=97c9968b-3618-4851-9ec6-602f11f4a869","ios":"levelo://app?vid=97c9968b-3618-4851-9ec6-602f11f4a869"},"vehicle_type_id":"4","last_reported":1716037693,"current_range_meters":14800,"station_id":"ce4bh092rcd13ifvqd20","pricing_plan_id":"cebpf4jnsgd1na2vs0mg"},{"bike_id":"e08f2ee2-01e7-4feb-9d7b-a3195b02c817","system_id":"levelo_inurba_marseille","lat":43.292644,"lon":5.384257,"is_reserved":false,"is_disabled":false,"rental_uris":{"android":"levelo://app?vid=e08f2ee2-01e7-4feb-9d7b-a3195b02c817","ios":"levelo://app?vid=e08f2ee2-01e7-4feb-9d7b-a3195b02c817"},"vehicle_type_id":"4","last_reported":1716037693,"current_range_meters":2400,"station_id":"ce4bh692rcd13ifvqea0","pricing_plan_id":"cebpf4jnsgd1na2vs0mg"},{"bike_id":"bf3be97d-3090-4fdd-837b-2f43c5e67b25","system_id":"levelo_inurba_marseille","lat":43.29259,"lon":5.38447,"is_reserved":false,"is_disabled":false,"rental_uris":{"android":"levelo://app?vid=bf3be97d-3090-4fdd-837b-2f43c5e67b25","ios":"levelo://app?vid=bf3be97d-3090-4fdd-837b-2f43c5e67b25"},"vehicle_type_id":"4","last_reported":1716037693,"current_range_meters":0,"station_id":"ce4bh692rcd13ifvqea0","pricing_plan_id":"cebpf4jnsgd1na2vs0mg"},{"bike_id":"ad45e062-1e5b-4fae-9c63-049d6b6acc26","system_id":"levelo_inurba_marseille","lat":43.290103,"lon":5.356114,"is_reserved":false,"is_disabled":false,"rental_uris":{"android":"levelo://app?vid=ad45e062-1e5b-4fae-9c63-049d6b6acc26","ios":"levelo://app?vid=ad45e062-1e5b-4fae-9c63-049d6b6acc26"},"vehicle_type_id":"4","last_reported":1716037693,"current_range_meters":17600,"station_id":"ce4bhb92rcd13ifvqen0","pricing_plan_id":"cebpf4jnsgd1na2vs0mg"},{"bike_id":"5bb37b5f-9e97-4f59-8b9e-c258b464aa6d","system_id":"levelo_inurba_marseille","lat":43.290104,"lon":5.356111,"is_reserved":false,"is_disabled":false,"rental_uris":{"android":"levelo://app?vid=5bb37b5f-9e97-4f59-8b9e-c258b464aa6d","ios":"levelo://app?vid=5bb37b5f-9e97-4f59-8b9e-c258b464aa6d"},"vehicle_type_id":"4","last_reported":1716037693,"current_range_meters":4800,"station_id":"ce4bhb92rcd13ifvqen0","pricing_plan_id":"cebpf4jnsgd1na2vs0mg"},{"bike_id":"bbd405b9-f5b9-44f1-9f04-f08f61991598","system_id":"levelo_inurba_marseille","lat":43.295169,"lon":5.390426,"is_reserved":false,"is_disabled":false,"rental_uris":{"android":"levelo://app?vid=bbd405b9-f5b9-44f1-9f04-f08f61991598","ios":"levelo://app?vid=bbd405b9-f5b9-44f1-9f04-f08f61991598"},"vehicle_type_id":"4","last_reported":1716037693,"current_range_meters":28000,"station_id":"ce4bh3p2rcd13ifvqdp0","pricing_plan_id":"cebpf4jnsgd1na2vs0mg"},{"bike_id":"cb4d76ca-0b97-49ef-83a5-4cf715774202","system_id":"levelo_inurba_marseille","lat":43.289741,"lon":5.378306,"is_reserved":false,"is_disabled":false,"rental_uris":{"android":"levelo://app?vid=cb4d76ca-0b97-49ef-83a5-4cf715774202","ios":"levelo://app?vid=cb4d76ca-0b97-49ef-83a5-4cf715774202"},"vehicle_type_id":"4","last_reported":1716037693,"current_range_meters":2000,"station_id":"ce4bh9p2rcd13ifvqed0","pricing_plan_id":"cebpf4jnsgd1na2vs0mg"},{"bike_id":"f8d2030f-3f7c-468f-82ae-8590da84228d","system_id":"levelo_inurba_marseille","lat":43.2901,"lon":5.381269,"is_reserved":false,"is_disabled":false,"rental_uris":{"android":"levelo://app?vid=f8d2030f-3f7c-468f-82ae-8590da84228d","ios":"levelo://app?vid=f8d2030f-3f7c-468f-82ae-8590da84228d"},"vehicle_type_id":"4","last_reported":1716037693,"current_range_meters":0,"station_id":"ce4bh4p2rcd13ifvqe1g","pricing_plan_id":"cebpf4jnsgd1na2vs0mg"},{"bike_id":"dc2233f9-7052-4d26-b4dd-d762cdf84d52","system_id":"levelo_inurba_marseille","lat":43.28856,"lon":5.358371,"is_reserved":false,"is_disabled":false,"rental_uris":{"android":"levelo://app?vid=dc2233f9-7052-4d26-b4dd-d762cdf84d52","ios":"levelo://app?vid=dc2233f9-7052-4d26-b4dd-d762cdf84d52"},"vehicle_type_id":"4","last_reported":1716037693,"current_range_meters":30800,"station_id":"ce4bhb12rcd13ifvqem0","pricing_plan_id":"cebpf4jnsgd1na2vs0mg"},{"bike_id":"000adbfb-701f-4154-b569-83a5201c19f9","system_id":"levelo_inurba_marseille","lat":43.312786,"lon":5.401669,"is_reserved":false,"is_disabled":false,"rental_uris":{"android":"levelo://app?vid=000adbfb-701f-4154-b569-83a5201c19f9","ios":"levelo://app?vid=000adbfb-701f-4154-b569-83a5201c19f9"},"vehicle_type_id":"4","last_reported":1716037693,"current_range_meters":19200,"station_id":"ce4bh092rcd13ifvqd30","pricing_plan_id":"cebpf4jnsgd1na2vs0mg"},{"bike_id":"44702951-2c53-4a07-9b7b-a83d9f6c2245","system_id":"levelo_inurba_marseille","lat":43.312719,"lon":5.401676,"is_reserved":false,"is_disabled":false,"rental_uris":{"android":"levelo://app?vid=44702951-2c53-4a07-9b7b-a83d9f6c2245","ios":"levelo://app?vid=44702951-2c53-4a07-9b7b-a83d9f6c2245"},"vehicle_type_id":"4","last_reported":1716037693,"current_range_meters":30000,"station_id":"ce4bh092rcd13ifvqd30","pricing_plan_id":"cebpf4jnsgd1na2vs0mg"},{"bike_id":"4fa81c91-a39d-4160-93d7-b314e9fd0ee8","system_id":"levelo_inurba_marseille","lat":43.33745,"lon":5.37453,"is_reserved":false,"is_disabled":false,"rental_uris":{"android":"levelo://app?vid=4fa81c91-a39d-4160-93d7-b314e9fd0ee8","ios":"levelo://app?vid=4fa81c91-a39d-4160-93d7-b314e9fd0ee8"},"vehicle_type_id":"4","last_reported":1716037693,"current_range_meters":13600,"station_id":"","pricing_plan_id":"cebpf4jnsgd1na2vs0mg"},{"bike_id":"c49dda77-e31d-4231-b049-5eda1ee27c3a","system_id":"levelo_inurba_marseille","lat":43.31265,"lon":5.40178,"is_reserved":false,"is_disabled":false,"rental_uris":{"android":"levelo://app?vid=c49dda77-e31d-4231-b049-5eda1ee27c3a","ios":"levelo://app?vid=c49dda77-e31d-4231-b049-5eda1ee27c3a"},"vehicle_type_id":"4","last_reported":1716037693,"current_range_meters":28800,"station_id":"","pricing_plan_id":"cebpf4jnsgd1na2vs0mg"},{"bike_id":"b40acab5-1f60-47e3-8cd4-a1769c17b1d8","system_id":"levelo_inurba_marseille","lat":43.337516,"lon":5.374768,"is_reserved":false,"is_disabled":false,"rental_uris":{"android":"levelo://app?vid=b40acab5-1f60-47e3-8cd4-a1769c17b1d8","ios":"levelo://app?vid=b40acab5-1f60-47e3-8cd4-a1769c17b1d8"},"vehicle_type_id":"4","last_reported":1716037693,"current_range_meters":31200,"station_id":"","pricing_plan_id":"cebpf4jnsgd1na2vs0mg"},{"bike_id":"8fc6ebe8-68ab-4991-9aa7-185ef6592e71","system_id":"levelo_inurba_marseille","lat":43.337568,"lon":5.37449,"is_reserved":false,"is_disabled":false,"rental_uris":{"android":"levelo://app?vid=8fc6ebe8-68ab-4991-9aa7-185ef6592e71","ios":"levelo://app?vid=8fc6ebe8-68ab-4991-9aa7-185ef6592e71"},"vehicle_type_id":"4","last_reported":1716037693,"current_range_meters":12000,"station_id":"","pricing_plan_id":"cebpf4jnsgd1na2vs0mg"},{"bike_id":"91d9714b-b35f-47ce-8f34-022bf351236f","system_id":"levelo_inurba_marseille","lat":43.337642,"lon":5.374393,"is_reserved":false,"is_disabled":false,"rental_uris":{"android":"levelo://app?vid=91d9714b-b35f-47ce-8f34-022bf351236f","ios":"levelo://app?vid=91d9714b-b35f-47ce-8f34-022bf351236f"},"vehicle_type_id":"4","last_reported":1716037693,"current_range_meters":21200,"station_id":"","pricing_plan_id":"cebpf4jnsgd1na2vs0mg"},{"bike_id":"0e999fcc-4159-4789-a673-5804435efca9","system_id":"levelo_inurba_marseille","lat":43.33762,"lon":5.37463,"is_reserved":false,"is_disabled":false,"rental_uris":{"android":"levelo://app?vid=0e999fcc-4159-4789-a673-5804435efca9","ios":"levelo://app?vid=0e999fcc-4159-4789-a673-5804435efca9"},"vehicle_type_id":"4","last_reported":1716037693,"current_range_meters":28000,"station_id":"","pricing_plan_id":"cebpf4jnsgd1na2vs0mg"},{"bike_id":"1abe25d7-55b2-4e8c-9f23-6272c16b5035","system_id":"levelo_inurba_marseille","lat":43.33765,"lon":5.37445,"is_reserved":false,"is_disabled":false,"rental_uris":{"android":"levelo://app?vid=1abe25d7-55b2-4e8c-9f23-6272c16b5035","ios":"levelo://app?vid=1abe25d7-55b2-4e8c-9f23-6272c16b5035"},"vehicle_type_id":"4","last_reported":1716037693,"current_range_meters":22400,"station_id":"","pricing_plan_id":"cebpf4jnsgd1na2vs0mg"},{"bike_id":"b7fe6af7-d833-4459-b6c7-b77cfdd198b0","system_id":"levelo_inurba_marseille","lat":43.33771,"lon":5.37421,"is_reserved":false,"is_disabled":false,"rental_uris":{"android":"levelo://app?vid=b7fe6af7-d833-4459-b6c7-b77cfdd198b0","ios":"levelo://app?vid=b7fe6af7-d833-4459-b6c7-b77cfdd198b0"},"vehicle_type_id":"4","last_reported":1716037693,"current_range_meters":29600,"station_id":"","pricing_plan_id":"cebpf4jnsgd1na2vs0mg"},{"bike_id":"46f1cfc6-0c4e-4e17-b18e-d3693af5a262","system_id":"levelo_inurba_marseille","lat":43.301117,"lon":5.398795,"is_reserved":false,"is_disabled":false,"rental_uris":{"android":"levelo://app?vid=46f1cfc6-0c4e-4e17-b18e-d3693af5a262","ios":"levelo://app?vid=46f1cfc6-0c4e-4e17-b18e-d3693af5a262"},"vehicle_type_id":"4","last_reported":1716037693,"current_range_meters":4400,"station_id":"ce4bh0h2rcd13ifvqd40","pricing_plan_id":"cebpf4jnsgd1na2vs0mg"},{"bike_id":"55d1f34b-2a1e-40b3-9bc6-0dd7dbe9963d","system_id":"levelo_inurba_marseille","lat":43.301117,"lon":5.398795,"is_reserved":false,"is_disabled":false,"rental_uris":{"android":"levelo://app?vid=55d1f34b-2a1e-40b3-9bc6-0dd7dbe9963d","ios":"levelo://app?vid=55d1f34b-2a1e-40b3-9bc6-0dd7dbe9963d"},"vehicle_type_id":"4","last_reported":1716037693,"current_range_meters":20000,"station_id":"ce4bh0h2rcd13ifvqd40","pricing_plan_id":"cebpf4jnsgd1na2vs0mg"},{"bike_id":"072751ca-6869-4071-9ea3-9adef2c1fc52","system_id":"levelo_inurba_marseille","lat":43.301117,"lon":5.398795,"is_reserved":false,"is_disabled":false,"rental_uris":{"android":"levelo://app?vid=072751ca-6869-4071-9ea3-9adef2c1fc52","ios":"levelo://app?vid=072751ca-6869-4071-9ea3-9adef2c1fc52"},