{"last_updated":1743775784,"ttl":60,"version":"2.2","data":{"bikes":[{"bike_id":"32a978e0-d0c2-43d4-9b03-19a5c41c27de","system_id":"levelo_inurba_marseille","lat":43.31078,"lon":5.38356,"is_reserved":false,"is_disabled":true,"rental_uris":{"android":"levelo://app?vid=32a978e0-d0c2-43d4-9b03-19a5c41c27de","ios":"levelo://app?vid=32a978e0-d0c2-43d4-9b03-19a5c41c27de"},"vehicle_type_id":"4","last_reported":1743775784,"current_range_meters":2800,"station_id":"ce4bgv92rcd13ifvqcr0","pricing_plan_id":"cebpf4jnsgd1na2vs0mg"},{"bike_id":"60bba322-fc10-4e97-9c08-48a643252cca","system_id":"levelo_inurba_marseille","lat":43.23225,"lon":5.35556,"is_reserved":false,"is_disabled":false,"rental_uris":{"android":"levelo://app?vid=60bba322-fc10-4e97-9c08-48a643252cca","ios":"levelo://app?vid=60bba322-fc10-4e97-9c08-48a643252cca"},"vehicle_type_id":"4","last_reported":1743775784,"current_range_meters":2800,"station_id":"ce4bhu92rcd13ifvqi70","pricing_plan_id":"cebpf4jnsgd1na2vs0mg"},{"bike_id":"09d2cf6d-2422-4a5e-916c-b097377c73dd","system_id":"levelo_inurba_marseille","lat":43.24663,"lon":5.3816,"is_reserved":false,"is_disabled":false,"rental_uris":{"android":"levelo://app?vid=09d2cf6d-2422-4a5e-916c-b097377c73dd","ios":"levelo://app?vid=09d2cf6d-2422-4a5e-916c-b097377c73dd"},"vehicle_type_id":"4","last_reported":1743775784,"current_range_meters":2800,"station_id":"ce4bhih2rcd13ifvqfr0","pricing_plan_id":"cebpf4jnsgd1na2vs0mg"},{"bike_id":"b930bc6a-4719-4be4-9e06-970609a895fc","system_id":"levelo_inurba_marseille","lat":43.2937,"lon":5.37863,"is_reserved":false,"is_disabled":false,"rental_uris":{"android":"levelo://app?vid=b930bc6a-4719-4be4-9e06-970609a895fc","ios":"levelo://app?vid=b930bc6a-4719-4be4-9e06-970609a895fc"},"vehicle_type_id":"4","last_reported":1743775784,"current_range_meters":2800,"station_id":"ce4bgjh2rcd13ifvqbf0","pricing_plan_id":"cebpf4jnsgd1na2vs0mg"},{"bike_id":"063bd687-214f-4b5e-b2eb-6005d6f1c8ca","system_id":"levelo_inurba_marseille","lat":43.29047,"lon":5.369676,"is_reserved":false,"is_disabled":false,"rental_uris":{"android":"levelo://app?vid=063bd687-214f-4b5e-b2eb-6005d6f1c8ca","ios":"levelo://app?vid=063bd687-214f-4b5e-b2eb-6005d6f1c8ca"},"vehicle_type_id":"4","last_reported":1743775784,"current_range_meters":3200,"station_id":"","pricing_plan_id":"cebpf4jnsgd1na2vs0mg"},{"bike_id":"4466ce54-2b21-4727-a476-b1a378127f60","system_id":"levelo_inurba_marseille","lat":43.31765,"lon":5.39021,"is_reserved":false,"is_disabled":false,"rental_uris":{"android":"levelo://app?vid=4466ce54-2b21-4727-a476-b1a378127f60","ios":"levelo://app?vid=4466ce54-2b21-4727-a476-b1a378127f60"},"vehicle_type_id":"4","last_reported":1743775784,"current_range_meters":3200,"station_id":"ce4bhqp2rcd13ifvqhng","pricing_plan_id":"cebpf4jnsgd1na2vs0mg"},{"bike_id":"4e967a91-817c-491f-9d9f-2e92ff35d2dc","system_id":"levelo_inurba_marseille","lat":43.29624,"lon":5.37738,"is_reserved":false,"is_disabled":false,"rental_uris":{"android":"levelo://app?vid=4e967a91-817c-491f-9d9f-2e92ff35d2dc","ios":"levelo://app?vid=4e967a91-817c-491f-9d9f-2e92ff35d2dc"},"vehicle_type_id":"4","last_reported":1743775784,"current_range_meters":3200,"station_id":"ce4bgi92rcd13ifvqb90","pricing_plan_id":"cebpf4jnsgd1na2vs0mg"},{"bike_id":"9bd50dce-6737-4e67-ac0d-b3ec19a042e4","system_id":"levelo_inurba_marseille","lat":43.30131,"lon":5.38769,"is_reserved":false,"is_disabled":false,"rental_uris":{"android":"levelo://app?vid=9bd50dce-6737-4e67-ac0d-b3ec19a042e4","ios":"levelo://app?vid=9bd50dce-6737-4e67-ac0d-b3ec19a042e4"},"vehicle_type_id":"4","last_reported":1743775784,"current_range_meters":3600,"station_id":"ce4bghh2rcd13ifvqb60","pricing_plan_id":"cebpf4jnsgd1na2vs0mg"},{"bike_id":"dce0f35a-a125-462e-a96b-ad335077e2df","system_id":"levelo_inurba_marseille","lat":43.2884,"lon":5.3931,"is_reserved":false,"is_disabled":false,"rental_uris":{"android":"levelo://app?vid=dce0f35a-a125-462e-a96b-ad335077e2df","ios":"levelo://app?vid=dce0f35a-a125-462e-a96b-ad335077e2df"},"vehicle_type_id":"4","last_reported":1743775784,"current_range_meters":3600,"station_id":"ce4bh2p2rcd13ifvqdi0","pricing_plan_id":"cebpf4jnsgd1na2vs0mg"},{"bike_id":"cfa21125-fa09-419a-9ee0-a0a464c8b7ed","system_id":"levelo_inurba_marseille","lat":43.25936,"lon":5.4091,"is_reserved":false,"is_disabled":false,"rental_uris":{"android":"levelo://app?vid=cfa21125-fa09-419a-9ee0-a0a464c8b7ed","ios":"levelo://app?vid=cfa21125-fa09-419a-9ee0-a0a464c8b7ed"},"vehicle_type_id":"4","last_reported":1743775784,"current_range_meters":4000,"station_id":"ce4bhm92rcd13ifvqglg","pricing_plan_id":"cebpf4jnsgd1na2vs0mg"},{"bike_id":"cc197dbe-6b0d-4875-9639-e9874b9ef759","system_id":"levelo_inurba_marseille","lat":43.30149,"lon":5.37406,"is_reserved":false,"is_disabled":false,"rental_uris":{"android":"levelo://app?vid=cc197dbe-6b0d-4875-9639-e9874b9ef759","ios":"levelo://app?vid=cc197dbe-6b0d-4875-9639-e9874b9ef759"},"vehicle_type_id":"4","last_reported":1743775784,"current_range_meters":4000,"station_id":"ce4bgs92rcd13ifvqcc0","pricing_plan_id":"cebpf4jnsgd1na2vs0mg"},{"bike_id":"36ca50b8-55fa-4385-826c-7002bac178d5","system_id":"levelo_inurba_marseille","lat":43.29006,"lon":5.35608,"is_reserved":false,"is_disabled":false,"rental_uris":{"android":"levelo://app?vid=36ca50b8-55fa-4385-826c-7002bac178d5","ios":"levelo://app?vid=36ca50b8-55fa-4385-826c-7002bac178d5"},"vehicle_type_id":"4","last_reported":1743775784,"current_range_meters":4000,"station_id":"ce4bhb92rcd13ifvqen0","pricing_plan_id":"cebpf4jnsgd1na2vs0mg"},{"bike_id":"8bec26e5-c612-4e81-9556-9f3c0b042f74","system_id":"levelo_inurba_marseille","lat":43.34307,"lon":5.38497,"is_reserved":false,"is_disabled":false,"rental_uris":{"android":"levelo://app?vid=8bec26e5-c612-4e81-9556-9f3c0b042f74","ios":"levelo://app?vid=8bec26e5-c612-4e81-9556-9f3c0b042f74"},"vehicle_type_id":"4","last_reported":1743775784,"current_range_meters":4400,"station_id":"","pricing_plan_id":"cebpf4jnsgd1na2vs0mg"},{"bike_id":"4c82b4ca-4e94-4b20-8fc4-a30a5c24d5ae","system_id":"levelo_inurba_marseille","lat":43.28282,"lon":5.35083,"is_reserved":false,"is_disabled":false,"rental_uris":{"android":"levelo://app?vid=4c82b4ca-4e94-4b20-8fc4-a30a5c24d5ae","ios":"levelo://app?vid=4c82b4ca-4e94-4b20-8fc4-a30a5c24d5ae"},"vehicle_type_id":"4","last_reported":1743775784,"current_range_meters":4400,"station_id":"ce4bhbp2rcd13ifvqerg","pricing_plan_id":"cebpf4jnsgd1na2vs0mg"},{"bike_id":"cfac7f2f-9679-4b60-a420-122c25601ef1","system_id":"levelo_inurba_marseille","lat":43.25581,"lon":5.38231,"is_reserved":false,"is_disabled":false,"rental_uris":{"android":"levelo://app?vid=cfac7f2f-9679-4b60-a420-122c25601ef1","ios":"levelo://app?vid=cfac7f2f-9679-4b60-a420-122c25601ef1"},"vehicle_type_id":"4","last_reported":1743775784,"current_range_meters":4400,"station_id":"ce4bhih2rcd13ifvqfs0","pricing_plan_id":"cebpf4jnsgd1na2vs0mg"},{"bike_id":"5878c2c8-ea83-4a98-803d-1f16ced5bca9","system_id":"levelo_inurba_marseille","lat":43.23154,"lon":5.437,"is_reserved":false,"is_disabled":false,"rental_uris":{"android":"levelo://app?vid=5878c2c8-ea83-4a98-803d-1f16ced5bca9","ios":"levelo://app?vid=5878c2c8-ea83-4a98-803d-1f16ced5bca9"},"vehicle_type_id":"4","last_reported":1743775784,"current_range_meters":4400,"station_id":"ce4bhmp2rcd13ifvqgog","pricing_plan_id":"cebpf4jnsgd1na2vs0mg"},{"bike_id":"6074ee9b-8645-49de-b3cd-5f79dfd48f95","system_id":"levelo_inurba_marseille","lat":43.2656,"lon":5.37284,"is_reserved":false,"is_disabled":false,"rental_uris":{"android":"levelo://app?vid=6074ee9b-8645-49de-b3cd-5f79dfd48f95","ios":"levelo://app?vid=6074ee9b-8645-49de-b3cd-5f79dfd48f95"},"vehicle_type_id":"4","last_reported":1743775784,"current_range_meters":4400,"station_id":"ce4bhg12rcd13ifvqf70","pricing_plan_id":"cebpf4jnsgd1na2vs0mg"},{"bike_id":"188846d1-be4c-45b9-b680-78935dc8106a","system_id":"levelo_inurba_marseille","lat":43.23057,"lon":5.35497,"is_reserved":false,"is_disabled":false,"rental_uris":{"android":"levelo://app?vid=188846d1-be4c-45b9-b680-78935dc8106a","ios":"levelo://app?vid=188846d1-be4c-45b9-b680-78935dc8106a"},"vehicle_type_id":"4","last_reported":1743775784,"current_range_meters":4400,"station_id":"cpo3342slgdg3j2ifvpg","pricing_plan_id":"cebpf4jnsgd1na2vs0mg"},{"bike_id":"368f4bb2-2b21-46e3-a3b6-1375c727d4a2","system_id":"levelo_inurba_marseille","lat":43.25717,"lon":5.41114,"is_reserved":false,"is_disabled":false,"rental_uris":{"android":"levelo://app?vid=368f4bb2-2b21-46e3-a3b6-1375c727d4a2","ios":"levelo://app?vid=368f4bb2-2b21-46e3-a3b6-1375c727d4a2"},"vehicle_type_id":"4","last_reported":1743775784,"current_range_meters":4800,"station_id":"ce4bhkp2rcd13ifvqgd0","pricing_plan_id":"cebpf4jnsgd1na2vs0mg"},{"bike_id":"cd83c8ac-ed09-4369-9279-b6f36f2bbd3c","system_id":"levelo_inurba_marseille","lat":43.30809,"lon":5.38169,"is_reserved":false,"is_disabled":false,"rental_uris":{"android":"levelo://app?vid=cd83c8ac-ed09-4369-9279-b6f36f2bbd3c","ios":"levelo://app?vid=cd83c8ac-ed09-4369-9279-b6f36f2bbd3c"},"vehicle_type_id":"4","last_reported":1743775784,"current_range_meters":4800,"station_id":"ce4bgt12rcd13ifvqce0","pricing_plan_id":"cebpf4jnsgd1na2vs0mg"},{"bike_id":"bcb1b680-a992-4eaf-9ef8-0b46d0178b54","system_id":"levelo_inurba_marseille","lat":43.27911,"lon":5.39584,"is_reserved":false,"is_disabled":false,"rental_uris":{"android":"levelo://app?vid=bcb1b680-a992-4eaf-9ef8-0b46d0178b54","ios":"levelo://app?vid=bcb1b680-a992-4eaf-9ef8-0b46d0178b54"},"vehicle_type_id":"4","last_reported":1743775784,"current_range_meters":4800,"station_id":"ce4bhf92rcd13ifvqf40","pricing_plan_id":"cebpf4jnsgd1na2vs0mg"},{"bike_id":"325e569f-72f5-4596-a7ed-9d08d09aadd9","system_id":"levelo_inurba_marseille","lat":43.29544,"lon":5.38536,"is_reserved":false,"is_disabled":false,"rental_uris":{"android":"levelo://app?vid=325e569f-72f5-4596-a7ed-9d08d09aadd9","ios":"levelo://app?vid=325e569f-72f5-4596-a7ed-9d08d09aadd9"},"vehicle_type_id":"4","last_reported":1743775784,"current_range_meters":4800,"station_id":"ce4bgih2rcd13ifvqba0","pricing_plan_id":"cebpf4jnsgd1na2vs0mg"},{"bike_id":"48ff67c1-bc40-427c-9d8d-23c218112c3c","system_id":"levelo_inurba_marseille","lat":43.26231,"lon":5.4045,"is_reserved":false,"is_disabled":false,"rental_uris":{"android":"levelo://app?vid=48ff67c1-bc40-427c-9d8d-23c218112c3c","ios":"levelo://app?vid=48ff67c1-bc40-427c-9d8d-23c218112c3c"},"vehicle_type_id":"4","last_reported":1743775784,"current_range_meters":4800,"station_id":"ce4bhmh2rcd13ifvqgmg","pricing_plan_id":"cebpf4jnsgd1na2vs0mg"},{"bike_id":"3b669ad8-cb75-43ae-bcda-2cac2763cae8","system_id":"levelo_inurba_marseille","lat":43.275182,"lon":5.424381,"is_reserved":false,"is_disabled":false,"rental_uris":{"android":"levelo://app?vid=3b669ad8-cb75-43ae-bcda-2cac2763cae8","ios":"levelo://app?vid=3b669ad8-cb75-43ae-bcda-2cac2763cae8"},"vehicle_type_id":"4","last_reported":1743775784,"current_range_meters":5600,"station_id":"ce4bhn92rcd13ifvqgrg","pricing_plan_id":"cebpf4jnsgd1na2vs0mg"},{"bike_id":"90cf7432-42c3-45f7-afba-0c936c69a9fe","system_id":"levelo_inurba_marseille","lat":43.24163,"lon":5.36405,"is_reserved":false,"is_disabled":false,"rental_uris":{"android":"levelo://app?vid=90cf7432-42c3-45f7-afba-0c936c69a9fe","ios":"levelo://app?vid=90cf7432-42c3-45f7-afba-0c936c69a9fe"},"vehicle_type_id":"4","last_reported":1743775784,"current_range_meters":5600,"station_id":"cpo36qri1sfpv3e86is0","pricing_plan_id":"cebpf4jnsgd1na2vs0mg"},{"bike_id":"218190f0-668e-4b06-983d-c19586c26f57","system_id":"levelo_inurba_marseille","lat":43.30539,"lon":5.36532,"is_reserved":false,"is_disabled":false,"rental_uris":{"android":"levelo://app?vid=218190f0-668e-4b06-983d-c19586c26f57","ios":"levelo://app?vid=218190f0-668e-4b06-983d-c19586c26f57"},"vehicle_type_id":"4","last_reported":1743775784,"current_range_meters":5600,"station_id":"ce4bgs12rcd13ifvqcag","pricing_plan_id":"cebpf4jnsgd1na2vs0mg"},{"bike_id":"05a6074f-3240-45ab-8e97-514202c0e472","system_id":"levelo_inurba_marseille","lat":43.30093,"lon":5.3909,"is_reserved":false,"is_disabled":false,"rental_uris":{"android":"levelo://app?vid=05a6074f-3240-45ab-8e97-514202c0e472","ios":"levelo://app?vid=05a6074f-3240-45ab-8e97-514202c0e472"},"vehicle_type_id":"4","last_reported":1743775784,"current_range_meters":6000,"station_id":"ce4bh192rcd13ifvqdb0","pricing_plan_id":"cebpf4jnsgd1na2vs0mg"},{"bike_id":"f30f823c-9961-4339-9255-acb785ddfe95","system_id":"levelo_inurba_marseille","lat":43.30291,"lon":5.37703,"is_reserved":false,"is_disabled":false,"rental_uris":{"android":"levelo://app?vid=f30f823c-9961-4339-9255-acb785ddfe95","ios":"levelo://app?vid=f30f823c-9961-4339-9255-acb785ddfe95"},"vehicle_type_id":"4","last_reported":1743775784,"current_range_meters":6000,"station_id":"ce4bguh2rcd13ifvqcj0","pricing_plan_id":"cebpf4jnsgd1na2vs0mg"},{"bike_id":"71e55f99-90e5-4133-8167-5af8b2b35d7e","system_id":"levelo_inurba_marseille","lat":43.2306,"lon":5.355,"is_reserved":false,"is_disabled":false,"rental_uris":{"android":"levelo://app?vid=71e55f99-90e5-4133-8167-5af8b2b35d7e","ios":"levelo://app?vid=71e55f99-90e5-4133-8167-5af8b2b35d7e"},"vehicle_type_id":"4","last_reported":1743775784,"current_range_meters":6000,"station_id":"cpo3342slgdg3j2ifvpg","pricing_plan_id":"cebpf4jnsgd1na2vs0mg"},{"bike_id":"195232b5-6450-4c70-b36e-da6bd9df8cbe","system_id":"levelo_inurba_marseille","lat":43.30311,"lon":5.39207,"is_reserved":false,"is_disabled":false,"rental_uris":{"android":"levelo://app?vid=195232b5-6450-4c70-b36e-da6bd9df8cbe","ios":"levelo://app?vid=195232b5-6450-4c70-b36e-da6bd9df8cbe"},"vehicle_type_id":"4","last_reported":1743775784,"current_range_meters":6000,"station_id":"ce4bgkh2rcd13ifvqbk0","pricing_plan_id":"cebpf4jnsgd1na2vs0mg"},{"bike_id":"f0931953-024f-4972-83c3-3a6a64b3d7df","system_id":"levelo_inurba_marseille","lat":43.28156,"lon":5.42647,"is_reserved":false,"is_disabled":false,"rental_uris":{"android":"levelo://app?vid=f0931953-024f-4972-83c3-3a6a64b3d7df","ios":"levelo://app?vid=f0931953-024f-4972-83c3-3a6a64b3d7df"},"vehicle_type_id":"4","last_reported":1743775784,"current_range_meters":6400,"station_id":"ce4bhnh2rcd13ifvqgug","pricing_plan_id":"cebpf4jnsgd1na2vs0mg"},{"bike_id":"c13336a2-47ce-488c-b5b6-77c01a3ac1d1","system_id":"levelo_inurba_marseille","lat":43.318989,"lon":5.407386,"is_reserved":false,"is_disabled":true,"rental_uris":{"android":"levelo://app?vid=c13336a2-47ce-488c-b5b6-77c01a3ac1d1","ios":"levelo://app?vid=c13336a2-47ce-488c-b5b6-77c01a3ac1d1"},"vehicle_type_id":"4","last_reported":1743775784,"current_range_meters":6400,"station_id":"ce4bhq12rcd13ifvqhig","pricing_plan_id":"cebpf4jnsgd1na2vs0mg"},{"bike_id":"5fccc5c0-9cba-45a6-9c9a-bf6b4a505119","system_id":"levelo_inurba_marseille","lat":43.27831,"lon":5.40701,"is_reserved":false,"is_disabled":false,"rental_uris":{"android":"levelo://app?vid=5fccc5c0-9cba-45a6-9c9a-bf6b4a505119","ios":"levelo://app?vid=5fccc5c0-9cba-45a6-9c9a-bf6b4a505119"},"vehicle_type_id":"4","last_reported":1743775784,"current_range_meters":6400,"station_id":"ce4bhnh2rcd13ifvqgtg","pricing_plan_id":"cebpf4jnsgd1na2vs0mg"},{"bike_id":"08412614-9a7f-42c5-91c9-6bf43ea0736a","system_id":"levelo_inurba_marseille","lat":43.23139,"lon":5.43705,"is_reserved":false,"is_disabled":false,"rental_uris":{"android":"levelo://app?vid=08412614-9a7f-42c5-91c9-6bf43ea0736a","ios":"levelo://app?vid=08412614-9a7f-42c5-91c9-6bf43ea0736a"},"vehicle_type_id":"4","last_reported":1743775784,"current_range_meters":6400,"station_id":"ce4bhmp2rcd13ifvqgog","pricing_plan_id":"cebpf4jnsgd1na2vs0mg"},{"bike_id":"73d854ad-9eb6-4d68-8878-e9b2295ae65a","system_id":"levelo_inurba_marseille","lat":43.23065,"lon":5.35497,"is_reserved":false,"is_disabled":false,"rental_uris":{"android":"levelo://app?vid=73d854ad-9eb6-4d68-8878-e9b2295ae65a","ios":"levelo://app?vid=73d854ad-9eb6-4d68-8878-e9b2295ae65a"},"vehicle_type_id":"4","last_reported":1743775784,"current_range_meters":6800,"station_id":"cpo3342slgdg3j2ifvpg","pricing_plan_id":"cebpf4jnsgd1na2vs0mg"},{"bike_id":"9eb478a0-e499-490f-bb70-ac55e44c52ad","system_id":"levelo_inurba_marseille","lat":43.31116,"lon":5.3777,"is_reserved":false,"is_disabled":false,"rental_uris":{"android":"levelo://app?vid=9eb478a0-e499-490f-bb70-ac55e44c52ad","ios":"levelo://app?vid=9eb478a0-e499-490f-bb70-ac55e44c52ad"},"vehicle_type_id":"4","last_reported":1743775784,"current_range_meters":6800,"station_id":"ce4bgt92rcd13ifvqcg0","pricing_plan_id":"cebpf4jnsgd1na2vs0mg"},{"bike_id":"4eaea36b-5fe7-402f-84f0-a8d7da9948c7","system_id":"levelo_inurba_marseille","lat":43.272168,"lon":5.391899,"is_reserved":false,"is_disabled":false,"rental_uris":{"android":"levelo://app?vid=4eaea36b-5fe7-402f-84f0-a8d7da9948c7","ios":"levelo://app?vid=4eaea36b-5fe7-402f-84f0-a8d7da9948c7"},"vehicle_type_id":"4","last_reported":1743775784,"current_range_meters":6800,"station_id":"ce4bhhp2rcd13ifvqfm0","pricing_plan_id":"cebpf4jnsgd1na2vs0mg"},{"bike_id":"65a08ecf-82a6-4b4d-80f6-aa70d5777543","system_id":"levelo_inurba_marseille","lat":43.26801,"lon":5.39428,"is_reserved":false,"is_disabled":false,"rental_uris":{"android":"levelo://app?vid=65a08ecf-82a6-4b4d-80f6-aa70d5777543","ios":"levelo://app?vid=65a08ecf-82a6-4b4d-80f6-aa70d5777543"},"vehicle_type_id":"4","last_reported":1743775784,"current_range_meters":6800,"station_id":"ce4bhh12rcd13ifvqfg0","pricing_plan_id":"cebpf4jnsgd1na2vs0mg"},{"bike_id":"01cc7439-c026-4113-befc-f51376e95e1d","system_id":"levelo_inurba_marseille","lat":43.2971,"lon":5.36612,"is_reserved":false,"is_disabled":false,"rental_uris":{"android":"levelo://app?vid=01cc7439-c026-4113-befc-f51376e95e1d","ios":"levelo://app?vid=01cc7439-c026-4113-befc-f51376e95e1d"},"vehicle_type_id":"4","last_reported":1743775784,"current_range_meters":5600,"station_id":"ce4bgn12rcd13ifvqbt0","pricing_plan_id":"cebpf4jnsgd1na2vs0mg"},{"bike_id":"f0c99699-977a-4de5-8bfb-e4ec39e54e1b","system_id":"levelo_inurba_marseille","lat":43.29562,"lon":5.42295,"is_reserved":false,"is_disabled":false,"rental_uris":{"android":"levelo://app?vid=f0c99699-977a-4de5-8bfb-e4ec39e54e1b","ios":"levelo://app?vid=f0c99699-977a-4de5-8bfb-e4ec39e54e1b"},"vehicle_type_id":"4","last_reported":1743775784,"current_range_meters":6800,"station_id":"ce4bhph2rcd13ifvqhdg","pricing_plan_id":"cebpf4jnsgd1na2vs0mg"},{"bike_id":"cfcc44eb-6393-481c-8243-a4146063fc8f","system_id":"levelo_inurba_marseille","lat":43.28675,"lon":5.38663,"is_reserved":false,"is_disabled":false,"rental_uris":{"android":"levelo://app?vid=cfcc44eb-6393-481c-8243-a4146063fc8f","ios":"levelo://app?vid=cfcc44eb-6393-481c-8243-a4146063fc8f"},"vehicle_type_id":"4","last_reported":1743775784,"current_range_meters":6800,"station_id":"ce4bh492rcd13ifvqdug","pricing_plan_id":"cebpf4jnsgd1na2vs0mg"},{"bike_id":"8d7eab5b-bc43-48f5-9c97-0948b42ca6cf","system_id":"levelo_inurba_marseille","lat":43.2293,"lon":5.35374,"is_reserved":false,"is_disabled":false,"rental_uris":{"android":"levelo://app?vid=8d7eab5b-bc43-48f5-9c97-0948b42ca6cf","ios":"levelo://app?vid=8d7eab5b-bc43-48f5-9c97-0948b42ca6cf"},"vehicle_type_id":"4","last_reported":1743775784,"current_range_meters":6800,"station_id":"cpo3532slgdg3j2ikp40","pricing_plan_id":"cebpf4jnsgd1na2vs0mg"},{"bike_id":"b33db7e7-eda2-4f12-9fc6-1cfdf01ab2ad","system_id":"levelo_inurba_marseille","lat":43.30607,"lon":5.37232,"is_reserved":false,"is_disabled":false,"rental_uris":{"android":"levelo://app?vid=b33db7e7-eda2-4f12-9fc6-1cfdf01ab2ad","ios":"levelo://app?vid=b33db7e7-eda2-4f12-9fc6-1cfdf01ab2ad"},"vehicle_type_id":"4","last_reported":1743775784,"current_range_meters":7200,"station_id":"ce4bgqh2rcd13ifvqc4g","pricing_plan_id":"cebpf4jnsgd1na2vs0mg"},{"bike_id":"e6096203-d34f-4ce4-820f-3dc32b5c5d8f","system_id":"levelo_inurba_marseille","lat":43.24808,"lon":5.37453,"is_reserved":false,"is_disabled":false,"rental_uris":{"android":"levelo://app?vid=e6096203-d34f-4ce4-820f-3dc32b5c5d8f","ios":"levelo://app?vid=e6096203-d34f-4ce4-820f-3dc32b5c5d8f"},"vehicle_type_id":"4","last_reported":1743775784,"current_range_meters":7200,"station_id":"ce4bhgh2rcd13ifvqfb0","pricing_plan_id":"cebpf4jnsgd1na2vs0mg"},{"bike_id":"aac4f262-fd20-448e-b7c2-e712ea81e504","system_id":"levelo_inurba_marseille","lat":43.292265,"lon":5.383951,"is_reserved":false,"is_disabled":false,"rental_uris":{"android":"levelo://app?vid=aac4f262-fd20-448e-b7c2-e712ea81e504","ios":"levelo://app?vid=aac4f262-fd20-448e-b7c2-e712ea81e504"},"vehicle_type_id":"4","last_reported":1743775784,"current_range_meters":7200,"station_id":"ce4bgih2rcd13ifvqba0","pricing_plan_id":"cebpf4jnsgd1na2vs0mg"},{"bike_id":"2953d1ee-b122-41dd-b2ad-1c90d461237b","system_id":"levelo_inurba_marseille","lat":43.293993,"lon":5.373987,"is_reserved":false,"is_disabled":false,"rental_uris":{"android":"levelo://app?vid=2953d1ee-b122-41dd-b2ad-1c90d461237b","ios":"levelo://app?vid=2953d1ee-b122-41dd-b2ad-1c90d461237b"},"vehicle_type_id":"4","last_reported":1743775784,"current_range_meters":5600,"station_id":"ce4bhb12rcd13ifvqem0","pricing_plan_id":"cebpf4jnsgd1na2vs0mg"},{"bike_id":"e3a29d38-a611-4b12-87ef-2fb8a21c41d5","system_id":"levelo_inurba_marseille","lat":43.22928,"lon":5.35365,"is_reserved":false,"is_disabled":false,"rental_uris":{"android":"levelo://app?vid=e3a29d38-a611-4b12-87ef-2fb8a21c41d5","ios":"levelo://app?vid=e3a29d38-a611-4b12-87ef-2fb8a21c41d5"},"vehicle_type_id":"4","last_reported":1743775784,"current_range_meters":7200,"station_id":"cpo3532slgdg3j2ikp40","pricing_plan_id":"cebpf4jnsgd1na2vs0mg"},{"bike_id":"efddeda7-6eb2-4c14-868d-fa0ce0b35ef3","system_id":"levelo_inurba_marseille","lat":43.31299,"lon":5.38291,"is_reserved":false,"is_disabled":false,"rental_uris":{"android":"levelo://app?vid=efddeda7-6eb2-4c14-868d-fa0ce0b35ef3","ios":"levelo://app?vid=efddeda7-6eb2-4c14-868d-fa0ce0b35ef3"},"vehicle_type_id":"4","last_reported":1743775784,"current_range_meters":7200,"station_id":"","pricing_plan_id":"cebpf4jnsgd1na2vs0mg"},{"bike_id":"2ff3068f-074f-4569-bb32-aaa56c528ef2","system_id":"levelo_inurba_marseille","lat":43.27921,"lon":5.39585,"is_reserved":false,"is_disabled":false,"rental_uris":{"android":"levelo://app?vid=2ff3068f-074f-4569-bb32-aaa56c528ef2","ios":"levelo://app?vid=2ff3068f-074f-4569-bb32-aaa56c528ef2"},"vehicle_type_id":"4","last_reported":1743775784,"current_range_meters":7200,"station_id":"ce4bhf92rcd13ifvqf40","pricing_plan_id":"cebpf4jnsgd1na2vs0mg"},{"bike_id":"27624c2a-adf4-47b7-acf9-7b9333e7eb32","system_id":"levelo_inurba_marseille","lat":43.290359,"lon":5.375659,"is_reserved":false,"is_disabled":false,"rental_uris":{"android":"levelo://app?vid=27624c2a-adf4-47b7-acf9-7b9333e7eb32","ios":"levelo://app?vid=27624c2a-adf4-47b7-acf9-7b9333e7eb32"},"vehicle_type_id":"4","last_reported":1743775784,"current_range_meters":4400,"station_id":"ce4bgi92rcd13ifvqb90","pricing_plan_id":"cebpf4jnsgd1na2vs0mg"},{"bike_id":"4a0cb5ec-891f-471c-8860-9d6c3a83a3a9","system_id":"levelo_inurba_marseille","lat":43.30372,"lon":5.42477,"is_reserved":false,"is_disabled":false,"rental_uris":{"android":"levelo://app?vid=4a0cb5ec-891f-471c-8860-9d6c3a83a3a9","ios":"levelo://app?vid=4a0cb5ec-891f-471c-8860-9d6c3a83a3a9"},"vehicle_type_id":"4","last_reported":1743775784,"current_range_meters":7200,"station_id":"ce4bhoh2rcd13ifvqh6g","pricing_plan_id":"cebpf4jnsgd1na2vs0mg"},{"bike_id":"7ad0d975-79e6-450c-b4d2-7707151ddd9a","system_id":"levelo_inurba_marseille","lat":43.27495,"lon":5.4245,"is_reserved":false,"is_disabled":false,"rental_uris":{"android":"levelo://app?vid=7ad0d975-79e6-450c-b4d2-7707151ddd9a","ios":"levelo://app?vid=7ad0d975-79e6-450c-b4d2-7707151ddd9a"},"vehicle_type_id":"4","last_reported":1743775784,"current_range_meters":8000,"station_id":"ce4bhn92rcd13ifvqgrg","pricing_plan_id":"cebpf4jnsgd1na2vs0mg"},{"bike_id":"d76832c4-3604-4de9-b7a5-182f7c6e995c","system_id":"levelo_inurba_marseille","lat":43.31358,"lon":5.38525,"is_reserved":false,"is_disabled":true,"rental_uris":{"android":"levelo://app?vid=d76832c4-3604-4de9-b7a5-182f7c6e995c","ios":"levelo://app?vid=d76832c4-3604-4de9-b7a5-182f7c6e995c"},"vehicle_type_id":"4","last_reported":1743775784,"current_range_meters":8000,"station_id":"ce4bgt92rcd13ifvqcf0","pricing_plan_id":"cebpf4jnsgd1na2vs0mg"},{"bike_id":"e61b1547-acec-43a0-9d01-aa6e255c3b8d","system_id":"levelo_inurba_marseille","lat":43.25586,"lon":5.38232,"is_reserved":false,"is_disabled":false,"rental_uris":{"android":"levelo://app?vid=e61b1547-acec-43a0-9d01-aa6e255c3b8d","ios":"levelo://app?vid=e61b1547-acec-43a0-9d01-aa6e255c3b8d"},"vehicle_type_id":"4","last_reported":1743775784,"current_range_meters":9600,"station_id":"ce4bhih2rcd13ifvqfs0","pricing_plan_id":"cebpf4jnsgd1na2vs0mg"},{"bike_id":"6639962a-20b6-4471-92c2-eb6284567359","system_id":"levelo_inurba_marseille","lat":43.26942,"lon":5.4025,"is_reserved":false,"is_disabled":false,"rental_uris":{"android":"levelo://app?vid=6639962a-20b6-4471-92c2-eb6284567359","ios":"levelo://app?vid=6639962a-20b6-4471-92c2-eb6284567359"},"vehicle_type_id":"4","last_reported":1743775784,"current_range_meters":7200,"station_id":"cjm6bp8fraef2m0cb0m0","pricing_plan_id":"cebpf4jnsgd1na2vs0mg"},{"bike_id":"da2307f9-5a7f-44ea-a313-c9f2d5e521aa","system_id":"levelo_inurba_marseille","lat":43.2573,"lon":5.41108,"is_reserved":false,"is_disabled":false,"rental_uris":{"android":"levelo://app?vid=da2307f9-5a7f-44ea-a313-c9f2d5e521aa","ios":"levelo://app?vid=da2307f9-5a7f-44ea-a313-c9f2d5e521aa"},"vehicle_type_id":"4","last_reported":1743775784,"current_range_meters":8000,"station_id":"ce4bhkp2rcd13ifvqgd0","pricing_plan_id":"cebpf4jnsgd1na2vs0mg"},{"bike_id":"6e7e8bd0-971a-4bf5-a521-0d1053f36753","system_id":"levelo_inurba_marseille","lat":43.31079,"lon":5.42439,"is_reserved":false,"is_disabled":true,"rental_uris":{"android":"levelo://app?vid=6e7e8bd0-971a-4bf5-a521-0d1053f36753","ios":"levelo://app?vid=6e7e8bd0-971a-4bf5-a521-0d1053f36753"},"vehicle_type_id":"4","last_reported":1743775784,"current_range_meters":8000,"station_id":"ce4bhp92rcd13ifvqhag","pricing_plan_id":"cebpf4jnsgd1na2vs0mg"},{"bike_id":"26f0a341-383d-4577-b325-3f462b8cfd6e","system_id":"levelo_inurba_marseille","lat":43.30553,"lon":5.3653,"is_reserved":false,"is_disabled":false,"rental_uris":{"android":"levelo://app?vid=26f0a341-383d-4577-b325-3f462b8cfd6e","ios":"levelo://app?vid=26f0a341-383d-4577-b325-3f462b8cfd6e"},"vehicle_type_id":"4","last_reported":1743775784,"current_range_meters":8000,"station_id":"ce4bgs12rcd13ifvqcag","pricing_plan_id":"cebpf4jnsgd1na2vs0mg"},{"bike_id":"3cf22d29-90b6-4c79-a643-886bc3743ca7","system_id":"levelo_inurba_marseille","lat":43.334195,"lon":5.400629,"is_reserved":false,"is_disabled":false,"rental_uris":{"android":"levelo://app?vid=3cf22d29-90b6-4c79-a643-886bc3743ca7","ios":"levelo://app?vid=3cf22d29-90b6-4c79-a643-886bc3743ca7"},"vehicle_type_id":"4","last_reported":1743775784,"current_range_meters":8400,"station_id":"","pricing_plan_id":"cebpf4jnsgd1na2vs0mg"},{"bike_id":"1049ba71-fb41-4dc5-8c5a-67fbc6fe8421","system_id":"levelo_inurba_marseille","lat":43.25486,"lon":5.37625,"is_reserved":false,"is_disabled":true,"rental_uris":{"android":"levelo://app?vid=1049ba71-fb41-4dc5-8c5a-67fbc6fe8421","ios":"levelo://app?vid=1049ba71-fb41-4dc5-8c5a-67fbc6fe8421"},"vehicle_type_id":"4","last_reported":1743775784,"current_range_meters":8400,"station_id":"ce4bhh12rcd13ifvqff0","pricing_plan_id":"cebpf4jnsgd1na2vs0mg"},{"bike_id":"77e1cca1-9afa-4062-8d36-bac30c3b0ae7","system_id":"levelo_inurba_marseille","lat":43.32356,"lon":5.36745,"is_reserved":false,"is_disabled":false,"rental_uris":{"android":"levelo://app?vid=77e1cca1-9afa-4062-8d36-bac30c3b0ae7","ios":"levelo://app?vid=77e1cca1-9afa-4062-8d36-bac30c3b0ae7"},"vehicle_type_id":"4","last_reported":1743775784,"current_range_meters":8400,"station_id":"ce4bhsh2rcd13ifvqi2g","pricing_plan_id":"cebpf4jnsgd1na2vs0mg"},{"bike_id":"f7cb2e5d-b4c4-4b5c-97ab-98f112ad5cab","system_id":"levelo_inurba_marseille","lat":43.24808,"lon":5.37458,"is_reserved":false,"is_disabled":false,"rental_uris":{"android":"levelo://app?vid=f7cb2e5d-b4c4-4b5c-97ab-98f112ad5cab","ios":"levelo://app?vid=f7cb2e5d-b4c4-4b5c-97ab-98f112ad5cab"},"vehicle_type_id":"4","last_reported":1743775784,"current_range_meters":8400,"station_id":"ce4bhgh2rcd13ifvqfb0","pricing_plan_id":"cebpf4jnsgd1na2vs0mg"},{"bike_id":"5f46717b-05d1-4f34-a220-8087932d755b","system_id":"levelo_inurba_marseille","lat":43.30105,"lon":5.36944,"is_reserved":false,"is_disabled":false,"rental_uris":{"android":"levelo://app?vid=5f46717b-05d1-4f34-a220-8087932d755b","ios":"levelo://app?vid=5f46717b-05d1-4f34-a220-8087932d755b"},"vehicle_type_id":"4","last_reported":1743775784,"current_range_meters":8800,"station_id":"","pricing_plan_id":"cebpf4jnsgd1na2vs0mg"},{"bike_id":"b7f3f049-96a7-45d7-acbf-58e61431e36e","system_id":"levelo_inurba_marseille","lat":43.24648,"lon":5.38892,"is_reserved":false,"is_disabled":false,"rental_uris":{"android":"levelo://app?vid=b7f3f049-96a7-45d7-acbf-58e61431e36e","ios":"levelo://app?vid=b7f3f049-96a7-45d7-acbf-58e61431e36e"},"vehicle_type_id":"4","last_reported":1743775784,"current_range_meters":8400,"station_id":"ce4bhg12rcd13ifvqf60","pricing_plan_id":"cebpf4jnsgd1na2vs0mg"},{"bike_id":"2e137e4d-67a6-44f0-9eec-03b5d5bdb779","system_id":"levelo_inurba_marseille","lat":43.28616,"lon":5.35103,"is_reserved":false,"is_disabled":false,"rental_uris":{"android":"levelo://app?vid=2e137e4d-67a6-44f0-9eec-03b5d5bdb779","ios":"levelo://app?vid=2e137e4d-67a6-44f0-9eec-03b5d5bdb779"},"vehicle_type_id":"4","last_reported":1743775784,"current_range_meters":8400,"station_id":"ce4bhch2rcd13ifvqeug","pricing_plan_id":"cebpf4jnsgd1na2vs0mg"},{"bike_id":"04458fc1-c636-4d05-80c4-c2cff5fb4cda","system_id":"levelo_inurba_marseille","lat":43.287046,"lon":5.399868,"is_reserved":false,"is_disabled":false,"rental_uris":{"android":"levelo://app?vid=04458fc1-c636-4d05-80c4-c2cff5fb4cda","ios":"levelo://app?vid=04458fc1-c636-4d05-80c4-c2cff5fb4cda"},"vehicle_type_id":"4","last_reported":1743775784,"current_range_meters":8800,"station_id":"ce4bho92rcd13ifvqh3g","pricing_plan_id":"cebpf4jnsgd1na2vs0mg"},{"bike_id":"f21743ea-9473-4c19-8333-0e701545dd04","system_id":"levelo_inurba_marseille","lat":43.28423,"lon":5.34995,"is_reserved":false,"is_disabled":false,"rental_uris":{"android":"levelo://app?vid=f21743ea-9473-4c19-8333-0e701545dd04","ios":"levelo://app?vid=f21743ea-9473-4c19-8333-0e701545dd04"},"vehicle_type_id":"4","last_reported":1743775784,"current_range_meters":8800,"station_id":"ce4bhbh2rcd13ifvqepg","pricing_plan_id":"cebpf4jnsgd1na2vs0mg"},{"bike_id":"78c5b9f5-6a8a-4572-b978-136f434511f4","system_id":"levelo_inurba_marseille","lat":43.23193,"lon":5.39981,"is_reserved":false,"is_disabled":false,"rental_uris":{"android":"levelo://app?vid=78c5b9f5-6a8a-4572-b978-136f434511f4","ios":"levelo://app?vid=78c5b9f5-6a8a-4572-b978-136f434511f4"},"vehicle_type_id":"4","last_reported":1743775784,"current_range_meters":8800,"station_id":"ce4bhn12rcd13ifvqgqg","pricing_plan_id":"cebpf4jnsgd1na2vs0mg"},{"bike_id":"d55a7d14-36c6-406a-9a3a-cdf86fe5fd66","system_id":"levelo_inurba_marseille","lat":43.23971,"lon":5.36629,"is_reserved":false,"is_disabled":false,"rental_uris":{"android":"levelo://app?vid=d55a7d14-36c6-406a-9a3a-cdf86fe5fd66","ios":"levelo://app?vid=d55a7d14-36c6-406a-9a3a-cdf86fe5fd66"},"vehicle_type_id":"4","last_reported":1743775784,"current_range_meters":8800,"station_id":"ce4bhi12rcd13ifvqfp0","pricing_plan_id":"cebpf4jnsgd1na2vs0mg"},{"bike_id":"8322e8d4-efdc-4162-a181-88bb478367a2","system_id":"levelo_inurba_marseille","lat":43.30135,"lon":5.39875,"is_reserved":false,"is_disabled":false,"rental_uris":{"android":"levelo://app?vid=8322e8d4-efdc-4162-a181-88bb478367a2","ios":"levelo://app?vid=8322e8d4-efdc-4162-a181-88bb478367a2"},"vehicle_type_id":"4","last_reported":1743775784,"current_range_meters":9200,"station_id":"ce4bh0h2rcd13ifvqd40","pricing_plan_id":"cebpf4jnsgd1na2vs0mg"},{"bike_id":"36d996d1-147d-4367-84e7-9ff54765b37a","system_id":"levelo_inurba_marseille","lat":43.23193,"lon":5.35562,"is_reserved":false,"is_disabled":false,"rental_uris":{"android":"levelo://app?vid=36d996d1-147d-4367-84e7-9ff54765b37a","ios":"levelo://app?vid=36d996d1-147d-4367-84e7-9ff54765b37a"},"vehicle_type_id":"4","last_reported":1743775784,"current_range_meters":9200,"station_id":"ce4bhu92rcd13ifvqi70","pricing_plan_id":"cebpf4jnsgd1na2vs0mg"},{"bike_id":"c69fa191-bb6a-4ea4-8639-a34c0b381fa4","system_id":"levelo_inurba_marseille","lat":43.2867,"lon":5.36355,"is_reserved":false,"is_disabled":false,"rental_uris":{"android":"levelo://app?vid=c69fa191-bb6a-4ea4-8639-a34c0b381fa4","ios":"levelo://app?vid=c69fa191-bb6a-4ea4-8639-a34c0b381fa4"},"vehicle_type_id":"4","last_reported":1743775784,"current_range_meters":9200,"station_id":"ce4bhah2rcd13ifvqej0","pricing_plan_id":"cebpf4jnsgd1na2vs0mg"},{"bike_id":"69c0db05-6ded-4dc6-9720-2452c83c1020","system_id":"levelo_inurba_marseille","lat":43.22944,"lon":5.354,"is_reserved":false,"is_disabled":false,"rental_uris":{"android":"levelo://app?vid=69c0db05-6ded-4dc6-9720-2452c83c1020","ios":"levelo://app?vid=69c0db05-6ded-4dc6-9720-2452c83c1020"},"vehicle_type_id":"4","last_reported":1743775784,"current_range_meters":9200,"station_id":"cpo3532slgdg3j2ikp40","pricing_plan_id":"cebpf4jnsgd1na2vs0mg"},{"bike_id":"e59db74f-8a79-4513-97ed-c8573b18b55d","system_id":"levelo_inurba_marseille","lat":43.29715,"lon":5.36613,"is_reserved":false,"is_disabled":false,"rental_uris":{"android":"levelo://app?vid=e59db74f-8a79-4513-97ed-c8573b18b55d","ios":"levelo://app?vid=e59db74f-8a79-4513-97ed-c8573b18b55d"},"vehicle_type_id":"4","last_reported":1743775784,"current_range_meters":9200,"station_id":"ce4bgn12rcd13ifvqbt0","pricing_plan_id":"cebpf4jnsgd1na2vs0mg"},{"bike_id":"509b4250-b0c0-49e5-82a8-257e0a54b248","system_id":"levelo_inurba_marseille","lat":43.30895,"lon":5.37187,"is_reserved":false,"is_disabled":false,"rental_uris":{"android":"levelo://app?vid=509b4250-b0c0-49e5-82a8-257e0a54b248","ios":"levelo://app?vid=509b4250-b0c0-49e5-82a8-257e0a54b248"},"vehicle_type_id":"4","last_reported":1743775784,"current_range_meters":9200,"station_id":"ce4bguh2rcd13ifvqckg","pricing_plan_id":"cebpf4jnsgd1na2vs0mg"},{"bike_id":"5c611aa4-ce8b-45e6-90b4-76ba4765914b","system_id":"levelo_inurba_marseille","lat":43.33022,"lon":5.39042,"is_reserved":false,"is_disabled":false,"rental_uris":{"android":"levelo://app?vid=5c611aa4-ce8b-45e6-90b4-76ba4765914b","ios":"levelo://app?vid=5c611aa4-ce8b-45e6-90b4-76ba4765914b"},"vehicle_type_id":"4","last_reported":1743775784,"current_range_meters":9200,"station_id":"ce4bhr92rcd13ifvqhrg","pricing_plan_id":"cebpf4jnsgd1na2vs0mg"},{"bike_id":"b60c4e10-be47-4480-972a-f0b292dbaed2","system_id":"levelo_inurba_marseille","lat":43.27376,"lon":5.36264,"is_reserved":false,"is_disabled":false,"rental_uris":{"android":"levelo://app?vid=b60c4e10-be47-4480-972a-f0b292dbaed2","ios":"levelo://app?vid=b60c4e10-be47-4480-972a-f0b292dbaed2"},"vehicle_type_id":"4","last_reported":1743775784,"current_range_meters":9600,"station_id":"ce4bhbh2rcd13ifvqeo0","pricing_plan_id":"cebpf4jnsgd1na2vs0mg"},{"bike_id":"12b3ada6-1ffe-48f7-8bfd-a7d49fbce8de","system_id":"levelo_inurba_marseille","lat":43.29983,"lon":5.371945,"is_reserved":false,"is_disabled":false,"rental_uris":{"android":"levelo://app?vid=12b3ada6-1ffe-48f7-8bfd-a7d49fbce8de","ios":"levelo://app?vid=12b3ada6-1ffe-48f7-8bfd-a7d49fbce8de"},"vehicle_type_id":"4","last_reported":1743775784,"current_range_meters":9600,"station_id":"ce4bgr92rcd13ifvqc7g","pricing_plan_id":"cebpf4jnsgd1na2vs0mg"},{"bike_id":"c0ce41d4-dfc2-4187-8bdb-d04103ac0dd2","system_id":"levelo_inurba_marseille","lat":43.30726,"lon":5.42437,"is_reserved":false,"is_disabled":false,"rental_uris":{"android":"levelo://app?vid=c0ce41d4-dfc2-4187-8bdb-d04103ac0dd2","ios":"levelo://app?vid=c0ce41d4-dfc2-4187-8bdb-d04103ac0dd2"},"vehicle_type_id":"4","last_reported":1743775784,"current_range_meters":9600,"station_id":"st_cvj6ca6bvosntc0bfgr0","pricing_plan_id":"cebpf4jnsgd1na2vs0mg"},{"bike_id":"66320bc1-008b-48fe-b35a-1ba41c7b488a","system_id":"levelo_inurba_marseille","lat":43.3056,"lon":5.36527,"is_reserved":false,"is_disabled":false,"rental_uris":{"android":"levelo://app?vid=66320bc1-008b-48fe-b35a-1ba41c7b488a","ios":"levelo://app?vid=66320bc1-008b-48fe-b35a-1ba41c7b488a"},"vehicle_type_id":"4","last_reported":1743775784,"current_range_meters":9600,"station_id":"ce4bgs12rcd13ifvqcag","pricing_plan_id":"cebpf4jnsgd1na2vs0mg"},{"bike_id":"aa55e310-da13-4eff-856b-8b75ec07b854","system_id":"levelo_inurba_marseille","lat":43.25922,"lon":5.40879,"is_reserved":false,"is_disabled":false,"rental_uris":{"android":"levelo://app?vid=aa55e310-da13-4eff-856b-8b75ec07b854","ios":"levelo://app?vid=aa55e310-da13-4eff-856b-8b75ec07b854"},"vehicle_type_id":"4","last_reported":1743775784,"current_range_meters":9600,"station_id":"ce4bhm92rcd13ifvqglg","pricing_plan_id":"cebpf4jnsgd1na2vs0mg"},{"bike_id":"758c2355-846a-4f3d-bcd8-eac4b3145cd6","system_id":"levelo_inurba_marseille","lat":43.23185,"lon":5.35576,"is_reserved":false,"is_disabled":false,"rental_uris":{"android":"levelo://app?vid=758c2355-846a-4f3d-bcd8-eac4b3145cd6","ios":"levelo://app?vid=758c2355-846a-4f3d-bcd8-eac4b3145cd6"},"vehicle_type_id":"4","last_reported":1743775784,"current_range_meters":9600,"station_id":"ce4bhu92rcd13ifvqi70","pricing_plan_id":"cebpf4jnsgd1na2vs0mg"},{"bike_id":"ed034283-1492-4da7-9409-35bdead80f30","system_id":"levelo_inurba_marseille","lat":43.30129,"lon":5.38792,"is_reserved":false,"is_disabled":true,"rental_uris":{"android":"levelo://app?vid=ed034283-1492-4da7-9409-35bdead80f30","ios":"levelo://app?vid=ed034283-1492-4da7-9409-35bdead80f30"},"vehicle_type_id":"4","last_reported":1743775784,"current_range_meters":9600,"station_id":"ce4bghh2rcd13ifvqb60","pricing_plan_id":"cebpf4jnsgd1na2vs0mg"},{"bike_id":"50297066-959d-45c5-a71e-b062cc3724ec","system_id":"levelo_inurba_marseille","lat":43.30799,"lon":5.37301,"is_reserved":false,"is_disabled":false,"rental_uris":{"android":"levelo://app?vid=50297066-959d-45c5-a71e-b062cc3724ec","ios":"levelo://app?vid=50297066-959d-45c5-a71e-b062cc3724ec"},"vehicle_type_id":"4","last_reported":1743775784,"current_range_meters":9600,"station_id":"","pricing_plan_id":"cebpf4jnsgd1na2vs0mg"},{"bike_id":"36ee99ba-5b0c-447e-b253-957fd9ae50ba","system_id":"levelo_inurba_marseille","lat":43.27814,"lon":5.40711,"is_reserved":false,"is_disabled":false,"rental_uris":{"android":"levelo://app?vid=36ee99ba-5b0c-447e-b253-957fd9ae50ba","ios":"levelo://app?vid=36ee99ba-5b0c-447e-b253-957fd9ae50ba"},"vehicle_type_id":"4","last_reported":1743775784,"current_range_meters":9600,"station_id":"ce4bhnh2rcd13ifvqgtg","pricing_plan_id":"cebpf4jnsgd1na2vs0mg"},{"bike_id":"74a13a18-430a-4f50-ba26-e7dfbad23482","system_id":"levelo_inurba_marseille","lat":43.23067,"lon":5.35486,"is_reserved":false,"is_disabled":false,"rental_uris":{"android":"levelo://app?vid=74a13a18-430a-4f50-ba26-e7dfbad23482","ios":"levelo://app?vid=74a13a18-430a-4f50-ba26-e7dfbad23482"},"vehicle_type_id":"4","last_reported":1743775784,"current_range_meters":9600,"station_id":"cpo3342slgdg3j2ifvpg","pricing_plan_id":"cebpf4jnsgd1na2vs0mg"},{"bike_id":"dc8f70eb-ca59-4669-8c5d-19ac88cf9f28","system_id":"levelo_inurba_marseille","lat":43.2738,"lon":5.3626,"is_reserved":false,"is_disabled":false,"rental_uris":{"android":"levelo://app?vid=dc8f70eb-ca59-4669-8c5d-19ac88cf9f28","ios":"levelo://app?vid=dc8f70eb-ca59-4669-8c5d-19ac88cf9f28"},"vehicle_type_id":"4","last_reported":1743775784,"current_range_meters":9600,"station_id":"ce4bhbh2rcd13ifvqeo0","pricing_plan_id":"cebpf4jnsgd1na2vs0mg"},{"bike_id":"386f038a-a86c-4c6a-bf90-638d2a627842","system_id":"levelo_inurba_marseille","lat":43.32487,"lon":5.36581,"is_reserved":false,"is_disabled":false,"rental_uris":{"android":"levelo://app?vid=386f038a-a86c-4c6a-bf90-638d2a627842","ios":"levelo://app?vid=386f038a-a86c-4c6a-bf90-638d2a627842"},"vehicle_type_id":"4","last_reported":1743775784,"current_range_meters":10000,"station_id":"ce4bhs12rcd13ifvqhvg","pricing_plan_id":"cebpf4jnsgd1na2vs0mg"},{"bike_id":"bbc8872e-7446-4dc5-bb55-4e9de8d5847a","system_id":"levelo_inurba_marseille","lat":43.29537,"lon":5.38538,"is_reserved":false,"is_disabled":false,"rental_uris":{"android":"levelo://app?vid=bbc8872e-7446-4dc5-bb55-4e9de8d5847a","ios":"levelo://app?vid=bbc8872e-7446-4dc5-bb55-4e9de8d5847a"},"vehicle_type_id":"4","last_reported":1743775784,"current_range_meters":10000,"station_id":"ce4bgih2rcd13ifvqba0","pricing_plan_id":"cebpf4jnsgd1na2vs0mg"},{"bike_id":"3e176c20-38e8-402a-a99f-3120aebf8c03","system_id":"levelo_inurba_marseille","lat":43.29254,"lon":5.40903,"is_reserved":false,"is_disabled":false,"rental_uris":{"android":"levelo://app?vid=3e176c20-38e8-402a-a99f-3120aebf8c03","ios":"levelo://app?vid=3e176c20-38e8-402a-a99f-3120aebf8c03"},"vehicle_type_id":"4","last_reported":1743775784,"current_range_meters":10000,"station_id":"ce4bh192rcd13ifvqdc0","pricing_plan_id":"cebpf4jnsgd1na2vs0mg"},{"bike_id":"fe0340cd-9527-46dd-b442-b628d0560e31","system_id":"levelo_inurba_marseille","lat":43.24808,"lon":5.37467,"is_reserved":false,"is_disabled":false,"rental_uris":{"android":"levelo://app?vid=fe0340cd-9527-46dd-b442-b628d0560e31","ios":"levelo://app?vid=fe0340cd-9527-46dd-b442-b628d0560e31"},"vehicle_type_id":"4","last_reported":1743775784,"current_range_meters":10000,"station_id":"ce4bhgh2rcd13ifvqfb0","pricing_plan_id":"cebpf4jnsgd1na2vs0mg"},{"bike_id":"f792615f-217c-4fec-85f7-df01eec4816f","system_id":"levelo_inurba_marseille","lat":43.31376,"lon":5.36752,"is_reserved":false,"is_disabled":false,"rental_uris":{"android":"levelo://app?vid=f792615f-217c-4fec-85f7-df01eec4816f","ios":"levelo://app?vid=f792615f-217c-4fec-85f7-df01eec4816f"},"vehicle_type_id":"4","last_reported":1743775784,"current_range_meters":10000,"station_id":"","pricing_plan_id":"cebpf4jnsgd1na2vs0mg"},{"bike_id":"b038fdbf-86f2-4932-b980-ffbb1de44a82","system_id":"levelo_inurba_marseille","lat":43.22937,"lon":5.35364,"is_reserved":false,"is_disabled":false,"rental_uris":{"android":"levelo://app?vid=b038fdbf-86f2-4932-b980-ffbb1de44a82","ios":"levelo://app?vid=b038fdbf-86f2-4932-b980-ffbb1de44a82"},"vehicle_type_id":"4","last_reported":1743775784,"current_range_meters":10000,"station_id":"cpo3532slgdg3j2ikp40","pricing_plan_id":"cebpf4jnsgd1na2vs0mg"},{"bike_id":"f1e5f20d-e5bb-4349-9a72-f7ab8a004414","system_id":"levelo_inurba_marseille","lat":43.30313,"lon":5.40437,"is_reserved":false,"is_disabled":true,"rental_uris":{"android":"levelo://app?vid=f1e5f20d-e5bb-4349-9a72-f7ab8a004414","ios":"levelo://app?vid=f1e5f20d-e5bb-4349-9a72-f7ab8a004414"},"vehicle_type_id":"4","last_reported":1743775784,"current_range_meters":10000,"station_id":"ce4bh012rcd13ifvqd10","pricing_plan_id":"cebpf4jnsgd1na2vs0mg"},{"bike_id":"94046923-26d6-42a4-b0ff-944a4b1f28c8","system_id":"levelo_inurba_marseille","lat":43.298653,"lon":5.398373,"is_reserved":false,"is_disabled":false,"rental_uris":{"android":"levelo://app?vid=94046923-26d6-42a4-b0ff-944a4b1f28c8","ios":"levelo://app?vid=94046923-26d6-42a4-b0ff-944a4b1f28c8"},"vehicle_type_id":"4","last_reported":1743775784,"current_range_meters":10800,"station_id":"ce4bh0h2rcd13ifvqd50","pricing_plan_id":"cebpf4jnsgd1na2vs0mg"},{"bike_id":"fb348b09-6abb-47a4-a266-91f2eeaee291","system_id":"levelo_inurba_marseille","lat":43.32105,"lon":5.36782,"is_reserved":false,"is_disabled":false,"rental_uris":{"android":"levelo://app?vid=fb348b09-6abb-47a4-a266-91f2eeaee291","ios":"levelo://app?vid=fb348b09-6abb-47a4-a266-91f2eeaee291"},"vehicle_type_id":"4","last_reported":1743775784,"current_range_meters":10800,"station_id":"ce4bhrh2rcd13ifvqhug","pricing_plan_id":"cebpf4jnsgd1na2vs0mg"},{"bike_id":"25d55576-6348-4b26-babe-62ad02d3e0be","system_id":"levelo_inurba_marseille","lat":43.28082,"lon":5.39648,"is_reserved":false,"is_disabled":false,"rental_uris":{"android":"levelo://app?vid=25d55576-6348-4b26-babe-62ad02d3e0be","ios":"levelo://app?vid=25d55576-6348-4b26-babe-62ad02d3e0be"},"vehicle_type_id":"4","last_reported":1743775784,"current_range_meters":10800,"station_id":"ce4bho12rcd13ifvqh2g","pricing_plan_id":"cebpf4jnsgd1na2vs0mg"},{"bike_id":"289742d7-180c-424b-a309-b6439e29409f","system_id":"levelo_inurba_marseille","lat":43.273749,"lon":5.362626,"is_reserved":false,"is_disabled":false,"rental_uris":{"android":"levelo://app?vid=289742d7-180c-424b-a309-b6439e29409f","ios":"levelo://app?vid=289742d7-180c-424b-a309-b6439e29409f"},"vehicle_type_id":"4","last_reported":1743775784,"current_range_meters":10800,"station_id":"ce4bhbh2rcd13ifvqeo0","pricing_plan_id":"cebpf4jnsgd1na2vs0mg"},{"bike_id":"55ebdf25-0357-4ec1-a3b5-737d5b6b88c2","system_id":"levelo_inurba_marseille","lat":43.30543,"lon":5.36519,"is_reserved":false,"is_disabled":false,"rental_uris":{"android":"levelo://app?vid=55ebdf25-0357-4ec1-a3b5-737d5b6b88c2","ios":"levelo://app?vid=55ebdf25-0357-4ec1-a3b5-737d5b6b88c2"},"vehicle_type_id":"4","last_reported":1743775784,"current_range_meters":10800,"station_id":"ce4bgs12rcd13ifvqcag","pricing_plan_id":"cebpf4jnsgd1na2vs0mg"},{"bike_id":"d03e965e-1dfb-4891-92fc-37be59828007","system_id":"levelo_inurba_marseille","lat":43.28404,"lon":5.34993,"is_reserved":false,"is_disabled":false,"rental_uris":{"android":"levelo://app?vid=d03e965e-1dfb-4891-92fc-37be59828007","ios":"levelo://app?vid=d03e965e-1dfb-4891-92fc-37be59828007"},"vehicle_type_id":"4","last_reported":1743775784,"current_range_meters":10800,"station_id":"ce4bhbh2rcd13ifvqepg","pricing_plan_id":"cebpf4jnsgd1na2vs0mg"},{"bike_id":"0963382c-f645-4fca-b951-a6c7a2558d94","system_id":"levelo_inurba_marseille","lat":43.27373,"lon":5.36256,"is_reserved":false,"is_disabled":false,"rental_uris":{"android":"levelo://app?vid=0963382c-f645-4fca-b951-a6c7a2558d94","ios":"levelo://app?vid=0963382c-f645-4fca-b951-a6c7a2558d94"},"vehicle_type_id":"4","last_reported":1743775784,"current_range_meters":10800,"station_id":"ce4bhbh2rcd13ifvqeo0","pricing_plan_id":"cebpf4jnsgd1na2vs0mg"},{"bike_id":"bf1f64af-6e09-4198-a3aa-05ceec736dd6","system_id":"levelo_inurba_marseille","lat":43.27813,"lon":5.40723,"is_reserved":false,"is_disabled":false,"rental_uris":{"android":"levelo://app?vid=bf1f64af-6e09-4198-a3aa-05ceec736dd6","ios":"levelo://app?vid=bf1f64af-6e09-4198-a3aa-05ceec736dd6"},"vehicle_type_id":"4","last_reported":1743775784,"current_range_meters":11200,"station_id":"ce4bhnh2rcd13ifvqgtg","pricing_plan_id":"cebpf4jnsgd1na2vs0mg"},{"bike_id":"b8f711db-4e1a-491f-a084-c10da5b2cb36","system_id":"levelo_inurba_marseille","lat":43.26059,"lon":5.39396,"is_reserved":false,"is_disabled":false,"rental_uris":{"android":"levelo://app?vid=b8f711db-4e1a-491f-a084-c10da5b2cb36","ios":"levelo://app?vid=b8f711db-4e1a-491f-a084-c10da5b2cb36"},"vehicle_type_id":"4","last_reported":1743775784,"current_range_meters":11200,"station_id":"ce4bhh92rcd13ifvqfj0","pricing_plan_id":"cebpf4jnsgd1na2vs0mg"},{"bike_id":"c1330435-40b2-43ee-85a0-9fc2642caa1c","system_id":"levelo_inurba_marseille","lat":43.2315,"lon":5.43711,"is_reserved":false,"is_disabled":false,"rental_uris":{"android":"levelo://app?vid=c1330435-40b2-43ee-85a0-9fc2642caa1c","ios":"levelo://app?vid=c1330435-40b2-43ee-85a0-9fc2642caa1c"},"vehicle_type_id":"4","last_reported":1743775784,"current_range_meters":11200,"station_id":"ce4bhmp2rcd13ifvqgog","pricing_plan_id":"cebpf4jnsgd1na2vs0mg"},{"bike_id":"1b07f5d0-df62-4495-a42c-4a12cca8ef22","system_id":"levelo_inurba_marseille","lat":43.30257,"lon":5.40088,"is_reserved":false,"is_disabled":true,"rental_uris":{"android":"levelo://app?vid=1b07f5d0-df62-4495-a42c-4a12cca8ef22","ios":"levelo://app?vid=1b07f5d0-df62-4495-a42c-4a12cca8ef22"},"vehicle_type_id":"4","last_reported":1743775784,"current_range_meters":11600,"station_id":"ce4bgvh2rcd13ifvqcs0","pricing_plan_id":"cebpf4jnsgd1na2vs0mg"},{"bike_id":"d4dd4919-bfec-416a-a003-b617f371206f","system_id":"levelo_inurba_marseille","lat":43.286931,"lon":5.399856,"is_reserved":false,"is_disabled":false,"rental_uris":{"android":"levelo://app?vid=d4dd4919-bfec-416a-a003-b617f371206f","ios":"levelo://app?vid=d4dd4919-bfec-416a-a003-b617f371206f"},"vehicle_type_id":"4","last_reported":1743775784,"current_range_meters":11600,"station_id":"ce4bho92rcd13ifvqh3g","pricing_plan_id":"cebpf4jnsgd1na2vs0mg"},{"bike_id":"829acafc-221e-41d2-b87e-1eaa511b3313","system_id":"levelo_inurba_marseille","lat":43.29047,"lon":5.39954,"is_reserved":false,"is_disabled":true,"rental_uris":{"android":"levelo://app?vid=829acafc-221e-41d2-b87e-1eaa511b3313","ios":"levelo://app?vid=829acafc-221e-41d2-b87e-1eaa511b3313"},"vehicle_type_id":"4","last_reported":1743775784,"current_range_meters":11600,"station_id":"ce4bh392rcd13ifvqdm0","pricing_plan_id":"cebpf4jnsgd1na2vs0mg"},{"bike_id":"c316d92c-b109-4e88-ac6f-8a846ba3b805","system_id":"levelo_inurba_marseille","lat":43.25005,"lon":5.38929,"is_reserved":false,"is_disabled":false,"rental_uris":{"android":"levelo://app?vid=c316d92c-b109-4e88-ac6f-8a846ba3b805","ios":"levelo://app?vid=c316d92c-b109-4e88-ac6f-8a846ba3b805"},"vehicle_type_id":"4","last_reported":1743775784,"current_range_meters":11600,"station_id":"ce4bhgp2rcd13ifvqfd0","pricing_plan_id":"cebpf4jnsgd1na2vs0mg"},{"bike_id":"f5af90c2-9215-46a4-9984-9aced5d41d13","system_id":"levelo_inurba_marseille","lat":43.29261,"lon":5.40905,"is_reserved":false,"is_disabled":false,"rental_uris":{"android":"levelo://app?vid=f5af90c2-9215-46a4-9984-9aced5d41d13","ios":"levelo://app?vid=f5af90c2-9215-46a4-9984-9aced5d41d13"},"vehicle_type_id":"4","last_reported":1743775784,"current_range_meters":8800,"station_id":"ce4bh192rcd13ifvqdc0","pricing_plan_id":"cebpf4jnsgd1na2vs0mg"},{"bike_id":"17ab37d2-5ee4-4b9b-96d6-c3e541946059","system_id":"levelo_inurba_marseille","lat":43.30902,"lon":5.37187,"is_reserved":false,"is_disabled":false,"rental_uris":{"android":"levelo://app?vid=17ab37d2-5ee4-4b9b-96d6-c3e541946059","ios":"levelo://app?vid=17ab37d2-5ee4-4b9b-96d6-c3e541946059"},"vehicle_type_id":"4","last_reported":1743775784,"current_range_meters":11600,"station_id":"ce4bguh2rcd13ifvqckg","pricing_plan_id":"cebpf4jnsgd1na2vs0mg"},{"bike_id":"c9ab5bfd-fa91-4b45-8fa2-52813c43fa45","system_id":"levelo_inurba_marseille","lat":43.23058,"lon":5.35502,"is_reserved":false,"is_disabled":false,"rental_uris":{"android":"levelo://app?vid=c9ab5bfd-fa91-4b45-8fa2-52813c43fa45","ios":"levelo://app?vid=c9ab5bfd-fa91-4b45-8fa2-52813c43fa45"},"vehicle_type_id":"4","last_reported":1743775784,"current_range_meters":12000,"station_id":"cpo3342slgdg3j2ifvpg","pricing_plan_id":"cebpf4jnsgd1na2vs0mg"},{"bike_id":"971f6d35-c8b7-4f7b-8910-db8a6d7ed610","system_id":"levelo_inurba_marseille","lat":43.29801,"lon":5.37108,"is_reserved":false,"is_disabled":false,"rental_uris":{"android":"levelo://app?vid=971f6d35-c8b7-4f7b-8910-db8a6d7ed610","ios":"levelo://app?vid=971f6d35-c8b7-4f7b-8910-db8a6d7ed610"},"vehicle_type_id":"4","last_reported":1743775784,"current_range_meters":12000,"station_id":"ce4bgop2rcd13ifvqc1g","pricing_plan_id":"cebpf4jnsgd1na2vs0mg"},{"bike_id":"0649ef84-9096-4807-b94b-6cea495daba4","system_id":"levelo_inurba_marseille","lat":43.29006,"lon":5.35605,"is_reserved":false,"is_disabled":false,"rental_uris":{"android":"levelo://app?vid=0649ef84-9096-4807-b94b-6cea495daba4","ios":"levelo://app?vid=0649ef84-9096-4807-b94b-6cea495daba4"},"vehicle_type_id":"4","last_reported":1743775784,"current_range_meters":11600,"station_id":"ce4bhb92rcd13ifvqen0","pricing_plan_id":"cebpf4jnsgd1na2vs0mg"},{"bike_id":"000d6d12-5f2e-451a-9e2f-da283a2fe794","system_id":"levelo_inurba_marseille","lat":43.28418,"lon":5.34981,"is_reserved":false,"is_disabled":false,"rental_uris":{"android":"levelo://app?vid=000d6d12-5f2e-451a-9e2f-da283a2fe794","ios":"levelo://app?vid=000d6d12-5f2e-451a-9e2f-da283a2fe794"},"vehicle_type_id":"4","last_reported":1743775784,"current_range_meters":12000,"station_id":"ce4bhbh2rcd13ifvqepg","pricing_plan_id":"cebpf4jnsgd1na2vs0mg"},{"bike_id":"4d2455fe-8a4f-4c85-8855-7f0fa3145ab0","system_id":"levelo_inurba_marseille","lat":43.304413,"lon":5.388983,"is_reserved":false,"is_disabled":false,"rental_uris":{"android":"levelo://app?vid=4d2455fe-8a4f-4c85-8855-7f0fa3145ab0","ios":"levelo://app?vid=4d2455fe-8a4f-4c85-8855-7f0fa3145ab0"},"vehicle_type_id":"4","last_reported":1743775784,"current_range_meters":12000,"station_id":"ce4bgk12rcd13ifvqbi0","pricing_plan_id":"cebpf4jnsgd1na2vs0mg"},{"bike_id":"64fdbb2b-e20c-450b-87b0-deaa705d4ef0","system_id":"levelo_inurba_marseille","lat":43.31399,"lon":5.3667,"is_reserved":false,"is_disabled":false,"rental_uris":{"android":"levelo://app?vid=64fdbb2b-e20c-450b-87b0-deaa705d4ef0","ios":"levelo://app?vid=64fdbb2b-e20c-450b-87b0-deaa705d4ef0"},"vehicle_type_id":"4","last_reported":1743775784,"current_range_meters":12000,"station_id":"","pricing_plan_id":"cebpf4jnsgd1na2vs0mg"},{"bike_id":"f40fc4e8-cfdd-40aa-8507-3bd8857476a8","system_id":"levelo_inurba_marseille","lat":43.30256,"lon":5.40088,"is_reserved":false,"is_disabled":true,"rental_uris":{"android":"levelo://app?vid=f40fc4e8-cfdd-40aa-8507-3bd8857476a8","ios":"levelo://app?vid=f40fc4e8-cfdd-40aa-8507-3bd8857476a8"},"vehicle_type_id":"4","last_reported":1743775784,"current_range_meters":12400,"station_id":"ce4bgvh2rcd13ifvqcs0","pricing_plan_id":"cebpf4jnsgd1na2vs0mg"},{"bike_id":"f001bfbd-a3ed-4504-a8fa-898a8d8e55d8","system_id":"levelo_inurba_marseille","lat":43.29876,"lon":5.38904,"is_reserved":false,"is_disabled":false,"rental_uris":{"android":"levelo://app?vid=f001bfbd-a3ed-4504-a8fa-898a8d8e55d8","ios":"levelo://app?vid=f001bfbd-a3ed-4504-a8fa-898a8d8e55d8"},"vehicle_type_id":"4","last_reported":1743775784,"current_range_meters":12400,"station_id":"ce4bh392rcd13ifvqdl0","pricing_plan_id":"cebpf4jnsgd1na2vs0mg"},{"bike_id":"538954b0-bc54-45c5-9cef-16a29fd18cc8","system_id":"levelo_inurba_marseille","lat":43.25941,"lon":5.40907,"is_reserved":false,"is_disabled":false,"rental_uris":{"android":"levelo://app?vid=538954b0-bc54-45c5-9cef-16a29fd18cc8","ios":"levelo://app?vid=538954b0-bc54-45c5-9cef-16a29fd18cc8"},"vehicle_type_id":"4","last_reported":1743775784,"current_range_meters":12400,"station_id":"ce4bhm92rcd13ifvqglg","pricing_plan_id":"cebpf4jnsgd1na2vs0mg"},{"bike_id":"ca28f870-5fbf-465c-89f5-a9332593d775","system_id":"levelo_inurba_marseille","lat":43.28074,"lon":5.39651,"is_reserved":false,"is_disabled":false,"rental_uris":{"android":"levelo://app?vid=ca28f870-5fbf-465c-89f5-a9332593d775","ios":"levelo://app?vid=ca28f870-5fbf-465c-89f5-a9332593d775"},"vehicle_type_id":"4","last_reported":1743775784,"current_range_meters":12400,"station_id":"ce4bho12rcd13ifvqh2g","pricing_plan_id":"cebpf4jnsgd1na2vs0mg"},{"bike_id":"a5767c78-124d-4df5-9a34-444b742cb735","system_id":"levelo_inurba_marseille","lat":43.24168,"lon":5.39707,"is_reserved":false,"is_disabled":false,"rental_uris":{"android":"levelo://app?vid=a5767c78-124d-4df5-9a34-444b742cb735","ios":"levelo://app?vid=a5767c78-124d-4df5-9a34-444b742cb735"},"vehicle_type_id":"4","last_reported":1743775784,"current_range_meters":12400,"station_id":"ce4bhn12rcd13ifvqgpg","pricing_plan_id":"cebpf4jnsgd1na2vs0mg"},{"bike_id":"d62dcefb-1795-4629-9d49-a27fa8930a62","system_id":"levelo_inurba_marseille","lat":43.30213,"lon":5.39479,"is_reserved":false,"is_disabled":false,"rental_uris":{"android":"levelo://app?vid=d62dcefb-1795-4629-9d49-a27fa8930a62","ios":"levelo://app?vid=d62dcefb-1795-4629-9d49-a27fa8930a62"},"vehicle_type_id":"4","last_reported":1743775784,"current_range_meters":12800,"station_id":"ce4bh0p2rcd13ifvqd70","pricing_plan_id":"cebpf4jnsgd1na2vs0mg"},{"bike_id":"3b4ad8c6-6244-4378-90d7-dac703d1508d","system_id":"levelo_inurba_marseille","lat":43.23186,"lon":5.3558,"is_reserved":false,"is_disabled":false,"rental_uris":{"android":"levelo://app?vid=3b4ad8c6-6244-4378-90d7-dac703d1508d","ios":"levelo://app?vid=3b4ad8c6-6244-4378-90d7-dac703d1508d"},"vehicle_type_id":"4","last_reported":1743775784,"current_range_meters":12800,"station_id":"ce4bhu92rcd13ifvqi70","pricing_plan_id":"cebpf4jnsgd1na2vs0mg"},{"bike_id":"d7c1acd0-27ce-4cda-87a1-5893fc271736","system_id":"levelo_inurba_marseille","lat":43.30282,"lon":5.37714,"is_reserved":false,"is_disabled":false,"rental_uris":{"android":"levelo://app?vid=d7c1acd0-27ce-4cda-87a1-5893fc271736","ios":"levelo://app?vid=d7c1acd0-27ce-4cda-87a1-5893fc271736"},"vehicle_type_id":"4","last_reported":1743775784,"current_range_meters":12800,"station_id":"ce4bguh2rcd13ifvqcj0","pricing_plan_id":"cebpf4jnsgd1na2vs0mg"},{"bike_id":"ccbaad60-ee1e-4837-a1f8-1af8e79dfa40","system_id":"levelo_inurba_marseille","lat":43.30595,"lon":5.393441,"is_reserved":false,"is_disabled":true,"rental_uris":{"android":"levelo://app?vid=ccbaad60-ee1e-4837-a1f8-1af8e79dfa40","ios":"levelo://app?vid=ccbaad60-ee1e-4837-a1f8-1af8e79dfa40"},"vehicle_type_id":"4","last_reported":1743775784,"current_range_meters":12800,"station_id":"ce4bh0p2rcd13ifvqd80","pricing_plan_id":"cebpf4jnsgd1na2vs0mg"},{"bike_id":"05d00f93-8e3a-4dda-843a-8c55f4e7abcc","system_id":"levelo_inurba_marseille","lat":43.31371,"lon":5.36742,"is_reserved":false,"is_disabled":false,"rental_uris":{"android":"levelo://app?vid=05d00f93-8e3a-4dda-843a-8c55f4e7abcc","ios":"levelo://app?vid=05d00f93-8e3a-4dda-843a-8c55f4e7abcc"},"vehicle_type_id":"4","last_reported":1743775784,"current_range_meters":12800,"station_id":"ce4bgr92rcd13ifvqc6g","pricing_plan_id":"cebpf4jnsgd1na2vs0mg"},{"bike_id":"5cf12582-1d09-4f25-b2f7-f4fcde20c282","system_id":"levelo_inurba_marseille","lat":43.32341,"lon":5.40625,"is_reserved":false,"is_disabled":false,"rental_uris":{"android":"levelo://app?vid=5cf12582-1d09-4f25-b2f7-f4fcde20c282","ios":"levelo://app?vid=5cf12582-1d09-4f25-b2f7-f4fcde20c282"},"vehicle_type_id":"4","last_reported":1743775784,"current_range_meters":12800,"station_id":"ce4bhq92rcd13ifvqhjg","pricing_plan_id":"cebpf4jnsgd1na2vs0mg"},{"bike_id":"dabdb4a0-a190-4781-a978-36db6194def8","system_id":"levelo_inurba_marseille","lat":43.2737,"lon":5.36259,"is_reserved":false,"is_disabled":false,"rental_uris":{"android":"levelo://app?vid=dabdb4a0-a190-4781-a978-36db6194def8","ios":"levelo://app?vid=dabdb4a0-a190-4781-a978-36db6194def8"},"vehicle_type_id":"4","last_reported":1743775784,"current_range_meters":12800,"station_id":"ce4bhbh2rcd13ifvqeo0","pricing_plan_id":"cebpf4jnsgd1na2vs0mg"},{"bike_id":"e869b0a9-ee17-4442-83de-5ea39fb87baa","system_id":"levelo_inurba_marseille","lat":43.299713,"lon":5.384816,"is_reserved":false,"is_disabled":false,"rental_uris":{"android":"levelo://app?vid=e869b0a9-ee17-4442-83de-5ea39fb87baa","ios":"levelo://app?vid=e869b0a9-ee17-4442-83de-5ea39fb87baa"},"vehicle_type_id":"4","last_reported":1743775784,"current_range_meters":12800,"station_id":"ce4bgj92rcd13ifvqbd0","pricing_plan_id":"cebpf4jnsgd1na2vs0mg"},{"bike_id":"0eb30f16-826e-404e-9494-cbd59d704ab7","system_id":"levelo_inurba_marseille","lat":43.29021,"lon":5.38633,"is_reserved":false,"is_disabled":true,"rental_uris":{"android":"levelo://app?vid=0eb30f16-826e-404e-9494-cbd59d704ab7","ios":"levelo://app?vid=0eb30f16-826e-404e-9494-cbd59d704ab7"},"vehicle_type_id":"4","last_reported":1743775784,"current_range_meters":13600,"station_id":"ce4bh4p2rcd13ifvqe0g","pricing_plan_id":"cebpf4jnsgd1na2vs0mg"},{"bike_id":"ac4893c8-5e6e-4394-a00d-8b1d94962c2e","system_id":"levelo_inurba_marseille","lat":43.28418,"lon":5.34978,"is_reserved":false,"is_disabled":false,"rental_uris":{"android":"levelo://app?vid=ac4893c8-5e6e-4394-a00d-8b1d94962c2e","ios":"levelo://app?vid=ac4893c8-5e6e-4394-a00d-8b1d94962c2e"},"vehicle_type_id":"4","last_reported":1743775784,"current_range_meters":12800,"station_id":"ce4bhbh2rcd13ifvqepg","pricing_plan_id":"cebpf4jnsgd1na2vs0mg"},{"bike_id":"978f00e3-47d2-481d-80c8-31e1e7283ad6","system_id":"levelo_inurba_marseille","lat":43.22925,"lon":5.35377,"is_reserved":false,"is_disabled":false,"rental_uris":{"android":"levelo://app?vid=978f00e3-47d2-481d-80c8-31e1e7283ad6","ios":"levelo://app?vid=978f00e3-47d2-481d-80c8-31e1e7283ad6"},"vehicle_type_id":"4","last_reported":1743775784,"current_range_meters":12800,"station_id":"cpo3532slgdg3j2ikp40","pricing_plan_id":"cebpf4jnsgd1na2vs0mg"},{"bike_id":"d4c254fe-daca-4c9c-baa2-9de97069a3c0","system_id":"levelo_inurba_marseille","lat":43.29881,"lon":5.38922,"is_reserved":false,"is_disabled":false,"rental_uris":{"android":"levelo://app?vid=d4c254fe-daca-4c9c-baa2-9de97069a3c0","ios":"levelo://app?vid=d4c254fe-daca-4c9c-baa2-9de97069a3c0"},"vehicle_type_id":"4","last_reported":1743775784,"current_range_meters":12800,"station_id":"ce4bh392rcd13ifvqdl0","pricing_plan_id":"cebpf4jnsgd1na2vs0mg"},{"bike_id":"1b981967-3401-47d6-ab6e-d2ee61beb420","system_id":"levelo_inurba_marseille","lat":43.28043,"lon":5.3694,"is_reserved":false,"is_disabled":false,"rental_uris":{"android":"levelo://app?vid=1b981967-3401-47d6-ab6e-d2ee61beb420","ios":"levelo://app?vid=1b981967-3401-47d6-ab6e-d2ee61beb420"},"vehicle_type_id":"4","last_reported":1743775784,"current_range_meters":13600,"station_id":"ce4bha12rcd13ifvqef0","pricing_plan_id":"cebpf4jnsgd1na2vs0mg"},{"bike_id":"653baa7e-124e-45fa-8185-647592a10be5","system_id":"levelo_inurba_marseille","lat":43.31722,"lon":5.42396,"is_reserved":false,"is_disabled":false,"rental_uris":{"android":"levelo://app?vid=653baa7e-124e-45fa-8185-647592a10be5","ios":"levelo://app?vid=653baa7e-124e-45fa-8185-647592a10be5"},"vehicle_type_id":"4","last_reported":1743775784,"current_range_meters":13600,"station_id":"ce4bhp92rcd13ifvqhbg","pricing_plan_id":"cebpf4jnsgd1na2vs0mg"},{"bike_id":"a6303451-5b45-435c-bf0e-748f94cc010d","system_id":"levelo_inurba_marseille","lat":43.23195,"lon":5.35548,"is_reserved":false,"is_disabled":false,"rental_uris":{"android":"levelo://app?vid=a6303451-5b45-435c-bf0e-748f94cc010d","ios":"levelo://app?vid=a6303451-5b45-435c-bf0e-748f94cc010d"},"vehicle_type_id":"4","last_reported":1743775784,"current_range_meters":13600,"station_id":"ce4bhu92rcd13ifvqi70","pricing_plan_id":"cebpf4jnsgd1na2vs0mg"},{"bike_id":"33c10bab-98c6-4753-a81e-6e78e41d2e35","system_id":"levelo_inurba_marseille","lat":43.28083,"lon":5.39662,"is_reserved":false,"is_disabled":false,"rental_uris":{"android":"levelo://app?vid=33c10bab-98c6-4753-a81e-6e78e41d2e35","ios":"levelo://app?vid=33c10bab-98c6-4753-a81e-6e78e41d2e35"},"vehicle_type_id":"4","last_reported":1743775784,"current_range_meters":13600,"station_id":"ce4bho12rcd13ifvqh2g","pricing_plan_id":"cebpf4jnsgd1na2vs0mg"},{"bike_id":"d3ff86d5-a79d-4cc9-8af5-c40a7137f658","system_id":"levelo_inurba_marseille","lat":43.29037,"lon":5.38646,"is_reserved":false,"is_disabled":false,"rental_uris":{"android":"levelo://app?vid=d3ff86d5-a79d-4cc9-8af5-c40a7137f658","ios":"levelo://app?vid=d3ff86d5-a79d-4cc9-8af5-c40a7137f658"},"vehicle_type_id":"4","last_reported":1743775784,"current_range_meters":13600,"station_id":"ce4bh4p2rcd13ifvqe0g","pricing_plan_id":"cebpf4jnsgd1na2vs0mg"},{"bike_id":"9404994d-e86a-4ae3-bd80-3b8ea87d90cf","system_id":"levelo_inurba_marseille","lat":43.28868,"lon":5.35838,"is_reserved":false,"is_disabled":false,"rental_uris":{"android":"levelo://app?vid=9404994d-e86a-4ae3-bd80-3b8ea87d90cf","ios":"levelo://app?vid=9404994d-e86a-4ae3-bd80-3b8ea87d90cf"},"vehicle_type_id":"4","last_reported":1743775784,"current_range_meters":13600,"station_id":"ce4bhb12rcd13ifvqem0","pricing_plan_id":"cebpf4jnsgd1na2vs0mg"},{"bike_id":"c2055a2a-1cff-4f19-a52d-9b52baeaa63f","system_id":"levelo_inurba_marseille","lat":43.32022,"lon":5.38129,"is_reserved":false,"is_disabled":true,"rental_uris":{"android":"levelo://app?vid=c2055a2a-1cff-4f19-a52d-9b52baeaa63f","ios":"levelo://app?vid=c2055a2a-1cff-4f19-a52d-9b52baeaa63f"},"vehicle_type_id":"4","last_reported":1743775784,"current_range_meters":13600,"station_id":"ce4bhr12rcd13ifvqhpg","pricing_plan_id":"cebpf4jnsgd1na2vs0mg"},{"bike_id":"a07480da-f5a9-4597-b3e6-cc405effeae7","system_id":"levelo_inurba_marseille","lat":43.28934,"lon":5.39628,"is_reserved":false,"is_disabled":true,"rental_uris":{"android":"levelo://app?vid=a07480da-f5a9-4597-b3e6-cc405effeae7","ios":"levelo://app?vid=a07480da-f5a9-4597-b3e6-cc405effeae7"},"vehicle_type_id":"4","last_reported":1743775784,"current_range_meters":14000,"station_id":"ce4bh3h2rcd13ifvqdn0","pricing_plan_id":"cebpf4jnsgd1na2vs0mg"},{"bike_id":"9df2e517-b618-4d6d-ae3a-3b20dba81f15","system_id":"levelo_inurba_marseille","lat":43.28969,"lon":5.36611,"is_reserved":false,"is_disabled":false,"rental_uris":{"android":"levelo://app?vid=9df2e517-b618-4d6d-ae3a-3b20dba81f15","ios":"levelo://app?vid=9df2e517-b618-4d6d-ae3a-3b20dba81f15"},"vehicle_type_id":"4","last_reported":1743775784,"current_range_meters":14000,"station_id":"ce4bhap2rcd13ifvqek0","pricing_plan_id":"cebpf4jnsgd1na2vs0mg"},{"bike_id":"27ebc7eb-5de4-43f0-933c-44535f627bc9","system_id":"levelo_inurba_marseille","lat":43.25395,"lon":5.4185,"is_reserved":false,"is_disabled":false,"rental_uris":{"android":"levelo://app?vid=27ebc7eb-5de4-43f0-933c-44535f627bc9","ios":"levelo://app?vid=27ebc7eb-5de4-43f0-933c-44535f627bc9"},"vehicle_type_id":"4","last_reported":1743775784,"current_range_meters":14000,"station_id":"","pricing_plan_id":"cebpf4jnsgd1na2vs0mg"},{"bike_id":"f25b4cfb-8025-40a8-b4da-bb7860315c81","system_id":"levelo_inurba_marseille","lat":43.29887,"lon":5.397314,"is_reserved":false,"is_disabled":false,"rental_uris":{"android":"levelo://app?vid=f25b4cfb-8025-40a8-b4da-bb7860315c81","ios":"levelo://app?vid=f25b4cfb-8025-40a8-b4da-bb7860315c81"},"vehicle_type_id":"4","last_reported":1743775784,"current_range_meters":14000,"station_id":"ce4bh0h2rcd13ifvqd50","pricing_plan_id":"cebpf4jnsgd1na2vs0mg"},{"bike_id":"5b060d7a-2df1-4686-b7a8-e282a8ef958f","system_id":"levelo_inurba_marseille","lat":43.29611,"lon":5.37674,"is_reserved":false,"is_disabled":false,"rental_uris":{"android":"levelo://app?vid=5b060d7a-2df1-4686-b7a8-e282a8ef958f","ios":"levelo://app?vid=5b060d7a-2df1-4686-b7a8-e282a8ef958f"},"vehicle_type_id":"4","last_reported":1743775784,"current_range_meters":14000,"station_id":"ce4bgi92rcd13ifvqb90","pricing_plan_id":"cebpf4jnsgd1na2vs0mg"},{"bike_id":"cccce150-77a7-4565-8ca1-36858ce9e6b0","system_id":"levelo_inurba_marseille","lat":43.32113,"lon":5.36764,"is_reserved":false,"is_disabled":false,"rental_uris":{"android":"levelo://app?vid=cccce150-77a7-4565-8ca1-36858ce9e6b0","ios":"levelo://app?vid=cccce150-77a7-4565-8ca1-36858ce9e6b0"},"vehicle_type_id":"4","last_reported":1743775784,"current_range_meters":14000,"station_id":"ce4bhrh2rcd13ifvqhug","pricing_plan_id":"cebpf4jnsgd1na2vs0mg"},{"bike_id":"9a18d3a1-f15b-4151-9b7b-cd483060f933","system_id":"levelo_inurba_marseille","lat":43.30564,"lon":5.36588,"is_reserved":false,"is_disabled":false,"rental_uris":{"android":"levelo://app?vid=9a18d3a1-f15b-4151-9b7b-cd483060f933","ios":"levelo://app?vid=9a18d3a1-f15b-4151-9b7b-cd483060f933"},"vehicle_type_id":"4","last_reported":1743775784,"current_range_meters":14000,"station_id":"ce4bgs12rcd13ifvqcag","pricing_plan_id":"cebpf4jnsgd1na2vs0mg"},{"bike_id":"1d5ef6d0-a413-45b3-8100-7222d11689f2","system_id":"levelo_inurba_marseille","lat":43.289154,"lon":5.384056,"is_reserved":false,"is_disabled":true,"rental_uris":{"android":"levelo://app?vid=1d5ef6d0-a413-45b3-8100-7222d11689f2","ios":"levelo://app?vid=1d5ef6d0-a413-45b3-8100-7222d11689f2"},"vehicle_type_id":"4","last_reported":1743775784,"current_range_meters":14000,"station_id":"ce4bh612rcd13ifvqe6g","pricing_plan_id":"cebpf4jnsgd1na2vs0mg"},{"bike_id":"44ac6bc0-66a4-4501-af28-17e8526c476f","system_id":"levelo_inurba_marseille","lat":43.24169,"lon":5.364,"is_reserved":false,"is_disabled":false,"rental_uris":{"android":"levelo://app?vid=44ac6bc0-66a4-4501-af28-17e8526c476f","ios":"levelo://app?vid=44ac6bc0-66a4-4501-af28-17e8526c476f"},"vehicle_type_id":"4","last_reported":1743775784,"current_range_meters":14400,"station_id":"cpo36qri1sfpv3e86is0","pricing_plan_id":"cebpf4jnsgd1na2vs0mg"},{"bike_id":"48ec1fe3-fdf4-49a5-977a-526829b4e2e3","system_id":"levelo_inurba_marseille","lat":43.23055,"lon":5.35497,"is_reserved":false,"is_disabled":false,"rental_uris":{"android":"levelo://app?vid=48ec1fe3-fdf4-49a5-977a-526829b4e2e3","ios":"levelo://app?vid=48ec1fe3-fdf4-49a5-977a-526829b4e2e3"},"vehicle_type_id":"4","last_reported":1743775784,"current_range_meters":14400,"station_id":"cpo3342slgdg3j2ifvpg","pricing_plan_id":"cebpf4jnsgd1na2vs0mg"},{"bike_id":"920caf58-26d3-4ad3-823a-0f91cc29d3c6","system_id":"levelo_inurba_marseille","lat":43.27504,"lon":5.4245,"is_reserved":false,"is_disabled":false,"rental_uris":{"android":"levelo://app?vid=920caf58-26d3-4ad3-823a-0f91cc29d3c6","ios":"levelo://app?vid=920caf58-26d3-4ad3-823a-0f91cc29d3c6"},"vehicle_type_id":"4","last_reported":1743775784,"current_range_meters":14400,"station_id":"ce4bhn92rcd13ifvqgrg","pricing_plan_id":"cebpf4jnsgd1na2vs0mg"},{"bike_id":"188e01b9-65db-4a5b-b580-c3a2d1a3e000","system_id":"levelo_inurba_marseille","lat":43.28743,"lon":5.37071,"is_reserved":false,"is_disabled":false,"rental_uris":{"android":"levelo://app?vid=188e01b9-65db-4a5b-b580-c3a2d1a3e000","ios":"levelo://app?vid=188e01b9-65db-4a5b-b580-c3a2d1a3e000"},"vehicle_type_id":"4","last_reported":1743775784,"current_range_meters":14400,"station_id":"","pricing_plan_id":"cebpf4jnsgd1na2vs0mg"},{"bike_id":"df608268-eaa3-402f-9fbd-6b85450fad13","system_id":"levelo_inurba_marseille","lat":43.30541,"lon":5.36559,"is_reserved":false,"is_disabled":false,"rental_uris":{"android":"levelo://app?vid=df608268-eaa3-402f-9fbd-6b85450fad13","ios":"levelo://app?vid=df608268-eaa3-402f-9fbd-6b85450fad13"},"vehicle_type_id":"4","last_reported":1743775784,"current_range_meters":14400,"station_id":"ce4bgs12rcd13ifvqcag","pricing_plan_id":"cebpf4jnsgd1na2vs0mg"},{"bike_id":"6d9715e6-045f-417b-844a-144b6e5c1132","system_id":"levelo_inurba_marseille","lat":43.29208,"lon":5.35712,"is_reserved":false,"is_disabled":false,"rental_uris":{"android":"levelo://app?vid=6d9715e6-045f-417b-844a-144b6e5c1132","ios":"levelo://app?vid=6d9715e6-045f-417b-844a-144b6e5c1132"},"vehicle_type_id":"4","last_reported":1743775784,"current_range_meters":14400,"station_id":"","pricing_plan_id":"cebpf4jnsgd1na2vs0mg"},{"bike_id":"eb79d1f9-7c91-4ea2-b5f8-796189743e1a","system_id":"levelo_inurba_marseille","lat":43.3373,"lon":5.39177,"is_reserved":false,"is_disabled":false,"rental_uris":{"android":"levelo://app?vid=eb79d1f9-7c91-4ea2-b5f8-796189743e1a","ios":"levelo://app?vid=eb79d1f9-7c91-4ea2-b5f8-796189743e1a"},"vehicle_type_id":"4","last_reported":1743775784,"current_range_meters":14800,"station_id":"ce4bhr92rcd13ifvqhsg","pricing_plan_id":"cebpf4jnsgd1na2vs0mg"},{"bike_id":"e8295bc1-c10a-4d29-b710-6a1c7fd0dc11","system_id":"levelo_inurba_marseille","lat":43.27483,"lon":5.42449,"is_reserved":false,"is_disabled":false,"rental_uris":{"android":"levelo://app?vid=e8295bc1-c10a-4d29-b710-6a1c7fd0dc11","ios":"levelo://app?vid=e8295bc1-c10a-4d29-b710-6a1c7fd0dc11"},"vehicle_type_id":"4","last_reported":1743775784,"current_range_meters":14800,"station_id":"ce4bhn92rcd13ifvqgrg","pricing_plan_id":"cebpf4jnsgd1na2vs0mg"},{"bike_id":"7c4c68fb-dbff-4db4-8c86-1f04bce6157a","system_id":"levelo_inurba_marseille","lat":43.32658,"lon":5.40998,"is_reserved":false,"is_disabled":false,"rental_uris":{"android":"levelo://app?vid=7c4c68fb-dbff-4db4-8c86-1f04bce6157a","ios":"levelo://app?vid=7c4c68fb-dbff-4db4-8c86-1f04bce6157a"},"vehicle_type_id":"4","last_reported":1743775784,"current_range_meters":14400,"station_id":"ce4bhpp2rcd13ifvqhgg","pricing_plan_id":"cebpf4jnsgd1na2vs0mg"},{"bike_id":"7802f9b7-cc91-41c4-8d3c-017e8ca07dd5","system_id":"levelo_inurba_marseille","lat":43.31704,"lon":5.37787,"is_reserved":false,"is_disabled":false,"rental_uris":{"android":"levelo://app?vid=7802f9b7-cc91-41c4-8d3c-017e8ca07dd5","ios":"levelo://app?vid=7802f9b7-cc91-41c4-8d3c-017e8ca07dd5"},"vehicle_type_id":"4","last_reported":1743775784,"current_range_meters":14800,"station_id":"ce4bgth2rcd13ifvqch0","pricing_plan_id":"cebpf4jnsgd1na2vs0mg"},{"bike_id":"ae85a7a4-7c38-4e25-9e50-a9a925b58789","system_id":"levelo_inurba_marseille","lat":43.31086,"lon":5.42439,"is_reserved":false,"is_disabled":false,"rental_uris":{"android":"levelo://app?vid=ae85a7a4-7c38-4e25-9e50-a9a925b58789","ios":"levelo://app?vid=ae85a7a4-7c38-4e25-9e50-a9a925b58789"},"vehicle_type_id":"4","last_reported":1743775784,"current_range_meters":15200,"station_id":"ce4bhp92rcd13ifvqhag","pricing_plan_id":"cebpf4jnsgd1na2vs0mg"},{"bike_id":"e7339804-7786-4f31-9c1f-ca8134aa0aee","system_id":"levelo_inurba_marseille","lat":43.30276,"lon":5.37693,"is_reserved":false,"is_disabled":false,"rental_uris":{"android":"levelo://app?vid=e7339804-7786-4f31-9c1f-ca8134aa0aee","ios":"levelo://app?vid=e7339804-7786-4f31-9c1f-ca8134aa0aee"},"vehicle_type_id":"4","last_reported":1743775784,"current_range_meters":15200,"station_id":"ce4bguh2rcd13ifvqcj0","pricing_plan_id":"cebpf4jnsgd1na2vs0mg"},{"bike_id":"fa909390-7649-468b-aa4d-73bb9e113949","system_id":"levelo_inurba_marseille","lat":43.31486,"lon":5.37301,"is_reserved":false,"is_disabled":false,"rental_uris":{"android":"levelo://app?vid=fa909390-7649-468b-aa4d-73bb9e113949","ios":"levelo://app?vid=fa909390-7649-468b-aa4d-73bb9e113949"},"vehicle_type_id":"4","last_reported":1743775784,"current_range_meters":15200,"station_id":"ce4bgt12rcd13ifvqcd0","pricing_plan_id":"cebpf4jnsgd1na2vs0mg"},{"bike_id":"19b80c7f-db25-40c8-945f-67fe43b6cc5f","system_id":"levelo_inurba_marseille","lat":43.30542,"lon":5.36537,"is_reserved":false,"is_disabled":false,"rental_uris":{"android":"levelo://app?vid=19b80c7f-db25-40c8-945f-67fe43b6cc5f","ios":"levelo://app?vid=19b80c7f-db25-40c8-945f-67fe43b6cc5f"},"vehicle_type_id":"4","last_reported":1743775784,"current_range_meters":15200,"station_id":"ce4bgs12rcd13ifvqcag","pricing_plan_id":"cebpf4jnsgd1na2vs0mg"},{"bike_id":"e2ca3739-e568-42d2-9abe-e563a644da3e","system_id":"levelo_inurba_marseille","lat":43.292664,"lon":5.384442,"is_reserved":false,"is_disabled":false,"rental_uris":{"android":"levelo://app?vid=e2ca3739-e568-42d2-9abe-e563a644da3e","ios":"levelo://app?vid=e2ca3739-e568-42d2-9abe-e563a644da3e"},"vehicle_type_id":"4","last_reported":1743775784,"current_range_meters":15200,"station_id":"ce4bh092rcd13ifvqd20","pricing_plan_id":"cebpf4jnsgd1na2vs0mg"},{"bike_id":"cbebb949-e7de-4486-bbf0-a3318e820285","system_id":"levelo_inurba_marseille","lat":43.30273,"lon":5.37725,"is_reserved":false,"is_disabled":false,"rental_uris":{"android":"levelo://app?vid=cbebb949-e7de-4486-bbf0-a3318e820285","ios":"levelo://app?vid=cbebb949-e7de-4486-bbf0-a3318e820285"},"vehicle_type_id":"4","last_reported":1743775784,"current_range_meters":15200,"station_id":"ce4bguh2rcd13ifvqcj0","pricing_plan_id":"cebpf4jnsgd1na2vs0mg"},{"bike_id":"87ad20e7-b944-4dcf-9bfb-9c1b62d4e8f4","system_id":"levelo_inurba_marseille","lat":43.27374,"lon":5.36263,"is_reserved":false,"is_disabled":false,"rental_uris":{"android":"levelo://app?vid=87ad20e7-b944-4dcf-9bfb-9c1b62d4e8f4","ios":"levelo://app?vid=87ad20e7-b944-4dcf-9bfb-9c1b62d4e8f4"},"vehicle_type_id":"4","last_reported":1743775784,"current_range_meters":15200,"station_id":"ce4bhbh2rcd13ifvqeo0","pricing_plan_id":"cebpf4jnsgd1na2vs0mg"},{"bike_id":"ba6aa443-539c-448a-b5b8-13fe71a6fd2a","system_id":"levelo_inurba_marseille","lat":43.29783,"lon":5.39335,"is_reserved":false,"is_disabled":false,"rental_uris":{"android":"levelo://app?vid=ba6aa443-539c-448a-b5b8-13fe71a6fd2a","ios":"levelo://app?vid=ba6aa443-539c-448a-b5b8-13fe71a6fd2a"},"vehicle_type_id":"4","last_reported":1743775784,"current_range_meters":15200,"station_id":"chh1huq6cuj3fo74tm60","pricing_plan_id":"cebpf4jnsgd1na2vs0mg"},{"bike_id":"6ab027af-e7a7-4005-84c2-f46c1ec396dc","system_id":"levelo_inurba_marseille","lat":43.2558,"lon":5.38234,"is_reserved":false,"is_disabled":false,"rental_uris":{"android":"levelo://app?vid=6ab027af-e7a7-4005-84c2-f46c1ec396dc","ios":"levelo://app?vid=6ab027af-e7a7-4005-84c2-f46c1ec396dc"},"vehicle_type_id":"4","last_reported":1743775784,"current_range_meters":15200,"station_id":"ce4bhih2rcd13ifvqfs0","pricing_plan_id":"cebpf4jnsgd1na2vs0mg"},{"bike_id":"eaf859a6-ff3d-4281-be3e-7de787fa533a","system_id":"levelo_inurba_marseille","lat":43.30311,"lon":5.39189,"is_reserved":false,"is_disabled":true,"rental_uris":{"android":"levelo://app?vid=eaf859a6-ff3d-4281-be3e-7de787fa533a","ios":"levelo://app?vid=eaf859a6-ff3d-4281-be3e-7de787fa533a"},"vehicle_type_id":"4","last_reported":1743775784,"current_range_meters":16000,"station_id":"ce4bgkh2rcd13ifvqbk0","pricing_plan_id":"cebpf4jnsgd1na2vs0mg"},{"bike_id":"b768e25d-51c5-495e-a45f-e2d607133247","system_id":"levelo_inurba_marseille","lat":43.30402,"lon":5.41282,"is_reserved":false,"is_disabled":false,"rental_uris":{"android":"levelo://app?vid=b768e25d-51c5-495e-a45f-e2d607133247","ios":"levelo://app?vid=b768e25d-51c5-495e-a45f-e2d607133247"},"vehicle_type_id":"4","last_reported":1743775784,"current_range_meters":16000,"station_id":"ce4bhop2rcd13ifvqh8g","pricing_plan_id":"cebpf4jnsgd1na2vs0mg"},{"bike_id":"d72ae546-019d-42c4-ab8a-aa9b8ed4f063","system_id":"levelo_inurba_marseille","lat":43.305,"lon":5.37899,"is_reserved":false,"is_disabled":false,"rental_uris":{"android":"levelo://app?vid=d72ae546-019d-42c4-ab8a-aa9b8ed4f063","ios":"levelo://app?vid=d72ae546-019d-42c4-ab8a-aa9b8ed4f063"},"vehicle_type_id":"4","last_reported":1743775784,"current_range_meters":16000,"station_id":"ce4bgup2rcd13ifvqcn0","pricing_plan_id":"cebpf4jnsgd1na2vs0mg"},{"bike_id":"49ee9a1e-490a-40c1-b4e9-6f6180de0b7a","system_id":"levelo_inurba_marseille","lat":43.27503,"lon":5.42449,"is_reserved":false,"is_disabled":false,"rental_uris":{"android":"levelo://app?vid=49ee9a1e-490a-40c1-b4e9-6f6180de0b7a","ios":"levelo://app?vid=49ee9a1e-490a-40c1-b4e9-6f6180de0b7a"},"vehicle_type_id":"4","last_reported":1743775784,"current_range_meters":16000,"station_id":"ce4bhn92rcd13ifvqgrg","pricing_plan_id":"cebpf4jnsgd1na2vs0mg"},{"bike_id":"6cff8875-434d-4e4a-8a1b-d6e6f0f4f3f7","system_id":"levelo_inurba_marseille","lat":43.28669,"lon":5.36357,"is_reserved":false,"is_disabled":false,"rental_uris":{"android":"levelo://app?vid=6cff8875-434d-4e4a-8a1b-d6e6f0f4f3f7","ios":"levelo://app?vid=6cff8875-434d-4e4a-8a1b-d6e6f0f4f3f7"},"vehicle_type_id":"4","last_reported":1743775784,"current_range_meters":16000,"station_id":"ce4bhah2rcd13ifvqej0","pricing_plan_id":"cebpf4jnsgd1na2vs0mg"},{"bike_id":"40c5c920-b782-49f4-8bfa-a420350c24c5","system_id":"levelo_inurba_marseille","lat":43.25942,"lon":5.40903,"is_reserved":false,"is_disabled":false,"rental_uris":{"android":"levelo://app?vid=40c5c920-b782-49f4-8bfa-a420350c24c5","ios":"levelo://app?vid=40c5c920-b782-49f4-8bfa-a420350c24c5"},"vehicle_type_id":"4","last_reported":1743775784,"current_range_meters":16000,"station_id":"ce4bhm92rcd13ifvqglg","pricing_plan_id":"cebpf4jnsgd1na2vs0mg"},{"bike_id":"293a303f-e432-4fe3-bf78-d168aac8745c","system_id":"levelo_inurba_marseille","lat":43.29259,"lon":5.40905,"is_reserved":false,"is_disabled":false,"rental_uris":{"android":"levelo://app?vid=293a303f-e432-4fe3-bf78-d168aac8745c","ios":"levelo://app?vid=293a303f-e432-4fe3-bf78-d168aac8745c"},"vehicle_type_id":"4","last_reported":1743775784,"current_range_meters":16000,"station_id":"ce4bh192rcd13ifvqdc0","pricing_plan_id":"cebpf4jnsgd1na2vs0mg"},{"bike_id":"53023ed6-041d-48dd-b540-7c38b74db6cb","system_id":"levelo_inurba_marseille","lat":43.29969,"lon":5.38485,"is_reserved":false,"is_disabled":false,"rental_uris":{"android":"levelo://app?vid=53023ed6-041d-48dd-b540-7c38b74db6cb","ios":"levelo://app?vid=53023ed6-041d-48dd-b540-7c38b74db6cb"},"vehicle_type_id":"4","last_reported":1743775784,"current_range_meters":16000,"station_id":"ce4bgj92rcd13ifvqbd0","pricing_plan_id":"cebpf4jnsgd1na2vs0mg"},{"bike_id":"3d0496cc-5653-4de4-94dd-701a80d2d07b","system_id":"levelo_inurba_marseille","lat":43.32662,"lon":5.40992,"is_reserved":false,"is_disabled":false,"rental_uris":{"android":"levelo://app?vid=3d0496cc-5653-4de4-94dd-701a80d2d07b","ios":"levelo://app?vid=3d0496cc-5653-4de4-94dd-701a80d2d07b"},"vehicle_type_id":"4","last_reported":1743775784,"current_range_meters":16000,"station_id":"ce4bhpp2rcd13ifvqhgg","pricing_plan_id":"cebpf4jnsgd1na2vs0mg"},{"bike_id":"e0025ce5-fe29-4293-8000-c88ee2bac657","system_id":"levelo_inurba_marseille","lat":43.31331,"lon":5.39692,"is_reserved":false,"is_disabled":false,"rental_uris":{"android":"levelo://app?vid=e0025ce5-fe29-4293-8000-c88ee2bac657","ios":"levelo://app?vid=e0025ce5-fe29-4293-8000-c88ee2bac657"},"vehicle_type_id":"4","last_reported":1743775784,"current_range_meters":16000,"station_id":"ce4bgvp2rcd13ifvqcu0","pricing_plan_id":"cebpf4jnsgd1na2vs0mg"},{"bike_id":"b646ace8-08b7-485e-abcd-2b6b162d14dc","system_id":"levelo_inurba_marseille","lat":43.29903,"lon":5.43669,"is_reserved":false,"is_disabled":false,"rental_uris":{"android":"levelo://app?vid=b646ace8-08b7-485e-abcd-2b6b162d14dc","ios":"levelo://app?vid=b646ace8-08b7-485e-abcd-2b6b162d14dc"},"vehicle_type_id":"4","last_reported":1743775784,"current_range_meters":16000,"station_id":"ce4bhpp2rcd13ifvqhfg","pricing_plan_id":"cebpf4jnsgd1na2vs0mg"},{"bike_id":"d0af8e3a-06bf-4cee-bae3-44fd7d6ae859","system_id":"levelo_inurba_marseille","lat":43.23069,"lon":5.35491,"is_reserved":false,"is_disabled":false,"rental_uris":{"android":"levelo://app?vid=d0af8e3a-06bf-4cee-bae3-44fd7d6ae859","ios":"levelo://app?vid=d0af8e3a-06bf-4cee-bae3-44fd7d6ae859"},"vehicle_type_id":"4","last_reported":1743775784,"current_range_meters":16400,"station_id":"cpo3342slgdg3j2ifvpg","pricing_plan_id":"cebpf4jnsgd1na2vs0mg"},{"bike_id":"1c6a9a4d-5ef6-476b-b921-e44abfffd79e","system_id":"levelo_inurba_marseille","lat":43.25933,"lon":5.40911,"is_reserved":false,"is_disabled":false,"rental_uris":{"android":"levelo://app?vid=1c6a9a4d-5ef6-476b-b921-e44abfffd79e","ios":"levelo://app?vid=1c6a9a4d-5ef6-476b-b921-e44abfffd79e"},"vehicle_type_id":"4","last_reported":1743775784,"current_range_meters":16400,"station_id":"ce4bhm92rcd13ifvqglg","pricing_plan_id":"cebpf4jnsgd1na2vs0mg"},{"bike_id":"875f7220-eb0a-4e21-b284-cbcd5cffd6c6","system_id":"levelo_inurba_marseille","lat":43.32104,"lon":5.36775,"is_reserved":false,"is_disabled":false,"rental_uris":{"android":"levelo://app?vid=875f7220-eb0a-4e21-b284-cbcd5cffd6c6","ios":"levelo://app?vid=875f7220-eb0a-4e21-b284-cbcd5cffd6c6"},"vehicle_type_id":"4","last_reported":1743775784,"current_range_meters":16400,"station_id":"ce4bhrh2rcd13ifvqhug","pricing_plan_id":"cebpf4jnsgd1na2vs0mg"},{"bike_id":"30b57730-cb66-4122-bd93-7dabcaba84e7","system_id":"levelo_inurba_marseille","lat":43.24905,"lon":5.40681,"is_reserved":false,"is_disabled":false,"rental_uris":{"android":"levelo://app?vid=30b57730-cb66-4122-bd93-7dabcaba84e7","ios":"levelo://app?vid=30b57730-cb66-4122-bd93-7dabcaba84e7"},"vehicle_type_id":"4","last_reported":1743775784,"current_range_meters":16400,"station_id":"","pricing_plan_id":"cebpf4jnsgd1na2vs0mg"},{"bike_id":"f2faf7e0-d31b-46e7-9766-aea692cf08a2","system_id":"levelo_inurba_marseille","lat":43.26028,"lon":5.37551,"is_reserved":false,"is_disabled":false,"rental_uris":{"android":"levelo://app?vid=f2faf7e0-d31b-46e7-9766-aea692cf08a2","ios":"levelo://app?vid=f2faf7e0-d31b-46e7-9766-aea692cf08a2"},"vehicle_type_id":"4","last_reported":1743775784,"current_range_meters":16400,"station_id":"ce4bhgh2rcd13ifvqfa0","pricing_plan_id":"cebpf4jnsgd1na2vs0mg"},{"bike_id":"507eb123-e9fa-4137-a5c6-adbacd5eb2bf","system_id":"levelo_inurba_marseille","lat":43.25085,"lon":5.39522,"is_reserved":false,"is_disabled":false,"rental_uris":{"android":"levelo://app?vid=507eb123-e9fa-4137-a5c6-adbacd5eb2bf","ios":"levelo://app?vid=507eb123-e9fa-4137-a5c6-adbacd5eb2bf"},"vehicle_type_id":"4","last_reported":1743775784,"current_range_meters":16400,"station_id":"ce4bhm12rcd13ifvqgkg","pricing_plan_id":"cebpf4jnsgd1na2vs0mg"},{"bike_id":"2e0c68ea-3361-418e-9d72-bccb3e4de1ab","system_id":"levelo_inurba_marseille","lat":43.30566,"lon":5.36481,"is_reserved":false,"is_disabled":false,"rental_uris":{"android":"levelo://app?vid=2e0c68ea-3361-418e-9d72-bccb3e4de1ab","ios":"levelo://app?vid=2e0c68ea-3361-418e-9d72-bccb3e4de1ab"},"vehicle_type_id":"4","last_reported":1743775784,"current_range_meters":16400,"station_id":"","pricing_plan_id":"cebpf4jnsgd1na2vs0mg"},{"bike_id":"d9ba9551-893e-4cab-8633-3f34cc33ee19","system_id":"levelo_inurba_marseille","lat":43.30894,"lon":5.37211,"is_reserved":false,"is_disabled":false,"rental_uris":{"android":"levelo://app?vid=d9ba9551-893e-4cab-8633-3f34cc33ee19","ios":"levelo://app?vid=d9ba9551-893e-4cab-8633-3f34cc33ee19"},"vehicle_type_id":"4","last_reported":1743775784,"current_range_meters":16800,"station_id":"ce4bguh2rcd13ifvqckg","pricing_plan_id":"cebpf4jnsgd1na2vs0mg"},{"bike_id":"053d0db8-8749-4e12-9d2a-3cd67d3fd7c6","system_id":"levelo_inurba_marseille","lat":43.29795,"lon":5.37107,"is_reserved":false,"is_disabled":false,"rental_uris":{"android":"levelo://app?vid=053d0db8-8749-4e12-9d2a-3cd67d3fd7c6","ios":"levelo://app?vid=053d0db8-8749-4e12-9d2a-3cd67d3fd7c6"},"vehicle_type_id":"4","last_reported":1743775784,"current_range_meters":16800,"station_id":"ce4bgop2rcd13ifvqc1g","pricing_plan_id":"cebpf4jnsgd1na2vs0mg"},{"bike_id":"e9eeed45-eb50-419a-bdd9-1541f1a2ca68","system_id":"levelo_inurba_marseille","lat":43.28276,"lon":5.35069,"is_reserved":false,"is_disabled":false,"rental_uris":{"android":"levelo://app?vid=e9eeed45-eb50-419a-bdd9-1541f1a2ca68","ios":"levelo://app?vid=e9eeed45-eb50-419a-bdd9-1541f1a2ca68"},"vehicle_type_id":"4","last_reported":1743775784,"current_range_meters":16800,"station_id":"ce4bhbp2rcd13ifvqerg","pricing_plan_id":"cebpf4jnsgd1na2vs0mg"},{"bike_id":"ad81a0ea-b42d-4cbb-86d5-632157072762","system_id":"levelo_inurba_marseille","lat":43.24162,"lon":5.36399,"is_reserved":false,"is_disabled":false,"rental_uris":{"android":"levelo://app?vid=ad81a0ea-b42d-4cbb-86d5-632157072762","ios":"levelo://app?vid=ad81a0ea-b42d-4cbb-86d5-632157072762"},"vehicle_type_id":"4","last_reported":1743775784,"current_range_meters":16800,"station_id":"cpo36qri1sfpv3e86is0","pricing_plan_id":"cebpf4jnsgd1na2vs0mg"},{"bike_id":"8fc037eb-4a79-4373-b669-1b4dc7955a6e","system_id":"levelo_inurba_marseille","lat":43.26684,"lon":5.38273,"is_reserved":false,"is_disabled":false,"rental_uris":{"android":"levelo://app?vid=8fc037eb-4a79-4373-b669-1b4dc7955a6e","ios":"levelo://app?vid=8fc037eb-4a79-4373-b669-1b4dc7955a6e"},"vehicle_type_id":"4","last_reported":1743775784,"current_range_meters":16800,"station_id":"ce4bhg92rcd13ifvqf90","pricing_plan_id":"cebpf4jnsgd1na2vs0mg"},{"bike_id":"01db9816-46d4-49c5-81cb-e613e3fb22bf","system_id":"levelo_inurba_marseille","lat":43.28614,"lon":5.35105,"is_reserved":false,"is_disabled":false,"rental_uris":{"android":"levelo://app?vid=01db9816-46d4-49c5-81cb-e613e3fb22bf","ios":"levelo://app?vid=01db9816-46d4-49c5-81cb-e613e3fb22bf"},"vehicle_type_id":"4","last_reported":1743775784,"current_range_meters":16800,"station_id":"ce4bhch2rcd13ifvqeug","pricing_plan_id":"cebpf4jnsgd1na2vs0mg"},{"bike_id":"5b8d1103-1921-4c53-912e-93d122cd3cdc","system_id":"levelo_inurba_marseille","lat":43.24397,"lon":5.37066,"is_reserved":false,"is_disabled":true,"rental_uris":{"android":"levelo://app?vid=5b8d1103-1921-4c53-912e-93d122cd3cdc","ios":"levelo://app?vid=5b8d1103-1921-4c53-912e-93d122cd3cdc"},"vehicle_type_id":"4","last_reported":1743775784,"current_range_meters":16800,"station_id":"ce4bhhh2rcd13ifvqfk0","pricing_plan_id":"cebpf4jnsgd1na2vs0mg"},{"bike_id":"dd845fd9-df73-4db0-820e-6af9c1916b81","system_id":"levelo_inurba_marseille","lat":43.30461,"lon":5.37901,"is_reserved":false,"is_disabled":false,"rental_uris":{"android":"levelo://app?vid=dd845fd9-df73-4db0-820e-6af9c1916b81","ios":"levelo://app?vid=dd845fd9-df73-4db0-820e-6af9c1916b81"},"vehicle_type_id":"4","last_reported":1743775784,"current_range_meters":17200,"station_id":"ce4bgup2rcd13ifvqcn0","pricing_plan_id":"cebpf4jnsgd1na2vs0mg"},{"bike_id":"89709091-486f-4116-b203-524c8e73acee","system_id":"levelo_inurba_marseille","lat":43.32347,"lon":5.40611,"is_reserved":false,"is_disabled":false,"rental_uris":{"android":"levelo://app?vid=89709091-486f-4116-b203-524c8e73acee","ios":"levelo://app?vid=89709091-486f-4116-b203-524c8e73acee"},"vehicle_type_id":"4","last_reported":1743775784,"current_range_meters":17200,"station_id":"ce4bhq92rcd13ifvqhjg","pricing_plan_id":"cebpf4jnsgd1na2vs0mg"},{"bike_id":"852ae433-cc4e-4f80-9afa-60b2796b15fb","system_id":"levelo_inurba_marseille","lat":43.3237,"lon":5.39313,"is_reserved":false,"is_disabled":false,"rental_uris":{"android":"levelo://app?vid=852ae433-cc4e-4f80-9afa-60b2796b15fb","ios":"levelo://app?vid=852ae433-cc4e-4f80-9afa-60b2796b15fb"},"vehicle_type_id":"4","last_reported":1743775784,"current_range_meters":17200,"station_id":"","pricing_plan_id":"cebpf4jnsgd1na2vs0mg"},{"bike_id":"82453746-837e-49a5-86e1-f8fabd56478b","system_id":"levelo_inurba_marseille","lat":43.28426,"lon":5.39182,"is_reserved":false,"is_disabled":false,"rental_uris":{"android":"levelo://app?vid=82453746-837e-49a5-86e1-f8fabd56478b","ios":"levelo://app?vid=82453746-837e-49a5-86e1-f8fabd56478b"},"vehicle_type_id":"4","last_reported":1743775784,"current_range_meters":17200,"station_id":"ce4bhoh2rcd13ifvqh5g","pricing_plan_id":"cebpf4jnsgd1na2vs0mg"},{"bike_id":"32a4c0d5-c6e8-43e0-87c9-ad7296acbeef","system_id":"levelo_inurba_marseille","lat":43.30532,"lon":5.38424,"is_reserved":false,"is_disabled":false,"rental_uris":{"android":"levelo://app?vid=32a4c0d5-c6e8-43e0-87c9-ad7296acbeef","ios":"levelo://app?vid=32a4c0d5-c6e8-43e0-87c9-ad7296acbeef"},"vehicle_type_id":"4","last_reported":1743775784,"current_range_meters":16800,"station_id":"ce4bgg92rcd13ifvqb30","pricing_plan_id":"cebpf4jnsgd1na2vs0mg"},{"bike_id":"2a2cc42f-5802-439d-b970-1792be085f7b","system_id":"levelo_inurba_marseille","lat":43.30467,"lon":5.37909,"is_reserved":false,"is_disabled":false,"rental_uris":{"android":"levelo://app?vid=2a2cc42f-5802-439d-b970-1792be085f7b","ios":"levelo://app?vid=2a2cc42f-5802-439d-b970-1792be085f7b"},"vehicle_type_id":"4","last_reported":1743775784,"current_range_meters":17200,"station_id":"ce4bgup2rcd13ifvqcn0","pricing_plan_id":"cebpf4jnsgd1na2vs0mg"},{"bike_id":"e5aa3995-3ac2-4a30-90e9-a43ec83847c0","system_id":"levelo_inurba_marseille","lat":43.30641,"lon":5.40099,"is_reserved":false,"is_disabled":false,"rental_uris":{"android":"levelo://app?vid=e5aa3995-3ac2-4a30-90e9-a43ec83847c0","ios":"levelo://app?vid=e5aa3995-3ac2-4a30-90e9-a43ec83847c0"},"vehicle_type_id":"4","last_reported":1743775784,"current_range_meters":14000,"station_id":"ce4bh112rcd13ifvqda0","pricing_plan_id":"cebpf4jnsgd1na2vs0mg"},{"bike_id":"ed81289f-b9f3-4d86-9f8f-d8896cd8f07f","system_id":"levelo_inurba_marseille","lat":43.30428,"lon":5.39743,"is_reserved":false,"is_disabled":true,"rental_uris":{"android":"levelo://app?vid=ed81289f-b9f3-4d86-9f8f-d8896cd8f07f","ios":"levelo://app?vid=ed81289f-b9f3-4d86-9f8f-d8896cd8f07f"},"vehicle_type_id":"4","last_reported":1743775784,"current_range_meters":17600,"station_id":"ce4bh092rcd13ifvqd20","pricing_plan_id":"cebpf4jnsgd1na2vs0mg"},{"bike_id":"13b2c0b4-342f-4564-8399-a17604a3a4b3","system_id":"levelo_inurba_marseille","lat":43.32461,"lon":5.36581,"is_reserved":false,"is_disabled":false,"rental_uris":{"android":"levelo://app?vid=13b2c0b4-342f-4564-8399-a17604a3a4b3","ios":"levelo://app?vid=13b2c0b4-342f-4564-8399-a17604a3a4b3"},"vehicle_type_id":"4","last_reported":1743775784,"current_range_meters":17600,"station_id":"ce4bhs12rcd13ifvqhvg","pricing_plan_id":"cebpf4jnsgd1na2vs0mg"},{"bike_id":"94bbf571-4919-4cea-8c50-79e346f7dc11","system_id":"levelo_inurba_marseille","lat":43.32452,"lon":5.39121,"is_reserved":false,"is_disabled":false,"rental_uris":{"android":"levelo://app?vid=94bbf571-4919-4cea-8c50-79e346f7dc11","ios":"levelo://app?vid=94bbf571-4919-4cea-8c50-79e346f7dc11"},"vehicle_type_id":"4","last_reported":1743775784,"current_range_meters":16000,"station_id":"","pricing_plan_id":"cebpf4jnsgd1na2vs0mg"},{"bike_id":"88e76440-825e-4a0d-b4bc-86b34dc82db6","system_id":"levelo_inurba_marseille","lat":43.3055,"lon":5.36531,"is_reserved":false,"is_disabled":false,"rental_uris":{"android":"levelo://app?vid=88e76440-825e-4a0d-b4bc-86b34dc82db6","ios":"levelo://app?vid=88e76440-825e-4a0d-b4bc-86b34dc82db6"},"vehicle_type_id":"4","last_reported":1743775784,"current_range_meters":17600,"station_id":"ce4bgs12rcd13ifvqcag","pricing_plan_id":"cebpf4jnsgd1na2vs0mg"},{"bike_id":"f0b33f90-653d-4f16-859d-5248cf7cce1a","system_id":"levelo_inurba_marseille","lat":43.29254,"lon":5.40903,"is_reserved":false,"is_disabled":false,"rental_uris":{"android":"levelo://app?vid=f0b33f90-653d-4f16-859d-5248cf7cce1a","ios":"levelo://app?vid=f0b33f90-653d-4f16-859d-5248cf7cce1a"},"vehicle_type_id":"4","last_reported":1743775784,"current_range_meters":17600,"station_id":"ce4bh192rcd13ifvqdc0","pricing_plan_id":"cebpf4jnsgd1na2vs0mg"},{"bike_id":"80208557-d9b4-4a63-91a5-4a3a444cde5e","system_id":"levelo_inurba_marseille","lat":43.29583,"lon":5.36743,"is_reserved":false,"is_disabled":false,"rental_uris":{"android":"levelo://app?vid=80208557-d9b4-4a63-91a5-4a3a444cde5e","ios":"levelo://app?vid=80208557-d9b4-4a63-91a5-4a3a444cde5e"},"vehicle_type_id":"4","last_reported":1743775784,"current_range_meters":17600,"station_id":"ce4bgph2rcd13ifvqc2g","pricing_plan_id":"cebpf4jnsgd1na2vs0mg"},{"bike_id":"77f9377f-7fa1-4152-9316-d69c0c77e248","system_id":"levelo_inurba_marseille","lat":43.3014,"lon":5.38762,"is_reserved":false,"is_disabled":true,"rental_uris":{"android":"levelo://app?vid=77f9377f-7fa1-4152-9316-d69c0c77e248","ios":"levelo://app?vid=77f9377f-7fa1-4152-9316-d69c0c77e248"},"vehicle_type_id":"4","last_reported":1743775784,"current_range_meters":18000,"station_id":"ce4bghh2rcd13ifvqb60","pricing_plan_id":"cebpf4jnsgd1na2vs0mg"},{"bike_id":"1f796f8f-e19b-4ce7-a2e6-d147870da191","system_id":"levelo_inurba_marseille","lat":43.27178,"lon":5.4099,"is_reserved":false,"is_disabled":false,"rental_uris":{"android":"levelo://app?vid=1f796f8f-e19b-4ce7-a2e6-d147870da191","ios":"levelo://app?vid=1f796f8f-e19b-4ce7-a2e6-d147870da191"},"vehicle_type_id":"4","last_reported":1743775784,"current_range_meters":18000,"station_id":"ce4bhl12rcd13ifvqgf0","pricing_plan_id":"cebpf4jnsgd1na2vs0mg"},{"bike_id":"46b51ec7-a2e6-4739-b3e9-42a0d56b56b1","system_id":"levelo_inurba_marseille","lat":43.23181,"lon":5.39988,"is_reserved":false,"is_disabled":false,"rental_uris":{"android":"levelo://app?vid=46b51ec7-a2e6-4739-b3e9-42a0d56b56b1","ios":"levelo://app?vid=46b51ec7-a2e6-4739-b3e9-42a0d56b56b1"},"vehicle_type_id":"4","last_reported":1743775784,"current_range_meters":18000,"station_id":"ce4bhn12rcd13ifvqgqg","pricing_plan_id":"cebpf4jnsgd1na2vs0mg"},{"bike_id":"d2a07d60-57ab-498a-9a05-2527f7931b4d","system_id":"levelo_inurba_marseille","lat":43.23062,"lon":5.35493,"is_reserved":false,"is_disabled":false,"rental_uris":{"android":"levelo://app?vid=d2a07d60-57ab-498a-9a05-2527f7931b4d","ios":"levelo://app?vid=d2a07d60-57ab-498a-9a05-2527f7931b4d"},"vehicle_type_id":"4","last_reported":1743775784,"current_range_meters":18000,"station_id":"cpo3342slgdg3j2ifvpg","pricing_plan_id":"cebpf4jnsgd1na2vs0mg"},{"bike_id":"53d354a9-94ac-44b4-80de-46829108681e","system_id":"levelo_inurba_marseille","lat":43.29257,"lon":5.37613,"is_reserved":false,"is_disabled":false,"rental_uris":{"android":"levelo://app?vid=53d354a9-94ac-44b4-80de-46829108681e","ios":"levelo://app?vid=53d354a9-94ac-44b4-80de-46829108681e"},"vehicle_type_id":"4","last_reported":1743775784,"current_range_meters":18000,"station_id":"ce4bgi12rcd13ifvqb80","pricing_plan_id":"cebpf4jnsgd1na2vs0mg"},{"bike_id":"19d0d3f1-b226-48cb-b1b2-04ce3d04e0ef","system_id":"levelo_inurba_marseille","lat":43.30193,"lon":5.36633,"is_reserved":false,"is_disabled":false,"rental_uris":{"android":"levelo://app?vid=19d0d3f1-b226-48cb-b1b2-04ce3d04e0ef","ios":"levelo://app?vid=19d0d3f1-b226-48cb-b1b2-04ce3d04e0ef"},"vehicle_type_id":"4","last_reported":1743775784,"current_range_meters":18000,"station_id":"ce4bgrh2rcd13ifvqc8g","pricing_plan_id":"cebpf4jnsgd1na2vs0mg"},{"bike_id":"ee520ae0-5302-45b4-9880-eecb8b179c62","system_id":"levelo_inurba_marseille","lat":43.31237,"lon":5.36883,"is_reserved":false,"is_disabled":false,"rental_uris":{"android":"levelo://app?vid=ee520ae0-5302-45b4-9880-eecb8b179c62","ios":"levelo://app?vid=ee520ae0-5302-45b4-9880-eecb8b179c62"},"vehicle_type_id":"4","last_reported":1743775784,"current_range_meters":18800,"station_id":"ce4bgl92rcd13ifvqbq0","pricing_plan_id":"cebpf4jnsgd1na2vs0mg"},{"bike_id":"18e3f074-0ed1-4a1e-a1d4-89b54c0584e2","system_id":"levelo_inurba_marseille","lat":43.25817,"lon":5.39436,"is_reserved":false,"is_disabled":false,"rental_uris":{"android":"levelo://app?vid=18e3f074-0ed1-4a1e-a1d4-89b54c0584e2","ios":"levelo://app?vid=18e3f074-0ed1-4a1e-a1d4-89b54c0584e2"},"vehicle_type_id":"4","last_reported":1743775784,"current_range_meters":18000,"station_id":"ce4bhip2rcd13ifvqft0","pricing_plan_id":"cebpf4jnsgd1na2vs0mg"},{"bike_id":"3c405ee4-fcc4-4852-9cff-6ca294141b75","system_id":"levelo_inurba_marseille","lat":43.24652,"lon":5.38906,"is_reserved":false,"is_disabled":false,"rental_uris":{"android":"levelo://app?vid=3c405ee4-fcc4-4852-9cff-6ca294141b75","ios":"levelo://app?vid=3c405ee4-fcc4-4852-9cff-6ca294141b75"},"vehicle_type_id":"4","last_reported":1743775784,"current_range_meters":18800,"station_id":"ce4bhg12rcd13ifvqf60","pricing_plan_id":"cebpf4jnsgd1na2vs0mg"},{"bike_id":"14b0274a-507f-439a-9961-5327baaac2de","system_id":"levelo_inurba_marseille","lat":43.246833,"lon":5.411958,"is_reserved":false,"is_disabled":false,"rental_uris":{"android":"levelo://app?vid=14b0274a-507f-439a-9961-5327baaac2de","ios":"levelo://app?vid=14b0274a-507f-439a-9961-5327baaac2de"},"vehicle_type_id":"4","last_reported":1743775784,"current_range_meters":18800,"station_id":"","pricing_plan_id":"cebpf4jnsgd1na2vs0mg"},{"bike_id":"24f6f85d-a0e4-466f-9cfa-c05a05c32b1e","system_id":"levelo_inurba_marseille","lat":43.29841,"lon":5.36269,"is_reserved":false,"is_disabled":false,"rental_uris":{"android":"levelo://app?vid=24f6f85d-a0e4-466f-9cfa-c05a05c32b1e","ios":"levelo://app?vid=24f6f85d-a0e4-466f-9cfa-c05a05c32b1e"},"vehicle_type_id":"4","last_reported":1743775784,"current_range_meters":18800,"station_id":"ce4bgpp2rcd13ifvqc3g","pricing_plan_id":"cebpf4jnsgd1na2vs0mg"},{"bike_id":"254ffa58-5f34-4639-bab4-829108c3ff60","system_id":"levelo_inurba_marseille","lat":43.25116,"lon":5.40322,"is_reserved":false,"is_disabled":false,"rental_uris":{"android":"levelo://app?vid=254ffa58-5f34-4639-bab4-829108c3ff60","ios":"levelo://app?vid=254ffa58-5f34-4639-bab4-829108c3ff60"},"vehicle_type_id":"4","last_reported":1743775784,"current_range_meters":18800,"station_id":"ce4bhlh2rcd13ifvqgig","pricing_plan_id":"cebpf4jnsgd1na2vs0mg"},{"bike_id":"4d24ddbf-490a-4c1c-8981-b8dcfe6e42af","system_id":"levelo_inurba_marseille","lat":43.31348,"lon":5.36762,"is_reserved":false,"is_disabled":false,"rental_uris":{"android":"levelo://app?vid=4d24ddbf-490a-4c1c-8981-b8dcfe6e42af","ios":"levelo://app?vid=4d24ddbf-490a-4c1c-8981-b8dcfe6e42af"},"vehicle_type_id":"4","last_reported":1743775784,"current_range_meters":18800,"station_id":"ce4bgr92rcd13ifvqc6g","pricing_plan_id":"cebpf4jnsgd1na2vs0mg"},{"bike_id":"fa85ed55-365b-4bbf-93f0-09d68822d2c9","system_id":"levelo_inurba_marseille","lat":43.28424,"lon":5.37514,"is_reserved":false,"is_disabled":false,"rental_uris":{"android":"levelo://app?vid=fa85ed55-365b-4bbf-93f0-09d68822d2c9","ios":"levelo://app?vid=fa85ed55-365b-4bbf-93f0-09d68822d2c9"},"vehicle_type_id":"4","last_reported":1743775784,"current_range_meters":18800,"station_id":"ce4bh412rcd13ifvqds0","pricing_plan_id":"cebpf4jnsgd1na2vs0mg"},