{"last_updated":1762064093,"ttl":60,"version":"2.2","data":{"bikes":[{"bike_id":"a18dbf48-2c4d-4fa4-a4c5-c9871d73c9a0","system_id":"levelo_inurba_marseille","lat":43.301994,"lon":5.383462,"is_reserved":false,"is_disabled":false,"rental_uris":{"android":"levelo://app?vid=a18dbf48-2c4d-4fa4-a4c5-c9871d73c9a0","ios":"levelo://app?vid=a18dbf48-2c4d-4fa4-a4c5-c9871d73c9a0"},"vehicle_type_id":"4","last_reported":1762064093,"current_range_meters":2800,"station_id":"ce4bgup2rcd13ifvqcn0","pricing_plan_id":"cebpf4jnsgd1na2vs0mg"},{"bike_id":"65bf87eb-f03e-4d91-8b20-6a58714207d1","system_id":"levelo_inurba_marseille","lat":43.2917,"lon":5.40118,"is_reserved":false,"is_disabled":false,"rental_uris":{"android":"levelo://app?vid=65bf87eb-f03e-4d91-8b20-6a58714207d1","ios":"levelo://app?vid=65bf87eb-f03e-4d91-8b20-6a58714207d1"},"vehicle_type_id":"4","last_reported":1762064093,"current_range_meters":2800,"station_id":"","pricing_plan_id":"cebpf4jnsgd1na2vs0mg"},{"bike_id":"cd257244-4c94-4b4c-ba82-38e4ee2127c9","system_id":"levelo_inurba_marseille","lat":43.29713,"lon":5.37671,"is_reserved":false,"is_disabled":false,"rental_uris":{"android":"levelo://app?vid=cd257244-4c94-4b4c-ba82-38e4ee2127c9","ios":"levelo://app?vid=cd257244-4c94-4b4c-ba82-38e4ee2127c9"},"vehicle_type_id":"4","last_reported":1762064093,"current_range_meters":2800,"station_id":"ce4bgkh2rcd13ifvqbl0","pricing_plan_id":"cebpf4jnsgd1na2vs0mg"},{"bike_id":"9b93b5e1-c939-4745-bf85-2d21945442dc","system_id":"levelo_inurba_marseille","lat":43.29983,"lon":5.36384,"is_reserved":false,"is_disabled":false,"rental_uris":{"android":"levelo://app?vid=9b93b5e1-c939-4745-bf85-2d21945442dc","ios":"levelo://app?vid=9b93b5e1-c939-4745-bf85-2d21945442dc"},"vehicle_type_id":"4","last_reported":1762064093,"current_range_meters":3200,"station_id":"","pricing_plan_id":"cebpf4jnsgd1na2vs0mg"},{"bike_id":"640739fe-a585-4b66-ac45-94859d702308","system_id":"levelo_inurba_marseille","lat":43.283474,"lon":5.38115,"is_reserved":false,"is_disabled":false,"rental_uris":{"android":"levelo://app?vid=640739fe-a585-4b66-ac45-94859d702308","ios":"levelo://app?vid=640739fe-a585-4b66-ac45-94859d702308"},"vehicle_type_id":"4","last_reported":1762064093,"current_range_meters":3600,"station_id":"ce4bh412rcd13ifvqdr0","pricing_plan_id":"cebpf4jnsgd1na2vs0mg"},{"bike_id":"421898f5-6c6d-4850-a304-3c0cc5951bee","system_id":"levelo_inurba_marseille","lat":43.284957,"lon":5.421884,"is_reserved":false,"is_disabled":false,"rental_uris":{"android":"levelo://app?vid=421898f5-6c6d-4850-a304-3c0cc5951bee","ios":"levelo://app?vid=421898f5-6c6d-4850-a304-3c0cc5951bee"},"vehicle_type_id":"4","last_reported":1762064093,"current_range_meters":4000,"station_id":"","pricing_plan_id":"cebpf4jnsgd1na2vs0mg"},{"bike_id":"b58a6d4b-6da6-4afd-96d9-2be918123097","system_id":"levelo_inurba_marseille","lat":43.29265,"lon":5.40126,"is_reserved":false,"is_disabled":false,"rental_uris":{"android":"levelo://app?vid=b58a6d4b-6da6-4afd-96d9-2be918123097","ios":"levelo://app?vid=b58a6d4b-6da6-4afd-96d9-2be918123097"},"vehicle_type_id":"4","last_reported":1762064093,"current_range_meters":4000,"station_id":"ce4bh312rcd13ifvqdk0","pricing_plan_id":"cebpf4jnsgd1na2vs0mg"},{"bike_id":"3c3c87b8-1906-4876-941d-18616b979f98","system_id":"levelo_inurba_marseille","lat":43.24951,"lon":5.405,"is_reserved":false,"is_disabled":false,"rental_uris":{"android":"levelo://app?vid=3c3c87b8-1906-4876-941d-18616b979f98","ios":"levelo://app?vid=3c3c87b8-1906-4876-941d-18616b979f98"},"vehicle_type_id":"4","last_reported":1762064093,"current_range_meters":4000,"station_id":"st_d2ngiaodas8pm72gd1h0","pricing_plan_id":"cebpf4jnsgd1na2vs0mg"},{"bike_id":"e866eab0-536f-4780-83bd-9243ac25a752","system_id":"levelo_inurba_marseille","lat":43.28133,"lon":5.38331,"is_reserved":false,"is_disabled":false,"rental_uris":{"android":"levelo://app?vid=e866eab0-536f-4780-83bd-9243ac25a752","ios":"levelo://app?vid=e866eab0-536f-4780-83bd-9243ac25a752"},"vehicle_type_id":"4","last_reported":1762064093,"current_range_meters":4000,"station_id":"","pricing_plan_id":"cebpf4jnsgd1na2vs0mg"},{"bike_id":"b043cb9b-d47f-4c39-96d8-8dac005cfd6e","system_id":"levelo_inurba_marseille","lat":43.30643,"lon":5.40067,"is_reserved":false,"is_disabled":false,"rental_uris":{"android":"levelo://app?vid=b043cb9b-d47f-4c39-96d8-8dac005cfd6e","ios":"levelo://app?vid=b043cb9b-d47f-4c39-96d8-8dac005cfd6e"},"vehicle_type_id":"4","last_reported":1762064093,"current_range_meters":4400,"station_id":"ce4bh112rcd13ifvqda0","pricing_plan_id":"cebpf4jnsgd1na2vs0mg"},{"bike_id":"ad9109f0-a47b-41ab-9a71-455a6b341dfc","system_id":"levelo_inurba_marseille","lat":43.28484,"lon":5.483962,"is_reserved":false,"is_disabled":false,"rental_uris":{"android":"levelo://app?vid=ad9109f0-a47b-41ab-9a71-455a6b341dfc","ios":"levelo://app?vid=ad9109f0-a47b-41ab-9a71-455a6b341dfc"},"vehicle_type_id":"4","last_reported":1762064093,"current_range_meters":4400,"station_id":"st_d3svhcjqgbts73a3dn0g","pricing_plan_id":"cebpf4jnsgd1na2vs0mg"},{"bike_id":"ef52b4f1-c772-49d1-b011-8c4c445ead6a","system_id":"levelo_inurba_marseille","lat":43.30882,"lon":5.39633,"is_reserved":false,"is_disabled":false,"rental_uris":{"android":"levelo://app?vid=ef52b4f1-c772-49d1-b011-8c4c445ead6a","ios":"levelo://app?vid=ef52b4f1-c772-49d1-b011-8c4c445ead6a"},"vehicle_type_id":"4","last_reported":1762064093,"current_range_meters":4400,"station_id":"ce4bh012rcd13ifvqcv0","pricing_plan_id":"cebpf4jnsgd1na2vs0mg"},{"bike_id":"e1196ee9-9c25-4674-a5fe-d3b7ddaa8e88","system_id":"levelo_inurba_marseille","lat":43.2257,"lon":5.41655,"is_reserved":false,"is_disabled":false,"rental_uris":{"android":"levelo://app?vid=e1196ee9-9c25-4674-a5fe-d3b7ddaa8e88","ios":"levelo://app?vid=e1196ee9-9c25-4674-a5fe-d3b7ddaa8e88"},"vehicle_type_id":"4","last_reported":1762064093,"current_range_meters":4800,"station_id":"st_d2o4gvlbi1j2169b742g","pricing_plan_id":"cebpf4jnsgd1na2vs0mg"},{"bike_id":"8037820d-e28b-4ed7-9d51-fef345faeeca","system_id":"levelo_inurba_marseille","lat":43.28612,"lon":5.35111,"is_reserved":false,"is_disabled":false,"rental_uris":{"android":"levelo://app?vid=8037820d-e28b-4ed7-9d51-fef345faeeca","ios":"levelo://app?vid=8037820d-e28b-4ed7-9d51-fef345faeeca"},"vehicle_type_id":"4","last_reported":1762064093,"current_range_meters":4800,"station_id":"ce4bhch2rcd13ifvqeug","pricing_plan_id":"cebpf4jnsgd1na2vs0mg"},{"bike_id":"d62a4e30-2a8a-47de-9d7a-fd92f829db09","system_id":"levelo_inurba_marseille","lat":43.31146,"lon":5.38122,"is_reserved":false,"is_disabled":false,"rental_uris":{"android":"levelo://app?vid=d62a4e30-2a8a-47de-9d7a-fd92f829db09","ios":"levelo://app?vid=d62a4e30-2a8a-47de-9d7a-fd92f829db09"},"vehicle_type_id":"4","last_reported":1762064093,"current_range_meters":4800,"station_id":"","pricing_plan_id":"cebpf4jnsgd1na2vs0mg"},{"bike_id":"4ae82769-2f9e-4c25-a073-dec417896630","system_id":"levelo_inurba_marseille","lat":43.22559,"lon":5.41647,"is_reserved":false,"is_disabled":false,"rental_uris":{"android":"levelo://app?vid=4ae82769-2f9e-4c25-a073-dec417896630","ios":"levelo://app?vid=4ae82769-2f9e-4c25-a073-dec417896630"},"vehicle_type_id":"4","last_reported":1762064093,"current_range_meters":4800,"station_id":"st_d2o4gvlbi1j2169b742g","pricing_plan_id":"cebpf4jnsgd1na2vs0mg"},{"bike_id":"308f6ec7-f236-4ea6-8b97-b7b8673cf9e6","system_id":"levelo_inurba_marseille","lat":43.286893,"lon":5.386936,"is_reserved":false,"is_disabled":false,"rental_uris":{"android":"levelo://app?vid=308f6ec7-f236-4ea6-8b97-b7b8673cf9e6","ios":"levelo://app?vid=308f6ec7-f236-4ea6-8b97-b7b8673cf9e6"},"vehicle_type_id":"4","last_reported":1762064093,"current_range_meters":5600,"station_id":"ce4bh492rcd13ifvqdug","pricing_plan_id":"cebpf4jnsgd1na2vs0mg"},{"bike_id":"78db5ff8-46fa-4fa2-9909-2212421783fc","system_id":"levelo_inurba_marseille","lat":43.26549,"lon":5.372988,"is_reserved":false,"is_disabled":false,"rental_uris":{"android":"levelo://app?vid=78db5ff8-46fa-4fa2-9909-2212421783fc","ios":"levelo://app?vid=78db5ff8-46fa-4fa2-9909-2212421783fc"},"vehicle_type_id":"4","last_reported":1762064093,"current_range_meters":5600,"station_id":"ce4bhg12rcd13ifvqf70","pricing_plan_id":"cebpf4jnsgd1na2vs0mg"},{"bike_id":"cd4cdbc3-2a0f-40d1-b109-477360a71145","system_id":"levelo_inurba_marseille","lat":43.27356,"lon":5.36254,"is_reserved":false,"is_disabled":false,"rental_uris":{"android":"levelo://app?vid=cd4cdbc3-2a0f-40d1-b109-477360a71145","ios":"levelo://app?vid=cd4cdbc3-2a0f-40d1-b109-477360a71145"},"vehicle_type_id":"4","last_reported":1762064093,"current_range_meters":5600,"station_id":"ce4bhbh2rcd13ifvqeo0","pricing_plan_id":"cebpf4jnsgd1na2vs0mg"},{"bike_id":"505e9ae0-9c47-4cb9-afd9-202f3bd0c35e","system_id":"levelo_inurba_marseille","lat":43.24168,"lon":5.39722,"is_reserved":false,"is_disabled":false,"rental_uris":{"android":"levelo://app?vid=505e9ae0-9c47-4cb9-afd9-202f3bd0c35e","ios":"levelo://app?vid=505e9ae0-9c47-4cb9-afd9-202f3bd0c35e"},"vehicle_type_id":"4","last_reported":1762064093,"current_range_meters":5600,"station_id":"ce4bhn12rcd13ifvqgpg","pricing_plan_id":"cebpf4jnsgd1na2vs0mg"},{"bike_id":"df4d91e2-f5d7-41f4-ae09-8161d06b9d54","system_id":"levelo_inurba_marseille","lat":43.292983,"lon":5.374652,"is_reserved":false,"is_disabled":false,"rental_uris":{"android":"levelo://app?vid=df4d91e2-f5d7-41f4-ae09-8161d06b9d54","ios":"levelo://app?vid=df4d91e2-f5d7-41f4-ae09-8161d06b9d54"},"vehicle_type_id":"4","last_reported":1762064093,"current_range_meters":5600,"station_id":"","pricing_plan_id":"cebpf4jnsgd1na2vs0mg"},{"bike_id":"c16ca171-3e5e-49d0-a567-1645c2374376","system_id":"levelo_inurba_marseille","lat":43.30551,"lon":5.36539,"is_reserved":false,"is_disabled":true,"rental_uris":{"android":"levelo://app?vid=c16ca171-3e5e-49d0-a567-1645c2374376","ios":"levelo://app?vid=c16ca171-3e5e-49d0-a567-1645c2374376"},"vehicle_type_id":"4","last_reported":1762064093,"current_range_meters":6000,"station_id":"ce4bgs12rcd13ifvqcag","pricing_plan_id":"cebpf4jnsgd1na2vs0mg"},{"bike_id":"a4dac4fa-66e6-48be-a654-6e17cdc7ca0b","system_id":"levelo_inurba_marseille","lat":43.337571,"lon":5.374323,"is_reserved":false,"is_disabled":false,"rental_uris":{"android":"levelo://app?vid=a4dac4fa-66e6-48be-a654-6e17cdc7ca0b","ios":"levelo://app?vid=a4dac4fa-66e6-48be-a654-6e17cdc7ca0b"},"vehicle_type_id":"4","last_reported":1762064093,"current_range_meters":6000,"station_id":"","pricing_plan_id":"cebpf4jnsgd1na2vs0mg"},{"bike_id":"8a759722-19f7-4a56-9646-2c26a5e7e25d","system_id":"levelo_inurba_marseille","lat":43.27929,"lon":5.3873,"is_reserved":false,"is_disabled":true,"rental_uris":{"android":"levelo://app?vid=8a759722-19f7-4a56-9646-2c26a5e7e25d","ios":"levelo://app?vid=8a759722-19f7-4a56-9646-2c26a5e7e25d"},"vehicle_type_id":"4","last_reported":1762064093,"current_range_meters":6000,"station_id":"","pricing_plan_id":"cebpf4jnsgd1na2vs0mg"},{"bike_id":"49d9547c-ffaf-4269-a54a-74a146b0e019","system_id":"levelo_inurba_marseille","lat":43.29151,"lon":5.40162,"is_reserved":false,"is_disabled":false,"rental_uris":{"android":"levelo://app?vid=49d9547c-ffaf-4269-a54a-74a146b0e019","ios":"levelo://app?vid=49d9547c-ffaf-4269-a54a-74a146b0e019"},"vehicle_type_id":"4","last_reported":1762064093,"current_range_meters":6000,"station_id":"ce4bh312rcd13ifvqdk0","pricing_plan_id":"cebpf4jnsgd1na2vs0mg"},{"bike_id":"b70bd611-7c5d-42d8-9537-81f3893174db","system_id":"levelo_inurba_marseille","lat":43.246536,"lon":5.388872,"is_reserved":false,"is_disabled":false,"rental_uris":{"android":"levelo://app?vid=b70bd611-7c5d-42d8-9537-81f3893174db","ios":"levelo://app?vid=b70bd611-7c5d-42d8-9537-81f3893174db"},"vehicle_type_id":"4","last_reported":1762064093,"current_range_meters":6400,"station_id":"ce4bhg12rcd13ifvqf60","pricing_plan_id":"cebpf4jnsgd1na2vs0mg"},{"bike_id":"fb8fdaf1-2fb9-454d-9155-51c0ef5bc111","system_id":"levelo_inurba_marseille","lat":43.302969,"lon":5.392105,"is_reserved":false,"is_disabled":false,"rental_uris":{"android":"levelo://app?vid=fb8fdaf1-2fb9-454d-9155-51c0ef5bc111","ios":"levelo://app?vid=fb8fdaf1-2fb9-454d-9155-51c0ef5bc111"},"vehicle_type_id":"4","last_reported":1762064093,"current_range_meters":6800,"station_id":"ce4bgkh2rcd13ifvqbk0","pricing_plan_id":"cebpf4jnsgd1na2vs0mg"},{"bike_id":"995c398a-192b-4e7d-923c-0e5720d4a0ab","system_id":"levelo_inurba_marseille","lat":43.217502,"lon":5.346018,"is_reserved":false,"is_disabled":false,"rental_uris":{"android":"levelo://app?vid=995c398a-192b-4e7d-923c-0e5720d4a0ab","ios":"levelo://app?vid=995c398a-192b-4e7d-923c-0e5720d4a0ab"},"vehicle_type_id":"4","last_reported":1762064093,"current_range_meters":6800,"station_id":"st_cvj6r9ubvosntc0bgbag","pricing_plan_id":"cebpf4jnsgd1na2vs0mg"},{"bike_id":"b0a8fa27-99ae-4e2a-96de-5d95256571b2","system_id":"levelo_inurba_marseille","lat":43.28488,"lon":5.35873,"is_reserved":false,"is_disabled":false,"rental_uris":{"android":"levelo://app?vid=b0a8fa27-99ae-4e2a-96de-5d95256571b2","ios":"levelo://app?vid=b0a8fa27-99ae-4e2a-96de-5d95256571b2"},"vehicle_type_id":"4","last_reported":1762064093,"current_range_meters":6800,"station_id":"ce4bhah2rcd13ifvqei0","pricing_plan_id":"cebpf4jnsgd1na2vs0mg"},{"bike_id":"27abc7d1-dd85-495f-9415-aa00cef4846e","system_id":"levelo_inurba_marseille","lat":43.277754,"lon":5.395676,"is_reserved":false,"is_disabled":false,"rental_uris":{"android":"levelo://app?vid=27abc7d1-dd85-495f-9415-aa00cef4846e","ios":"levelo://app?vid=27abc7d1-dd85-495f-9415-aa00cef4846e"},"vehicle_type_id":"4","last_reported":1762064093,"current_range_meters":6800,"station_id":"","pricing_plan_id":"cebpf4jnsgd1na2vs0mg"},{"bike_id":"71f5e85e-d11b-4a85-bb2b-eff8e84dbcbb","system_id":"levelo_inurba_marseille","lat":43.24166,"lon":5.39717,"is_reserved":false,"is_disabled":false,"rental_uris":{"android":"levelo://app?vid=71f5e85e-d11b-4a85-bb2b-eff8e84dbcbb","ios":"levelo://app?vid=71f5e85e-d11b-4a85-bb2b-eff8e84dbcbb"},"vehicle_type_id":"4","last_reported":1762064093,"current_range_meters":6800,"station_id":"ce4bhn12rcd13ifvqgpg","pricing_plan_id":"cebpf4jnsgd1na2vs0mg"},{"bike_id":"7964de6c-fad0-4fd1-8a21-0815ea287c4c","system_id":"levelo_inurba_marseille","lat":43.28151,"lon":5.42632,"is_reserved":false,"is_disabled":true,"rental_uris":{"android":"levelo://app?vid=7964de6c-fad0-4fd1-8a21-0815ea287c4c","ios":"levelo://app?vid=7964de6c-fad0-4fd1-8a21-0815ea287c4c"},"vehicle_type_id":"4","last_reported":1762064093,"current_range_meters":7200,"station_id":"ce4bhnh2rcd13ifvqgug","pricing_plan_id":"cebpf4jnsgd1na2vs0mg"},{"bike_id":"0d53681a-2462-4979-9106-982e825913ab","system_id":"levelo_inurba_marseille","lat":43.295491,"lon":5.365991,"is_reserved":false,"is_disabled":false,"rental_uris":{"android":"levelo://app?vid=0d53681a-2462-4979-9106-982e825913ab","ios":"levelo://app?vid=0d53681a-2462-4979-9106-982e825913ab"},"vehicle_type_id":"4","last_reported":1762064093,"current_range_meters":7200,"station_id":"","pricing_plan_id":"cebpf4jnsgd1na2vs0mg"},{"bike_id":"52b117f2-4c01-4f66-887d-006722496528","system_id":"levelo_inurba_marseille","lat":43.30863,"lon":5.37154,"is_reserved":false,"is_disabled":false,"rental_uris":{"android":"levelo://app?vid=52b117f2-4c01-4f66-887d-006722496528","ios":"levelo://app?vid=52b117f2-4c01-4f66-887d-006722496528"},"vehicle_type_id":"4","last_reported":1762064093,"current_range_meters":7200,"station_id":"","pricing_plan_id":"cebpf4jnsgd1na2vs0mg"},{"bike_id":"5f440aca-8e54-4837-aaab-eed19e20da98","system_id":"levelo_inurba_marseille","lat":43.23782,"lon":5.3663,"is_reserved":false,"is_disabled":false,"rental_uris":{"android":"levelo://app?vid=5f440aca-8e54-4837-aaab-eed19e20da98","ios":"levelo://app?vid=5f440aca-8e54-4837-aaab-eed19e20da98"},"vehicle_type_id":"4","last_reported":1762064093,"current_range_meters":8000,"station_id":"st_d3nk18o9ro0c73en2l3g","pricing_plan_id":"cebpf4jnsgd1na2vs0mg"},{"bike_id":"177443bf-90f9-4a3f-b0a8-3e3e878c6366","system_id":"levelo_inurba_marseille","lat":43.27196,"lon":5.40981,"is_reserved":false,"is_disabled":false,"rental_uris":{"android":"levelo://app?vid=177443bf-90f9-4a3f-b0a8-3e3e878c6366","ios":"levelo://app?vid=177443bf-90f9-4a3f-b0a8-3e3e878c6366"},"vehicle_type_id":"4","last_reported":1762064093,"current_range_meters":8000,"station_id":"ce4bhl12rcd13ifvqgf0","pricing_plan_id":"cebpf4jnsgd1na2vs0mg"},{"bike_id":"dcb5f4d6-a57a-45ea-b185-de3fe952058c","system_id":"levelo_inurba_marseille","lat":43.28085,"lon":5.37855,"is_reserved":false,"is_disabled":true,"rental_uris":{"android":"levelo://app?vid=dcb5f4d6-a57a-45ea-b185-de3fe952058c","ios":"levelo://app?vid=dcb5f4d6-a57a-45ea-b185-de3fe952058c"},"vehicle_type_id":"4","last_reported":1762064093,"current_range_meters":8000,"station_id":"ce4bha12rcd13ifvqee0","pricing_plan_id":"cebpf4jnsgd1na2vs0mg"},{"bike_id":"57f565fb-b7af-45c3-bae7-5b6c83cfa8d1","system_id":"levelo_inurba_marseille","lat":43.265684,"lon":5.390358,"is_reserved":false,"is_disabled":false,"rental_uris":{"android":"levelo://app?vid=57f565fb-b7af-45c3-bae7-5b6c83cfa8d1","ios":"levelo://app?vid=57f565fb-b7af-45c3-bae7-5b6c83cfa8d1"},"vehicle_type_id":"4","last_reported":1762064093,"current_range_meters":8400,"station_id":"ce4bhe12rcd13ifvqf30","pricing_plan_id":"cebpf4jnsgd1na2vs0mg"},{"bike_id":"494ce4da-cb5c-48eb-b163-c517dce95f54","system_id":"levelo_inurba_marseille","lat":43.301573,"lon":5.380759,"is_reserved":false,"is_disabled":false,"rental_uris":{"android":"levelo://app?vid=494ce4da-cb5c-48eb-b163-c517dce95f54","ios":"levelo://app?vid=494ce4da-cb5c-48eb-b163-c517dce95f54"},"vehicle_type_id":"4","last_reported":1762064093,"current_range_meters":8400,"station_id":"ce4bgjp2rcd13ifvqbh0","pricing_plan_id":"cebpf4jnsgd1na2vs0mg"},{"bike_id":"dd2f99b0-440f-4a58-a70f-8d61634eb937","system_id":"levelo_inurba_marseille","lat":43.269413,"lon":5.407106,"is_reserved":false,"is_disabled":false,"rental_uris":{"android":"levelo://app?vid=dd2f99b0-440f-4a58-a70f-8d61634eb937","ios":"levelo://app?vid=dd2f99b0-440f-4a58-a70f-8d61634eb937"},"vehicle_type_id":"4","last_reported":1762064093,"current_range_meters":8400,"station_id":"","pricing_plan_id":"cebpf4jnsgd1na2vs0mg"},{"bike_id":"e6f4170a-5423-47b1-9907-ef5a775e4b1d","system_id":"levelo_inurba_marseille","lat":43.245429,"lon":5.395232,"is_reserved":false,"is_disabled":false,"rental_uris":{"android":"levelo://app?vid=e6f4170a-5423-47b1-9907-ef5a775e4b1d","ios":"levelo://app?vid=e6f4170a-5423-47b1-9907-ef5a775e4b1d"},"vehicle_type_id":"4","last_reported":1762064093,"current_range_meters":8400,"station_id":"ce4bhlp2rcd13ifvqgjg","pricing_plan_id":"cebpf4jnsgd1na2vs0mg"},{"bike_id":"fe211fee-df04-4312-bc0a-d625bf6086ab","system_id":"levelo_inurba_marseille","lat":43.29146,"lon":5.40312,"is_reserved":false,"is_disabled":true,"rental_uris":{"android":"levelo://app?vid=fe211fee-df04-4312-bc0a-d625bf6086ab","ios":"levelo://app?vid=fe211fee-df04-4312-bc0a-d625bf6086ab"},"vehicle_type_id":"4","last_reported":1762064093,"current_range_meters":8400,"station_id":"","pricing_plan_id":"cebpf4jnsgd1na2vs0mg"},{"bike_id":"74b15735-564b-4f09-952a-ba8cccb96884","system_id":"levelo_inurba_marseille","lat":43.29815,"lon":5.44062,"is_reserved":false,"is_disabled":false,"rental_uris":{"android":"levelo://app?vid=74b15735-564b-4f09-952a-ba8cccb96884","ios":"levelo://app?vid=74b15735-564b-4f09-952a-ba8cccb96884"},"vehicle_type_id":"4","last_reported":1762064093,"current_range_meters":8400,"station_id":"st_d3jp68qikq2c7381ktn0","pricing_plan_id":"cebpf4jnsgd1na2vs0mg"},{"bike_id":"b1e81361-2b17-4ef1-8a58-6def5753471b","system_id":"levelo_inurba_marseille","lat":43.33753,"lon":5.37484,"is_reserved":false,"is_disabled":false,"rental_uris":{"android":"levelo://app?vid=b1e81361-2b17-4ef1-8a58-6def5753471b","ios":"levelo://app?vid=b1e81361-2b17-4ef1-8a58-6def5753471b"},"vehicle_type_id":"4","last_reported":1762064093,"current_range_meters":8800,"station_id":"","pricing_plan_id":"cebpf4jnsgd1na2vs0mg"},{"bike_id":"838e55ca-3652-4d99-ad3b-2e2099ffccfc","system_id":"levelo_inurba_marseille","lat":43.28473,"lon":5.38446,"is_reserved":false,"is_disabled":false,"rental_uris":{"android":"levelo://app?vid=838e55ca-3652-4d99-ad3b-2e2099ffccfc","ios":"levelo://app?vid=838e55ca-3652-4d99-ad3b-2e2099ffccfc"},"vehicle_type_id":"4","last_reported":1762064093,"current_range_meters":8800,"station_id":"ce4bh512rcd13ifvqe3g","pricing_plan_id":"cebpf4jnsgd1na2vs0mg"},{"bike_id":"4867042b-9208-4687-ade1-f2e578fc9ef3","system_id":"levelo_inurba_marseille","lat":43.24789,"lon":5.37469,"is_reserved":false,"is_disabled":false,"rental_uris":{"android":"levelo://app?vid=4867042b-9208-4687-ade1-f2e578fc9ef3","ios":"levelo://app?vid=4867042b-9208-4687-ade1-f2e578fc9ef3"},"vehicle_type_id":"4","last_reported":1762064093,"current_range_meters":8800,"station_id":"ce4bhgh2rcd13ifvqfb0","pricing_plan_id":"cebpf4jnsgd1na2vs0mg"},{"bike_id":"ed890a36-02ef-4914-b497-b0b60f616f2a","system_id":"levelo_inurba_marseille","lat":43.28146,"lon":5.42652,"is_reserved":false,"is_disabled":false,"rental_uris":{"android":"levelo://app?vid=ed890a36-02ef-4914-b497-b0b60f616f2a","ios":"levelo://app?vid=ed890a36-02ef-4914-b497-b0b60f616f2a"},"vehicle_type_id":"4","last_reported":1762064093,"current_range_meters":9200,"station_id":"ce4bhnh2rcd13ifvqgug","pricing_plan_id":"cebpf4jnsgd1na2vs0mg"},{"bike_id":"b66aa9e5-e34b-4cd0-8e41-ac79809d9ba7","system_id":"levelo_inurba_marseille","lat":43.240186,"lon":5.377633,"is_reserved":false,"is_disabled":false,"rental_uris":{"android":"levelo://app?vid=b66aa9e5-e34b-4cd0-8e41-ac79809d9ba7","ios":"levelo://app?vid=b66aa9e5-e34b-4cd0-8e41-ac79809d9ba7"},"vehicle_type_id":"4","last_reported":1762064093,"current_range_meters":9200,"station_id":"","pricing_plan_id":"cebpf4jnsgd1na2vs0mg"},{"bike_id":"e70032cc-d575-4b4c-b355-d9d345194548","system_id":"levelo_inurba_marseille","lat":43.283709,"lon":5.386272,"is_reserved":false,"is_disabled":false,"rental_uris":{"android":"levelo://app?vid=e70032cc-d575-4b4c-b355-d9d345194548","ios":"levelo://app?vid=e70032cc-d575-4b4c-b355-d9d345194548"},"vehicle_type_id":"4","last_reported":1762064093,"current_range_meters":9200,"station_id":"ce4bh492rcd13ifvqdvg","pricing_plan_id":"cebpf4jnsgd1na2vs0mg"},{"bike_id":"b160d500-955b-4d65-bd51-bd6fb19db371","system_id":"levelo_inurba_marseille","lat":43.262292,"lon":5.404604,"is_reserved":false,"is_disabled":false,"rental_uris":{"android":"levelo://app?vid=b160d500-955b-4d65-bd51-bd6fb19db371","ios":"levelo://app?vid=b160d500-955b-4d65-bd51-bd6fb19db371"},"vehicle_type_id":"4","last_reported":1762064093,"current_range_meters":9200,"station_id":"ce4bhmh2rcd13ifvqgmg","pricing_plan_id":"cebpf4jnsgd1na2vs0mg"},{"bike_id":"56080dc6-ebba-45a0-84d0-e1578706e627","system_id":"levelo_inurba_marseille","lat":43.29285,"lon":5.40117,"is_reserved":false,"is_disabled":false,"rental_uris":{"android":"levelo://app?vid=56080dc6-ebba-45a0-84d0-e1578706e627","ios":"levelo://app?vid=56080dc6-ebba-45a0-84d0-e1578706e627"},"vehicle_type_id":"4","last_reported":1762064093,"current_range_meters":9600,"station_id":"ce4bh312rcd13ifvqdk0","pricing_plan_id":"cebpf4jnsgd1na2vs0mg"},{"bike_id":"e757de7d-039d-4bd6-9cce-c8dd2d2566c4","system_id":"levelo_inurba_marseille","lat":43.248232,"lon":5.374538,"is_reserved":false,"is_disabled":false,"rental_uris":{"android":"levelo://app?vid=e757de7d-039d-4bd6-9cce-c8dd2d2566c4","ios":"levelo://app?vid=e757de7d-039d-4bd6-9cce-c8dd2d2566c4"},"vehicle_type_id":"4","last_reported":1762064093,"current_range_meters":9600,"station_id":"ce4bhgh2rcd13ifvqfb0","pricing_plan_id":"cebpf4jnsgd1na2vs0mg"},{"bike_id":"c11d71f6-6418-4777-b9d2-29132ae76e19","system_id":"levelo_inurba_marseille","lat":43.229303,"lon":5.353793,"is_reserved":false,"is_disabled":false,"rental_uris":{"android":"levelo://app?vid=c11d71f6-6418-4777-b9d2-29132ae76e19","ios":"levelo://app?vid=c11d71f6-6418-4777-b9d2-29132ae76e19"},"vehicle_type_id":"4","last_reported":1762064093,"current_range_meters":9600,"station_id":"cpo3532slgdg3j2ikp40","pricing_plan_id":"cebpf4jnsgd1na2vs0mg"},{"bike_id":"1da56141-654f-442c-b20c-6c2bd52c2965","system_id":"levelo_inurba_marseille","lat":43.31251,"lon":5.38195,"is_reserved":false,"is_disabled":true,"rental_uris":{"android":"levelo://app?vid=1da56141-654f-442c-b20c-6c2bd52c2965","ios":"levelo://app?vid=1da56141-654f-442c-b20c-6c2bd52c2965"},"vehicle_type_id":"4","last_reported":1762064093,"current_range_meters":9600,"station_id":"","pricing_plan_id":"cebpf4jnsgd1na2vs0mg"},{"bike_id":"b8ebd8da-21d9-42e8-bb5f-906340bf2793","system_id":"levelo_inurba_marseille","lat":43.253383,"lon":5.421658,"is_reserved":false,"is_disabled":false,"rental_uris":{"android":"levelo://app?vid=b8ebd8da-21d9-42e8-bb5f-906340bf2793","ios":"levelo://app?vid=b8ebd8da-21d9-42e8-bb5f-906340bf2793"},"vehicle_type_id":"4","last_reported":1762064093,"current_range_meters":9600,"station_id":"st_d2m65c5bi1j21697t3ng","pricing_plan_id":"cebpf4jnsgd1na2vs0mg"},{"bike_id":"a8c37853-0b1d-4686-a393-5126f07eea8e","system_id":"levelo_inurba_marseille","lat":43.288147,"lon":5.391652,"is_reserved":false,"is_disabled":false,"rental_uris":{"android":"levelo://app?vid=a8c37853-0b1d-4686-a393-5126f07eea8e","ios":"levelo://app?vid=a8c37853-0b1d-4686-a393-5126f07eea8e"},"vehicle_type_id":"4","last_reported":1762064093,"current_range_meters":9600,"station_id":"","pricing_plan_id":"cebpf4jnsgd1na2vs0mg"},{"bike_id":"e980a7cf-a190-48ed-8134-8c3b5453eddc","system_id":"levelo_inurba_marseille","lat":43.292351,"lon":5.401021,"is_reserved":false,"is_disabled":false,"rental_uris":{"android":"levelo://app?vid=e980a7cf-a190-48ed-8134-8c3b5453eddc","ios":"levelo://app?vid=e980a7cf-a190-48ed-8134-8c3b5453eddc"},"vehicle_type_id":"4","last_reported":1762064093,"current_range_meters":9600,"station_id":"ce4bh312rcd13ifvqdk0","pricing_plan_id":"cebpf4jnsgd1na2vs0mg"},{"bike_id":"e8439756-3249-480f-8397-8b28483369ac","system_id":"levelo_inurba_marseille","lat":43.26929,"lon":5.38929,"is_reserved":false,"is_disabled":false,"rental_uris":{"android":"levelo://app?vid=e8439756-3249-480f-8397-8b28483369ac","ios":"levelo://app?vid=e8439756-3249-480f-8397-8b28483369ac"},"vehicle_type_id":"4","last_reported":1762064093,"current_range_meters":9600,"station_id":"ce4bhhh2rcd13ifvqfl0","pricing_plan_id":"cebpf4jnsgd1na2vs0mg"},{"bike_id":"afba2e7c-0dbc-4820-b93f-fdd58168ba1f","system_id":"levelo_inurba_marseille","lat":43.28765,"lon":5.385455,"is_reserved":false,"is_disabled":false,"rental_uris":{"android":"levelo://app?vid=afba2e7c-0dbc-4820-b93f-fdd58168ba1f","ios":"levelo://app?vid=afba2e7c-0dbc-4820-b93f-fdd58168ba1f"},"vehicle_type_id":"4","last_reported":1762064093,"current_range_meters":10000,"station_id":"","pricing_plan_id":"cebpf4jnsgd1na2vs0mg"},{"bike_id":"6965011c-5e75-4967-8bec-e313c53b01f6","system_id":"levelo_inurba_marseille","lat":43.24945,"lon":5.40494,"is_reserved":false,"is_disabled":false,"rental_uris":{"android":"levelo://app?vid=6965011c-5e75-4967-8bec-e313c53b01f6","ios":"levelo://app?vid=6965011c-5e75-4967-8bec-e313c53b01f6"},"vehicle_type_id":"4","last_reported":1762064093,"current_range_meters":10000,"station_id":"st_d2ngiaodas8pm72gd1h0","pricing_plan_id":"cebpf4jnsgd1na2vs0mg"},{"bike_id":"68dfe5bf-96d8-40ed-a701-d1cafa21ceb7","system_id":"levelo_inurba_marseille","lat":43.30553,"lon":5.38963,"is_reserved":false,"is_disabled":false,"rental_uris":{"android":"levelo://app?vid=68dfe5bf-96d8-40ed-a701-d1cafa21ceb7","ios":"levelo://app?vid=68dfe5bf-96d8-40ed-a701-d1cafa21ceb7"},"vehicle_type_id":"4","last_reported":1762064093,"current_range_meters":10000,"station_id":"ce4bgk12rcd13ifvqbi0","pricing_plan_id":"cebpf4jnsgd1na2vs0mg"},{"bike_id":"c9fedd74-dc44-4209-8d5d-c45e05858c5c","system_id":"levelo_inurba_marseille","lat":43.30574,"lon":5.3935,"is_reserved":false,"is_disabled":false,"rental_uris":{"android":"levelo://app?vid=c9fedd74-dc44-4209-8d5d-c45e05858c5c","ios":"levelo://app?vid=c9fedd74-dc44-4209-8d5d-c45e05858c5c"},"vehicle_type_id":"4","last_reported":1762064093,"current_range_meters":10000,"station_id":"ce4bh0p2rcd13ifvqd80","pricing_plan_id":"cebpf4jnsgd1na2vs0mg"},{"bike_id":"b4cb0cf7-f8c5-4677-91c1-154973aab3fd","system_id":"levelo_inurba_marseille","lat":43.28405,"lon":5.35001,"is_reserved":false,"is_disabled":false,"rental_uris":{"android":"levelo://app?vid=b4cb0cf7-f8c5-4677-91c1-154973aab3fd","ios":"levelo://app?vid=b4cb0cf7-f8c5-4677-91c1-154973aab3fd"},"vehicle_type_id":"4","last_reported":1762064093,"current_range_meters":10000,"station_id":"ce4bhbh2rcd13ifvqepg","pricing_plan_id":"cebpf4jnsgd1na2vs0mg"},{"bike_id":"2687d26a-a787-4d7e-9615-d7d2da9b194b","system_id":"levelo_inurba_marseille","lat":43.24378,"lon":5.37073,"is_reserved":false,"is_disabled":false,"rental_uris":{"android":"levelo://app?vid=2687d26a-a787-4d7e-9615-d7d2da9b194b","ios":"levelo://app?vid=2687d26a-a787-4d7e-9615-d7d2da9b194b"},"vehicle_type_id":"4","last_reported":1762064093,"current_range_meters":10000,"station_id":"ce4bhhh2rcd13ifvqfk0","pricing_plan_id":"cebpf4jnsgd1na2vs0mg"},{"bike_id":"6f55c2df-5461-4f13-8308-6d7dd6f86eb4","system_id":"levelo_inurba_marseille","lat":43.229279,"lon":5.353766,"is_reserved":false,"is_disabled":false,"rental_uris":{"android":"levelo://app?vid=6f55c2df-5461-4f13-8308-6d7dd6f86eb4","ios":"levelo://app?vid=6f55c2df-5461-4f13-8308-6d7dd6f86eb4"},"vehicle_type_id":"4","last_reported":1762064093,"current_range_meters":10800,"station_id":"cpo3532slgdg3j2ikp40","pricing_plan_id":"cebpf4jnsgd1na2vs0mg"},{"bike_id":"c3fe3ee5-ad3d-46fc-ac4e-de6030c41f06","system_id":"levelo_inurba_marseille","lat":43.24954,"lon":5.40501,"is_reserved":false,"is_disabled":false,"rental_uris":{"android":"levelo://app?vid=c3fe3ee5-ad3d-46fc-ac4e-de6030c41f06","ios":"levelo://app?vid=c3fe3ee5-ad3d-46fc-ac4e-de6030c41f06"},"vehicle_type_id":"4","last_reported":1762064093,"current_range_meters":10800,"station_id":"st_d2ngiaodas8pm72gd1h0","pricing_plan_id":"cebpf4jnsgd1na2vs0mg"},{"bike_id":"2df752b4-3d2a-4a0d-b2cd-a0c413d8b5b1","system_id":"levelo_inurba_marseille","lat":43.23957,"lon":5.36658,"is_reserved":false,"is_disabled":false,"rental_uris":{"android":"levelo://app?vid=2df752b4-3d2a-4a0d-b2cd-a0c413d8b5b1","ios":"levelo://app?vid=2df752b4-3d2a-4a0d-b2cd-a0c413d8b5b1"},"vehicle_type_id":"4","last_reported":1762064093,"current_range_meters":10800,"station_id":"ce4bhi12rcd13ifvqfp0","pricing_plan_id":"cebpf4jnsgd1na2vs0mg"},{"bike_id":"7a9e1e86-52dc-42e4-a53b-236a591ba00d","system_id":"levelo_inurba_marseille","lat":43.28855,"lon":5.36354,"is_reserved":false,"is_disabled":false,"rental_uris":{"android":"levelo://app?vid=7a9e1e86-52dc-42e4-a53b-236a591ba00d","ios":"levelo://app?vid=7a9e1e86-52dc-42e4-a53b-236a591ba00d"},"vehicle_type_id":"4","last_reported":1762064093,"current_range_meters":10800,"station_id":"","pricing_plan_id":"cebpf4jnsgd1na2vs0mg"},{"bike_id":"0089665c-d050-4f0d-8d27-e9a6af9208fc","system_id":"levelo_inurba_marseille","lat":43.30176,"lon":5.3802,"is_reserved":false,"is_disabled":false,"rental_uris":{"android":"levelo://app?vid=0089665c-d050-4f0d-8d27-e9a6af9208fc","ios":"levelo://app?vid=0089665c-d050-4f0d-8d27-e9a6af9208fc"},"vehicle_type_id":"4","last_reported":1762064093,"current_range_meters":10800,"station_id":"","pricing_plan_id":"cebpf4jnsgd1na2vs0mg"},{"bike_id":"0c3bfe72-1bfa-4fe4-8ec1-abc531b0b6c5","system_id":"levelo_inurba_marseille","lat":43.265554,"lon":5.372894,"is_reserved":false,"is_disabled":true,"rental_uris":{"android":"levelo://app?vid=0c3bfe72-1bfa-4fe4-8ec1-abc531b0b6c5","ios":"levelo://app?vid=0c3bfe72-1bfa-4fe4-8ec1-abc531b0b6c5"},"vehicle_type_id":"4","last_reported":1762064093,"current_range_meters":10800,"station_id":"ce4bhg12rcd13ifvqf70","pricing_plan_id":"cebpf4jnsgd1na2vs0mg"},{"bike_id":"72fc7327-8687-4be9-897e-fc24f80ac5ed","system_id":"levelo_inurba_marseille","lat":43.26495,"lon":5.39545,"is_reserved":false,"is_disabled":false,"rental_uris":{"android":"levelo://app?vid=72fc7327-8687-4be9-897e-fc24f80ac5ed","ios":"levelo://app?vid=72fc7327-8687-4be9-897e-fc24f80ac5ed"},"vehicle_type_id":"4","last_reported":1762064093,"current_range_meters":11200,"station_id":"ce4bhi12rcd13ifvqfq0","pricing_plan_id":"cebpf4jnsgd1na2vs0mg"},{"bike_id":"d1f9c9ea-4fd6-41fc-b98e-41abf6519045","system_id":"levelo_inurba_marseille","lat":43.284141,"lon":5.349962,"is_reserved":false,"is_disabled":false,"rental_uris":{"android":"levelo://app?vid=d1f9c9ea-4fd6-41fc-b98e-41abf6519045","ios":"levelo://app?vid=d1f9c9ea-4fd6-41fc-b98e-41abf6519045"},"vehicle_type_id":"4","last_reported":1762064093,"current_range_meters":11200,"station_id":"ce4bhbh2rcd13ifvqepg","pricing_plan_id":"cebpf4jnsgd1na2vs0mg"},{"bike_id":"769e9f08-d61c-4253-b1a4-ec58f411020c","system_id":"levelo_inurba_marseille","lat":43.24811,"lon":5.3746,"is_reserved":false,"is_disabled":false,"rental_uris":{"android":"levelo://app?vid=769e9f08-d61c-4253-b1a4-ec58f411020c","ios":"levelo://app?vid=769e9f08-d61c-4253-b1a4-ec58f411020c"},"vehicle_type_id":"4","last_reported":1762064093,"current_range_meters":11200,"station_id":"ce4bhgh2rcd13ifvqfb0","pricing_plan_id":"cebpf4jnsgd1na2vs0mg"},{"bike_id":"19d6fb00-c822-4b06-86f9-32662647d89f","system_id":"levelo_inurba_marseille","lat":43.25333,"lon":5.4217,"is_reserved":false,"is_disabled":false,"rental_uris":{"android":"levelo://app?vid=19d6fb00-c822-4b06-86f9-32662647d89f","ios":"levelo://app?vid=19d6fb00-c822-4b06-86f9-32662647d89f"},"vehicle_type_id":"4","last_reported":1762064093,"current_range_meters":11200,"station_id":"st_d2m65c5bi1j21697t3ng","pricing_plan_id":"cebpf4jnsgd1na2vs0mg"},{"bike_id":"33d00fec-9dc8-453f-a318-b05d18d1b454","system_id":"levelo_inurba_marseille","lat":43.2315,"lon":5.43701,"is_reserved":false,"is_disabled":false,"rental_uris":{"android":"levelo://app?vid=33d00fec-9dc8-453f-a318-b05d18d1b454","ios":"levelo://app?vid=33d00fec-9dc8-453f-a318-b05d18d1b454"},"vehicle_type_id":"4","last_reported":1762064093,"current_range_meters":11200,"station_id":"ce4bhmp2rcd13ifvqgog","pricing_plan_id":"cebpf4jnsgd1na2vs0mg"},{"bike_id":"b77ad759-5944-4bb4-b90a-4238599f6076","system_id":"levelo_inurba_marseille","lat":43.265645,"lon":5.390212,"is_reserved":false,"is_disabled":false,"rental_uris":{"android":"levelo://app?vid=b77ad759-5944-4bb4-b90a-4238599f6076","ios":"levelo://app?vid=b77ad759-5944-4bb4-b90a-4238599f6076"},"vehicle_type_id":"4","last_reported":1762064093,"current_range_meters":11600,"station_id":"ce4bhe12rcd13ifvqf30","pricing_plan_id":"cebpf4jnsgd1na2vs0mg"},{"bike_id":"a57d0772-84e3-4f73-bbbe-f2a52f9ec71f","system_id":"levelo_inurba_marseille","lat":43.29568,"lon":5.39979,"is_reserved":false,"is_disabled":false,"rental_uris":{"android":"levelo://app?vid=a57d0772-84e3-4f73-bbbe-f2a52f9ec71f","ios":"levelo://app?vid=a57d0772-84e3-4f73-bbbe-f2a52f9ec71f"},"vehicle_type_id":"4","last_reported":1762064093,"current_range_meters":11600,"station_id":"ce4bh312rcd13ifvqdj0","pricing_plan_id":"cebpf4jnsgd1na2vs0mg"},{"bike_id":"aa79cdcf-45d5-4dc1-8079-3d69bdad3c43","system_id":"levelo_inurba_marseille","lat":43.298825,"lon":5.397446,"is_reserved":false,"is_disabled":false,"rental_uris":{"android":"levelo://app?vid=aa79cdcf-45d5-4dc1-8079-3d69bdad3c43","ios":"levelo://app?vid=aa79cdcf-45d5-4dc1-8079-3d69bdad3c43"},"vehicle_type_id":"4","last_reported":1762064093,"current_range_meters":11600,"station_id":"ce4bh0h2rcd13ifvqd50","pricing_plan_id":"cebpf4jnsgd1na2vs0mg"},{"bike_id":"50c2c89c-4a9b-41f6-af05-b4e430e07029","system_id":"levelo_inurba_marseille","lat":43.24641,"lon":5.4314,"is_reserved":false,"is_disabled":false,"rental_uris":{"android":"levelo://app?vid=50c2c89c-4a9b-41f6-af05-b4e430e07029","ios":"levelo://app?vid=50c2c89c-4a9b-41f6-af05-b4e430e07029"},"vehicle_type_id":"4","last_reported":1762064093,"current_range_meters":11600,"station_id":"st_d2m6c4gdas8pm72e190g","pricing_plan_id":"cebpf4jnsgd1na2vs0mg"},{"bike_id":"1d29646a-da1f-4f66-b008-0838ffb2fa84","system_id":"levelo_inurba_marseille","lat":43.29986,"lon":5.37252,"is_reserved":false,"is_disabled":false,"rental_uris":{"android":"levelo://app?vid=1d29646a-da1f-4f66-b008-0838ffb2fa84","ios":"levelo://app?vid=1d29646a-da1f-4f66-b008-0838ffb2fa84"},"vehicle_type_id":"4","last_reported":1762064093,"current_range_meters":11600,"station_id":"","pricing_plan_id":"cebpf4jnsgd1na2vs0mg"},{"bike_id":"52b04612-cd38-411f-a68e-6bb9cb24a90a","system_id":"levelo_inurba_marseille","lat":43.241715,"lon":5.364064,"is_reserved":false,"is_disabled":false,"rental_uris":{"android":"levelo://app?vid=52b04612-cd38-411f-a68e-6bb9cb24a90a","ios":"levelo://app?vid=52b04612-cd38-411f-a68e-6bb9cb24a90a"},"vehicle_type_id":"4","last_reported":1762064093,"current_range_meters":12000,"station_id":"cpo36qri1sfpv3e86is0","pricing_plan_id":"cebpf4jnsgd1na2vs0mg"},{"bike_id":"2b74301e-ae33-4f7c-834f-41a5de0d8418","system_id":"levelo_inurba_marseille","lat":43.26557,"lon":5.40331,"is_reserved":false,"is_disabled":false,"rental_uris":{"android":"levelo://app?vid=2b74301e-ae33-4f7c-834f-41a5de0d8418","ios":"levelo://app?vid=2b74301e-ae33-4f7c-834f-41a5de0d8418"},"vehicle_type_id":"4","last_reported":1762064093,"current_range_meters":12000,"station_id":"ce4bhmp2rcd13ifvqgng","pricing_plan_id":"cebpf4jnsgd1na2vs0mg"},{"bike_id":"9c55ee7d-e551-4e30-ab4b-d4df8173e3fb","system_id":"levelo_inurba_marseille","lat":43.27179,"lon":5.40987,"is_reserved":false,"is_disabled":false,"rental_uris":{"android":"levelo://app?vid=9c55ee7d-e551-4e30-ab4b-d4df8173e3fb","ios":"levelo://app?vid=9c55ee7d-e551-4e30-ab4b-d4df8173e3fb"},"vehicle_type_id":"4","last_reported":1762064093,"current_range_meters":12000,"station_id":"ce4bhl12rcd13ifvqgf0","pricing_plan_id":"cebpf4jnsgd1na2vs0mg"},{"bike_id":"ccbb9b89-ebba-4c6c-b9fe-acafe29ddb47","system_id":"levelo_inurba_marseille","lat":43.33499,"lon":5.42792,"is_reserved":false,"is_disabled":false,"rental_uris":{"android":"levelo://app?vid=ccbb9b89-ebba-4c6c-b9fe-acafe29ddb47","ios":"levelo://app?vid=ccbb9b89-ebba-4c6c-b9fe-acafe29ddb47"},"vehicle_type_id":"4","last_reported":1762064093,"current_range_meters":12400,"station_id":"","pricing_plan_id":"cebpf4jnsgd1na2vs0mg"},{"bike_id":"4d7247b1-6839-4ffd-8ae3-b845a9556d1a","system_id":"levelo_inurba_marseille","lat":43.32345,"lon":5.36751,"is_reserved":false,"is_disabled":false,"rental_uris":{"android":"levelo://app?vid=4d7247b1-6839-4ffd-8ae3-b845a9556d1a","ios":"levelo://app?vid=4d7247b1-6839-4ffd-8ae3-b845a9556d1a"},"vehicle_type_id":"4","last_reported":1762064093,"current_range_meters":12800,"station_id":"ce4bhsh2rcd13ifvqi2g","pricing_plan_id":"cebpf4jnsgd1na2vs0mg"},{"bike_id":"7b903229-f426-4f48-a1ec-0bad63ee51dd","system_id":"levelo_inurba_marseille","lat":43.28392,"lon":5.34991,"is_reserved":false,"is_disabled":false,"rental_uris":{"android":"levelo://app?vid=7b903229-f426-4f48-a1ec-0bad63ee51dd","ios":"levelo://app?vid=7b903229-f426-4f48-a1ec-0bad63ee51dd"},"vehicle_type_id":"4","last_reported":1762064093,"current_range_meters":12800,"station_id":"ce4bhbh2rcd13ifvqepg","pricing_plan_id":"cebpf4jnsgd1na2vs0mg"},{"bike_id":"7b0eaa70-7657-4098-8e47-f6fae1ad1d21","system_id":"levelo_inurba_marseille","lat":43.25853,"lon":5.39909,"is_reserved":false,"is_disabled":false,"rental_uris":{"android":"levelo://app?vid=7b0eaa70-7657-4098-8e47-f6fae1ad1d21","ios":"levelo://app?vid=7b0eaa70-7657-4098-8e47-f6fae1ad1d21"},"vehicle_type_id":"4","last_reported":1762064093,"current_range_meters":12800,"station_id":"ce4bhl92rcd13ifvqghg","pricing_plan_id":"cebpf4jnsgd1na2vs0mg"},{"bike_id":"41598790-345d-414f-9e87-720cb432f278","system_id":"levelo_inurba_marseille","lat":43.29477,"lon":5.36227,"is_reserved":false,"is_disabled":false,"rental_uris":{"android":"levelo://app?vid=41598790-345d-414f-9e87-720cb432f278","ios":"levelo://app?vid=41598790-345d-414f-9e87-720cb432f278"},"vehicle_type_id":"4","last_reported":1762064093,"current_range_meters":12800,"station_id":"","pricing_plan_id":"cebpf4jnsgd1na2vs0mg"},{"bike_id":"148ff3a5-2a80-419c-8f1b-9d1335123e77","system_id":"levelo_inurba_marseille","lat":43.307473,"lon":5.382459,"is_reserved":false,"is_disabled":false,"rental_uris":{"android":"levelo://app?vid=148ff3a5-2a80-419c-8f1b-9d1335123e77","ios":"levelo://app?vid=148ff3a5-2a80-419c-8f1b-9d1335123e77"},"vehicle_type_id":"4","last_reported":1762064093,"current_range_meters":12800,"station_id":"","pricing_plan_id":"cebpf4jnsgd1na2vs0mg"},{"bike_id":"baeb217d-d0d2-44b1-8dd8-805f0e409759","system_id":"levelo_inurba_marseille","lat":43.240723,"lon":5.377537,"is_reserved":false,"is_disabled":false,"rental_uris":{"android":"levelo://app?vid=baeb217d-d0d2-44b1-8dd8-805f0e409759","ios":"levelo://app?vid=baeb217d-d0d2-44b1-8dd8-805f0e409759"},"vehicle_type_id":"4","last_reported":1762064093,"current_range_meters":12800,"station_id":"ce4bhnp2rcd13ifvqgvg","pricing_plan_id":"cebpf4jnsgd1na2vs0mg"},{"bike_id":"b42475ff-d882-4ef4-bae7-c51ce0062524","system_id":"levelo_inurba_marseille","lat":43.290237,"lon":5.3815,"is_reserved":false,"is_disabled":false,"rental_uris":{"android":"levelo://app?vid=b42475ff-d882-4ef4-bae7-c51ce0062524","ios":"levelo://app?vid=b42475ff-d882-4ef4-bae7-c51ce0062524"},"vehicle_type_id":"4","last_reported":1762064093,"current_range_meters":13600,"station_id":"","pricing_plan_id":"cebpf4jnsgd1na2vs0mg"},{"bike_id":"8826ede5-ae30-4091-839e-dd39c3609359","system_id":"levelo_inurba_marseille","lat":43.29793,"lon":5.39351,"is_reserved":false,"is_disabled":true,"rental_uris":{"android":"levelo://app?vid=8826ede5-ae30-4091-839e-dd39c3609359","ios":"levelo://app?vid=8826ede5-ae30-4091-839e-dd39c3609359"},"vehicle_type_id":"4","last_reported":1762064093,"current_range_meters":13600,"station_id":"chh1huq6cuj3fo74tm60","pricing_plan_id":"cebpf4jnsgd1na2vs0mg"},{"bike_id":"730ca9ac-fea7-459e-bf1a-e3eab4e2c977","system_id":"levelo_inurba_marseille","lat":43.24682,"lon":5.38169,"is_reserved":false,"is_disabled":false,"rental_uris":{"android":"levelo://app?vid=730ca9ac-fea7-459e-bf1a-e3eab4e2c977","ios":"levelo://app?vid=730ca9ac-fea7-459e-bf1a-e3eab4e2c977"},"vehicle_type_id":"4","last_reported":1762064093,"current_range_meters":13600,"station_id":"ce4bhih2rcd13ifvqfr0","pricing_plan_id":"cebpf4jnsgd1na2vs0mg"},{"bike_id":"115d6465-5f3d-4775-b4fa-28f134a45aff","system_id":"levelo_inurba_marseille","lat":43.28003,"lon":5.40007,"is_reserved":false,"is_disabled":false,"rental_uris":{"android":"levelo://app?vid=115d6465-5f3d-4775-b4fa-28f134a45aff","ios":"levelo://app?vid=115d6465-5f3d-4775-b4fa-28f134a45aff"},"vehicle_type_id":"4","last_reported":1762064093,"current_range_meters":13600,"station_id":"ce4bho92rcd13ifvqh4g","pricing_plan_id":"cebpf4jnsgd1na2vs0mg"},{"bike_id":"3c422345-75c7-4b6b-9bfc-66e332ba5dab","system_id":"levelo_inurba_marseille","lat":43.29701,"lon":5.37697,"is_reserved":false,"is_disabled":false,"rental_uris":{"android":"levelo://app?vid=3c422345-75c7-4b6b-9bfc-66e332ba5dab","ios":"levelo://app?vid=3c422345-75c7-4b6b-9bfc-66e332ba5dab"},"vehicle_type_id":"4","last_reported":1762064093,"current_range_meters":13600,"station_id":"ce4bgkh2rcd13ifvqbl0","pricing_plan_id":"cebpf4jnsgd1na2vs0mg"},{"bike_id":"45833a00-bb86-4c87-99c2-814a719ac317","system_id":"levelo_inurba_marseille","lat":43.22924,"lon":5.35382,"is_reserved":false,"is_disabled":false,"rental_uris":{"android":"levelo://app?vid=45833a00-bb86-4c87-99c2-814a719ac317","ios":"levelo://app?vid=45833a00-bb86-4c87-99c2-814a719ac317"},"vehicle_type_id":"4","last_reported":1762064093,"current_range_meters":13600,"station_id":"cpo3532slgdg3j2ikp40","pricing_plan_id":"cebpf4jnsgd1na2vs0mg"},{"bike_id":"3a54a4fe-e924-4e34-8e27-142180bf319f","system_id":"levelo_inurba_marseille","lat":43.27202,"lon":5.3918,"is_reserved":false,"is_disabled":false,"rental_uris":{"android":"levelo://app?vid=3a54a4fe-e924-4e34-8e27-142180bf319f","ios":"levelo://app?vid=3a54a4fe-e924-4e34-8e27-142180bf319f"},"vehicle_type_id":"4","last_reported":1762064093,"current_range_meters":13600,"station_id":"ce4bhhp2rcd13ifvqfm0","pricing_plan_id":"cebpf4jnsgd1na2vs0mg"},{"bike_id":"09aa8f06-ffeb-4dc5-b1e3-4dfaaa5d105e","system_id":"levelo_inurba_marseille","lat":43.27059,"lon":5.38305,"is_reserved":false,"is_disabled":false,"rental_uris":{"android":"levelo://app?vid=09aa8f06-ffeb-4dc5-b1e3-4dfaaa5d105e","ios":"levelo://app?vid=09aa8f06-ffeb-4dc5-b1e3-4dfaaa5d105e"},"vehicle_type_id":"4","last_reported":1762064093,"current_range_meters":13600,"station_id":"st_d3n2fo6cfp8s73cte1j0","pricing_plan_id":"cebpf4jnsgd1na2vs0mg"},{"bike_id":"cdcfa7af-5c53-4a1e-bd12-22de38b14978","system_id":"levelo_inurba_marseille","lat":43.24628,"lon":5.43152,"is_reserved":false,"is_disabled":false,"rental_uris":{"android":"levelo://app?vid=cdcfa7af-5c53-4a1e-bd12-22de38b14978","ios":"levelo://app?vid=cdcfa7af-5c53-4a1e-bd12-22de38b14978"},"vehicle_type_id":"4","last_reported":1762064093,"current_range_meters":14000,"station_id":"st_d2m6c4gdas8pm72e190g","pricing_plan_id":"cebpf4jnsgd1na2vs0mg"},{"bike_id":"12a18d4a-7b67-4876-88d1-1820554fc400","system_id":"levelo_inurba_marseille","lat":43.29722,"lon":5.38103,"is_reserved":false,"is_disabled":false,"rental_uris":{"android":"levelo://app?vid=12a18d4a-7b67-4876-88d1-1820554fc400","ios":"levelo://app?vid=12a18d4a-7b67-4876-88d1-1820554fc400"},"vehicle_type_id":"4","last_reported":1762064093,"current_range_meters":14000,"station_id":"","pricing_plan_id":"cebpf4jnsgd1na2vs0mg"},{"bike_id":"1dff0eba-7b24-4e9e-b26e-371189c08022","system_id":"levelo_inurba_marseille","lat":43.24809,"lon":5.37457,"is_reserved":false,"is_disabled":false,"rental_uris":{"android":"levelo://app?vid=1dff0eba-7b24-4e9e-b26e-371189c08022","ios":"levelo://app?vid=1dff0eba-7b24-4e9e-b26e-371189c08022"},"vehicle_type_id":"4","last_reported":1762064093,"current_range_meters":14000,"station_id":"ce4bhgh2rcd13ifvqfb0","pricing_plan_id":"cebpf4jnsgd1na2vs0mg"},{"bike_id":"25b8b9c6-92a5-43d3-8767-0700e7c7de1c","system_id":"levelo_inurba_marseille","lat":43.3377,"lon":5.37431,"is_reserved":false,"is_disabled":false,"rental_uris":{"android":"levelo://app?vid=25b8b9c6-92a5-43d3-8767-0700e7c7de1c","ios":"levelo://app?vid=25b8b9c6-92a5-43d3-8767-0700e7c7de1c"},"vehicle_type_id":"4","last_reported":1762064093,"current_range_meters":14000,"station_id":"","pricing_plan_id":"cebpf4jnsgd1na2vs0mg"},{"bike_id":"ba541a52-7e4e-4241-9791-ae6f1fb03dcd","system_id":"levelo_inurba_marseille","lat":43.31986,"lon":5.41601,"is_reserved":false,"is_disabled":false,"rental_uris":{"android":"levelo://app?vid=ba541a52-7e4e-4241-9791-ae6f1fb03dcd","ios":"levelo://app?vid=ba541a52-7e4e-4241-9791-ae6f1fb03dcd"},"vehicle_type_id":"4","last_reported":1762064093,"current_range_meters":14000,"station_id":"","pricing_plan_id":"cebpf4jnsgd1na2vs0mg"},{"bike_id":"6fe8defd-7365-4870-9fd8-a61adc4c20bd","system_id":"levelo_inurba_marseille","lat":43.29874,"lon":5.39739,"is_reserved":false,"is_disabled":true,"rental_uris":{"android":"levelo://app?vid=6fe8defd-7365-4870-9fd8-a61adc4c20bd","ios":"levelo://app?vid=6fe8defd-7365-4870-9fd8-a61adc4c20bd"},"vehicle_type_id":"4","last_reported":1762064093,"current_range_meters":14400,"station_id":"ce4bh0h2rcd13ifvqd50","pricing_plan_id":"cebpf4jnsgd1na2vs0mg"},{"bike_id":"c7d57f9b-8ba9-4435-ac3b-54d333c0b4c7","system_id":"levelo_inurba_marseille","lat":43.323339,"lon":5.367288,"is_reserved":false,"is_disabled":false,"rental_uris":{"android":"levelo://app?vid=c7d57f9b-8ba9-4435-ac3b-54d333c0b4c7","ios":"levelo://app?vid=c7d57f9b-8ba9-4435-ac3b-54d333c0b4c7"},"vehicle_type_id":"4","last_reported":1762064093,"current_range_meters":14400,"station_id":"ce4bhsh2rcd13ifvqi2g","pricing_plan_id":"cebpf4jnsgd1na2vs0mg"},{"bike_id":"84f1bfac-8d21-499b-b8e1-fdc8049e10ac","system_id":"levelo_inurba_marseille","lat":43.31271,"lon":5.37752,"is_reserved":false,"is_disabled":false,"rental_uris":{"android":"levelo://app?vid=84f1bfac-8d21-499b-b8e1-fdc8049e10ac","ios":"levelo://app?vid=84f1bfac-8d21-499b-b8e1-fdc8049e10ac"},"vehicle_type_id":"4","last_reported":1762064093,"current_range_meters":14400,"station_id":"","pricing_plan_id":"cebpf4jnsgd1na2vs0mg"},{"bike_id":"5075de02-66f7-457e-a882-0a046d3ee1a4","system_id":"levelo_inurba_marseille","lat":43.26932,"lon":5.38919,"is_reserved":false,"is_disabled":false,"rental_uris":{"android":"levelo://app?vid=5075de02-66f7-457e-a882-0a046d3ee1a4","ios":"levelo://app?vid=5075de02-66f7-457e-a882-0a046d3ee1a4"},"vehicle_type_id":"4","last_reported":1762064093,"current_range_meters":14400,"station_id":"ce4bhhh2rcd13ifvqfl0","pricing_plan_id":"cebpf4jnsgd1na2vs0mg"},{"bike_id":"193eac5d-e557-4171-9864-859d1bed4f7f","system_id":"levelo_inurba_marseille","lat":43.237809,"lon":5.366387,"is_reserved":false,"is_disabled":false,"rental_uris":{"android":"levelo://app?vid=193eac5d-e557-4171-9864-859d1bed4f7f","ios":"levelo://app?vid=193eac5d-e557-4171-9864-859d1bed4f7f"},"vehicle_type_id":"4","last_reported":1762064093,"current_range_meters":14800,"station_id":"st_d3nk18o9ro0c73en2l3g","pricing_plan_id":"cebpf4jnsgd1na2vs0mg"},{"bike_id":"e718eb19-1ff9-4674-92c2-56321ad9eee9","system_id":"levelo_inurba_marseille","lat":43.25324,"lon":5.42169,"is_reserved":false,"is_disabled":false,"rental_uris":{"android":"levelo://app?vid=e718eb19-1ff9-4674-92c2-56321ad9eee9","ios":"levelo://app?vid=e718eb19-1ff9-4674-92c2-56321ad9eee9"},"vehicle_type_id":"4","last_reported":1762064093,"current_range_meters":14800,"station_id":"st_d2m65c5bi1j21697t3ng","pricing_plan_id":"cebpf4jnsgd1na2vs0mg"},{"bike_id":"079d2352-ba60-4c63-b7a4-6ec0ccf76dcc","system_id":"levelo_inurba_marseille","lat":43.25678,"lon":5.41117,"is_reserved":false,"is_disabled":false,"rental_uris":{"android":"levelo://app?vid=079d2352-ba60-4c63-b7a4-6ec0ccf76dcc","ios":"levelo://app?vid=079d2352-ba60-4c63-b7a4-6ec0ccf76dcc"},"vehicle_type_id":"4","last_reported":1762064093,"current_range_meters":14800,"station_id":"ce4bhkp2rcd13ifvqgd0","pricing_plan_id":"cebpf4jnsgd1na2vs0mg"},{"bike_id":"e9b2ccca-d988-455c-955a-8a145ee80d89","system_id":"levelo_inurba_marseille","lat":43.28698,"lon":5.39982,"is_reserved":false,"is_disabled":false,"rental_uris":{"android":"levelo://app?vid=e9b2ccca-d988-455c-955a-8a145ee80d89","ios":"levelo://app?vid=e9b2ccca-d988-455c-955a-8a145ee80d89"},"vehicle_type_id":"4","last_reported":1762064093,"current_range_meters":14800,"station_id":"ce4bho92rcd13ifvqh3g","pricing_plan_id":"cebpf4jnsgd1na2vs0mg"},{"bike_id":"21d8b98f-5600-4b9e-a80f-e709ca9bbf25","system_id":"levelo_inurba_marseille","lat":43.31994,"lon":5.381492,"is_reserved":false,"is_disabled":false,"rental_uris":{"android":"levelo://app?vid=21d8b98f-5600-4b9e-a80f-e709ca9bbf25","ios":"levelo://app?vid=21d8b98f-5600-4b9e-a80f-e709ca9bbf25"},"vehicle_type_id":"4","last_reported":1762064093,"current_range_meters":15200,"station_id":"ce4bhr12rcd13ifvqhpg","pricing_plan_id":"cebpf4jnsgd1na2vs0mg"},{"bike_id":"de0ca7a8-116a-46c8-8c50-6b445a473423","system_id":"levelo_inurba_marseille","lat":43.28861,"lon":5.425281,"is_reserved":false,"is_disabled":false,"rental_uris":{"android":"levelo://app?vid=de0ca7a8-116a-46c8-8c50-6b445a473423","ios":"levelo://app?vid=de0ca7a8-116a-46c8-8c50-6b445a473423"},"vehicle_type_id":"4","last_reported":1762064093,"current_range_meters":15200,"station_id":"st_d3b462108ojc7389ooeg","pricing_plan_id":"cebpf4jnsgd1na2vs0mg"},{"bike_id":"0d3e0b55-eff8-448b-8988-99ff4e704c13","system_id":"levelo_inurba_marseille","lat":43.288684,"lon":5.378648,"is_reserved":false,"is_disabled":false,"rental_uris":{"android":"levelo://app?vid=0d3e0b55-eff8-448b-8988-99ff4e704c13","ios":"levelo://app?vid=0d3e0b55-eff8-448b-8988-99ff4e704c13"},"vehicle_type_id":"4","last_reported":1762064093,"current_range_meters":15200,"station_id":"","pricing_plan_id":"cebpf4jnsgd1na2vs0mg"},{"bike_id":"e8da5f9c-d486-49a3-a6f8-225a29e20a2a","system_id":"levelo_inurba_marseille","lat":43.30919,"lon":5.40159,"is_reserved":false,"is_disabled":false,"rental_uris":{"android":"levelo://app?vid=e8da5f9c-d486-49a3-a6f8-225a29e20a2a","ios":"levelo://app?vid=e8da5f9c-d486-49a3-a6f8-225a29e20a2a"},"vehicle_type_id":"4","last_reported":1762064093,"current_range_meters":15200,"station_id":"ce4bgvp2rcd13ifvqct0","pricing_plan_id":"cebpf4jnsgd1na2vs0mg"},{"bike_id":"91891e2b-3c04-410a-b47f-e4a2d35addbb","system_id":"levelo_inurba_marseille","lat":43.24818,"lon":5.37463,"is_reserved":false,"is_disabled":false,"rental_uris":{"android":"levelo://app?vid=91891e2b-3c04-410a-b47f-e4a2d35addbb","ios":"levelo://app?vid=91891e2b-3c04-410a-b47f-e4a2d35addbb"},"vehicle_type_id":"4","last_reported":1762064093,"current_range_meters":15200,"station_id":"ce4bhgh2rcd13ifvqfb0","pricing_plan_id":"cebpf4jnsgd1na2vs0mg"},{"bike_id":"ab3bc299-bbba-4ebf-95f3-245d97633ae6","system_id":"levelo_inurba_marseille","lat":43.27623,"lon":5.36111,"is_reserved":false,"is_disabled":false,"rental_uris":{"android":"levelo://app?vid=ab3bc299-bbba-4ebf-95f3-245d97633ae6","ios":"levelo://app?vid=ab3bc299-bbba-4ebf-95f3-245d97633ae6"},"vehicle_type_id":"4","last_reported":1762064093,"current_range_meters":15200,"station_id":"ce4bgj92rcd13ifvqbe0","pricing_plan_id":"cebpf4jnsgd1na2vs0mg"},{"bike_id":"ebf85bdb-1a2b-49af-a88d-03e90d4c31b8","system_id":"levelo_inurba_marseille","lat":43.23956,"lon":5.36624,"is_reserved":false,"is_disabled":true,"rental_uris":{"android":"levelo://app?vid=ebf85bdb-1a2b-49af-a88d-03e90d4c31b8","ios":"levelo://app?vid=ebf85bdb-1a2b-49af-a88d-03e90d4c31b8"},"vehicle_type_id":"4","last_reported":1762064093,"current_range_meters":16000,"station_id":"ce4bhi12rcd13ifvqfp0","pricing_plan_id":"cebpf4jnsgd1na2vs0mg"},{"bike_id":"8adef542-af60-4b61-8a5b-4b604c3bcfe4","system_id":"levelo_inurba_marseille","lat":43.24626,"lon":5.43156,"is_reserved":false,"is_disabled":false,"rental_uris":{"android":"levelo://app?vid=8adef542-af60-4b61-8a5b-4b604c3bcfe4","ios":"levelo://app?vid=8adef542-af60-4b61-8a5b-4b604c3bcfe4"},"vehicle_type_id":"4","last_reported":1762064093,"current_range_meters":16000,"station_id":"st_d2m6c4gdas8pm72e190g","pricing_plan_id":"cebpf4jnsgd1na2vs0mg"},{"bike_id":"aad6a064-c048-4ba9-a156-1745b89548aa","system_id":"levelo_inurba_marseille","lat":43.28338,"lon":5.41072,"is_reserved":false,"is_disabled":false,"rental_uris":{"android":"levelo://app?vid=aad6a064-c048-4ba9-a156-1745b89548aa","ios":"levelo://app?vid=aad6a064-c048-4ba9-a156-1745b89548aa"},"vehicle_type_id":"4","last_reported":1762064093,"current_range_meters":16000,"station_id":"","pricing_plan_id":"cebpf4jnsgd1na2vs0mg"},{"bike_id":"9875b75e-b931-4030-9761-f98cf656e484","system_id":"levelo_inurba_marseille","lat":43.28567,"lon":5.3951,"is_reserved":false,"is_disabled":false,"rental_uris":{"android":"levelo://app?vid=9875b75e-b931-4030-9761-f98cf656e484","ios":"levelo://app?vid=9875b75e-b931-4030-9761-f98cf656e484"},"vehicle_type_id":"4","last_reported":1762064093,"current_range_meters":16000,"station_id":"ce4bh292rcd13ifvqdg0","pricing_plan_id":"cebpf4jnsgd1na2vs0mg"},{"bike_id":"77679107-31f6-4769-888c-bfa8b6d2bccd","system_id":"levelo_inurba_marseille","lat":43.28858,"lon":5.42529,"is_reserved":false,"is_disabled":false,"rental_uris":{"android":"levelo://app?vid=77679107-31f6-4769-888c-bfa8b6d2bccd","ios":"levelo://app?vid=77679107-31f6-4769-888c-bfa8b6d2bccd"},"vehicle_type_id":"4","last_reported":1762064093,"current_range_meters":16400,"station_id":"st_d3b462108ojc7389ooeg","pricing_plan_id":"cebpf4jnsgd1na2vs0mg"},{"bike_id":"43299b84-51c9-461d-9bfa-88b812600d5c","system_id":"levelo_inurba_marseille","lat":43.316809,"lon":5.404725,"is_reserved":false,"is_disabled":false,"rental_uris":{"android":"levelo://app?vid=43299b84-51c9-461d-9bfa-88b812600d5c","ios":"levelo://app?vid=43299b84-51c9-461d-9bfa-88b812600d5c"},"vehicle_type_id":"4","last_reported":1762064093,"current_range_meters":16400,"station_id":"ce4bh012rcd13ifvqd00","pricing_plan_id":"cebpf4jnsgd1na2vs0mg"},{"bike_id":"f556ad88-b0ef-4d15-8048-f36fbe8e026c","system_id":"levelo_inurba_marseille","lat":43.285362,"lon":5.441091,"is_reserved":false,"is_disabled":false,"rental_uris":{"android":"levelo://app?vid=f556ad88-b0ef-4d15-8048-f36fbe8e026c","ios":"levelo://app?vid=f556ad88-b0ef-4d15-8048-f36fbe8e026c"},"vehicle_type_id":"4","last_reported":1762064093,"current_range_meters":16400,"station_id":"st_d3j3df2ikq2c7380ej80","pricing_plan_id":"cebpf4jnsgd1na2vs0mg"},{"bike_id":"23964231-9294-40d2-9d81-16e99ab01d5b","system_id":"levelo_inurba_marseille","lat":43.25324,"lon":5.42167,"is_reserved":false,"is_disabled":false,"rental_uris":{"android":"levelo://app?vid=23964231-9294-40d2-9d81-16e99ab01d5b","ios":"levelo://app?vid=23964231-9294-40d2-9d81-16e99ab01d5b"},"vehicle_type_id":"4","last_reported":1762064093,"current_range_meters":16400,"station_id":"st_d2m65c5bi1j21697t3ng","pricing_plan_id":"cebpf4jnsgd1na2vs0mg"},{"bike_id":"423802bb-722e-4533-9018-c0f75cce34a6","system_id":"levelo_inurba_marseille","lat":43.30665,"lon":5.38171,"is_reserved":false,"is_disabled":false,"rental_uris":{"android":"levelo://app?vid=423802bb-722e-4533-9018-c0f75cce34a6","ios":"levelo://app?vid=423802bb-722e-4533-9018-c0f75cce34a6"},"vehicle_type_id":"4","last_reported":1762064093,"current_range_meters":16800,"station_id":"","pricing_plan_id":"cebpf4jnsgd1na2vs0mg"},{"bike_id":"2f78079f-1510-4cb6-bc66-313ed0ced977","system_id":"levelo_inurba_marseille","lat":43.28716,"lon":5.39973,"is_reserved":false,"is_disabled":false,"rental_uris":{"android":"levelo://app?vid=2f78079f-1510-4cb6-bc66-313ed0ced977","ios":"levelo://app?vid=2f78079f-1510-4cb6-bc66-313ed0ced977"},"vehicle_type_id":"4","last_reported":1762064093,"current_range_meters":16800,"station_id":"ce4bho92rcd13ifvqh3g","pricing_plan_id":"cebpf4jnsgd1na2vs0mg"},{"bike_id":"14b92a7a-0805-475a-abfd-8c979184b42b","system_id":"levelo_inurba_marseille","lat":43.309984,"lon":5.370193,"is_reserved":false,"is_disabled":false,"rental_uris":{"android":"levelo://app?vid=14b92a7a-0805-475a-abfd-8c979184b42b","ios":"levelo://app?vid=14b92a7a-0805-475a-abfd-8c979184b42b"},"vehicle_type_id":"4","last_reported":1762064093,"current_range_meters":16800,"station_id":"","pricing_plan_id":"cebpf4jnsgd1na2vs0mg"},{"bike_id":"f5f8611b-e9e3-4b16-91c8-61ca7535f511","system_id":"levelo_inurba_marseille","lat":43.28709,"lon":5.39983,"is_reserved":false,"is_disabled":false,"rental_uris":{"android":"levelo://app?vid=f5f8611b-e9e3-4b16-91c8-61ca7535f511","ios":"levelo://app?vid=f5f8611b-e9e3-4b16-91c8-61ca7535f511"},"vehicle_type_id":"4","last_reported":1762064093,"current_range_meters":16800,"station_id":"ce4bho92rcd13ifvqh3g","pricing_plan_id":"cebpf4jnsgd1na2vs0mg"},{"bike_id":"dd70bcc2-2e6b-447f-adc2-e0826cf93554","system_id":"levelo_inurba_marseille","lat":43.31913,"lon":5.401493,"is_reserved":false,"is_disabled":false,"rental_uris":{"android":"levelo://app?vid=dd70bcc2-2e6b-447f-adc2-e0826cf93554","ios":"levelo://app?vid=dd70bcc2-2e6b-447f-adc2-e0826cf93554"},"vehicle_type_id":"4","last_reported":1762064093,"current_range_meters":16800,"station_id":"","pricing_plan_id":"cebpf4jnsgd1na2vs0mg"},{"bike_id":"23d4f8b4-54b6-42b6-8554-07cb9c91ef32","system_id":"levelo_inurba_marseille","lat":43.27934,"lon":5.41043,"is_reserved":false,"is_disabled":false,"rental_uris":{"android":"levelo://app?vid=23d4f8b4-54b6-42b6-8554-07cb9c91ef32","ios":"levelo://app?vid=23d4f8b4-54b6-42b6-8554-07cb9c91ef32"},"vehicle_type_id":"4","last_reported":1762064093,"current_range_meters":16800,"station_id":"ce4bhnp2rcd13ifvqh0g","pricing_plan_id":"cebpf4jnsgd1na2vs0mg"},{"bike_id":"066ede02-47a2-4c83-bcb1-7eb633a370fb","system_id":"levelo_inurba_marseille","lat":43.31263,"lon":5.37749,"is_reserved":false,"is_disabled":false,"rental_uris":{"android":"levelo://app?vid=066ede02-47a2-4c83-bcb1-7eb633a370fb","ios":"levelo://app?vid=066ede02-47a2-4c83-bcb1-7eb633a370fb"},"vehicle_type_id":"4","last_reported":1762064093,"current_range_meters":17200,"station_id":"","pricing_plan_id":"cebpf4jnsgd1na2vs0mg"},{"bike_id":"c5025c80-3d7a-42ca-b040-1472ae5145d2","system_id":"levelo_inurba_marseille","lat":43.24946,"lon":5.40496,"is_reserved":false,"is_disabled":false,"rental_uris":{"android":"levelo://app?vid=c5025c80-3d7a-42ca-b040-1472ae5145d2","ios":"levelo://app?vid=c5025c80-3d7a-42ca-b040-1472ae5145d2"},"vehicle_type_id":"4","last_reported":1762064093,"current_range_meters":17200,"station_id":"st_d2ngiaodas8pm72gd1h0","pricing_plan_id":"cebpf4jnsgd1na2vs0mg"},{"bike_id":"705f7d67-c203-4d2c-9e3c-1d3f6a2a032b","system_id":"levelo_inurba_marseille","lat":43.305903,"lon":5.393468,"is_reserved":false,"is_disabled":false,"rental_uris":{"android":"levelo://app?vid=705f7d67-c203-4d2c-9e3c-1d3f6a2a032b","ios":"levelo://app?vid=705f7d67-c203-4d2c-9e3c-1d3f6a2a032b"},"vehicle_type_id":"4","last_reported":1762064093,"current_range_meters":17200,"station_id":"ce4bh0p2rcd13ifvqd80","pricing_plan_id":"cebpf4jnsgd1na2vs0mg"},{"bike_id":"8549c4d3-f2f7-4704-94e6-4fb6cbd2560a","system_id":"levelo_inurba_marseille","lat":43.29761,"lon":5.39348,"is_reserved":false,"is_disabled":false,"rental_uris":{"android":"levelo://app?vid=8549c4d3-f2f7-4704-94e6-4fb6cbd2560a","ios":"levelo://app?vid=8549c4d3-f2f7-4704-94e6-4fb6cbd2560a"},"vehicle_type_id":"4","last_reported":1762064093,"current_range_meters":17200,"station_id":"chh1huq6cuj3fo74tm60","pricing_plan_id":"cebpf4jnsgd1na2vs0mg"},{"bike_id":"6a1cc001-3bc9-4225-8e3c-d058d9b19e8e","system_id":"levelo_inurba_marseille","lat":43.24665,"lon":5.43134,"is_reserved":false,"is_disabled":false,"rental_uris":{"android":"levelo://app?vid=6a1cc001-3bc9-4225-8e3c-d058d9b19e8e","ios":"levelo://app?vid=6a1cc001-3bc9-4225-8e3c-d058d9b19e8e"},"vehicle_type_id":"4","last_reported":1762064093,"current_range_meters":17200,"station_id":"st_d2m6c4gdas8pm72e190g","pricing_plan_id":"cebpf4jnsgd1na2vs0mg"},{"bike_id":"6eb523a4-350d-4959-ac5e-1335d8f70954","system_id":"levelo_inurba_marseille","lat":43.315717,"lon":5.406423,"is_reserved":false,"is_disabled":false,"rental_uris":{"android":"levelo://app?vid=6eb523a4-350d-4959-ac5e-1335d8f70954","ios":"levelo://app?vid=6eb523a4-350d-4959-ac5e-1335d8f70954"},"vehicle_type_id":"4","last_reported":1762064093,"current_range_meters":17200,"station_id":"","pricing_plan_id":"cebpf4jnsgd1na2vs0mg"},{"bike_id":"ea981441-de44-4e91-a60f-0f3605343256","system_id":"levelo_inurba_marseille","lat":43.32353,"lon":5.36763,"is_reserved":false,"is_disabled":false,"rental_uris":{"android":"levelo://app?vid=ea981441-de44-4e91-a60f-0f3605343256","ios":"levelo://app?vid=ea981441-de44-4e91-a60f-0f3605343256"},"vehicle_type_id":"4","last_reported":1762064093,"current_range_meters":17200,"station_id":"ce4bhsh2rcd13ifvqi2g","pricing_plan_id":"cebpf4jnsgd1na2vs0mg"},{"bike_id":"a4d20f92-51a5-44ea-b372-6430f3edb089","system_id":"levelo_inurba_marseille","lat":43.27839,"lon":5.39212,"is_reserved":false,"is_disabled":false,"rental_uris":{"android":"levelo://app?vid=a4d20f92-51a5-44ea-b372-6430f3edb089","ios":"levelo://app?vid=a4d20f92-51a5-44ea-b372-6430f3edb089"},"vehicle_type_id":"4","last_reported":1762064093,"current_range_meters":17200,"station_id":"ce4bhjp2rcd13ifvqga0","pricing_plan_id":"cebpf4jnsgd1na2vs0mg"},{"bike_id":"91f08cf6-67a3-475a-b460-662e8e91e5c0","system_id":"levelo_inurba_marseille","lat":43.28709,"lon":5.39978,"is_reserved":false,"is_disabled":false,"rental_uris":{"android":"levelo://app?vid=91f08cf6-67a3-475a-b460-662e8e91e5c0","ios":"levelo://app?vid=91f08cf6-67a3-475a-b460-662e8e91e5c0"},"vehicle_type_id":"4","last_reported":1762064093,"current_range_meters":17200,"station_id":"ce4bho92rcd13ifvqh3g","pricing_plan_id":"cebpf4jnsgd1na2vs0mg"},{"bike_id":"eb5c0b06-ac1b-4a0d-9657-92891285890e","system_id":"levelo_inurba_marseille","lat":43.2906,"lon":5.39974,"is_reserved":false,"is_disabled":false,"rental_uris":{"android":"levelo://app?vid=eb5c0b06-ac1b-4a0d-9657-92891285890e","ios":"levelo://app?vid=eb5c0b06-ac1b-4a0d-9657-92891285890e"},"vehicle_type_id":"4","last_reported":1762064093,"current_range_meters":17200,"station_id":"ce4bh392rcd13ifvqdm0","pricing_plan_id":"cebpf4jnsgd1na2vs0mg"},{"bike_id":"aef75ae5-d606-43b6-8ba5-d53a35c16de5","system_id":"levelo_inurba_marseille","lat":43.27408,"lon":5.39424,"is_reserved":false,"is_disabled":true,"rental_uris":{"android":"levelo://app?vid=aef75ae5-d606-43b6-8ba5-d53a35c16de5","ios":"levelo://app?vid=aef75ae5-d606-43b6-8ba5-d53a35c16de5"},"vehicle_type_id":"4","last_reported":1762064093,"current_range_meters":17600,"station_id":"ce4bhdp2rcd13ifvqf20","pricing_plan_id":"cebpf4jnsgd1na2vs0mg"},{"bike_id":"1c7e9560-2754-4a88-b1cb-cdee38fc1289","system_id":"levelo_inurba_marseille","lat":43.26949,"lon":5.40306,"is_reserved":false,"is_disabled":true,"rental_uris":{"android":"levelo://app?vid=1c7e9560-2754-4a88-b1cb-cdee38fc1289","ios":"levelo://app?vid=1c7e9560-2754-4a88-b1cb-cdee38fc1289"},"vehicle_type_id":"4","last_reported":1762064093,"current_range_meters":17600,"station_id":"cjm6bp8fraef2m0cb0m0","pricing_plan_id":"cebpf4jnsgd1na2vs0mg"},{"bike_id":"fcc7a5b9-eb88-45bf-aebf-cf96cca8c3ef","system_id":"levelo_inurba_marseille","lat":43.246687,"lon":5.381753,"is_reserved":false,"is_disabled":false,"rental_uris":{"android":"levelo://app?vid=fcc7a5b9-eb88-45bf-aebf-cf96cca8c3ef","ios":"levelo://app?vid=fcc7a5b9-eb88-45bf-aebf-cf96cca8c3ef"},"vehicle_type_id":"4","last_reported":1762064093,"current_range_meters":17600,"station_id":"ce4bhih2rcd13ifvqfr0","pricing_plan_id":"cebpf4jnsgd1na2vs0mg"},{"bike_id":"fe2272ea-7316-4280-b90c-d8c4db7bc73e","system_id":"levelo_inurba_marseille","lat":43.27944,"lon":5.393159,"is_reserved":false,"is_disabled":false,"rental_uris":{"android":"levelo://app?vid=fe2272ea-7316-4280-b90c-d8c4db7bc73e","ios":"levelo://app?vid=fe2272ea-7316-4280-b90c-d8c4db7bc73e"},"vehicle_type_id":"4","last_reported":1762064093,"current_range_meters":17600,"station_id":"","pricing_plan_id":"cebpf4jnsgd1na2vs0mg"},{"bike_id":"cc475582-0cc3-4b14-a66c-6041b0d2e976","system_id":"levelo_inurba_marseille","lat":43.29323,"lon":5.41177,"is_reserved":false,"is_disabled":false,"rental_uris":{"android":"levelo://app?vid=cc475582-0cc3-4b14-a66c-6041b0d2e976","ios":"levelo://app?vid=cc475582-0cc3-4b14-a66c-6041b0d2e976"},"vehicle_type_id":"4","last_reported":1762064093,"current_range_meters":17600,"station_id":"","pricing_plan_id":"cebpf4jnsgd1na2vs0mg"},{"bike_id":"aa56963e-5f6a-4043-b1c7-23e4d9f05d8c","system_id":"levelo_inurba_marseille","lat":43.313499,"lon":5.379119,"is_reserved":false,"is_disabled":false,"rental_uris":{"android":"levelo://app?vid=aa56963e-5f6a-4043-b1c7-23e4d9f05d8c","ios":"levelo://app?vid=aa56963e-5f6a-4043-b1c7-23e4d9f05d8c"},"vehicle_type_id":"4","last_reported":1762064093,"current_range_meters":17600,"station_id":"","pricing_plan_id":"cebpf4jnsgd1na2vs0mg"},{"bike_id":"ff988fc7-e9ef-4c17-8444-85fcc6e7507f","system_id":"levelo_inurba_marseille","lat":43.30916,"lon":5.40155,"is_reserved":false,"is_disabled":false,"rental_uris":{"android":"levelo://app?vid=ff988fc7-e9ef-4c17-8444-85fcc6e7507f","ios":"levelo://app?vid=ff988fc7-e9ef-4c17-8444-85fcc6e7507f"},"vehicle_type_id":"4","last_reported":1762064093,"current_range_meters":17600,"station_id":"ce4bgvp2rcd13ifvqct0","pricing_plan_id":"cebpf4jnsgd1na2vs0mg"},{"bike_id":"aad9bf03-6396-47d3-aa58-3f06dabb8530","system_id":"levelo_inurba_marseille","lat":43.30916,"lon":5.40162,"is_reserved":false,"is_disabled":false,"rental_uris":{"android":"levelo://app?vid=aad9bf03-6396-47d3-aa58-3f06dabb8530","ios":"levelo://app?vid=aad9bf03-6396-47d3-aa58-3f06dabb8530"},"vehicle_type_id":"4","last_reported":1762064093,"current_range_meters":18000,"station_id":"ce4bgvp2rcd13ifvqct0","pricing_plan_id":"cebpf4jnsgd1na2vs0mg"},{"bike_id":"85d8043d-b929-43f8-9188-ad421047c360","system_id":"levelo_inurba_marseille","lat":43.25318,"lon":5.42158,"is_reserved":false,"is_disabled":false,"rental_uris":{"android":"levelo://app?vid=85d8043d-b929-43f8-9188-ad421047c360","ios":"levelo://app?vid=85d8043d-b929-43f8-9188-ad421047c360"},"vehicle_type_id":"4","last_reported":1762064093,"current_range_meters":18000,"station_id":"st_d2m65c5bi1j21697t3ng","pricing_plan_id":"cebpf4jnsgd1na2vs0mg"},{"bike_id":"67ccd506-9e26-4b57-80b4-e8fb74bcde7c","system_id":"levelo_inurba_marseille","lat":43.27039,"lon":5.40273,"is_reserved":false,"is_disabled":false,"rental_uris":{"android":"levelo://app?vid=67ccd506-9e26-4b57-80b4-e8fb74bcde7c","ios":"levelo://app?vid=67ccd506-9e26-4b57-80b4-e8fb74bcde7c"},"vehicle_type_id":"4","last_reported":1762064093,"current_range_meters":18000,"station_id":"ce4bhk92rcd13ifvqgc0","pricing_plan_id":"cebpf4jnsgd1na2vs0mg"},{"bike_id":"65959e76-2dec-43d3-b15c-b4e7433182fd","system_id":"levelo_inurba_marseille","lat":43.293631,"lon":5.371955,"is_reserved":false,"is_disabled":false,"rental_uris":{"android":"levelo://app?vid=65959e76-2dec-43d3-b15c-b4e7433182fd","ios":"levelo://app?vid=65959e76-2dec-43d3-b15c-b4e7433182fd"},"vehicle_type_id":"4","last_reported":1762064093,"current_range_meters":18000,"station_id":"","pricing_plan_id":"cebpf4jnsgd1na2vs0mg"},{"bike_id":"bcd4827f-bacf-4526-80d8-17597672c90a","system_id":"levelo_inurba_marseille","lat":43.30158,"lon":5.38046,"is_reserved":false,"is_disabled":false,"rental_uris":{"android":"levelo://app?vid=bcd4827f-bacf-4526-80d8-17597672c90a","ios":"levelo://app?vid=bcd4827f-bacf-4526-80d8-17597672c90a"},"vehicle_type_id":"4","last_reported":1762064093,"current_range_meters":18000,"station_id":"ce4bgjp2rcd13ifvqbh0","pricing_plan_id":"cebpf4jnsgd1na2vs0mg"},{"bike_id":"6dbae8fb-b558-4de5-931e-260b80081062","system_id":"levelo_inurba_marseille","lat":43.29887,"lon":5.43659,"is_reserved":false,"is_disabled":false,"rental_uris":{"android":"levelo://app?vid=6dbae8fb-b558-4de5-931e-260b80081062","ios":"levelo://app?vid=6dbae8fb-b558-4de5-931e-260b80081062"},"vehicle_type_id":"4","last_reported":1762064093,"current_range_meters":18000,"station_id":"ce4bhpp2rcd13ifvqhfg","pricing_plan_id":"cebpf4jnsgd1na2vs0mg"},{"bike_id":"b0f13743-8000-4cf9-9975-6d3a0b7effc8","system_id":"levelo_inurba_marseille","lat":43.30584,"lon":5.37224,"is_reserved":false,"is_disabled":false,"rental_uris":{"android":"levelo://app?vid=b0f13743-8000-4cf9-9975-6d3a0b7effc8","ios":"levelo://app?vid=b0f13743-8000-4cf9-9975-6d3a0b7effc8"},"vehicle_type_id":"4","last_reported":1762064093,"current_range_meters":18000,"station_id":"ce4bgqh2rcd13ifvqc4g","pricing_plan_id":"cebpf4jnsgd1na2vs0mg"},{"bike_id":"1ea25aae-1a14-4d81-bcf2-e50f4d7cbcc7","system_id":"levelo_inurba_marseille","lat":43.28703,"lon":5.399947,"is_reserved":false,"is_disabled":false,"rental_uris":{"android":"levelo://app?vid=1ea25aae-1a14-4d81-bcf2-e50f4d7cbcc7","ios":"levelo://app?vid=1ea25aae-1a14-4d81-bcf2-e50f4d7cbcc7"},"vehicle_type_id":"4","last_reported":1762064093,"current_range_meters":18000,"station_id":"ce4bho92rcd13ifvqh3g","pricing_plan_id":"cebpf4jnsgd1na2vs0mg"},{"bike_id":"f4029068-3425-4dac-a229-1f22f3c910a8","system_id":"levelo_inurba_marseille","lat":43.30664,"lon":5.40061,"is_reserved":false,"is_disabled":false,"rental_uris":{"android":"levelo://app?vid=f4029068-3425-4dac-a229-1f22f3c910a8","ios":"levelo://app?vid=f4029068-3425-4dac-a229-1f22f3c910a8"},"vehicle_type_id":"4","last_reported":1762064093,"current_range_meters":18000,"station_id":"ce4bh112rcd13ifvqda0","pricing_plan_id":"cebpf4jnsgd1na2vs0mg"},{"bike_id":"73452f23-9a66-4464-9176-68081cc3f86a","system_id":"levelo_inurba_marseille","lat":43.31255,"lon":5.40183,"is_reserved":false,"is_disabled":false,"rental_uris":{"android":"levelo://app?vid=73452f23-9a66-4464-9176-68081cc3f86a","ios":"levelo://app?vid=73452f23-9a66-4464-9176-68081cc3f86a"},"vehicle_type_id":"4","last_reported":1762064093,"current_range_meters":18800,"station_id":"ce4bh092rcd13ifvqd30","pricing_plan_id":"cebpf4jnsgd1na2vs0mg"},{"bike_id":"5ff1a6df-afec-47f3-ac85-d68f3a130083","system_id":"levelo_inurba_marseille","lat":43.2378,"lon":5.36635,"is_reserved":false,"is_disabled":false,"rental_uris":{"android":"levelo://app?vid=5ff1a6df-afec-47f3-ac85-d68f3a130083","ios":"levelo://app?vid=5ff1a6df-afec-47f3-ac85-d68f3a130083"},"vehicle_type_id":"4","last_reported":1762064093,"current_range_meters":18800,"station_id":"st_d3nk18o9ro0c73en2l3g","pricing_plan_id":"cebpf4jnsgd1na2vs0mg"},{"bike_id":"123ec047-d6a2-4308-aee4-8ec0b2bea538","system_id":"levelo_inurba_marseille","lat":43.23199,"lon":5.3555,"is_reserved":false,"is_disabled":false,"rental_uris":{"android":"levelo://app?vid=123ec047-d6a2-4308-aee4-8ec0b2bea538","ios":"levelo://app?vid=123ec047-d6a2-4308-aee4-8ec0b2bea538"},"vehicle_type_id":"4","last_reported":1762064093,"current_range_meters":18800,"station_id":"ce4bhu92rcd13ifvqi70","pricing_plan_id":"cebpf4jnsgd1na2vs0mg"},{"bike_id":"45178dd9-b960-4161-871b-52bd5ff2bc66","system_id":"levelo_inurba_marseille","lat":43.25504,"lon":5.37664,"is_reserved":false,"is_disabled":false,"rental_uris":{"android":"levelo://app?vid=45178dd9-b960-4161-871b-52bd5ff2bc66","ios":"levelo://app?vid=45178dd9-b960-4161-871b-52bd5ff2bc66"},"vehicle_type_id":"4","last_reported":1762064093,"current_range_meters":18800,"station_id":"ce4bhh12rcd13ifvqff0","pricing_plan_id":"cebpf4jnsgd1na2vs0mg"},{"bike_id":"c512099e-8861-4b66-abf5-28d410fc5fb6","system_id":"levelo_inurba_marseille","lat":43.30152,"lon":5.38778,"is_reserved":false,"is_disabled":true,"rental_uris":{"android":"levelo://app?vid=c512099e-8861-4b66-abf5-28d410fc5fb6","ios":"levelo://app?vid=c512099e-8861-4b66-abf5-28d410fc5fb6"},"vehicle_type_id":"4","last_reported":1762064093,"current_range_meters":18800,"station_id":"ce4bghh2rcd13ifvqb60","pricing_plan_id":"cebpf4jnsgd1na2vs0mg"},{"bike_id":"1f4bf620-5a86-4131-b1aa-491aa828d1ad","system_id":"levelo_inurba_marseille","lat":43.25087,"lon":5.39512,"is_reserved":false,"is_disabled":false,"rental_uris":{"android":"levelo://app?vid=1f4bf620-5a86-4131-b1aa-491aa828d1ad","ios":"levelo://app?vid=1f4bf620-5a86-4131-b1aa-491aa828d1ad"},"vehicle_type_id":"4","last_reported":1762064093,"current_range_meters":19200,"station_id":"ce4bhm12rcd13ifvqgkg","pricing_plan_id":"cebpf4jnsgd1na2vs0mg"},{"bike_id":"082a1fc9-fa33-4385-8dc2-797cf958a64d","system_id":"levelo_inurba_marseille","lat":43.30814,"lon":5.43522,"is_reserved":false,"is_disabled":false,"rental_uris":{"android":"levelo://app?vid=082a1fc9-fa33-4385-8dc2-797cf958a64d","ios":"levelo://app?vid=082a1fc9-fa33-4385-8dc2-797cf958a64d"},"vehicle_type_id":"4","last_reported":1762064093,"current_range_meters":19200,"station_id":"","pricing_plan_id":"cebpf4jnsgd1na2vs0mg"},{"bike_id":"e37a3e06-24f5-4130-8d50-b62005271d50","system_id":"levelo_inurba_marseille","lat":43.24159,"lon":5.36398,"is_reserved":false,"is_disabled":false,"rental_uris":{"android":"levelo://app?vid=e37a3e06-24f5-4130-8d50-b62005271d50","ios":"levelo://app?vid=e37a3e06-24f5-4130-8d50-b62005271d50"},"vehicle_type_id":"4","last_reported":1762064093,"current_range_meters":19200,"station_id":"cpo36qri1sfpv3e86is0","pricing_plan_id":"cebpf4jnsgd1na2vs0mg"},{"bike_id":"4c2e795a-4ac2-4fba-b47e-7412c196e673","system_id":"levelo_inurba_marseille","lat":43.32102,"lon":5.36767,"is_reserved":false,"is_disabled":false,"rental_uris":{"android":"levelo://app?vid=4c2e795a-4ac2-4fba-b47e-7412c196e673","ios":"levelo://app?vid=4c2e795a-4ac2-4fba-b47e-7412c196e673"},"vehicle_type_id":"4","last_reported":1762064093,"current_range_meters":19200,"station_id":"ce4bhrh2rcd13ifvqhug","pricing_plan_id":"cebpf4jnsgd1na2vs0mg"},{"bike_id":"b2514755-0f11-4833-b225-7d1f8289efa4","system_id":"levelo_inurba_marseille","lat":43.22917,"lon":5.35384,"is_reserved":false,"is_disabled":false,"rental_uris":{"android":"levelo://app?vid=b2514755-0f11-4833-b225-7d1f8289efa4","ios":"levelo://app?vid=b2514755-0f11-4833-b225-7d1f8289efa4"},"vehicle_type_id":"4","last_reported":1762064093,"current_range_meters":19200,"station_id":"cpo3532slgdg3j2ikp40","pricing_plan_id":"cebpf4jnsgd1na2vs0mg"},{"bike_id":"11e24e7c-a2ea-4b69-a68b-36ca7ad7cf48","system_id":"levelo_inurba_marseille","lat":43.31104,"lon":5.37756,"is_reserved":false,"is_disabled":false,"rental_uris":{"android":"levelo://app?vid=11e24e7c-a2ea-4b69-a68b-36ca7ad7cf48","ios":"levelo://app?vid=11e24e7c-a2ea-4b69-a68b-36ca7ad7cf48"},"vehicle_type_id":"4","last_reported":1762064093,"current_range_meters":19200,"station_id":"ce4bgt92rcd13ifvqcg0","pricing_plan_id":"cebpf4jnsgd1na2vs0mg"},{"bike_id":"28f5c609-94bd-4f1d-9186-f66e4c2140b5","system_id":"levelo_inurba_marseille","lat":43.307389,"lon":5.424403,"is_reserved":false,"is_disabled":false,"rental_uris":{"android":"levelo://app?vid=28f5c609-94bd-4f1d-9186-f66e4c2140b5","ios":"levelo://app?vid=28f5c609-94bd-4f1d-9186-f66e4c2140b5"},"vehicle_type_id":"4","last_reported":1762064093,"current_range_meters":19200,"station_id":"st_cvj6ca6bvosntc0bfgr0","pricing_plan_id":"cebpf4jnsgd1na2vs0mg"},{"bike_id":"bc97e72b-f479-4cfb-ba90-458ce1432bd8","system_id":"levelo_inurba_marseille","lat":43.30285,"lon":5.37718,"is_reserved":false,"is_disabled":true,"rental_uris":{"android":"levelo://app?vid=bc97e72b-f479-4cfb-ba90-458ce1432bd8","ios":"levelo://app?vid=bc97e72b-f479-4cfb-ba90-458ce1432bd8"},"vehicle_type_id":"4","last_reported":1762064093,"current_range_meters":19200,"station_id":"ce4bguh2rcd13ifvqcj0","pricing_plan_id":"cebpf4jnsgd1na2vs0mg"},{"bike_id":"311d9071-37a4-49b1-b5a4-3b57e73a77c1","system_id":"levelo_inurba_marseille","lat":43.28725,"lon":5.36073,"is_reserved":false,"is_disabled":false,"rental_uris":{"android":"levelo://app?vid=311d9071-37a4-49b1-b5a4-3b57e73a77c1","ios":"levelo://app?vid=311d9071-37a4-49b1-b5a4-3b57e73a77c1"},"vehicle_type_id":"4","last_reported":1762064093,"current_range_meters":19200,"station_id":"cki0cbj6b192h4jlfktg","pricing_plan_id":"cebpf4jnsgd1na2vs0mg"},{"bike_id":"edafb45c-f084-4b19-9609-907695dbb872","system_id":"levelo_inurba_marseille","lat":43.258831,"lon":5.399101,"is_reserved":false,"is_disabled":false,"rental_uris":{"android":"levelo://app?vid=edafb45c-f084-4b19-9609-907695dbb872","ios":"levelo://app?vid=edafb45c-f084-4b19-9609-907695dbb872"},"vehicle_type_id":"4","last_reported":1762064093,"current_range_meters":19600,"station_id":"ce4bhl92rcd13ifvqghg","pricing_plan_id":"cebpf4jnsgd1na2vs0mg"},{"bike_id":"fee9f203-94b0-4e27-9dfb-d61c05870c4b","system_id":"levelo_inurba_marseille","lat":43.28197,"lon":5.39059,"is_reserved":false,"is_disabled":false,"rental_uris":{"android":"levelo://app?vid=fee9f203-94b0-4e27-9dfb-d61c05870c4b","ios":"levelo://app?vid=fee9f203-94b0-4e27-9dfb-d61c05870c4b"},"vehicle_type_id":"4","last_reported":1762064093,"current_range_meters":19600,"station_id":"ce4bhn92rcd13ifvqgsg","pricing_plan_id":"cebpf4jnsgd1na2vs0mg"},{"bike_id":"12c24c1a-5f34-4e4f-b6c0-f07cd6755b8d","system_id":"levelo_inurba_marseille","lat":43.249498,"lon":5.404945,"is_reserved":false,"is_disabled":false,"rental_uris":{"android":"levelo://app?vid=12c24c1a-5f34-4e4f-b6c0-f07cd6755b8d","ios":"levelo://app?vid=12c24c1a-5f34-4e4f-b6c0-f07cd6755b8d"},"vehicle_type_id":"4","last_reported":1762064093,"current_range_meters":19600,"station_id":"st_d2ngiaodas8pm72gd1h0","pricing_plan_id":"cebpf4jnsgd1na2vs0mg"},{"bike_id":"6dd18053-e3ac-4ec6-8544-7b6c95a61457","system_id":"levelo_inurba_marseille","lat":43.24168,"lon":5.36401,"is_reserved":false,"is_disabled":false,"rental_uris":{"android":"levelo://app?vid=6dd18053-e3ac-4ec6-8544-7b6c95a61457","ios":"levelo://app?vid=6dd18053-e3ac-4ec6-8544-7b6c95a61457"},"vehicle_type_id":"4","last_reported":1762064093,"current_range_meters":19600,"station_id":"cpo36qri1sfpv3e86is0","pricing_plan_id":"cebpf4jnsgd1na2vs0mg"},{"bike_id":"ef3051ac-87a4-400e-a432-5bfc2a83a3e3","system_id":"levelo_inurba_marseille","lat":43.32464,"lon":5.36572,"is_reserved":false,"is_disabled":false,"rental_uris":{"android":"levelo://app?vid=ef3051ac-87a4-400e-a432-5bfc2a83a3e3","ios":"levelo://app?vid=ef3051ac-87a4-400e-a432-5bfc2a83a3e3"},"vehicle_type_id":"4","last_reported":1762064093,"current_range_meters":19600,"station_id":"ce4bhs12rcd13ifvqhvg","pricing_plan_id":"cebpf4jnsgd1na2vs0mg"},{"bike_id":"88518052-44e4-4486-a814-c8e987810fd6","system_id":"levelo_inurba_marseille","lat":43.29346,"lon":5.3822,"is_reserved":false,"is_disabled":false,"rental_uris":{"android":"levelo://app?vid=88518052-44e4-4486-a814-c8e987810fd6","ios":"levelo://app?vid=88518052-44e4-4486-a814-c8e987810fd6"},"vehicle_type_id":"4","last_reported":1762064093,"current_range_meters":19600,"station_id":"","pricing_plan_id":"cebpf4jnsgd1na2vs0mg"},{"bike_id":"054e5513-a18a-4fec-bab2-96a168188b7d","system_id":"levelo_inurba_marseille","lat":43.31178,"lon":5.3737,"is_reserved":false,"is_disabled":false,"rental_uris":{"android":"levelo://app?vid=054e5513-a18a-4fec-bab2-96a168188b7d","ios":"levelo://app?vid=054e5513-a18a-4fec-bab2-96a168188b7d"},"vehicle_type_id":"4","last_reported":1762064093,"current_range_meters":19600,"station_id":"","pricing_plan_id":"cebpf4jnsgd1na2vs0mg"},{"bike_id":"1a9255c3-f809-427d-b153-cdb99d824189","system_id":"levelo_inurba_marseille","lat":43.249413,"lon":5.404896,"is_reserved":false,"is_disabled":false,"rental_uris":{"android":"levelo://app?vid=1a9255c3-f809-427d-b153-cdb99d824189","ios":"levelo://app?vid=1a9255c3-f809-427d-b153-cdb99d824189"},"vehicle_type_id":"4","last_reported":1762064093,"current_range_meters":19600,"station_id":"st_d2ngiaodas8pm72gd1h0","pricing_plan_id":"cebpf4jnsgd1na2vs0mg"},{"bike_id":"85dce785-b2b7-4cf5-a34e-b4a9114ae38b","system_id":"levelo_inurba_marseille","lat":43.28422,"lon":5.35005,"is_reserved":false,"is_disabled":false,"rental_uris":{"android":"levelo://app?vid=85dce785-b2b7-4cf5-a34e-b4a9114ae38b","ios":"levelo://app?vid=85dce785-b2b7-4cf5-a34e-b4a9114ae38b"},"vehicle_type_id":"4","last_reported":1762064093,"current_range_meters":20000,"station_id":"ce4bhbh2rcd13ifvqepg","pricing_plan_id":"cebpf4jnsgd1na2vs0mg"},{"bike_id":"51afdb63-f181-41dd-9550-4546b014439d","system_id":"levelo_inurba_marseille","lat":43.28467,"lon":5.35846,"is_reserved":false,"is_disabled":false,"rental_uris":{"android":"levelo://app?vid=51afdb63-f181-41dd-9550-4546b014439d","ios":"levelo://app?vid=51afdb63-f181-41dd-9550-4546b014439d"},"vehicle_type_id":"4","last_reported":1762064093,"current_range_meters":20000,"station_id":"ce4bhah2rcd13ifvqei0","pricing_plan_id":"cebpf4jnsgd1na2vs0mg"},{"bike_id":"75214922-1e7d-4be3-84ae-23b8d8279199","system_id":"levelo_inurba_marseille","lat":43.324874,"lon":5.365638,"is_reserved":false,"is_disabled":false,"rental_uris":{"android":"levelo://app?vid=75214922-1e7d-4be3-84ae-23b8d8279199","ios":"levelo://app?vid=75214922-1e7d-4be3-84ae-23b8d8279199"},"vehicle_type_id":"4","last_reported":1762064093,"current_range_meters":20000,"station_id":"ce4bhs12rcd13ifvqhvg","pricing_plan_id":"cebpf4jnsgd1na2vs0mg"},{"bike_id":"06756d68-f601-4313-a049-fec54d37d722","system_id":"levelo_inurba_marseille","lat":43.336107,"lon":5.410388,"is_reserved":false,"is_disabled":false,"rental_uris":{"android":"levelo://app?vid=06756d68-f601-4313-a049-fec54d37d722","ios":"levelo://app?vid=06756d68-f601-4313-a049-fec54d37d722"},"vehicle_type_id":"4","last_reported":1762064093,"current_range_meters":20000,"station_id":"ce4bhq92rcd13ifvqhkg","pricing_plan_id":"cebpf4jnsgd1na2vs0mg"},{"bike_id":"a1d40ddf-b5bf-4e28-b501-19b855936b47","system_id":"levelo_inurba_marseille","lat":43.28103,"lon":5.378458,"is_reserved":false,"is_disabled":false,"rental_uris":{"android":"levelo://app?vid=a1d40ddf-b5bf-4e28-b501-19b855936b47","ios":"levelo://app?vid=a1d40ddf-b5bf-4e28-b501-19b855936b47"},"vehicle_type_id":"4","last_reported":1762064093,"current_range_meters":20000,"station_id":"ce4bha12rcd13ifvqee0","pricing_plan_id":"cebpf4jnsgd1na2vs0mg"},{"bike_id":"4c4b8bcf-4ef8-4551-8b0c-0892f8af6559","system_id":"levelo_inurba_marseille","lat":43.22566,"lon":5.41633,"is_reserved":false,"is_disabled":false,"rental_uris":{"android":"levelo://app?vid=4c4b8bcf-4ef8-4551-8b0c-0892f8af6559","ios":"levelo://app?vid=4c4b8bcf-4ef8-4551-8b0c-0892f8af6559"},"vehicle_type_id":"4","last_reported":1762064093,"current_range_meters":20000,"station_id":"st_d2o4gvlbi1j2169b742g","pricing_plan_id":"cebpf4jnsgd1na2vs0mg"},{"bike_id":"59a5cd24-51be-47af-b444-3bee256ade84","system_id":"levelo_inurba_marseille","lat":43.23179,"lon":5.3999,"is_reserved":false,"is_disabled":false,"rental_uris":{"android":"levelo://app?vid=59a5cd24-51be-47af-b444-3bee256ade84","ios":"levelo://app?vid=59a5cd24-51be-47af-b444-3bee256ade84"},"vehicle_type_id":"4","last_reported":1762064093,"current_range_meters":20000,"station_id":"ce4bhn12rcd13ifvqgqg","pricing_plan_id":"cebpf4jnsgd1na2vs0mg"},{"bike_id":"1b1e71cc-c221-4e91-89c8-2d987f944d9c","system_id":"levelo_inurba_marseille","lat":43.241686,"lon":5.364034,"is_reserved":false,"is_disabled":true,"rental_uris":{"android":"levelo://app?vid=1b1e71cc-c221-4e91-89c8-2d987f944d9c","ios":"levelo://app?vid=1b1e71cc-c221-4e91-89c8-2d987f944d9c"},"vehicle_type_id":"4","last_reported":1762064093,"current_range_meters":20000,"station_id":"cpo36qri1sfpv3e86is0","pricing_plan_id":"cebpf4jnsgd1na2vs0mg"},{"bike_id":"ea731de3-e071-4533-bb8d-44fb6ce450e0","system_id":"levelo_inurba_marseille","lat":43.24798,"lon":5.37453,"is_reserved":false,"is_disabled":false,"rental_uris":{"android":"levelo://app?vid=ea731de3-e071-4533-bb8d-44fb6ce450e0","ios":"levelo://app?vid=ea731de3-e071-4533-bb8d-44fb6ce450e0"},"vehicle_type_id":"4","last_reported":1762064093,"current_range_meters":20000,"station_id":"ce4bhgh2rcd13ifvqfb0","pricing_plan_id":"cebpf4jnsgd1na2vs0mg"},{"bike_id":"be6153c1-d9b0-4870-ab01-cc47701c47e7","system_id":"levelo_inurba_marseille","lat":43.301463,"lon":5.380802,"is_reserved":false,"is_disabled":false,"rental_uris":{"android":"levelo://app?vid=be6153c1-d9b0-4870-ab01-cc47701c47e7","ios":"levelo://app?vid=be6153c1-d9b0-4870-ab01-cc47701c47e7"},"vehicle_type_id":"4","last_reported":1762064093,"current_range_meters":20000,"station_id":"ce4bgjp2rcd13ifvqbh0","pricing_plan_id":"cebpf4jnsgd1na2vs0mg"},{"bike_id":"a09b7839-d620-4bdc-9e33-ea07afd23f6e","system_id":"levelo_inurba_marseille","lat":43.318923,"lon":5.407327,"is_reserved":false,"is_disabled":false,"rental_uris":{"android":"levelo://app?vid=a09b7839-d620-4bdc-9e33-ea07afd23f6e","ios":"levelo://app?vid=a09b7839-d620-4bdc-9e33-ea07afd23f6e"},"vehicle_type_id":"4","last_reported":1762064093,"current_range_meters":20000,"station_id":"ce4bhq12rcd13ifvqhig","pricing_plan_id":"cebpf4jnsgd1na2vs0mg"},{"bike_id":"d1b7e294-8ae6-48ef-89d0-e05e23f9f8e0","system_id":"levelo_inurba_marseille","lat":43.29533,"lon":5.36116,"is_reserved":false,"is_disabled":false,"rental_uris":{"android":"levelo://app?vid=d1b7e294-8ae6-48ef-89d0-e05e23f9f8e0","ios":"levelo://app?vid=d1b7e294-8ae6-48ef-89d0-e05e23f9f8e0"},"vehicle_type_id":"4","last_reported":1762064093,"current_range_meters":20000,"station_id":"","pricing_plan_id":"cebpf4jnsgd1na2vs0mg"},{"bike_id":"6d11846c-013e-49ab-bc25-94c21920dfe7","system_id":"levelo_inurba_marseille","lat":43.30398,"lon":5.41278,"is_reserved":false,"is_disabled":false,"rental_uris":{"android":"levelo://app?vid=6d11846c-013e-49ab-bc25-94c21920dfe7","ios":"levelo://app?vid=6d11846c-013e-49ab-bc25-94c21920dfe7"},"vehicle_type_id":"4","last_reported":1762064093,"current_range_meters":20000,"station_id":"ce4bhop2rcd13ifvqh8g","pricing_plan_id":"cebpf4jnsgd1na2vs0mg"},{"bike_id":"3bd878b7-73a7-47b5-9b84-e62b459e5e81","system_id":"levelo_inurba_marseille","lat":43.31374,"lon":5.38492,"is_reserved":false,"is_disabled":false,"rental_uris":{"android":"levelo://app?vid=3bd878b7-73a7-47b5-9b84-e62b459e5e81","ios":"levelo://app?vid=3bd878b7-73a7-47b5-9b84-e62b459e5e81"},"vehicle_type_id":"4","last_reported":1762064093,"current_range_meters":20400,"station_id":"ce4bgt92rcd13ifvqcf0","pricing_plan_id":"cebpf4jnsgd1na2vs0mg"},{"bike_id":"32d4a401-7eac-4706-9e22-d4c2a7e55b17","system_id":"levelo_inurba_marseille","lat":43.24619,"lon":5.43153,"is_reserved":false,"is_disabled":false,"rental_uris":{"android":"levelo://app?vid=32d4a401-7eac-4706-9e22-d4c2a7e55b17","ios":"levelo://app?vid=32d4a401-7eac-4706-9e22-d4c2a7e55b17"},"vehicle_type_id":"4","last_reported":1762064093,"current_range_meters":20400,"station_id":"st_d2m6c4gdas8pm72e190g","pricing_plan_id":"cebpf4jnsgd1na2vs0mg"},{"bike_id":"03518348-a473-43a5-aebe-4dbf2f87920e","system_id":"levelo_inurba_marseille","lat":43.28464,"lon":5.37892,"is_reserved":false,"is_disabled":false,"rental_uris":{"android":"levelo://app?vid=03518348-a473-43a5-aebe-4dbf2f87920e","ios":"levelo://app?vid=03518348-a473-43a5-aebe-4dbf2f87920e"},"vehicle_type_id":"4","last_reported":1762064093,"current_range_meters":20400,"station_id":"","pricing_plan_id":"cebpf4jnsgd1na2vs0mg"},{"bike_id":"cdfea931-de57-4f9a-8fb5-a54a7bbb7acc","system_id":"levelo_inurba_marseille","lat":43.240737,"lon":5.377595,"is_reserved":false,"is_disabled":false,"rental_uris":{"android":"levelo://app?vid=cdfea931-de57-4f9a-8fb5-a54a7bbb7acc","ios":"levelo://app?vid=cdfea931-de57-4f9a-8fb5-a54a7bbb7acc"},"vehicle_type_id":"4","last_reported":1762064093,"current_range_meters":20400,"station_id":"ce4bhnp2rcd13ifvqgvg","pricing_plan_id":"cebpf4jnsgd1na2vs0mg"},{"bike_id":"2aa5ca15-b2b3-4ce6-9617-929a2f170c50","system_id":"levelo_inurba_marseille","lat":43.284229,"lon":5.349865,"is_reserved":false,"is_disabled":false,"rental_uris":{"android":"levelo://app?vid=2aa5ca15-b2b3-4ce6-9617-929a2f170c50","ios":"levelo://app?vid=2aa5ca15-b2b3-4ce6-9617-929a2f170c50"},"vehicle_type_id":"4","last_reported":1762064093,"current_range_meters":20800,"station_id":"ce4bhbh2rcd13ifvqepg","pricing_plan_id":"cebpf4jnsgd1na2vs0mg"},{"bike_id":"66caa6d0-1122-4001-8031-40054ea55d41","system_id":"levelo_inurba_marseille","lat":43.28979,"lon":5.378481,"is_reserved":false,"is_disabled":true,"rental_uris":{"android":"levelo://app?vid=66caa6d0-1122-4001-8031-40054ea55d41","ios":"levelo://app?vid=66caa6d0-1122-4001-8031-40054ea55d41"},"vehicle_type_id":"4","last_reported":1762064093,"current_range_meters":20800,"station_id":"ce4bh9p2rcd13ifvqed0","pricing_plan_id":"cebpf4jnsgd1na2vs0mg"},{"bike_id":"7d29e189-d1a2-4543-b815-e8c8b283bc2a","system_id":"levelo_inurba_marseille","lat":43.32494,"lon":5.36575,"is_reserved":false,"is_disabled":false,"rental_uris":{"android":"levelo://app?vid=7d29e189-d1a2-4543-b815-e8c8b283bc2a","ios":"levelo://app?vid=7d29e189-d1a2-4543-b815-e8c8b283bc2a"},"vehicle_type_id":"4","last_reported":1762064093,"current_range_meters":20800,"station_id":"ce4bhs12rcd13ifvqhvg","pricing_plan_id":"cebpf4jnsgd1na2vs0mg"},{"bike_id":"64c859db-804e-46f5-9f94-785321785082","system_id":"levelo_inurba_marseille","lat":43.27946,"lon":5.41041,"is_reserved":false,"is_disabled":false,"rental_uris":{"android":"levelo://app?vid=64c859db-804e-46f5-9f94-785321785082","ios":"levelo://app?vid=64c859db-804e-46f5-9f94-785321785082"},"vehicle_type_id":"4","last_reported":1762064093,"current_range_meters":20800,"station_id":"ce4bhnp2rcd13ifvqh0g","pricing_plan_id":"cebpf4jnsgd1na2vs0mg"},{"bike_id":"1290eeef-0401-4947-ba65-b638b82cf1ec","system_id":"levelo_inurba_marseille","lat":43.30948,"lon":5.40146,"is_reserved":false,"is_disabled":false,"rental_uris":{"android":"levelo://app?vid=1290eeef-0401-4947-ba65-b638b82cf1ec","ios":"levelo://app?vid=1290eeef-0401-4947-ba65-b638b82cf1ec"},"vehicle_type_id":"4","last_reported":1762064093,"current_range_meters":20800,"station_id":"ce4bgvp2rcd13ifvqct0","pricing_plan_id":"cebpf4jnsgd1na2vs0mg"},{"bike_id":"f2634596-011c-4be3-9ce6-e77682f4a8fd","system_id":"levelo_inurba_marseille","lat":43.30872,"lon":5.39643,"is_reserved":false,"is_disabled":false,"rental_uris":{"android":"levelo://app?vid=f2634596-011c-4be3-9ce6-e77682f4a8fd","ios":"levelo://app?vid=f2634596-011c-4be3-9ce6-e77682f4a8fd"},"vehicle_type_id":"4","last_reported":1762064093,"current_range_meters":21600,"station_id":"ce4bh012rcd13ifvqcv0","pricing_plan_id":"cebpf4jnsgd1na2vs0mg"},{"bike_id":"35385ef5-b4e0-4f74-9547-2a9031e588e3","system_id":"levelo_inurba_marseille","lat":43.23766,"lon":5.36625,"is_reserved":false,"is_disabled":false,"rental_uris":{"android":"levelo://app?vid=35385ef5-b4e0-4f74-9547-2a9031e588e3","ios":"levelo://app?vid=35385ef5-b4e0-4f74-9547-2a9031e588e3"},"vehicle_type_id":"4","last_reported":1762064093,"current_range_meters":21600,"station_id":"st_d3nk18o9ro0c73en2l3g","pricing_plan_id":"cebpf4jnsgd1na2vs0mg"},{"bike_id":"5bcbeb3d-1951-4b3f-9407-6125ab50a054","system_id":"levelo_inurba_marseille","lat":43.25,"lon":5.3893,"is_reserved":false,"is_disabled":false,"rental_uris":{"android":"levelo://app?vid=5bcbeb3d-1951-4b3f-9407-6125ab50a054","ios":"levelo://app?vid=5bcbeb3d-1951-4b3f-9407-6125ab50a054"},"vehicle_type_id":"4","last_reported":1762064093,"current_range_meters":21600,"station_id":"ce4bhgp2rcd13ifvqfd0","pricing_plan_id":"cebpf4jnsgd1na2vs0mg"},{"bike_id":"0a788297-0628-4617-948d-e453c7e22202","system_id":"levelo_inurba_marseille","lat":43.2847,"lon":5.35872,"is_reserved":false,"is_disabled":false,"rental_uris":{"android":"levelo://app?vid=0a788297-0628-4617-948d-e453c7e22202","ios":"levelo://app?vid=0a788297-0628-4617-948d-e453c7e22202"},"vehicle_type_id":"4","last_reported":1762064093,"current_range_meters":21600,"station_id":"ce4bhah2rcd13ifvqei0","pricing_plan_id":"cebpf4jnsgd1na2vs0mg"},{"bike_id":"782a02c9-f51b-4b61-89b2-ec2ecf7d0e40","system_id":"levelo_inurba_marseille","lat":43.249441,"lon":5.405005,"is_reserved":false,"is_disabled":false,"rental_uris":{"android":"levelo://app?vid=782a02c9-f51b-4b61-89b2-ec2ecf7d0e40","ios":"levelo://app?vid=782a02c9-f51b-4b61-89b2-ec2ecf7d0e40"},"vehicle_type_id":"4","last_reported":1762064093,"current_range_meters":21600,"station_id":"st_d2ngiaodas8pm72gd1h0","pricing_plan_id":"cebpf4jnsgd1na2vs0mg"},{"bike_id":"145adec1-02ad-4d16-a5dd-42bf80721343","system_id":"levelo_inurba_marseille","lat":43.30079,"lon":5.38419,"is_reserved":false,"is_disabled":false,"rental_uris":{"android":"levelo://app?vid=145adec1-02ad-4d16-a5dd-42bf80721343","ios":"levelo://app?vid=145adec1-02ad-4d16-a5dd-42bf80721343"},"vehicle_type_id":"4","last_reported":1762064093,"current_range_meters":21600,"station_id":"","pricing_plan_id":"cebpf4jnsgd1na2vs0mg"},{"bike_id":"5eb9db26-abf8-4b3a-a40c-77af04cc957e","system_id":"levelo_inurba_marseille","lat":43.24168,"lon":5.36399,"is_reserved":false,"is_disabled":false,"rental_uris":{"android":"levelo://app?vid=5eb9db26-abf8-4b3a-a40c-77af04cc957e","ios":"levelo://app?vid=5eb9db26-abf8-4b3a-a40c-77af04cc957e"},"vehicle_type_id":"4","last_reported":1762064093,"current_range_meters":21600,"station_id":"cpo36qri1sfpv3e86is0","pricing_plan_id":"cebpf4jnsgd1na2vs0mg"},{"bike_id":"cfc27691-61f7-4b7d-9c2b-fa331c214f26","system_id":"levelo_inurba_marseille","lat":43.28016,"lon":5.3694,"is_reserved":false,"is_disabled":false,"rental_uris":{"android":"levelo://app?vid=cfc27691-61f7-4b7d-9c2b-fa331c214f26","ios":"levelo://app?vid=cfc27691-61f7-4b7d-9c2b-fa331c214f26"},"vehicle_type_id":"4","last_reported":1762064093,"current_range_meters":21600,"station_id":"ce4bha12rcd13ifvqef0","pricing_plan_id":"cebpf4jnsgd1na2vs0mg"},{"bike_id":"c2184d68-ca11-4204-b21e-e9dc4862fad1","system_id":"levelo_inurba_marseille","lat":43.32086,"lon":5.36769,"is_reserved":false,"is_disabled":false,"rental_uris":{"android":"levelo://app?vid=c2184d68-ca11-4204-b21e-e9dc4862fad1","ios":"levelo://app?vid=c2184d68-ca11-4204-b21e-e9dc4862fad1"},"vehicle_type_id":"4","last_reported":1762064093,"current_range_meters":21600,"station_id":"ce4bhrh2rcd13ifvqhug","pricing_plan_id":"cebpf4jnsgd1na2vs0mg"},{"bike_id":"af9530b9-dd7e-4485-9204-54acae1ed4ad","system_id":"levelo_inurba_marseille","lat":43.257243,"lon":5.411091,"is_reserved":false,"is_disabled":false,"rental_uris":{"android":"levelo://app?vid=af9530b9-dd7e-4485-9204-54acae1ed4ad","ios":"levelo://app?vid=af9530b9-dd7e-4485-9204-54acae1ed4ad"},"vehicle_type_id":"4","last_reported":1762064093,"current_range_meters":21600,"station_id":"ce4bhkp2rcd13ifvqgd0","pricing_plan_id":"cebpf4jnsgd1na2vs0mg"},{"bike_id":"05d6a3f7-b83a-4da1-9593-ef5015b8f8ec","system_id":"levelo_inurba_marseille","lat":43.27993,"lon":5.39979,"is_reserved":false,"is_disabled":false,"rental_uris":{"android":"levelo://app?vid=05d6a3f7-b83a-4da1-9593-ef5015b8f8ec","ios":"levelo://app?vid=05d6a3f7-b83a-4da1-9593-ef5015b8f8ec"},"vehicle_type_id":"4","last_reported":1762064093,"current_range_meters":21600,"station_id":"ce4bho92rcd13ifvqh4g","pricing_plan_id":"cebpf4jnsgd1na2vs0mg"},{"bike_id":"14e0fcd6-488b-4da1-b9ec-2f06247e9652","system_id":"levelo_inurba_marseille","lat":43.30728,"lon":5.42455,"is_reserved":false,"is_disabled":false,"rental_uris":{"android":"levelo://app?vid=14e0fcd6-488b-4da1-b9ec-2f06247e9652","ios":"levelo://app?vid=14e0fcd6-488b-4da1-b9ec-2f06247e9652"},"vehicle_type_id":"4","last_reported":1762064093,"current_range_meters":22000,"station_id":"st_cvj6ca6bvosntc0bfgr0","pricing_plan_id":"cebpf4jnsgd1na2vs0mg"},{"bike_id":"78fd86d5-da4c-4278-affd-7283f0275d72","system_id":"levelo_inurba_marseille","lat":43.27838,"lon":5.4067,"is_reserved":false,"is_disabled":false,"rental_uris":{"android":"levelo://app?vid=78fd86d5-da4c-4278-affd-7283f0275d72","ios":"levelo://app?vid=78fd86d5-da4c-4278-affd-7283f0275d72"},"vehicle_type_id":"4","last_reported":1762064093,"current_range_meters":22000,"station_id":"ce4bhnh2rcd13ifvqgtg","pricing_plan_id":"cebpf4jnsgd1na2vs0mg"},{"bike_id":"8ed6eb99-6dec-4b99-b593-c152fc826939","system_id":"levelo_inurba_marseille","lat":43.30876,"lon":5.3964,"is_reserved":false,"is_disabled":false,"rental_uris":{"android":"levelo://app?vid=8ed6eb99-6dec-4b99-b593-c152fc826939","ios":"levelo://app?vid=8ed6eb99-6dec-4b99-b593-c152fc826939"},"vehicle_type_id":"4","last_reported":1762064093,"current_range_meters":22000,"station_id":"ce4bh012rcd13ifvqcv0","pricing_plan_id":"cebpf4jnsgd1na2vs0mg"},{"bike_id":"82368b64-3274-4f75-8c32-ffa8dcbd4edb","system_id":"levelo_inurba_marseille","lat":43.279188,"lon":5.395984,"is_reserved":false,"is_disabled":false,"rental_uris":{"android":"levelo://app?vid=82368b64-3274-4f75-8c32-ffa8dcbd4edb","ios":"levelo://app?vid=82368b64-3274-4f75-8c32-ffa8dcbd4edb"},"vehicle_type_id":"4","last_reported":1762064093,"current_range_meters":22000,"station_id":"ce4bhf92rcd13ifvqf40","pricing_plan_id":"cebpf4jnsgd1na2vs0mg"},{"bike_id":"ac2f2e0c-7f3a-4615-95a9-755ddbeafcff","system_id":"levelo_inurba_marseille","lat":43.27353,"lon":5.36242,"is_reserved":false,"is_disabled":true,"rental_uris":{"android":"levelo://app?vid=ac2f2e0c-7f3a-4615-95a9-755ddbeafcff","ios":"levelo://app?vid=ac2f2e0c-7f3a-4615-95a9-755ddbeafcff"},"vehicle_type_id":"4","last_reported":1762064093,"current_range_meters":22000,"station_id":"ce4bhbh2rcd13ifvqeo0","pricing_plan_id":"cebpf4jnsgd1na2vs0mg"},{"bike_id":"7aef1029-9880-4ac1-bc62-5df1ae769dad","system_id":"levelo_inurba_marseille","lat":43.31006,"lon":5.37033,"is_reserved":false,"is_disabled":false,"rental_uris":{"android":"levelo://app?vid=7aef1029-9880-4ac1-bc62-5df1ae769dad","ios":"levelo://app?vid=7aef1029-9880-4ac1-bc62-5df1ae769dad"},"vehicle_type_id":"4","last_reported":1762064093,"current_range_meters":22000,"station_id":"","pricing_plan_id":"cebpf4jnsgd1na2vs0mg"},{"bike_id":"f234ad47-0901-40bf-a06a-e46adc6b907e","system_id":"levelo_inurba_marseille","lat":43.232,"lon":5.355605,"is_reserved":false,"is_disabled":true,"rental_uris":{"android":"levelo://app?vid=f234ad47-0901-40bf-a06a-e46adc6b907e","ios":"levelo://app?vid=f234ad47-0901-40bf-a06a-e46adc6b907e"},"vehicle_type_id":"4","last_reported":1762064093,"current_range_meters":22000,"station_id":"ce4bhu92rcd13ifvqi70","pricing_plan_id":"cebpf4jnsgd1na2vs0mg"},{"bike_id":"9b4f8a38-bb2b-47df-869e-10b9daca81e2","system_id":"levelo_inurba_marseille","lat":43.31701,"lon":5.40455,"is_reserved":false,"is_disabled":false,"rental_uris":{"android":"levelo://app?vid=9b4f8a38-bb2b-47df-869e-10b9daca81e2","ios":"levelo://app?vid=9b4f8a38-bb2b-47df-869e-10b9daca81e2"},"vehicle_type_id":"4","last_reported":1762064093,"current_range_meters":22400,"station_id":"ce4bh012rcd13ifvqd00","pricing_plan_id":"cebpf4jnsgd1na2vs0mg"},