{"last_updated":1729159779,"ttl":60,"version":"2.2","data":{"bikes":[{"bike_id":"f470a472-fead-49f2-a86a-48beb18c0a24","system_id":"levelo_inurba_marseille","lat":43.26045,"lon":5.38706,"is_reserved":false,"is_disabled":false,"rental_uris":{"android":"levelo://app?vid=f470a472-fead-49f2-a86a-48beb18c0a24","ios":"levelo://app?vid=f470a472-fead-49f2-a86a-48beb18c0a24"},"vehicle_type_id":"4","last_reported":1729159779,"current_range_meters":3600,"station_id":"","pricing_plan_id":"cebpf4jnsgd1na2vs0mg"},{"bike_id":"ca9b36f4-b4f8-462e-9ed9-17e10932734a","system_id":"levelo_inurba_marseille","lat":43.249969,"lon":5.389247,"is_reserved":false,"is_disabled":false,"rental_uris":{"android":"levelo://app?vid=ca9b36f4-b4f8-462e-9ed9-17e10932734a","ios":"levelo://app?vid=ca9b36f4-b4f8-462e-9ed9-17e10932734a"},"vehicle_type_id":"4","last_reported":1729159779,"current_range_meters":38400,"station_id":"ce4bhgp2rcd13ifvqfd0","pricing_plan_id":"cebpf4jnsgd1na2vs0mg"},{"bike_id":"38af802b-0dd3-4001-8bdf-786db676d355","system_id":"levelo_inurba_marseille","lat":43.30545,"lon":5.37516,"is_reserved":false,"is_disabled":false,"rental_uris":{"android":"levelo://app?vid=38af802b-0dd3-4001-8bdf-786db676d355","ios":"levelo://app?vid=38af802b-0dd3-4001-8bdf-786db676d355"},"vehicle_type_id":"4","last_reported":1729159779,"current_range_meters":30800,"station_id":"","pricing_plan_id":"cebpf4jnsgd1na2vs0mg"},{"bike_id":"bac40add-1376-4eec-933c-c2c06c37c36c","system_id":"levelo_inurba_marseille","lat":43.24995,"lon":5.38934,"is_reserved":false,"is_disabled":false,"rental_uris":{"android":"levelo://app?vid=bac40add-1376-4eec-933c-c2c06c37c36c","ios":"levelo://app?vid=bac40add-1376-4eec-933c-c2c06c37c36c"},"vehicle_type_id":"4","last_reported":1729159779,"current_range_meters":7200,"station_id":"ce4bhgp2rcd13ifvqfd0","pricing_plan_id":"cebpf4jnsgd1na2vs0mg"},{"bike_id":"676ec6c4-6b42-43e0-81fe-327782965da5","system_id":"levelo_inurba_marseille","lat":43.337444,"lon":5.374475,"is_reserved":false,"is_disabled":false,"rental_uris":{"android":"levelo://app?vid=676ec6c4-6b42-43e0-81fe-327782965da5","ios":"levelo://app?vid=676ec6c4-6b42-43e0-81fe-327782965da5"},"vehicle_type_id":"4","last_reported":1729159779,"current_range_meters":17200,"station_id":"","pricing_plan_id":"cebpf4jnsgd1na2vs0mg"},{"bike_id":"d6d787ff-4dc8-49f1-b0d2-e1024dce41c0","system_id":"levelo_inurba_marseille","lat":43.32476,"lon":5.3657,"is_reserved":false,"is_disabled":false,"rental_uris":{"android":"levelo://app?vid=d6d787ff-4dc8-49f1-b0d2-e1024dce41c0","ios":"levelo://app?vid=d6d787ff-4dc8-49f1-b0d2-e1024dce41c0"},"vehicle_type_id":"4","last_reported":1729159779,"current_range_meters":12000,"station_id":"ce4bhs12rcd13ifvqhvg","pricing_plan_id":"cebpf4jnsgd1na2vs0mg"},{"bike_id":"3a70df77-8d58-4e19-a561-d0eeef63c042","system_id":"levelo_inurba_marseille","lat":43.292255,"lon":5.360805,"is_reserved":false,"is_disabled":false,"rental_uris":{"android":"levelo://app?vid=3a70df77-8d58-4e19-a561-d0eeef63c042","ios":"levelo://app?vid=3a70df77-8d58-4e19-a561-d0eeef63c042"},"vehicle_type_id":"4","last_reported":1729159779,"current_range_meters":29600,"station_id":"ce4bhbh2rcd13ifvqeqg","pricing_plan_id":"cebpf4jnsgd1na2vs0mg"},{"bike_id":"319bcf6e-3cdb-4d52-bfd1-b41d9210f02d","system_id":"levelo_inurba_marseille","lat":43.29257,"lon":5.40916,"is_reserved":false,"is_disabled":false,"rental_uris":{"android":"levelo://app?vid=319bcf6e-3cdb-4d52-bfd1-b41d9210f02d","ios":"levelo://app?vid=319bcf6e-3cdb-4d52-bfd1-b41d9210f02d"},"vehicle_type_id":"4","last_reported":1729159779,"current_range_meters":16400,"station_id":"ce4bh192rcd13ifvqdc0","pricing_plan_id":"cebpf4jnsgd1na2vs0mg"},{"bike_id":"a39d0b51-4ce0-4f37-bb2b-d5b4aa47de9d","system_id":"levelo_inurba_marseille","lat":43.29531,"lon":5.39028,"is_reserved":false,"is_disabled":false,"rental_uris":{"android":"levelo://app?vid=a39d0b51-4ce0-4f37-bb2b-d5b4aa47de9d","ios":"levelo://app?vid=a39d0b51-4ce0-4f37-bb2b-d5b4aa47de9d"},"vehicle_type_id":"4","last_reported":1729159779,"current_range_meters":36400,"station_id":"ce4bh3p2rcd13ifvqdp0","pricing_plan_id":"cebpf4jnsgd1na2vs0mg"},{"bike_id":"86513dad-91a6-4d54-9c25-029c0b79a46b","system_id":"levelo_inurba_marseille","lat":43.33718,"lon":5.39189,"is_reserved":false,"is_disabled":false,"rental_uris":{"android":"levelo://app?vid=86513dad-91a6-4d54-9c25-029c0b79a46b","ios":"levelo://app?vid=86513dad-91a6-4d54-9c25-029c0b79a46b"},"vehicle_type_id":"4","last_reported":1729159779,"current_range_meters":28400,"station_id":"ce4bhr92rcd13ifvqhsg","pricing_plan_id":"cebpf4jnsgd1na2vs0mg"},{"bike_id":"f3147d8e-92df-4fc8-ae6d-c9849284365c","system_id":"levelo_inurba_marseille","lat":43.31338,"lon":5.36735,"is_reserved":false,"is_disabled":false,"rental_uris":{"android":"levelo://app?vid=f3147d8e-92df-4fc8-ae6d-c9849284365c","ios":"levelo://app?vid=f3147d8e-92df-4fc8-ae6d-c9849284365c"},"vehicle_type_id":"4","last_reported":1729159779,"current_range_meters":20400,"station_id":"ce4bgr92rcd13ifvqc6g","pricing_plan_id":"cebpf4jnsgd1na2vs0mg"},{"bike_id":"069ee1d2-fc78-45cc-bf18-09ba8d8bae53","system_id":"levelo_inurba_marseille","lat":43.25084,"lon":5.39514,"is_reserved":false,"is_disabled":false,"rental_uris":{"android":"levelo://app?vid=069ee1d2-fc78-45cc-bf18-09ba8d8bae53","ios":"levelo://app?vid=069ee1d2-fc78-45cc-bf18-09ba8d8bae53"},"vehicle_type_id":"4","last_reported":1729159779,"current_range_meters":8800,"station_id":"ce4bhm12rcd13ifvqgkg","pricing_plan_id":"cebpf4jnsgd1na2vs0mg"},{"bike_id":"b11dc318-bc95-421d-8543-f510ab40f75e","system_id":"levelo_inurba_marseille","lat":43.29191,"lon":5.3582,"is_reserved":false,"is_disabled":false,"rental_uris":{"android":"levelo://app?vid=b11dc318-bc95-421d-8543-f510ab40f75e","ios":"levelo://app?vid=b11dc318-bc95-421d-8543-f510ab40f75e"},"vehicle_type_id":"4","last_reported":1729159779,"current_range_meters":24000,"station_id":"ce4bhb12rcd13ifvqel0","pricing_plan_id":"cebpf4jnsgd1na2vs0mg"},{"bike_id":"91465fcb-56c4-402d-86e0-a549eae86045","system_id":"levelo_inurba_marseille","lat":43.27181,"lon":5.41003,"is_reserved":false,"is_disabled":false,"rental_uris":{"android":"levelo://app?vid=91465fcb-56c4-402d-86e0-a549eae86045","ios":"levelo://app?vid=91465fcb-56c4-402d-86e0-a549eae86045"},"vehicle_type_id":"4","last_reported":1729159779,"current_range_meters":30800,"station_id":"ce4bhl12rcd13ifvqgf0","pricing_plan_id":"cebpf4jnsgd1na2vs0mg"},{"bike_id":"ee8bdd05-0a2c-46a1-a064-2dfececdf119","system_id":"levelo_inurba_marseille","lat":43.30936,"lon":5.3904,"is_reserved":false,"is_disabled":false,"rental_uris":{"android":"levelo://app?vid=ee8bdd05-0a2c-46a1-a064-2dfececdf119","ios":"levelo://app?vid=ee8bdd05-0a2c-46a1-a064-2dfececdf119"},"vehicle_type_id":"4","last_reported":1729159779,"current_range_meters":4400,"station_id":"ce4bgup2rcd13ifvqco0","pricing_plan_id":"cebpf4jnsgd1na2vs0mg"},{"bike_id":"4ae2c184-8c50-452d-87fb-8f7bf4f540f3","system_id":"levelo_inurba_marseille","lat":43.24647,"lon":5.38901,"is_reserved":false,"is_disabled":false,"rental_uris":{"android":"levelo://app?vid=4ae2c184-8c50-452d-87fb-8f7bf4f540f3","ios":"levelo://app?vid=4ae2c184-8c50-452d-87fb-8f7bf4f540f3"},"vehicle_type_id":"4","last_reported":1729159779,"current_range_meters":35200,"station_id":"ce4bhg12rcd13ifvqf60","pricing_plan_id":"cebpf4jnsgd1na2vs0mg"},{"bike_id":"e3fc5e68-c5f3-4ead-859e-3acce6ba566e","system_id":"levelo_inurba_marseille","lat":43.28625,"lon":5.39496,"is_reserved":false,"is_disabled":false,"rental_uris":{"android":"levelo://app?vid=e3fc5e68-c5f3-4ead-859e-3acce6ba566e","ios":"levelo://app?vid=e3fc5e68-c5f3-4ead-859e-3acce6ba566e"},"vehicle_type_id":"4","last_reported":1729159779,"current_range_meters":34800,"station_id":"ce4bh0h2rcd13ifvqd60","pricing_plan_id":"cebpf4jnsgd1na2vs0mg"},{"bike_id":"6eb2826c-dc8e-4ec2-85c7-37b863a3445b","system_id":"levelo_inurba_marseille","lat":43.29041,"lon":5.3593,"is_reserved":false,"is_disabled":false,"rental_uris":{"android":"levelo://app?vid=6eb2826c-dc8e-4ec2-85c7-37b863a3445b","ios":"levelo://app?vid=6eb2826c-dc8e-4ec2-85c7-37b863a3445b"},"vehicle_type_id":"4","last_reported":1729159779,"current_range_meters":40000,"station_id":"ce4bha92rcd13ifvqeg0","pricing_plan_id":"cebpf4jnsgd1na2vs0mg"},{"bike_id":"59a91fae-488c-4d5f-819b-3df7ee95c91f","system_id":"levelo_inurba_marseille","lat":43.29529,"lon":5.3903,"is_reserved":false,"is_disabled":false,"rental_uris":{"android":"levelo://app?vid=59a91fae-488c-4d5f-819b-3df7ee95c91f","ios":"levelo://app?vid=59a91fae-488c-4d5f-819b-3df7ee95c91f"},"vehicle_type_id":"4","last_reported":1729159779,"current_range_meters":6000,"station_id":"ce4bh3p2rcd13ifvqdp0","pricing_plan_id":"cebpf4jnsgd1na2vs0mg"},{"bike_id":"56da5a5d-e301-4452-8c07-d6a5a0f92928","system_id":"levelo_inurba_marseille","lat":43.30539,"lon":5.36726,"is_reserved":false,"is_disabled":false,"rental_uris":{"android":"levelo://app?vid=56da5a5d-e301-4452-8c07-d6a5a0f92928","ios":"levelo://app?vid=56da5a5d-e301-4452-8c07-d6a5a0f92928"},"vehicle_type_id":"4","last_reported":1729159779,"current_range_meters":9200,"station_id":"ce4bgrp2rcd13ifvqc9g","pricing_plan_id":"cebpf4jnsgd1na2vs0mg"},{"bike_id":"052b3563-392a-4857-8174-027696f961ab","system_id":"levelo_inurba_marseille","lat":43.24654,"lon":5.38899,"is_reserved":false,"is_disabled":false,"rental_uris":{"android":"levelo://app?vid=052b3563-392a-4857-8174-027696f961ab","ios":"levelo://app?vid=052b3563-392a-4857-8174-027696f961ab"},"vehicle_type_id":"4","last_reported":1729159779,"current_range_meters":24800,"station_id":"ce4bhg12rcd13ifvqf60","pricing_plan_id":"cebpf4jnsgd1na2vs0mg"},{"bike_id":"7088a2f7-553c-47a2-a80a-ed0ece411348","system_id":"levelo_inurba_marseille","lat":43.27182,"lon":5.40992,"is_reserved":false,"is_disabled":false,"rental_uris":{"android":"levelo://app?vid=7088a2f7-553c-47a2-a80a-ed0ece411348","ios":"levelo://app?vid=7088a2f7-553c-47a2-a80a-ed0ece411348"},"vehicle_type_id":"4","last_reported":1729159779,"current_range_meters":14800,"station_id":"ce4bhl12rcd13ifvqgf0","pricing_plan_id":"cebpf4jnsgd1na2vs0mg"},{"bike_id":"ac5cccbe-7013-43ae-ade3-3f454ea3d67c","system_id":"levelo_inurba_marseille","lat":43.29529,"lon":5.39052,"is_reserved":false,"is_disabled":false,"rental_uris":{"android":"levelo://app?vid=ac5cccbe-7013-43ae-ade3-3f454ea3d67c","ios":"levelo://app?vid=ac5cccbe-7013-43ae-ade3-3f454ea3d67c"},"vehicle_type_id":"4","last_reported":1729159779,"current_range_meters":38800,"station_id":"ce4bh3p2rcd13ifvqdp0","pricing_plan_id":"cebpf4jnsgd1na2vs0mg"},{"bike_id":"63b2cd26-fe78-4925-a2bc-6ec63db0d274","system_id":"levelo_inurba_marseille","lat":43.27499,"lon":5.42453,"is_reserved":false,"is_disabled":false,"rental_uris":{"android":"levelo://app?vid=63b2cd26-fe78-4925-a2bc-6ec63db0d274","ios":"levelo://app?vid=63b2cd26-fe78-4925-a2bc-6ec63db0d274"},"vehicle_type_id":"4","last_reported":1729159779,"current_range_meters":22400,"station_id":"ce4bhn92rcd13ifvqgrg","pricing_plan_id":"cebpf4jnsgd1na2vs0mg"},{"bike_id":"ee07eab1-d6cf-499f-9946-cf995decd1fd","system_id":"levelo_inurba_marseille","lat":43.27992,"lon":5.40037,"is_reserved":false,"is_disabled":false,"rental_uris":{"android":"levelo://app?vid=ee07eab1-d6cf-499f-9946-cf995decd1fd","ios":"levelo://app?vid=ee07eab1-d6cf-499f-9946-cf995decd1fd"},"vehicle_type_id":"4","last_reported":1729159779,"current_range_meters":38800,"station_id":"ce4bho92rcd13ifvqh4g","pricing_plan_id":"cebpf4jnsgd1na2vs0mg"},{"bike_id":"94f2e0cd-acd2-4d9c-9244-e745ed3037da","system_id":"levelo_inurba_marseille","lat":43.26685,"lon":5.38268,"is_reserved":false,"is_disabled":false,"rental_uris":{"android":"levelo://app?vid=94f2e0cd-acd2-4d9c-9244-e745ed3037da","ios":"levelo://app?vid=94f2e0cd-acd2-4d9c-9244-e745ed3037da"},"vehicle_type_id":"4","last_reported":1729159779,"current_range_meters":27600,"station_id":"ce4bhg92rcd13ifvqf90","pricing_plan_id":"cebpf4jnsgd1na2vs0mg"},{"bike_id":"f8616bb9-c63b-416b-b8c4-507ff62f07bf","system_id":"levelo_inurba_marseille","lat":43.305363,"lon":5.365558,"is_reserved":false,"is_disabled":false,"rental_uris":{"android":"levelo://app?vid=f8616bb9-c63b-416b-b8c4-507ff62f07bf","ios":"levelo://app?vid=f8616bb9-c63b-416b-b8c4-507ff62f07bf"},"vehicle_type_id":"4","last_reported":1729159779,"current_range_meters":38800,"station_id":"ce4bgs12rcd13ifvqcag","pricing_plan_id":"cebpf4jnsgd1na2vs0mg"},{"bike_id":"46efdc28-0e73-4f8f-aa6d-9489d97c373b","system_id":"levelo_inurba_marseille","lat":43.2918,"lon":5.37172,"is_reserved":false,"is_disabled":false,"rental_uris":{"android":"levelo://app?vid=46efdc28-0e73-4f8f-aa6d-9489d97c373b","ios":"levelo://app?vid=46efdc28-0e73-4f8f-aa6d-9489d97c373b"},"vehicle_type_id":"4","last_reported":1729159779,"current_range_meters":23200,"station_id":"ce4bha92rcd13ifvqeh0","pricing_plan_id":"cebpf4jnsgd1na2vs0mg"},{"bike_id":"eaa677eb-d031-4170-9bfa-9305bf3b65ac","system_id":"levelo_inurba_marseille","lat":43.23152,"lon":5.43719,"is_reserved":false,"is_disabled":false,"rental_uris":{"android":"levelo://app?vid=eaa677eb-d031-4170-9bfa-9305bf3b65ac","ios":"levelo://app?vid=eaa677eb-d031-4170-9bfa-9305bf3b65ac"},"vehicle_type_id":"4","last_reported":1729159779,"current_range_meters":20000,"station_id":"ce4bhmp2rcd13ifvqgog","pricing_plan_id":"cebpf4jnsgd1na2vs0mg"},{"bike_id":"7c9c176b-b77d-4513-b9c5-764d78614c98","system_id":"levelo_inurba_marseille","lat":43.29713,"lon":5.36606,"is_reserved":false,"is_disabled":false,"rental_uris":{"android":"levelo://app?vid=7c9c176b-b77d-4513-b9c5-764d78614c98","ios":"levelo://app?vid=7c9c176b-b77d-4513-b9c5-764d78614c98"},"vehicle_type_id":"4","last_reported":1729159779,"current_range_meters":30400,"station_id":"ce4bgn12rcd13ifvqbt0","pricing_plan_id":"cebpf4jnsgd1na2vs0mg"},{"bike_id":"a75130ca-cb6a-4cf7-ad50-92bf50006bc2","system_id":"levelo_inurba_marseille","lat":43.274878,"lon":5.424558,"is_reserved":false,"is_disabled":false,"rental_uris":{"android":"levelo://app?vid=a75130ca-cb6a-4cf7-ad50-92bf50006bc2","ios":"levelo://app?vid=a75130ca-cb6a-4cf7-ad50-92bf50006bc2"},"vehicle_type_id":"4","last_reported":1729159779,"current_range_meters":17200,"station_id":"ce4bhn92rcd13ifvqgrg","pricing_plan_id":"cebpf4jnsgd1na2vs0mg"},{"bike_id":"b99b6698-7b7c-4e45-a57f-959e41d8bf5b","system_id":"levelo_inurba_marseille","lat":43.262715,"lon":5.37419,"is_reserved":false,"is_disabled":false,"rental_uris":{"android":"levelo://app?vid=b99b6698-7b7c-4e45-a57f-959e41d8bf5b","ios":"levelo://app?vid=b99b6698-7b7c-4e45-a57f-959e41d8bf5b"},"vehicle_type_id":"4","last_reported":1729159779,"current_range_meters":9200,"station_id":"ce4bhgp2rcd13ifvqfc0","pricing_plan_id":"cebpf4jnsgd1na2vs0mg"},{"bike_id":"2fa100d4-7645-41b8-8fc4-64d2fc317362","system_id":"levelo_inurba_marseille","lat":43.24665,"lon":5.38158,"is_reserved":false,"is_disabled":false,"rental_uris":{"android":"levelo://app?vid=2fa100d4-7645-41b8-8fc4-64d2fc317362","ios":"levelo://app?vid=2fa100d4-7645-41b8-8fc4-64d2fc317362"},"vehicle_type_id":"4","last_reported":1729159779,"current_range_meters":17600,"station_id":"ce4bhih2rcd13ifvqfr0","pricing_plan_id":"cebpf4jnsgd1na2vs0mg"},{"bike_id":"2be8aac6-9f8e-4f13-b42e-ae9531a642fd","system_id":"levelo_inurba_marseille","lat":43.282675,"lon":5.350566,"is_reserved":false,"is_disabled":false,"rental_uris":{"android":"levelo://app?vid=2be8aac6-9f8e-4f13-b42e-ae9531a642fd","ios":"levelo://app?vid=2be8aac6-9f8e-4f13-b42e-ae9531a642fd"},"vehicle_type_id":"4","last_reported":1729159779,"current_range_meters":28800,"station_id":"ce4bhbp2rcd13ifvqerg","pricing_plan_id":"cebpf4jnsgd1na2vs0mg"},{"bike_id":"73ef4567-982a-4187-a030-dba6d8fafa37","system_id":"levelo_inurba_marseille","lat":43.23151,"lon":5.43721,"is_reserved":false,"is_disabled":false,"rental_uris":{"android":"levelo://app?vid=73ef4567-982a-4187-a030-dba6d8fafa37","ios":"levelo://app?vid=73ef4567-982a-4187-a030-dba6d8fafa37"},"vehicle_type_id":"4","last_reported":1729159779,"current_range_meters":14800,"station_id":"ce4bhmp2rcd13ifvqgog","pricing_plan_id":"cebpf4jnsgd1na2vs0mg"},{"bike_id":"e371bd4b-4485-4c8b-8e23-26c25e523a51","system_id":"levelo_inurba_marseille","lat":43.25936,"lon":5.40913,"is_reserved":false,"is_disabled":false,"rental_uris":{"android":"levelo://app?vid=e371bd4b-4485-4c8b-8e23-26c25e523a51","ios":"levelo://app?vid=e371bd4b-4485-4c8b-8e23-26c25e523a51"},"vehicle_type_id":"4","last_reported":1729159779,"current_range_meters":18000,"station_id":"ce4bhm92rcd13ifvqglg","pricing_plan_id":"cebpf4jnsgd1na2vs0mg"},{"bike_id":"d18293c8-0c23-4c61-98fc-93df91cd73cd","system_id":"levelo_inurba_marseille","lat":43.26033,"lon":5.37553,"is_reserved":false,"is_disabled":false,"rental_uris":{"android":"levelo://app?vid=d18293c8-0c23-4c61-98fc-93df91cd73cd","ios":"levelo://app?vid=d18293c8-0c23-4c61-98fc-93df91cd73cd"},"vehicle_type_id":"4","last_reported":1729159779,"current_range_meters":38000,"station_id":"ce4bhgh2rcd13ifvqfa0","pricing_plan_id":"cebpf4jnsgd1na2vs0mg"},{"bike_id":"6c0cb852-8a6d-4147-92b5-d0bcf163ea0b","system_id":"levelo_inurba_marseille","lat":43.26203,"lon":5.37932,"is_reserved":false,"is_disabled":false,"rental_uris":{"android":"levelo://app?vid=6c0cb852-8a6d-4147-92b5-d0bcf163ea0b","ios":"levelo://app?vid=6c0cb852-8a6d-4147-92b5-d0bcf163ea0b"},"vehicle_type_id":"4","last_reported":1729159779,"current_range_meters":37600,"station_id":"ce4bhjp2rcd13ifvqg90","pricing_plan_id":"cebpf4jnsgd1na2vs0mg"},{"bike_id":"fae963ad-e7e5-4f46-b3a0-2d49d33d0725","system_id":"levelo_inurba_marseille","lat":43.272026,"lon":5.391933,"is_reserved":false,"is_disabled":false,"rental_uris":{"android":"levelo://app?vid=fae963ad-e7e5-4f46-b3a0-2d49d33d0725","ios":"levelo://app?vid=fae963ad-e7e5-4f46-b3a0-2d49d33d0725"},"vehicle_type_id":"4","last_reported":1729159779,"current_range_meters":20000,"station_id":"ce4bhhp2rcd13ifvqfm0","pricing_plan_id":"cebpf4jnsgd1na2vs0mg"},{"bike_id":"3909da5d-a66f-45f0-98ac-a8ae6ed32376","system_id":"levelo_inurba_marseille","lat":43.26213,"lon":5.37442,"is_reserved":false,"is_disabled":false,"rental_uris":{"android":"levelo://app?vid=3909da5d-a66f-45f0-98ac-a8ae6ed32376","ios":"levelo://app?vid=3909da5d-a66f-45f0-98ac-a8ae6ed32376"},"vehicle_type_id":"4","last_reported":1729159779,"current_range_meters":16400,"station_id":"ce4bhgp2rcd13ifvqfc0","pricing_plan_id":"cebpf4jnsgd1na2vs0mg"},{"bike_id":"26c61c8a-36e1-4c3c-971e-b0e70e0798bf","system_id":"levelo_inurba_marseille","lat":43.25726,"lon":5.4111,"is_reserved":false,"is_disabled":false,"rental_uris":{"android":"levelo://app?vid=26c61c8a-36e1-4c3c-971e-b0e70e0798bf","ios":"levelo://app?vid=26c61c8a-36e1-4c3c-971e-b0e70e0798bf"},"vehicle_type_id":"4","last_reported":1729159779,"current_range_meters":37600,"station_id":"ce4bhkp2rcd13ifvqgd0","pricing_plan_id":"cebpf4jnsgd1na2vs0mg"},{"bike_id":"55c5585e-e16e-435a-8f48-ce57c692cd0e","system_id":"levelo_inurba_marseille","lat":43.30555,"lon":5.36544,"is_reserved":false,"is_disabled":false,"rental_uris":{"android":"levelo://app?vid=55c5585e-e16e-435a-8f48-ce57c692cd0e","ios":"levelo://app?vid=55c5585e-e16e-435a-8f48-ce57c692cd0e"},"vehicle_type_id":"4","last_reported":1729159779,"current_range_meters":9600,"station_id":"ce4bgs12rcd13ifvqcag","pricing_plan_id":"cebpf4jnsgd1na2vs0mg"},{"bike_id":"b3b8591c-5379-4a69-90ab-ae3253c0799a","system_id":"levelo_inurba_marseille","lat":43.23156,"lon":5.43708,"is_reserved":false,"is_disabled":false,"rental_uris":{"android":"levelo://app?vid=b3b8591c-5379-4a69-90ab-ae3253c0799a","ios":"levelo://app?vid=b3b8591c-5379-4a69-90ab-ae3253c0799a"},"vehicle_type_id":"4","last_reported":1729159779,"current_range_meters":8000,"station_id":"ce4bhmp2rcd13ifvqgog","pricing_plan_id":"cebpf4jnsgd1na2vs0mg"},{"bike_id":"8c8d1961-3687-4304-af16-c19f2e7b82d2","system_id":"levelo_inurba_marseille","lat":43.25001,"lon":5.38924,"is_reserved":false,"is_disabled":false,"rental_uris":{"android":"levelo://app?vid=8c8d1961-3687-4304-af16-c19f2e7b82d2","ios":"levelo://app?vid=8c8d1961-3687-4304-af16-c19f2e7b82d2"},"vehicle_type_id":"4","last_reported":1729159779,"current_range_meters":38800,"station_id":"ce4bhgp2rcd13ifvqfd0","pricing_plan_id":"cebpf4jnsgd1na2vs0mg"},{"bike_id":"90263e99-d5aa-44b8-a4c8-0353aa3b308c","system_id":"levelo_inurba_marseille","lat":43.2307,"lon":5.35496,"is_reserved":false,"is_disabled":false,"rental_uris":{"android":"levelo://app?vid=90263e99-d5aa-44b8-a4c8-0353aa3b308c","ios":"levelo://app?vid=90263e99-d5aa-44b8-a4c8-0353aa3b308c"},"vehicle_type_id":"4","last_reported":1729159779,"current_range_meters":9200,"station_id":"cpo3342slgdg3j2ifvpg","pricing_plan_id":"cebpf4jnsgd1na2vs0mg"},{"bike_id":"2871640c-a4f3-4f61-a342-156b39b491e5","system_id":"levelo_inurba_marseille","lat":43.23149,"lon":5.43714,"is_reserved":false,"is_disabled":false,"rental_uris":{"android":"levelo://app?vid=2871640c-a4f3-4f61-a342-156b39b491e5","ios":"levelo://app?vid=2871640c-a4f3-4f61-a342-156b39b491e5"},"vehicle_type_id":"4","last_reported":1729159779,"current_range_meters":14000,"station_id":"ce4bhmp2rcd13ifvqgog","pricing_plan_id":"cebpf4jnsgd1na2vs0mg"},{"bike_id":"d5700e08-1ca3-4e70-b3dd-a489adf315fe","system_id":"levelo_inurba_marseille","lat":43.29005,"lon":5.35611,"is_reserved":false,"is_disabled":false,"rental_uris":{"android":"levelo://app?vid=d5700e08-1ca3-4e70-b3dd-a489adf315fe","ios":"levelo://app?vid=d5700e08-1ca3-4e70-b3dd-a489adf315fe"},"vehicle_type_id":"4","last_reported":1729159779,"current_range_meters":28000,"station_id":"ce4bhb92rcd13ifvqen0","pricing_plan_id":"cebpf4jnsgd1na2vs0mg"},{"bike_id":"cc2c07a1-5beb-4ab6-9ff4-f4b584d1dacf","system_id":"levelo_inurba_marseille","lat":43.249664,"lon":5.38766,"is_reserved":false,"is_disabled":false,"rental_uris":{"android":"levelo://app?vid=cc2c07a1-5beb-4ab6-9ff4-f4b584d1dacf","ios":"levelo://app?vid=cc2c07a1-5beb-4ab6-9ff4-f4b584d1dacf"},"vehicle_type_id":"4","last_reported":1729159779,"current_range_meters":18000,"station_id":"ce4bhgp2rcd13ifvqfd0","pricing_plan_id":"cebpf4jnsgd1na2vs0mg"},{"bike_id":"308f885e-03b3-467a-b1c6-78772109efb8","system_id":"levelo_inurba_marseille","lat":43.30783,"lon":5.37651,"is_reserved":false,"is_disabled":false,"rental_uris":{"android":"levelo://app?vid=308f885e-03b3-467a-b1c6-78772109efb8","ios":"levelo://app?vid=308f885e-03b3-467a-b1c6-78772109efb8"},"vehicle_type_id":"4","last_reported":1729159779,"current_range_meters":16400,"station_id":"ce4bgv92rcd13ifvqcq0","pricing_plan_id":"cebpf4jnsgd1na2vs0mg"},{"bike_id":"1cd343c8-245e-4510-bed9-dcc94a7ab19d","system_id":"levelo_inurba_marseille","lat":43.25931,"lon":5.40916,"is_reserved":false,"is_disabled":false,"rental_uris":{"android":"levelo://app?vid=1cd343c8-245e-4510-bed9-dcc94a7ab19d","ios":"levelo://app?vid=1cd343c8-245e-4510-bed9-dcc94a7ab19d"},"vehicle_type_id":"4","last_reported":1729159779,"current_range_meters":8400,"station_id":"ce4bhm92rcd13ifvqglg","pricing_plan_id":"cebpf4jnsgd1na2vs0mg"},{"bike_id":"259adaf4-2099-4724-93a6-9b4c595d6c04","system_id":"levelo_inurba_marseille","lat":43.2466,"lon":5.38167,"is_reserved":false,"is_disabled":false,"rental_uris":{"android":"levelo://app?vid=259adaf4-2099-4724-93a6-9b4c595d6c04","ios":"levelo://app?vid=259adaf4-2099-4724-93a6-9b4c595d6c04"},"vehicle_type_id":"4","last_reported":1729159779,"current_range_meters":30400,"station_id":"ce4bhih2rcd13ifvqfr0","pricing_plan_id":"cebpf4jnsgd1na2vs0mg"},{"bike_id":"f0a85da4-95f0-4613-ac48-f51fb4590b24","system_id":"levelo_inurba_marseille","lat":43.23149,"lon":5.43721,"is_reserved":false,"is_disabled":false,"rental_uris":{"android":"levelo://app?vid=f0a85da4-95f0-4613-ac48-f51fb4590b24","ios":"levelo://app?vid=f0a85da4-95f0-4613-ac48-f51fb4590b24"},"vehicle_type_id":"4","last_reported":1729159779,"current_range_meters":6800,"station_id":"ce4bhmp2rcd13ifvqgog","pricing_plan_id":"cebpf4jnsgd1na2vs0mg"},{"bike_id":"74c32cf3-99f1-4902-95c0-ae0ad9ed9462","system_id":"levelo_inurba_marseille","lat":43.31331,"lon":5.36748,"is_reserved":false,"is_disabled":false,"rental_uris":{"android":"levelo://app?vid=74c32cf3-99f1-4902-95c0-ae0ad9ed9462","ios":"levelo://app?vid=74c32cf3-99f1-4902-95c0-ae0ad9ed9462"},"vehicle_type_id":"4","last_reported":1729159779,"current_range_meters":40000,"station_id":"ce4bgr92rcd13ifvqc6g","pricing_plan_id":"cebpf4jnsgd1na2vs0mg"},{"bike_id":"df8adece-9866-4131-88ad-9e4f198de9a1","system_id":"levelo_inurba_marseille","lat":43.23148,"lon":5.4372,"is_reserved":false,"is_disabled":false,"rental_uris":{"android":"levelo://app?vid=df8adece-9866-4131-88ad-9e4f198de9a1","ios":"levelo://app?vid=df8adece-9866-4131-88ad-9e4f198de9a1"},"vehicle_type_id":"4","last_reported":1729159779,"current_range_meters":8800,"station_id":"ce4bhmp2rcd13ifvqgog","pricing_plan_id":"cebpf4jnsgd1na2vs0mg"},{"bike_id":"edf28a32-3127-4ecc-a675-e3a1bf7f80da","system_id":"levelo_inurba_marseille","lat":43.30535,"lon":5.36722,"is_reserved":false,"is_disabled":false,"rental_uris":{"android":"levelo://app?vid=edf28a32-3127-4ecc-a675-e3a1bf7f80da","ios":"levelo://app?vid=edf28a32-3127-4ecc-a675-e3a1bf7f80da"},"vehicle_type_id":"4","last_reported":1729159779,"current_range_meters":6400,"station_id":"ce4bgrp2rcd13ifvqc9g","pricing_plan_id":"cebpf4jnsgd1na2vs0mg"},{"bike_id":"c8d56133-9d5b-45ba-83e5-6e68a64ee67c","system_id":"levelo_inurba_marseille","lat":43.240784,"lon":5.377573,"is_reserved":false,"is_disabled":false,"rental_uris":{"android":"levelo://app?vid=c8d56133-9d5b-45ba-83e5-6e68a64ee67c","ios":"levelo://app?vid=c8d56133-9d5b-45ba-83e5-6e68a64ee67c"},"vehicle_type_id":"4","last_reported":1729159779,"current_range_meters":27600,"station_id":"ce4bhnp2rcd13ifvqgvg","pricing_plan_id":"cebpf4jnsgd1na2vs0mg"},{"bike_id":"fa7bbdc9-afbe-404d-8676-647037cc76a9","system_id":"levelo_inurba_marseille","lat":43.23204,"lon":5.3555,"is_reserved":false,"is_disabled":false,"rental_uris":{"android":"levelo://app?vid=fa7bbdc9-afbe-404d-8676-647037cc76a9","ios":"levelo://app?vid=fa7bbdc9-afbe-404d-8676-647037cc76a9"},"vehicle_type_id":"4","last_reported":1729159779,"current_range_meters":34800,"station_id":"ce4bhu92rcd13ifvqi70","pricing_plan_id":"cebpf4jnsgd1na2vs0mg"},{"bike_id":"931ad2f4-35ea-42b5-bc1a-1fdec477398a","system_id":"levelo_inurba_marseille","lat":43.3376,"lon":5.37449,"is_reserved":false,"is_disabled":false,"rental_uris":{"android":"levelo://app?vid=931ad2f4-35ea-42b5-bc1a-1fdec477398a","ios":"levelo://app?vid=931ad2f4-35ea-42b5-bc1a-1fdec477398a"},"vehicle_type_id":"4","last_reported":1729159779,"current_range_meters":30800,"station_id":"","pricing_plan_id":"cebpf4jnsgd1na2vs0mg"},{"bike_id":"89e45b8b-dc82-4018-a313-5f868c8711f0","system_id":"levelo_inurba_marseille","lat":43.33613,"lon":5.41026,"is_reserved":false,"is_disabled":false,"rental_uris":{"android":"levelo://app?vid=89e45b8b-dc82-4018-a313-5f868c8711f0","ios":"levelo://app?vid=89e45b8b-dc82-4018-a313-5f868c8711f0"},"vehicle_type_id":"4","last_reported":1729159779,"current_range_meters":40000,"station_id":"ce4bhqh2rcd13ifvqhmg","pricing_plan_id":"cebpf4jnsgd1na2vs0mg"},{"bike_id":"aeac146b-929a-4e36-bdcd-73d6b78806ba","system_id":"levelo_inurba_marseille","lat":43.26209,"lon":5.37445,"is_reserved":false,"is_disabled":false,"rental_uris":{"android":"levelo://app?vid=aeac146b-929a-4e36-bdcd-73d6b78806ba","ios":"levelo://app?vid=aeac146b-929a-4e36-bdcd-73d6b78806ba"},"vehicle_type_id":"4","last_reported":1729159779,"current_range_meters":37600,"station_id":"ce4bhgp2rcd13ifvqfc0","pricing_plan_id":"cebpf4jnsgd1na2vs0mg"},{"bike_id":"c7671745-53fc-4e7c-8000-63dbb88ab13f","system_id":"levelo_inurba_marseille","lat":43.2761,"lon":5.36122,"is_reserved":false,"is_disabled":false,"rental_uris":{"android":"levelo://app?vid=c7671745-53fc-4e7c-8000-63dbb88ab13f","ios":"levelo://app?vid=c7671745-53fc-4e7c-8000-63dbb88ab13f"},"vehicle_type_id":"4","last_reported":1729159779,"current_range_meters":39200,"station_id":"ce4bgj92rcd13ifvqbe0","pricing_plan_id":"cebpf4jnsgd1na2vs0mg"},{"bike_id":"9f8c40b5-c4d0-4cbf-9a71-1cd16415f999","system_id":"levelo_inurba_marseille","lat":43.30539,"lon":5.36545,"is_reserved":false,"is_disabled":false,"rental_uris":{"android":"levelo://app?vid=9f8c40b5-c4d0-4cbf-9a71-1cd16415f999","ios":"levelo://app?vid=9f8c40b5-c4d0-4cbf-9a71-1cd16415f999"},"vehicle_type_id":"4","last_reported":1729159779,"current_range_meters":24800,"station_id":"ce4bgs12rcd13ifvqcag","pricing_plan_id":"cebpf4jnsgd1na2vs0mg"},{"bike_id":"3601568a-c2a9-41ea-93cd-1c10b2d82372","system_id":"levelo_inurba_marseille","lat":43.24544,"lon":5.39523,"is_reserved":false,"is_disabled":false,"rental_uris":{"android":"levelo://app?vid=3601568a-c2a9-41ea-93cd-1c10b2d82372","ios":"levelo://app?vid=3601568a-c2a9-41ea-93cd-1c10b2d82372"},"vehicle_type_id":"4","last_reported":1729159779,"current_range_meters":22800,"station_id":"ce4bhlp2rcd13ifvqgjg","pricing_plan_id":"cebpf4jnsgd1na2vs0mg"},{"bike_id":"8c1ec6cb-2291-4814-837b-be8625c706f3","system_id":"levelo_inurba_marseille","lat":43.23196,"lon":5.3554,"is_reserved":false,"is_disabled":false,"rental_uris":{"android":"levelo://app?vid=8c1ec6cb-2291-4814-837b-be8625c706f3","ios":"levelo://app?vid=8c1ec6cb-2291-4814-837b-be8625c706f3"},"vehicle_type_id":"4","last_reported":1729159779,"current_range_meters":37600,"station_id":"ce4bhu92rcd13ifvqi70","pricing_plan_id":"cebpf4jnsgd1na2vs0mg"},{"bike_id":"6f514a62-cca0-4cc1-89e2-08fbb34431a5","system_id":"levelo_inurba_marseille","lat":43.29891,"lon":5.38898,"is_reserved":false,"is_disabled":false,"rental_uris":{"android":"levelo://app?vid=6f514a62-cca0-4cc1-89e2-08fbb34431a5","ios":"levelo://app?vid=6f514a62-cca0-4cc1-89e2-08fbb34431a5"},"vehicle_type_id":"4","last_reported":1729159779,"current_range_meters":28000,"station_id":"ce4bh392rcd13ifvqdl0","pricing_plan_id":"cebpf4jnsgd1na2vs0mg"},{"bike_id":"6e2d6bec-e897-4305-9b34-78396471915c","system_id":"levelo_inurba_marseille","lat":43.2955,"lon":5.39379,"is_reserved":false,"is_disabled":false,"rental_uris":{"android":"levelo://app?vid=6e2d6bec-e897-4305-9b34-78396471915c","ios":"levelo://app?vid=6e2d6bec-e897-4305-9b34-78396471915c"},"vehicle_type_id":"4","last_reported":1729159779,"current_range_meters":36000,"station_id":"ce4bh292rcd13ifvqdf0","pricing_plan_id":"cebpf4jnsgd1na2vs0mg"},{"bike_id":"4be62110-08cc-42eb-ab67-273d9bf9c6f2","system_id":"levelo_inurba_marseille","lat":43.25088,"lon":5.39524,"is_reserved":false,"is_disabled":false,"rental_uris":{"android":"levelo://app?vid=4be62110-08cc-42eb-ab67-273d9bf9c6f2","ios":"levelo://app?vid=4be62110-08cc-42eb-ab67-273d9bf9c6f2"},"vehicle_type_id":"4","last_reported":1729159779,"current_range_meters":12000,"station_id":"ce4bhm12rcd13ifvqgkg","pricing_plan_id":"cebpf4jnsgd1na2vs0mg"},{"bike_id":"6aad7b35-09a3-4656-912f-91689d5fb051","system_id":"levelo_inurba_marseille","lat":43.26206,"lon":5.37931,"is_reserved":false,"is_disabled":false,"rental_uris":{"android":"levelo://app?vid=6aad7b35-09a3-4656-912f-91689d5fb051","ios":"levelo://app?vid=6aad7b35-09a3-4656-912f-91689d5fb051"},"vehicle_type_id":"4","last_reported":1729159779,"current_range_meters":22800,"station_id":"ce4bhjp2rcd13ifvqg90","pricing_plan_id":"cebpf4jnsgd1na2vs0mg"},{"bike_id":"ad9233d1-a6aa-4d7c-8596-52519e40ba7f","system_id":"levelo_inurba_marseille","lat":43.29657,"lon":5.3662,"is_reserved":false,"is_disabled":false,"rental_uris":{"android":"levelo://app?vid=ad9233d1-a6aa-4d7c-8596-52519e40ba7f","ios":"levelo://app?vid=ad9233d1-a6aa-4d7c-8596-52519e40ba7f"},"vehicle_type_id":"4","last_reported":1729159779,"current_range_meters":38800,"station_id":"","pricing_plan_id":"cebpf4jnsgd1na2vs0mg"},{"bike_id":"97c38d7e-42de-48ae-b645-189fb17e99b5","system_id":"levelo_inurba_marseille","lat":43.29531,"lon":5.38548,"is_reserved":false,"is_disabled":false,"rental_uris":{"android":"levelo://app?vid=97c38d7e-42de-48ae-b645-189fb17e99b5","ios":"levelo://app?vid=97c38d7e-42de-48ae-b645-189fb17e99b5"},"vehicle_type_id":"4","last_reported":1729159779,"current_range_meters":34800,"station_id":"ce4bgih2rcd13ifvqba0","pricing_plan_id":"cebpf4jnsgd1na2vs0mg"},{"bike_id":"c1b4d58c-7d67-4800-b5de-bf664ea422e8","system_id":"levelo_inurba_marseille","lat":43.24646,"lon":5.38903,"is_reserved":false,"is_disabled":false,"rental_uris":{"android":"levelo://app?vid=c1b4d58c-7d67-4800-b5de-bf664ea422e8","ios":"levelo://app?vid=c1b4d58c-7d67-4800-b5de-bf664ea422e8"},"vehicle_type_id":"4","last_reported":1729159779,"current_range_meters":12800,"station_id":"ce4bhg12rcd13ifvqf60","pricing_plan_id":"cebpf4jnsgd1na2vs0mg"},{"bike_id":"4dff3f2d-8f80-481e-a769-c8fed23ab2fa","system_id":"levelo_inurba_marseille","lat":43.26198,"lon":5.3793,"is_reserved":false,"is_disabled":false,"rental_uris":{"android":"levelo://app?vid=4dff3f2d-8f80-481e-a769-c8fed23ab2fa","ios":"levelo://app?vid=4dff3f2d-8f80-481e-a769-c8fed23ab2fa"},"vehicle_type_id":"4","last_reported":1729159779,"current_range_meters":20000,"station_id":"ce4bhjp2rcd13ifvqg90","pricing_plan_id":"cebpf4jnsgd1na2vs0mg"},{"bike_id":"520489e7-555a-4ff2-aa00-0b72b9b70ffd","system_id":"levelo_inurba_marseille","lat":43.29556,"lon":5.42278,"is_reserved":false,"is_disabled":false,"rental_uris":{"android":"levelo://app?vid=520489e7-555a-4ff2-aa00-0b72b9b70ffd","ios":"levelo://app?vid=520489e7-555a-4ff2-aa00-0b72b9b70ffd"},"vehicle_type_id":"4","last_reported":1729159779,"current_range_meters":26000,"station_id":"ce4bhph2rcd13ifvqhdg","pricing_plan_id":"cebpf4jnsgd1na2vs0mg"},{"bike_id":"d372c23a-dc85-401e-bc89-b7954e57f68b","system_id":"levelo_inurba_marseille","lat":43.30545,"lon":5.36716,"is_reserved":false,"is_disabled":false,"rental_uris":{"android":"levelo://app?vid=d372c23a-dc85-401e-bc89-b7954e57f68b","ios":"levelo://app?vid=d372c23a-dc85-401e-bc89-b7954e57f68b"},"vehicle_type_id":"4","last_reported":1729159779,"current_range_meters":28800,"station_id":"ce4bgrp2rcd13ifvqc9g","pricing_plan_id":"cebpf4jnsgd1na2vs0mg"},{"bike_id":"9e1a9053-a22e-4a9b-98a7-d370811bc374","system_id":"levelo_inurba_marseille","lat":43.27185,"lon":5.40992,"is_reserved":false,"is_disabled":false,"rental_uris":{"android":"levelo://app?vid=9e1a9053-a22e-4a9b-98a7-d370811bc374","ios":"levelo://app?vid=9e1a9053-a22e-4a9b-98a7-d370811bc374"},"vehicle_type_id":"4","last_reported":1729159779,"current_range_meters":9200,"station_id":"ce4bhl12rcd13ifvqgf0","pricing_plan_id":"cebpf4jnsgd1na2vs0mg"},{"bike_id":"b79fb279-743f-4133-a2ca-4c1a14b606cb","system_id":"levelo_inurba_marseille","lat":43.2838,"lon":5.38617,"is_reserved":false,"is_disabled":false,"rental_uris":{"android":"levelo://app?vid=b79fb279-743f-4133-a2ca-4c1a14b606cb","ios":"levelo://app?vid=b79fb279-743f-4133-a2ca-4c1a14b606cb"},"vehicle_type_id":"4","last_reported":1729159779,"current_range_meters":36000,"station_id":"ce4bh492rcd13ifvqdvg","pricing_plan_id":"cebpf4jnsgd1na2vs0mg"},{"bike_id":"fec6f51b-1072-44c6-a7b0-4049f3835f7e","system_id":"levelo_inurba_marseille","lat":43.26212,"lon":5.37444,"is_reserved":false,"is_disabled":false,"rental_uris":{"android":"levelo://app?vid=fec6f51b-1072-44c6-a7b0-4049f3835f7e","ios":"levelo://app?vid=fec6f51b-1072-44c6-a7b0-4049f3835f7e"},"vehicle_type_id":"4","last_reported":1729159779,"current_range_meters":38800,"station_id":"ce4bhgp2rcd13ifvqfc0","pricing_plan_id":"cebpf4jnsgd1na2vs0mg"},{"bike_id":"874494de-7452-4f47-9fec-c5ec79478035","system_id":"levelo_inurba_marseille","lat":43.23967,"lon":5.3664,"is_reserved":false,"is_disabled":false,"rental_uris":{"android":"levelo://app?vid=874494de-7452-4f47-9fec-c5ec79478035","ios":"levelo://app?vid=874494de-7452-4f47-9fec-c5ec79478035"},"vehicle_type_id":"4","last_reported":1729159779,"current_range_meters":28400,"station_id":"ce4bhi12rcd13ifvqfp0","pricing_plan_id":"cebpf4jnsgd1na2vs0mg"},{"bike_id":"38f2a4ce-0eca-440a-a6cf-96856f1ec943","system_id":"levelo_inurba_marseille","lat":43.30542,"lon":5.36539,"is_reserved":false,"is_disabled":false,"rental_uris":{"android":"levelo://app?vid=38f2a4ce-0eca-440a-a6cf-96856f1ec943","ios":"levelo://app?vid=38f2a4ce-0eca-440a-a6cf-96856f1ec943"},"vehicle_type_id":"4","last_reported":1729159779,"current_range_meters":34000,"station_id":"ce4bgs12rcd13ifvqcag","pricing_plan_id":"cebpf4jnsgd1na2vs0mg"},{"bike_id":"9cab4e9f-1e69-4842-82e4-ee6684a3dc1f","system_id":"levelo_inurba_marseille","lat":43.25934,"lon":5.40904,"is_reserved":false,"is_disabled":false,"rental_uris":{"android":"levelo://app?vid=9cab4e9f-1e69-4842-82e4-ee6684a3dc1f","ios":"levelo://app?vid=9cab4e9f-1e69-4842-82e4-ee6684a3dc1f"},"vehicle_type_id":"4","last_reported":1729159779,"current_range_meters":30800,"station_id":"ce4bhm92rcd13ifvqglg","pricing_plan_id":"cebpf4jnsgd1na2vs0mg"},{"bike_id":"08ae83cb-f31d-469e-8b8d-1172d9f867d3","system_id":"levelo_inurba_marseille","lat":43.23962,"lon":5.36641,"is_reserved":false,"is_disabled":false,"rental_uris":{"android":"levelo://app?vid=08ae83cb-f31d-469e-8b8d-1172d9f867d3","ios":"levelo://app?vid=08ae83cb-f31d-469e-8b8d-1172d9f867d3"},"vehicle_type_id":"4","last_reported":1729159779,"current_range_meters":17600,"station_id":"ce4bhi12rcd13ifvqfp0","pricing_plan_id":"cebpf4jnsgd1na2vs0mg"},{"bike_id":"0994d7f0-fa2e-480f-b967-2b1e1b476b78","system_id":"levelo_inurba_marseille","lat":43.23188,"lon":5.35558,"is_reserved":false,"is_disabled":false,"rental_uris":{"android":"levelo://app?vid=0994d7f0-fa2e-480f-b967-2b1e1b476b78","ios":"levelo://app?vid=0994d7f0-fa2e-480f-b967-2b1e1b476b78"},"vehicle_type_id":"4","last_reported":1729159779,"current_range_meters":16000,"station_id":"ce4bhu92rcd13ifvqi70","pricing_plan_id":"cebpf4jnsgd1na2vs0mg"},{"bike_id":"94205477-3904-442b-b987-9754f9f73cf5","system_id":"levelo_inurba_marseille","lat":43.23963,"lon":5.3663,"is_reserved":false,"is_disabled":false,"rental_uris":{"android":"levelo://app?vid=94205477-3904-442b-b987-9754f9f73cf5","ios":"levelo://app?vid=94205477-3904-442b-b987-9754f9f73cf5"},"vehicle_type_id":"4","last_reported":1729159779,"current_range_meters":37600,"station_id":"ce4bhi12rcd13ifvqfp0","pricing_plan_id":"cebpf4jnsgd1na2vs0mg"},{"bike_id":"df8834dc-6561-4928-8d70-a3972a766a87","system_id":"levelo_inurba_marseille","lat":43.34142,"lon":5.40899,"is_reserved":false,"is_disabled":false,"rental_uris":{"android":"levelo://app?vid=df8834dc-6561-4928-8d70-a3972a766a87","ios":"levelo://app?vid=df8834dc-6561-4928-8d70-a3972a766a87"},"vehicle_type_id":"4","last_reported":1729159779,"current_range_meters":33200,"station_id":"ce4bhqh2rcd13ifvqhlg","pricing_plan_id":"cebpf4jnsgd1na2vs0mg"},{"bike_id":"66ccc46d-618e-4760-b09c-27382152bdab","system_id":"levelo_inurba_marseille","lat":43.23199,"lon":5.35548,"is_reserved":false,"is_disabled":false,"rental_uris":{"android":"levelo://app?vid=66ccc46d-618e-4760-b09c-27382152bdab","ios":"levelo://app?vid=66ccc46d-618e-4760-b09c-27382152bdab"},"vehicle_type_id":"4","last_reported":1729159779,"current_range_meters":33600,"station_id":"ce4bhu92rcd13ifvqi70","pricing_plan_id":"cebpf4jnsgd1na2vs0mg"},{"bike_id":"e3481a70-d492-4dfa-ba76-f8d71b92ab60","system_id":"levelo_inurba_marseille","lat":43.28323,"lon":5.41145,"is_reserved":false,"is_disabled":false,"rental_uris":{"android":"levelo://app?vid=e3481a70-d492-4dfa-ba76-f8d71b92ab60","ios":"levelo://app?vid=e3481a70-d492-4dfa-ba76-f8d71b92ab60"},"vehicle_type_id":"4","last_reported":1729159779,"current_range_meters":8000,"station_id":"","pricing_plan_id":"cebpf4jnsgd1na2vs0mg"},{"bike_id":"bdb35537-e146-4505-aa2c-9bd36f349ae8","system_id":"levelo_inurba_marseille","lat":43.31351,"lon":5.36728,"is_reserved":false,"is_disabled":false,"rental_uris":{"android":"levelo://app?vid=bdb35537-e146-4505-aa2c-9bd36f349ae8","ios":"levelo://app?vid=bdb35537-e146-4505-aa2c-9bd36f349ae8"},"vehicle_type_id":"4","last_reported":1729159779,"current_range_meters":6800,"station_id":"ce4bgr92rcd13ifvqc6g","pricing_plan_id":"cebpf4jnsgd1na2vs0mg"},{"bike_id":"30404aca-08a3-4264-987a-aa6acb1f5cf1","system_id":"levelo_inurba_marseille","lat":43.25939,"lon":5.40902,"is_reserved":false,"is_disabled":false,"rental_uris":{"android":"levelo://app?vid=30404aca-08a3-4264-987a-aa6acb1f5cf1","ios":"levelo://app?vid=30404aca-08a3-4264-987a-aa6acb1f5cf1"},"vehicle_type_id":"4","last_reported":1729159779,"current_range_meters":20000,"station_id":"ce4bhm92rcd13ifvqglg","pricing_plan_id":"cebpf4jnsgd1na2vs0mg"},{"bike_id":"6300df2c-b9fe-4275-916d-dd75e59140c9","system_id":"levelo_inurba_marseille","lat":43.23196,"lon":5.35548,"is_reserved":false,"is_disabled":false,"rental_uris":{"android":"levelo://app?vid=6300df2c-b9fe-4275-916d-dd75e59140c9","ios":"levelo://app?vid=6300df2c-b9fe-4275-916d-dd75e59140c9"},"vehicle_type_id":"4","last_reported":1729159779,"current_range_meters":34000,"station_id":"ce4bhu92rcd13ifvqi70","pricing_plan_id":"cebpf4jnsgd1na2vs0mg"},{"bike_id":"0de91ab7-268c-43ac-a6e3-ae9128e42ac2","system_id":"levelo_inurba_marseille","lat":43.23148,"lon":5.4371,"is_reserved":false,"is_disabled":false,"rental_uris":{"android":"levelo://app?vid=0de91ab7-268c-43ac-a6e3-ae9128e42ac2","ios":"levelo://app?vid=0de91ab7-268c-43ac-a6e3-ae9128e42ac2"},"vehicle_type_id":"4","last_reported":1729159779,"current_range_meters":38400,"station_id":"ce4bhmp2rcd13ifvqgog","pricing_plan_id":"cebpf4jnsgd1na2vs0mg"},{"bike_id":"85218a26-4c69-4429-921e-355117d1f1af","system_id":"levelo_inurba_marseille","lat":43.24997,"lon":5.38936,"is_reserved":false,"is_disabled":false,"rental_uris":{"android":"levelo://app?vid=85218a26-4c69-4429-921e-355117d1f1af","ios":"levelo://app?vid=85218a26-4c69-4429-921e-355117d1f1af"},"vehicle_type_id":"4","last_reported":1729159779,"current_range_meters":38400,"station_id":"ce4bhgp2rcd13ifvqfd0","pricing_plan_id":"cebpf4jnsgd1na2vs0mg"},{"bike_id":"20c29f99-0e3c-45bb-837b-976b5cc98468","system_id":"levelo_inurba_marseille","lat":43.23156,"lon":5.43705,"is_reserved":false,"is_disabled":false,"rental_uris":{"android":"levelo://app?vid=20c29f99-0e3c-45bb-837b-976b5cc98468","ios":"levelo://app?vid=20c29f99-0e3c-45bb-837b-976b5cc98468"},"vehicle_type_id":"4","last_reported":1729159779,"current_range_meters":38400,"station_id":"ce4bhmp2rcd13ifvqgog","pricing_plan_id":"cebpf4jnsgd1na2vs0mg"},{"bike_id":"18666086-ee5b-4930-b3aa-e27d6f666049","system_id":"levelo_inurba_marseille","lat":43.27807,"lon":5.40724,"is_reserved":false,"is_disabled":false,"rental_uris":{"android":"levelo://app?vid=18666086-ee5b-4930-b3aa-e27d6f666049","ios":"levelo://app?vid=18666086-ee5b-4930-b3aa-e27d6f666049"},"vehicle_type_id":"4","last_reported":1729159779,"current_range_meters":38400,"station_id":"ce4bhnh2rcd13ifvqgtg","pricing_plan_id":"cebpf4jnsgd1na2vs0mg"},{"bike_id":"a2b2864f-6afb-46e5-a502-9789958951c7","system_id":"levelo_inurba_marseille","lat":43.25929,"lon":5.40914,"is_reserved":false,"is_disabled":false,"rental_uris":{"android":"levelo://app?vid=a2b2864f-6afb-46e5-a502-9789958951c7","ios":"levelo://app?vid=a2b2864f-6afb-46e5-a502-9789958951c7"},"vehicle_type_id":"4","last_reported":1729159779,"current_range_meters":38000,"station_id":"ce4bhm92rcd13ifvqglg","pricing_plan_id":"cebpf4jnsgd1na2vs0mg"},{"bike_id":"4562e9bb-7c1e-4e0e-95e1-858d0f8d86d1","system_id":"levelo_inurba_marseille","lat":43.23196,"lon":5.35553,"is_reserved":false,"is_disabled":false,"rental_uris":{"android":"levelo://app?vid=4562e9bb-7c1e-4e0e-95e1-858d0f8d86d1","ios":"levelo://app?vid=4562e9bb-7c1e-4e0e-95e1-858d0f8d86d1"},"vehicle_type_id":"4","last_reported":1729159779,"current_range_meters":8400,"station_id":"ce4bhu92rcd13ifvqi70","pricing_plan_id":"cebpf4jnsgd1na2vs0mg"},{"bike_id":"52968dc5-b789-4d8b-aa70-892e14623757","system_id":"levelo_inurba_marseille","lat":43.29535,"lon":5.39049,"is_reserved":false,"is_disabled":false,"rental_uris":{"android":"levelo://app?vid=52968dc5-b789-4d8b-aa70-892e14623757","ios":"levelo://app?vid=52968dc5-b789-4d8b-aa70-892e14623757"},"vehicle_type_id":"4","last_reported":1729159779,"current_range_meters":38800,"station_id":"ce4bh3p2rcd13ifvqdp0","pricing_plan_id":"cebpf4jnsgd1na2vs0mg"},{"bike_id":"c60ae59c-5f3f-493b-82be-9fdc769a1273","system_id":"levelo_inurba_marseille","lat":43.24087,"lon":5.37753,"is_reserved":false,"is_disabled":false,"rental_uris":{"android":"levelo://app?vid=c60ae59c-5f3f-493b-82be-9fdc769a1273","ios":"levelo://app?vid=c60ae59c-5f3f-493b-82be-9fdc769a1273"},"vehicle_type_id":"4","last_reported":1729159779,"current_range_meters":8000,"station_id":"ce4bhnp2rcd13ifvqgvg","pricing_plan_id":"cebpf4jnsgd1na2vs0mg"},{"bike_id":"2140b6a3-5118-4150-823e-9225aeb56201","system_id":"levelo_inurba_marseille","lat":43.23188,"lon":5.35542,"is_reserved":false,"is_disabled":false,"rental_uris":{"android":"levelo://app?vid=2140b6a3-5118-4150-823e-9225aeb56201","ios":"levelo://app?vid=2140b6a3-5118-4150-823e-9225aeb56201"},"vehicle_type_id":"4","last_reported":1729159779,"current_range_meters":36800,"station_id":"ce4bhu92rcd13ifvqi70","pricing_plan_id":"cebpf4jnsgd1na2vs0mg"},{"bike_id":"66a05f27-267a-4acb-b172-bf717edee1d4","system_id":"levelo_inurba_marseille","lat":43.297917,"lon":5.381075,"is_reserved":false,"is_disabled":false,"rental_uris":{"android":"levelo://app?vid=66a05f27-267a-4acb-b172-bf717edee1d4","ios":"levelo://app?vid=66a05f27-267a-4acb-b172-bf717edee1d4"},"vehicle_type_id":"4","last_reported":1729159779,"current_range_meters":11600,"station_id":"ce4bgip2rcd13ifvqbb0","pricing_plan_id":"cebpf4jnsgd1na2vs0mg"},{"bike_id":"858cdf1c-bd75-40f0-8c1e-51844cf6634f","system_id":"levelo_inurba_marseille","lat":43.26213,"lon":5.37443,"is_reserved":false,"is_disabled":false,"rental_uris":{"android":"levelo://app?vid=858cdf1c-bd75-40f0-8c1e-51844cf6634f","ios":"levelo://app?vid=858cdf1c-bd75-40f0-8c1e-51844cf6634f"},"vehicle_type_id":"4","last_reported":1729159779,"current_range_meters":38800,"station_id":"ce4bhgp2rcd13ifvqfc0","pricing_plan_id":"cebpf4jnsgd1na2vs0mg"},{"bike_id":"e4641a01-72c6-47e7-b438-c8bd0e170d1f","system_id":"levelo_inurba_marseille","lat":43.29785,"lon":5.37086,"is_reserved":false,"is_disabled":false,"rental_uris":{"android":"levelo://app?vid=e4641a01-72c6-47e7-b438-c8bd0e170d1f","ios":"levelo://app?vid=e4641a01-72c6-47e7-b438-c8bd0e170d1f"},"vehicle_type_id":"4","last_reported":1729159779,"current_range_meters":38400,"station_id":"ce4bgop2rcd13ifvqc1g","pricing_plan_id":"cebpf4jnsgd1na2vs0mg"},{"bike_id":"c7c2759f-6756-4905-a201-8ac04e9864d0","system_id":"levelo_inurba_marseille","lat":43.26683,"lon":5.38281,"is_reserved":false,"is_disabled":false,"rental_uris":{"android":"levelo://app?vid=c7c2759f-6756-4905-a201-8ac04e9864d0","ios":"levelo://app?vid=c7c2759f-6756-4905-a201-8ac04e9864d0"},"vehicle_type_id":"4","last_reported":1729159779,"current_range_meters":40000,"station_id":"ce4bhg92rcd13ifvqf90","pricing_plan_id":"cebpf4jnsgd1na2vs0mg"},{"bike_id":"3d7f24d0-8186-4b5e-a3d8-9a5c4bd24af2","system_id":"levelo_inurba_marseille","lat":43.24174,"lon":5.39726,"is_reserved":false,"is_disabled":false,"rental_uris":{"android":"levelo://app?vid=3d7f24d0-8186-4b5e-a3d8-9a5c4bd24af2","ios":"levelo://app?vid=3d7f24d0-8186-4b5e-a3d8-9a5c4bd24af2"},"vehicle_type_id":"4","last_reported":1729159779,"current_range_meters":37600,"station_id":"ce4bhn12rcd13ifvqgpg","pricing_plan_id":"cebpf4jnsgd1na2vs0mg"},{"bike_id":"552d9b7d-5cf2-4331-880c-c44e517e73af","system_id":"levelo_inurba_marseille","lat":43.23182,"lon":5.39986,"is_reserved":false,"is_disabled":false,"rental_uris":{"android":"levelo://app?vid=552d9b7d-5cf2-4331-880c-c44e517e73af","ios":"levelo://app?vid=552d9b7d-5cf2-4331-880c-c44e517e73af"},"vehicle_type_id":"4","last_reported":1729159779,"current_range_meters":38800,"station_id":"ce4bhn12rcd13ifvqgqg","pricing_plan_id":"cebpf4jnsgd1na2vs0mg"},{"bike_id":"d79f5525-0de1-4334-802e-69c7e1b3ac65","system_id":"levelo_inurba_marseille","lat":43.24649,"lon":5.38893,"is_reserved":false,"is_disabled":false,"rental_uris":{"android":"levelo://app?vid=d79f5525-0de1-4334-802e-69c7e1b3ac65","ios":"levelo://app?vid=d79f5525-0de1-4334-802e-69c7e1b3ac65"},"vehicle_type_id":"4","last_reported":1729159779,"current_range_meters":20400,"station_id":"ce4bhg12rcd13ifvqf60","pricing_plan_id":"cebpf4jnsgd1na2vs0mg"},{"bike_id":"21bb0b99-45c2-4f72-9036-ecc8564215e2","system_id":"levelo_inurba_marseille","lat":43.32363,"lon":5.38886,"is_reserved":false,"is_disabled":false,"rental_uris":{"android":"levelo://app?vid=21bb0b99-45c2-4f72-9036-ecc8564215e2","ios":"levelo://app?vid=21bb0b99-45c2-4f72-9036-ecc8564215e2"},"vehicle_type_id":"4","last_reported":1729159779,"current_range_meters":29600,"station_id":"ce4bhqp2rcd13ifvqhog","pricing_plan_id":"cebpf4jnsgd1na2vs0mg"},{"bike_id":"7228aff2-78b1-42c2-b1a5-60f38a86cc67","system_id":"levelo_inurba_marseille","lat":43.27665,"lon":5.38884,"is_reserved":false,"is_disabled":false,"rental_uris":{"android":"levelo://app?vid=7228aff2-78b1-42c2-b1a5-60f38a86cc67","ios":"levelo://app?vid=7228aff2-78b1-42c2-b1a5-60f38a86cc67"},"vehicle_type_id":"4","last_reported":1729159779,"current_range_meters":16400,"station_id":"ce4bhi12rcd13ifvqfo0","pricing_plan_id":"cebpf4jnsgd1na2vs0mg"},{"bike_id":"83bcafb6-7740-4133-8b56-4bf302222f17","system_id":"levelo_inurba_marseille","lat":43.23965,"lon":5.36638,"is_reserved":false,"is_disabled":false,"rental_uris":{"android":"levelo://app?vid=83bcafb6-7740-4133-8b56-4bf302222f17","ios":"levelo://app?vid=83bcafb6-7740-4133-8b56-4bf302222f17"},"vehicle_type_id":"4","last_reported":1729159779,"current_range_meters":4800,"station_id":"ce4bhi12rcd13ifvqfp0","pricing_plan_id":"cebpf4jnsgd1na2vs0mg"},{"bike_id":"7772d39f-5e28-445c-af91-069b0cf63793","system_id":"levelo_inurba_marseille","lat":43.33756,"lon":5.37444,"is_reserved":false,"is_disabled":false,"rental_uris":{"android":"levelo://app?vid=7772d39f-5e28-445c-af91-069b0cf63793","ios":"levelo://app?vid=7772d39f-5e28-445c-af91-069b0cf63793"},"vehicle_type_id":"4","last_reported":1729159779,"current_range_meters":16400,"station_id":"","pricing_plan_id":"cebpf4jnsgd1na2vs0mg"},{"bike_id":"81f2a8f6-c511-428d-8c7a-09321d09ac6e","system_id":"levelo_inurba_marseille","lat":43.26215,"lon":5.37445,"is_reserved":false,"is_disabled":false,"rental_uris":{"android":"levelo://app?vid=81f2a8f6-c511-428d-8c7a-09321d09ac6e","ios":"levelo://app?vid=81f2a8f6-c511-428d-8c7a-09321d09ac6e"},"vehicle_type_id":"4","last_reported":1729159779,"current_range_meters":18800,"station_id":"ce4bhgp2rcd13ifvqfc0","pricing_plan_id":"cebpf4jnsgd1na2vs0mg"},{"bike_id":"3213665e-989c-4d22-9f5a-31c8522597dd","system_id":"levelo_inurba_marseille","lat":43.296,"lon":5.36142,"is_reserved":false,"is_disabled":false,"rental_uris":{"android":"levelo://app?vid=3213665e-989c-4d22-9f5a-31c8522597dd","ios":"levelo://app?vid=3213665e-989c-4d22-9f5a-31c8522597dd"},"vehicle_type_id":"4","last_reported":1729159779,"current_range_meters":28800,"station_id":"","pricing_plan_id":"cebpf4jnsgd1na2vs0mg"},{"bike_id":"3f211a83-46fa-4c28-b9fc-781f2ac471b9","system_id":"levelo_inurba_marseille","lat":43.30309,"lon":5.36903,"is_reserved":false,"is_disabled":false,"rental_uris":{"android":"levelo://app?vid=3f211a83-46fa-4c28-b9fc-781f2ac471b9","ios":"levelo://app?vid=3f211a83-46fa-4c28-b9fc-781f2ac471b9"},"vehicle_type_id":"4","last_reported":1729159779,"current_range_meters":36400,"station_id":"ce4bgqh2rcd13ifvqc5g","pricing_plan_id":"cebpf4jnsgd1na2vs0mg"},{"bike_id":"279e289d-9b1b-40b7-ab63-31b6f0b20953","system_id":"levelo_inurba_marseille","lat":43.33611,"lon":5.40968,"is_reserved":false,"is_disabled":false,"rental_uris":{"android":"levelo://app?vid=279e289d-9b1b-40b7-ab63-31b6f0b20953","ios":"levelo://app?vid=279e289d-9b1b-40b7-ab63-31b6f0b20953"},"vehicle_type_id":"4","last_reported":1729159779,"current_range_meters":6800,"station_id":"","pricing_plan_id":"cebpf4jnsgd1na2vs0mg"},{"bike_id":"ba69c766-7b52-4df2-9a01-12b1972d425e","system_id":"levelo_inurba_marseille","lat":43.33608,"lon":5.41033,"is_reserved":false,"is_disabled":false,"rental_uris":{"android":"levelo://app?vid=ba69c766-7b52-4df2-9a01-12b1972d425e","ios":"levelo://app?vid=ba69c766-7b52-4df2-9a01-12b1972d425e"},"vehicle_type_id":"4","last_reported":1729159779,"current_range_meters":36000,"station_id":"ce4bhqh2rcd13ifvqhmg","pricing_plan_id":"cebpf4jnsgd1na2vs0mg"},{"bike_id":"4ef9e1dc-d090-411d-b0c4-45849d6691bb","system_id":"levelo_inurba_marseille","lat":43.24805,"lon":5.37457,"is_reserved":false,"is_disabled":false,"rental_uris":{"android":"levelo://app?vid=4ef9e1dc-d090-411d-b0c4-45849d6691bb","ios":"levelo://app?vid=4ef9e1dc-d090-411d-b0c4-45849d6691bb"},"vehicle_type_id":"4","last_reported":1729159779,"current_range_meters":30400,"station_id":"ce4bhgh2rcd13ifvqfb0","pricing_plan_id":"cebpf4jnsgd1na2vs0mg"},{"bike_id":"bf50d71c-390d-43f9-933f-7d7bfd69bb07","system_id":"levelo_inurba_marseille","lat":43.305585,"lon":5.36538,"is_reserved":false,"is_disabled":false,"rental_uris":{"android":"levelo://app?vid=bf50d71c-390d-43f9-933f-7d7bfd69bb07","ios":"levelo://app?vid=bf50d71c-390d-43f9-933f-7d7bfd69bb07"},"vehicle_type_id":"4","last_reported":1729159779,"current_range_meters":37600,"station_id":"ce4bgs12rcd13ifvqcag","pricing_plan_id":"cebpf4jnsgd1na2vs0mg"},{"bike_id":"1641b826-604a-4181-8231-dca386f637a6","system_id":"levelo_inurba_marseille","lat":43.23187,"lon":5.35567,"is_reserved":false,"is_disabled":false,"rental_uris":{"android":"levelo://app?vid=1641b826-604a-4181-8231-dca386f637a6","ios":"levelo://app?vid=1641b826-604a-4181-8231-dca386f637a6"},"vehicle_type_id":"4","last_reported":1729159779,"current_range_meters":34800,"station_id":"ce4bhu92rcd13ifvqi70","pricing_plan_id":"cebpf4jnsgd1na2vs0mg"},{"bike_id":"89211ee2-076f-4df3-92bd-cd8885f2e76d","system_id":"levelo_inurba_marseille","lat":43.23194,"lon":5.35563,"is_reserved":false,"is_disabled":false,"rental_uris":{"android":"levelo://app?vid=89211ee2-076f-4df3-92bd-cd8885f2e76d","ios":"levelo://app?vid=89211ee2-076f-4df3-92bd-cd8885f2e76d"},"vehicle_type_id":"4","last_reported":1729159779,"current_range_meters":34000,"station_id":"ce4bhu92rcd13ifvqi70","pricing_plan_id":"cebpf4jnsgd1na2vs0mg"},{"bike_id":"22ee74a2-7428-4203-800f-11a417fac485","system_id":"levelo_inurba_marseille","lat":43.27179,"lon":5.40993,"is_reserved":false,"is_disabled":false,"rental_uris":{"android":"levelo://app?vid=22ee74a2-7428-4203-800f-11a417fac485","ios":"levelo://app?vid=22ee74a2-7428-4203-800f-11a417fac485"},"vehicle_type_id":"4","last_reported":1729159779,"current_range_meters":10800,"station_id":"ce4bhl12rcd13ifvqgf0","pricing_plan_id":"cebpf4jnsgd1na2vs0mg"},{"bike_id":"114fb98a-0e4e-4ec6-8816-311d97ffe53c","system_id":"levelo_inurba_marseille","lat":43.29433,"lon":5.39761,"is_reserved":false,"is_disabled":false,"rental_uris":{"android":"levelo://app?vid=114fb98a-0e4e-4ec6-8816-311d97ffe53c","ios":"levelo://app?vid=114fb98a-0e4e-4ec6-8816-311d97ffe53c"},"vehicle_type_id":"4","last_reported":1729159779,"current_range_meters":30800,"station_id":"ce4bh3h2rcd13ifvqdo0","pricing_plan_id":"cebpf4jnsgd1na2vs0mg"},{"bike_id":"48e6c989-8e4e-4330-9315-8bc9e5c40a82","system_id":"levelo_inurba_marseille","lat":43.30313,"lon":5.36888,"is_reserved":false,"is_disabled":false,"rental_uris":{"android":"levelo://app?vid=48e6c989-8e4e-4330-9315-8bc9e5c40a82","ios":"levelo://app?vid=48e6c989-8e4e-4330-9315-8bc9e5c40a82"},"vehicle_type_id":"4","last_reported":1729159779,"current_range_meters":20000,"station_id":"ce4bgqh2rcd13ifvqc5g","pricing_plan_id":"cebpf4jnsgd1na2vs0mg"},{"bike_id":"32a49fe8-5752-4e25-9677-224e653ef32f","system_id":"levelo_inurba_marseille","lat":43.24087,"lon":5.37748,"is_reserved":false,"is_disabled":false,"rental_uris":{"android":"levelo://app?vid=32a49fe8-5752-4e25-9677-224e653ef32f","ios":"levelo://app?vid=32a49fe8-5752-4e25-9677-224e653ef32f"},"vehicle_type_id":"4","last_reported":1729159779,"current_range_meters":19600,"station_id":"ce4bhnp2rcd13ifvqgvg","pricing_plan_id":"cebpf4jnsgd1na2vs0mg"},{"bike_id":"d39a5687-1116-472f-a8fb-62c0d09c90d0","system_id":"levelo_inurba_marseille","lat":43.23152,"lon":5.43711,"is_reserved":false,"is_disabled":false,"rental_uris":{"android":"levelo://app?vid=d39a5687-1116-472f-a8fb-62c0d09c90d0","ios":"levelo://app?vid=d39a5687-1116-472f-a8fb-62c0d09c90d0"},"vehicle_type_id":"4","last_reported":1729159779,"current_range_meters":37600,"station_id":"ce4bhmp2rcd13ifvqgog","pricing_plan_id":"cebpf4jnsgd1na2vs0mg"},{"bike_id":"c8687817-23e8-4d53-870b-25e31ac622ca","system_id":"levelo_inurba_marseille","lat":43.26882,"lon":5.369781,"is_reserved":false,"is_disabled":false,"rental_uris":{"android":"levelo://app?vid=c8687817-23e8-4d53-870b-25e31ac622ca","ios":"levelo://app?vid=c8687817-23e8-4d53-870b-25e31ac622ca"},"vehicle_type_id":"4","last_reported":1729159779,"current_range_meters":24000,"station_id":"","pricing_plan_id":"cebpf4jnsgd1na2vs0mg"},{"bike_id":"a55e8fbe-905d-4d18-9161-85a810cbc372","system_id":"levelo_inurba_marseille","lat":43.31115,"lon":5.37763,"is_reserved":false,"is_disabled":false,"rental_uris":{"android":"levelo://app?vid=a55e8fbe-905d-4d18-9161-85a810cbc372","ios":"levelo://app?vid=a55e8fbe-905d-4d18-9161-85a810cbc372"},"vehicle_type_id":"4","last_reported":1729159779,"current_range_meters":34800,"station_id":"ce4bgt92rcd13ifvqcg0","pricing_plan_id":"cebpf4jnsgd1na2vs0mg"},{"bike_id":"87440bd7-4730-412f-b52f-03b263c3d6ba","system_id":"levelo_inurba_marseille","lat":43.23183,"lon":5.35569,"is_reserved":false,"is_disabled":false,"rental_uris":{"android":"levelo://app?vid=87440bd7-4730-412f-b52f-03b263c3d6ba","ios":"levelo://app?vid=87440bd7-4730-412f-b52f-03b263c3d6ba"},"vehicle_type_id":"4","last_reported":1729159779,"current_range_meters":19600,"station_id":"ce4bhu92rcd13ifvqi70","pricing_plan_id":"cebpf4jnsgd1na2vs0mg"},{"bike_id":"8937c157-fc3b-4704-af92-e339d8163a54","system_id":"levelo_inurba_marseille","lat":43.29587,"lon":5.36735,"is_reserved":false,"is_disabled":false,"rental_uris":{"android":"levelo://app?vid=8937c157-fc3b-4704-af92-e339d8163a54","ios":"levelo://app?vid=8937c157-fc3b-4704-af92-e339d8163a54"},"vehicle_type_id":"4","last_reported":1729159779,"current_range_meters":24000,"station_id":"ce4bgph2rcd13ifvqc2g","pricing_plan_id":"cebpf4jnsgd1na2vs0mg"},{"bike_id":"074508ee-39bf-49ef-9f77-db3c40edf6ca","system_id":"levelo_inurba_marseille","lat":43.29304,"lon":5.37174,"is_reserved":false,"is_disabled":false,"rental_uris":{"android":"levelo://app?vid=074508ee-39bf-49ef-9f77-db3c40edf6ca","ios":"levelo://app?vid=074508ee-39bf-49ef-9f77-db3c40edf6ca"},"vehicle_type_id":"4","last_reported":1729159779,"current_range_meters":37600,"station_id":"ce4bgh92rcd13ifvqb40","pricing_plan_id":"cebpf4jnsgd1na2vs0mg"},{"bike_id":"a57e051e-cba3-4629-93a7-086ce79b55c2","system_id":"levelo_inurba_marseille","lat":43.26193,"lon":5.37458,"is_reserved":false,"is_disabled":false,"rental_uris":{"android":"levelo://app?vid=a57e051e-cba3-4629-93a7-086ce79b55c2","ios":"levelo://app?vid=a57e051e-cba3-4629-93a7-086ce79b55c2"},"vehicle_type_id":"4","last_reported":1729159779,"current_range_meters":35600,"station_id":"ce4bhgp2rcd13ifvqfc0","pricing_plan_id":"cebpf4jnsgd1na2vs0mg"},{"bike_id":"d0be02d2-1ab6-43f4-be37-9a5bca71492c","system_id":"levelo_inurba_marseille","lat":43.3014,"lon":5.37426,"is_reserved":false,"is_disabled":false,"rental_uris":{"android":"levelo://app?vid=d0be02d2-1ab6-43f4-be37-9a5bca71492c","ios":"levelo://app?vid=d0be02d2-1ab6-43f4-be37-9a5bca71492c"},"vehicle_type_id":"4","last_reported":1729159779,"current_range_meters":36400,"station_id":"ce4bgs92rcd13ifvqcc0","pricing_plan_id":"cebpf4jnsgd1na2vs0mg"},{"bike_id":"8aa3e657-627a-46c4-9b12-f9209866bf38","system_id":"levelo_inurba_marseille","lat":43.29854,"lon":5.36265,"is_reserved":false,"is_disabled":false,"rental_uris":{"android":"levelo://app?vid=8aa3e657-627a-46c4-9b12-f9209866bf38","ios":"levelo://app?vid=8aa3e657-627a-46c4-9b12-f9209866bf38"},"vehicle_type_id":"4","last_reported":1729159779,"current_range_meters":24400,"station_id":"ce4bgpp2rcd13ifvqc3g","pricing_plan_id":"cebpf4jnsgd1na2vs0mg"},{"bike_id":"bf2089b0-26e1-414a-a423-b4e5749ee546","system_id":"levelo_inurba_marseille","lat":43.28412,"lon":5.35003,"is_reserved":false,"is_disabled":false,"rental_uris":{"android":"levelo://app?vid=bf2089b0-26e1-414a-a423-b4e5749ee546","ios":"levelo://app?vid=bf2089b0-26e1-414a-a423-b4e5749ee546"},"vehicle_type_id":"4","last_reported":1729159779,"current_range_meters":18000,"station_id":"ce4bhbh2rcd13ifvqepg","pricing_plan_id":"cebpf4jnsgd1na2vs0mg"},{"bike_id":"76f97a37-6d0d-4f0b-b7be-162e1d446166","system_id":"levelo_inurba_marseille","lat":43.2808,"lon":5.39665,"is_reserved":false,"is_disabled":false,"rental_uris":{"android":"levelo://app?vid=76f97a37-6d0d-4f0b-b7be-162e1d446166","ios":"levelo://app?vid=76f97a37-6d0d-4f0b-b7be-162e1d446166"},"vehicle_type_id":"4","last_reported":1729159779,"current_range_meters":37600,"station_id":"ce4bho12rcd13ifvqh2g","pricing_plan_id":"cebpf4jnsgd1na2vs0mg"},{"bike_id":"d6bfbeef-5076-4964-b235-93e5410a9a05","system_id":"levelo_inurba_marseille","lat":43.26558,"lon":5.37284,"is_reserved":false,"is_disabled":false,"rental_uris":{"android":"levelo://app?vid=d6bfbeef-5076-4964-b235-93e5410a9a05","ios":"levelo://app?vid=d6bfbeef-5076-4964-b235-93e5410a9a05"},"vehicle_type_id":"4","last_reported":1729159779,"current_range_meters":38400,"station_id":"ce4bhg12rcd13ifvqf70","pricing_plan_id":"cebpf4jnsgd1na2vs0mg"},{"bike_id":"49c3db25-f66c-4541-ad54-af787a8b9e0e","system_id":"levelo_inurba_marseille","lat":43.27175,"lon":5.40987,"is_reserved":false,"is_disabled":false,"rental_uris":{"android":"levelo://app?vid=49c3db25-f66c-4541-ad54-af787a8b9e0e","ios":"levelo://app?vid=49c3db25-f66c-4541-ad54-af787a8b9e0e"},"vehicle_type_id":"4","last_reported":1729159779,"current_range_meters":24800,"station_id":"ce4bhl12rcd13ifvqgf0","pricing_plan_id":"cebpf4jnsgd1na2vs0mg"},{"bike_id":"f089d4a1-7823-433a-a1c5-4fe27519edd0","system_id":"levelo_inurba_marseille","lat":43.23962,"lon":5.36643,"is_reserved":false,"is_disabled":false,"rental_uris":{"android":"levelo://app?vid=f089d4a1-7823-433a-a1c5-4fe27519edd0","ios":"levelo://app?vid=f089d4a1-7823-433a-a1c5-4fe27519edd0"},"vehicle_type_id":"4","last_reported":1729159779,"current_range_meters":35600,"station_id":"ce4bhi12rcd13ifvqfp0","pricing_plan_id":"cebpf4jnsgd1na2vs0mg"},{"bike_id":"cd1de890-fdf5-4589-a195-980771ff4335","system_id":"levelo_inurba_marseille","lat":43.23151,"lon":5.4371,"is_reserved":false,"is_disabled":false,"rental_uris":{"android":"levelo://app?vid=cd1de890-fdf5-4589-a195-980771ff4335","ios":"levelo://app?vid=cd1de890-fdf5-4589-a195-980771ff4335"},"vehicle_type_id":"4","last_reported":1729159779,"current_range_meters":38800,"station_id":"ce4bhmp2rcd13ifvqgog","pricing_plan_id":"cebpf4jnsgd1na2vs0mg"},{"bike_id":"1873aaed-de74-45c2-ad2c-aacd7ba4370d","system_id":"levelo_inurba_marseille","lat":43.24178,"lon":5.39735,"is_reserved":false,"is_disabled":false,"rental_uris":{"android":"levelo://app?vid=1873aaed-de74-45c2-ad2c-aacd7ba4370d","ios":"levelo://app?vid=1873aaed-de74-45c2-ad2c-aacd7ba4370d"},"vehicle_type_id":"4","last_reported":1729159779,"current_range_meters":31200,"station_id":"ce4bhn12rcd13ifvqgpg","pricing_plan_id":"cebpf4jnsgd1na2vs0mg"},{"bike_id":"53f11546-ee0f-4227-921a-a57d93ed79b4","system_id":"levelo_inurba_marseille","lat":43.23149,"lon":5.43716,"is_reserved":false,"is_disabled":false,"rental_uris":{"android":"levelo://app?vid=53f11546-ee0f-4227-921a-a57d93ed79b4","ios":"levelo://app?vid=53f11546-ee0f-4227-921a-a57d93ed79b4"},"vehicle_type_id":"4","last_reported":1729159779,"current_range_meters":23200,"station_id":"ce4bhmp2rcd13ifvqgog","pricing_plan_id":"cebpf4jnsgd1na2vs0mg"},{"bike_id":"648b6b48-311f-4c42-aa8d-803f0a68a464","system_id":"levelo_inurba_marseille","lat":43.33613,"lon":5.4104,"is_reserved":false,"is_disabled":false,"rental_uris":{"android":"levelo://app?vid=648b6b48-311f-4c42-aa8d-803f0a68a464","ios":"levelo://app?vid=648b6b48-311f-4c42-aa8d-803f0a68a464"},"vehicle_type_id":"4","last_reported":1729159779,"current_range_meters":21600,"station_id":"ce4bhqh2rcd13ifvqhmg","pricing_plan_id":"cebpf4jnsgd1na2vs0mg"},{"bike_id":"25f491e5-d0ff-4e5e-94b3-5535a7d3231b","system_id":"levelo_inurba_marseille","lat":43.24545,"lon":5.39522,"is_reserved":false,"is_disabled":false,"rental_uris":{"android":"levelo://app?vid=25f491e5-d0ff-4e5e-94b3-5535a7d3231b","ios":"levelo://app?vid=25f491e5-d0ff-4e5e-94b3-5535a7d3231b"},"vehicle_type_id":"4","last_reported":1729159779,"current_range_meters":39200,"station_id":"ce4bhlp2rcd13ifvqgjg","pricing_plan_id":"cebpf4jnsgd1na2vs0mg"},{"bike_id":"5989016e-b932-4157-a83f-d0dee98f1f7a","system_id":"levelo_inurba_marseille","lat":43.30546,"lon":5.36546,"is_reserved":false,"is_disabled":false,"rental_uris":{"android":"levelo://app?vid=5989016e-b932-4157-a83f-d0dee98f1f7a","ios":"levelo://app?vid=5989016e-b932-4157-a83f-d0dee98f1f7a"},"vehicle_type_id":"4","last_reported":1729159779,"current_range_meters":38800,"station_id":"ce4bgs12rcd13ifvqcag","pricing_plan_id":"cebpf4jnsgd1na2vs0mg"},{"bike_id":"f5975b0a-70fb-4fa4-b844-2543247ddda0","system_id":"levelo_inurba_marseille","lat":43.24547,"lon":5.39527,"is_reserved":false,"is_disabled":false,"rental_uris":{"android":"levelo://app?vid=f5975b0a-70fb-4fa4-b844-2543247ddda0","ios":"levelo://app?vid=f5975b0a-70fb-4fa4-b844-2543247ddda0"},"vehicle_type_id":"4","last_reported":1729159779,"current_range_meters":39200,"station_id":"ce4bhlp2rcd13ifvqgjg","pricing_plan_id":"cebpf4jnsgd1na2vs0mg"},{"bike_id":"06bb7500-aaac-4ac4-af5f-b0d62ba39584","system_id":"levelo_inurba_marseille","lat":43.30911,"lon":5.3686,"is_reserved":false,"is_disabled":false,"rental_uris":{"android":"levelo://app?vid=06bb7500-aaac-4ac4-af5f-b0d62ba39584","ios":"levelo://app?vid=06bb7500-aaac-4ac4-af5f-b0d62ba39584"},"vehicle_type_id":"4","last_reported":1729159779,"current_range_meters":30800,"station_id":"ce4bgn92rcd13ifvqbvg","pricing_plan_id":"cebpf4jnsgd1na2vs0mg"},{"bike_id":"f66f225b-c5ea-405e-af04-a1d8cc867613","system_id":"levelo_inurba_marseille","lat":43.29584,"lon":5.36732,"is_reserved":false,"is_disabled":false,"rental_uris":{"android":"levelo://app?vid=f66f225b-c5ea-405e-af04-a1d8cc867613","ios":"levelo://app?vid=f66f225b-c5ea-405e-af04-a1d8cc867613"},"vehicle_type_id":"4","last_reported":1729159779,"current_range_meters":16800,"station_id":"ce4bgph2rcd13ifvqc2g","pricing_plan_id":"cebpf4jnsgd1na2vs0mg"},{"bike_id":"5b7d217b-b6a3-48b2-a7c0-1e484eaaea02","system_id":"levelo_inurba_marseille","lat":43.25941,"lon":5.40907,"is_reserved":false,"is_disabled":false,"rental_uris":{"android":"levelo://app?vid=5b7d217b-b6a3-48b2-a7c0-1e484eaaea02","ios":"levelo://app?vid=5b7d217b-b6a3-48b2-a7c0-1e484eaaea02"},"vehicle_type_id":"4","last_reported":1729159779,"current_range_meters":38400,"station_id":"ce4bhm92rcd13ifvqglg","pricing_plan_id":"cebpf4jnsgd1na2vs0mg"},{"bike_id":"292b9425-1372-40d4-bf0a-fe57aa779a41","system_id":"levelo_inurba_marseille","lat":43.23065,"lon":5.35492,"is_reserved":false,"is_disabled":false,"rental_uris":{"android":"levelo://app?vid=292b9425-1372-40d4-bf0a-fe57aa779a41","ios":"levelo://app?vid=292b9425-1372-40d4-bf0a-fe57aa779a41"},"vehicle_type_id":"4","last_reported":1729159779,"current_range_meters":24800,"station_id":"cpo3342slgdg3j2ifvpg","pricing_plan_id":"cebpf4jnsgd1na2vs0mg"},{"bike_id":"efeaea61-8512-4b75-bae8-c43941554118","system_id":"levelo_inurba_marseille","lat":43.2958,"lon":5.36746,"is_reserved":false,"is_disabled":false,"rental_uris":{"android":"levelo://app?vid=efeaea61-8512-4b75-bae8-c43941554118","ios":"levelo://app?vid=efeaea61-8512-4b75-bae8-c43941554118"},"vehicle_type_id":"4","last_reported":1729159779,"current_range_meters":28400,"station_id":"ce4bgph2rcd13ifvqc2g","pricing_plan_id":"cebpf4jnsgd1na2vs0mg"},{"bike_id":"6e0bc3c0-1ed2-4228-a068-46366103f4fd","system_id":"levelo_inurba_marseille","lat":43.29805,"lon":5.38089,"is_reserved":false,"is_disabled":false,"rental_uris":{"android":"levelo://app?vid=6e0bc3c0-1ed2-4228-a068-46366103f4fd","ios":"levelo://app?vid=6e0bc3c0-1ed2-4228-a068-46366103f4fd"},"vehicle_type_id":"4","last_reported":1729159779,"current_range_meters":24000,"station_id":"ce4bgip2rcd13ifvqbb0","pricing_plan_id":"cebpf4jnsgd1na2vs0mg"},{"bike_id":"c3cfbe2a-7ae0-4aba-b47a-8aba7ef90a5e","system_id":"levelo_inurba_marseille","lat":43.26685,"lon":5.3827,"is_reserved":false,"is_disabled":false,"rental_uris":{"android":"levelo://app?vid=c3cfbe2a-7ae0-4aba-b47a-8aba7ef90a5e","ios":"levelo://app?vid=c3cfbe2a-7ae0-4aba-b47a-8aba7ef90a5e"},"vehicle_type_id":"4","last_reported":1729159779,"current_range_meters":3600,"station_id":"ce4bhg92rcd13ifvqf90","pricing_plan_id":"cebpf4jnsgd1na2vs0mg"},{"bike_id":"5ab66e45-0165-4216-847f-4e1dfb4defc5","system_id":"levelo_inurba_marseille","lat":43.23152,"lon":5.43711,"is_reserved":false,"is_disabled":false,"rental_uris":{"android":"levelo://app?vid=5ab66e45-0165-4216-847f-4e1dfb4defc5","ios":"levelo://app?vid=5ab66e45-0165-4216-847f-4e1dfb4defc5"},"vehicle_type_id":"4","last_reported":1729159779,"current_range_meters":37600,"station_id":"ce4bhmp2rcd13ifvqgog","pricing_plan_id":"cebpf4jnsgd1na2vs0mg"},{"bike_id":"2a23ad8b-a80e-46ac-9bcc-9e473f334860","system_id":"levelo_inurba_marseille","lat":43.30358,"lon":5.41876,"is_reserved":false,"is_disabled":false,"rental_uris":{"android":"levelo://app?vid=2a23ad8b-a80e-46ac-9bcc-9e473f334860","ios":"levelo://app?vid=2a23ad8b-a80e-46ac-9bcc-9e473f334860"},"vehicle_type_id":"4","last_reported":1729159779,"current_range_meters":14400,"station_id":"ce4bhop2rcd13ifvqh7g","pricing_plan_id":"cebpf4jnsgd1na2vs0mg"},{"bike_id":"1f37b7e6-9139-4ccd-a095-e8bad37eaf87","system_id":"levelo_inurba_marseille","lat":43.25935,"lon":5.40904,"is_reserved":false,"is_disabled":false,"rental_uris":{"android":"levelo://app?vid=1f37b7e6-9139-4ccd-a095-e8bad37eaf87","ios":"levelo://app?vid=1f37b7e6-9139-4ccd-a095-e8bad37eaf87"},"vehicle_type_id":"4","last_reported":1729159779,"current_range_meters":15200,"station_id":"ce4bhm92rcd13ifvqglg","pricing_plan_id":"cebpf4jnsgd1na2vs0mg"},{"bike_id":"2774b68a-59b3-4787-b785-f42a30b7cb63","system_id":"levelo_inurba_marseille","lat":43.30543,"lon":5.36532,"is_reserved":false,"is_disabled":false,"rental_uris":{"android":"levelo://app?vid=2774b68a-59b3-4787-b785-f42a30b7cb63","ios":"levelo://app?vid=2774b68a-59b3-4787-b785-f42a30b7cb63"},"vehicle_type_id":"4","last_reported":1729159779,"current_range_meters":20800,"station_id":"ce4bgs12rcd13ifvqcag","pricing_plan_id":"cebpf4jnsgd1na2vs0mg"},{"bike_id":"005117c0-90a3-4ee2-af58-362346745aa6","system_id":"levelo_inurba_marseille","lat":43.27382,"lon":5.36258,"is_reserved":false,"is_disabled":false,"rental_uris":{"android":"levelo://app?vid=005117c0-90a3-4ee2-af58-362346745aa6","ios":"levelo://app?vid=005117c0-90a3-4ee2-af58-362346745aa6"},"vehicle_type_id":"4","last_reported":1729159779,"current_range_meters":3600,"station_id":"ce4bhbh2rcd13ifvqeo0","pricing_plan_id":"cebpf4jnsgd1na2vs0mg"},{"bike_id":"bc1080d4-ad20-42fa-9ed3-27d5678423a1","system_id":"levelo_inurba_marseille","lat":43.30549,"lon":5.36551,"is_reserved":false,"is_disabled":false,"rental_uris":{"android":"levelo://app?vid=bc1080d4-ad20-42fa-9ed3-27d5678423a1","ios":"levelo://app?vid=bc1080d4-ad20-42fa-9ed3-27d5678423a1"},"vehicle_type_id":"4","last_reported":1729159779,"current_range_meters":30400,"station_id":"ce4bgs12rcd13ifvqcag","pricing_plan_id":"cebpf4jnsgd1na2vs0mg"},{"bike_id":"72e2744f-e4a7-499c-8a87-b195f764a7c2","system_id":"levelo_inurba_marseille","lat":43.29931,"lon":5.36546,"is_reserved":false,"is_disabled":false,"rental_uris":{"android":"levelo://app?vid=72e2744f-e4a7-499c-8a87-b195f764a7c2","ios":"levelo://app?vid=72e2744f-e4a7-499c-8a87-b195f764a7c2"},"vehicle_type_id":"4","last_reported":1729159779,"current_range_meters":12400,"station_id":"ce4bgm92rcd13ifvqbr0","pricing_plan_id":"cebpf4jnsgd1na2vs0mg"},{"bike_id":"e3f7c29c-576b-4c66-9d05-01127c35876a","system_id":"levelo_inurba_marseille","lat":43.30535,"lon":5.36536,"is_reserved":false,"is_disabled":false,"rental_uris":{"android":"levelo://app?vid=e3f7c29c-576b-4c66-9d05-01127c35876a","ios":"levelo://app?vid=e3f7c29c-576b-4c66-9d05-01127c35876a"},"vehicle_type_id":"4","last_reported":1729159779,"current_range_meters":18000,"station_id":"ce4bgs12rcd13ifvqcag","pricing_plan_id":"cebpf4jnsgd1na2vs0mg"},{"bike_id":"29517644-3925-4037-a649-df9870d2ec08","system_id":"levelo_inurba_marseille","lat":43.24644,"lon":5.38898,"is_reserved":false,"is_disabled":false,"rental_uris":{"android":"levelo://app?vid=29517644-3925-4037-a649-df9870d2ec08","ios":"levelo://app?vid=29517644-3925-4037-a649-df9870d2ec08"},"vehicle_type_id":"4","last_reported":1729159779,"current_range_meters":8000,"station_id":"ce4bhg12rcd13ifvqf60","pricing_plan_id":"cebpf4jnsgd1na2vs0mg"},{"bike_id":"5a673800-fe7e-445f-bd0e-ba4725b8a4e8","system_id":"levelo_inurba_marseille","lat":43.2955,"lon":5.4228,"is_reserved":false,"is_disabled":false,"rental_uris":{"android":"levelo://app?vid=5a673800-fe7e-445f-bd0e-ba4725b8a4e8","ios":"levelo://app?vid=5a673800-fe7e-445f-bd0e-ba4725b8a4e8"},"vehicle_type_id":"4","last_reported":1729159779,"current_range_meters":36400,"station_id":"ce4bhph2rcd13ifvqhdg","pricing_plan_id":"cebpf4jnsgd1na2vs0mg"},{"bike_id":"41781d3d-941e-4140-a86a-14bc69c69dfd","system_id":"levelo_inurba_marseille","lat":43.24087,"lon":5.37759,"is_reserved":false,"is_disabled":false,"rental_uris":{"android":"levelo://app?vid=41781d3d-941e-4140-a86a-14bc69c69dfd","ios":"levelo://app?vid=41781d3d-941e-4140-a86a-14bc69c69dfd"},"vehicle_type_id":"4","last_reported":1729159779,"current_range_meters":14000,"station_id":"ce4bhnp2rcd13ifvqgvg","pricing_plan_id":"cebpf4jnsgd1na2vs0mg"},{"bike_id":"228f4e44-16d1-4348-a1fd-12cdb704d000","system_id":"levelo_inurba_marseille","lat":43.2901,"lon":5.35617,"is_reserved":false,"is_disabled":false,"rental_uris":{"android":"levelo://app?vid=228f4e44-16d1-4348-a1fd-12cdb704d000","ios":"levelo://app?vid=228f4e44-16d1-4348-a1fd-12cdb704d000"},"vehicle_type_id":"4","last_reported":1729159779,"current_range_meters":38800,"station_id":"ce4bhb92rcd13ifvqen0","pricing_plan_id":"cebpf4jnsgd1na2vs0mg"},{"bike_id":"3664398f-378f-46f2-bd12-30042ad8db9d","system_id":"levelo_inurba_marseille","lat":43.23173,"lon":5.39996,"is_reserved":false,"is_disabled":false,"rental_uris":{"android":"levelo://app?vid=3664398f-378f-46f2-bd12-30042ad8db9d","ios":"levelo://app?vid=3664398f-378f-46f2-bd12-30042ad8db9d"},"vehicle_type_id":"4","last_reported":1729159779,"current_range_meters":36400,"station_id":"ce4bhn12rcd13ifvqgqg","pricing_plan_id":"cebpf4jnsgd1na2vs0mg"},{"bike_id":"3291f429-ede6-4387-b5dc-6aaa27b0a22c","system_id":"levelo_inurba_marseille","lat":43.231858,"lon":5.399923,"is_reserved":false,"is_disabled":false,"rental_uris":{"android":"levelo://app?vid=3291f429-ede6-4387-b5dc-6aaa27b0a22c","ios":"levelo://app?vid=3291f429-ede6-4387-b5dc-6aaa27b0a22c"},"vehicle_type_id":"4","last_reported":1729159779,"current_range_meters":32800,"station_id":"ce4bhn12rcd13ifvqgqg","pricing_plan_id":"cebpf4jnsgd1na2vs0mg"},{"bike_id":"a9d80141-cb04-4f88-bcc5-9763572e3517","system_id":"levelo_inurba_marseille","lat":43.23203,"lon":5.35546,"is_reserved":false,"is_disabled":false,"rental_uris":{"android":"levelo://app?vid=a9d80141-cb04-4f88-bcc5-9763572e3517","ios":"levelo://app?vid=a9d80141-cb04-4f88-bcc5-9763572e3517"},"vehicle_type_id":"4","last_reported":1729159779,"current_range_meters":33600,"station_id":"ce4bhu92rcd13ifvqi70","pricing_plan_id":"cebpf4jnsgd1na2vs0mg"},{"bike_id":"e0db5bd3-d427-4f9e-b1f3-02dd007c7e39","system_id":"levelo_inurba_marseille","lat":43.24394,"lon":5.37055,"is_reserved":false,"is_disabled":false,"rental_uris":{"android":"levelo://app?vid=e0db5bd3-d427-4f9e-b1f3-02dd007c7e39","ios":"levelo://app?vid=e0db5bd3-d427-4f9e-b1f3-02dd007c7e39"},"vehicle_type_id":"4","last_reported":1729159779,"current_range_meters":20400,"station_id":"ce4bhhh2rcd13ifvqfk0","pricing_plan_id":"cebpf4jnsgd1na2vs0mg"},{"bike_id":"35a22db4-7e9d-4709-be91-f373b0a75e57","system_id":"levelo_inurba_marseille","lat":43.33756,"lon":5.37446,"is_reserved":false,"is_disabled":false,"rental_uris":{"android":"levelo://app?vid=35a22db4-7e9d-4709-be91-f373b0a75e57","ios":"levelo://app?vid=35a22db4-7e9d-4709-be91-f373b0a75e57"},"vehicle_type_id":"4","last_reported":1729159779,"current_range_meters":32800,"station_id":"","pricing_plan_id":"cebpf4jnsgd1na2vs0mg"},{"bike_id":"4296b77a-fe4e-4aeb-89f3-fb5ba29f06b5","system_id":"levelo_inurba_marseille","lat":43.25,"lon":5.38933,"is_reserved":false,"is_disabled":false,"rental_uris":{"android":"levelo://app?vid=4296b77a-fe4e-4aeb-89f3-fb5ba29f06b5","ios":"levelo://app?vid=4296b77a-fe4e-4aeb-89f3-fb5ba29f06b5"},"vehicle_type_id":"4","last_reported":1729159779,"current_range_meters":3600,"station_id":"ce4bhgp2rcd13ifvqfd0","pricing_plan_id":"cebpf4jnsgd1na2vs0mg"},{"bike_id":"ad9d0536-06ce-4f81-a0e0-f3bb7c835c73","system_id":"levelo_inurba_marseille","lat":43.29006,"lon":5.35607,"is_reserved":false,"is_disabled":false,"rental_uris":{"android":"levelo://app?vid=ad9d0536-06ce-4f81-a0e0-f3bb7c835c73","ios":"levelo://app?vid=ad9d0536-06ce-4f81-a0e0-f3bb7c835c73"},"vehicle_type_id":"4","last_reported":1729159779,"current_range_meters":38800,"station_id":"ce4bhb92rcd13ifvqen0","pricing_plan_id":"cebpf4jnsgd1na2vs0mg"},{"bike_id":"9d390ee7-a6b9-4cda-87ae-9e6fd6b700b2","system_id":"levelo_inurba_marseille","lat":43.30539,"lon":5.36543,"is_reserved":false,"is_disabled":false,"rental_uris":{"android":"levelo://app?vid=9d390ee7-a6b9-4cda-87ae-9e6fd6b700b2","ios":"levelo://app?vid=9d390ee7-a6b9-4cda-87ae-9e6fd6b700b2"},"vehicle_type_id":"4","last_reported":1729159779,"current_range_meters":38800,"station_id":"ce4bgs12rcd13ifvqcag","pricing_plan_id":"cebpf4jnsgd1na2vs0mg"},{"bike_id":"4ce6a8a4-f543-406e-9b3b-bf69a485e2ff","system_id":"levelo_inurba_marseille","lat":43.24645,"lon":5.389,"is_reserved":false,"is_disabled":false,"rental_uris":{"android":"levelo://app?vid=4ce6a8a4-f543-406e-9b3b-bf69a485e2ff","ios":"levelo://app?vid=4ce6a8a4-f543-406e-9b3b-bf69a485e2ff"},"vehicle_type_id":"4","last_reported":1729159779,"current_range_meters":32000,"station_id":"ce4bhg12rcd13ifvqf60","pricing_plan_id":"cebpf4jnsgd1na2vs0mg"},{"bike_id":"0b3e7fd6-2511-4337-b5d2-b8304124bef5","system_id":"levelo_inurba_marseille","lat":43.25934,"lon":5.40914,"is_reserved":false,"is_disabled":false,"rental_uris":{"android":"levelo://app?vid=0b3e7fd6-2511-4337-b5d2-b8304124bef5","ios":"levelo://app?vid=0b3e7fd6-2511-4337-b5d2-b8304124bef5"},"vehicle_type_id":"4","last_reported":1729159779,"current_range_meters":25200,"station_id":"ce4bhm92rcd13ifvqglg","pricing_plan_id":"cebpf4jnsgd1na2vs0mg"},{"bike_id":"95a29a1f-41b8-4eb9-b4af-7fc7a0d1fb5a","system_id":"levelo_inurba_marseille","lat":43.27973,"lon":5.38739,"is_reserved":false,"is_disabled":false,"rental_uris":{"android":"levelo://app?vid=95a29a1f-41b8-4eb9-b4af-7fc7a0d1fb5a","ios":"levelo://app?vid=95a29a1f-41b8-4eb9-b4af-7fc7a0d1fb5a"},"vehicle_type_id":"4","last_reported":1729159779,"current_range_meters":19200,"station_id":"ce4bhg12rcd13ifvqf80","pricing_plan_id":"cebpf4jnsgd1na2vs0mg"},{"bike_id":"0bf30492-c7a1-413f-ac0c-e720bccf7887","system_id":"levelo_inurba_marseille","lat":43.27054,"lon":5.40263,"is_reserved":false,"is_disabled":false,"rental_uris":{"android":"levelo://app?vid=0bf30492-c7a1-413f-ac0c-e720bccf7887","ios":"levelo://app?vid=0bf30492-c7a1-413f-ac0c-e720bccf7887"},"vehicle_type_id":"4","last_reported":1729159779,"current_range_meters":8400,"station_id":"ce4bhk92rcd13ifvqgc0","pricing_plan_id":"cebpf4jnsgd1na2vs0mg"},{"bike_id":"d41309ab-1a1f-4395-acaa-455483c3f8e1","system_id":"levelo_inurba_marseille","lat":43.23194,"lon":5.35559,"is_reserved":false,"is_disabled":false,"rental_uris":{"android":"levelo://app?vid=d41309ab-1a1f-4395-acaa-455483c3f8e1","ios":"levelo://app?vid=d41309ab-1a1f-4395-acaa-455483c3f8e1"},"vehicle_type_id":"4","last_reported":1729159779,"current_range_meters":36800,"station_id":"ce4bhu92rcd13ifvqi70","pricing_plan_id":"cebpf4jnsgd1na2vs0mg"},{"bike_id":"43ab12a3-3951-4cee-a705-9d0568682849","system_id":"levelo_inurba_marseille","lat":43.30535,"lon":5.36706,"is_reserved":false,"is_disabled":false,"rental_uris":{"android":"levelo://app?vid=43ab12a3-3951-4cee-a705-9d0568682849","ios":"levelo://app?vid=43ab12a3-3951-4cee-a705-9d0568682849"},"vehicle_type_id":"4","last_reported":1729159779,"current_range_meters":28000,"station_id":"ce4bgrp2rcd13ifvqc9g","pricing_plan_id":"cebpf4jnsgd1na2vs0mg"},{"bike_id":"2dd21b36-b488-441a-a25c-f8c2af01cc94","system_id":"levelo_inurba_marseille","lat":43.30547,"lon":5.36544,"is_reserved":false,"is_disabled":false,"rental_uris":{"android":"levelo://app?vid=2dd21b36-b488-441a-a25c-f8c2af01cc94","ios":"levelo://app?vid=2dd21b36-b488-441a-a25c-f8c2af01cc94"},"vehicle_type_id":"4","last_reported":1729159779,"current_range_meters":27200,"station_id":"ce4bgs12rcd13ifvqcag","pricing_plan_id":"cebpf4jnsgd1na2vs0mg"},{"bike_id":"4224d6ed-0494-436b-813e-720357a58529","system_id":"levelo_inurba_marseille","lat":43.30356,"lon":5.41877,"is_reserved":false,"is_disabled":false,"rental_uris":{"android":"levelo://app?vid=4224d6ed-0494-436b-813e-720357a58529","ios":"levelo://app?vid=4224d6ed-0494-436b-813e-720357a58529"},"vehicle_type_id":"4","last_reported":1729159779,"current_range_meters":38400,"station_id":"ce4bhop2rcd13ifvqh7g","pricing_plan_id":"cebpf4jnsgd1na2vs0mg"},{"bike_id":"539f318a-5ce8-409b-8fa5-e3a2a014621b","system_id":"levelo_inurba_marseille","lat":43.3136,"lon":5.36715,"is_reserved":false,"is_disabled":false,"rental_uris":{"android":"levelo://app?vid=539f318a-5ce8-409b-8fa5-e3a2a014621b","ios":"levelo://app?vid=539f318a-5ce8-409b-8fa5-e3a2a014621b"},"vehicle_type_id":"4","last_reported":1729159779,"current_range_meters":30800,"station_id":"ce4bgr92rcd13ifvqc6g","pricing_plan_id":"cebpf4jnsgd1na2vs0mg"},{"bike_id":"a0c122e3-af93-4618-bbe9-09704639de9c","system_id":"levelo_inurba_marseille","lat":43.25934,"lon":5.40916,"is_reserved":false,"is_disabled":false,"rental_uris":{"android":"levelo://app?vid=a0c122e3-af93-4618-bbe9-09704639de9c","ios":"levelo://app?vid=a0c122e3-af93-4618-bbe9-09704639de9c"},"vehicle_type_id":"4","last_reported":1729159779,"current_range_meters":16400,"station_id":"ce4bhm92rcd13ifvqglg","pricing_plan_id":"cebpf4jnsgd1na2vs0mg"},{"bike_id":"c034bb6e-bc71-4d55-bc8f-ba63cd332fe3","system_id":"levelo_inurba_marseille","lat":43.2315,"lon":5.43721,"is_reserved":false,"is_disabled":false,"rental_uris":{"android":"levelo://app?vid=c034bb6e-bc71-4d55-bc8f-ba63cd332fe3","ios":"levelo://app?vid=c034bb6e-bc71-4d55-bc8f-ba63cd332fe3"},"vehicle_type_id":"4","last_reported":1729159779,"current_range_meters":24000,"station_id":"ce4bhmp2rcd13ifvqgog","pricing_plan_id":"cebpf4jnsgd1na2vs0mg"},{"bike_id":"edd3dc59-c2bb-4c4d-8a45-1e306515ea09","system_id":"levelo_inurba_marseille","lat":43.29534,"lon":5.3904,"is_reserved":false,"is_disabled":false,"rental_uris":{"android":"levelo://app?vid=edd3dc59-c2bb-4c4d-8a45-1e306515ea09","ios":"levelo://app?vid=edd3dc59-c2bb-4c4d-8a45-1e306515ea09"},"vehicle_type_id":"4","last_reported":1729159779,"current_range_meters":12000,"station_id":"ce4bh3p2rcd13ifvqdp0","pricing_plan_id":"cebpf4jnsgd1na2vs0mg"},{"bike_id":"033a7f68-f273-426e-84a9-8a3b2c56f6f5","system_id":"levelo_inurba_marseille","lat":43.35101,"lon":5.36812,"is_reserved":false,"is_disabled":false,"rental_uris":{"android":"levelo://app?vid=033a7f68-f273-426e-84a9-8a3b2c56f6f5","ios":"levelo://app?vid=033a7f68-f273-426e-84a9-8a3b2c56f6f5"},"vehicle_type_id":"4","last_reported":1729159779,"current_range_meters":10800,"station_id":"","pricing_plan_id":"cebpf4jnsgd1na2vs0mg"},{"bike_id":"280904e7-63d8-4281-8d15-d4f8afd3cb20","system_id":"levelo_inurba_marseille","lat":43.26684,"lon":5.38271,"is_reserved":false,"is_disabled":false,"rental_uris":{"android":"levelo://app?vid=280904e7-63d8-4281-8d15-d4f8afd3cb20","ios":"levelo://app?vid=280904e7-63d8-4281-8d15-d4f8afd3cb20"},"vehicle_type_id":"4","last_reported":1729159779,"current_range_meters":28400,"station_id":"ce4bhg92rcd13ifvqf90","pricing_plan_id":"cebpf4jnsgd1na2vs0mg"},{"bike_id":"1af2813b-98a0-4b62-aaf8-89652b30f639","system_id":"levelo_inurba_marseille","lat":43.22934,"lon":5.35385,"is_reserved":false,"is_disabled":false,"rental_uris":{"android":"levelo://app?vid=1af2813b-98a0-4b62-aaf8-89652b30f639","ios":"levelo://app?vid=1af2813b-98a0-4b62-aaf8-89652b30f639"},"vehicle_type_id":"4","last_reported":1729159779,"current_range_meters":19200,"station_id":"cpo3532slgdg3j2ikp40","pricing_plan_id":"cebpf4jnsgd1na2vs0mg"},{"bike_id":"e9c7f9fc-b1e5-43b0-8828-fe7f420651b6","system_id":"levelo_inurba_marseille","lat":43.29558,"lon":5.42291,"is_reserved":false,"is_disabled":false,"rental_uris":{"android":"levelo://app?vid=e9c7f9fc-b1e5-43b0-8828-fe7f420651b6","ios":"levelo://app?vid=e9c7f9fc-b1e5-43b0-8828-fe7f420651b6"},"vehicle_type_id":"4","last_reported":1729159779,"current_range_meters":39200,"station_id":"ce4bhph2rcd13ifvqhdg","pricing_plan_id":"cebpf4jnsgd1na2vs0mg"},{"bike_id":"e7e9a469-cbf7-46c4-ad64-4721a8aad91d","system_id":"levelo_inurba_marseille","lat":43.304135,"lon":5.388034,"is_reserved":false,"is_disabled":false,"rental_uris":{"android":"levelo://app?vid=e7e9a469-cbf7-46c4-ad64-4721a8aad91d","ios":"levelo://app?vid=e7e9a469-cbf7-46c4-ad64-4721a8aad91d"},"vehicle_type_id":"4","last_reported":1729159779,"current_range_meters":18000,"station_id":"ce4bhph2rcd13ifvqhdg","pricing_plan_id":"cebpf4jnsgd1na2vs0mg"},{"bike_id":"f93454e1-a669-4c63-a4ca-b572042c7971","system_id":"levelo_inurba_marseille","lat":43.23191,"lon":5.35561,"is_reserved":false,"is_disabled":false,"rental_uris":{"android":"levelo://app?vid=f93454e1-a669-4c63-a4ca-b572042c7971","ios":"levelo://app?vid=f93454e1-a669-4c63-a4ca-b572042c7971"},"vehicle_type_id":"4","last_reported":1729159779,"current_range_meters":15200,"station_id":"ce4bhu92rcd13ifvqi70","pricing_plan_id":"cebpf4jnsgd1na2vs0mg"},{"bike_id":"80af6414-1d66-42fe-874e-aa93d59d1839","system_id":"levelo_inurba_marseille","lat":43.31489,"lon":5.37316,"is_reserved":false,"is_disabled":false,"rental_uris":{"android":"levelo://app?vid=80af6414-1d66-42fe-874e-aa93d59d1839","ios":"levelo://app?vid=80af6414-1d66-42fe-874e-aa93d59d1839"},"vehicle_type_id":"4","last_reported":1729159779,"current_range_meters":6800,"station_id":"ce4bgt12rcd13ifvqcd0","pricing_plan_id":"cebpf4jnsgd1na2vs0mg"},{"bike_id":"401d617b-728a-48eb-a46c-64c291dfb0af","system_id":"levelo_inurba_marseille","lat":43.29521,"lon":5.39032,"is_reserved":false,"is_disabled":false,"rental_uris":{"android":"levelo://app?vid=401d617b-728a-48eb-a46c-64c291dfb0af","ios":"levelo://app?vid=401d617b-728a-48eb-a46c-64c291dfb0af"},"vehicle_type_id":"4","last_reported":1729159779,"current_range_meters":38800,"station_id":"ce4bh3p2rcd13ifvqdp0","pricing_plan_id":"cebpf4jnsgd1na2vs0mg"},{"bike_id":"0c0a4b97-6821-4f94-83a2-94bdb7d90891","system_id":"levelo_inurba_marseille","lat":43.33764,"lon":5.37472,"is_reserved":false,"is_disabled":false,"rental_uris":{"android":"levelo://app?vid=0c0a4b97-6821-4f94-83a2-94bdb7d90891","ios":"levelo://app?vid=0c0a4b97-6821-4f94-83a2-94bdb7d90891"},"vehicle_type_id":"4","last_reported":1729159779,"current_range_meters":27600,"station_id":"","pricing_plan_id":"cebpf4jnsgd1na2vs0mg"},{"bike_id":"c591cf4d-78d0-444f-9b4d-87b883a6d35a","system_id":"levelo_inurba_marseille","lat":43.24662,"lon":5.38165,"is_reserved":false,"is_disabled":false,"rental_uris":{"android":"levelo://app?vid=c591cf4d-78d0-444f-9b4d-87b883a6d35a","ios":"levelo://app?vid=c591cf4d-78d0-444f-9b4d-87b883a6d35a"},"vehicle_type_id":"4","last_reported":1729159779,"current_range_meters":7200,"station_id":"ce4bhih2rcd13ifvqfr0","pricing_plan_id":"cebpf4jnsgd1na2vs0mg"},{"bike_id":"dcfd44cc-7999-41ae-969a-1562dc3947ee","system_id":"levelo_inurba_marseille","lat":43.29169,"lon":5.37161,"is_reserved":false,"is_disabled":false,"rental_uris":{"android":"levelo://app?vid=dcfd44cc-7999-41ae-969a-1562dc3947ee","ios":"levelo://app?vid=dcfd44cc-7999-41ae-969a-1562dc3947ee"},"vehicle_type_id":"4","last_reported":1729159779,"current_range_meters":40000,"station_id":"ce4bha92rcd13ifvqeh0","pricing_plan_id":"cebpf4jnsgd1na2vs0mg"},{"bike_id":"5597f5fc-4a29-4752-b038-bf4c080255d4","system_id":"levelo_inurba_marseille","lat":43.289734,"lon":5.378422,"is_reserved":false,"is_disabled":false,"rental_uris":{"android":"levelo://app?vid=5597f5fc-4a29-4752-b038-bf4c080255d4","ios":"levelo://app?vid=5597f5fc-4a29-4752-b038-bf4c080255d4"},"vehicle_type_id":"4","last_reported":1729159779,"current_range_meters":33600,"station_id":"ce4bh9p2rcd13ifvqed0","pricing_plan_id":"cebpf4jnsgd1na2vs0mg"},{"bike_id":"f36e62b7-1b45-4346-ac40-b85f2efb98eb","system_id":"levelo_inurba_marseille","lat":43.30547,"lon":5.3655,"is_reserved":false,"is_disabled":false,"rental_uris":{"android":"levelo://app?vid=f36e62b7-1b45-4346-ac40-b85f2efb98eb","ios":"levelo://app?vid=f36e62b7-1b45-4346-ac40-b85f2efb98eb"},"vehicle_type_id":"4","last_reported":1729159779,"current_range_meters":28800,"station_id":"ce4bgs12rcd13ifvqcag","pricing_plan_id":"cebpf4jnsgd1na2vs0mg"},{"bike_id":"7aa47fad-5ea0-495d-ba7f-6e348a3e698b","system_id":"levelo_inurba_marseille","lat":43.30138,"lon":5.37422,"is_reserved":false,"is_disabled":false,"rental_uris":{"android":"levelo://app?vid=7aa47fad-5ea0-495d-ba7f-6e348a3e698b","ios":"levelo://app?vid=7aa47fad-5ea0-495d-ba7f-6e348a3e698b"},"vehicle_type_id":"4","last_reported":1729159779,"current_range_meters":21600,"station_id":"ce4bgs92rcd13ifvqcc0","pricing_plan_id":"cebpf4jnsgd1na2vs0mg"},{"bike_id":"7246ed2f-b3f0-4406-9d35-24eacee88af5","system_id":"levelo_inurba_marseille","lat":43.30537,"lon":5.36547,"is_reserved":false,"is_disabled":false,"rental_uris":{"android":"levelo://app?vid=7246ed2f-b3f0-4406-9d35-24eacee88af5","ios":"levelo://app?vid=7246ed2f-b3f0-4406-9d35-24eacee88af5"},"vehicle_type_id":"4","last_reported":1729159779,"current_range_meters":17200,"station_id":"ce4bgs12rcd13ifvqcag","pricing_plan_id":"cebpf4jnsgd1na2vs0mg"},{"bike_id":"888a2002-d578-4bac-b7e3-126c18e7b077","system_id":"levelo_inurba_marseille","lat":43.24665,"lon":5.38172,"is_reserved":false,"is_disabled":false,"rental_uris":{"android":"levelo://app?vid=888a2002-d578-4bac-b7e3-126c18e7b077","ios":"levelo://app?vid=888a2002-d578-4bac-b7e3-126c18e7b077"},"vehicle_type_id":"4","last_reported":1729159779,"current_range_meters":12000,"station_id":"ce4bhih2rcd13ifvqfr0","pricing_plan_id":"cebpf4jnsgd1na2vs0mg"},{"bike_id":"1c46cbf8-2250-489a-8776-59cb88e6ec7f","system_id":"levelo_inurba_marseille","lat":43.32479,"lon":5.36557,"is_reserved":false,"is_disabled":false,"rental_uris":{"android":"levelo://app?vid=1c46cbf8-2250-489a-8776-59cb88e6ec7f","ios":"levelo://app?vid=1c46cbf8-2250-489a-8776-59cb88e6ec7f"},"vehicle_type_id":"4","last_reported":1729159779,"current_range_meters":30000,"station_id":"ce4bhs12rcd13ifvqhvg","pricing_plan_id":"cebpf4jnsgd1na2vs0mg"},{"bike_id":"19c1e033-41f1-4364-bed0-2f147b0e1f19","system_id":"levelo_inurba_marseille","lat":43.29542,"lon":5.39047,"is_reserved":false,"is_disabled":false,"rental_uris":{"android":"levelo://app?vid=19c1e033-41f1-4364-bed0-2f147b0e1f19","ios":"levelo://app?vid=19c1e033-41f1-4364-bed0-2f147b0e1f19"},"vehicle_type_id":"4","last_reported":1729159779,"current_range_meters":35200,"station_id":"ce4bh3p2rcd13ifvqdp0","pricing_plan_id":"cebpf4jnsgd1na2vs0mg"},{"bike_id":"cb6afe06-2ff2-4e8b-80d8-520ee7d83486","system_id":"levelo_inurba_marseille","lat":43.3056,"lon":5.36543,"is_reserved":false,"is_disabled":false,"rental_uris":{"android":"levelo://app?vid=cb6afe06-2ff2-4e8b-80d8-520ee7d83486","ios":"levelo://app?vid=cb6afe06-2ff2-4e8b-80d8-520ee7d83486"},"vehicle_type_id":"4","last_reported":1729159779,"current_range_meters":38800,"station_id":"ce4bgs12rcd13ifvqcag","pricing_plan_id":"cebpf4jnsgd1na2vs0mg"},{"bike_id":"e55a6078-bad8-467b-8e3e-e99a445fcadc","system_id":"levelo_inurba_marseille","lat":43.3053,"lon":5.3672,"is_reserved":false,"is_disabled":false,"rental_uris":{"android":"levelo://app?vid=e55a6078-bad8-467b-8e3e-e99a445fcadc","ios":"levelo://app?vid=e55a6078-bad8-467b-8e3e-e99a445fcadc"},"vehicle_type_id":"4","last_reported":1729159779,"current_range_meters":38800,"station_id":"ce4bgrp2rcd13ifvqc9g","pricing_plan_id":"cebpf4jnsgd1na2vs0mg"},{"bike_id":"c9fd938f-37d4-4c5e-b9ca-b748ca8dded7","system_id":"levelo_inurba_marseille","lat":43.27946,"lon":5.41055,"is_reserved":false,"is_disabled":false,"rental_uris":{"android":"levelo://app?vid=c9fd938f-37d4-4c5e-b9ca-b748ca8dded7","ios":"levelo://app?vid=c9fd938f-37d4-4c5e-b9ca-b748ca8dded7"},"vehicle_type_id":"4","last_reported":1729159779,"current_range_meters":30400,"station_id":"ce4bhnp2rcd13ifvqh0g","pricing_plan_id":"cebpf4jnsgd1na2vs0mg"},{"bike_id":"59abb77c-5ca7-4819-80bc-9f9f08a20fed","system_id":"levelo_inurba_marseille","lat":43.33606,"lon":5.41037,"is_reserved":false,"is_disabled":false,"rental_uris":{"android":"levelo://app?vid=59abb77c-5ca7-4819-80bc-9f9f08a20fed","ios":"levelo://app?vid=59abb77c-5ca7-4819-80bc-9f9f08a20fed"},"vehicle_type_id":"4","last_reported":1729159779,"current_range_meters":36800,"station_id":"ce4bhqh2rcd13ifvqhmg","pricing_plan_id":"cebpf4jnsgd1na2vs0mg"},{"bike_id":"fbbd9674-017d-4f05-8388-f4bb98e4ba28","system_id":"levelo_inurba_marseille","lat":43.276672,"lon":5.388667,"is_reserved":false,"is_disabled":false,"rental_uris":{"android":"levelo://app?vid=fbbd9674-017d-4f05-8388-f4bb98e4ba28","ios":"levelo://app?vid=fbbd9674-017d-4f05-8388-f4bb98e4ba28"},"vehicle_type_id":"4","last_reported":1729159779,"current_range_meters":17200,"station_id":"ce4bhi12rcd13ifvqfo0","pricing_plan_id":"cebpf4jnsgd1na2vs0mg"},{"bike_id":"365edbae-d0f4-486d-a071-1220a731a7db","system_id":"levelo_inurba_marseille","lat":43.31218,"lon":5.36881,"is_reserved":false,"is_disabled":false,"rental_uris":{"android":"levelo://app?vid=365edbae-d0f4-486d-a071-1220a731a7db","ios":"levelo://app?vid=365edbae-d0f4-486d-a071-1220a731a7db"},"vehicle_type_id":"4","last_reported":1729159779,"current_range_meters":39200,"station_id":"ce4bgl92rcd13ifvqbq0","pricing_plan_id":"cebpf4jnsgd1na2vs0mg"},{"bike_id":"12c2a975-4c67-48b4-bbfe-73eb3357785c","system_id":"levelo_inurba_marseille","lat":43.24664,"lon":5.38156,"is_reserved":false,"is_disabled":false,"rental_uris":{"android":"levelo://app?vid=12c2a975-4c67-48b4-bbfe-73eb3357785c","ios":"levelo://app?vid=12c2a975-4c67-48b4-bbfe-73eb3357785c"},"vehicle_type_id":"4","last_reported":1729159779,"current_range_meters":8800,"station_id":"ce4bhih2rcd13ifvqfr0","pricing_plan_id":"cebpf4jnsgd1na2vs0mg"},{"bike_id":"ecea5373-73aa-47a0-b41d-f69c32da8ec2","system_id":"levelo_inurba_marseille","lat":43.23055,"lon":5.35505,"is_reserved":false,"is_disabled":false,"rental_uris":{"android":"levelo://app?vid=ecea5373-73aa-47a0-b41d-f69c32da8ec2","ios":"levelo://app?vid=ecea5373-73aa-47a0-b41d-f69c32da8ec2"},"vehicle_type_id":"4","last_reported":1729159779,"current_range_meters":7200,"station_id":"cpo3342slgdg3j2ifvpg","pricing_plan_id":"cebpf4jnsgd1na2vs0mg"},{"bike_id":"cbd04650-fe18-4b52-8ae9-9dd79415eaef","system_id":"levelo_inurba_marseille","lat":43.29309,"lon":5.37172,"is_reserved":false,"is_disabled":false,"rental_uris":{"android":"levelo://app?vid=cbd04650-fe18-4b52-8ae9-9dd79415eaef","ios":"levelo://app?vid=cbd04650-fe18-4b52-8ae9-9dd79415eaef"},"vehicle_type_id":"4","last_reported":1729159779,"current_range_meters":18000,"station_id":"ce4bgh92rcd13ifvqb40","pricing_plan_id":"cebpf4jnsgd1na2vs0mg"},{"bike_id":"4469fa11-5bac-42b9-a52c-7b728f187530","system_id":"levelo_inurba_marseille","lat":43.33617,"lon":5.41041,"is_reserved":false,"is_disabled":false,"rental_uris":{"android":"levelo://app?vid=4469fa11-5bac-42b9-a52c-7b728f187530","ios":"levelo://app?vid=4469fa11-5bac-42b9-a52c-7b728f187530"},"vehicle_type_id":"4","last_reported":1729159779,"current_range_meters":12000,"station_id":"ce4bhqh2rcd13ifvqhmg","pricing_plan_id":"cebpf4jnsgd1na2vs0mg"},{"bike_id":"3fc4c4f1-c8a8-4d72-95c2-0af6ff0978cd","system_id":"levelo_inurba_marseille","lat":43.30547,"lon":5.36699,"is_reserved":false,"is_disabled":false,"rental_uris":{"android":"levelo://app?vid=3fc4c4f1-c8a8-4d72-95c2-0af6ff0978cd","ios":"levelo://app?vid=3fc4c4f1-c8a8-4d72-95c2-0af6ff0978cd"},"vehicle_type_id":"4","last_reported":1729159779,"current_range_meters":16000,"station_id":"ce4bgrp2rcd13ifvqc9g","pricing_plan_id":"cebpf4jnsgd1na2vs0mg"},{"bike_id":"08bf6534-9285-4b15-b260-21e9138ff037","system_id":"levelo_inurba_marseille","lat":43.29895,"lon":5.43669,"is_reserved":false,"is_disabled":false,"rental_uris":{"android":"levelo://app?vid=08bf6534-9285-4b15-b260-21e9138ff037","ios":"levelo://app?vid=08bf6534-9285-4b15-b260-21e9138ff037"},"vehicle_type_id":"4","last_reported":1729159779,"current_range_meters":8400,"station_id":"ce4bhpp2rcd13ifvqhfg","pricing_plan_id":"cebpf4jnsgd1na2vs0mg"},{"bike_id":"e224c9a4-b319-4632-b060-f1cad1888d7e","system_id":"levelo_inurba_marseille","lat":43.33021,"lon":5.3905,"is_reserved":false,"is_disabled":false,"rental_uris":{"android":"levelo://app?vid=e224c9a4-b319-4632-b060-f1cad1888d7e","ios":"levelo://app?vid=e224c9a4-b319-4632-b060-f1cad1888d7e"},"vehicle_type_id":"4","last_reported":1729159779,"current_range_meters":26800,"station_id":"ce4bhr92rcd13ifvqhrg","pricing_plan_id":"cebpf4jnsgd1na2vs0mg"},{"bike_id":"371afef9-5ff0-4f3c-a88b-1edea3a52b31","system_id":"levelo_inurba_marseille","lat":43.26563,"lon":5.37283,"is_reserved":false,"is_disabled":false,"rental_uris":{"android":"levelo://app?vid=371afef9-5ff0-4f3c-a88b-1edea3a52b31","ios":"levelo://app?vid=371afef9-5ff0-4f3c-a88b-1edea3a52b31"},"vehicle_type_id":"4","last_reported":1729159779,"current_range_meters":37600,"station_id":"ce4bhg12rcd13ifvqf70","pricing_plan_id":"cebpf4jnsgd1na2vs0mg"},{"bike_id":"40c0ff94-714e-40d9-87ce-c92879574a8d","system_id":"levelo_inurba_marseille","lat":43.29297,"lon":5.37459,"is_reserved":false,"is_disabled":false,"rental_uris":{"android":"levelo://app?vid=40c0ff94-714e-40d9-87ce-c92879574a8d","ios":"levelo://app?vid=40c0ff94-714e-40d9-87ce-c92879574a8d"},"vehicle_type_id":"4","last_reported":1729159779,"current_range_meters":38800,"station_id":"ce4bgi12rcd13ifvqb70","pricing_plan_id":"cebpf4jnsgd1na2vs0mg"},{"bike_id":"f269126c-1b0b-4a1a-a1d6-f8c3716f5336","system_id":"levelo_inurba_marseille","lat":43.23194,"lon":5.35553,"is_reserved":false,"is_disabled":false,"rental_uris":{"android":"levelo://app?vid=f269126c-1b0b-4a1a-a1d6-f8c3716f5336","ios":"levelo://app?vid=f269126c-1b0b-4a1a-a1d6-f8c3716f5336"},"vehicle_type_id":"4","last_reported":1729159779,"current_range_meters":24400,"station_id":"ce4bhu92rcd13ifvqi70","pricing_plan_id":"cebpf4jnsgd1na2vs0mg"},{"bike_id":"ed9cda0a-3a68-4944-bd99-875b09171090","system_id":"levelo_inurba_marseille","lat":43.30543,"lon":5.36544,"is_reserved":false,"is_disabled":false,"rental_uris":{"android":"levelo://app?vid=ed9cda0a-3a68-4944-bd99-875b09171090","ios":"levelo://app?vid=ed9cda0a-3a68-4944-bd99-875b09171090"},"vehicle_type_id":"4","last_reported":1729159779,"current_range_meters":22000,"station_id":"ce4bgs12rcd13ifvqcag","pricing_plan_id":"cebpf4jnsgd1na2vs0mg"},{"bike_id":"ac95e1fc-3701-4d98-a776-eb6adcaf6dc2","system_id":"levelo_inurba_marseille","lat":43.30357,"lon":5.41878,"is_reserved":false,"is_disabled":false,"rental_uris":{"android":"levelo://app?vid=ac95e1fc-3701-4d98-a776-eb6adcaf6dc2","ios":"levelo://app?vid=ac95e1fc-3701-4d98-a776-eb6adcaf6dc2"},"vehicle_type_id":"4","last_reported":1729159779,"current_range_meters":29600,"station_id":"ce4bhop2rcd13ifvqh7g","pricing_plan_id":"cebpf4jnsgd1na2vs0mg"},{"bike_id":"87800500-47e6-4911-b18e-764b58ca45b9","system_id":"levelo_inurba_marseille","lat":43.26204,"lon":5.37939,"is_reserved":false,"is_disabled":false,"rental_uris":{"android":"levelo://app?vid=87800500-47e6-4911-b18e-764b58ca45b9","ios":"levelo://app?vid=87800500-47e6-4911-b18e-764b58ca45b9"},"vehicle_type_id":"4","last_reported":1729159779,"current_range_meters":30400,"station_id":"ce4bhjp2rcd13ifvqg90","pricing_plan_id":"cebpf4jnsgd1na2vs0mg"},