{"last_updated":1707941256,"ttl":30,"version":"2.2","data":{"bikes":[{"bike_id":"5b9ee40f-eaba-4d1a-ae3d-a7651360da1d","system_id":"levelo_inurba_marseille","lat":43.312239,"lon":5.368562,"is_reserved":false,"is_disabled":false,"rental_uris":{"android":"levelo://app?vid=5b9ee40f-eaba-4d1a-ae3d-a7651360da1d","ios":"levelo://app?vid=5b9ee40f-eaba-4d1a-ae3d-a7651360da1d"},"vehicle_type_id":"4","last_reported":1707941256,"current_range_meters":20800,"station_id":"ce4bgl92rcd13ifvqbq0","pricing_plan_id":"cebpf4jnsgd1na2vs0mg"},{"bike_id":"14c68aa8-5e6b-40c4-9579-cd909407f0d4","system_id":"levelo_inurba_marseille","lat":43.312239,"lon":5.368562,"is_reserved":false,"is_disabled":false,"rental_uris":{"android":"levelo://app?vid=14c68aa8-5e6b-40c4-9579-cd909407f0d4","ios":"levelo://app?vid=14c68aa8-5e6b-40c4-9579-cd909407f0d4"},"vehicle_type_id":"4","last_reported":1707941256,"current_range_meters":0,"station_id":"ce4bgl92rcd13ifvqbq0","pricing_plan_id":"cebpf4jnsgd1na2vs0mg"},{"bike_id":"ed352ace-f826-4534-8557-525abc3081ef","system_id":"levelo_inurba_marseille","lat":43.31484,"lon":5.37307,"is_reserved":false,"is_disabled":false,"rental_uris":{"android":"levelo://app?vid=ed352ace-f826-4534-8557-525abc3081ef","ios":"levelo://app?vid=ed352ace-f826-4534-8557-525abc3081ef"},"vehicle_type_id":"4","last_reported":1707941256,"current_range_meters":17200,"station_id":"ce4bgt12rcd13ifvqcd0","pricing_plan_id":"cebpf4jnsgd1na2vs0mg"},{"bike_id":"284b7b4f-810b-46de-8a37-c158dae9305d","system_id":"levelo_inurba_marseille","lat":43.314811,"lon":5.373104,"is_reserved":false,"is_disabled":false,"rental_uris":{"android":"levelo://app?vid=284b7b4f-810b-46de-8a37-c158dae9305d","ios":"levelo://app?vid=284b7b4f-810b-46de-8a37-c158dae9305d"},"vehicle_type_id":"4","last_reported":1707941256,"current_range_meters":3200,"station_id":"ce4bgt12rcd13ifvqcd0","pricing_plan_id":"cebpf4jnsgd1na2vs0mg"},{"bike_id":"c3ccd1ee-82f6-4881-8a25-54efed3a4122","system_id":"levelo_inurba_marseille","lat":43.314811,"lon":5.373103,"is_reserved":false,"is_disabled":false,"rental_uris":{"android":"levelo://app?vid=c3ccd1ee-82f6-4881-8a25-54efed3a4122","ios":"levelo://app?vid=c3ccd1ee-82f6-4881-8a25-54efed3a4122"},"vehicle_type_id":"4","last_reported":1707941256,"current_range_meters":24000,"station_id":"ce4bgt12rcd13ifvqcd0","pricing_plan_id":"cebpf4jnsgd1na2vs0mg"},{"bike_id":"a260498a-a444-4da3-9ae0-187943a25c37","system_id":"levelo_inurba_marseille","lat":43.310877,"lon":5.374975,"is_reserved":false,"is_disabled":false,"rental_uris":{"android":"levelo://app?vid=a260498a-a444-4da3-9ae0-187943a25c37","ios":"levelo://app?vid=a260498a-a444-4da3-9ae0-187943a25c37"},"vehicle_type_id":"4","last_reported":1707941256,"current_range_meters":3200,"station_id":"","pricing_plan_id":"cebpf4jnsgd1na2vs0mg"},{"bike_id":"c57eae06-e4db-4e20-bc07-6efe87c8588d","system_id":"levelo_inurba_marseille","lat":43.30539,"lon":5.36543,"is_reserved":false,"is_disabled":false,"rental_uris":{"android":"levelo://app?vid=c57eae06-e4db-4e20-bc07-6efe87c8588d","ios":"levelo://app?vid=c57eae06-e4db-4e20-bc07-6efe87c8588d"},"vehicle_type_id":"4","last_reported":1707941256,"current_range_meters":0,"station_id":"ce4bgs12rcd13ifvqcag","pricing_plan_id":"cebpf4jnsgd1na2vs0mg"},{"bike_id":"05132849-8c1f-495d-9a5c-d9575b80760a","system_id":"levelo_inurba_marseille","lat":43.305989,"lon":5.37225,"is_reserved":false,"is_disabled":false,"rental_uris":{"android":"levelo://app?vid=05132849-8c1f-495d-9a5c-d9575b80760a","ios":"levelo://app?vid=05132849-8c1f-495d-9a5c-d9575b80760a"},"vehicle_type_id":"4","last_reported":1707941256,"current_range_meters":20800,"station_id":"ce4bgqh2rcd13ifvqc4g","pricing_plan_id":"cebpf4jnsgd1na2vs0mg"},{"bike_id":"bf10720e-6909-4bc3-8732-562f03e9c8d5","system_id":"levelo_inurba_marseille","lat":43.305989,"lon":5.37225,"is_reserved":false,"is_disabled":false,"rental_uris":{"android":"levelo://app?vid=bf10720e-6909-4bc3-8732-562f03e9c8d5","ios":"levelo://app?vid=bf10720e-6909-4bc3-8732-562f03e9c8d5"},"vehicle_type_id":"4","last_reported":1707941256,"current_range_meters":24000,"station_id":"ce4bgqh2rcd13ifvqc4g","pricing_plan_id":"cebpf4jnsgd1na2vs0mg"},{"bike_id":"6e95ed38-ed12-4f89-bfbe-030f2d3f4204","system_id":"levelo_inurba_marseille","lat":43.30598,"lon":5.37234,"is_reserved":false,"is_disabled":false,"rental_uris":{"android":"levelo://app?vid=6e95ed38-ed12-4f89-bfbe-030f2d3f4204","ios":"levelo://app?vid=6e95ed38-ed12-4f89-bfbe-030f2d3f4204"},"vehicle_type_id":"4","last_reported":1707941256,"current_range_meters":8000,"station_id":"ce4bgqh2rcd13ifvqc4g","pricing_plan_id":"cebpf4jnsgd1na2vs0mg"},{"bike_id":"39792971-4be3-434e-a377-9fffc2c0c2b0","system_id":"levelo_inurba_marseille","lat":43.311125,"lon":5.377624,"is_reserved":false,"is_disabled":false,"rental_uris":{"android":"levelo://app?vid=39792971-4be3-434e-a377-9fffc2c0c2b0","ios":"levelo://app?vid=39792971-4be3-434e-a377-9fffc2c0c2b0"},"vehicle_type_id":"4","last_reported":1707941256,"current_range_meters":3600,"station_id":"ce4bgt92rcd13ifvqcg0","pricing_plan_id":"cebpf4jnsgd1na2vs0mg"},{"bike_id":"c10ad5cd-853e-4e2a-8810-769567852f12","system_id":"levelo_inurba_marseille","lat":43.311125,"lon":5.377624,"is_reserved":false,"is_disabled":false,"rental_uris":{"android":"levelo://app?vid=c10ad5cd-853e-4e2a-8810-769567852f12","ios":"levelo://app?vid=c10ad5cd-853e-4e2a-8810-769567852f12"},"vehicle_type_id":"4","last_reported":1707941256,"current_range_meters":10400,"station_id":"ce4bgt92rcd13ifvqcg0","pricing_plan_id":"cebpf4jnsgd1na2vs0mg"},{"bike_id":"5b36b02d-e8bb-417b-b89c-7c3af74cab5d","system_id":"levelo_inurba_marseille","lat":43.311125,"lon":5.377624,"is_reserved":false,"is_disabled":false,"rental_uris":{"android":"levelo://app?vid=5b36b02d-e8bb-417b-b89c-7c3af74cab5d","ios":"levelo://app?vid=5b36b02d-e8bb-417b-b89c-7c3af74cab5d"},"vehicle_type_id":"4","last_reported":1707941256,"current_range_meters":19600,"station_id":"ce4bgt92rcd13ifvqcg0","pricing_plan_id":"cebpf4jnsgd1na2vs0mg"},{"bike_id":"70ec8b05-622a-4a0c-b5e8-9793b0849ec8","system_id":"levelo_inurba_marseille","lat":43.31116,"lon":5.37766,"is_reserved":false,"is_disabled":false,"rental_uris":{"android":"levelo://app?vid=70ec8b05-622a-4a0c-b5e8-9793b0849ec8","ios":"levelo://app?vid=70ec8b05-622a-4a0c-b5e8-9793b0849ec8"},"vehicle_type_id":"4","last_reported":1707941256,"current_range_meters":4000,"station_id":"","pricing_plan_id":"cebpf4jnsgd1na2vs0mg"},{"bike_id":"ed436a39-cb4e-4e93-b73d-fbfa909fb5b0","system_id":"levelo_inurba_marseille","lat":43.311125,"lon":5.377624,"is_reserved":false,"is_disabled":false,"rental_uris":{"android":"levelo://app?vid=ed436a39-cb4e-4e93-b73d-fbfa909fb5b0","ios":"levelo://app?vid=ed436a39-cb4e-4e93-b73d-fbfa909fb5b0"},"vehicle_type_id":"4","last_reported":1707941256,"current_range_meters":25200,"station_id":"ce4bgt92rcd13ifvqcg0","pricing_plan_id":"cebpf4jnsgd1na2vs0mg"},{"bike_id":"149d55d6-45e3-4bd4-a486-3f1b8973681f","system_id":"levelo_inurba_marseille","lat":43.311125,"lon":5.377624,"is_reserved":false,"is_disabled":false,"rental_uris":{"android":"levelo://app?vid=149d55d6-45e3-4bd4-a486-3f1b8973681f","ios":"levelo://app?vid=149d55d6-45e3-4bd4-a486-3f1b8973681f"},"vehicle_type_id":"4","last_reported":1707941256,"current_range_meters":12000,"station_id":"ce4bgt92rcd13ifvqcg0","pricing_plan_id":"cebpf4jnsgd1na2vs0mg"},{"bike_id":"eebc31bd-12f8-4bae-8289-0d8268f2a96a","system_id":"levelo_inurba_marseille","lat":43.311125,"lon":5.377624,"is_reserved":false,"is_disabled":false,"rental_uris":{"android":"levelo://app?vid=eebc31bd-12f8-4bae-8289-0d8268f2a96a","ios":"levelo://app?vid=eebc31bd-12f8-4bae-8289-0d8268f2a96a"},"vehicle_type_id":"4","last_reported":1707941256,"current_range_meters":9600,"station_id":"ce4bgt92rcd13ifvqcg0","pricing_plan_id":"cebpf4jnsgd1na2vs0mg"},{"bike_id":"1d7bab82-9a12-4ca9-9d11-b45d55f3e6bc","system_id":"levelo_inurba_marseille","lat":43.311125,"lon":5.377624,"is_reserved":false,"is_disabled":false,"rental_uris":{"android":"levelo://app?vid=1d7bab82-9a12-4ca9-9d11-b45d55f3e6bc","ios":"levelo://app?vid=1d7bab82-9a12-4ca9-9d11-b45d55f3e6bc"},"vehicle_type_id":"4","last_reported":1707941256,"current_range_meters":18400,"station_id":"ce4bgt92rcd13ifvqcg0","pricing_plan_id":"cebpf4jnsgd1na2vs0mg"},{"bike_id":"61adade9-1a1c-420c-aff8-2948c5d94f8c","system_id":"levelo_inurba_marseille","lat":43.307945,"lon":5.376487,"is_reserved":false,"is_disabled":false,"rental_uris":{"android":"levelo://app?vid=61adade9-1a1c-420c-aff8-2948c5d94f8c","ios":"levelo://app?vid=61adade9-1a1c-420c-aff8-2948c5d94f8c"},"vehicle_type_id":"4","last_reported":1707941256,"current_range_meters":2000,"station_id":"ce4bgv92rcd13ifvqcq0","pricing_plan_id":"cebpf4jnsgd1na2vs0mg"},{"bike_id":"c5094e7e-d0e3-44aa-8304-153e454dc81c","system_id":"levelo_inurba_marseille","lat":43.307945,"lon":5.376487,"is_reserved":false,"is_disabled":false,"rental_uris":{"android":"levelo://app?vid=c5094e7e-d0e3-44aa-8304-153e454dc81c","ios":"levelo://app?vid=c5094e7e-d0e3-44aa-8304-153e454dc81c"},"vehicle_type_id":"4","last_reported":1707941256,"current_range_meters":31200,"station_id":"ce4bgv92rcd13ifvqcq0","pricing_plan_id":"cebpf4jnsgd1na2vs0mg"},{"bike_id":"cafbd534-4ccf-4d29-8dbe-a9378dcd68eb","system_id":"levelo_inurba_marseille","lat":43.307945,"lon":5.376487,"is_reserved":false,"is_disabled":false,"rental_uris":{"android":"levelo://app?vid=cafbd534-4ccf-4d29-8dbe-a9378dcd68eb","ios":"levelo://app?vid=cafbd534-4ccf-4d29-8dbe-a9378dcd68eb"},"vehicle_type_id":"4","last_reported":1707941256,"current_range_meters":2800,"station_id":"ce4bgv92rcd13ifvqcq0","pricing_plan_id":"cebpf4jnsgd1na2vs0mg"},{"bike_id":"28cfa7b0-8fdb-4e50-9331-a3e8d341858f","system_id":"levelo_inurba_marseille","lat":43.317075,"lon":5.377367,"is_reserved":false,"is_disabled":false,"rental_uris":{"android":"levelo://app?vid=28cfa7b0-8fdb-4e50-9331-a3e8d341858f","ios":"levelo://app?vid=28cfa7b0-8fdb-4e50-9331-a3e8d341858f"},"vehicle_type_id":"4","last_reported":1707941256,"current_range_meters":16000,"station_id":"ce4bgth2rcd13ifvqch0","pricing_plan_id":"cebpf4jnsgd1na2vs0mg"},{"bike_id":"23141a52-9087-4e19-a943-60a137f6fe42","system_id":"levelo_inurba_marseille","lat":43.317075,"lon":5.377367,"is_reserved":false,"is_disabled":false,"rental_uris":{"android":"levelo://app?vid=23141a52-9087-4e19-a943-60a137f6fe42","ios":"levelo://app?vid=23141a52-9087-4e19-a943-60a137f6fe42"},"vehicle_type_id":"4","last_reported":1707941256,"current_range_meters":1200,"station_id":"ce4bgth2rcd13ifvqch0","pricing_plan_id":"cebpf4jnsgd1na2vs0mg"},{"bike_id":"e0ab11de-fc9c-4d4b-971a-3b2ba2a23340","system_id":"levelo_inurba_marseille","lat":43.317075,"lon":5.377367,"is_reserved":false,"is_disabled":false,"rental_uris":{"android":"levelo://app?vid=e0ab11de-fc9c-4d4b-971a-3b2ba2a23340","ios":"levelo://app?vid=e0ab11de-fc9c-4d4b-971a-3b2ba2a23340"},"vehicle_type_id":"4","last_reported":1707941256,"current_range_meters":22000,"station_id":"ce4bgth2rcd13ifvqch0","pricing_plan_id":"cebpf4jnsgd1na2vs0mg"},{"bike_id":"756ac79a-ec80-4d09-a0fe-548d433eccd9","system_id":"levelo_inurba_marseille","lat":43.317075,"lon":5.377367,"is_reserved":false,"is_disabled":false,"rental_uris":{"android":"levelo://app?vid=756ac79a-ec80-4d09-a0fe-548d433eccd9","ios":"levelo://app?vid=756ac79a-ec80-4d09-a0fe-548d433eccd9"},"vehicle_type_id":"4","last_reported":1707941256,"current_range_meters":20400,"station_id":"ce4bgth2rcd13ifvqch0","pricing_plan_id":"cebpf4jnsgd1na2vs0mg"},{"bike_id":"5ebd6bb0-1e47-459c-aab8-837488c8746a","system_id":"levelo_inurba_marseille","lat":43.317075,"lon":5.377367,"is_reserved":false,"is_disabled":false,"rental_uris":{"android":"levelo://app?vid=5ebd6bb0-1e47-459c-aab8-837488c8746a","ios":"levelo://app?vid=5ebd6bb0-1e47-459c-aab8-837488c8746a"},"vehicle_type_id":"4","last_reported":1707941256,"current_range_meters":9600,"station_id":"ce4bgth2rcd13ifvqch0","pricing_plan_id":"cebpf4jnsgd1na2vs0mg"},{"bike_id":"ff4662aa-862c-4676-b1d9-a7baae8636c5","system_id":"levelo_inurba_marseille","lat":43.317075,"lon":5.377367,"is_reserved":false,"is_disabled":false,"rental_uris":{"android":"levelo://app?vid=ff4662aa-862c-4676-b1d9-a7baae8636c5","ios":"levelo://app?vid=ff4662aa-862c-4676-b1d9-a7baae8636c5"},"vehicle_type_id":"4","last_reported":1707941256,"current_range_meters":22000,"station_id":"ce4bgth2rcd13ifvqch0","pricing_plan_id":"cebpf4jnsgd1na2vs0mg"},{"bike_id":"e8396d9b-01ad-42aa-ae6a-25e7361077f6","system_id":"levelo_inurba_marseille","lat":43.317075,"lon":5.377367,"is_reserved":false,"is_disabled":false,"rental_uris":{"android":"levelo://app?vid=e8396d9b-01ad-42aa-ae6a-25e7361077f6","ios":"levelo://app?vid=e8396d9b-01ad-42aa-ae6a-25e7361077f6"},"vehicle_type_id":"4","last_reported":1707941256,"current_range_meters":31600,"station_id":"ce4bgth2rcd13ifvqch0","pricing_plan_id":"cebpf4jnsgd1na2vs0mg"},{"bike_id":"cb1bb933-6994-41ed-b3a7-f83becd99e4c","system_id":"levelo_inurba_marseille","lat":43.303046,"lon":5.368981,"is_reserved":false,"is_disabled":false,"rental_uris":{"android":"levelo://app?vid=cb1bb933-6994-41ed-b3a7-f83becd99e4c","ios":"levelo://app?vid=cb1bb933-6994-41ed-b3a7-f83becd99e4c"},"vehicle_type_id":"4","last_reported":1707941256,"current_range_meters":5200,"station_id":"ce4bgqh2rcd13ifvqc5g","pricing_plan_id":"cebpf4jnsgd1na2vs0mg"},{"bike_id":"c4e8f8a8-7b17-47f4-9155-81481109dceb","system_id":"levelo_inurba_marseille","lat":43.315293,"lon":5.380349,"is_reserved":false,"is_disabled":false,"rental_uris":{"android":"levelo://app?vid=c4e8f8a8-7b17-47f4-9155-81481109dceb","ios":"levelo://app?vid=c4e8f8a8-7b17-47f4-9155-81481109dceb"},"vehicle_type_id":"4","last_reported":1707941256,"current_range_meters":11600,"station_id":"ce4bhsp2rcd13ifvqi50","pricing_plan_id":"cebpf4jnsgd1na2vs0mg"},{"bike_id":"b08ae835-478b-4e23-8483-b0f9be2a3f49","system_id":"levelo_inurba_marseille","lat":43.315293,"lon":5.380349,"is_reserved":false,"is_disabled":false,"rental_uris":{"android":"levelo://app?vid=b08ae835-478b-4e23-8483-b0f9be2a3f49","ios":"levelo://app?vid=b08ae835-478b-4e23-8483-b0f9be2a3f49"},"vehicle_type_id":"4","last_reported":1707941256,"current_range_meters":16000,"station_id":"ce4bhsp2rcd13ifvqi50","pricing_plan_id":"cebpf4jnsgd1na2vs0mg"},{"bike_id":"def11211-a7d9-4506-9101-fb3b9035d97d","system_id":"levelo_inurba_marseille","lat":43.301939,"lon":5.366286,"is_reserved":false,"is_disabled":false,"rental_uris":{"android":"levelo://app?vid=def11211-a7d9-4506-9101-fb3b9035d97d","ios":"levelo://app?vid=def11211-a7d9-4506-9101-fb3b9035d97d"},"vehicle_type_id":"4","last_reported":1707941256,"current_range_meters":0,"station_id":"ce4bgrh2rcd13ifvqc8g","pricing_plan_id":"cebpf4jnsgd1na2vs0mg"},{"bike_id":"fd98bc30-1b20-45aa-bb52-48b105f07bdb","system_id":"levelo_inurba_marseille","lat":43.301939,"lon":5.366286,"is_reserved":false,"is_disabled":false,"rental_uris":{"android":"levelo://app?vid=fd98bc30-1b20-45aa-bb52-48b105f07bdb","ios":"levelo://app?vid=fd98bc30-1b20-45aa-bb52-48b105f07bdb"},"vehicle_type_id":"4","last_reported":1707941256,"current_range_meters":31200,"station_id":"ce4bgrh2rcd13ifvqc8g","pricing_plan_id":"cebpf4jnsgd1na2vs0mg"},{"bike_id":"bf82fa70-4e5d-42d8-8a58-a3c34236a2e1","system_id":"levelo_inurba_marseille","lat":43.30803,"lon":5.38147,"is_reserved":false,"is_disabled":false,"rental_uris":{"android":"levelo://app?vid=bf82fa70-4e5d-42d8-8a58-a3c34236a2e1","ios":"levelo://app?vid=bf82fa70-4e5d-42d8-8a58-a3c34236a2e1"},"vehicle_type_id":"4","last_reported":1707941256,"current_range_meters":1600,"station_id":"ce4bgt12rcd13ifvqce0","pricing_plan_id":"cebpf4jnsgd1na2vs0mg"},{"bike_id":"940e282e-d41c-44d2-a1d3-0e1d11987766","system_id":"levelo_inurba_marseille","lat":43.308012,"lon":5.381511,"is_reserved":false,"is_disabled":false,"rental_uris":{"android":"levelo://app?vid=940e282e-d41c-44d2-a1d3-0e1d11987766","ios":"levelo://app?vid=940e282e-d41c-44d2-a1d3-0e1d11987766"},"vehicle_type_id":"4","last_reported":1707941256,"current_range_meters":0,"station_id":"ce4bgt12rcd13ifvqce0","pricing_plan_id":"cebpf4jnsgd1na2vs0mg"},{"bike_id":"7b386264-cbd4-4dc3-88c8-2718f6f8342e","system_id":"levelo_inurba_marseille","lat":43.304606,"lon":5.379026,"is_reserved":false,"is_disabled":false,"rental_uris":{"android":"levelo://app?vid=7b386264-cbd4-4dc3-88c8-2718f6f8342e","ios":"levelo://app?vid=7b386264-cbd4-4dc3-88c8-2718f6f8342e"},"vehicle_type_id":"4","last_reported":1707941256,"current_range_meters":7200,"station_id":"ce4bgup2rcd13ifvqcn0","pricing_plan_id":"cebpf4jnsgd1na2vs0mg"},{"bike_id":"ce616d52-5fda-4dfc-9562-908adeb662ff","system_id":"levelo_inurba_marseille","lat":43.324771,"lon":5.36557,"is_reserved":false,"is_disabled":false,"rental_uris":{"android":"levelo://app?vid=ce616d52-5fda-4dfc-9562-908adeb662ff","ios":"levelo://app?vid=ce616d52-5fda-4dfc-9562-908adeb662ff"},"vehicle_type_id":"4","last_reported":1707941256,"current_range_meters":3200,"station_id":"ce4bhs12rcd13ifvqhvg","pricing_plan_id":"cebpf4jnsgd1na2vs0mg"},{"bike_id":"eaf76b94-1cb5-4923-acc9-3ff87ec1a8c2","system_id":"levelo_inurba_marseille","lat":43.324771,"lon":5.36557,"is_reserved":false,"is_disabled":false,"rental_uris":{"android":"levelo://app?vid=eaf76b94-1cb5-4923-acc9-3ff87ec1a8c2","ios":"levelo://app?vid=eaf76b94-1cb5-4923-acc9-3ff87ec1a8c2"},"vehicle_type_id":"4","last_reported":1707941256,"current_range_meters":9600,"station_id":"ce4bhs12rcd13ifvqhvg","pricing_plan_id":"cebpf4jnsgd1na2vs0mg"},{"bike_id":"1e108d17-6a7c-4829-9182-d67ce39c0879","system_id":"levelo_inurba_marseille","lat":43.324771,"lon":5.36557,"is_reserved":false,"is_disabled":false,"rental_uris":{"android":"levelo://app?vid=1e108d17-6a7c-4829-9182-d67ce39c0879","ios":"levelo://app?vid=1e108d17-6a7c-4829-9182-d67ce39c0879"},"vehicle_type_id":"4","last_reported":1707941256,"current_range_meters":20000,"station_id":"ce4bhs12rcd13ifvqhvg","pricing_plan_id":"cebpf4jnsgd1na2vs0mg"},{"bike_id":"71b4efb8-7aeb-49c5-9a62-83440eb853a7","system_id":"levelo_inurba_marseille","lat":43.31065,"lon":5.38355,"is_reserved":false,"is_disabled":false,"rental_uris":{"android":"levelo://app?vid=71b4efb8-7aeb-49c5-9a62-83440eb853a7","ios":"levelo://app?vid=71b4efb8-7aeb-49c5-9a62-83440eb853a7"},"vehicle_type_id":"4","last_reported":1707941256,"current_range_meters":0,"station_id":"ce4bgv92rcd13ifvqcr0","pricing_plan_id":"cebpf4jnsgd1na2vs0mg"},{"bike_id":"003670cd-8418-4b70-9feb-40a490ec6db9","system_id":"levelo_inurba_marseille","lat":43.310804,"lon":5.38359,"is_reserved":false,"is_disabled":false,"rental_uris":{"android":"levelo://app?vid=003670cd-8418-4b70-9feb-40a490ec6db9","ios":"levelo://app?vid=003670cd-8418-4b70-9feb-40a490ec6db9"},"vehicle_type_id":"4","last_reported":1707941256,"current_range_meters":13200,"station_id":"ce4bgv92rcd13ifvqcr0","pricing_plan_id":"cebpf4jnsgd1na2vs0mg"},{"bike_id":"b91a38e7-759b-436f-bdf9-46b06d86f931","system_id":"levelo_inurba_marseille","lat":43.31069,"lon":5.38357,"is_reserved":false,"is_disabled":false,"rental_uris":{"android":"levelo://app?vid=b91a38e7-759b-436f-bdf9-46b06d86f931","ios":"levelo://app?vid=b91a38e7-759b-436f-bdf9-46b06d86f931"},"vehicle_type_id":"4","last_reported":1707941256,"current_range_meters":15200,"station_id":"ce4bgv92rcd13ifvqcr0","pricing_plan_id":"cebpf4jnsgd1na2vs0mg"},{"bike_id":"03bd98fa-4eb3-4ef7-95d1-f7c83ba6e140","system_id":"levelo_inurba_marseille","lat":43.31067,"lon":5.38362,"is_reserved":false,"is_disabled":false,"rental_uris":{"android":"levelo://app?vid=03bd98fa-4eb3-4ef7-95d1-f7c83ba6e140","ios":"levelo://app?vid=03bd98fa-4eb3-4ef7-95d1-f7c83ba6e140"},"vehicle_type_id":"4","last_reported":1707941256,"current_range_meters":16000,"station_id":"ce4bgv92rcd13ifvqcr0","pricing_plan_id":"cebpf4jnsgd1na2vs0mg"},{"bike_id":"1f6e23da-7d91-4c57-ba22-e9ce507f2ace","system_id":"levelo_inurba_marseille","lat":43.310804,"lon":5.38359,"is_reserved":false,"is_disabled":false,"rental_uris":{"android":"levelo://app?vid=1f6e23da-7d91-4c57-ba22-e9ce507f2ace","ios":"levelo://app?vid=1f6e23da-7d91-4c57-ba22-e9ce507f2ace"},"vehicle_type_id":"4","last_reported":1707941256,"current_range_meters":21200,"station_id":"ce4bgv92rcd13ifvqcr0","pricing_plan_id":"cebpf4jnsgd1na2vs0mg"},{"bike_id":"5fe1d487-0671-4794-ab96-d4fad8e0c5b2","system_id":"levelo_inurba_marseille","lat":43.30282,"lon":5.37703,"is_reserved":false,"is_disabled":false,"rental_uris":{"android":"levelo://app?vid=5fe1d487-0671-4794-ab96-d4fad8e0c5b2","ios":"levelo://app?vid=5fe1d487-0671-4794-ab96-d4fad8e0c5b2"},"vehicle_type_id":"4","last_reported":1707941256,"current_range_meters":0,"station_id":"ce4bguh2rcd13ifvqcj0","pricing_plan_id":"cebpf4jnsgd1na2vs0mg"},{"bike_id":"12152ff0-26d0-44c8-98bd-fdfbcd54aab2","system_id":"levelo_inurba_marseille","lat":43.319935,"lon":5.381699,"is_reserved":false,"is_disabled":false,"rental_uris":{"android":"levelo://app?vid=12152ff0-26d0-44c8-98bd-fdfbcd54aab2","ios":"levelo://app?vid=12152ff0-26d0-44c8-98bd-fdfbcd54aab2"},"vehicle_type_id":"4","last_reported":1707941256,"current_range_meters":11200,"station_id":"ce4bhr12rcd13ifvqhpg","pricing_plan_id":"cebpf4jnsgd1na2vs0mg"},{"bike_id":"d7e1e4c7-d866-4ba1-992a-68bdf64f7e72","system_id":"levelo_inurba_marseille","lat":43.319935,"lon":5.381699,"is_reserved":false,"is_disabled":false,"rental_uris":{"android":"levelo://app?vid=d7e1e4c7-d866-4ba1-992a-68bdf64f7e72","ios":"levelo://app?vid=d7e1e4c7-d866-4ba1-992a-68bdf64f7e72"},"vehicle_type_id":"4","last_reported":1707941256,"current_range_meters":3600,"station_id":"ce4bhr12rcd13ifvqhpg","pricing_plan_id":"cebpf4jnsgd1na2vs0mg"},{"bike_id":"4f9328d1-96d2-4c4d-b400-a2bcd35e43b4","system_id":"levelo_inurba_marseille","lat":43.319935,"lon":5.381699,"is_reserved":false,"is_disabled":false,"rental_uris":{"android":"levelo://app?vid=4f9328d1-96d2-4c4d-b400-a2bcd35e43b4","ios":"levelo://app?vid=4f9328d1-96d2-4c4d-b400-a2bcd35e43b4"},"vehicle_type_id":"4","last_reported":1707941256,"current_range_meters":29600,"station_id":"ce4bhr12rcd13ifvqhpg","pricing_plan_id":"cebpf4jnsgd1na2vs0mg"},{"bike_id":"9d586241-c832-456e-b8c2-42caa11d3c95","system_id":"levelo_inurba_marseille","lat":43.319935,"lon":5.381699,"is_reserved":false,"is_disabled":false,"rental_uris":{"android":"levelo://app?vid=9d586241-c832-456e-b8c2-42caa11d3c95","ios":"levelo://app?vid=9d586241-c832-456e-b8c2-42caa11d3c95"},"vehicle_type_id":"4","last_reported":1707941256,"current_range_meters":14800,"station_id":"ce4bhr12rcd13ifvqhpg","pricing_plan_id":"cebpf4jnsgd1na2vs0mg"},{"bike_id":"32a6a968-1bfb-4aba-9eae-9ffe66342d16","system_id":"levelo_inurba_marseille","lat":43.313571,"lon":5.384829,"is_reserved":false,"is_disabled":false,"rental_uris":{"android":"levelo://app?vid=32a6a968-1bfb-4aba-9eae-9ffe66342d16","ios":"levelo://app?vid=32a6a968-1bfb-4aba-9eae-9ffe66342d16"},"vehicle_type_id":"4","last_reported":1707941256,"current_range_meters":5600,"station_id":"ce4bgt92rcd13ifvqcf0","pricing_plan_id":"cebpf4jnsgd1na2vs0mg"},{"bike_id":"2569cebb-72e8-4864-8961-b7ffae8f683e","system_id":"levelo_inurba_marseille","lat":43.313571,"lon":5.384829,"is_reserved":false,"is_disabled":false,"rental_uris":{"android":"levelo://app?vid=2569cebb-72e8-4864-8961-b7ffae8f683e","ios":"levelo://app?vid=2569cebb-72e8-4864-8961-b7ffae8f683e"},"vehicle_type_id":"4","last_reported":1707941256,"current_range_meters":22000,"station_id":"ce4bgt92rcd13ifvqcf0","pricing_plan_id":"cebpf4jnsgd1na2vs0mg"},{"bike_id":"6d50b8bc-6060-4e04-ab05-218f302d6c07","system_id":"levelo_inurba_marseille","lat":43.298433,"lon":5.362774,"is_reserved":false,"is_disabled":false,"rental_uris":{"android":"levelo://app?vid=6d50b8bc-6060-4e04-ab05-218f302d6c07","ios":"levelo://app?vid=6d50b8bc-6060-4e04-ab05-218f302d6c07"},"vehicle_type_id":"4","last_reported":1707941256,"current_range_meters":7200,"station_id":"ce4bgpp2rcd13ifvqc3g","pricing_plan_id":"cebpf4jnsgd1na2vs0mg"},{"bike_id":"24e98f06-615d-400a-ac42-49457e28276b","system_id":"levelo_inurba_marseille","lat":43.298433,"lon":5.362774,"is_reserved":false,"is_disabled":false,"rental_uris":{"android":"levelo://app?vid=24e98f06-615d-400a-ac42-49457e28276b","ios":"levelo://app?vid=24e98f06-615d-400a-ac42-49457e28276b"},"vehicle_type_id":"4","last_reported":1707941256,"current_range_meters":20800,"station_id":"ce4bgpp2rcd13ifvqc3g","pricing_plan_id":"cebpf4jnsgd1na2vs0mg"},{"bike_id":"d0912b12-4569-4c86-bcd4-d35e80b8ff59","system_id":"levelo_inurba_marseille","lat":43.299243,"lon":5.37481,"is_reserved":false,"is_disabled":false,"rental_uris":{"android":"levelo://app?vid=d0912b12-4569-4c86-bcd4-d35e80b8ff59","ios":"levelo://app?vid=d0912b12-4569-4c86-bcd4-d35e80b8ff59"},"vehicle_type_id":"4","last_reported":1707941256,"current_range_meters":11600,"station_id":"ce4bgjh2rcd13ifvqbg0","pricing_plan_id":"cebpf4jnsgd1na2vs0mg"},{"bike_id":"eb64e057-1218-47f0-9712-d6e659b23bd4","system_id":"levelo_inurba_marseille","lat":43.305364,"lon":5.384119,"is_reserved":false,"is_disabled":false,"rental_uris":{"android":"levelo://app?vid=eb64e057-1218-47f0-9712-d6e659b23bd4","ios":"levelo://app?vid=eb64e057-1218-47f0-9712-d6e659b23bd4"},"vehicle_type_id":"4","last_reported":1707941256,"current_range_meters":24800,"station_id":"ce4bgg92rcd13ifvqb30","pricing_plan_id":"cebpf4jnsgd1na2vs0mg"},{"bike_id":"875887cf-f4e3-4272-b63d-dfe0614966e4","system_id":"levelo_inurba_marseille","lat":43.311722,"lon":5.387247,"is_reserved":false,"is_disabled":false,"rental_uris":{"android":"levelo://app?vid=875887cf-f4e3-4272-b63d-dfe0614966e4","ios":"levelo://app?vid=875887cf-f4e3-4272-b63d-dfe0614966e4"},"vehicle_type_id":"4","last_reported":1707941256,"current_range_meters":27600,"station_id":"ce4bgv12rcd13ifvqcp0","pricing_plan_id":"cebpf4jnsgd1na2vs0mg"},{"bike_id":"01093a38-282a-4ecc-8f75-4573be9f2a70","system_id":"levelo_inurba_marseille","lat":43.311722,"lon":5.387247,"is_reserved":false,"is_disabled":false,"rental_uris":{"android":"levelo://app?vid=01093a38-282a-4ecc-8f75-4573be9f2a70","ios":"levelo://app?vid=01093a38-282a-4ecc-8f75-4573be9f2a70"},"vehicle_type_id":"4","last_reported":1707941256,"current_range_meters":12000,"station_id":"ce4bgv12rcd13ifvqcp0","pricing_plan_id":"cebpf4jnsgd1na2vs0mg"},{"bike_id":"8a2fb96f-6249-4d76-9673-6997566e6cdf","system_id":"levelo_inurba_marseille","lat":43.311722,"lon":5.387247,"is_reserved":false,"is_disabled":false,"rental_uris":{"android":"levelo://app?vid=8a2fb96f-6249-4d76-9673-6997566e6cdf","ios":"levelo://app?vid=8a2fb96f-6249-4d76-9673-6997566e6cdf"},"vehicle_type_id":"4","last_reported":1707941256,"current_range_meters":16000,"station_id":"ce4bgv12rcd13ifvqcp0","pricing_plan_id":"cebpf4jnsgd1na2vs0mg"},{"bike_id":"1e2ed12b-5f17-4e8e-a940-18ecdcd86a6a","system_id":"levelo_inurba_marseille","lat":43.311722,"lon":5.387247,"is_reserved":false,"is_disabled":false,"rental_uris":{"android":"levelo://app?vid=1e2ed12b-5f17-4e8e-a940-18ecdcd86a6a","ios":"levelo://app?vid=1e2ed12b-5f17-4e8e-a940-18ecdcd86a6a"},"vehicle_type_id":"4","last_reported":1707941256,"current_range_meters":8800,"station_id":"ce4bgv12rcd13ifvqcp0","pricing_plan_id":"cebpf4jnsgd1na2vs0mg"},{"bike_id":"bb3d286b-5faa-41ad-8f48-a16aed87c142","system_id":"levelo_inurba_marseille","lat":43.311722,"lon":5.387247,"is_reserved":false,"is_disabled":false,"rental_uris":{"android":"levelo://app?vid=bb3d286b-5faa-41ad-8f48-a16aed87c142","ios":"levelo://app?vid=bb3d286b-5faa-41ad-8f48-a16aed87c142"},"vehicle_type_id":"4","last_reported":1707941256,"current_range_meters":28000,"station_id":"ce4bgv12rcd13ifvqcp0","pricing_plan_id":"cebpf4jnsgd1na2vs0mg"},{"bike_id":"5d2d1e93-eba3-45f9-8f23-b3e503b02db1","system_id":"levelo_inurba_marseille","lat":43.297794,"lon":5.370888,"is_reserved":false,"is_disabled":false,"rental_uris":{"android":"levelo://app?vid=5d2d1e93-eba3-45f9-8f23-b3e503b02db1","ios":"levelo://app?vid=5d2d1e93-eba3-45f9-8f23-b3e503b02db1"},"vehicle_type_id":"4","last_reported":1707941256,"current_range_meters":12000,"station_id":"ce4bgop2rcd13ifvqc1g","pricing_plan_id":"cebpf4jnsgd1na2vs0mg"},{"bike_id":"118fcb4e-73cd-43af-8bf2-be4e0690f9d8","system_id":"levelo_inurba_marseille","lat":43.322872,"lon":5.382756,"is_reserved":false,"is_disabled":false,"rental_uris":{"android":"levelo://app?vid=118fcb4e-73cd-43af-8bf2-be4e0690f9d8","ios":"levelo://app?vid=118fcb4e-73cd-43af-8bf2-be4e0690f9d8"},"vehicle_type_id":"4","last_reported":1707941256,"current_range_meters":10400,"station_id":"ce4bhr12rcd13ifvqhqg","pricing_plan_id":"cebpf4jnsgd1na2vs0mg"},{"bike_id":"be38420d-f51a-4967-8251-f13390162da9","system_id":"levelo_inurba_marseille","lat":43.322872,"lon":5.382756,"is_reserved":false,"is_disabled":false,"rental_uris":{"android":"levelo://app?vid=be38420d-f51a-4967-8251-f13390162da9","ios":"levelo://app?vid=be38420d-f51a-4967-8251-f13390162da9"},"vehicle_type_id":"4","last_reported":1707941256,"current_range_meters":26000,"station_id":"ce4bhr12rcd13ifvqhqg","pricing_plan_id":"cebpf4jnsgd1na2vs0mg"},{"bike_id":"aed9e4ad-9c1a-4a51-8095-58a12f0b44f4","system_id":"levelo_inurba_marseille","lat":43.322872,"lon":5.382756,"is_reserved":false,"is_disabled":false,"rental_uris":{"android":"levelo://app?vid=aed9e4ad-9c1a-4a51-8095-58a12f0b44f4","ios":"levelo://app?vid=aed9e4ad-9c1a-4a51-8095-58a12f0b44f4"},"vehicle_type_id":"4","last_reported":1707941256,"current_range_meters":30800,"station_id":"ce4bhr12rcd13ifvqhqg","pricing_plan_id":"cebpf4jnsgd1na2vs0mg"},{"bike_id":"244b7149-7bde-4987-b654-88632569d8fb","system_id":"levelo_inurba_marseille","lat":43.322872,"lon":5.382756,"is_reserved":false,"is_disabled":false,"rental_uris":{"android":"levelo://app?vid=244b7149-7bde-4987-b654-88632569d8fb","ios":"levelo://app?vid=244b7149-7bde-4987-b654-88632569d8fb"},"vehicle_type_id":"4","last_reported":1707941256,"current_range_meters":28400,"station_id":"ce4bhr12rcd13ifvqhqg","pricing_plan_id":"cebpf4jnsgd1na2vs0mg"},{"bike_id":"ec21c626-faeb-41e5-9192-4d2bef3ee4d3","system_id":"levelo_inurba_marseille","lat":43.32823,"lon":5.36686,"is_reserved":false,"is_disabled":false,"rental_uris":{"android":"levelo://app?vid=ec21c626-faeb-41e5-9192-4d2bef3ee4d3","ios":"levelo://app?vid=ec21c626-faeb-41e5-9192-4d2bef3ee4d3"},"vehicle_type_id":"4","last_reported":1707941256,"current_range_meters":8800,"station_id":"ce4bhs92rcd13ifvqi0g","pricing_plan_id":"cebpf4jnsgd1na2vs0mg"},{"bike_id":"eec18b1c-bcf1-4268-8859-b234d772b467","system_id":"levelo_inurba_marseille","lat":43.32823,"lon":5.36684,"is_reserved":false,"is_disabled":false,"rental_uris":{"android":"levelo://app?vid=eec18b1c-bcf1-4268-8859-b234d772b467","ios":"levelo://app?vid=eec18b1c-bcf1-4268-8859-b234d772b467"},"vehicle_type_id":"4","last_reported":1707941256,"current_range_meters":11200,"station_id":"ce4bhs92rcd13ifvqi0g","pricing_plan_id":"cebpf4jnsgd1na2vs0mg"},{"bike_id":"57f57f96-aa15-40ae-a761-f5242a8c30b7","system_id":"levelo_inurba_marseille","lat":43.32824,"lon":5.36684,"is_reserved":false,"is_disabled":false,"rental_uris":{"android":"levelo://app?vid=57f57f96-aa15-40ae-a761-f5242a8c30b7","ios":"levelo://app?vid=57f57f96-aa15-40ae-a761-f5242a8c30b7"},"vehicle_type_id":"4","last_reported":1707941256,"current_range_meters":14800,"station_id":"ce4bhs92rcd13ifvqi0g","pricing_plan_id":"cebpf4jnsgd1na2vs0mg"},{"bike_id":"d059372d-713e-4306-a0dc-ef5b2b5ad059","system_id":"levelo_inurba_marseille","lat":43.32826,"lon":5.36678,"is_reserved":false,"is_disabled":false,"rental_uris":{"android":"levelo://app?vid=d059372d-713e-4306-a0dc-ef5b2b5ad059","ios":"levelo://app?vid=d059372d-713e-4306-a0dc-ef5b2b5ad059"},"vehicle_type_id":"4","last_reported":1707941256,"current_range_meters":3600,"station_id":"ce4bhs92rcd13ifvqi0g","pricing_plan_id":"cebpf4jnsgd1na2vs0mg"},{"bike_id":"c9b88aad-86c2-4a51-9436-08e8586a0048","system_id":"levelo_inurba_marseille","lat":43.32827,"lon":5.36686,"is_reserved":false,"is_disabled":false,"rental_uris":{"android":"levelo://app?vid=c9b88aad-86c2-4a51-9436-08e8586a0048","ios":"levelo://app?vid=c9b88aad-86c2-4a51-9436-08e8586a0048"},"vehicle_type_id":"4","last_reported":1707941256,"current_range_meters":19200,"station_id":"ce4bhs92rcd13ifvqi0g","pricing_plan_id":"cebpf4jnsgd1na2vs0mg"},{"bike_id":"b354d40e-f748-45df-b8a4-085ee0f39b31","system_id":"levelo_inurba_marseille","lat":43.32827,"lon":5.36679,"is_reserved":false,"is_disabled":false,"rental_uris":{"android":"levelo://app?vid=b354d40e-f748-45df-b8a4-085ee0f39b31","ios":"levelo://app?vid=b354d40e-f748-45df-b8a4-085ee0f39b31"},"vehicle_type_id":"4","last_reported":1707941256,"current_range_meters":24000,"station_id":"ce4bhs92rcd13ifvqi0g","pricing_plan_id":"cebpf4jnsgd1na2vs0mg"},{"bike_id":"ba7e2d45-23a5-46a7-b5c1-beb1b5de7e04","system_id":"levelo_inurba_marseille","lat":43.32828,"lon":5.36693,"is_reserved":false,"is_disabled":false,"rental_uris":{"android":"levelo://app?vid=ba7e2d45-23a5-46a7-b5c1-beb1b5de7e04","ios":"levelo://app?vid=ba7e2d45-23a5-46a7-b5c1-beb1b5de7e04"},"vehicle_type_id":"4","last_reported":1707941256,"current_range_meters":18400,"station_id":"ce4bhs92rcd13ifvqi0g","pricing_plan_id":"cebpf4jnsgd1na2vs0mg"},{"bike_id":"7c47e388-9433-4092-857a-2e1a28e7faaa","system_id":"levelo_inurba_marseille","lat":43.32828,"lon":5.36678,"is_reserved":false,"is_disabled":false,"rental_uris":{"android":"levelo://app?vid=7c47e388-9433-4092-857a-2e1a28e7faaa","ios":"levelo://app?vid=7c47e388-9433-4092-857a-2e1a28e7faaa"},"vehicle_type_id":"4","last_reported":1707941256,"current_range_meters":27200,"station_id":"ce4bhs92rcd13ifvqi0g","pricing_plan_id":"cebpf4jnsgd1na2vs0mg"},{"bike_id":"24cbb04a-c763-4b6c-91c7-7ce4ce9a6969","system_id":"levelo_inurba_marseille","lat":43.32829,"lon":5.36681,"is_reserved":false,"is_disabled":false,"rental_uris":{"android":"levelo://app?vid=24cbb04a-c763-4b6c-91c7-7ce4ce9a6969","ios":"levelo://app?vid=24cbb04a-c763-4b6c-91c7-7ce4ce9a6969"},"vehicle_type_id":"4","last_reported":1707941256,"current_range_meters":16400,"station_id":"ce4bhs92rcd13ifvqi0g","pricing_plan_id":"cebpf4jnsgd1na2vs0mg"},{"bike_id":"c579bad3-e2d0-4712-a783-f41c065e4e3f","system_id":"levelo_inurba_marseille","lat":43.32829,"lon":5.3668,"is_reserved":false,"is_disabled":false,"rental_uris":{"android":"levelo://app?vid=c579bad3-e2d0-4712-a783-f41c065e4e3f","ios":"levelo://app?vid=c579bad3-e2d0-4712-a783-f41c065e4e3f"},"vehicle_type_id":"4","last_reported":1707941256,"current_range_meters":10000,"station_id":"ce4bhs92rcd13ifvqi0g","pricing_plan_id":"cebpf4jnsgd1na2vs0mg"},{"bike_id":"8b36ce43-3bc7-4f8a-bb1e-1f87c12ac26a","system_id":"levelo_inurba_marseille","lat":43.32829,"lon":5.36667,"is_reserved":false,"is_disabled":false,"rental_uris":{"android":"levelo://app?vid=8b36ce43-3bc7-4f8a-bb1e-1f87c12ac26a","ios":"levelo://app?vid=8b36ce43-3bc7-4f8a-bb1e-1f87c12ac26a"},"vehicle_type_id":"4","last_reported":1707941256,"current_range_meters":9200,"station_id":"ce4bhs92rcd13ifvqi0g","pricing_plan_id":"cebpf4jnsgd1na2vs0mg"},{"bike_id":"e53477e0-6f81-44d0-bf92-8c0c4ae8ef5b","system_id":"levelo_inurba_marseille","lat":43.328296,"lon":5.366833,"is_reserved":false,"is_disabled":false,"rental_uris":{"android":"levelo://app?vid=e53477e0-6f81-44d0-bf92-8c0c4ae8ef5b","ios":"levelo://app?vid=e53477e0-6f81-44d0-bf92-8c0c4ae8ef5b"},"vehicle_type_id":"4","last_reported":1707941256,"current_range_meters":18400,"station_id":"ce4bhs92rcd13ifvqi0g","pricing_plan_id":"cebpf4jnsgd1na2vs0mg"},{"bike_id":"8d4d4aba-3495-4235-ada7-809a0bcb5c57","system_id":"levelo_inurba_marseille","lat":43.3283,"lon":5.3668,"is_reserved":false,"is_disabled":false,"rental_uris":{"android":"levelo://app?vid=8d4d4aba-3495-4235-ada7-809a0bcb5c57","ios":"levelo://app?vid=8d4d4aba-3495-4235-ada7-809a0bcb5c57"},"vehicle_type_id":"4","last_reported":1707941256,"current_range_meters":22400,"station_id":"ce4bhs92rcd13ifvqi0g","pricing_plan_id":"cebpf4jnsgd1na2vs0mg"},{"bike_id":"f41ceea4-9289-4d6b-990c-9f2656a72f3b","system_id":"levelo_inurba_marseille","lat":43.3283,"lon":5.36675,"is_reserved":false,"is_disabled":false,"rental_uris":{"android":"levelo://app?vid=f41ceea4-9289-4d6b-990c-9f2656a72f3b","ios":"levelo://app?vid=f41ceea4-9289-4d6b-990c-9f2656a72f3b"},"vehicle_type_id":"4","last_reported":1707941256,"current_range_meters":2800,"station_id":"ce4bhs92rcd13ifvqi0g","pricing_plan_id":"cebpf4jnsgd1na2vs0mg"},{"bike_id":"6df14f4e-5762-4688-823c-207c1d70636e","system_id":"levelo_inurba_marseille","lat":43.32832,"lon":5.36675,"is_reserved":false,"is_disabled":false,"rental_uris":{"android":"levelo://app?vid=6df14f4e-5762-4688-823c-207c1d70636e","ios":"levelo://app?vid=6df14f4e-5762-4688-823c-207c1d70636e"},"vehicle_type_id":"4","last_reported":1707941256,"current_range_meters":5200,"station_id":"ce4bhs92rcd13ifvqi0g","pricing_plan_id":"cebpf4jnsgd1na2vs0mg"},{"bike_id":"20747a73-3ec2-4ec7-9c3a-f0ad85525260","system_id":"levelo_inurba_marseille","lat":43.32833,"lon":5.36672,"is_reserved":false,"is_disabled":false,"rental_uris":{"android":"levelo://app?vid=20747a73-3ec2-4ec7-9c3a-f0ad85525260","ios":"levelo://app?vid=20747a73-3ec2-4ec7-9c3a-f0ad85525260"},"vehicle_type_id":"4","last_reported":1707941256,"current_range_meters":3600,"station_id":"ce4bhs92rcd13ifvqi0g","pricing_plan_id":"cebpf4jnsgd1na2vs0mg"},{"bike_id":"21e34cb8-ab84-4bcf-af44-ce5eaa23f4a9","system_id":"levelo_inurba_marseille","lat":43.32834,"lon":5.36677,"is_reserved":false,"is_disabled":false,"rental_uris":{"android":"levelo://app?vid=21e34cb8-ab84-4bcf-af44-ce5eaa23f4a9","ios":"levelo://app?vid=21e34cb8-ab84-4bcf-af44-ce5eaa23f4a9"},"vehicle_type_id":"4","last_reported":1707941256,"current_range_meters":12000,"station_id":"ce4bhs92rcd13ifvqi0g","pricing_plan_id":"cebpf4jnsgd1na2vs0mg"},{"bike_id":"00c486e2-5b6f-4240-9c00-f34f4cd392e2","system_id":"levelo_inurba_marseille","lat":43.32836,"lon":5.36678,"is_reserved":false,"is_disabled":false,"rental_uris":{"android":"levelo://app?vid=00c486e2-5b6f-4240-9c00-f34f4cd392e2","ios":"levelo://app?vid=00c486e2-5b6f-4240-9c00-f34f4cd392e2"},"vehicle_type_id":"4","last_reported":1707941256,"current_range_meters":17600,"station_id":"ce4bhs92rcd13ifvqi0g","pricing_plan_id":"cebpf4jnsgd1na2vs0mg"},{"bike_id":"2c0240b9-332f-43a4-b9ad-92a79e9225d2","system_id":"levelo_inurba_marseille","lat":43.32837,"lon":5.36678,"is_reserved":false,"is_disabled":false,"rental_uris":{"android":"levelo://app?vid=2c0240b9-332f-43a4-b9ad-92a79e9225d2","ios":"levelo://app?vid=2c0240b9-332f-43a4-b9ad-92a79e9225d2"},"vehicle_type_id":"4","last_reported":1707941256,"current_range_meters":12400,"station_id":"ce4bhs92rcd13ifvqi0g","pricing_plan_id":"cebpf4jnsgd1na2vs0mg"},{"bike_id":"55c40696-eac4-4ef2-ab85-010ac245187e","system_id":"levelo_inurba_marseille","lat":43.297163,"lon":5.365866,"is_reserved":false,"is_disabled":false,"rental_uris":{"android":"levelo://app?vid=55c40696-eac4-4ef2-ab85-010ac245187e","ios":"levelo://app?vid=55c40696-eac4-4ef2-ab85-010ac245187e"},"vehicle_type_id":"4","last_reported":1707941256,"current_range_meters":10800,"station_id":"ce4bgn12rcd13ifvqbt0","pricing_plan_id":"cebpf4jnsgd1na2vs0mg"},{"bike_id":"455586fa-93db-4262-9aa9-3ec4bb30a061","system_id":"levelo_inurba_marseille","lat":43.297163,"lon":5.365866,"is_reserved":false,"is_disabled":false,"rental_uris":{"android":"levelo://app?vid=455586fa-93db-4262-9aa9-3ec4bb30a061","ios":"levelo://app?vid=455586fa-93db-4262-9aa9-3ec4bb30a061"},"vehicle_type_id":"4","last_reported":1707941256,"current_range_meters":22000,"station_id":"ce4bgn12rcd13ifvqbt0","pricing_plan_id":"cebpf4jnsgd1na2vs0mg"},{"bike_id":"b338c1d7-627e-4015-898a-dcde5ba40d9d","system_id":"levelo_inurba_marseille","lat":43.32839,"lon":5.36688,"is_reserved":false,"is_disabled":false,"rental_uris":{"android":"levelo://app?vid=b338c1d7-627e-4015-898a-dcde5ba40d9d","ios":"levelo://app?vid=b338c1d7-627e-4015-898a-dcde5ba40d9d"},"vehicle_type_id":"4","last_reported":1707941256,"current_range_meters":800,"station_id":"ce4bhs92rcd13ifvqi0g","pricing_plan_id":"cebpf4jnsgd1na2vs0mg"},{"bike_id":"8dabdcb3-fa40-4f17-b247-51e168cb9ce3","system_id":"levelo_inurba_marseille","lat":43.297163,"lon":5.365866,"is_reserved":false,"is_disabled":false,"rental_uris":{"android":"levelo://app?vid=8dabdcb3-fa40-4f17-b247-51e168cb9ce3","ios":"levelo://app?vid=8dabdcb3-fa40-4f17-b247-51e168cb9ce3"},"vehicle_type_id":"4","last_reported":1707941256,"current_range_meters":27600,"station_id":"ce4bgn12rcd13ifvqbt0","pricing_plan_id":"cebpf4jnsgd1na2vs0mg"},{"bike_id":"f039458f-387c-4add-9df4-5e24e597c3fa","system_id":"levelo_inurba_marseille","lat":43.297163,"lon":5.365866,"is_reserved":false,"is_disabled":false,"rental_uris":{"android":"levelo://app?vid=f039458f-387c-4add-9df4-5e24e597c3fa","ios":"levelo://app?vid=f039458f-387c-4add-9df4-5e24e597c3fa"},"vehicle_type_id":"4","last_reported":1707941256,"current_range_meters":19200,"station_id":"ce4bgn12rcd13ifvqbt0","pricing_plan_id":"cebpf4jnsgd1na2vs0mg"},{"bike_id":"b1c83044-6d20-4b37-959b-f7399efddb84","system_id":"levelo_inurba_marseille","lat":43.296131,"lon":5.370791,"is_reserved":false,"is_disabled":false,"rental_uris":{"android":"levelo://app?vid=b1c83044-6d20-4b37-959b-f7399efddb84","ios":"levelo://app?vid=b1c83044-6d20-4b37-959b-f7399efddb84"},"vehicle_type_id":"4","last_reported":1707941256,"current_range_meters":19200,"station_id":"ce4bgnh2rcd13ifvqc0g","pricing_plan_id":"cebpf4jnsgd1na2vs0mg"},{"bike_id":"0de3d2fa-67e1-49b5-87ad-f76431b7dde9","system_id":"levelo_inurba_marseille","lat":43.296131,"lon":5.370773,"is_reserved":false,"is_disabled":false,"rental_uris":{"android":"levelo://app?vid=0de3d2fa-67e1-49b5-87ad-f76431b7dde9","ios":"levelo://app?vid=0de3d2fa-67e1-49b5-87ad-f76431b7dde9"},"vehicle_type_id":"4","last_reported":1707941256,"current_range_meters":3600,"station_id":"ce4bgnh2rcd13ifvqc0g","pricing_plan_id":"cebpf4jnsgd1na2vs0mg"},{"bike_id":"73faa8bf-456e-4e03-b068-d73c4613ecd0","system_id":"levelo_inurba_marseille","lat":43.296129,"lon":5.370777,"is_reserved":false,"is_disabled":false,"rental_uris":{"android":"levelo://app?vid=73faa8bf-456e-4e03-b068-d73c4613ecd0","ios":"levelo://app?vid=73faa8bf-456e-4e03-b068-d73c4613ecd0"},"vehicle_type_id":"4","last_reported":1707941256,"current_range_meters":12800,"station_id":"ce4bgnh2rcd13ifvqc0g","pricing_plan_id":"cebpf4jnsgd1na2vs0mg"},{"bike_id":"bb353843-ca90-4e23-9454-092e3bfc7962","system_id":"levelo_inurba_marseille","lat":43.296129,"lon":5.370777,"is_reserved":false,"is_disabled":false,"rental_uris":{"android":"levelo://app?vid=bb353843-ca90-4e23-9454-092e3bfc7962","ios":"levelo://app?vid=bb353843-ca90-4e23-9454-092e3bfc7962"},"vehicle_type_id":"4","last_reported":1707941256,"current_range_meters":24000,"station_id":"ce4bgnh2rcd13ifvqc0g","pricing_plan_id":"cebpf4jnsgd1na2vs0mg"},{"bike_id":"650bc9ed-623b-468e-a430-6ad5ee9fddeb","system_id":"levelo_inurba_marseille","lat":43.299039,"lon":5.381321,"is_reserved":false,"is_disabled":false,"rental_uris":{"android":"levelo://app?vid=650bc9ed-623b-468e-a430-6ad5ee9fddeb","ios":"levelo://app?vid=650bc9ed-623b-468e-a430-6ad5ee9fddeb"},"vehicle_type_id":"4","last_reported":1707941256,"current_range_meters":16000,"station_id":"","pricing_plan_id":"cebpf4jnsgd1na2vs0mg"},{"bike_id":"4d4a14d3-d957-466f-a3bf-cfb21b9eeffb","system_id":"levelo_inurba_marseille","lat":43.299028,"lon":5.381509,"is_reserved":false,"is_disabled":false,"rental_uris":{"android":"levelo://app?vid=4d4a14d3-d957-466f-a3bf-cfb21b9eeffb","ios":"levelo://app?vid=4d4a14d3-d957-466f-a3bf-cfb21b9eeffb"},"vehicle_type_id":"4","last_reported":1707941256,"current_range_meters":20400,"station_id":"ce4bgj12rcd13ifvqbc0","pricing_plan_id":"cebpf4jnsgd1na2vs0mg"},{"bike_id":"c5bb277b-e425-4adb-84f4-fe4c32fbda21","system_id":"levelo_inurba_marseille","lat":43.317557,"lon":5.390173,"is_reserved":false,"is_disabled":false,"rental_uris":{"android":"levelo://app?vid=c5bb277b-e425-4adb-84f4-fe4c32fbda21","ios":"levelo://app?vid=c5bb277b-e425-4adb-84f4-fe4c32fbda21"},"vehicle_type_id":"4","last_reported":1707941256,"current_range_meters":12800,"station_id":"ce4bhqp2rcd13ifvqhng","pricing_plan_id":"cebpf4jnsgd1na2vs0mg"},{"bike_id":"43233241-859b-48de-8612-b6c1b825776d","system_id":"levelo_inurba_marseille","lat":43.31763,"lon":5.39004,"is_reserved":false,"is_disabled":false,"rental_uris":{"android":"levelo://app?vid=43233241-859b-48de-8612-b6c1b825776d","ios":"levelo://app?vid=43233241-859b-48de-8612-b6c1b825776d"},"vehicle_type_id":"4","last_reported":1707941256,"current_range_meters":10400,"station_id":"ce4bhqp2rcd13ifvqhng","pricing_plan_id":"cebpf4jnsgd1na2vs0mg"},{"bike_id":"b3dcb9ba-bf07-48c1-aada-2fbdb761a352","system_id":"levelo_inurba_marseille","lat":43.317557,"lon":5.390173,"is_reserved":false,"is_disabled":false,"rental_uris":{"android":"levelo://app?vid=b3dcb9ba-bf07-48c1-aada-2fbdb761a352","ios":"levelo://app?vid=b3dcb9ba-bf07-48c1-aada-2fbdb761a352"},"vehicle_type_id":"4","last_reported":1707941256,"current_range_meters":31200,"station_id":"ce4bhqp2rcd13ifvqhng","pricing_plan_id":"cebpf4jnsgd1na2vs0mg"},{"bike_id":"bb6e54d1-0e60-4916-a05f-65ed728637f5","system_id":"levelo_inurba_marseille","lat":43.317557,"lon":5.390173,"is_reserved":false,"is_disabled":false,"rental_uris":{"android":"levelo://app?vid=bb6e54d1-0e60-4916-a05f-65ed728637f5","ios":"levelo://app?vid=bb6e54d1-0e60-4916-a05f-65ed728637f5"},"vehicle_type_id":"4","last_reported":1707941256,"current_range_meters":30800,"station_id":"ce4bhqp2rcd13ifvqhng","pricing_plan_id":"cebpf4jnsgd1na2vs0mg"},{"bike_id":"4d1fc426-76ca-4e7f-b775-e8d4d4862683","system_id":"levelo_inurba_marseille","lat":43.317557,"lon":5.390173,"is_reserved":false,"is_disabled":false,"rental_uris":{"android":"levelo://app?vid=4d1fc426-76ca-4e7f-b775-e8d4d4862683","ios":"levelo://app?vid=4d1fc426-76ca-4e7f-b775-e8d4d4862683"},"vehicle_type_id":"4","last_reported":1707941256,"current_range_meters":26800,"station_id":"ce4bhqp2rcd13ifvqhng","pricing_plan_id":"cebpf4jnsgd1na2vs0mg"},{"bike_id":"61113e6d-e1f4-49e1-94b1-ccb6fc9bcaf5","system_id":"levelo_inurba_marseille","lat":43.317557,"lon":5.390173,"is_reserved":false,"is_disabled":false,"rental_uris":{"android":"levelo://app?vid=61113e6d-e1f4-49e1-94b1-ccb6fc9bcaf5","ios":"levelo://app?vid=61113e6d-e1f4-49e1-94b1-ccb6fc9bcaf5"},"vehicle_type_id":"4","last_reported":1707941256,"current_range_meters":17600,"station_id":"ce4bhqp2rcd13ifvqhng","pricing_plan_id":"cebpf4jnsgd1na2vs0mg"},{"bike_id":"0d568f49-9e25-417a-91e9-babe78949eca","system_id":"levelo_inurba_marseille","lat":43.317557,"lon":5.390173,"is_reserved":false,"is_disabled":false,"rental_uris":{"android":"levelo://app?vid=0d568f49-9e25-417a-91e9-babe78949eca","ios":"levelo://app?vid=0d568f49-9e25-417a-91e9-babe78949eca"},"vehicle_type_id":"4","last_reported":1707941256,"current_range_meters":30800,"station_id":"ce4bhqp2rcd13ifvqhng","pricing_plan_id":"cebpf4jnsgd1na2vs0mg"},{"bike_id":"13db1a0a-84c8-4ba0-87f6-9800285e27fa","system_id":"levelo_inurba_marseille","lat":43.317525,"lon":5.390228,"is_reserved":false,"is_disabled":false,"rental_uris":{"android":"levelo://app?vid=13db1a0a-84c8-4ba0-87f6-9800285e27fa","ios":"levelo://app?vid=13db1a0a-84c8-4ba0-87f6-9800285e27fa"},"vehicle_type_id":"4","last_reported":1707941256,"current_range_meters":31200,"station_id":"ce4bhqp2rcd13ifvqhng","pricing_plan_id":"cebpf4jnsgd1na2vs0mg"},{"bike_id":"46fddee0-8afd-4938-8611-aae2e5c099d9","system_id":"levelo_inurba_marseille","lat":43.3176,"lon":5.39022,"is_reserved":false,"is_disabled":false,"rental_uris":{"android":"levelo://app?vid=46fddee0-8afd-4938-8611-aae2e5c099d9","ios":"levelo://app?vid=46fddee0-8afd-4938-8611-aae2e5c099d9"},"vehicle_type_id":"4","last_reported":1707941256,"current_range_meters":25200,"station_id":"ce4bhqp2rcd13ifvqhng","pricing_plan_id":"cebpf4jnsgd1na2vs0mg"},{"bike_id":"a66fec16-5c26-4073-bc2a-b4cafe2573db","system_id":"levelo_inurba_marseille","lat":43.2975,"lon":5.37929,"is_reserved":false,"is_disabled":false,"rental_uris":{"android":"levelo://app?vid=a66fec16-5c26-4073-bc2a-b4cafe2573db","ios":"levelo://app?vid=a66fec16-5c26-4073-bc2a-b4cafe2573db"},"vehicle_type_id":"4","last_reported":1707941256,"current_range_meters":0,"station_id":"","pricing_plan_id":"cebpf4jnsgd1na2vs0mg"},{"bike_id":"b044fcc2-e1ef-4f05-a384-230db419de7e","system_id":"levelo_inurba_marseille","lat":43.304274,"lon":5.388873,"is_reserved":false,"is_disabled":false,"rental_uris":{"android":"levelo://app?vid=b044fcc2-e1ef-4f05-a384-230db419de7e","ios":"levelo://app?vid=b044fcc2-e1ef-4f05-a384-230db419de7e"},"vehicle_type_id":"4","last_reported":1707941256,"current_range_meters":19200,"station_id":"ce4bgk12rcd13ifvqbi0","pricing_plan_id":"cebpf4jnsgd1na2vs0mg"},{"bike_id":"23609618-6a76-4d7c-9913-6e52dd7515d1","system_id":"levelo_inurba_marseille","lat":43.304274,"lon":5.388873,"is_reserved":false,"is_disabled":false,"rental_uris":{"android":"levelo://app?vid=23609618-6a76-4d7c-9913-6e52dd7515d1","ios":"levelo://app?vid=23609618-6a76-4d7c-9913-6e52dd7515d1"},"vehicle_type_id":"4","last_reported":1707941256,"current_range_meters":28800,"station_id":"ce4bgk12rcd13ifvqbi0","pricing_plan_id":"cebpf4jnsgd1na2vs0mg"},{"bike_id":"c13bfdb7-953c-43a9-9dd3-7b3c3ada2329","system_id":"levelo_inurba_marseille","lat":43.295748,"lon":5.37522,"is_reserved":false,"is_disabled":false,"rental_uris":{"android":"levelo://app?vid=c13bfdb7-953c-43a9-9dd3-7b3c3ada2329","ios":"levelo://app?vid=c13bfdb7-953c-43a9-9dd3-7b3c3ada2329"},"vehicle_type_id":"4","last_reported":1707941256,"current_range_meters":0,"station_id":"ce4bgh92rcd13ifvqb50","pricing_plan_id":"cebpf4jnsgd1na2vs0mg"},{"bike_id":"1fc9fa68-87c3-45fb-b044-67b3fcd39144","system_id":"levelo_inurba_marseille","lat":43.29574,"lon":5.37497,"is_reserved":false,"is_disabled":false,"rental_uris":{"android":"levelo://app?vid=1fc9fa68-87c3-45fb-b044-67b3fcd39144","ios":"levelo://app?vid=1fc9fa68-87c3-45fb-b044-67b3fcd39144"},"vehicle_type_id":"4","last_reported":1707941256,"current_range_meters":0,"station_id":"ce4bgh92rcd13ifvqb50","pricing_plan_id":"cebpf4jnsgd1na2vs0mg"},{"bike_id":"30801241-d265-41d9-943b-399e5891bca8","system_id":"levelo_inurba_marseille","lat":43.304274,"lon":5.388873,"is_reserved":false,"is_disabled":false,"rental_uris":{"android":"levelo://app?vid=30801241-d265-41d9-943b-399e5891bca8","ios":"levelo://app?vid=30801241-d265-41d9-943b-399e5891bca8"},"vehicle_type_id":"4","last_reported":1707941256,"current_range_meters":22400,"station_id":"ce4bgk12rcd13ifvqbi0","pricing_plan_id":"cebpf4jnsgd1na2vs0mg"},{"bike_id":"dbe76c01-2a0f-4a8d-a4ea-7a4406943b05","system_id":"levelo_inurba_marseille","lat":43.295748,"lon":5.37522,"is_reserved":false,"is_disabled":false,"rental_uris":{"android":"levelo://app?vid=dbe76c01-2a0f-4a8d-a4ea-7a4406943b05","ios":"levelo://app?vid=dbe76c01-2a0f-4a8d-a4ea-7a4406943b05"},"vehicle_type_id":"4","last_reported":1707941256,"current_range_meters":0,"station_id":"ce4bgh92rcd13ifvqb50","pricing_plan_id":"cebpf4jnsgd1na2vs0mg"},{"bike_id":"8dfcf779-6a76-4d8a-943f-d70c76e58984","system_id":"levelo_inurba_marseille","lat":43.295745,"lon":5.37517,"is_reserved":false,"is_disabled":false,"rental_uris":{"android":"levelo://app?vid=8dfcf779-6a76-4d8a-943f-d70c76e58984","ios":"levelo://app?vid=8dfcf779-6a76-4d8a-943f-d70c76e58984"},"vehicle_type_id":"4","last_reported":1707941256,"current_range_meters":0,"station_id":"ce4bgh92rcd13ifvqb50","pricing_plan_id":"cebpf4jnsgd1na2vs0mg"},{"bike_id":"ded31e3e-eaa9-4908-bd82-9ec11e808bb5","system_id":"levelo_inurba_marseille","lat":43.295748,"lon":5.37522,"is_reserved":false,"is_disabled":false,"rental_uris":{"android":"levelo://app?vid=ded31e3e-eaa9-4908-bd82-9ec11e808bb5","ios":"levelo://app?vid=ded31e3e-eaa9-4908-bd82-9ec11e808bb5"},"vehicle_type_id":"4","last_reported":1707941256,"current_range_meters":14400,"station_id":"ce4bgh92rcd13ifvqb50","pricing_plan_id":"cebpf4jnsgd1na2vs0mg"},{"bike_id":"fd020eeb-6508-49c0-8f01-a4cba5132512","system_id":"levelo_inurba_marseille","lat":43.304278,"lon":5.388868,"is_reserved":false,"is_disabled":false,"rental_uris":{"android":"levelo://app?vid=fd020eeb-6508-49c0-8f01-a4cba5132512","ios":"levelo://app?vid=fd020eeb-6508-49c0-8f01-a4cba5132512"},"vehicle_type_id":"4","last_reported":1707941256,"current_range_meters":20800,"station_id":"ce4bgk12rcd13ifvqbi0","pricing_plan_id":"cebpf4jnsgd1na2vs0mg"},{"bike_id":"dd6c2d74-0885-4086-9ea0-81b2a39c9482","system_id":"levelo_inurba_marseille","lat":43.304278,"lon":5.388868,"is_reserved":false,"is_disabled":false,"rental_uris":{"android":"levelo://app?vid=dd6c2d74-0885-4086-9ea0-81b2a39c9482","ios":"levelo://app?vid=dd6c2d74-0885-4086-9ea0-81b2a39c9482"},"vehicle_type_id":"4","last_reported":1707941256,"current_range_meters":16400,"station_id":"ce4bgk12rcd13ifvqbi0","pricing_plan_id":"cebpf4jnsgd1na2vs0mg"},{"bike_id":"71c7855f-514c-45f4-98f4-41a02e624a0f","system_id":"levelo_inurba_marseille","lat":43.304278,"lon":5.388868,"is_reserved":false,"is_disabled":false,"rental_uris":{"android":"levelo://app?vid=71c7855f-514c-45f4-98f4-41a02e624a0f","ios":"levelo://app?vid=71c7855f-514c-45f4-98f4-41a02e624a0f"},"vehicle_type_id":"4","last_reported":1707941256,"current_range_meters":9200,"station_id":"ce4bgk12rcd13ifvqbi0","pricing_plan_id":"cebpf4jnsgd1na2vs0mg"},{"bike_id":"45e7c00b-d0c1-4873-a5ba-4b4ad6979cf1","system_id":"levelo_inurba_marseille","lat":43.304274,"lon":5.388873,"is_reserved":false,"is_disabled":false,"rental_uris":{"android":"levelo://app?vid=45e7c00b-d0c1-4873-a5ba-4b4ad6979cf1","ios":"levelo://app?vid=45e7c00b-d0c1-4873-a5ba-4b4ad6979cf1"},"vehicle_type_id":"4","last_reported":1707941256,"current_range_meters":16400,"station_id":"ce4bgk12rcd13ifvqbi0","pricing_plan_id":"cebpf4jnsgd1na2vs0mg"},{"bike_id":"449f1a64-87aa-4cf0-8fb1-7acb704b4048","system_id":"levelo_inurba_marseille","lat":43.299707,"lon":5.384859,"is_reserved":false,"is_disabled":false,"rental_uris":{"android":"levelo://app?vid=449f1a64-87aa-4cf0-8fb1-7acb704b4048","ios":"levelo://app?vid=449f1a64-87aa-4cf0-8fb1-7acb704b4048"},"vehicle_type_id":"4","last_reported":1707941256,"current_range_meters":0,"station_id":"ce4bgj92rcd13ifvqbd0","pricing_plan_id":"cebpf4jnsgd1na2vs0mg"},{"bike_id":"b08bf3f2-9895-4d9a-9980-06658a6444a4","system_id":"levelo_inurba_marseille","lat":43.3013,"lon":5.38791,"is_reserved":false,"is_disabled":false,"rental_uris":{"android":"levelo://app?vid=b08bf3f2-9895-4d9a-9980-06658a6444a4","ios":"levelo://app?vid=b08bf3f2-9895-4d9a-9980-06658a6444a4"},"vehicle_type_id":"4","last_reported":1707941256,"current_range_meters":0,"station_id":"","pricing_plan_id":"cebpf4jnsgd1na2vs0mg"},{"bike_id":"cc36d624-ed66-4db6-bb3b-42695f88d813","system_id":"levelo_inurba_marseille","lat":43.32367,"lon":5.38882,"is_reserved":false,"is_disabled":false,"rental_uris":{"android":"levelo://app?vid=cc36d624-ed66-4db6-bb3b-42695f88d813","ios":"levelo://app?vid=cc36d624-ed66-4db6-bb3b-42695f88d813"},"vehicle_type_id":"4","last_reported":1707941256,"current_range_meters":8800,"station_id":"ce4bhqp2rcd13ifvqhog","pricing_plan_id":"cebpf4jnsgd1na2vs0mg"},{"bike_id":"9a785585-c85b-4fa3-85aa-80d29ca57d9f","system_id":"levelo_inurba_marseille","lat":43.32367,"lon":5.388836,"is_reserved":false,"is_disabled":false,"rental_uris":{"android":"levelo://app?vid=9a785585-c85b-4fa3-85aa-80d29ca57d9f","ios":"levelo://app?vid=9a785585-c85b-4fa3-85aa-80d29ca57d9f"},"vehicle_type_id":"4","last_reported":1707941256,"current_range_meters":13200,"station_id":"ce4bhqp2rcd13ifvqhog","pricing_plan_id":"cebpf4jnsgd1na2vs0mg"},{"bike_id":"60b4e72a-683d-4d3a-b372-9758c47abe0f","system_id":"levelo_inurba_marseille","lat":43.32367,"lon":5.388836,"is_reserved":false,"is_disabled":false,"rental_uris":{"android":"levelo://app?vid=60b4e72a-683d-4d3a-b372-9758c47abe0f","ios":"levelo://app?vid=60b4e72a-683d-4d3a-b372-9758c47abe0f"},"vehicle_type_id":"4","last_reported":1707941256,"current_range_meters":800,"station_id":"ce4bhqp2rcd13ifvqhog","pricing_plan_id":"cebpf4jnsgd1na2vs0mg"},{"bike_id":"410bf392-d4a4-44a9-8b1d-d839486dc03c","system_id":"levelo_inurba_marseille","lat":43.32361,"lon":5.38889,"is_reserved":false,"is_disabled":false,"rental_uris":{"android":"levelo://app?vid=410bf392-d4a4-44a9-8b1d-d839486dc03c","ios":"levelo://app?vid=410bf392-d4a4-44a9-8b1d-d839486dc03c"},"vehicle_type_id":"4","last_reported":1707941256,"current_range_meters":6400,"station_id":"ce4bhqp2rcd13ifvqhog","pricing_plan_id":"cebpf4jnsgd1na2vs0mg"},{"bike_id":"7b8ae2a5-fea4-420f-9e1d-5f67a20c6887","system_id":"levelo_inurba_marseille","lat":43.32367,"lon":5.388836,"is_reserved":false,"is_disabled":false,"rental_uris":{"android":"levelo://app?vid=7b8ae2a5-fea4-420f-9e1d-5f67a20c6887","ios":"levelo://app?vid=7b8ae2a5-fea4-420f-9e1d-5f67a20c6887"},"vehicle_type_id":"4","last_reported":1707941256,"current_range_meters":24400,"station_id":"ce4bhqp2rcd13ifvqhog","pricing_plan_id":"cebpf4jnsgd1na2vs0mg"},{"bike_id":"24aefc00-aad1-4b8c-bf24-dea0a292f589","system_id":"levelo_inurba_marseille","lat":43.3237,"lon":5.38889,"is_reserved":false,"is_disabled":false,"rental_uris":{"android":"levelo://app?vid=24aefc00-aad1-4b8c-bf24-dea0a292f589","ios":"levelo://app?vid=24aefc00-aad1-4b8c-bf24-dea0a292f589"},"vehicle_type_id":"4","last_reported":1707941256,"current_range_meters":16800,"station_id":"ce4bhqp2rcd13ifvqhog","pricing_plan_id":"cebpf4jnsgd1na2vs0mg"},{"bike_id":"cbf8e932-864e-4801-9910-83a88327312a","system_id":"levelo_inurba_marseille","lat":43.29602,"lon":5.381084,"is_reserved":false,"is_disabled":false,"rental_uris":{"android":"levelo://app?vid=cbf8e932-864e-4801-9910-83a88327312a","ios":"levelo://app?vid=cbf8e932-864e-4801-9910-83a88327312a"},"vehicle_type_id":"4","last_reported":1707941256,"current_range_meters":0,"station_id":"ce4bgl12rcd13ifvqbo0","pricing_plan_id":"cebpf4jnsgd1na2vs0mg"},{"bike_id":"20e5f2ad-9f2c-493e-ac06-9865b2c8d0fa","system_id":"levelo_inurba_marseille","lat":43.299108,"lon":5.386497,"is_reserved":false,"is_disabled":false,"rental_uris":{"android":"levelo://app?vid=20e5f2ad-9f2c-493e-ac06-9865b2c8d0fa","ios":"levelo://app?vid=20e5f2ad-9f2c-493e-ac06-9865b2c8d0fa"},"vehicle_type_id":"4","last_reported":1707941256,"current_range_meters":17600,"station_id":"","pricing_plan_id":"cebpf4jnsgd1na2vs0mg"},{"bike_id":"26620d14-2adf-43de-bd89-4ae7da8379e4","system_id":"levelo_inurba_marseille","lat":43.29304,"lon":5.37178,"is_reserved":false,"is_disabled":false,"rental_uris":{"android":"levelo://app?vid=26620d14-2adf-43de-bd89-4ae7da8379e4","ios":"levelo://app?vid=26620d14-2adf-43de-bd89-4ae7da8379e4"},"vehicle_type_id":"4","last_reported":1707941256,"current_range_meters":0,"station_id":"ce4bgh92rcd13ifvqb40","pricing_plan_id":"cebpf4jnsgd1na2vs0mg"},{"bike_id":"c3262780-9d3f-4c23-9798-f80ee41b7473","system_id":"levelo_inurba_marseille","lat":43.305994,"lon":5.393687,"is_reserved":false,"is_disabled":false,"rental_uris":{"android":"levelo://app?vid=c3262780-9d3f-4c23-9798-f80ee41b7473","ios":"levelo://app?vid=c3262780-9d3f-4c23-9798-f80ee41b7473"},"vehicle_type_id":"4","last_reported":1707941256,"current_range_meters":14000,"station_id":"ce4bh0p2rcd13ifvqd80","pricing_plan_id":"cebpf4jnsgd1na2vs0mg"},{"bike_id":"96a11e2a-8eca-4905-a0b0-5e7bc9fe06ca","system_id":"levelo_inurba_marseille","lat":43.305994,"lon":5.393687,"is_reserved":false,"is_disabled":false,"rental_uris":{"android":"levelo://app?vid=96a11e2a-8eca-4905-a0b0-5e7bc9fe06ca","ios":"levelo://app?vid=96a11e2a-8eca-4905-a0b0-5e7bc9fe06ca"},"vehicle_type_id":"4","last_reported":1707941256,"current_range_meters":14400,"station_id":"ce4bh0p2rcd13ifvqd80","pricing_plan_id":"cebpf4jnsgd1na2vs0mg"},{"bike_id":"292415a2-c6e0-493e-949f-dc2c02f7cc0c","system_id":"levelo_inurba_marseille","lat":43.305994,"lon":5.393687,"is_reserved":false,"is_disabled":false,"rental_uris":{"android":"levelo://app?vid=292415a2-c6e0-493e-949f-dc2c02f7cc0c","ios":"levelo://app?vid=292415a2-c6e0-493e-949f-dc2c02f7cc0c"},"vehicle_type_id":"4","last_reported":1707941256,"current_range_meters":14400,"station_id":"ce4bh0p2rcd13ifvqd80","pricing_plan_id":"cebpf4jnsgd1na2vs0mg"},{"bike_id":"08f05cb4-1046-48f2-968a-2be875b095f8","system_id":"levelo_inurba_marseille","lat":43.305994,"lon":5.393687,"is_reserved":false,"is_disabled":false,"rental_uris":{"android":"levelo://app?vid=08f05cb4-1046-48f2-968a-2be875b095f8","ios":"levelo://app?vid=08f05cb4-1046-48f2-968a-2be875b095f8"},"vehicle_type_id":"4","last_reported":1707941256,"current_range_meters":18800,"station_id":"ce4bh0p2rcd13ifvqd80","pricing_plan_id":"cebpf4jnsgd1na2vs0mg"},{"bike_id":"637b77ef-b463-45e6-8965-a64be933a914","system_id":"levelo_inurba_marseille","lat":43.293009,"lon":5.374584,"is_reserved":false,"is_disabled":false,"rental_uris":{"android":"levelo://app?vid=637b77ef-b463-45e6-8965-a64be933a914","ios":"levelo://app?vid=637b77ef-b463-45e6-8965-a64be933a914"},"vehicle_type_id":"4","last_reported":1707941256,"current_range_meters":19200,"station_id":"ce4bgi12rcd13ifvqb70","pricing_plan_id":"cebpf4jnsgd1na2vs0mg"},{"bike_id":"767e8013-eb94-4ee5-8ca1-11bdeff74fae","system_id":"levelo_inurba_marseille","lat":43.305994,"lon":5.393687,"is_reserved":false,"is_disabled":false,"rental_uris":{"android":"levelo://app?vid=767e8013-eb94-4ee5-8ca1-11bdeff74fae","ios":"levelo://app?vid=767e8013-eb94-4ee5-8ca1-11bdeff74fae"},"vehicle_type_id":"4","last_reported":1707941256,"current_range_meters":15200,"station_id":"ce4bh0p2rcd13ifvqd80","pricing_plan_id":"cebpf4jnsgd1na2vs0mg"},{"bike_id":"b2ca8a71-e6cb-454a-8895-6092b8577890","system_id":"levelo_inurba_marseille","lat":43.305994,"lon":5.393687,"is_reserved":false,"is_disabled":false,"rental_uris":{"android":"levelo://app?vid=b2ca8a71-e6cb-454a-8895-6092b8577890","ios":"levelo://app?vid=b2ca8a71-e6cb-454a-8895-6092b8577890"},"vehicle_type_id":"4","last_reported":1707941256,"current_range_meters":26000,"station_id":"ce4bh0p2rcd13ifvqd80","pricing_plan_id":"cebpf4jnsgd1na2vs0mg"},{"bike_id":"6b1b40eb-7df6-4e5f-b6b9-8345877823d9","system_id":"levelo_inurba_marseille","lat":43.305986,"lon":5.393646,"is_reserved":false,"is_disabled":false,"rental_uris":{"android":"levelo://app?vid=6b1b40eb-7df6-4e5f-b6b9-8345877823d9","ios":"levelo://app?vid=6b1b40eb-7df6-4e5f-b6b9-8345877823d9"},"vehicle_type_id":"4","last_reported":1707941256,"current_range_meters":0,"station_id":"","pricing_plan_id":"cebpf4jnsgd1na2vs0mg"},{"bike_id":"5f58fe0b-ce12-4b8e-a18e-b46cce62eddd","system_id":"levelo_inurba_marseille","lat":43.293009,"lon":5.374584,"is_reserved":false,"is_disabled":false,"rental_uris":{"android":"levelo://app?vid=5f58fe0b-ce12-4b8e-a18e-b46cce62eddd","ios":"levelo://app?vid=5f58fe0b-ce12-4b8e-a18e-b46cce62eddd"},"vehicle_type_id":"4","last_reported":1707941256,"current_range_meters":26000,"station_id":"ce4bgi12rcd13ifvqb70","pricing_plan_id":"cebpf4jnsgd1na2vs0mg"},{"bike_id":"9730d68a-dcf0-4882-90ea-49c59ecd89b7","system_id":"levelo_inurba_marseille","lat":43.302992,"lon":5.392136,"is_reserved":false,"is_disabled":false,"rental_uris":{"android":"levelo://app?vid=9730d68a-dcf0-4882-90ea-49c59ecd89b7","ios":"levelo://app?vid=9730d68a-dcf0-4882-90ea-49c59ecd89b7"},"vehicle_type_id":"4","last_reported":1707941256,"current_range_meters":5600,"station_id":"ce4bgkh2rcd13ifvqbk0","pricing_plan_id":"cebpf4jnsgd1na2vs0mg"},{"bike_id":"5df4544c-2ba9-4ff2-92ea-ac4ecd2aa565","system_id":"levelo_inurba_marseille","lat":43.303,"lon":5.392103,"is_reserved":false,"is_disabled":false,"rental_uris":{"android":"levelo://app?vid=5df4544c-2ba9-4ff2-92ea-ac4ecd2aa565","ios":"levelo://app?vid=5df4544c-2ba9-4ff2-92ea-ac4ecd2aa565"},"vehicle_type_id":"4","last_reported":1707941256,"current_range_meters":6400,"station_id":"ce4bgkh2rcd13ifvqbk0","pricing_plan_id":"cebpf4jnsgd1na2vs0mg"},{"bike_id":"b1a29939-915b-4cf3-9ebf-4383a2e6c2e0","system_id":"levelo_inurba_marseille","lat":43.2936,"lon":5.37835,"is_reserved":false,"is_disabled":false,"rental_uris":{"android":"levelo://app?vid=b1a29939-915b-4cf3-9ebf-4383a2e6c2e0","ios":"levelo://app?vid=b1a29939-915b-4cf3-9ebf-4383a2e6c2e0"},"vehicle_type_id":"4","last_reported":1707941256,"current_range_meters":0,"station_id":"ce4bgjh2rcd13ifvqbf0","pricing_plan_id":"cebpf4jnsgd1na2vs0mg"},{"bike_id":"fcc94380-c654-4564-bca2-4fd6c81589d4","system_id":"levelo_inurba_marseille","lat":43.302992,"lon":5.392136,"is_reserved":false,"is_disabled":false,"rental_uris":{"android":"levelo://app?vid=fcc94380-c654-4564-bca2-4fd6c81589d4","ios":"levelo://app?vid=fcc94380-c654-4564-bca2-4fd6c81589d4"},"vehicle_type_id":"4","last_reported":1707941256,"current_range_meters":6400,"station_id":"ce4bgkh2rcd13ifvqbk0","pricing_plan_id":"cebpf4jnsgd1na2vs0mg"},{"bike_id":"182702d9-242d-4d4b-8955-7e3b7f041559","system_id":"levelo_inurba_marseille","lat":43.302992,"lon":5.392136,"is_reserved":false,"is_disabled":false,"rental_uris":{"android":"levelo://app?vid=182702d9-242d-4d4b-8955-7e3b7f041559","ios":"levelo://app?vid=182702d9-242d-4d4b-8955-7e3b7f041559"},"vehicle_type_id":"4","last_reported":1707941256,"current_range_meters":16800,"station_id":"ce4bgkh2rcd13ifvqbk0","pricing_plan_id":"cebpf4jnsgd1na2vs0mg"},{"bike_id":"55f0fe38-7793-49b2-ba75-ad87f33a86c2","system_id":"levelo_inurba_marseille","lat":43.302992,"lon":5.392136,"is_reserved":false,"is_disabled":false,"rental_uris":{"android":"levelo://app?vid=55f0fe38-7793-49b2-ba75-ad87f33a86c2","ios":"levelo://app?vid=55f0fe38-7793-49b2-ba75-ad87f33a86c2"},"vehicle_type_id":"4","last_reported":1707941256,"current_range_meters":30800,"station_id":"ce4bgkh2rcd13ifvqbk0","pricing_plan_id":"cebpf4jnsgd1na2vs0mg"},{"bike_id":"60c17cb1-0c44-41a7-9314-abf1b9431948","system_id":"levelo_inurba_marseille","lat":43.300852,"lon":5.390859,"is_reserved":false,"is_disabled":false,"rental_uris":{"android":"levelo://app?vid=60c17cb1-0c44-41a7-9314-abf1b9431948","ios":"levelo://app?vid=60c17cb1-0c44-41a7-9314-abf1b9431948"},"vehicle_type_id":"4","last_reported":1707941256,"current_range_meters":27200,"station_id":"ce4bh192rcd13ifvqdb0","pricing_plan_id":"cebpf4jnsgd1na2vs0mg"},{"bike_id":"e0d6539b-2a48-4794-862a-51b5231bf25f","system_id":"levelo_inurba_marseille","lat":43.29233,"lon":5.36047,"is_reserved":false,"is_disabled":false,"rental_uris":{"android":"levelo://app?vid=e0d6539b-2a48-4794-862a-51b5231bf25f","ios":"levelo://app?vid=e0d6539b-2a48-4794-862a-51b5231bf25f"},"vehicle_type_id":"4","last_reported":1707941256,"current_range_meters":15200,"station_id":"ce4bhbh2rcd13ifvqeqg","pricing_plan_id":"cebpf4jnsgd1na2vs0mg"},{"bike_id":"2b9b1a08-a495-449e-896d-b55282122a64","system_id":"levelo_inurba_marseille","lat":43.30085,"lon":5.390856,"is_reserved":false,"is_disabled":false,"rental_uris":{"android":"levelo://app?vid=2b9b1a08-a495-449e-896d-b55282122a64","ios":"levelo://app?vid=2b9b1a08-a495-449e-896d-b55282122a64"},"vehicle_type_id":"4","last_reported":1707941256,"current_range_meters":3600,"station_id":"ce4bh192rcd13ifvqdb0","pricing_plan_id":"cebpf4jnsgd1na2vs0mg"},{"bike_id":"ad15834b-1f7d-4efc-aca2-25a61deace49","system_id":"levelo_inurba_marseille","lat":43.300852,"lon":5.390859,"is_reserved":false,"is_disabled":false,"rental_uris":{"android":"levelo://app?vid=ad15834b-1f7d-4efc-aca2-25a61deace49","ios":"levelo://app?vid=ad15834b-1f7d-4efc-aca2-25a61deace49"},"vehicle_type_id":"4","last_reported":1707941256,"current_range_meters":20400,"station_id":"ce4bh192rcd13ifvqdb0","pricing_plan_id":"cebpf4jnsgd1na2vs0mg"},{"bike_id":"ac3d1525-28be-49db-b070-effc2b5ecefe","system_id":"levelo_inurba_marseille","lat":43.300852,"lon":5.390859,"is_reserved":false,"is_disabled":false,"rental_uris":{"android":"levelo://app?vid=ac3d1525-28be-49db-b070-effc2b5ecefe","ios":"levelo://app?vid=ac3d1525-28be-49db-b070-effc2b5ecefe"},"vehicle_type_id":"4","last_reported":1707941256,"current_range_meters":15600,"station_id":"ce4bh192rcd13ifvqdb0","pricing_plan_id":"cebpf4jnsgd1na2vs0mg"},{"bike_id":"69c13cc6-e19a-4703-a618-d1cab20b13a6","system_id":"levelo_inurba_marseille","lat":43.300852,"lon":5.390859,"is_reserved":false,"is_disabled":false,"rental_uris":{"android":"levelo://app?vid=69c13cc6-e19a-4703-a618-d1cab20b13a6","ios":"levelo://app?vid=69c13cc6-e19a-4703-a618-d1cab20b13a6"},"vehicle_type_id":"4","last_reported":1707941256,"current_range_meters":13600,"station_id":"ce4bh192rcd13ifvqdb0","pricing_plan_id":"cebpf4jnsgd1na2vs0mg"},{"bike_id":"a0764862-498b-4a14-af3f-581563b53c26","system_id":"levelo_inurba_marseille","lat":43.292207,"lon":5.360521,"is_reserved":false,"is_disabled":false,"rental_uris":{"android":"levelo://app?vid=a0764862-498b-4a14-af3f-581563b53c26","ios":"levelo://app?vid=a0764862-498b-4a14-af3f-581563b53c26"},"vehicle_type_id":"4","last_reported":1707941256,"current_range_meters":0,"station_id":"ce4bhbh2rcd13ifvqeqg","pricing_plan_id":"cebpf4jnsgd1na2vs0mg"},{"bike_id":"b859307d-8f05-43e8-a078-b9c8faf52170","system_id":"levelo_inurba_marseille","lat":43.291671,"lon":5.371575,"is_reserved":false,"is_disabled":false,"rental_uris":{"android":"levelo://app?vid=b859307d-8f05-43e8-a078-b9c8faf52170","ios":"levelo://app?vid=b859307d-8f05-43e8-a078-b9c8faf52170"},"vehicle_type_id":"4","last_reported":1707941256,"current_range_meters":2400,"station_id":"ce4bha92rcd13ifvqeh0","pricing_plan_id":"cebpf4jnsgd1na2vs0mg"},{"bike_id":"09d8704a-80c5-47c3-856b-e3bad926f578","system_id":"levelo_inurba_marseille","lat":43.291671,"lon":5.371575,"is_reserved":false,"is_disabled":false,"rental_uris":{"android":"levelo://app?vid=09d8704a-80c5-47c3-856b-e3bad926f578","ios":"levelo://app?vid=09d8704a-80c5-47c3-856b-e3bad926f578"},"vehicle_type_id":"4","last_reported":1707941256,"current_range_meters":0,"station_id":"ce4bha92rcd13ifvqeh0","pricing_plan_id":"cebpf4jnsgd1na2vs0mg"},{"bike_id":"37d3cdd1-33e0-4d3a-9f28-31898b7954a3","system_id":"levelo_inurba_marseille","lat":43.291675,"lon":5.371583,"is_reserved":false,"is_disabled":false,"rental_uris":{"android":"levelo://app?vid=37d3cdd1-33e0-4d3a-9f28-31898b7954a3","ios":"levelo://app?vid=37d3cdd1-33e0-4d3a-9f28-31898b7954a3"},"vehicle_type_id":"4","last_reported":1707941256,"current_range_meters":2400,"station_id":"ce4bha92rcd13ifvqeh0","pricing_plan_id":"cebpf4jnsgd1na2vs0mg"},{"bike_id":"c0d8b1ef-9fea-4173-adaa-d57df089dde9","system_id":"levelo_inurba_marseille","lat":43.291675,"lon":5.371583,"is_reserved":false,"is_disabled":false,"rental_uris":{"android":"levelo://app?vid=c0d8b1ef-9fea-4173-adaa-d57df089dde9","ios":"levelo://app?vid=c0d8b1ef-9fea-4173-adaa-d57df089dde9"},"vehicle_type_id":"4","last_reported":1707941256,"current_range_meters":26000,"station_id":"ce4bha92rcd13ifvqeh0","pricing_plan_id":"cebpf4jnsgd1na2vs0mg"},{"bike_id":"c79a6490-a282-453f-942b-0adc7403f2d1","system_id":"levelo_inurba_marseille","lat":43.291671,"lon":5.371575,"is_reserved":false,"is_disabled":false,"rental_uris":{"android":"levelo://app?vid=c79a6490-a282-453f-942b-0adc7403f2d1","ios":"levelo://app?vid=c79a6490-a282-453f-942b-0adc7403f2d1"},"vehicle_type_id":"4","last_reported":1707941256,"current_range_meters":26000,"station_id":"ce4bha92rcd13ifvqeh0","pricing_plan_id":"cebpf4jnsgd1na2vs0mg"},{"bike_id":"66aff2d5-0157-4520-8408-f9088a9051ea","system_id":"levelo_inurba_marseille","lat":43.298764,"lon":5.388973,"is_reserved":false,"is_disabled":false,"rental_uris":{"android":"levelo://app?vid=66aff2d5-0157-4520-8408-f9088a9051ea","ios":"levelo://app?vid=66aff2d5-0157-4520-8408-f9088a9051ea"},"vehicle_type_id":"4","last_reported":1707941256,"current_range_meters":3200,"station_id":"ce4bh392rcd13ifvqdl0","pricing_plan_id":"cebpf4jnsgd1na2vs0mg"},{"bike_id":"e62e7ac4-9a96-4040-bf6e-6a406661980e","system_id":"levelo_inurba_marseille","lat":43.2936,"lon":5.37835,"is_reserved":false,"is_disabled":false,"rental_uris":{"android":"levelo://app?vid=e62e7ac4-9a96-4040-bf6e-6a406661980e","ios":"levelo://app?vid=e62e7ac4-9a96-4040-bf6e-6a406661980e"},"vehicle_type_id":"4","last_reported":1707941256,"current_range_meters":19600,"station_id":"ce4bgjh2rcd13ifvqbf0","pricing_plan_id":"cebpf4jnsgd1na2vs0mg"},{"bike_id":"0a7eb2be-8e28-448a-9642-23549442332f","system_id":"levelo_inurba_marseille","lat":43.317104,"lon":5.436818,"is_reserved":false,"is_disabled":false,"rental_uris":{"android":"levelo://app?vid=0a7eb2be-8e28-448a-9642-23549442332f","ios":"levelo://app?vid=0a7eb2be-8e28-448a-9642-23549442332f"},"vehicle_type_id":"4","last_reported":1707941256,"current_range_meters":10800,"station_id":"ce4bhp92rcd13ifvqhcg","pricing_plan_id":"cebpf4jnsgd1na2vs0mg"},{"bike_id":"12d3d59a-08ed-4fd5-9bf4-952936502efb","system_id":"levelo_inurba_marseille","lat":43.30886,"lon":5.39633,"is_reserved":false,"is_disabled":false,"rental_uris":{"android":"levelo://app?vid=12d3d59a-08ed-4fd5-9bf4-952936502efb","ios":"levelo://app?vid=12d3d59a-08ed-4fd5-9bf4-952936502efb"},"vehicle_type_id":"4","last_reported":1707941256,"current_range_meters":19200,"station_id":"ce4bh012rcd13ifvqcv0","pricing_plan_id":"cebpf4jnsgd1na2vs0mg"},{"bike_id":"d88669cb-84bd-4991-913a-a06149710760","system_id":"levelo_inurba_marseille","lat":43.309047,"lon":5.396551,"is_reserved":false,"is_disabled":false,"rental_uris":{"android":"levelo://app?vid=d88669cb-84bd-4991-913a-a06149710760","ios":"levelo://app?vid=d88669cb-84bd-4991-913a-a06149710760"},"vehicle_type_id":"4","last_reported":1707941256,"current_range_meters":21200,"station_id":"ce4bh012rcd13ifvqcv0","pricing_plan_id":"cebpf4jnsgd1na2vs0mg"},{"bike_id":"603d8211-af2e-4d17-a96d-cb92b3bee21d","system_id":"levelo_inurba_marseille","lat":43.29191,"lon":5.35795,"is_reserved":false,"is_disabled":false,"rental_uris":{"android":"levelo://app?vid=603d8211-af2e-4d17-a96d-cb92b3bee21d","ios":"levelo://app?vid=603d8211-af2e-4d17-a96d-cb92b3bee21d"},"vehicle_type_id":"4","last_reported":1707941256,"current_range_meters":0,"station_id":"ce4bhb12rcd13ifvqel0","pricing_plan_id":"cebpf4jnsgd1na2vs0mg"},{"bike_id":"ab914a49-300c-4c92-86cc-41cfb89dca61","system_id":"levelo_inurba_marseille","lat":43.30845,"lon":5.396346,"is_reserved":false,"is_disabled":false,"rental_uris":{"android":"levelo://app?vid=ab914a49-300c-4c92-86cc-41cfb89dca61","ios":"levelo://app?vid=ab914a49-300c-4c92-86cc-41cfb89dca61"},"vehicle_type_id":"4","last_reported":1707941256,"current_range_meters":12000,"station_id":"ce4bh012rcd13ifvqcv0","pricing_plan_id":"cebpf4jnsgd1na2vs0mg"},{"bike_id":"53b23731-ec39-4eb9-ade2-9e226873b0a7","system_id":"levelo_inurba_marseille","lat":43.30884,"lon":5.39645,"is_reserved":false,"is_disabled":false,"rental_uris":{"android":"levelo://app?vid=53b23731-ec39-4eb9-ade2-9e226873b0a7","ios":"levelo://app?vid=53b23731-ec39-4eb9-ade2-9e226873b0a7"},"vehicle_type_id":"4","last_reported":1707941256,"current_range_meters":4400,"station_id":"ce4bh012rcd13ifvqcv0","pricing_plan_id":"cebpf4jnsgd1na2vs0mg"},{"bike_id":"6680fa66-514b-4f2f-8fa3-69f3c9a608f2","system_id":"levelo_inurba_marseille","lat":43.313291,"lon":5.396838,"is_reserved":false,"is_disabled":false,"rental_uris":{"android":"levelo://app?vid=6680fa66-514b-4f2f-8fa3-69f3c9a608f2","ios":"levelo://app?vid=6680fa66-514b-4f2f-8fa3-69f3c9a608f2"},"vehicle_type_id":"4","last_reported":1707941256,"current_range_meters":16400,"station_id":"ce4bgvp2rcd13ifvqcu0","pricing_plan_id":"cebpf4jnsgd1na2vs0mg"},{"bike_id":"ad0dd398-7c59-4771-af5c-30ce8fbee579","system_id":"levelo_inurba_marseille","lat":43.313291,"lon":5.396838,"is_reserved":false,"is_disabled":false,"rental_uris":{"android":"levelo://app?vid=ad0dd398-7c59-4771-af5c-30ce8fbee579","ios":"levelo://app?vid=ad0dd398-7c59-4771-af5c-30ce8fbee579"},"vehicle_type_id":"4","last_reported":1707941256,"current_range_meters":18000,"station_id":"ce4bgvp2rcd13ifvqcu0","pricing_plan_id":"cebpf4jnsgd1na2vs0mg"},{"bike_id":"40c1a6f5-3321-47e5-b70e-7466e814095c","system_id":"levelo_inurba_marseille","lat":43.313291,"lon":5.396838,"is_reserved":false,"is_disabled":false,"rental_uris":{"android":"levelo://app?vid=40c1a6f5-3321-47e5-b70e-7466e814095c","ios":"levelo://app?vid=40c1a6f5-3321-47e5-b70e-7466e814095c"},"vehicle_type_id":"4","last_reported":1707941256,"current_range_meters":16800,"station_id":"ce4bgvp2rcd13ifvqcu0","pricing_plan_id":"cebpf4jnsgd1na2vs0mg"},{"bike_id":"5f01c236-b9eb-439a-86d7-a07f58180c4d","system_id":"levelo_inurba_marseille","lat":43.30885,"lon":5.39649,"is_reserved":false,"is_disabled":false,"rental_uris":{"android":"levelo://app?vid=5f01c236-b9eb-439a-86d7-a07f58180c4d","ios":"levelo://app?vid=5f01c236-b9eb-439a-86d7-a07f58180c4d"},"vehicle_type_id":"4","last_reported":1707941256,"current_range_meters":6400,"station_id":"ce4bh012rcd13ifvqcv0","pricing_plan_id":"cebpf4jnsgd1na2vs0mg"},{"bike_id":"4f9b503d-4af5-4340-9207-0d0bbf38c0eb","system_id":"levelo_inurba_marseille","lat":43.30881,"lon":5.39652,"is_reserved":false,"is_disabled":false,"rental_uris":{"android":"levelo://app?vid=4f9b503d-4af5-4340-9207-0d0bbf38c0eb","ios":"levelo://app?vid=4f9b503d-4af5-4340-9207-0d0bbf38c0eb"},"vehicle_type_id":"4","last_reported":1707941256,"current_range_meters":4000,"station_id":"ce4bh012rcd13ifvqcv0","pricing_plan_id":"cebpf4jnsgd1na2vs0mg"},{"bike_id":"41d7be42-4771-4c76-955d-aba7c0310b10","system_id":"levelo_inurba_marseille","lat":43.309038,"lon":5.396546,"is_reserved":false,"is_disabled":false,"rental_uris":{"android":"levelo://app?vid=41d7be42-4771-4c76-955d-aba7c0310b10","ios":"levelo://app?vid=41d7be42-4771-4c76-955d-aba7c0310b10"},"vehicle_type_id":"4","last_reported":1707941256,"current_range_meters":17200,"station_id":"ce4bh012rcd13ifvqcv0","pricing_plan_id":"cebpf4jnsgd1na2vs0mg"},{"bike_id":"145fbc22-336e-4f0e-bd50-f82634132dd8","system_id":"levelo_inurba_marseille","lat":43.309038,"lon":5.396546,"is_reserved":false,"is_disabled":false,"rental_uris":{"android":"levelo://app?vid=145fbc22-336e-4f0e-bd50-f82634132dd8","ios":"levelo://app?vid=145fbc22-336e-4f0e-bd50-f82634132dd8"},"vehicle_type_id":"4","last_reported":1707941256,"current_range_meters":21200,"station_id":"ce4bh012rcd13ifvqcv0","pricing_plan_id":"cebpf4jnsgd1na2vs0mg"},{"bike_id":"482d5379-516b-45af-a179-28f4bc89f307","system_id":"levelo_inurba_marseille","lat":43.313291,"lon":5.396838,"is_reserved":false,"is_disabled":false,"rental_uris":{"android":"levelo://app?vid=482d5379-516b-45af-a179-28f4bc89f307","ios":"levelo://app?vid=482d5379-516b-45af-a179-28f4bc89f307"},"vehicle_type_id":"4","last_reported":1707941256,"current_range_meters":18000,"station_id":"ce4bgvp2rcd13ifvqcu0","pricing_plan_id":"cebpf4jnsgd1na2vs0mg"},{"bike_id":"e8eab736-9d99-43ab-9fae-1563662e1946","system_id":"levelo_inurba_marseille","lat":43.309038,"lon":5.396546,"is_reserved":false,"is_disabled":false,"rental_uris":{"android":"levelo://app?vid=e8eab736-9d99-43ab-9fae-1563662e1946","ios":"levelo://app?vid=e8eab736-9d99-43ab-9fae-1563662e1946"},"vehicle_type_id":"4","last_reported":1707941256,"current_range_meters":25200,"station_id":"ce4bh012rcd13ifvqcv0","pricing_plan_id":"cebpf4jnsgd1na2vs0mg"},{"bike_id":"33b62021-2d51-466c-b4be-b0ce89d69a54","system_id":"levelo_inurba_marseille","lat":43.30881,"lon":5.39658,"is_reserved":false,"is_disabled":false,"rental_uris":{"android":"levelo://app?vid=33b62021-2d51-466c-b4be-b0ce89d69a54","ios":"levelo://app?vid=33b62021-2d51-466c-b4be-b0ce89d69a54"},"vehicle_type_id":"4","last_reported":1707941256,"current_range_meters":22400,"station_id":"ce4bh012rcd13ifvqcv0","pricing_plan_id":"cebpf4jnsgd1na2vs0mg"},{"bike_id":"bb6c94db-f3f5-42a6-8870-d1d5bd46d02b","system_id":"levelo_inurba_marseille","lat":43.309038,"lon":5.396546,"is_reserved":false,"is_disabled":false,"rental_uris":{"android":"levelo://app?vid=bb6c94db-f3f5-42a6-8870-d1d5bd46d02b","ios":"levelo://app?vid=bb6c94db-f3f5-42a6-8870-d1d5bd46d02b"},"vehicle_type_id":"4","last_reported":1707941256,"current_range_meters":16800,"station_id":"ce4bh012rcd13ifvqcv0","pricing_plan_id":"cebpf4jnsgd1na2vs0mg"},{"bike_id":"4d273257-ee93-4b4f-9d26-34031dca70bb","system_id":"levelo_inurba_marseille","lat":43.291994,"lon":5.357886,"is_reserved":false,"is_disabled":false,"rental_uris":{"android":"levelo://app?vid=4d273257-ee93-4b4f-9d26-34031dca70bb","ios":"levelo://app?vid=4d273257-ee93-4b4f-9d26-34031dca70bb"},"vehicle_type_id":"4","last_reported":1707941256,"current_range_meters":24400,"station_id":"ce4bhb12rcd13ifvqel0","pricing_plan_id":"cebpf4jnsgd1na2vs0mg"},{"bike_id":"5f58364a-e273-45a7-8c96-005f3a52bb24","system_id":"levelo_inurba_marseille","lat":43.29529,"lon":5.385581,"is_reserved":false,"is_disabled":false,"rental_uris":{"android":"levelo://app?vid=5f58364a-e273-45a7-8c96-005f3a52bb24","ios":"levelo://app?vid=5f58364a-e273-45a7-8c96-005f3a52bb24"},"vehicle_type_id":"4","last_reported":1707941256,"current_range_meters":30800,"station_id":"ce4bgih2rcd13ifvqba0","pricing_plan_id":"cebpf4jnsgd1na2vs0mg"},{"bike_id":"8dd40c59-7afc-44df-9848-527e84ea3a85","system_id":"levelo_inurba_marseille","lat":43.29529,"lon":5.385581,"is_reserved":false,"is_disabled":false,"rental_uris":{"android":"levelo://app?vid=8dd40c59-7afc-44df-9848-527e84ea3a85","ios":"levelo://app?vid=8dd40c59-7afc-44df-9848-527e84ea3a85"},"vehicle_type_id":"4","last_reported":1707941256,"current_range_meters":20800,"station_id":"ce4bgih2rcd13ifvqba0","pricing_plan_id":"cebpf4jnsgd1na2vs0mg"},{"bike_id":"8fef49d1-4046-4635-a653-f768e725a109","system_id":"levelo_inurba_marseille","lat":43.29529,"lon":5.385581,"is_reserved":false,"is_disabled":false,"rental_uris":{"android":"levelo://app?vid=8fef49d1-4046-4635-a653-f768e725a109","ios":"levelo://app?vid=8fef49d1-4046-4635-a653-f768e725a109"},"vehicle_type_id":"4","last_reported":1707941256,"current_range_meters":4400,"station_id":"ce4bgih2rcd13ifvqba0","pricing_plan_id":"cebpf4jnsgd1na2vs0mg"},{"bike_id":"1668dc94-d28a-4846-9eed-782f37af5afb","system_id":"levelo_inurba_marseille","lat":43.29529,"lon":5.385581,"is_reserved":false,"is_disabled":false,"rental_uris":{"android":"levelo://app?vid=1668dc94-d28a-4846-9eed-782f37af5afb","ios":"levelo://app?vid=1668dc94-d28a-4846-9eed-782f37af5afb"},"vehicle_type_id":"4","last_reported":1707941256,"current_range_meters":20000,"station_id":"ce4bgih2rcd13ifvqba0","pricing_plan_id":"cebpf4jnsgd1na2vs0mg"},{"bike_id":"32d9923e-c79e-4d7e-ba93-77439340fbf2","system_id":"levelo_inurba_marseille","lat":43.29529,"lon":5.385581,"is_reserved":false,"is_disabled":false,"rental_uris":{"android":"levelo://app?vid=32d9923e-c79e-4d7e-ba93-77439340fbf2","ios":"levelo://app?vid=32d9923e-c79e-4d7e-ba93-77439340fbf2"},"vehicle_type_id":"4","last_reported":1707941256,"current_range_meters":2400,"station_id":"ce4bgih2rcd13ifvqba0","pricing_plan_id":"cebpf4jnsgd1na2vs0mg"},{"bike_id":"622ddbb4-17a9-4bb9-b906-39efe187d00b","system_id":"levelo_inurba_marseille","lat":43.29529,"lon":5.385581,"is_reserved":false,"is_disabled":false,"rental_uris":{"android":"levelo://app?vid=622ddbb4-17a9-4bb9-b906-39efe187d00b","ios":"levelo://app?vid=622ddbb4-17a9-4bb9-b906-39efe187d00b"},"vehicle_type_id":"4","last_reported":1707941256,"current_range_meters":18400,"station_id":"ce4bgih2rcd13ifvqba0","pricing_plan_id":"cebpf4jnsgd1na2vs0mg"},{"bike_id":"269f62ac-9d92-46c8-8ec0-f3b16480df69","system_id":"levelo_inurba_marseille","lat":43.29529,"lon":5.385581,"is_reserved":false,"is_disabled":false,"rental_uris":{"android":"levelo://app?vid=269f62ac-9d92-46c8-8ec0-f3b16480df69","ios":"levelo://app?vid=269f62ac-9d92-46c8-8ec0-f3b16480df69"},"vehicle_type_id":"4","last_reported":1707941256,"current_range_meters":12800,"station_id":"ce4bgih2rcd13ifvqba0","pricing_plan_id":"cebpf4jnsgd1na2vs0mg"},{"bike_id":"453fbd8a-2f2e-41c9-8fb2-80971539f833","system_id":"levelo_inurba_marseille","lat":43.29529,"lon":5.385581,"is_reserved":false,"is_disabled":false,"rental_uris":{"android":"levelo://app?vid=453fbd8a-2f2e-41c9-8fb2-80971539f833","ios":"levelo://app?vid=453fbd8a-2f2e-41c9-8fb2-80971539f833"},"vehicle_type_id":"4","last_reported":1707941256,"current_range_meters":2400,"station_id":"ce4bgih2rcd13ifvqba0","pricing_plan_id":"cebpf4jnsgd1na2vs0mg"},{"bike_id":"72b6e4d5-734c-486e-bab9-ec82e2c1f3f0","system_id":"levelo_inurba_marseille","lat":43.29529,"lon":5.385581,"is_reserved":false,"is_disabled":false,"rental_uris":{"android":"levelo://app?vid=72b6e4d5-734c-486e-bab9-ec82e2c1f3f0","ios":"levelo://app?vid=72b6e4d5-734c-486e-bab9-ec82e2c1f3f0"},"vehicle_type_id":"4","last_reported":1707941256,"current_range_meters":22400,"station_id":"ce4bgih2rcd13ifvqba0","pricing_plan_id":"cebpf4jnsgd1na2vs0mg"},{"bike_id":"be59c305-98dc-4f7a-b130-cfee2599a922","system_id":"levelo_inurba_marseille","lat":43.29526,"lon":5.38544,"is_reserved":false,"is_disabled":false,"rental_uris":{"android":"levelo://app?vid=be59c305-98dc-4f7a-b130-cfee2599a922","ios":"levelo://app?vid=be59c305-98dc-4f7a-b130-cfee2599a922"},"vehicle_type_id":"4","last_reported":1707941256,"current_range_meters":17200,"station_id":"ce4bgih2rcd13ifvqba0","pricing_plan_id":"cebpf4jnsgd1na2vs0mg"},{"bike_id":"f08b98fd-dc8b-4bce-beae-ebc8bfee154e","system_id":"levelo_inurba_marseille","lat":43.290779,"lon":5.371482,"is_reserved":false,"is_disabled":false,"rental_uris":{"android":"levelo://app?vid=f08b98fd-dc8b-4bce-beae-ebc8bfee154e","ios":"levelo://app?vid=f08b98fd-dc8b-4bce-beae-ebc8bfee154e"},"vehicle_type_id":"4","last_reported":1707941256,"current_range_meters":7600,"station_id":"ce4bh5p2rcd13ifvqe4g","pricing_plan_id":"cebpf4jnsgd1na2vs0mg"},{"bike_id":"98a62a55-5042-4e03-be73-f7569847e6f0","system_id":"levelo_inurba_marseille","lat":43.302008,"lon":5.394694,"is_reserved":false,"is_disabled":false,"rental_uris":{"android":"levelo://app?vid=98a62a55-5042-4e03-be73-f7569847e6f0","ios":"levelo://app?vid=98a62a55-5042-4e03-be73-f7569847e6f0"},"vehicle_type_id":"4","last_reported":1707941256,"current_range_meters":31200,"station_id":"ce4bh0p2rcd13ifvqd70","pricing_plan_id":"cebpf4jnsgd1na2vs0mg"},{"bike_id":"cd91f49c-dd93-44d8-9545-ed7500755940","system_id":"levelo_inurba_marseille","lat":43.302759,"lon":5.400793,"is_reserved":false,"is_disabled":false,"rental_uris":{"android":"levelo://app?vid=cd91f49c-dd93-44d8-9545-ed7500755940","ios":"levelo://app?vid=cd91f49c-dd93-44d8-9545-ed7500755940"},"vehicle_type_id":"4","last_reported":1707941256,"current_range_meters":800,"station_id":"ce4bgvh2rcd13ifvqcs0","pricing_plan_id":"cebpf4jnsgd1na2vs0mg"},{"bike_id":"93d5c59a-9c2b-4efe-a9ac-500decaaba10","system_id":"levelo_inurba_marseille","lat":43.290631,"lon":5.359244,"is_reserved":false,"is_disabled":false,"rental_uris":{"android":"levelo://app?vid=93d5c59a-9c2b-4efe-a9ac-500decaaba10","ios":"levelo://app?vid=93d5c59a-9c2b-4efe-a9ac-500decaaba10"},"vehicle_type_id":"4","last_reported":1707941256,"current_range_meters":12000,"station_id":"ce4bha92rcd13ifvqeg0","pricing_plan_id":"cebpf4jnsgd1na2vs0mg"},{"bike_id":"58718ff2-9d09-4464-9116-02ff55fb3365","system_id":"levelo_inurba_marseille","lat":43.294153,"lon":5.386305,"is_reserved":false,"is_disabled":false,"rental_uris":{"android":"levelo://app?vid=58718ff2-9d09-4464-9116-02ff55fb3365","ios":"levelo://app?vid=58718ff2-9d09-4464-9116-02ff55fb3365"},"vehicle_type_id":"4","last_reported":1707941256,"current_range_meters":26800,"station_id":"ce4bh2h2rcd13ifvqdh0","pricing_plan_id":"cebpf4jnsgd1na2vs0mg"},{"bike_id":"0db5df06-2171-4e2f-beaf-6c0e9b442660","system_id":"levelo_inurba_marseille","lat":43.29424,"lon":5.3862,"is_reserved":false,"is_disabled":false,"rental_uris":{"android":"levelo://app?vid=0db5df06-2171-4e2f-beaf-6c0e9b442660","ios":"levelo://app?vid=0db5df06-2171-4e2f-beaf-6c0e9b442660"},"vehicle_type_id":"4","last_reported":1707941256,"current_range_meters":1600,"station_id":"ce4bh2h2rcd13ifvqdh0","pricing_plan_id":"cebpf4jnsgd1na2vs0mg"},{"bike_id":"2454b331-47c4-45e8-85ab-611d47c4d43b","system_id":"levelo_inurba_marseille","lat":43.294153,"lon":5.386305,"is_reserved":false,"is_disabled":false,"rental_uris":{"android":"levelo://app?vid=2454b331-47c4-45e8-85ab-611d47c4d43b","ios":"levelo://app?vid=2454b331-47c4-45e8-85ab-611d47c4d43b"},"vehicle_type_id":"4","last_reported":1707941256,"current_range_meters":20800,"station_id":"ce4bh2h2rcd13ifvqdh0","pricing_plan_id":"cebpf4jnsgd1na2vs0mg"},{"bike_id":"1ab5f9ec-5d58-49c9-a0b2-acf3cdeb125b","system_id":"levelo_inurba_marseille","lat":43.29421,"lon":5.38618,"is_reserved":false,"is_disabled":false,"rental_uris":{"android":"levelo://app?vid=1ab5f9ec-5d58-49c9-a0b2-acf3cdeb125b","ios":"levelo://app?vid=1ab5f9ec-5d58-49c9-a0b2-acf3cdeb125b"},"vehicle_type_id":"4","last_reported":1707941256,"current_range_meters":5600,"station_id":"ce4bh2h2rcd13ifvqdh0","pricing_plan_id":"cebpf4jnsgd1na2vs0mg"},{"bike_id":"26782a59-3d70-44a6-aa3b-33095ac8744d","system_id":"levelo_inurba_marseille","lat":43.294153,"lon":5.386305,"is_reserved":false,"is_disabled":false,"rental_uris":{"android":"levelo://app?vid=26782a59-3d70-44a6-aa3b-33095ac8744d","ios":"levelo://app?vid=26782a59-3d70-44a6-aa3b-33095ac8744d"},"vehicle_type_id":"4","last_reported":1707941256,"current_range_meters":15600,"station_id":"ce4bh2h2rcd13ifvqdh0","pricing_plan_id":"cebpf4jnsgd1na2vs0mg"},{"bike_id":"ccfe65a9-1bf5-414f-9ad9-fdbe6237d292","system_id":"levelo_inurba_marseille","lat":43.29419,"lon":5.3862,"is_reserved":false,"is_disabled":false,"rental_uris":{"android":"levelo://app?vid=ccfe65a9-1bf5-414f-9ad9-fdbe6237d292","ios":"levelo://app?vid=ccfe65a9-1bf5-414f-9ad9-fdbe6237d292"},"vehicle_type_id":"4","last_reported":1707941256,"current_range_meters":3600,"station_id":"ce4bh2h2rcd13ifvqdh0","pricing_plan_id":"cebpf4jnsgd1na2vs0mg"},{"bike_id":"69937058-8b67-4961-a590-543672134ec3","system_id":"levelo_inurba_marseille","lat":43.29419,"lon":5.38621,"is_reserved":false,"is_disabled":false,"rental_uris":{"android":"levelo://app?vid=69937058-8b67-4961-a590-543672134ec3","ios":"levelo://app?vid=69937058-8b67-4961-a590-543672134ec3"},"vehicle_type_id":"4","last_reported":1707941256,"current_range_meters":4400,"station_id":"ce4bh2h2rcd13ifvqdh0","pricing_plan_id":"cebpf4jnsgd1na2vs0mg"},{"bike_id":"30241abd-fe59-4467-a300-4e3db40fc46c","system_id":"levelo_inurba_marseille","lat":43.29422,"lon":5.38628,"is_reserved":false,"is_disabled":false,"rental_uris":{"android":"levelo://app?vid=30241abd-fe59-4467-a300-4e3db40fc46c","ios":"levelo://app?vid=30241abd-fe59-4467-a300-4e3db40fc46c"},"vehicle_type_id":"4","last_reported":1707941256,"current_range_meters":0,"station_id":"ce4bh2h2rcd13ifvqdh0","pricing_plan_id":"cebpf4jnsgd1na2vs0mg"},{"bike_id":"7caedcb6-bb2a-4708-b8c6-522e474705f5","system_id":"levelo_inurba_marseille","lat":43.294153,"lon":5.386305,"is_reserved":false,"is_disabled":false,"rental_uris":{"android":"levelo://app?vid=7caedcb6-bb2a-4708-b8c6-522e474705f5","ios":"levelo://app?vid=7caedcb6-bb2a-4708-b8c6-522e474705f5"},"vehicle_type_id":"4","last_reported":1707941256,"current_range_meters":2800,"station_id":"ce4bh2h2rcd13ifvqdh0","pricing_plan_id":"cebpf4jnsgd1na2vs0mg"},{"bike_id":"87c0cb56-74ae-4221-918e-c00c73fc88cd","system_id":"levelo_inurba_marseille","lat":43.29422,"lon":5.3863,"is_reserved":false,"is_disabled":false,"rental_uris":{"android":"levelo://app?vid=87c0cb56-74ae-4221-918e-c00c73fc88cd","ios":"levelo://app?vid=87c0cb56-74ae-4221-918e-c00c73fc88cd"},"vehicle_type_id":"4","last_reported":1707941256,"current_range_meters":7600,"station_id":"ce4bh2h2rcd13ifvqdh0","pricing_plan_id":"cebpf4jnsgd1na2vs0mg"},{"bike_id":"9d3f9f4e-c5a1-4890-8f46-48cf8e699ac6","system_id":"levelo_inurba_marseille","lat":43.29417,"lon":5.38621,"is_reserved":false,"is_disabled":false,"rental_uris":{"android":"levelo://app?vid=9d3f9f4e-c5a1-4890-8f46-48cf8e699ac6","ios":"levelo://app?vid=9d3f9f4e-c5a1-4890-8f46-48cf8e699ac6"},"vehicle_type_id":"4","last_reported":1707941256,"current_range_meters":15600,"station_id":"ce4bh2h2rcd13ifvqdh0","pricing_plan_id":"cebpf4jnsgd1na2vs0mg"},{"bike_id":"7e8dcf3a-6608-4555-9200-f8b0accb437a","system_id":"levelo_inurba_marseille","lat":43.29421,"lon":5.38629,"is_reserved":false,"is_disabled":false,"rental_uris":{"android":"levelo://app?vid=7e8dcf3a-6608-4555-9200-f8b0accb437a","ios":"levelo://app?vid=7e8dcf3a-6608-4555-9200-f8b0accb437a"},"vehicle_type_id":"4","last_reported":1707941256,"current_range_meters":17200,"station_id":"ce4bh2h2rcd13ifvqdh0","pricing_plan_id":"cebpf4jnsgd1na2vs0mg"},{"bike_id":"ef10e2bd-ede8-4106-972c-d260e3ac7696","system_id":"levelo_inurba_marseille","lat":43.289184,"lon":5.366408,"is_reserved":false,"is_disabled":false,"rental_uris":{"android":"levelo://app?vid=ef10e2bd-ede8-4106-972c-d260e3ac7696","ios":"levelo://app?vid=ef10e2bd-ede8-4106-972c-d260e3ac7696"},"vehicle_type_id":"4","last_reported":1707941256,"current_range_meters":17200,"station_id":"ce4bhap2rcd13ifvqek0","pricing_plan_id":"cebpf4jnsgd1na2vs0mg"},{"bike_id":"2942126c-8d2c-4be4-9656-4e0e2b6dc8ef","system_id":"levelo_inurba_marseille","lat":43.29416,"lon":5.38622,"is_reserved":false,"is_disabled":false,"rental_uris":{"android":"levelo://app?vid=2942126c-8d2c-4be4-9656-4e0e2b6dc8ef","ios":"levelo://app?vid=2942126c-8d2c-4be4-9656-4e0e2b6dc8ef"},"vehicle_type_id":"4","last_reported":1707941256,"current_range_meters":15200,"station_id":"ce4bh2h2rcd13ifvqdh0","pricing_plan_id":"cebpf4jnsgd1na2vs0mg"},{"bike_id":"a9173e2a-78c0-40f3-bbf4-d203f4e518aa","system_id":"levelo_inurba_marseille","lat":43.29418,"lon":5.38626,"is_reserved":false,"is_disabled":false,"rental_uris":{"android":"levelo://app?vid=a9173e2a-78c0-40f3-bbf4-d203f4e518aa","ios":"levelo://app?vid=a9173e2a-78c0-40f3-bbf4-d203f4e518aa"},"vehicle_type_id":"4","last_reported":1707941256,"current_range_meters":2000,"station_id":"ce4bh2h2rcd13ifvqdh0","pricing_plan_id":"cebpf4jnsgd1na2vs0mg"},{"bike_id":"9a404653-7a94-4708-a0db-721269989304","system_id":"levelo_inurba_marseille","lat":43.29416,"lon":5.38624,"is_reserved":false,"is_disabled":false,"rental_uris":{"android":"levelo://app?vid=9a404653-7a94-4708-a0db-721269989304","ios":"levelo://app?vid=9a404653-7a94-4708-a0db-721269989304"},"vehicle_type_id":"4","last_reported":1707941256,"current_range_meters":2400,"station_id":"ce4bh2h2rcd13ifvqdh0","pricing_plan_id":"cebpf4jnsgd1na2vs0mg"},{"bike_id":"4488c176-69b8-48cf-b12e-0fd5048df858","system_id":"levelo_inurba_marseille","lat":43.294162,"lon":5.386292,"is_reserved":false,"is_disabled":false,"rental_uris":{"android":"levelo://app?vid=4488c176-69b8-48cf-b12e-0fd5048df858","ios":"levelo://app?vid=4488c176-69b8-48cf-b12e-0fd5048df858"},"vehicle_type_id":"4","last_reported":1707941256,"current_range_meters":4800,"station_id":"ce4bh2h2rcd13ifvqdh0","pricing_plan_id":"cebpf4jnsgd1na2vs0mg"},{"bike_id":"d66b04f5-0b1b-4ecd-a93f-d4f7dd7e8be2","system_id":"levelo_inurba_marseille","lat":43.28943,"lon":5.36644,"is_reserved":false,"is_disabled":false,"rental_uris":{"android":"levelo://app?vid=d66b04f5-0b1b-4ecd-a93f-d4f7dd7e8be2","ios":"levelo://app?vid=d66b04f5-0b1b-4ecd-a93f-d4f7dd7e8be2"},"vehicle_type_id":"4","last_reported":1707941256,"current_range_meters":31200,"station_id":"ce4bhap2rcd13ifvqek0","pricing_plan_id":"cebpf4jnsgd1na2vs0mg"},{"bike_id":"f028c85f-e77d-4c93-acec-550540c8bd8c","system_id":"levelo_inurba_marseille","lat":43.294153,"lon":5.386305,"is_reserved":false,"is_disabled":false,"rental_uris":{"android":"levelo://app?vid=f028c85f-e77d-4c93-acec-550540c8bd8c","ios":"levelo://app?vid=f028c85f-e77d-4c93-acec-550540c8bd8c"},"vehicle_type_id":"4","last_reported":1707941256,"current_range_meters":1600,"station_id":"ce4bh2h2rcd13ifvqdh0","pricing_plan_id":"cebpf4jnsgd1na2vs0mg"},{"bike_id":"40f4f3bd-40ae-442f-8112-b30372694f07","system_id":"levelo_inurba_marseille","lat":43.29416,"lon":5.38629,"is_reserved":false,"is_disabled":false,"rental_uris":{"android":"levelo://app?vid=40f4f3bd-40ae-442f-8112-b30372694f07","ios":"levelo://app?vid=40f4f3bd-40ae-442f-8112-b30372694f07"},"vehicle_type_id":"4","last_reported":1707941256,"current_range_meters":0,"station_id":"ce4bh2h2rcd13ifvqdh0","pricing_plan_id":"cebpf4jnsgd1na2vs0mg"},{"bike_id":"460d3b23-4231-452b-a1f1-08eaa1a9121f","system_id":"levelo_inurba_marseille","lat":43.29411,"lon":5.38621,"is_reserved":false,"is_disabled":false,"rental_uris":{"android":"levelo://app?vid=460d3b23-4231-452b-a1f1-08eaa1a9121f","ios":"levelo://app?vid=460d3b23-4231-452b-a1f1-08eaa1a9121f"},"vehicle_type_id":"4","last_reported":1707941256,"current_range_meters":0,"station_id":"ce4bh2h2rcd13ifvqdh0","pricing_plan_id":"cebpf4jnsgd1na2vs0mg"},{"bike_id":"a8269514-aa23-40c8-8e7d-f28d4b9e60f1","system_id":"levelo_inurba_marseille","lat":43.29417,"lon":5.38633,"is_reserved":false,"is_disabled":false,"rental_uris":{"android":"levelo://app?vid=a8269514-aa23-40c8-8e7d-f28d4b9e60f1","ios":"levelo://app?vid=a8269514-aa23-40c8-8e7d-f28d4b9e60f1"},"vehicle_type_id":"4","last_reported":1707941256,"current_range_meters":0,"station_id":"ce4bh2h2rcd13ifvqdh0","pricing_plan_id":"cebpf4jnsgd1na2vs0mg"},{"bike_id":"efb96a72-43b4-4be5-9de1-d6daca689afd","system_id":"levelo_inurba_marseille","lat":43.289184,"lon":5.366408,"is_reserved":false,"is_disabled":false,"rental_uris":{"android":"levelo://app?vid=efb96a72-43b4-4be5-9de1-d6daca689afd","ios":"levelo://app?vid=efb96a72-43b4-4be5-9de1-d6daca689afd"},"vehicle_type_id":"4","last_reported":1707941256,"current_range_meters":24400,"station_id":"ce4bhap2rcd13ifvqek0","pricing_plan_id":"cebpf4jnsgd1na2vs0mg"},{"bike_id":"e53d7e56-4c9a-4808-8e6b-8f4a105ce071","system_id":"levelo_inurba_marseille","lat":43.29415,"lon":5.38632,"is_reserved":false,"is_disabled":false,"rental_uris":{"android":"levelo://app?vid=e53d7e56-4c9a-4808-8e6b-8f4a105ce071","ios":"levelo://app?vid=e53d7e56-4c9a-4808-8e6b-8f4a105ce071"},"vehicle_type_id":"4","last_reported":1707941256,"current_range_meters":22000,"station_id":"ce4bh2h2rcd13ifvqdh0","pricing_plan_id":"cebpf4jnsgd1na2vs0mg"},{"bike_id":"19c8de4b-8a8e-4309-b782-37070259b60c","system_id":"levelo_inurba_marseille","lat":43.294162,"lon":5.386292,"is_reserved":false,"is_disabled":false,"rental_uris":{"android":"levelo://app?vid=19c8de4b-8a8e-4309-b782-37070259b60c","ios":"levelo://app?vid=19c8de4b-8a8e-4309-b782-37070259b60c"},"vehicle_type_id":"4","last_reported":1707941256,"current_range_meters":1600,"station_id":"ce4bh2h2rcd13ifvqdh0","pricing_plan_id":"cebpf4jnsgd1na2vs0mg"},{"bike_id":"a9f70f03-1fde-4a15-bb0a-06dacb3d61ff","system_id":"levelo_inurba_marseille","lat":43.29412,"lon":5.3863,"is_reserved":false,"is_disabled":false,"rental_uris":{"android":"levelo://app?vid=a9f70f03-1fde-4a15-bb0a-06dacb3d61ff","ios":"levelo://app?vid=a9f70f03-1fde-4a15-bb0a-06dacb3d61ff"},"vehicle_type_id":"4","last_reported":1707941256,"current_range_meters":6000,"station_id":"ce4bh2h2rcd13ifvqdh0","pricing_plan_id":"cebpf4jnsgd1na2vs0mg"},{"bike_id":"f4415eee-f6f9-4af4-bca1-7494d5b2b1ce","system_id":"levelo_inurba_marseille","lat":43.29413,"lon":5.38632,"is_reserved":false,"is_disabled":false,"rental_uris":{"android":"levelo://app?vid=f4415eee-f6f9-4af4-bca1-7494d5b2b1ce","ios":"levelo://app?vid=f4415eee-f6f9-4af4-bca1-7494d5b2b1ce"},"vehicle_type_id":"4","last_reported":1707941256,"current_range_meters":28000,"station_id":"ce4bh2h2rcd13ifvqdh0","pricing_plan_id":"cebpf4jnsgd1na2vs0mg"},{"bike_id":"9d7595e0-3cc5-4c77-bb17-1377e03eece0","system_id":"levelo_inurba_marseille","lat":43.290319,"lon":5.375732,"is_reserved":false,"is_disabled":false,"rental_uris":{"android":"levelo://app?vid=9d7595e0-3cc5-4c77-bb17-1377e03eece0","ios":"levelo://app?vid=9d7595e0-3cc5-4c77-bb17-1377e03eece0"},"vehicle_type_id":"4","last_reported":1707941256,"current_range_meters":20000,"station_id":"ce4bh692rcd13ifvqe90","pricing_plan_id":"cebpf4jnsgd1na2vs0mg"},{"bike_id":"547a17e8-7086-46c6-b7b8-180245ae82e2","system_id":"levelo_inurba_marseille","lat":43.28938,"lon":5.36637,"is_reserved":false,"is_disabled":false,"rental_uris":{"android":"levelo://app?vid=547a17e8-7086-46c6-b7b8-180245ae82e2","ios":"levelo://app?vid=547a17e8-7086-46c6-b7b8-180245ae82e2"},"vehicle_type_id":"4","last_reported":1707941256,"current_range_meters":31200,"station_id":"ce4bhap2rcd13ifvqek0","pricing_plan_id":"cebpf4jnsgd1na2vs0mg"},{"bike_id":"0a91ee48-31bf-4993-9037-8fcddaf1e9b0","system_id":"levelo_inurba_marseille","lat":43.28937,"lon":5.36639,"is_reserved":false,"is_disabled":false,"rental_uris":{"android":"levelo://app?vid=0a91ee48-31bf-4993-9037-8fcddaf1e9b0","ios":"levelo://app?vid=0a91ee48-31bf-4993-9037-8fcddaf1e9b0"},