{"last_updated":1710371235,"ttl":30,"version":"2.2","data":{"bikes":[{"bike_id":"23313df7-f015-42e9-9b2a-37de0276674c","system_id":"levelo_inurba_marseille","lat":43.314811,"lon":5.373103,"is_reserved":false,"is_disabled":false,"rental_uris":{"android":"levelo://app?vid=23313df7-f015-42e9-9b2a-37de0276674c","ios":"levelo://app?vid=23313df7-f015-42e9-9b2a-37de0276674c"},"vehicle_type_id":"4","last_reported":1710371235,"current_range_meters":12000,"station_id":"ce4bgt12rcd13ifvqcd0","pricing_plan_id":"cebpf4jnsgd1na2vs0mg"},{"bike_id":"60135003-0dfa-41a7-8feb-59421e99ad97","system_id":"levelo_inurba_marseille","lat":43.314811,"lon":5.373103,"is_reserved":false,"is_disabled":false,"rental_uris":{"android":"levelo://app?vid=60135003-0dfa-41a7-8feb-59421e99ad97","ios":"levelo://app?vid=60135003-0dfa-41a7-8feb-59421e99ad97"},"vehicle_type_id":"4","last_reported":1710371235,"current_range_meters":13200,"station_id":"ce4bgt12rcd13ifvqcd0","pricing_plan_id":"cebpf4jnsgd1na2vs0mg"},{"bike_id":"ac00f802-15a6-4c9c-83e3-e6352729bb24","system_id":"levelo_inurba_marseille","lat":43.314811,"lon":5.373103,"is_reserved":false,"is_disabled":false,"rental_uris":{"android":"levelo://app?vid=ac00f802-15a6-4c9c-83e3-e6352729bb24","ios":"levelo://app?vid=ac00f802-15a6-4c9c-83e3-e6352729bb24"},"vehicle_type_id":"4","last_reported":1710371235,"current_range_meters":2800,"station_id":"ce4bgt12rcd13ifvqcd0","pricing_plan_id":"cebpf4jnsgd1na2vs0mg"},{"bike_id":"3c4365f7-f1ce-4bbe-9efd-0ac55c1e58f6","system_id":"levelo_inurba_marseille","lat":43.305368,"lon":5.367343,"is_reserved":false,"is_disabled":false,"rental_uris":{"android":"levelo://app?vid=3c4365f7-f1ce-4bbe-9efd-0ac55c1e58f6","ios":"levelo://app?vid=3c4365f7-f1ce-4bbe-9efd-0ac55c1e58f6"},"vehicle_type_id":"4","last_reported":1710371235,"current_range_meters":19600,"station_id":"ce4bgrp2rcd13ifvqc9g","pricing_plan_id":"cebpf4jnsgd1na2vs0mg"},{"bike_id":"23f0ad17-df14-4493-9a0f-136632bcd031","system_id":"levelo_inurba_marseille","lat":43.305368,"lon":5.367343,"is_reserved":false,"is_disabled":false,"rental_uris":{"android":"levelo://app?vid=23f0ad17-df14-4493-9a0f-136632bcd031","ios":"levelo://app?vid=23f0ad17-df14-4493-9a0f-136632bcd031"},"vehicle_type_id":"4","last_reported":1710371235,"current_range_meters":28000,"station_id":"ce4bgrp2rcd13ifvqc9g","pricing_plan_id":"cebpf4jnsgd1na2vs0mg"},{"bike_id":"1af007d2-432d-435e-a2e7-8574e79f4186","system_id":"levelo_inurba_marseille","lat":43.305989,"lon":5.37225,"is_reserved":false,"is_disabled":false,"rental_uris":{"android":"levelo://app?vid=1af007d2-432d-435e-a2e7-8574e79f4186","ios":"levelo://app?vid=1af007d2-432d-435e-a2e7-8574e79f4186"},"vehicle_type_id":"4","last_reported":1710371235,"current_range_meters":19200,"station_id":"ce4bgqh2rcd13ifvqc4g","pricing_plan_id":"cebpf4jnsgd1na2vs0mg"},{"bike_id":"1943fa1d-b29d-45b6-9242-37e2c1d520fe","system_id":"levelo_inurba_marseille","lat":43.305989,"lon":5.37225,"is_reserved":false,"is_disabled":false,"rental_uris":{"android":"levelo://app?vid=1943fa1d-b29d-45b6-9242-37e2c1d520fe","ios":"levelo://app?vid=1943fa1d-b29d-45b6-9242-37e2c1d520fe"},"vehicle_type_id":"4","last_reported":1710371235,"current_range_meters":0,"station_id":"ce4bgqh2rcd13ifvqc4g","pricing_plan_id":"cebpf4jnsgd1na2vs0mg"},{"bike_id":"b02eee50-0718-4905-8597-6cf4ea999ef2","system_id":"levelo_inurba_marseille","lat":43.30598,"lon":5.37227,"is_reserved":false,"is_disabled":false,"rental_uris":{"android":"levelo://app?vid=b02eee50-0718-4905-8597-6cf4ea999ef2","ios":"levelo://app?vid=b02eee50-0718-4905-8597-6cf4ea999ef2"},"vehicle_type_id":"4","last_reported":1710371235,"current_range_meters":0,"station_id":"ce4bgqh2rcd13ifvqc4g","pricing_plan_id":"cebpf4jnsgd1na2vs0mg"},{"bike_id":"b8e368ff-e80d-482d-8f27-979fcb6711d8","system_id":"levelo_inurba_marseille","lat":43.305989,"lon":5.37225,"is_reserved":false,"is_disabled":false,"rental_uris":{"android":"levelo://app?vid=b8e368ff-e80d-482d-8f27-979fcb6711d8","ios":"levelo://app?vid=b8e368ff-e80d-482d-8f27-979fcb6711d8"},"vehicle_type_id":"4","last_reported":1710371235,"current_range_meters":16400,"station_id":"ce4bgqh2rcd13ifvqc4g","pricing_plan_id":"cebpf4jnsgd1na2vs0mg"},{"bike_id":"7ac9c3fc-e211-4934-9afc-f5e0ff66f58e","system_id":"levelo_inurba_marseille","lat":43.31112,"lon":5.37767,"is_reserved":false,"is_disabled":false,"rental_uris":{"android":"levelo://app?vid=7ac9c3fc-e211-4934-9afc-f5e0ff66f58e","ios":"levelo://app?vid=7ac9c3fc-e211-4934-9afc-f5e0ff66f58e"},"vehicle_type_id":"4","last_reported":1710371235,"current_range_meters":2000,"station_id":"ce4bgt92rcd13ifvqcg0","pricing_plan_id":"cebpf4jnsgd1na2vs0mg"},{"bike_id":"35c6234c-4b0f-41ce-a4e0-5c562a3acff6","system_id":"levelo_inurba_marseille","lat":43.307945,"lon":5.376487,"is_reserved":false,"is_disabled":false,"rental_uris":{"android":"levelo://app?vid=35c6234c-4b0f-41ce-a4e0-5c562a3acff6","ios":"levelo://app?vid=35c6234c-4b0f-41ce-a4e0-5c562a3acff6"},"vehicle_type_id":"4","last_reported":1710371235,"current_range_meters":24800,"station_id":"ce4bgv92rcd13ifvqcq0","pricing_plan_id":"cebpf4jnsgd1na2vs0mg"},{"bike_id":"e4ae9448-174b-4a2f-92f3-210ffcb2ae7f","system_id":"levelo_inurba_marseille","lat":43.307945,"lon":5.376487,"is_reserved":false,"is_disabled":false,"rental_uris":{"android":"levelo://app?vid=e4ae9448-174b-4a2f-92f3-210ffcb2ae7f","ios":"levelo://app?vid=e4ae9448-174b-4a2f-92f3-210ffcb2ae7f"},"vehicle_type_id":"4","last_reported":1710371235,"current_range_meters":27200,"station_id":"ce4bgv92rcd13ifvqcq0","pricing_plan_id":"cebpf4jnsgd1na2vs0mg"},{"bike_id":"e51d1753-635c-4b7e-8a18-332b222f8200","system_id":"levelo_inurba_marseille","lat":43.30776,"lon":5.37651,"is_reserved":false,"is_disabled":false,"rental_uris":{"android":"levelo://app?vid=e51d1753-635c-4b7e-8a18-332b222f8200","ios":"levelo://app?vid=e51d1753-635c-4b7e-8a18-332b222f8200"},"vehicle_type_id":"4","last_reported":1710371235,"current_range_meters":6800,"station_id":"ce4bgv92rcd13ifvqcq0","pricing_plan_id":"cebpf4jnsgd1na2vs0mg"},{"bike_id":"d99a4aaf-b3b3-4333-a1dd-35df13a773e0","system_id":"levelo_inurba_marseille","lat":43.307945,"lon":5.376487,"is_reserved":false,"is_disabled":false,"rental_uris":{"android":"levelo://app?vid=d99a4aaf-b3b3-4333-a1dd-35df13a773e0","ios":"levelo://app?vid=d99a4aaf-b3b3-4333-a1dd-35df13a773e0"},"vehicle_type_id":"4","last_reported":1710371235,"current_range_meters":26000,"station_id":"ce4bgv92rcd13ifvqcq0","pricing_plan_id":"cebpf4jnsgd1na2vs0mg"},{"bike_id":"d982e3dd-f38b-43ff-b8b4-fff4750cacf9","system_id":"levelo_inurba_marseille","lat":43.30773,"lon":5.37659,"is_reserved":false,"is_disabled":false,"rental_uris":{"android":"levelo://app?vid=d982e3dd-f38b-43ff-b8b4-fff4750cacf9","ios":"levelo://app?vid=d982e3dd-f38b-43ff-b8b4-fff4750cacf9"},"vehicle_type_id":"4","last_reported":1710371235,"current_range_meters":30400,"station_id":"ce4bgv92rcd13ifvqcq0","pricing_plan_id":"cebpf4jnsgd1na2vs0mg"},{"bike_id":"97d24dc9-210d-42c3-94de-ccd014f6fe06","system_id":"levelo_inurba_marseille","lat":43.317075,"lon":5.377367,"is_reserved":false,"is_disabled":false,"rental_uris":{"android":"levelo://app?vid=97d24dc9-210d-42c3-94de-ccd014f6fe06","ios":"levelo://app?vid=97d24dc9-210d-42c3-94de-ccd014f6fe06"},"vehicle_type_id":"4","last_reported":1710371235,"current_range_meters":27600,"station_id":"ce4bgth2rcd13ifvqch0","pricing_plan_id":"cebpf4jnsgd1na2vs0mg"},{"bike_id":"6df8a519-a704-46e9-b3eb-42b1fb917e85","system_id":"levelo_inurba_marseille","lat":43.31741,"lon":5.37761,"is_reserved":false,"is_disabled":false,"rental_uris":{"android":"levelo://app?vid=6df8a519-a704-46e9-b3eb-42b1fb917e85","ios":"levelo://app?vid=6df8a519-a704-46e9-b3eb-42b1fb917e85"},"vehicle_type_id":"4","last_reported":1710371235,"current_range_meters":22000,"station_id":"ce4bgth2rcd13ifvqch0","pricing_plan_id":"cebpf4jnsgd1na2vs0mg"},{"bike_id":"f190833a-7fa9-4e73-b37f-c93ca50738fb","system_id":"levelo_inurba_marseille","lat":43.30312,"lon":5.36905,"is_reserved":false,"is_disabled":false,"rental_uris":{"android":"levelo://app?vid=f190833a-7fa9-4e73-b37f-c93ca50738fb","ios":"levelo://app?vid=f190833a-7fa9-4e73-b37f-c93ca50738fb"},"vehicle_type_id":"4","last_reported":1710371235,"current_range_meters":29600,"station_id":"ce4bgqh2rcd13ifvqc5g","pricing_plan_id":"cebpf4jnsgd1na2vs0mg"},{"bike_id":"87a71872-d19f-4c4e-a025-4637aa2db991","system_id":"levelo_inurba_marseille","lat":43.30309,"lon":5.36893,"is_reserved":false,"is_disabled":false,"rental_uris":{"android":"levelo://app?vid=87a71872-d19f-4c4e-a025-4637aa2db991","ios":"levelo://app?vid=87a71872-d19f-4c4e-a025-4637aa2db991"},"vehicle_type_id":"4","last_reported":1710371235,"current_range_meters":4000,"station_id":"ce4bgqh2rcd13ifvqc5g","pricing_plan_id":"cebpf4jnsgd1na2vs0mg"},{"bike_id":"1390257c-e6d0-473a-b0ed-5b2f181d7584","system_id":"levelo_inurba_marseille","lat":43.30306,"lon":5.36905,"is_reserved":false,"is_disabled":false,"rental_uris":{"android":"levelo://app?vid=1390257c-e6d0-473a-b0ed-5b2f181d7584","ios":"levelo://app?vid=1390257c-e6d0-473a-b0ed-5b2f181d7584"},"vehicle_type_id":"4","last_reported":1710371235,"current_range_meters":17600,"station_id":"ce4bgqh2rcd13ifvqc5g","pricing_plan_id":"cebpf4jnsgd1na2vs0mg"},{"bike_id":"8fc6fa95-a0bc-4105-b983-5f4744839a08","system_id":"levelo_inurba_marseille","lat":43.30305,"lon":5.36901,"is_reserved":false,"is_disabled":false,"rental_uris":{"android":"levelo://app?vid=8fc6fa95-a0bc-4105-b983-5f4744839a08","ios":"levelo://app?vid=8fc6fa95-a0bc-4105-b983-5f4744839a08"},"vehicle_type_id":"4","last_reported":1710371235,"current_range_meters":5200,"station_id":"ce4bgqh2rcd13ifvqc5g","pricing_plan_id":"cebpf4jnsgd1na2vs0mg"},{"bike_id":"6e18a56b-172b-48d2-bd99-ecfa4775537f","system_id":"levelo_inurba_marseille","lat":43.303046,"lon":5.368981,"is_reserved":false,"is_disabled":false,"rental_uris":{"android":"levelo://app?vid=6e18a56b-172b-48d2-bd99-ecfa4775537f","ios":"levelo://app?vid=6e18a56b-172b-48d2-bd99-ecfa4775537f"},"vehicle_type_id":"4","last_reported":1710371235,"current_range_meters":14800,"station_id":"ce4bgqh2rcd13ifvqc5g","pricing_plan_id":"cebpf4jnsgd1na2vs0mg"},{"bike_id":"83763b65-d746-44cc-8a87-ecb7117a1772","system_id":"levelo_inurba_marseille","lat":43.315293,"lon":5.380349,"is_reserved":false,"is_disabled":false,"rental_uris":{"android":"levelo://app?vid=83763b65-d746-44cc-8a87-ecb7117a1772","ios":"levelo://app?vid=83763b65-d746-44cc-8a87-ecb7117a1772"},"vehicle_type_id":"4","last_reported":1710371235,"current_range_meters":23600,"station_id":"ce4bhsp2rcd13ifvqi50","pricing_plan_id":"cebpf4jnsgd1na2vs0mg"},{"bike_id":"875cbb6f-8f3c-4acf-b66d-3b7db708d18d","system_id":"levelo_inurba_marseille","lat":43.315293,"lon":5.380349,"is_reserved":false,"is_disabled":false,"rental_uris":{"android":"levelo://app?vid=875cbb6f-8f3c-4acf-b66d-3b7db708d18d","ios":"levelo://app?vid=875cbb6f-8f3c-4acf-b66d-3b7db708d18d"},"vehicle_type_id":"4","last_reported":1710371235,"current_range_meters":30000,"station_id":"ce4bhsp2rcd13ifvqi50","pricing_plan_id":"cebpf4jnsgd1na2vs0mg"},{"bike_id":"f1a1af6d-62ba-49c7-9eb8-24cb0b0fdac9","system_id":"levelo_inurba_marseille","lat":43.315289,"lon":5.380349,"is_reserved":false,"is_disabled":false,"rental_uris":{"android":"levelo://app?vid=f1a1af6d-62ba-49c7-9eb8-24cb0b0fdac9","ios":"levelo://app?vid=f1a1af6d-62ba-49c7-9eb8-24cb0b0fdac9"},"vehicle_type_id":"4","last_reported":1710371235,"current_range_meters":23600,"station_id":"ce4bhsp2rcd13ifvqi50","pricing_plan_id":"cebpf4jnsgd1na2vs0mg"},{"bike_id":"645a87cd-bdd4-4e27-ab92-304aa43844f6","system_id":"levelo_inurba_marseille","lat":43.301939,"lon":5.366286,"is_reserved":false,"is_disabled":false,"rental_uris":{"android":"levelo://app?vid=645a87cd-bdd4-4e27-ab92-304aa43844f6","ios":"levelo://app?vid=645a87cd-bdd4-4e27-ab92-304aa43844f6"},"vehicle_type_id":"4","last_reported":1710371235,"current_range_meters":28800,"station_id":"ce4bgrh2rcd13ifvqc8g","pricing_plan_id":"cebpf4jnsgd1na2vs0mg"},{"bike_id":"ca0c0341-b512-49d2-8cbf-516601dcbd7d","system_id":"levelo_inurba_marseille","lat":43.301939,"lon":5.366286,"is_reserved":false,"is_disabled":false,"rental_uris":{"android":"levelo://app?vid=ca0c0341-b512-49d2-8cbf-516601dcbd7d","ios":"levelo://app?vid=ca0c0341-b512-49d2-8cbf-516601dcbd7d"},"vehicle_type_id":"4","last_reported":1710371235,"current_range_meters":10400,"station_id":"ce4bgrh2rcd13ifvqc8g","pricing_plan_id":"cebpf4jnsgd1na2vs0mg"},{"bike_id":"b2df13b1-4ccf-4148-8b85-4b7de577cffd","system_id":"levelo_inurba_marseille","lat":43.301939,"lon":5.366286,"is_reserved":false,"is_disabled":false,"rental_uris":{"android":"levelo://app?vid=b2df13b1-4ccf-4148-8b85-4b7de577cffd","ios":"levelo://app?vid=b2df13b1-4ccf-4148-8b85-4b7de577cffd"},"vehicle_type_id":"4","last_reported":1710371235,"current_range_meters":12000,"station_id":"ce4bgrh2rcd13ifvqc8g","pricing_plan_id":"cebpf4jnsgd1na2vs0mg"},{"bike_id":"211267b1-9371-4ab8-b99d-bd234a17ceb5","system_id":"levelo_inurba_marseille","lat":43.301939,"lon":5.366286,"is_reserved":false,"is_disabled":false,"rental_uris":{"android":"levelo://app?vid=211267b1-9371-4ab8-b99d-bd234a17ceb5","ios":"levelo://app?vid=211267b1-9371-4ab8-b99d-bd234a17ceb5"},"vehicle_type_id":"4","last_reported":1710371235,"current_range_meters":21600,"station_id":"ce4bgrh2rcd13ifvqc8g","pricing_plan_id":"cebpf4jnsgd1na2vs0mg"},{"bike_id":"33e7c9cc-a5c2-4a10-b1ae-4f667fd12704","system_id":"levelo_inurba_marseille","lat":43.301939,"lon":5.366286,"is_reserved":false,"is_disabled":false,"rental_uris":{"android":"levelo://app?vid=33e7c9cc-a5c2-4a10-b1ae-4f667fd12704","ios":"levelo://app?vid=33e7c9cc-a5c2-4a10-b1ae-4f667fd12704"},"vehicle_type_id":"4","last_reported":1710371235,"current_range_meters":29200,"station_id":"ce4bgrh2rcd13ifvqc8g","pricing_plan_id":"cebpf4jnsgd1na2vs0mg"},{"bike_id":"78f6d903-aea7-4b6a-94f5-a22bb9a41014","system_id":"levelo_inurba_marseille","lat":43.308012,"lon":5.381511,"is_reserved":false,"is_disabled":false,"rental_uris":{"android":"levelo://app?vid=78f6d903-aea7-4b6a-94f5-a22bb9a41014","ios":"levelo://app?vid=78f6d903-aea7-4b6a-94f5-a22bb9a41014"},"vehicle_type_id":"4","last_reported":1710371235,"current_range_meters":10800,"station_id":"ce4bgt12rcd13ifvqce0","pricing_plan_id":"cebpf4jnsgd1na2vs0mg"},{"bike_id":"f2192a20-9ce4-41c3-a8df-b831380965ee","system_id":"levelo_inurba_marseille","lat":43.304678,"lon":5.378912,"is_reserved":false,"is_disabled":false,"rental_uris":{"android":"levelo://app?vid=f2192a20-9ce4-41c3-a8df-b831380965ee","ios":"levelo://app?vid=f2192a20-9ce4-41c3-a8df-b831380965ee"},"vehicle_type_id":"4","last_reported":1710371235,"current_range_meters":0,"station_id":"ce4bgup2rcd13ifvqcn0","pricing_plan_id":"cebpf4jnsgd1na2vs0mg"},{"bike_id":"69f16bc0-91b1-4cad-91b5-51ae8c8ba203","system_id":"levelo_inurba_marseille","lat":43.324735,"lon":5.365538,"is_reserved":false,"is_disabled":false,"rental_uris":{"android":"levelo://app?vid=69f16bc0-91b1-4cad-91b5-51ae8c8ba203","ios":"levelo://app?vid=69f16bc0-91b1-4cad-91b5-51ae8c8ba203"},"vehicle_type_id":"4","last_reported":1710371235,"current_range_meters":4000,"station_id":"ce4bhs12rcd13ifvqhvg","pricing_plan_id":"cebpf4jnsgd1na2vs0mg"},{"bike_id":"6068d22f-e2ba-4474-ba2e-a9d2f6b84487","system_id":"levelo_inurba_marseille","lat":43.324771,"lon":5.36557,"is_reserved":false,"is_disabled":false,"rental_uris":{"android":"levelo://app?vid=6068d22f-e2ba-4474-ba2e-a9d2f6b84487","ios":"levelo://app?vid=6068d22f-e2ba-4474-ba2e-a9d2f6b84487"},"vehicle_type_id":"4","last_reported":1710371235,"current_range_meters":0,"station_id":"ce4bhs12rcd13ifvqhvg","pricing_plan_id":"cebpf4jnsgd1na2vs0mg"},{"bike_id":"36b9805d-1b04-4ec6-8f80-ae352e34369c","system_id":"levelo_inurba_marseille","lat":43.324771,"lon":5.36557,"is_reserved":false,"is_disabled":false,"rental_uris":{"android":"levelo://app?vid=36b9805d-1b04-4ec6-8f80-ae352e34369c","ios":"levelo://app?vid=36b9805d-1b04-4ec6-8f80-ae352e34369c"},"vehicle_type_id":"4","last_reported":1710371235,"current_range_meters":1200,"station_id":"ce4bhs12rcd13ifvqhvg","pricing_plan_id":"cebpf4jnsgd1na2vs0mg"},{"bike_id":"49f2117d-bbb1-42e5-80a2-7a881aecf261","system_id":"levelo_inurba_marseille","lat":43.324771,"lon":5.36557,"is_reserved":false,"is_disabled":false,"rental_uris":{"android":"levelo://app?vid=49f2117d-bbb1-42e5-80a2-7a881aecf261","ios":"levelo://app?vid=49f2117d-bbb1-42e5-80a2-7a881aecf261"},"vehicle_type_id":"4","last_reported":1710371235,"current_range_meters":10000,"station_id":"ce4bhs12rcd13ifvqhvg","pricing_plan_id":"cebpf4jnsgd1na2vs0mg"},{"bike_id":"75737f94-0aac-466c-878e-f5152ecd0234","system_id":"levelo_inurba_marseille","lat":43.324771,"lon":5.36557,"is_reserved":false,"is_disabled":false,"rental_uris":{"android":"levelo://app?vid=75737f94-0aac-466c-878e-f5152ecd0234","ios":"levelo://app?vid=75737f94-0aac-466c-878e-f5152ecd0234"},"vehicle_type_id":"4","last_reported":1710371235,"current_range_meters":800,"station_id":"ce4bhs12rcd13ifvqhvg","pricing_plan_id":"cebpf4jnsgd1na2vs0mg"},{"bike_id":"ed2f200f-86c1-4eb8-ad3b-d4ae2c5298fd","system_id":"levelo_inurba_marseille","lat":43.324771,"lon":5.36557,"is_reserved":false,"is_disabled":false,"rental_uris":{"android":"levelo://app?vid=ed2f200f-86c1-4eb8-ad3b-d4ae2c5298fd","ios":"levelo://app?vid=ed2f200f-86c1-4eb8-ad3b-d4ae2c5298fd"},"vehicle_type_id":"4","last_reported":1710371235,"current_range_meters":22800,"station_id":"ce4bhs12rcd13ifvqhvg","pricing_plan_id":"cebpf4jnsgd1na2vs0mg"},{"bike_id":"b735f631-99f5-4034-8269-a86a4a969537","system_id":"levelo_inurba_marseille","lat":43.324771,"lon":5.36557,"is_reserved":false,"is_disabled":false,"rental_uris":{"android":"levelo://app?vid=b735f631-99f5-4034-8269-a86a4a969537","ios":"levelo://app?vid=b735f631-99f5-4034-8269-a86a4a969537"},"vehicle_type_id":"4","last_reported":1710371235,"current_range_meters":3600,"station_id":"ce4bhs12rcd13ifvqhvg","pricing_plan_id":"cebpf4jnsgd1na2vs0mg"},{"bike_id":"12c419ff-5d5f-445b-9471-a4225b24c594","system_id":"levelo_inurba_marseille","lat":43.324771,"lon":5.36557,"is_reserved":false,"is_disabled":false,"rental_uris":{"android":"levelo://app?vid=12c419ff-5d5f-445b-9471-a4225b24c594","ios":"levelo://app?vid=12c419ff-5d5f-445b-9471-a4225b24c594"},"vehicle_type_id":"4","last_reported":1710371235,"current_range_meters":15600,"station_id":"ce4bhs12rcd13ifvqhvg","pricing_plan_id":"cebpf4jnsgd1na2vs0mg"},{"bike_id":"cfdb109c-b591-4f11-863b-b5c16f3933fe","system_id":"levelo_inurba_marseille","lat":43.324771,"lon":5.36557,"is_reserved":false,"is_disabled":false,"rental_uris":{"android":"levelo://app?vid=cfdb109c-b591-4f11-863b-b5c16f3933fe","ios":"levelo://app?vid=cfdb109c-b591-4f11-863b-b5c16f3933fe"},"vehicle_type_id":"4","last_reported":1710371235,"current_range_meters":20000,"station_id":"ce4bhs12rcd13ifvqhvg","pricing_plan_id":"cebpf4jnsgd1na2vs0mg"},{"bike_id":"2cbe4754-8bed-4fb8-ac7d-a2dfa79db6a5","system_id":"levelo_inurba_marseille","lat":43.324842,"lon":5.365728,"is_reserved":false,"is_disabled":false,"rental_uris":{"android":"levelo://app?vid=2cbe4754-8bed-4fb8-ac7d-a2dfa79db6a5","ios":"levelo://app?vid=2cbe4754-8bed-4fb8-ac7d-a2dfa79db6a5"},"vehicle_type_id":"4","last_reported":1710371235,"current_range_meters":6000,"station_id":"ce4bhs12rcd13ifvqhvg","pricing_plan_id":"cebpf4jnsgd1na2vs0mg"},{"bike_id":"71f4eaaf-8954-44e2-93bc-76b7e657b03b","system_id":"levelo_inurba_marseille","lat":43.324771,"lon":5.36557,"is_reserved":false,"is_disabled":false,"rental_uris":{"android":"levelo://app?vid=71f4eaaf-8954-44e2-93bc-76b7e657b03b","ios":"levelo://app?vid=71f4eaaf-8954-44e2-93bc-76b7e657b03b"},"vehicle_type_id":"4","last_reported":1710371235,"current_range_meters":12400,"station_id":"ce4bhs12rcd13ifvqhvg","pricing_plan_id":"cebpf4jnsgd1na2vs0mg"},{"bike_id":"2e3cabf9-3880-4d07-ae3b-af234e57884b","system_id":"levelo_inurba_marseille","lat":43.324771,"lon":5.36557,"is_reserved":false,"is_disabled":false,"rental_uris":{"android":"levelo://app?vid=2e3cabf9-3880-4d07-ae3b-af234e57884b","ios":"levelo://app?vid=2e3cabf9-3880-4d07-ae3b-af234e57884b"},"vehicle_type_id":"4","last_reported":1710371235,"current_range_meters":3600,"station_id":"ce4bhs12rcd13ifvqhvg","pricing_plan_id":"cebpf4jnsgd1na2vs0mg"},{"bike_id":"3e493ae2-c51c-41da-a0b8-fbd174ae9e18","system_id":"levelo_inurba_marseille","lat":43.324858,"lon":5.365722,"is_reserved":false,"is_disabled":false,"rental_uris":{"android":"levelo://app?vid=3e493ae2-c51c-41da-a0b8-fbd174ae9e18","ios":"levelo://app?vid=3e493ae2-c51c-41da-a0b8-fbd174ae9e18"},"vehicle_type_id":"4","last_reported":1710371235,"current_range_meters":4800,"station_id":"ce4bhs12rcd13ifvqhvg","pricing_plan_id":"cebpf4jnsgd1na2vs0mg"},{"bike_id":"2f177a10-dff1-4a4e-be87-c3cc9e449d3e","system_id":"levelo_inurba_marseille","lat":43.324771,"lon":5.36557,"is_reserved":false,"is_disabled":false,"rental_uris":{"android":"levelo://app?vid=2f177a10-dff1-4a4e-be87-c3cc9e449d3e","ios":"levelo://app?vid=2f177a10-dff1-4a4e-be87-c3cc9e449d3e"},"vehicle_type_id":"4","last_reported":1710371235,"current_range_meters":3200,"station_id":"ce4bhs12rcd13ifvqhvg","pricing_plan_id":"cebpf4jnsgd1na2vs0mg"},{"bike_id":"64568b75-f031-43c1-b864-d2ad6638bde4","system_id":"levelo_inurba_marseille","lat":43.324771,"lon":5.36557,"is_reserved":false,"is_disabled":false,"rental_uris":{"android":"levelo://app?vid=64568b75-f031-43c1-b864-d2ad6638bde4","ios":"levelo://app?vid=64568b75-f031-43c1-b864-d2ad6638bde4"},"vehicle_type_id":"4","last_reported":1710371235,"current_range_meters":4000,"station_id":"ce4bhs12rcd13ifvqhvg","pricing_plan_id":"cebpf4jnsgd1na2vs0mg"},{"bike_id":"c32bc9da-52df-4976-903b-35762cc8b277","system_id":"levelo_inurba_marseille","lat":43.324771,"lon":5.36557,"is_reserved":false,"is_disabled":false,"rental_uris":{"android":"levelo://app?vid=c32bc9da-52df-4976-903b-35762cc8b277","ios":"levelo://app?vid=c32bc9da-52df-4976-903b-35762cc8b277"},"vehicle_type_id":"4","last_reported":1710371235,"current_range_meters":800,"station_id":"ce4bhs12rcd13ifvqhvg","pricing_plan_id":"cebpf4jnsgd1na2vs0mg"},{"bike_id":"80108450-f296-43cc-9cd9-cd48e84285b1","system_id":"levelo_inurba_marseille","lat":43.310804,"lon":5.38359,"is_reserved":false,"is_disabled":false,"rental_uris":{"android":"levelo://app?vid=80108450-f296-43cc-9cd9-cd48e84285b1","ios":"levelo://app?vid=80108450-f296-43cc-9cd9-cd48e84285b1"},"vehicle_type_id":"4","last_reported":1710371235,"current_range_meters":0,"station_id":"ce4bgv92rcd13ifvqcr0","pricing_plan_id":"cebpf4jnsgd1na2vs0mg"},{"bike_id":"aa5d5082-5e76-4d1e-a796-e5c2da515394","system_id":"levelo_inurba_marseille","lat":43.31071,"lon":5.38353,"is_reserved":false,"is_disabled":false,"rental_uris":{"android":"levelo://app?vid=aa5d5082-5e76-4d1e-a796-e5c2da515394","ios":"levelo://app?vid=aa5d5082-5e76-4d1e-a796-e5c2da515394"},"vehicle_type_id":"4","last_reported":1710371235,"current_range_meters":0,"station_id":"ce4bgv92rcd13ifvqcr0","pricing_plan_id":"cebpf4jnsgd1na2vs0mg"},{"bike_id":"7fc755de-a946-48b2-8613-f75e52757226","system_id":"levelo_inurba_marseille","lat":43.30143,"lon":5.37413,"is_reserved":false,"is_disabled":false,"rental_uris":{"android":"levelo://app?vid=7fc755de-a946-48b2-8613-f75e52757226","ios":"levelo://app?vid=7fc755de-a946-48b2-8613-f75e52757226"},"vehicle_type_id":"4","last_reported":1710371235,"current_range_meters":0,"station_id":"ce4bgs92rcd13ifvqcc0","pricing_plan_id":"cebpf4jnsgd1na2vs0mg"},{"bike_id":"63e5dcb6-5f63-42db-b2df-bb756ab75e96","system_id":"levelo_inurba_marseille","lat":43.319935,"lon":5.381699,"is_reserved":false,"is_disabled":false,"rental_uris":{"android":"levelo://app?vid=63e5dcb6-5f63-42db-b2df-bb756ab75e96","ios":"levelo://app?vid=63e5dcb6-5f63-42db-b2df-bb756ab75e96"},"vehicle_type_id":"4","last_reported":1710371235,"current_range_meters":1200,"station_id":"ce4bhr12rcd13ifvqhpg","pricing_plan_id":"cebpf4jnsgd1na2vs0mg"},{"bike_id":"3251774e-c0fe-4644-8732-ff8e5aa7e275","system_id":"levelo_inurba_marseille","lat":43.31995,"lon":5.38147,"is_reserved":false,"is_disabled":false,"rental_uris":{"android":"levelo://app?vid=3251774e-c0fe-4644-8732-ff8e5aa7e275","ios":"levelo://app?vid=3251774e-c0fe-4644-8732-ff8e5aa7e275"},"vehicle_type_id":"4","last_reported":1710371235,"current_range_meters":0,"station_id":"ce4bhr12rcd13ifvqhpg","pricing_plan_id":"cebpf4jnsgd1na2vs0mg"},{"bike_id":"5eccbc20-4375-49ed-95a3-4081125eed18","system_id":"levelo_inurba_marseille","lat":43.319935,"lon":5.381699,"is_reserved":false,"is_disabled":false,"rental_uris":{"android":"levelo://app?vid=5eccbc20-4375-49ed-95a3-4081125eed18","ios":"levelo://app?vid=5eccbc20-4375-49ed-95a3-4081125eed18"},"vehicle_type_id":"4","last_reported":1710371235,"current_range_meters":10000,"station_id":"ce4bhr12rcd13ifvqhpg","pricing_plan_id":"cebpf4jnsgd1na2vs0mg"},{"bike_id":"11a26645-670a-4a7b-bb84-3c5738501029","system_id":"levelo_inurba_marseille","lat":43.319935,"lon":5.381699,"is_reserved":false,"is_disabled":false,"rental_uris":{"android":"levelo://app?vid=11a26645-670a-4a7b-bb84-3c5738501029","ios":"levelo://app?vid=11a26645-670a-4a7b-bb84-3c5738501029"},"vehicle_type_id":"4","last_reported":1710371235,"current_range_meters":5200,"station_id":"ce4bhr12rcd13ifvqhpg","pricing_plan_id":"cebpf4jnsgd1na2vs0mg"},{"bike_id":"4d45dffa-0e61-4221-9bbf-c3e263466d5b","system_id":"levelo_inurba_marseille","lat":43.319978,"lon":5.381573,"is_reserved":false,"is_disabled":false,"rental_uris":{"android":"levelo://app?vid=4d45dffa-0e61-4221-9bbf-c3e263466d5b","ios":"levelo://app?vid=4d45dffa-0e61-4221-9bbf-c3e263466d5b"},"vehicle_type_id":"4","last_reported":1710371235,"current_range_meters":0,"station_id":"ce4bhr12rcd13ifvqhpg","pricing_plan_id":"cebpf4jnsgd1na2vs0mg"},{"bike_id":"f54d6faf-0cab-4a89-897b-e37ad545bdcc","system_id":"levelo_inurba_marseille","lat":43.313571,"lon":5.384829,"is_reserved":false,"is_disabled":false,"rental_uris":{"android":"levelo://app?vid=f54d6faf-0cab-4a89-897b-e37ad545bdcc","ios":"levelo://app?vid=f54d6faf-0cab-4a89-897b-e37ad545bdcc"},"vehicle_type_id":"4","last_reported":1710371235,"current_range_meters":25200,"station_id":"ce4bgt92rcd13ifvqcf0","pricing_plan_id":"cebpf4jnsgd1na2vs0mg"},{"bike_id":"4cd21ec1-056a-4bfd-b74c-725657376309","system_id":"levelo_inurba_marseille","lat":43.313571,"lon":5.384829,"is_reserved":false,"is_disabled":false,"rental_uris":{"android":"levelo://app?vid=4cd21ec1-056a-4bfd-b74c-725657376309","ios":"levelo://app?vid=4cd21ec1-056a-4bfd-b74c-725657376309"},"vehicle_type_id":"4","last_reported":1710371235,"current_range_meters":15600,"station_id":"ce4bgt92rcd13ifvqcf0","pricing_plan_id":"cebpf4jnsgd1na2vs0mg"},{"bike_id":"0cc7f82b-cd93-49be-85cb-bc937cb794c6","system_id":"levelo_inurba_marseille","lat":43.313571,"lon":5.384829,"is_reserved":false,"is_disabled":false,"rental_uris":{"android":"levelo://app?vid=0cc7f82b-cd93-49be-85cb-bc937cb794c6","ios":"levelo://app?vid=0cc7f82b-cd93-49be-85cb-bc937cb794c6"},"vehicle_type_id":"4","last_reported":1710371235,"current_range_meters":7200,"station_id":"ce4bgt92rcd13ifvqcf0","pricing_plan_id":"cebpf4jnsgd1na2vs0mg"},{"bike_id":"35063592-e345-428b-9315-f128cf9d0c79","system_id":"levelo_inurba_marseille","lat":43.313571,"lon":5.384829,"is_reserved":false,"is_disabled":false,"rental_uris":{"android":"levelo://app?vid=35063592-e345-428b-9315-f128cf9d0c79","ios":"levelo://app?vid=35063592-e345-428b-9315-f128cf9d0c79"},"vehicle_type_id":"4","last_reported":1710371235,"current_range_meters":22400,"station_id":"ce4bgt92rcd13ifvqcf0","pricing_plan_id":"cebpf4jnsgd1na2vs0mg"},{"bike_id":"c2ab800b-d9b4-47a3-a3a8-977b1899813d","system_id":"levelo_inurba_marseille","lat":43.313571,"lon":5.384829,"is_reserved":false,"is_disabled":false,"rental_uris":{"android":"levelo://app?vid=c2ab800b-d9b4-47a3-a3a8-977b1899813d","ios":"levelo://app?vid=c2ab800b-d9b4-47a3-a3a8-977b1899813d"},"vehicle_type_id":"4","last_reported":1710371235,"current_range_meters":12000,"station_id":"ce4bgt92rcd13ifvqcf0","pricing_plan_id":"cebpf4jnsgd1na2vs0mg"},{"bike_id":"e386b3d9-7fa4-472e-b002-72b85c92c409","system_id":"levelo_inurba_marseille","lat":43.313571,"lon":5.384829,"is_reserved":false,"is_disabled":false,"rental_uris":{"android":"levelo://app?vid=e386b3d9-7fa4-472e-b002-72b85c92c409","ios":"levelo://app?vid=e386b3d9-7fa4-472e-b002-72b85c92c409"},"vehicle_type_id":"4","last_reported":1710371235,"current_range_meters":24000,"station_id":"ce4bgt92rcd13ifvqcf0","pricing_plan_id":"cebpf4jnsgd1na2vs0mg"},{"bike_id":"f13569ab-ed18-4b09-887c-f9ccd120fb0d","system_id":"levelo_inurba_marseille","lat":43.313571,"lon":5.384829,"is_reserved":false,"is_disabled":false,"rental_uris":{"android":"levelo://app?vid=f13569ab-ed18-4b09-887c-f9ccd120fb0d","ios":"levelo://app?vid=f13569ab-ed18-4b09-887c-f9ccd120fb0d"},"vehicle_type_id":"4","last_reported":1710371235,"current_range_meters":0,"station_id":"ce4bgt92rcd13ifvqcf0","pricing_plan_id":"cebpf4jnsgd1na2vs0mg"},{"bike_id":"d599bc67-653d-493a-863d-16905d6a4351","system_id":"levelo_inurba_marseille","lat":43.313571,"lon":5.384829,"is_reserved":false,"is_disabled":false,"rental_uris":{"android":"levelo://app?vid=d599bc67-653d-493a-863d-16905d6a4351","ios":"levelo://app?vid=d599bc67-653d-493a-863d-16905d6a4351"},"vehicle_type_id":"4","last_reported":1710371235,"current_range_meters":16400,"station_id":"ce4bgt92rcd13ifvqcf0","pricing_plan_id":"cebpf4jnsgd1na2vs0mg"},{"bike_id":"93a5e2c0-aae5-4b5a-83a0-d2f7cd60918f","system_id":"levelo_inurba_marseille","lat":43.299222,"lon":5.365554,"is_reserved":false,"is_disabled":false,"rental_uris":{"android":"levelo://app?vid=93a5e2c0-aae5-4b5a-83a0-d2f7cd60918f","ios":"levelo://app?vid=93a5e2c0-aae5-4b5a-83a0-d2f7cd60918f"},"vehicle_type_id":"4","last_reported":1710371235,"current_range_meters":11200,"station_id":"ce4bgm92rcd13ifvqbr0","pricing_plan_id":"cebpf4jnsgd1na2vs0mg"},{"bike_id":"2c56851f-62bf-4949-ade8-f3d51e124a44","system_id":"levelo_inurba_marseille","lat":43.299222,"lon":5.365554,"is_reserved":false,"is_disabled":false,"rental_uris":{"android":"levelo://app?vid=2c56851f-62bf-4949-ade8-f3d51e124a44","ios":"levelo://app?vid=2c56851f-62bf-4949-ade8-f3d51e124a44"},"vehicle_type_id":"4","last_reported":1710371235,"current_range_meters":31200,"station_id":"ce4bgm92rcd13ifvqbr0","pricing_plan_id":"cebpf4jnsgd1na2vs0mg"},{"bike_id":"6dcb7457-dba9-41a6-a3dd-43a867da7528","system_id":"levelo_inurba_marseille","lat":43.299724,"lon":5.371829,"is_reserved":false,"is_disabled":false,"rental_uris":{"android":"levelo://app?vid=6dcb7457-dba9-41a6-a3dd-43a867da7528","ios":"levelo://app?vid=6dcb7457-dba9-41a6-a3dd-43a867da7528"},"vehicle_type_id":"4","last_reported":1710371235,"current_range_meters":25600,"station_id":"ce4bgr92rcd13ifvqc7g","pricing_plan_id":"cebpf4jnsgd1na2vs0mg"},{"bike_id":"727266ee-550f-403a-a82e-5f3a8cc9ef94","system_id":"levelo_inurba_marseille","lat":43.309369,"lon":5.385131,"is_reserved":false,"is_disabled":false,"rental_uris":{"android":"levelo://app?vid=727266ee-550f-403a-a82e-5f3a8cc9ef94","ios":"levelo://app?vid=727266ee-550f-403a-a82e-5f3a8cc9ef94"},"vehicle_type_id":"4","last_reported":1710371235,"current_range_meters":5200,"station_id":"","pricing_plan_id":"cebpf4jnsgd1na2vs0mg"},{"bike_id":"02e36adc-264a-44cf-b731-c3f62c2d7a92","system_id":"levelo_inurba_marseille","lat":43.311565,"lon":5.386824,"is_reserved":false,"is_disabled":false,"rental_uris":{"android":"levelo://app?vid=02e36adc-264a-44cf-b731-c3f62c2d7a92","ios":"levelo://app?vid=02e36adc-264a-44cf-b731-c3f62c2d7a92"},"vehicle_type_id":"4","last_reported":1710371235,"current_range_meters":10000,"station_id":"","pricing_plan_id":"cebpf4jnsgd1na2vs0mg"},{"bike_id":"0bc4e4f0-a004-49f6-9112-622f8af05e5f","system_id":"levelo_inurba_marseille","lat":43.305364,"lon":5.384119,"is_reserved":false,"is_disabled":false,"rental_uris":{"android":"levelo://app?vid=0bc4e4f0-a004-49f6-9112-622f8af05e5f","ios":"levelo://app?vid=0bc4e4f0-a004-49f6-9112-622f8af05e5f"},"vehicle_type_id":"4","last_reported":1710371235,"current_range_meters":28800,"station_id":"ce4bgg92rcd13ifvqb30","pricing_plan_id":"cebpf4jnsgd1na2vs0mg"},{"bike_id":"35fc9dfd-c335-4d17-bb47-a927f4ad11a1","system_id":"levelo_inurba_marseille","lat":43.298433,"lon":5.362774,"is_reserved":false,"is_disabled":false,"rental_uris":{"android":"levelo://app?vid=35fc9dfd-c335-4d17-bb47-a927f4ad11a1","ios":"levelo://app?vid=35fc9dfd-c335-4d17-bb47-a927f4ad11a1"},"vehicle_type_id":"4","last_reported":1710371235,"current_range_meters":24800,"station_id":"ce4bgpp2rcd13ifvqc3g","pricing_plan_id":"cebpf4jnsgd1na2vs0mg"},{"bike_id":"9d0bcbae-2944-4ed4-bed3-5cff038c9f1b","system_id":"levelo_inurba_marseille","lat":43.305525,"lon":5.384325,"is_reserved":false,"is_disabled":false,"rental_uris":{"android":"levelo://app?vid=9d0bcbae-2944-4ed4-bed3-5cff038c9f1b","ios":"levelo://app?vid=9d0bcbae-2944-4ed4-bed3-5cff038c9f1b"},"vehicle_type_id":"4","last_reported":1710371235,"current_range_meters":21200,"station_id":"ce4bgg92rcd13ifvqb30","pricing_plan_id":"cebpf4jnsgd1na2vs0mg"},{"bike_id":"8a83da41-3cfd-4396-bf0d-a4a217cf5d98","system_id":"levelo_inurba_marseille","lat":43.32626,"lon":5.374738,"is_reserved":false,"is_disabled":false,"rental_uris":{"android":"levelo://app?vid=8a83da41-3cfd-4396-bf0d-a4a217cf5d98","ios":"levelo://app?vid=8a83da41-3cfd-4396-bf0d-a4a217cf5d98"},"vehicle_type_id":"4","last_reported":1710371235,"current_range_meters":22400,"station_id":"","pricing_plan_id":"cebpf4jnsgd1na2vs0mg"},{"bike_id":"cc8c6342-fbb8-4511-9ac2-cd3005119f46","system_id":"levelo_inurba_marseille","lat":43.311722,"lon":5.387247,"is_reserved":false,"is_disabled":false,"rental_uris":{"android":"levelo://app?vid=cc8c6342-fbb8-4511-9ac2-cd3005119f46","ios":"levelo://app?vid=cc8c6342-fbb8-4511-9ac2-cd3005119f46"},"vehicle_type_id":"4","last_reported":1710371235,"current_range_meters":22800,"station_id":"ce4bgv12rcd13ifvqcp0","pricing_plan_id":"cebpf4jnsgd1na2vs0mg"},{"bike_id":"358903c3-e599-49f7-a57b-01d33b3690c3","system_id":"levelo_inurba_marseille","lat":43.299243,"lon":5.37481,"is_reserved":false,"is_disabled":false,"rental_uris":{"android":"levelo://app?vid=358903c3-e599-49f7-a57b-01d33b3690c3","ios":"levelo://app?vid=358903c3-e599-49f7-a57b-01d33b3690c3"},"vehicle_type_id":"4","last_reported":1710371235,"current_range_meters":10800,"station_id":"ce4bgjh2rcd13ifvqbg0","pricing_plan_id":"cebpf4jnsgd1na2vs0mg"},{"bike_id":"1ad1ae7d-df80-4a75-8328-b9fb986c9167","system_id":"levelo_inurba_marseille","lat":43.311722,"lon":5.387247,"is_reserved":false,"is_disabled":false,"rental_uris":{"android":"levelo://app?vid=1ad1ae7d-df80-4a75-8328-b9fb986c9167","ios":"levelo://app?vid=1ad1ae7d-df80-4a75-8328-b9fb986c9167"},"vehicle_type_id":"4","last_reported":1710371235,"current_range_meters":19600,"station_id":"ce4bgv12rcd13ifvqcp0","pricing_plan_id":"cebpf4jnsgd1na2vs0mg"},{"bike_id":"67ae9644-45bb-41df-9867-bb7b9c7f01a4","system_id":"levelo_inurba_marseille","lat":43.311722,"lon":5.387247,"is_reserved":false,"is_disabled":false,"rental_uris":{"android":"levelo://app?vid=67ae9644-45bb-41df-9867-bb7b9c7f01a4","ios":"levelo://app?vid=67ae9644-45bb-41df-9867-bb7b9c7f01a4"},"vehicle_type_id":"4","last_reported":1710371235,"current_range_meters":19600,"station_id":"ce4bgv12rcd13ifvqcp0","pricing_plan_id":"cebpf4jnsgd1na2vs0mg"},{"bike_id":"88f80038-8f56-46b6-8152-e415eb907012","system_id":"levelo_inurba_marseille","lat":43.311722,"lon":5.387247,"is_reserved":false,"is_disabled":false,"rental_uris":{"android":"levelo://app?vid=88f80038-8f56-46b6-8152-e415eb907012","ios":"levelo://app?vid=88f80038-8f56-46b6-8152-e415eb907012"},"vehicle_type_id":"4","last_reported":1710371235,"current_range_meters":6800,"station_id":"ce4bgv12rcd13ifvqcp0","pricing_plan_id":"cebpf4jnsgd1na2vs0mg"},{"bike_id":"911e9d8d-7d28-48a4-946b-5cf6f9c36b5c","system_id":"levelo_inurba_marseille","lat":43.311722,"lon":5.387247,"is_reserved":false,"is_disabled":false,"rental_uris":{"android":"levelo://app?vid=911e9d8d-7d28-48a4-946b-5cf6f9c36b5c","ios":"levelo://app?vid=911e9d8d-7d28-48a4-946b-5cf6f9c36b5c"},"vehicle_type_id":"4","last_reported":1710371235,"current_range_meters":25200,"station_id":"ce4bgv12rcd13ifvqcp0","pricing_plan_id":"cebpf4jnsgd1na2vs0mg"},{"bike_id":"ecf8ca87-9851-462d-8d46-0ceb003b44bc","system_id":"levelo_inurba_marseille","lat":43.297774,"lon":5.370875,"is_reserved":false,"is_disabled":false,"rental_uris":{"android":"levelo://app?vid=ecf8ca87-9851-462d-8d46-0ceb003b44bc","ios":"levelo://app?vid=ecf8ca87-9851-462d-8d46-0ceb003b44bc"},"vehicle_type_id":"4","last_reported":1710371235,"current_range_meters":4000,"station_id":"ce4bgop2rcd13ifvqc1g","pricing_plan_id":"cebpf4jnsgd1na2vs0mg"},{"bike_id":"e17f286e-276a-477a-ad66-3e999f055e4c","system_id":"levelo_inurba_marseille","lat":43.322854,"lon":5.382624,"is_reserved":false,"is_disabled":false,"rental_uris":{"android":"levelo://app?vid=e17f286e-276a-477a-ad66-3e999f055e4c","ios":"levelo://app?vid=e17f286e-276a-477a-ad66-3e999f055e4c"},"vehicle_type_id":"4","last_reported":1710371235,"current_range_meters":26400,"station_id":"ce4bhr12rcd13ifvqhqg","pricing_plan_id":"cebpf4jnsgd1na2vs0mg"},{"bike_id":"f2491452-d17d-4fd1-b87c-31e465894cd3","system_id":"levelo_inurba_marseille","lat":43.322885,"lon":5.382631,"is_reserved":false,"is_disabled":false,"rental_uris":{"android":"levelo://app?vid=f2491452-d17d-4fd1-b87c-31e465894cd3","ios":"levelo://app?vid=f2491452-d17d-4fd1-b87c-31e465894cd3"},"vehicle_type_id":"4","last_reported":1710371235,"current_range_meters":10000,"station_id":"ce4bhr12rcd13ifvqhqg","pricing_plan_id":"cebpf4jnsgd1na2vs0mg"},{"bike_id":"a1ea46c0-4921-4767-a801-a177044432f3","system_id":"levelo_inurba_marseille","lat":43.322872,"lon":5.382756,"is_reserved":false,"is_disabled":false,"rental_uris":{"android":"levelo://app?vid=a1ea46c0-4921-4767-a801-a177044432f3","ios":"levelo://app?vid=a1ea46c0-4921-4767-a801-a177044432f3"},"vehicle_type_id":"4","last_reported":1710371235,"current_range_meters":31200,"station_id":"ce4bhr12rcd13ifvqhqg","pricing_plan_id":"cebpf4jnsgd1na2vs0mg"},{"bike_id":"3ff125a5-dff1-4591-b6cc-449dc2424878","system_id":"levelo_inurba_marseille","lat":43.322872,"lon":5.382756,"is_reserved":false,"is_disabled":false,"rental_uris":{"android":"levelo://app?vid=3ff125a5-dff1-4591-b6cc-449dc2424878","ios":"levelo://app?vid=3ff125a5-dff1-4591-b6cc-449dc2424878"},"vehicle_type_id":"4","last_reported":1710371235,"current_range_meters":22400,"station_id":"ce4bhr12rcd13ifvqhqg","pricing_plan_id":"cebpf4jnsgd1na2vs0mg"},{"bike_id":"a35ba342-3af1-4fdc-93df-2881068849a9","system_id":"levelo_inurba_marseille","lat":43.322888,"lon":5.382649,"is_reserved":false,"is_disabled":false,"rental_uris":{"android":"levelo://app?vid=a35ba342-3af1-4fdc-93df-2881068849a9","ios":"levelo://app?vid=a35ba342-3af1-4fdc-93df-2881068849a9"},"vehicle_type_id":"4","last_reported":1710371235,"current_range_meters":12400,"station_id":"ce4bhr12rcd13ifvqhqg","pricing_plan_id":"cebpf4jnsgd1na2vs0mg"},{"bike_id":"eaf5350b-08e3-4231-8a58-3cf3fba26ee0","system_id":"levelo_inurba_marseille","lat":43.32286,"lon":5.38269,"is_reserved":false,"is_disabled":false,"rental_uris":{"android":"levelo://app?vid=eaf5350b-08e3-4231-8a58-3cf3fba26ee0","ios":"levelo://app?vid=eaf5350b-08e3-4231-8a58-3cf3fba26ee0"},"vehicle_type_id":"4","last_reported":1710371235,"current_range_meters":27600,"station_id":"ce4bhr12rcd13ifvqhqg","pricing_plan_id":"cebpf4jnsgd1na2vs0mg"},{"bike_id":"36727d06-0af4-4c64-88de-4193d3d2494b","system_id":"levelo_inurba_marseille","lat":43.322872,"lon":5.382756,"is_reserved":false,"is_disabled":false,"rental_uris":{"android":"levelo://app?vid=36727d06-0af4-4c64-88de-4193d3d2494b","ios":"levelo://app?vid=36727d06-0af4-4c64-88de-4193d3d2494b"},"vehicle_type_id":"4","last_reported":1710371235,"current_range_meters":20000,"station_id":"ce4bhr12rcd13ifvqhqg","pricing_plan_id":"cebpf4jnsgd1na2vs0mg"},{"bike_id":"f39275f7-9222-4b62-9352-e6cd6637031a","system_id":"levelo_inurba_marseille","lat":43.322872,"lon":5.382756,"is_reserved":false,"is_disabled":false,"rental_uris":{"android":"levelo://app?vid=f39275f7-9222-4b62-9352-e6cd6637031a","ios":"levelo://app?vid=f39275f7-9222-4b62-9352-e6cd6637031a"},"vehicle_type_id":"4","last_reported":1710371235,"current_range_meters":11600,"station_id":"ce4bhr12rcd13ifvqhqg","pricing_plan_id":"cebpf4jnsgd1na2vs0mg"},{"bike_id":"7d711117-8f24-4ca5-af35-2d207110a750","system_id":"levelo_inurba_marseille","lat":43.322872,"lon":5.382756,"is_reserved":false,"is_disabled":false,"rental_uris":{"android":"levelo://app?vid=7d711117-8f24-4ca5-af35-2d207110a750","ios":"levelo://app?vid=7d711117-8f24-4ca5-af35-2d207110a750"},"vehicle_type_id":"4","last_reported":1710371235,"current_range_meters":31200,"station_id":"ce4bhr12rcd13ifvqhqg","pricing_plan_id":"cebpf4jnsgd1na2vs0mg"},{"bike_id":"026c7ff0-2158-432c-a208-7b1b8a8d6e19","system_id":"levelo_inurba_marseille","lat":43.322872,"lon":5.382756,"is_reserved":false,"is_disabled":false,"rental_uris":{"android":"levelo://app?vid=026c7ff0-2158-432c-a208-7b1b8a8d6e19","ios":"levelo://app?vid=026c7ff0-2158-432c-a208-7b1b8a8d6e19"},"vehicle_type_id":"4","last_reported":1710371235,"current_range_meters":19200,"station_id":"ce4bhr12rcd13ifvqhqg","pricing_plan_id":"cebpf4jnsgd1na2vs0mg"},{"bike_id":"3abca3f8-73a4-4a83-9f7a-e9df11291bf3","system_id":"levelo_inurba_marseille","lat":43.322872,"lon":5.382756,"is_reserved":false,"is_disabled":false,"rental_uris":{"android":"levelo://app?vid=3abca3f8-73a4-4a83-9f7a-e9df11291bf3","ios":"levelo://app?vid=3abca3f8-73a4-4a83-9f7a-e9df11291bf3"},"vehicle_type_id":"4","last_reported":1710371235,"current_range_meters":30400,"station_id":"ce4bhr12rcd13ifvqhqg","pricing_plan_id":"cebpf4jnsgd1na2vs0mg"},{"bike_id":"e2f24066-a9da-4ac3-9953-f3c0e9a735d9","system_id":"levelo_inurba_marseille","lat":43.32287,"lon":5.38277,"is_reserved":false,"is_disabled":false,"rental_uris":{"android":"levelo://app?vid=e2f24066-a9da-4ac3-9953-f3c0e9a735d9","ios":"levelo://app?vid=e2f24066-a9da-4ac3-9953-f3c0e9a735d9"},"vehicle_type_id":"4","last_reported":1710371235,"current_range_meters":8800,"station_id":"ce4bhr12rcd13ifvqhqg","pricing_plan_id":"cebpf4jnsgd1na2vs0mg"},{"bike_id":"8b2106ec-4a39-40e1-bd23-15e50aa9c048","system_id":"levelo_inurba_marseille","lat":43.297774,"lon":5.370875,"is_reserved":false,"is_disabled":false,"rental_uris":{"android":"levelo://app?vid=8b2106ec-4a39-40e1-bd23-15e50aa9c048","ios":"levelo://app?vid=8b2106ec-4a39-40e1-bd23-15e50aa9c048"},"vehicle_type_id":"4","last_reported":1710371235,"current_range_meters":5600,"station_id":"ce4bgop2rcd13ifvqc1g","pricing_plan_id":"cebpf4jnsgd1na2vs0mg"},{"bike_id":"9d0d2793-67b4-4e0d-9337-f818dc6311ea","system_id":"levelo_inurba_marseille","lat":43.322872,"lon":5.382756,"is_reserved":false,"is_disabled":false,"rental_uris":{"android":"levelo://app?vid=9d0d2793-67b4-4e0d-9337-f818dc6311ea","ios":"levelo://app?vid=9d0d2793-67b4-4e0d-9337-f818dc6311ea"},"vehicle_type_id":"4","last_reported":1710371235,"current_range_meters":18000,"station_id":"ce4bhr12rcd13ifvqhqg","pricing_plan_id":"cebpf4jnsgd1na2vs0mg"},{"bike_id":"f548446b-7df9-499c-a458-49720886bca1","system_id":"levelo_inurba_marseille","lat":43.322872,"lon":5.382756,"is_reserved":false,"is_disabled":false,"rental_uris":{"android":"levelo://app?vid=f548446b-7df9-499c-a458-49720886bca1","ios":"levelo://app?vid=f548446b-7df9-499c-a458-49720886bca1"},"vehicle_type_id":"4","last_reported":1710371235,"current_range_meters":0,"station_id":"ce4bhr12rcd13ifvqhqg","pricing_plan_id":"cebpf4jnsgd1na2vs0mg"},{"bike_id":"0c37f396-eced-4814-ac35-183332b90b1a","system_id":"levelo_inurba_marseille","lat":43.297163,"lon":5.365866,"is_reserved":false,"is_disabled":false,"rental_uris":{"android":"levelo://app?vid=0c37f396-eced-4814-ac35-183332b90b1a","ios":"levelo://app?vid=0c37f396-eced-4814-ac35-183332b90b1a"},"vehicle_type_id":"4","last_reported":1710371235,"current_range_meters":21600,"station_id":"ce4bgn12rcd13ifvqbt0","pricing_plan_id":"cebpf4jnsgd1na2vs0mg"},{"bike_id":"118afa9f-7f73-417a-8201-d7b53eb7763e","system_id":"levelo_inurba_marseille","lat":43.297163,"lon":5.365866,"is_reserved":false,"is_disabled":false,"rental_uris":{"android":"levelo://app?vid=118afa9f-7f73-417a-8201-d7b53eb7763e","ios":"levelo://app?vid=118afa9f-7f73-417a-8201-d7b53eb7763e"},"vehicle_type_id":"4","last_reported":1710371235,"current_range_meters":29600,"station_id":"ce4bgn12rcd13ifvqbt0","pricing_plan_id":"cebpf4jnsgd1na2vs0mg"},{"bike_id":"46b5a817-10d8-4707-8df2-c0ad2d864d49","system_id":"levelo_inurba_marseille","lat":43.297163,"lon":5.365866,"is_reserved":false,"is_disabled":false,"rental_uris":{"android":"levelo://app?vid=46b5a817-10d8-4707-8df2-c0ad2d864d49","ios":"levelo://app?vid=46b5a817-10d8-4707-8df2-c0ad2d864d49"},"vehicle_type_id":"4","last_reported":1710371235,"current_range_meters":27600,"station_id":"ce4bgn12rcd13ifvqbt0","pricing_plan_id":"cebpf4jnsgd1na2vs0mg"},{"bike_id":"f05053c0-9d6f-4a53-975f-d556b70cc351","system_id":"levelo_inurba_marseille","lat":43.2968,"lon":5.37291,"is_reserved":false,"is_disabled":false,"rental_uris":{"android":"levelo://app?vid=f05053c0-9d6f-4a53-975f-d556b70cc351","ios":"levelo://app?vid=f05053c0-9d6f-4a53-975f-d556b70cc351"},"vehicle_type_id":"4","last_reported":1710371235,"current_range_meters":28000,"station_id":"ce4bgk12rcd13ifvqbj0","pricing_plan_id":"cebpf4jnsgd1na2vs0mg"},{"bike_id":"759e9f9e-bc66-4572-a997-24f4c2d0cffd","system_id":"levelo_inurba_marseille","lat":43.2968,"lon":5.37291,"is_reserved":false,"is_disabled":false,"rental_uris":{"android":"levelo://app?vid=759e9f9e-bc66-4572-a997-24f4c2d0cffd","ios":"levelo://app?vid=759e9f9e-bc66-4572-a997-24f4c2d0cffd"},"vehicle_type_id":"4","last_reported":1710371235,"current_range_meters":24800,"station_id":"ce4bgk12rcd13ifvqbj0","pricing_plan_id":"cebpf4jnsgd1na2vs0mg"},{"bike_id":"081467b8-37fa-45d5-9c5c-1681738b1d20","system_id":"levelo_inurba_marseille","lat":43.296131,"lon":5.370791,"is_reserved":false,"is_disabled":false,"rental_uris":{"android":"levelo://app?vid=081467b8-37fa-45d5-9c5c-1681738b1d20","ios":"levelo://app?vid=081467b8-37fa-45d5-9c5c-1681738b1d20"},"vehicle_type_id":"4","last_reported":1710371235,"current_range_meters":29600,"station_id":"ce4bgnh2rcd13ifvqc0g","pricing_plan_id":"cebpf4jnsgd1na2vs0mg"},{"bike_id":"7410243c-5f02-4202-98d8-ba31e519eec6","system_id":"levelo_inurba_marseille","lat":43.29573,"lon":5.367355,"is_reserved":false,"is_disabled":false,"rental_uris":{"android":"levelo://app?vid=7410243c-5f02-4202-98d8-ba31e519eec6","ios":"levelo://app?vid=7410243c-5f02-4202-98d8-ba31e519eec6"},"vehicle_type_id":"4","last_reported":1710371235,"current_range_meters":30000,"station_id":"ce4bgph2rcd13ifvqc2g","pricing_plan_id":"cebpf4jnsgd1na2vs0mg"},{"bike_id":"783b2650-975a-4015-8183-134ec1b434af","system_id":"levelo_inurba_marseille","lat":43.29573,"lon":5.367355,"is_reserved":false,"is_disabled":false,"rental_uris":{"android":"levelo://app?vid=783b2650-975a-4015-8183-134ec1b434af","ios":"levelo://app?vid=783b2650-975a-4015-8183-134ec1b434af"},"vehicle_type_id":"4","last_reported":1710371235,"current_range_meters":12000,"station_id":"ce4bgph2rcd13ifvqc2g","pricing_plan_id":"cebpf4jnsgd1na2vs0mg"},{"bike_id":"c905a2a5-56d3-47be-b68d-81f1c393e5de","system_id":"levelo_inurba_marseille","lat":43.309589,"lon":5.390258,"is_reserved":false,"is_disabled":false,"rental_uris":{"android":"levelo://app?vid=c905a2a5-56d3-47be-b68d-81f1c393e5de","ios":"levelo://app?vid=c905a2a5-56d3-47be-b68d-81f1c393e5de"},"vehicle_type_id":"4","last_reported":1710371235,"current_range_meters":7200,"station_id":"ce4bgup2rcd13ifvqco0","pricing_plan_id":"cebpf4jnsgd1na2vs0mg"},{"bike_id":"5ba60699-e65a-4375-a0a7-463d5186738c","system_id":"levelo_inurba_marseille","lat":43.290631,"lon":5.359244,"is_reserved":false,"is_disabled":false,"rental_uris":{"android":"levelo://app?vid=5ba60699-e65a-4375-a0a7-463d5186738c","ios":"levelo://app?vid=5ba60699-e65a-4375-a0a7-463d5186738c"},"vehicle_type_id":"4","last_reported":1710371235,"current_range_meters":6000,"station_id":"ce4bha92rcd13ifvqeg0","pricing_plan_id":"cebpf4jnsgd1na2vs0mg"},{"bike_id":"c853386d-332a-44e1-b8f3-c868b7c4a285","system_id":"levelo_inurba_marseille","lat":43.3175,"lon":5.39005,"is_reserved":false,"is_disabled":false,"rental_uris":{"android":"levelo://app?vid=c853386d-332a-44e1-b8f3-c868b7c4a285","ios":"levelo://app?vid=c853386d-332a-44e1-b8f3-c868b7c4a285"},"vehicle_type_id":"4","last_reported":1710371235,"current_range_meters":10800,"station_id":"ce4bhqp2rcd13ifvqhng","pricing_plan_id":"cebpf4jnsgd1na2vs0mg"},{"bike_id":"eaa04335-ce5f-4e82-9d4b-09e2bf70fc9e","system_id":"levelo_inurba_marseille","lat":43.31757,"lon":5.3901,"is_reserved":false,"is_disabled":false,"rental_uris":{"android":"levelo://app?vid=eaa04335-ce5f-4e82-9d4b-09e2bf70fc9e","ios":"levelo://app?vid=eaa04335-ce5f-4e82-9d4b-09e2bf70fc9e"},"vehicle_type_id":"4","last_reported":1710371235,"current_range_meters":5600,"station_id":"ce4bhqp2rcd13ifvqhng","pricing_plan_id":"cebpf4jnsgd1na2vs0mg"},{"bike_id":"400fc285-08c8-4b6b-a2e6-e4633d9bd4b4","system_id":"levelo_inurba_marseille","lat":43.31761,"lon":5.39011,"is_reserved":false,"is_disabled":false,"rental_uris":{"android":"levelo://app?vid=400fc285-08c8-4b6b-a2e6-e4633d9bd4b4","ios":"levelo://app?vid=400fc285-08c8-4b6b-a2e6-e4633d9bd4b4"},"vehicle_type_id":"4","last_reported":1710371235,"current_range_meters":1600,"station_id":"ce4bhqp2rcd13ifvqhng","pricing_plan_id":"cebpf4jnsgd1na2vs0mg"},{"bike_id":"77143e07-9a56-4df7-8659-5c80a8c15c48","system_id":"levelo_inurba_marseille","lat":43.31754,"lon":5.39015,"is_reserved":false,"is_disabled":false,"rental_uris":{"android":"levelo://app?vid=77143e07-9a56-4df7-8659-5c80a8c15c48","ios":"levelo://app?vid=77143e07-9a56-4df7-8659-5c80a8c15c48"},"vehicle_type_id":"4","last_reported":1710371235,"current_range_meters":2800,"station_id":"ce4bhqp2rcd13ifvqhng","pricing_plan_id":"cebpf4jnsgd1na2vs0mg"},{"bike_id":"1088c83b-edd1-487f-ba9c-9b4dd7f4efbe","system_id":"levelo_inurba_marseille","lat":43.31762,"lon":5.39014,"is_reserved":false,"is_disabled":false,"rental_uris":{"android":"levelo://app?vid=1088c83b-edd1-487f-ba9c-9b4dd7f4efbe","ios":"levelo://app?vid=1088c83b-edd1-487f-ba9c-9b4dd7f4efbe"},"vehicle_type_id":"4","last_reported":1710371235,"current_range_meters":31200,"station_id":"ce4bhqp2rcd13ifvqhng","pricing_plan_id":"cebpf4jnsgd1na2vs0mg"},{"bike_id":"cd364902-762b-4c3e-844f-575971d38c11","system_id":"levelo_inurba_marseille","lat":43.317633,"lon":5.390143,"is_reserved":false,"is_disabled":false,"rental_uris":{"android":"levelo://app?vid=cd364902-762b-4c3e-844f-575971d38c11","ios":"levelo://app?vid=cd364902-762b-4c3e-844f-575971d38c11"},"vehicle_type_id":"4","last_reported":1710371235,"current_range_meters":14800,"station_id":"ce4bhqp2rcd13ifvqhng","pricing_plan_id":"cebpf4jnsgd1na2vs0mg"},{"bike_id":"a7e9409e-d196-40a9-8913-2226e2a94e30","system_id":"levelo_inurba_marseille","lat":43.3176,"lon":5.39016,"is_reserved":false,"is_disabled":false,"rental_uris":{"android":"levelo://app?vid=a7e9409e-d196-40a9-8913-2226e2a94e30","ios":"levelo://app?vid=a7e9409e-d196-40a9-8913-2226e2a94e30"},"vehicle_type_id":"4","last_reported":1710371235,"current_range_meters":30400,"station_id":"ce4bhqp2rcd13ifvqhng","pricing_plan_id":"cebpf4jnsgd1na2vs0mg"},{"bike_id":"e7635339-4a3c-42a4-a346-f89d0509c084","system_id":"levelo_inurba_marseille","lat":43.317557,"lon":5.390173,"is_reserved":false,"is_disabled":false,"rental_uris":{"android":"levelo://app?vid=e7635339-4a3c-42a4-a346-f89d0509c084","ios":"levelo://app?vid=e7635339-4a3c-42a4-a346-f89d0509c084"},"vehicle_type_id":"4","last_reported":1710371235,"current_range_meters":26800,"station_id":"ce4bhqp2rcd13ifvqhng","pricing_plan_id":"cebpf4jnsgd1na2vs0mg"},{"bike_id":"ba3a545d-9fec-4e88-b08a-c63ce08c8c4a","system_id":"levelo_inurba_marseille","lat":43.317557,"lon":5.390173,"is_reserved":false,"is_disabled":false,"rental_uris":{"android":"levelo://app?vid=ba3a545d-9fec-4e88-b08a-c63ce08c8c4a","ios":"levelo://app?vid=ba3a545d-9fec-4e88-b08a-c63ce08c8c4a"},"vehicle_type_id":"4","last_reported":1710371235,"current_range_meters":24400,"station_id":"ce4bhqp2rcd13ifvqhng","pricing_plan_id":"cebpf4jnsgd1na2vs0mg"},{"bike_id":"f63c0e12-1219-43b7-8ae3-7050aa802158","system_id":"levelo_inurba_marseille","lat":43.317605,"lon":5.390183,"is_reserved":false,"is_disabled":false,"rental_uris":{"android":"levelo://app?vid=f63c0e12-1219-43b7-8ae3-7050aa802158","ios":"levelo://app?vid=f63c0e12-1219-43b7-8ae3-7050aa802158"},"vehicle_type_id":"4","last_reported":1710371235,"current_range_meters":21200,"station_id":"ce4bhqp2rcd13ifvqhng","pricing_plan_id":"cebpf4jnsgd1na2vs0mg"},{"bike_id":"ce5155a1-f569-4097-982c-1231a70fa71c","system_id":"levelo_inurba_marseille","lat":43.31756,"lon":5.39021,"is_reserved":false,"is_disabled":false,"rental_uris":{"android":"levelo://app?vid=ce5155a1-f569-4097-982c-1231a70fa71c","ios":"levelo://app?vid=ce5155a1-f569-4097-982c-1231a70fa71c"},"vehicle_type_id":"4","last_reported":1710371235,"current_range_meters":10400,"station_id":"ce4bhqp2rcd13ifvqhng","pricing_plan_id":"cebpf4jnsgd1na2vs0mg"},{"bike_id":"593c98a4-480b-419b-ae38-a13bb27cf2af","system_id":"levelo_inurba_marseille","lat":43.31756,"lon":5.39021,"is_reserved":false,"is_disabled":false,"rental_uris":{"android":"levelo://app?vid=593c98a4-480b-419b-ae38-a13bb27cf2af","ios":"levelo://app?vid=593c98a4-480b-419b-ae38-a13bb27cf2af"},"vehicle_type_id":"4","last_reported":1710371235,"current_range_meters":1200,"station_id":"ce4bhqp2rcd13ifvqhng","pricing_plan_id":"cebpf4jnsgd1na2vs0mg"},{"bike_id":"15e2991d-aea9-4dea-887a-fc4583d6a5ca","system_id":"levelo_inurba_marseille","lat":43.317557,"lon":5.390173,"is_reserved":false,"is_disabled":false,"rental_uris":{"android":"levelo://app?vid=15e2991d-aea9-4dea-887a-fc4583d6a5ca","ios":"levelo://app?vid=15e2991d-aea9-4dea-887a-fc4583d6a5ca"},"vehicle_type_id":"4","last_reported":1710371235,"current_range_meters":31200,"station_id":"ce4bhqp2rcd13ifvqhng","pricing_plan_id":"cebpf4jnsgd1na2vs0mg"},{"bike_id":"b9d36ca4-dede-476c-8a29-fa5341ade855","system_id":"levelo_inurba_marseille","lat":43.304274,"lon":5.388873,"is_reserved":false,"is_disabled":false,"rental_uris":{"android":"levelo://app?vid=b9d36ca4-dede-476c-8a29-fa5341ade855","ios":"levelo://app?vid=b9d36ca4-dede-476c-8a29-fa5341ade855"},"vehicle_type_id":"4","last_reported":1710371235,"current_range_meters":26400,"station_id":"ce4bgk12rcd13ifvqbi0","pricing_plan_id":"cebpf4jnsgd1na2vs0mg"},{"bike_id":"d268ef86-6247-4466-ac1b-d62848a69a80","system_id":"levelo_inurba_marseille","lat":43.304383,"lon":5.388842,"is_reserved":false,"is_disabled":false,"rental_uris":{"android":"levelo://app?vid=d268ef86-6247-4466-ac1b-d62848a69a80","ios":"levelo://app?vid=d268ef86-6247-4466-ac1b-d62848a69a80"},"vehicle_type_id":"4","last_reported":1710371235,"current_range_meters":14800,"station_id":"ce4bgk12rcd13ifvqbi0","pricing_plan_id":"cebpf4jnsgd1na2vs0mg"},{"bike_id":"fede9919-0872-4ad0-8e0c-0044f11af976","system_id":"levelo_inurba_marseille","lat":43.304383,"lon":5.388887,"is_reserved":false,"is_disabled":false,"rental_uris":{"android":"levelo://app?vid=fede9919-0872-4ad0-8e0c-0044f11af976","ios":"levelo://app?vid=fede9919-0872-4ad0-8e0c-0044f11af976"},"vehicle_type_id":"4","last_reported":1710371235,"current_range_meters":0,"station_id":"ce4bgk12rcd13ifvqbi0","pricing_plan_id":"cebpf4jnsgd1na2vs0mg"},{"bike_id":"caeb4c93-c7c9-4045-b722-289d58e53251","system_id":"levelo_inurba_marseille","lat":43.304394,"lon":5.388906,"is_reserved":false,"is_disabled":false,"rental_uris":{"android":"levelo://app?vid=caeb4c93-c7c9-4045-b722-289d58e53251","ios":"levelo://app?vid=caeb4c93-c7c9-4045-b722-289d58e53251"},"vehicle_type_id":"4","last_reported":1710371235,"current_range_meters":400,"station_id":"ce4bgk12rcd13ifvqbi0","pricing_plan_id":"cebpf4jnsgd1na2vs0mg"},{"bike_id":"621b5b81-8443-4363-b142-d5038dd6c10a","system_id":"levelo_inurba_marseille","lat":43.304353,"lon":5.388882,"is_reserved":false,"is_disabled":false,"rental_uris":{"android":"levelo://app?vid=621b5b81-8443-4363-b142-d5038dd6c10a","ios":"levelo://app?vid=621b5b81-8443-4363-b142-d5038dd6c10a"},"vehicle_type_id":"4","last_reported":1710371235,"current_range_meters":0,"station_id":"ce4bgk12rcd13ifvqbi0","pricing_plan_id":"cebpf4jnsgd1na2vs0mg"},{"bike_id":"f97bab1b-cce0-438d-b9f0-28e84efc067e","system_id":"levelo_inurba_marseille","lat":43.304379,"lon":5.388903,"is_reserved":false,"is_disabled":false,"rental_uris":{"android":"levelo://app?vid=f97bab1b-cce0-438d-b9f0-28e84efc067e","ios":"levelo://app?vid=f97bab1b-cce0-438d-b9f0-28e84efc067e"},"vehicle_type_id":"4","last_reported":1710371235,"current_range_meters":22000,"station_id":"ce4bgk12rcd13ifvqbi0","pricing_plan_id":"cebpf4jnsgd1na2vs0mg"},{"bike_id":"463d945f-a3ec-44db-8937-bb18505999da","system_id":"levelo_inurba_marseille","lat":43.304274,"lon":5.388873,"is_reserved":false,"is_disabled":false,"rental_uris":{"android":"levelo://app?vid=463d945f-a3ec-44db-8937-bb18505999da","ios":"levelo://app?vid=463d945f-a3ec-44db-8937-bb18505999da"},"vehicle_type_id":"4","last_reported":1710371235,"current_range_meters":26000,"station_id":"ce4bgk12rcd13ifvqbi0","pricing_plan_id":"cebpf4jnsgd1na2vs0mg"},{"bike_id":"3b67ec28-74dc-401b-ba5f-4afc74a2cd0e","system_id":"levelo_inurba_marseille","lat":43.30426,"lon":5.38894,"is_reserved":false,"is_disabled":false,"rental_uris":{"android":"levelo://app?vid=3b67ec28-74dc-401b-ba5f-4afc74a2cd0e","ios":"levelo://app?vid=3b67ec28-74dc-401b-ba5f-4afc74a2cd0e"},"vehicle_type_id":"4","last_reported":1710371235,"current_range_meters":19600,"station_id":"ce4bgk12rcd13ifvqbi0","pricing_plan_id":"cebpf4jnsgd1na2vs0mg"},{"bike_id":"53fb2f2a-d593-42a1-821e-4f5667869593","system_id":"levelo_inurba_marseille","lat":43.296263,"lon":5.377094,"is_reserved":false,"is_disabled":false,"rental_uris":{"android":"levelo://app?vid=53fb2f2a-d593-42a1-821e-4f5667869593","ios":"levelo://app?vid=53fb2f2a-d593-42a1-821e-4f5667869593"},"vehicle_type_id":"4","last_reported":1710371235,"current_range_meters":0,"station_id":"ce4bgi92rcd13ifvqb90","pricing_plan_id":"cebpf4jnsgd1na2vs0mg"},{"bike_id":"75a4f840-1f98-43dd-bb58-ca7df67baeff","system_id":"levelo_inurba_marseille","lat":43.299728,"lon":5.384765,"is_reserved":false,"is_disabled":false,"rental_uris":{"android":"levelo://app?vid=75a4f840-1f98-43dd-bb58-ca7df67baeff","ios":"levelo://app?vid=75a4f840-1f98-43dd-bb58-ca7df67baeff"},"vehicle_type_id":"4","last_reported":1710371235,"current_range_meters":2400,"station_id":"ce4bgj92rcd13ifvqbd0","pricing_plan_id":"cebpf4jnsgd1na2vs0mg"},{"bike_id":"c623da6a-a969-46b8-9bcb-c5ff99456ce6","system_id":"levelo_inurba_marseille","lat":43.32364,"lon":5.38842,"is_reserved":false,"is_disabled":false,"rental_uris":{"android":"levelo://app?vid=c623da6a-a969-46b8-9bcb-c5ff99456ce6","ios":"levelo://app?vid=c623da6a-a969-46b8-9bcb-c5ff99456ce6"},"vehicle_type_id":"4","last_reported":1710371235,"current_range_meters":16800,"station_id":"ce4bhqp2rcd13ifvqhog","pricing_plan_id":"cebpf4jnsgd1na2vs0mg"},{"bike_id":"a463f268-1ddc-41f8-8bd7-08961230cebe","system_id":"levelo_inurba_marseille","lat":43.32356,"lon":5.3888,"is_reserved":false,"is_disabled":false,"rental_uris":{"android":"levelo://app?vid=a463f268-1ddc-41f8-8bd7-08961230cebe","ios":"levelo://app?vid=a463f268-1ddc-41f8-8bd7-08961230cebe"},"vehicle_type_id":"4","last_reported":1710371235,"current_range_meters":15600,"station_id":"ce4bhqp2rcd13ifvqhog","pricing_plan_id":"cebpf4jnsgd1na2vs0mg"},{"bike_id":"88ba044c-644f-4dcf-a18d-2897cb72afb7","system_id":"levelo_inurba_marseille","lat":43.32368,"lon":5.38879,"is_reserved":false,"is_disabled":false,"rental_uris":{"android":"levelo://app?vid=88ba044c-644f-4dcf-a18d-2897cb72afb7","ios":"levelo://app?vid=88ba044c-644f-4dcf-a18d-2897cb72afb7"},"vehicle_type_id":"4","last_reported":1710371235,"current_range_meters":6000,"station_id":"ce4bhqp2rcd13ifvqhog","pricing_plan_id":"cebpf4jnsgd1na2vs0mg"},{"bike_id":"cc81d865-bd9e-47ea-9dba-ee06420c17c4","system_id":"levelo_inurba_marseille","lat":43.323661,"lon":5.388818,"is_reserved":false,"is_disabled":false,"rental_uris":{"android":"levelo://app?vid=cc81d865-bd9e-47ea-9dba-ee06420c17c4","ios":"levelo://app?vid=cc81d865-bd9e-47ea-9dba-ee06420c17c4"},"vehicle_type_id":"4","last_reported":1710371235,"current_range_meters":8400,"station_id":"ce4bhqp2rcd13ifvqhog","pricing_plan_id":"cebpf4jnsgd1na2vs0mg"},{"bike_id":"a2dba51a-b2d7-4c36-b5ce-152632c4dfd5","system_id":"levelo_inurba_marseille","lat":43.32367,"lon":5.388836,"is_reserved":false,"is_disabled":false,"rental_uris":{"android":"levelo://app?vid=a2dba51a-b2d7-4c36-b5ce-152632c4dfd5","ios":"levelo://app?vid=a2dba51a-b2d7-4c36-b5ce-152632c4dfd5"},"vehicle_type_id":"4","last_reported":1710371235,"current_range_meters":18000,"station_id":"ce4bhqp2rcd13ifvqhog","pricing_plan_id":"cebpf4jnsgd1na2vs0mg"},{"bike_id":"e6422fac-7806-4084-96f0-22e2e4a9f3dc","system_id":"levelo_inurba_marseille","lat":43.32365,"lon":5.38883,"is_reserved":false,"is_disabled":false,"rental_uris":{"android":"levelo://app?vid=e6422fac-7806-4084-96f0-22e2e4a9f3dc","ios":"levelo://app?vid=e6422fac-7806-4084-96f0-22e2e4a9f3dc"},"vehicle_type_id":"4","last_reported":1710371235,"current_range_meters":0,"station_id":"ce4bhqp2rcd13ifvqhog","pricing_plan_id":"cebpf4jnsgd1na2vs0mg"},{"bike_id":"991d7feb-dcd7-453d-a499-fd702ced26e1","system_id":"levelo_inurba_marseille","lat":43.32361,"lon":5.38887,"is_reserved":false,"is_disabled":false,"rental_uris":{"android":"levelo://app?vid=991d7feb-dcd7-453d-a499-fd702ced26e1","ios":"levelo://app?vid=991d7feb-dcd7-453d-a499-fd702ced26e1"},"vehicle_type_id":"4","last_reported":1710371235,"current_range_meters":2800,"station_id":"ce4bhqp2rcd13ifvqhog","pricing_plan_id":"cebpf4jnsgd1na2vs0mg"},{"bike_id":"db0fda7d-b7c0-4ea7-9291-736653401b08","system_id":"levelo_inurba_marseille","lat":43.32366,"lon":5.38883,"is_reserved":false,"is_disabled":false,"rental_uris":{"android":"levelo://app?vid=db0fda7d-b7c0-4ea7-9291-736653401b08","ios":"levelo://app?vid=db0fda7d-b7c0-4ea7-9291-736653401b08"},"vehicle_type_id":"4","last_reported":1710371235,"current_range_meters":0,"station_id":"ce4bhqp2rcd13ifvqhog","pricing_plan_id":"cebpf4jnsgd1na2vs0mg"},{"bike_id":"e6a60513-e8b7-483d-a0ac-59c1b33b431c","system_id":"levelo_inurba_marseille","lat":43.32365,"lon":5.38884,"is_reserved":false,"is_disabled":false,"rental_uris":{"android":"levelo://app?vid=e6a60513-e8b7-483d-a0ac-59c1b33b431c","ios":"levelo://app?vid=e6a60513-e8b7-483d-a0ac-59c1b33b431c"},"vehicle_type_id":"4","last_reported":1710371235,"current_range_meters":15200,"station_id":"ce4bhqp2rcd13ifvqhog","pricing_plan_id":"cebpf4jnsgd1na2vs0mg"},{"bike_id":"85208358-1d9c-42e8-98c3-73b8b13c7ee8","system_id":"levelo_inurba_marseille","lat":43.32367,"lon":5.38883,"is_reserved":false,"is_disabled":false,"rental_uris":{"android":"levelo://app?vid=85208358-1d9c-42e8-98c3-73b8b13c7ee8","ios":"levelo://app?vid=85208358-1d9c-42e8-98c3-73b8b13c7ee8"},"vehicle_type_id":"4","last_reported":1710371235,"current_range_meters":0,"station_id":"ce4bhqp2rcd13ifvqhog","pricing_plan_id":"cebpf4jnsgd1na2vs0mg"},{"bike_id":"049264a0-55e2-4f55-8e43-ef8b86006ff0","system_id":"levelo_inurba_marseille","lat":43.32366,"lon":5.38886,"is_reserved":false,"is_disabled":false,"rental_uris":{"android":"levelo://app?vid=049264a0-55e2-4f55-8e43-ef8b86006ff0","ios":"levelo://app?vid=049264a0-55e2-4f55-8e43-ef8b86006ff0"},"vehicle_type_id":"4","last_reported":1710371235,"current_range_meters":24400,"station_id":"ce4bhqp2rcd13ifvqhog","pricing_plan_id":"cebpf4jnsgd1na2vs0mg"},{"bike_id":"848f7d5b-25ae-4442-913e-34dbed8c4426","system_id":"levelo_inurba_marseille","lat":43.32365,"lon":5.38887,"is_reserved":false,"is_disabled":false,"rental_uris":{"android":"levelo://app?vid=848f7d5b-25ae-4442-913e-34dbed8c4426","ios":"levelo://app?vid=848f7d5b-25ae-4442-913e-34dbed8c4426"},"vehicle_type_id":"4","last_reported":1710371235,"current_range_meters":24400,"station_id":"ce4bhqp2rcd13ifvqhog","pricing_plan_id":"cebpf4jnsgd1na2vs0mg"},{"bike_id":"814e9b11-b6da-4c41-a98f-46d81e6f367e","system_id":"levelo_inurba_marseille","lat":43.32367,"lon":5.388836,"is_reserved":false,"is_disabled":false,"rental_uris":{"android":"levelo://app?vid=814e9b11-b6da-4c41-a98f-46d81e6f367e","ios":"levelo://app?vid=814e9b11-b6da-4c41-a98f-46d81e6f367e"},"vehicle_type_id":"4","last_reported":1710371235,"current_range_meters":15600,"station_id":"ce4bhqp2rcd13ifvqhog","pricing_plan_id":"cebpf4jnsgd1na2vs0mg"},{"bike_id":"e51693d7-1dd2-401e-9b75-f4e8a3f19ebd","system_id":"levelo_inurba_marseille","lat":43.32367,"lon":5.388836,"is_reserved":false,"is_disabled":false,"rental_uris":{"android":"levelo://app?vid=e51693d7-1dd2-401e-9b75-f4e8a3f19ebd","ios":"levelo://app?vid=e51693d7-1dd2-401e-9b75-f4e8a3f19ebd"},"vehicle_type_id":"4","last_reported":1710371235,"current_range_meters":20000,"station_id":"ce4bhqp2rcd13ifvqhog","pricing_plan_id":"cebpf4jnsgd1na2vs0mg"},{"bike_id":"f14c9a56-6115-4cb7-8920-5b14ab230a3d","system_id":"levelo_inurba_marseille","lat":43.32371,"lon":5.38888,"is_reserved":false,"is_disabled":false,"rental_uris":{"android":"levelo://app?vid=f14c9a56-6115-4cb7-8920-5b14ab230a3d","ios":"levelo://app?vid=f14c9a56-6115-4cb7-8920-5b14ab230a3d"},"vehicle_type_id":"4","last_reported":1710371235,"current_range_meters":7200,"station_id":"ce4bhqp2rcd13ifvqhog","pricing_plan_id":"cebpf4jnsgd1na2vs0mg"},{"bike_id":"0baecd5e-0049-4b19-8872-834ba1edcdb4","system_id":"levelo_inurba_marseille","lat":43.32367,"lon":5.388836,"is_reserved":false,"is_disabled":false,"rental_uris":{"android":"levelo://app?vid=0baecd5e-0049-4b19-8872-834ba1edcdb4","ios":"levelo://app?vid=0baecd5e-0049-4b19-8872-834ba1edcdb4"},"vehicle_type_id":"4","last_reported":1710371235,"current_range_meters":14400,"station_id":"ce4bhqp2rcd13ifvqhog","pricing_plan_id":"cebpf4jnsgd1na2vs0mg"},{"bike_id":"d2480f9e-58b2-45cc-92df-06f069875be9","system_id":"levelo_inurba_marseille","lat":43.30166,"lon":5.38916,"is_reserved":false,"is_disabled":false,"rental_uris":{"android":"levelo://app?vid=d2480f9e-58b2-45cc-92df-06f069875be9","ios":"levelo://app?vid=d2480f9e-58b2-45cc-92df-06f069875be9"},"vehicle_type_id":"4","last_reported":1710371235,"current_range_meters":6400,"station_id":"ce4bhp92rcd13ifvqhcg","pricing_plan_id":"cebpf4jnsgd1na2vs0mg"},{"bike_id":"8edd368f-e3a8-4647-b10a-a5dc1b1c8707","system_id":"levelo_inurba_marseille","lat":43.29601,"lon":5.381084,"is_reserved":false,"is_disabled":false,"rental_uris":{"android":"levelo://app?vid=8edd368f-e3a8-4647-b10a-a5dc1b1c8707","ios":"levelo://app?vid=8edd368f-e3a8-4647-b10a-a5dc1b1c8707"},"vehicle_type_id":"4","last_reported":1710371235,"current_range_meters":0,"station_id":"ce4bgl12rcd13ifvqbo0","pricing_plan_id":"cebpf4jnsgd1na2vs0mg"},{"bike_id":"70e20882-3aa9-4208-954d-b7cc032416ee","system_id":"levelo_inurba_marseille","lat":43.29262,"lon":5.36681,"is_reserved":false,"is_disabled":false,"rental_uris":{"android":"levelo://app?vid=70e20882-3aa9-4208-954d-b7cc032416ee","ios":"levelo://app?vid=70e20882-3aa9-4208-954d-b7cc032416ee"},"vehicle_type_id":"4","last_reported":1710371235,"current_range_meters":21600,"station_id":"","pricing_plan_id":"cebpf4jnsgd1na2vs0mg"},{"bike_id":"b17aec3e-12dd-41a8-a80f-43bd90bef191","system_id":"levelo_inurba_marseille","lat":43.293009,"lon":5.374584,"is_reserved":false,"is_disabled":false,"rental_uris":{"android":"levelo://app?vid=b17aec3e-12dd-41a8-a80f-43bd90bef191","ios":"levelo://app?vid=b17aec3e-12dd-41a8-a80f-43bd90bef191"},"vehicle_type_id":"4","last_reported":1710371235,"current_range_meters":400,"station_id":"ce4bgi12rcd13ifvqb70","pricing_plan_id":"cebpf4jnsgd1na2vs0mg"},{"bike_id":"8af021c0-ca4b-4908-8c2a-ff4ce10507c6","system_id":"levelo_inurba_marseille","lat":43.305994,"lon":5.393687,"is_reserved":false,"is_disabled":false,"rental_uris":{"android":"levelo://app?vid=8af021c0-ca4b-4908-8c2a-ff4ce10507c6","ios":"levelo://app?vid=8af021c0-ca4b-4908-8c2a-ff4ce10507c6"},"vehicle_type_id":"4","last_reported":1710371235,"current_range_meters":16000,"station_id":"ce4bh0p2rcd13ifvqd80","pricing_plan_id":"cebpf4jnsgd1na2vs0mg"},{"bike_id":"25857091-182b-4d32-a1ed-183ec121c2cd","system_id":"levelo_inurba_marseille","lat":43.293009,"lon":5.374584,"is_reserved":false,"is_disabled":false,"rental_uris":{"android":"levelo://app?vid=25857091-182b-4d32-a1ed-183ec121c2cd","ios":"levelo://app?vid=25857091-182b-4d32-a1ed-183ec121c2cd"},"vehicle_type_id":"4","last_reported":1710371235,"current_range_meters":14000,"station_id":"ce4bgi12rcd13ifvqb70","pricing_plan_id":"cebpf4jnsgd1na2vs0mg"},{"bike_id":"30fb32e8-e0dc-4ea0-9683-768224e5ebe0","system_id":"levelo_inurba_marseille","lat":43.293009,"lon":5.374584,"is_reserved":false,"is_disabled":false,"rental_uris":{"android":"levelo://app?vid=30fb32e8-e0dc-4ea0-9683-768224e5ebe0","ios":"levelo://app?vid=30fb32e8-e0dc-4ea0-9683-768224e5ebe0"},"vehicle_type_id":"4","last_reported":1710371235,"current_range_meters":0,"station_id":"ce4bgi12rcd13ifvqb70","pricing_plan_id":"cebpf4jnsgd1na2vs0mg"},{"bike_id":"cc3fe6c9-9bde-4389-b89c-641b01fe9f5b","system_id":"levelo_inurba_marseille","lat":43.30312,"lon":5.39205,"is_reserved":false,"is_disabled":false,"rental_uris":{"android":"levelo://app?vid=cc3fe6c9-9bde-4389-b89c-641b01fe9f5b","ios":"levelo://app?vid=cc3fe6c9-9bde-4389-b89c-641b01fe9f5b"},"vehicle_type_id":"4","last_reported":1710371235,"current_range_meters":11600,"station_id":"ce4bgkh2rcd13ifvqbk0","pricing_plan_id":"cebpf4jnsgd1na2vs0mg"},{"bike_id":"ccc64e66-6252-41be-8cbd-0ecfafa4a8ce","system_id":"levelo_inurba_marseille","lat":43.303002,"lon":5.392142,"is_reserved":false,"is_disabled":false,"rental_uris":{"android":"levelo://app?vid=ccc64e66-6252-41be-8cbd-0ecfafa4a8ce","ios":"levelo://app?vid=ccc64e66-6252-41be-8cbd-0ecfafa4a8ce"},"vehicle_type_id":"4","last_reported":1710371235,"current_range_meters":16000,"station_id":"ce4bgkh2rcd13ifvqbk0","pricing_plan_id":"cebpf4jnsgd1na2vs0mg"},{"bike_id":"271fdb94-77e2-40d5-be28-05b25a261a3d","system_id":"levelo_inurba_marseille","lat":43.303002,"lon":5.392142,"is_reserved":false,"is_disabled":false,"rental_uris":{"android":"levelo://app?vid=271fdb94-77e2-40d5-be28-05b25a261a3d","ios":"levelo://app?vid=271fdb94-77e2-40d5-be28-05b25a261a3d"},"vehicle_type_id":"4","last_reported":1710371235,"current_range_meters":25600,"station_id":"ce4bgkh2rcd13ifvqbk0","pricing_plan_id":"cebpf4jnsgd1na2vs0mg"},{"bike_id":"79fa5685-03e4-49dc-bdb1-80757307e184","system_id":"levelo_inurba_marseille","lat":43.302992,"lon":5.392136,"is_reserved":false,"is_disabled":false,"rental_uris":{"android":"levelo://app?vid=79fa5685-03e4-49dc-bdb1-80757307e184","ios":"levelo://app?vid=79fa5685-03e4-49dc-bdb1-80757307e184"},"vehicle_type_id":"4","last_reported":1710371235,"current_range_meters":20400,"station_id":"ce4bgkh2rcd13ifvqbk0","pricing_plan_id":"cebpf4jnsgd1na2vs0mg"},{"bike_id":"2e5e5e8e-0e2e-46d6-9361-5ce05072f224","system_id":"levelo_inurba_marseille","lat":43.30301,"lon":5.39207,"is_reserved":false,"is_disabled":false,"rental_uris":{"android":"levelo://app?vid=2e5e5e8e-0e2e-46d6-9361-5ce05072f224","ios":"levelo://app?vid=2e5e5e8e-0e2e-46d6-9361-5ce05072f224"},"vehicle_type_id":"4","last_reported":1710371235,"current_range_meters":0,"station_id":"ce4bgkh2rcd13ifvqbk0","pricing_plan_id":"cebpf4jnsgd1na2vs0mg"},{"bike_id":"4f925860-2b1f-44e5-954d-fadd30845a87","system_id":"levelo_inurba_marseille","lat":43.303043,"lon":5.392129,"is_reserved":false,"is_disabled":false,"rental_uris":{"android":"levelo://app?vid=4f925860-2b1f-44e5-954d-fadd30845a87","ios":"levelo://app?vid=4f925860-2b1f-44e5-954d-fadd30845a87"},"vehicle_type_id":"4","last_reported":1710371235,"current_range_meters":28000,"station_id":"ce4bgkh2rcd13ifvqbk0","pricing_plan_id":"cebpf4jnsgd1na2vs0mg"},{"bike_id":"cb61f44d-0f89-4133-bdbe-01ab4a6757cc","system_id":"levelo_inurba_marseille","lat":43.293786,"lon":5.378583,"is_reserved":false,"is_disabled":false,"rental_uris":{"android":"levelo://app?vid=cb61f44d-0f89-4133-bdbe-01ab4a6757cc","ios":"levelo://app?vid=cb61f44d-0f89-4133-bdbe-01ab4a6757cc"},"vehicle_type_id":"4","last_reported":1710371235,"current_range_meters":0,"station_id":"ce4bgjh2rcd13ifvqbf0","pricing_plan_id":"cebpf4jnsgd1na2vs0mg"},{"bike_id":"1c41eec8-c06f-4665-8a23-1dae6758fc8c","system_id":"levelo_inurba_marseille","lat":43.302992,"lon":5.392136,"is_reserved":false,"is_disabled":false,"rental_uris":{"android":"levelo://app?vid=1c41eec8-c06f-4665-8a23-1dae6758fc8c","ios":"levelo://app?vid=1c41eec8-c06f-4665-8a23-1dae6758fc8c"},"vehicle_type_id":"4","last_reported":1710371235,"current_range_meters":1200,"station_id":"ce4bgkh2rcd13ifvqbk0","pricing_plan_id":"cebpf4jnsgd1na2vs0mg"},{"bike_id":"d4edade4-8f68-4ab5-9ca3-20809b7ab95e","system_id":"levelo_inurba_marseille","lat":43.302992,"lon":5.392136,"is_reserved":false,"is_disabled":false,"rental_uris":{"android":"levelo://app?vid=d4edade4-8f68-4ab5-9ca3-20809b7ab95e","ios":"levelo://app?vid=d4edade4-8f68-4ab5-9ca3-20809b7ab95e"},"vehicle_type_id":"4","last_reported":1710371235,"current_range_meters":25600,"station_id":"ce4bgkh2rcd13ifvqbk0","pricing_plan_id":"cebpf4jnsgd1na2vs0mg"},{"bike_id":"1ba92933-d07a-4c9f-b337-f969a32c03a5","system_id":"levelo_inurba_marseille","lat":43.302992,"lon":5.392136,"is_reserved":false,"is_disabled":false,"rental_uris":{"android":"levelo://app?vid=1ba92933-d07a-4c9f-b337-f969a32c03a5","ios":"levelo://app?vid=1ba92933-d07a-4c9f-b337-f969a32c03a5"},"vehicle_type_id":"4","last_reported":1710371235,"current_range_meters":14800,"station_id":"ce4bgkh2rcd13ifvqbk0","pricing_plan_id":"cebpf4jnsgd1na2vs0mg"},{"bike_id":"51f3b67f-459a-4b9b-b969-cfc9e2635a9f","system_id":"levelo_inurba_marseille","lat":43.2936,"lon":5.37835,"is_reserved":false,"is_disabled":false,"rental_uris":{"android":"levelo://app?vid=51f3b67f-459a-4b9b-b969-cfc9e2635a9f","ios":"levelo://app?vid=51f3b67f-459a-4b9b-b969-cfc9e2635a9f"},"vehicle_type_id":"4","last_reported":1710371235,"current_range_meters":28800,"station_id":"ce4bgjh2rcd13ifvqbf0","pricing_plan_id":"cebpf4jnsgd1na2vs0mg"},{"bike_id":"26304616-23df-45cd-9f97-194b15d312ef","system_id":"levelo_inurba_marseille","lat":43.292311,"lon":5.360731,"is_reserved":false,"is_disabled":false,"rental_uris":{"android":"levelo://app?vid=26304616-23df-45cd-9f97-194b15d312ef","ios":"levelo://app?vid=26304616-23df-45cd-9f97-194b15d312ef"},"vehicle_type_id":"4","last_reported":1710371235,"current_range_meters":26800,"station_id":"ce4bhbh2rcd13ifvqeqg","pricing_plan_id":"cebpf4jnsgd1na2vs0mg"},{"bike_id":"52836d3f-3970-48be-bdb3-273d0ea3a39a","system_id":"levelo_inurba_marseille","lat":43.300933,"lon":5.39072,"is_reserved":false,"is_disabled":false,"rental_uris":{"android":"levelo://app?vid=52836d3f-3970-48be-bdb3-273d0ea3a39a","ios":"levelo://app?vid=52836d3f-3970-48be-bdb3-273d0ea3a39a"},"vehicle_type_id":"4","last_reported":1710371235,"current_range_meters":0,"station_id":"ce4bh192rcd13ifvqdb0","pricing_plan_id":"cebpf4jnsgd1na2vs0mg"},{"bike_id":"883df6c3-610c-4a37-873c-081324c9fcde","system_id":"levelo_inurba_marseille","lat":43.30085,"lon":5.390856,"is_reserved":false,"is_disabled":false,"rental_uris":{"android":"levelo://app?vid=883df6c3-610c-4a37-873c-081324c9fcde","ios":"levelo://app?vid=883df6c3-610c-4a37-873c-081324c9fcde"},"vehicle_type_id":"4","last_reported":1710371235,"current_range_meters":0,"station_id":"ce4bh192rcd13ifvqdb0","pricing_plan_id":"cebpf4jnsgd1na2vs0mg"},{"bike_id":"6dd57200-4359-4ec5-980b-a08b80aa66a5","system_id":"levelo_inurba_marseille","lat":43.30085,"lon":5.390856,"is_reserved":false,"is_disabled":false,"rental_uris":{"android":"levelo://app?vid=6dd57200-4359-4ec5-980b-a08b80aa66a5","ios":"levelo://app?vid=6dd57200-4359-4ec5-980b-a08b80aa66a5"},"vehicle_type_id":"4","last_reported":1710371235,"current_range_meters":22800,"station_id":"ce4bh192rcd13ifvqdb0","pricing_plan_id":"cebpf4jnsgd1na2vs0mg"},{"bike_id":"4f8b7c03-c09d-4c2b-8575-f707061e7c3b","system_id":"levelo_inurba_marseille","lat":43.300871,"lon":5.390829,"is_reserved":false,"is_disabled":false,"rental_uris":{"android":"levelo://app?vid=4f8b7c03-c09d-4c2b-8575-f707061e7c3b","ios":"levelo://app?vid=4f8b7c03-c09d-4c2b-8575-f707061e7c3b"},"vehicle_type_id":"4","last_reported":1710371235,"current_range_meters":0,"station_id":"","pricing_plan_id":"cebpf4jnsgd1na2vs0mg"},{"bike_id":"1b132897-84e5-4eeb-a7aa-2980d0e9b3de","system_id":"levelo_inurba_marseille","lat":43.30092,"lon":5.39093,"is_reserved":false,"is_disabled":false,"rental_uris":{"android":"levelo://app?vid=1b132897-84e5-4eeb-a7aa-2980d0e9b3de","ios":"levelo://app?vid=1b132897-84e5-4eeb-a7aa-2980d0e9b3de"},"vehicle_type_id":"4","last_reported":1710371235,"current_range_meters":1600,"station_id":"ce4bh192rcd13ifvqdb0","pricing_plan_id":"cebpf4jnsgd1na2vs0mg"},{"bike_id":"54e08d76-41d0-48a4-be6f-1d277ff1bce2","system_id":"levelo_inurba_marseille","lat":43.313291,"lon":5.396838,"is_reserved":false,"is_disabled":false,"rental_uris":{"android":"levelo://app?vid=54e08d76-41d0-48a4-be6f-1d277ff1bce2","ios":"levelo://app?vid=54e08d76-41d0-48a4-be6f-1d277ff1bce2"},"vehicle_type_id":"4","last_reported":1710371235,"current_range_meters":0,"station_id":"ce4bgvp2rcd13ifvqcu0","pricing_plan_id":"cebpf4jnsgd1na2vs0mg"},{"bike_id":"bdf80a15-6546-4dd6-af4b-b5b8d0460fb2","system_id":"levelo_inurba_marseille","lat":43.291732,"lon":5.371534,"is_reserved":false,"is_disabled":false,"rental_uris":{"android":"levelo://app?vid=bdf80a15-6546-4dd6-af4b-b5b8d0460fb2","ios":"levelo://app?vid=bdf80a15-6546-4dd6-af4b-b5b8d0460fb2"},"vehicle_type_id":"4","last_reported":1710371235,"current_range_meters":0,"station_id":"ce4bha92rcd13ifvqeh0","pricing_plan_id":"cebpf4jnsgd1na2vs0mg"},{"bike_id":"8ba5f032-edb9-40df-907a-ef44bd6b8566","system_id":"levelo_inurba_marseille","lat":43.298764,"lon":5.388973,"is_reserved":false,"is_disabled":false,"rental_uris":{"android":"levelo://app?vid=8ba5f032-edb9-40df-907a-ef44bd6b8566","ios":"levelo://app?vid=8ba5f032-edb9-40df-907a-ef44bd6b8566"},"vehicle_type_id":"4","last_reported":1710371235,"current_range_meters":20000,"station_id":"ce4bh392rcd13ifvqdl0","pricing_plan_id":"cebpf4jnsgd1na2vs0mg"},{"bike_id":"06070d6b-0dbd-424a-b2f1-dc2c51cdb434","system_id":"levelo_inurba_marseille","lat":43.291696,"lon":5.371717,"is_reserved":false,"is_disabled":false,"rental_uris":{"android":"levelo://app?vid=06070d6b-0dbd-424a-b2f1-dc2c51cdb434","ios":"levelo://app?vid=06070d6b-0dbd-424a-b2f1-dc2c51cdb434"},"vehicle_type_id":"4","last_reported":1710371235,"current_range_meters":0,"station_id":"ce4bha92rcd13ifvqeh0","pricing_plan_id":"cebpf4jnsgd1na2vs0mg"},{"bike_id":"34433c93-787f-4306-9da8-502893c7eae2","system_id":"levelo_inurba_marseille","lat":43.29881,"lon":5.38914,"is_reserved":false,"is_disabled":false,"rental_uris":{"android":"levelo://app?vid=34433c93-787f-4306-9da8-502893c7eae2","ios":"levelo://app?vid=34433c93-787f-4306-9da8-502893c7eae2"},"vehicle_type_id":"4","last_reported":1710371235,"current_range_meters":18000,"station_id":"ce4bh392rcd13ifvqdl0","pricing_plan_id":"cebpf4jnsgd1na2vs0mg"},{"bike_id":"6d415451-6178-4712-8dc9-7685b602ab55","system_id":"levelo_inurba_marseille","lat":43.298764,"lon":5.388973,"is_reserved":false,"is_disabled":false,"rental_uris":{"android":"levelo://app?vid=6d415451-6178-4712-8dc9-7685b602ab55","ios":"levelo://app?vid=6d415451-6178-4712-8dc9-7685b602ab55"},"vehicle_type_id":"4","last_reported":1710371235,"current_range_meters":0,"station_id":"ce4bh392rcd13ifvqdl0","pricing_plan_id":"cebpf4jnsgd1na2vs0mg"},{"bike_id":"7047288c-5cea-4dd8-8b7e-7e3808344ed3","system_id":"levelo_inurba_marseille","lat":43.298666,"lon":5.389073,"is_reserved":false,"is_disabled":false,"rental_uris":{"android":"levelo://app?vid=7047288c-5cea-4dd8-8b7e-7e3808344ed3","ios":"levelo://app?vid=7047288c-5cea-4dd8-8b7e-7e3808344ed3"},"vehicle_type_id":"4","last_reported":1710371235,"current_range_meters":0,"station_id":"ce4bh392rcd13ifvqdl0","pricing_plan_id":"cebpf4jnsgd1na2vs0mg"},{"bike_id":"7727e2ec-3cdd-49af-9094-43864130feed","system_id":"levelo_inurba_marseille","lat":43.29871,"lon":5.38914,"is_reserved":false,"is_disabled":false,"rental_uris":{"android":"levelo://app?vid=7727e2ec-3cdd-49af-9094-43864130feed","ios":"levelo://app?vid=7727e2ec-3cdd-49af-9094-43864130feed"},"vehicle_type_id":"4","last_reported":1710371235,"current_range_meters":16000,"station_id":"ce4bh392rcd13ifvqdl0","pricing_plan_id":"cebpf4jnsgd1na2vs0mg"},{"bike_id":"ac5098e4-f972-4791-a91e-d5f35878532b","system_id":"levelo_inurba_marseille","lat":43.298673,"lon":5.38916,"is_reserved":false,"is_disabled":false,"rental_uris":{"android":"levelo://app?vid=ac5098e4-f972-4791-a91e-d5f35878532b","ios":"levelo://app?vid=ac5098e4-f972-4791-a91e-d5f35878532b"},"vehicle_type_id":"4","last_reported":1710371235,"current_range_meters":10800,"station_id":"ce4bh392rcd13ifvqdl0","pricing_plan_id":"cebpf4jnsgd1na2vs0mg"},{"bike_id":"b255a1cf-2194-4f5f-9b9e-8f8fae9f054c","system_id":"levelo_inurba_marseille","lat":43.29443,"lon":5.38292,"is_reserved":false,"is_disabled":false,"rental_uris":{"android":"levelo://app?vid=b255a1cf-2194-4f5f-9b9e-8f8fae9f054c","ios":"levelo://app?vid=b255a1cf-2194-4f5f-9b9e-8f8fae9f054c"},"vehicle_type_id":"4","last_reported":1710371235,"current_range_meters":3200,"station_id":"","pricing_plan_id":"cebpf4jnsgd1na2vs0mg"},{"bike_id":"73960a28-59ba-49c9-91d5-69ed04f83384","system_id":"levelo_inurba_marseille","lat":43.309047,"lon":5.396551,"is_reserved":false,"is_disabled":false,"rental_uris":{"android":"levelo://app?vid=73960a28-59ba-49c9-91d5-69ed04f83384","ios":"levelo://app?vid=73960a28-59ba-49c9-91d5-69ed04f83384"},"vehicle_type_id":"4","last_reported":1710371235,"current_range_meters":28400,"station_id":"ce4bh012rcd13ifvqcv0","pricing_plan_id":"cebpf4jnsgd1na2vs0mg"},{"bike_id":"a2e38577-bbf4-4bee-83bc-3f2b569375f7","system_id":"levelo_inurba_marseille","lat":43.309038,"lon":5.396546,"is_reserved":false,"is_disabled":false,"rental_uris":{"android":"levelo://app?vid=a2e38577-bbf4-4bee-83bc-3f2b569375f7","ios":"levelo://app?vid=a2e38577-bbf4-4bee-83bc-3f2b569375f7"},"vehicle_type_id":"4","last_reported":1710371235,"current_range_meters":22400,"station_id":"ce4bh012rcd13ifvqcv0","pricing_plan_id":"cebpf4jnsgd1na2vs0mg"},{"bike_id":"f30e2c95-03b8-4378-adbc-3f69ee0f341e","system_id":"levelo_inurba_marseille","lat":43.291994,"lon":5.357886,"is_reserved":false,"is_disabled":false,"rental_uris":{"android":"levelo://app?vid=f30e2c95-03b8-4378-adbc-3f69ee0f341e","ios":"levelo://app?vid=f30e2c95-03b8-4378-adbc-3f69ee0f341e"},"vehicle_type_id":"4","last_reported":1710371235,"current_range_meters":6000,"station_id":"ce4bhb12rcd13ifvqel0","pricing_plan_id":"cebpf4jnsgd1na2vs0mg"},{"bike_id":"3199e820-be26-4bfa-b0b9-3fcfca76759c","system_id":"levelo_inurba_marseille","lat":43.309047,"lon":5.396551,"is_reserved":false,"is_disabled":false,"rental_uris":{"android":"levelo://app?vid=3199e820-be26-4bfa-b0b9-3fcfca76759c","ios":"levelo://app?vid=3199e820-be26-4bfa-b0b9-3fcfca76759c"},"vehicle_type_id":"4","last_reported":1710371235,"current_range_meters":4400,"station_id":"ce4bh012rcd13ifvqcv0","pricing_plan_id":"cebpf4jnsgd1na2vs0mg"},{"bike_id":"6466c061-daf0-4011-a038-3ab4988a4158","system_id":"levelo_inurba_marseille","lat":43.309038,"lon":5.396546,"is_reserved":false,"is_disabled":false,"rental_uris":{"android":"levelo://app?vid=6466c061-daf0-4011-a038-3ab4988a4158","ios":"levelo://app?vid=6466c061-daf0-4011-a038-3ab4988a4158"},"vehicle_type_id":"4","last_reported":1710371235,"current_range_meters":30000,"station_id":"ce4bh012rcd13ifvqcv0","pricing_plan_id":"cebpf4jnsgd1na2vs0mg"},{"bike_id":"798fdac6-50a9-4398-b0f8-3dea6cccfd8c","system_id":"levelo_inurba_marseille","lat":43.313291,"lon":5.396838,"is_reserved":false,"is_disabled":false,"rental_uris":{"android":"levelo://app?vid=798fdac6-50a9-4398-b0f8-3dea6cccfd8c","ios":"levelo://app?vid=798fdac6-50a9-4398-b0f8-3dea6cccfd8c"},"vehicle_type_id":"4","last_reported":1710371235,"current_range_meters":17600,"station_id":"ce4bgvp2rcd13ifvqcu0","pricing_plan_id":"cebpf4jnsgd1na2vs0mg"},{"bike_id":"dbaec713-6c5a-4b2d-859c-57e81b198185","system_id":"levelo_inurba_marseille","lat":43.30885,"lon":5.396439,"is_reserved":false,"is_disabled":false,"rental_uris":{"android":"levelo://app?vid=dbaec713-6c5a-4b2d-859c-57e81b198185","ios":"levelo://app?vid=dbaec713-6c5a-4b2d-859c-57e81b198185"},"vehicle_type_id":"4","last_reported":1710371235,"current_range_meters":0,"station_id":"ce4bh012rcd13ifvqcv0","pricing_plan_id":"cebpf4jnsgd1na2vs0mg"},{"bike_id":"5eda10d7-d18c-4635-8754-6f2c958fe567","system_id":"levelo_inurba_marseille","lat":43.313291,"lon":5.396838,"is_reserved":false,"is_disabled":false,"rental_uris":{"android":"levelo://app?vid=5eda10d7-d18c-4635-8754-6f2c958fe567","ios":"levelo://app?vid=5eda10d7-d18c-4635-8754-6f2c958fe567"},"vehicle_type_id":"4","last_reported":1710371235,"current_range_meters":31200,"station_id":"ce4bgvp2rcd13ifvqcu0","pricing_plan_id":"cebpf4jnsgd1na2vs0mg"},{"bike_id":"383e13ff-4d9e-4300-b85d-02713f989ede","system_id":"levelo_inurba_marseille","lat":43.309038,"lon":5.396546,"is_reserved":false,"is_disabled":false,"rental_uris":{"android":"levelo://app?vid=383e13ff-4d9e-4300-b85d-02713f989ede","ios":"levelo://app?vid=383e13ff-4d9e-4300-b85d-02713f989ede"},"vehicle_type_id":"4","last_reported":1710371235,"current_range_meters":24800,"station_id":"ce4bh012rcd13ifvqcv0","pricing_plan_id":"cebpf4jnsgd1na2vs0mg"},{"bike_id":"13694558-4658-441b-b69b-0ea65164c78e","system_id":"levelo_inurba_marseille","lat":43.309047,"lon":5.396551,"is_reserved":false,"is_disabled":false,"rental_uris":{"android":"levelo://app?vid=13694558-4658-441b-b69b-0ea65164c78e","ios":"levelo://app?vid=13694558-4658-441b-b69b-0ea65164c78e"},"vehicle_type_id":"4","last_reported":1710371235,"current_range_meters":10400,"station_id":"ce4bh012rcd13ifvqcv0","pricing_plan_id":"cebpf4jnsgd1na2vs0mg"},{"bike_id":"a1499186-1fee-4200-bb8a-3a11d73de30a","system_id":"levelo_inurba_marseille","lat":43.313291,"lon":5.396838,"is_reserved":false,"is_disabled":false,"rental_uris":{"android":"levelo://app?vid=a1499186-1fee-4200-bb8a-3a11d73de30a","ios":"levelo://app?vid=a1499186-1fee-4200-bb8a-3a11d73de30a"},"vehicle_type_id":"4","last_reported":1710371235,"current_range_meters":10400,"station_id":"ce4bgvp2rcd13ifvqcu0","pricing_plan_id":"cebpf4jnsgd1na2vs0mg"},{"bike_id":"1d9cf0ae-e283-4000-8678-b2be7939fb86","system_id":"levelo_inurba_marseille","lat":43.309038,"lon":5.396546,"is_reserved":false,"is_disabled":false,"rental_uris":{"android":"levelo://app?vid=1d9cf0ae-e283-4000-8678-b2be7939fb86","ios":"levelo://app?vid=1d9cf0ae-e283-4000-8678-b2be7939fb86"},"vehicle_type_id":"4","last_reported":1710371235,"current_range_meters":4000,"station_id":"ce4bh012rcd13ifvqcv0","pricing_plan_id":"cebpf4jnsgd1na2vs0mg"},{"bike_id":"0aa92e91-e23d-40ed-ac32-d699737f2935","system_id":"levelo_inurba_marseille","lat":43.309047,"lon":5.396551,"is_reserved":false,"is_disabled":false,"rental_uris":{"android":"levelo://app?vid=0aa92e91-e23d-40ed-ac32-d699737f2935","ios":"levelo://app?vid=0aa92e91-e23d-40ed-ac32-d699737f2935"},"vehicle_type_id":"4","last_reported":1710371235,"current_range_meters":0,"station_id":"ce4bh012rcd13ifvqcv0","pricing_plan_id":"cebpf4jnsgd1na2vs0mg"},{"bike_id":"eba905df-c8f6-424c-a084-c260351db0de","system_id":"levelo_inurba_marseille","lat":43.309047,"lon":5.396551,"is_reserved":false,"is_disabled":false,"rental_uris":{"android":"levelo://app?vid=eba905df-c8f6-424c-a084-c260351db0de","ios":"levelo://app?vid=eba905df-c8f6-424c-a084-c260351db0de"},"vehicle_type_id":"4","last_reported":1710371235,"current_range_meters":11600,"station_id":"ce4bh012rcd13ifvqcv0","pricing_plan_id":"cebpf4jnsgd1na2vs0mg"},{"bike_id":"e15da1fa-2ae9-4a2a-a945-cf0cc0e2fa87","system_id":"levelo_inurba_marseille","lat":43.313291,"lon":5.396838,"is_reserved":false,"is_disabled":false,"rental_uris":{"android":"levelo://app?vid=e15da1fa-2ae9-4a2a-a945-cf0cc0e2fa87","ios":"levelo://app?vid=e15da1fa-2ae9-4a2a-a945-cf0cc0e2fa87"},"vehicle_type_id":"4","last_reported":1710371235,"current_range_meters":6000,"station_id":"ce4bgvp2rcd13ifvqcu0","pricing_plan_id":"cebpf4jnsgd1na2vs0mg"},{"bike_id":"da3c1d32-73b8-43bf-86c0-78227698ee9c","system_id":"levelo_inurba_marseille","lat":43.313291,"lon":5.396838,"is_reserved":false,"is_disabled":false,"rental_uris":{"android":"levelo://app?vid=da3c1d32-73b8-43bf-86c0-78227698ee9c","ios":"levelo://app?vid=da3c1d32-73b8-43bf-86c0-78227698ee9c"},"vehicle_type_id":"4","last_reported":1710371235,"current_range_meters":20800,"station_id":"ce4bgvp2rcd13ifvqcu0","pricing_plan_id":"cebpf4jnsgd1na2vs0mg"},{"bike_id":"38730035-d98e-45d3-929a-2395cd2a004e","system_id":"levelo_inurba_marseille","lat":43.309038,"lon":5.396546,"is_reserved":false,"is_disabled":false,"rental_uris":{"android":"levelo://app?vid=38730035-d98e-45d3-929a-2395cd2a004e","ios":"levelo://app?vid=38730035-d98e-45d3-929a-2395cd2a004e"},"vehicle_type_id":"4","last_reported":1710371235,"current_range_meters":16000,"station_id":"ce4bh012rcd13ifvqcv0","pricing_plan_id":"cebpf4jnsgd1na2vs0mg"},{"bike_id":"e1299490-cbd8-4dd3-9c53-d338cfaed0f1","system_id":"levelo_inurba_marseille","lat":43.29187,"lon":5.35794,"is_reserved":false,"is_disabled":false,"rental_uris":{"android":"levelo://app?vid=e1299490-cbd8-4dd3-9c53-d338cfaed0f1","ios":"levelo://app?vid=e1299490-cbd8-4dd3-9c53-d338cfaed0f1"},"vehicle_type_id":"4","last_reported":1710371235,"current_range_meters":18800,"station_id":"ce4bhb12rcd13ifvqel0","pricing_plan_id":"cebpf4jnsgd1na2vs0mg"},{"bike_id":"ff66d567-844c-450b-8438-ec067cbc66b4","system_id":"levelo_inurba_marseille","lat":43.309047,"lon":5.396551,"is_reserved":false,"is_disabled":false,"rental_uris":{"android":"levelo://app?vid=ff66d567-844c-450b-8438-ec067cbc66b4","ios":"levelo://app?vid=ff66d567-844c-450b-8438-ec067cbc66b4"},"vehicle_type_id":"4","last_reported":1710371235,"current_range_meters":12000,"station_id":"ce4bh012rcd13ifvqcv0","pricing_plan_id":"cebpf4jnsgd1na2vs0mg"},{"bike_id":"999760e0-8b40-4417-8ea0-84a7eaed7a96","system_id":"levelo_inurba_marseille","lat":43.313291,"lon":5.396838,"is_reserved":false,"is_disabled":false,"rental_uris":{"android":"levelo://app?vid=999760e0-8b40-4417-8ea0-84a7eaed7a96","ios":"levelo://app?vid=999760e0-8b40-4417-8ea0-84a7eaed7a96"},"vehicle_type_id":"4","last_reported":1710371235,"current_range_meters":18000,"station_id":"ce4bgvp2rcd13ifvqcu0","pricing_plan_id":"cebpf4jnsgd1na2vs0mg"},{"bike_id":"f91ce9bb-cc8e-40ec-a60f-9b0edf2a5aff","system_id":"levelo_inurba_marseille","lat":43.313291,"lon":5.396838,"is_reserved":false,"is_disabled":false,"rental_uris":{"android":"levelo://app?vid=f91ce9bb-cc8e-40ec-a60f-9b0edf2a5aff","ios":"levelo://app?vid=f91ce9bb-cc8e-40ec-a60f-9b0edf2a5aff"},"vehicle_type_id":"4","last_reported":1710371235,"current_range_meters":21600,"station_id":"ce4bgvp2rcd13ifvqcu0","pricing_plan_id":"cebpf4jnsgd1na2vs0mg"},{"bike_id":"c6144752-6857-403e-b5ac-35596800ba9b","system_id":"levelo_inurba_marseille","lat":43.309038,"lon":5.396546,"is_reserved":false,"is_disabled":false,"rental_uris":{"android":"levelo://app?vid=c6144752-6857-403e-b5ac-35596800ba9b","ios":"levelo://app?vid=c6144752-6857-403e-b5ac-35596800ba9b"},"vehicle_type_id":"4","last_reported":1710371235,"current_range_meters":25200,"station_id":"ce4bh012rcd13ifvqcv0","pricing_plan_id":"cebpf4jnsgd1na2vs0mg"},{"bike_id":"5d0802cf-9073-46b9-84de-f04ccbf1c750","system_id":"levelo_inurba_marseille","lat":43.309047,"lon":5.396551,"is_reserved":false,"is_disabled":false,"rental_uris":{"android":"levelo://app?vid=5d0802cf-9073-46b9-84de-f04ccbf1c750","ios":"levelo://app?vid=5d0802cf-9073-46b9-84de-f04ccbf1c750"},"vehicle_type_id":"4","last_reported":1710371235,"current_range_meters":4000,"station_id":"ce4bh012rcd13ifvqcv0","pricing_plan_id":"cebpf4jnsgd1na2vs0mg"},{"bike_id":"7b3bacf8-6f92-4670-938d-d5e357d80aec","system_id":"levelo_inurba_marseille","lat":43.309038,"lon":5.396546,"is_reserved":false,"is_disabled":false,"rental_uris":{"android":"levelo://app?vid=7b3bacf8-6f92-4670-938d-d5e357d80aec","ios":"levelo://app?vid=7b3bacf8-6f92-4670-938d-d5e357d80aec"},"vehicle_type_id":"4","last_reported":1710371235,"current_range_meters":16000,"station_id":"ce4bh012rcd13ifvqcv0","pricing_plan_id":"cebpf4jnsgd1na2vs0mg"},{"bike_id":"d6ae4384-97af-431d-9846-dd242e14c79c","system_id":"levelo_inurba_marseille","lat":43.309038,"lon":5.396546,"is_reserved":false,"is_disabled":false,"rental_uris":{"android":"levelo://app?vid=d6ae4384-97af-431d-9846-dd242e14c79c","ios":"levelo://app?vid=d6ae4384-97af-431d-9846-dd242e14c79c"},"vehicle_type_id":"4","last_reported":1710371235,"current_range_meters":28800,"station_id":"ce4bh012rcd13ifvqcv0","pricing_plan_id":"cebpf4jnsgd1na2vs0mg"},{"bike_id":"b35f7506-c3a4-4545-b3e0-bc4dea0489fc","system_id":"levelo_inurba_marseille","lat":43.309047,"lon":5.396551,"is_reserved":false,"is_disabled":false,"rental_uris":{"android":"levelo://app?vid=b35f7506-c3a4-4545-b3e0-bc4dea0489fc","ios":"levelo://app?vid=b35f7506-c3a4-4545-b3e0-bc4dea0489fc"},"vehicle_type_id":"4","last_reported":1710371235,"current_range_meters":15600,"station_id":"ce4bh012rcd13ifvqcv0","pricing_plan_id":"cebpf4jnsgd1na2vs0mg"},{"bike_id":"76eee499-6652-4c5e-a9d9-295a59f0f053","system_id":"levelo_inurba_marseille","lat":43.292817,"lon":5.379832,"is_reserved":false,"is_disabled":false,"rental_uris":{"android":"levelo://app?vid=76eee499-6652-4c5e-a9d9-295a59f0f053","ios":"levelo://app?vid=76eee499-6652-4c5e-a9d9-295a59f0f053"},"vehicle_type_id":"4","last_reported":1710371235,"current_range_meters":18000,"station_id":"","pricing_plan_id":"cebpf4jnsgd1na2vs0mg"},{"bike_id":"62778cbf-7b6c-4590-8606-9e104730bfaf","system_id":"levelo_inurba_marseille","lat":43.290624,"lon":5.359245,"is_reserved":false,"is_disabled":false,"rental_uris":{"android":"levelo://app?vid=62778cbf-7b6c-4590-8606-9e104730bfaf","ios":"levelo://app?vid=62778cbf-7b6c-4590-8606-9e104730bfaf"},"vehicle_type_id":"4","last_reported":1710371235,"current_range_meters":16400,"station_id":"ce4bha92rcd13ifvqeg0","pricing_plan_id":"cebpf4jnsgd1na2vs0mg"},{"bike_id":"414ad2e9-3dc1-4656-9ef2-f27b88ddc9c0","system_id":"levelo_inurba_marseille","lat":43.290631,"lon":5.359244,"is_reserved":false,"is_disabled":false,"rental_uris":{"android":"levelo://app?vid=414ad2e9-3dc1-4656-9ef2-f27b88ddc9c0","ios":"levelo://app?vid=414ad2e9-3dc1-4656-9ef2-f27b88ddc9c0"},"vehicle_type_id":"4","last_reported":1710371235,"current_range_meters":20400,"station_id":"ce4bha92rcd13ifvqeg0","pricing_plan_id":"cebpf4jnsgd1na2vs0mg"},{"bike_id":"02b38b22-4cfd-4a35-bde4-09aff873f470","system_id":"levelo_inurba_marseille","lat":43.290624,"lon":5.359245,"is_reserved":false,"is_disabled":false,"rental_uris":{"android":"levelo://app?vid=02b38b22-4cfd-4a35-bde4-09aff873f470","ios":"levelo://app?vid=02b38b22-4cfd-4a35-bde4-09aff873f470"},"vehicle_type_id":"4","last_reported":1710371235,"current_range_meters":23200,"station_id":"ce4bha92rcd13ifvqeg0","pricing_plan_id":"cebpf4jnsgd1na2vs0mg"},{"bike_id":"fafccec2-dbba-44b2-9847-b4c10a57c7d7","system_id":"levelo_inurba_marseille","lat":43.290631,"lon":5.359244,"is_reserved":false,"is_disabled":false,"rental_uris":{"android":"levelo://app?vid=fafccec2-dbba-44b2-9847-b4c10a57c7d7","ios":"levelo://app?vid=fafccec2-dbba-44b2-9847-b4c10a57c7d7"},"vehicle_type_id":"4","last_reported":1710371235,"current_range_meters":25600,"station_id":"ce4bha92rcd13ifvqeg0","pricing_plan_id":"cebpf4jnsgd1na2vs0mg"},{"bike_id":"1f2803bc-38d8-4fcc-88a8-cdc6ba8d78dd","system_id":"levelo_inurba_marseille","lat":43.290624,"lon":5.359245,"is_reserved":false,"is_disabled":false,"rental_uris":{"android":"levelo://app?vid=1f2803bc-38d8-4fcc-88a8-cdc6ba8d78dd","ios":"levelo://app?vid=1f2803bc-38d8-4fcc-88a8-cdc6ba8d78dd"},"vehicle_type_id":"4","last_reported":1710371235,"current_range_meters":5200,"station_id":"ce4bha92rcd13ifvqeg0","pricing_plan_id":"cebpf4jnsgd1na2vs0mg"},{"bike_id":"c1674734-4717-43d7-87e9-33c8589467f8","system_id":"levelo_inurba_marseille","lat":43.290631,"lon":5.359244,"is_reserved":false,"is_disabled":false,"rental_uris":{"android":"levelo://app?vid=c1674734-4717-43d7-87e9-33c8589467f8","ios":"levelo://app?vid=c1674734-4717-43d7-87e9-33c8589467f8"},"vehicle_type_id":"4","last_reported":1710371235,"current_range_meters":26000,"station_id":"ce4bha92rcd13ifvqeg0","pricing_plan_id":"cebpf4jnsgd1na2vs0mg"},{"bike_id":"e6336a0e-ce59-4ba3-89a7-14fb0d1b96b9","system_id":"levelo_inurba_marseille","lat":43.290631,"lon":5.359244,"is_reserved":false,"is_disabled":false,"rental_uris":{"android":"levelo://app?vid=e6336a0e-ce59-4ba3-89a7-14fb0d1b96b9","ios":"levelo://app?vid=e6336a0e-ce59-4ba3-89a7-14fb0d1b96b9"},"vehicle_type_id":"4","last_reported":1710371235,"current_range_meters":14800,"station_id":"ce4bha92rcd13ifvqeg0","pricing_plan_id":"cebpf4jnsgd1na2vs0mg"},{"bike_id":"a7767ad0-e1b3-4864-b9e0-9f9f212fe4e8","system_id":"levelo_inurba_marseille","lat":43.29425,"lon":5.38625,"is_reserved":false,"is_disabled":false,"rental_uris":{"android":"levelo://app?vid=a7767ad0-e1b3-4864-b9e0-9f9f212fe4e8","ios":"levelo://app?vid=a7767ad0-e1b3-4864-b9e0-9f9f212fe4e8"},"vehicle_type_id":"4","last_reported":1710371235,"current_range_meters":0,"station_id":"ce4bh2h2rcd13ifvqdh0","pricing_plan_id":"cebpf4jnsgd1na2vs0mg"},{"bike_id":"dc347466-7ba5-4279-999e-56821425356e","system_id":"levelo_inurba_marseille","lat":43.29424,"lon":5.38627,"is_reserved":false,"is_disabled":false,"rental_uris":{"android":"levelo://app?vid=dc347466-7ba5-4279-999e-56821425356e","ios":"levelo://app?vid=dc347466-7ba5-4279-999e-56821425356e"},"vehicle_type_id":"4","last_reported":1710371235,"current_range_meters":0,"station_id":"ce4bh2h2rcd13ifvqdh0","pricing_plan_id":"cebpf4jnsgd1na2vs0mg"},{"bike_id":"8d4ddaa5-920b-4162-afc9-fbef5f20c872","system_id":"levelo_inurba_marseille","lat":43.29424,"lon":5.38629,"is_reserved":false,"is_disabled":false,"rental_uris":{"android":"levelo://app?vid=8d4ddaa5-920b-4162-afc9-fbef5f20c872","ios":"levelo://app?vid=8d4ddaa5-920b-4162-afc9-fbef5f20c872"},"vehicle_type_id":"4","last_reported":1710371235,"current_range_meters":0,"station_id":"ce4bh2h2rcd13ifvqdh0","pricing_plan_id":"cebpf4jnsgd1na2vs0mg"},{"bike_id":"476860b0-eb62-49f7-836a-1a337a03cbc4","system_id":"levelo_inurba_marseille","lat":43.29415,"lon":5.38623,"is_reserved":false,"is_disabled":false,"rental_uris":{"android":"levelo://app?vid=476860b0-eb62-49f7-836a-1a337a03cbc4","ios":"levelo://app?vid=476860b0-eb62-49f7-836a-1a337a03cbc4"},"vehicle_type_id":"4","last_reported":1710371235,"current_range_meters":0,"station_id":"ce4bh2h2rcd13ifvqdh0","pricing_plan_id":"cebpf4jnsgd1na2vs0mg"},{"bike_id":"c2f1b8c9-829d-4525-b079-17b6e436a5bb","system_id":"levelo_inurba_marseille","lat":43.29416,"lon":5.38625,"is_reserved":false,"is_disabled":false,"rental_uris":{"android":"levelo://app?vid=c2f1b8c9-829d-4525-b079-17b6e436a5bb","ios":"levelo://app?vid=c2f1b8c9-829d-4525-b079-17b6e436a5bb"},"vehicle_type_id":"4","last_reported":1710371235,"current_range_meters":0,"station_id":"ce4bh2h2rcd13ifvqdh0","pricing_plan_id":"cebpf4jnsgd1na2vs0mg"},{"bike_id":"5db2a44c-2c88-472f-98e7-788b883a09e8","system_id":"levelo_inurba_marseille","lat":43.29415,"lon":5.38629,"is_reserved":false,"is_disabled":false,"rental_uris":{"android":"levelo://app?vid=5db2a44c-2c88-472f-98e7-788b883a09e8","ios":"levelo://app?vid=5db2a44c-2c88-472f-98e7-788b883a09e8"},"vehicle_type_id":"4","last_reported":1710371235,"current_range_meters":0,"station_id":"ce4bh2h2rcd13ifvqdh0","pricing_plan_id":"cebpf4jnsgd1na2vs0mg"},{"bike_id":"17a8446d-dfeb-4e51-90bf-cc72e22af8bf","system_id":"levelo_inurba_marseille","lat":43.29416,"lon":5.38632,"is_reserved":false,"is_disabled":false,"rental_uris":{"android":"levelo://app?vid=17a8446d-dfeb-4e51-90bf-cc72e22af8bf","ios":"levelo://app?vid=17a8446d-dfeb-4e51-90bf-cc72e22af8bf"},