{"last_updated":1742473156,"ttl":60,"version":"2.2","data":{"bikes":[{"bike_id":"f1904227-8498-4bad-afd0-5918669d0acd","system_id":"levelo_inurba_marseille","lat":43.27041,"lon":5.40272,"is_reserved":false,"is_disabled":false,"rental_uris":{"android":"levelo://app?vid=f1904227-8498-4bad-afd0-5918669d0acd","ios":"levelo://app?vid=f1904227-8498-4bad-afd0-5918669d0acd"},"vehicle_type_id":"4","last_reported":1742473156,"current_range_meters":2800,"station_id":"ce4bhk92rcd13ifvqgc0","pricing_plan_id":"cebpf4jnsgd1na2vs0mg"},{"bike_id":"ca1c0a28-8faf-435f-9d8b-370c3a07ff34","system_id":"levelo_inurba_marseille","lat":43.2416,"lon":5.3638,"is_reserved":false,"is_disabled":false,"rental_uris":{"android":"levelo://app?vid=ca1c0a28-8faf-435f-9d8b-370c3a07ff34","ios":"levelo://app?vid=ca1c0a28-8faf-435f-9d8b-370c3a07ff34"},"vehicle_type_id":"4","last_reported":1742473156,"current_range_meters":2800,"station_id":"cpo36qri1sfpv3e86is0","pricing_plan_id":"cebpf4jnsgd1na2vs0mg"},{"bike_id":"d9caed6f-3c6d-4b01-ba49-e73034f00569","system_id":"levelo_inurba_marseille","lat":43.27027,"lon":5.40236,"is_reserved":false,"is_disabled":false,"rental_uris":{"android":"levelo://app?vid=d9caed6f-3c6d-4b01-ba49-e73034f00569","ios":"levelo://app?vid=d9caed6f-3c6d-4b01-ba49-e73034f00569"},"vehicle_type_id":"4","last_reported":1742473156,"current_range_meters":2800,"station_id":"ce4bhk92rcd13ifvqgc0","pricing_plan_id":"cebpf4jnsgd1na2vs0mg"},{"bike_id":"09966459-4f72-4f9d-b035-cee54a1877a5","system_id":"levelo_inurba_marseille","lat":43.3125,"lon":5.36858,"is_reserved":false,"is_disabled":false,"rental_uris":{"android":"levelo://app?vid=09966459-4f72-4f9d-b035-cee54a1877a5","ios":"levelo://app?vid=09966459-4f72-4f9d-b035-cee54a1877a5"},"vehicle_type_id":"4","last_reported":1742473156,"current_range_meters":2800,"station_id":"ce4bgl92rcd13ifvqbq0","pricing_plan_id":"cebpf4jnsgd1na2vs0mg"},{"bike_id":"fc7dac80-670a-4e3f-bc0a-1e48c9022f97","system_id":"levelo_inurba_marseille","lat":43.28354,"lon":5.38235,"is_reserved":false,"is_disabled":false,"rental_uris":{"android":"levelo://app?vid=fc7dac80-670a-4e3f-bc0a-1e48c9022f97","ios":"levelo://app?vid=fc7dac80-670a-4e3f-bc0a-1e48c9022f97"},"vehicle_type_id":"4","last_reported":1742473156,"current_range_meters":2800,"station_id":"ce4bh412rcd13ifvqdr0","pricing_plan_id":"cebpf4jnsgd1na2vs0mg"},{"bike_id":"3adacf97-82e2-4e32-b35e-27ac7e10e2fc","system_id":"levelo_inurba_marseille","lat":43.27965,"lon":5.38697,"is_reserved":false,"is_disabled":false,"rental_uris":{"android":"levelo://app?vid=3adacf97-82e2-4e32-b35e-27ac7e10e2fc","ios":"levelo://app?vid=3adacf97-82e2-4e32-b35e-27ac7e10e2fc"},"vehicle_type_id":"4","last_reported":1742473156,"current_range_meters":2800,"station_id":"ce4bhg12rcd13ifvqf80","pricing_plan_id":"cebpf4jnsgd1na2vs0mg"},{"bike_id":"93bd096b-db80-4943-883a-ca17ed92fdb5","system_id":"levelo_inurba_marseille","lat":43.27986,"lon":5.41651,"is_reserved":false,"is_disabled":false,"rental_uris":{"android":"levelo://app?vid=93bd096b-db80-4943-883a-ca17ed92fdb5","ios":"levelo://app?vid=93bd096b-db80-4943-883a-ca17ed92fdb5"},"vehicle_type_id":"4","last_reported":1742473156,"current_range_meters":2800,"station_id":"ce4bho12rcd13ifvqh1g","pricing_plan_id":"cebpf4jnsgd1na2vs0mg"},{"bike_id":"6c1383c4-ce25-49bd-9e8f-5404db35746c","system_id":"levelo_inurba_marseille","lat":43.23633,"lon":5.39142,"is_reserved":false,"is_disabled":false,"rental_uris":{"android":"levelo://app?vid=6c1383c4-ce25-49bd-9e8f-5404db35746c","ios":"levelo://app?vid=6c1383c4-ce25-49bd-9e8f-5404db35746c"},"vehicle_type_id":"4","last_reported":1742473156,"current_range_meters":2800,"station_id":"","pricing_plan_id":"cebpf4jnsgd1na2vs0mg"},{"bike_id":"7767134a-25bd-4cb6-8b4e-a37f421883f3","system_id":"levelo_inurba_marseille","lat":43.32486,"lon":5.36572,"is_reserved":false,"is_disabled":false,"rental_uris":{"android":"levelo://app?vid=7767134a-25bd-4cb6-8b4e-a37f421883f3","ios":"levelo://app?vid=7767134a-25bd-4cb6-8b4e-a37f421883f3"},"vehicle_type_id":"4","last_reported":1742473156,"current_range_meters":2800,"station_id":"ce4bhs12rcd13ifvqhvg","pricing_plan_id":"cebpf4jnsgd1na2vs0mg"},{"bike_id":"9721f9de-58f7-4a3b-913c-38d23974bce7","system_id":"levelo_inurba_marseille","lat":43.28426,"lon":5.35003,"is_reserved":false,"is_disabled":false,"rental_uris":{"android":"levelo://app?vid=9721f9de-58f7-4a3b-913c-38d23974bce7","ios":"levelo://app?vid=9721f9de-58f7-4a3b-913c-38d23974bce7"},"vehicle_type_id":"4","last_reported":1742473156,"current_range_meters":3200,"station_id":"ce4bhbh2rcd13ifvqepg","pricing_plan_id":"cebpf4jnsgd1na2vs0mg"},{"bike_id":"3e424286-259b-4659-a322-87e2ecea3a83","system_id":"levelo_inurba_marseille","lat":43.26791,"lon":5.39417,"is_reserved":false,"is_disabled":false,"rental_uris":{"android":"levelo://app?vid=3e424286-259b-4659-a322-87e2ecea3a83","ios":"levelo://app?vid=3e424286-259b-4659-a322-87e2ecea3a83"},"vehicle_type_id":"4","last_reported":1742473156,"current_range_meters":3200,"station_id":"ce4bhh12rcd13ifvqfg0","pricing_plan_id":"cebpf4jnsgd1na2vs0mg"},{"bike_id":"a342afa1-fe1b-4de5-8f98-f3f81167fac6","system_id":"levelo_inurba_marseille","lat":43.22928,"lon":5.35371,"is_reserved":false,"is_disabled":false,"rental_uris":{"android":"levelo://app?vid=a342afa1-fe1b-4de5-8f98-f3f81167fac6","ios":"levelo://app?vid=a342afa1-fe1b-4de5-8f98-f3f81167fac6"},"vehicle_type_id":"4","last_reported":1742473156,"current_range_meters":3200,"station_id":"cpo3532slgdg3j2ikp40","pricing_plan_id":"cebpf4jnsgd1na2vs0mg"},{"bike_id":"6c25cfbd-1f7a-41b1-9966-98ff041098e0","system_id":"levelo_inurba_marseille","lat":43.27375,"lon":5.36255,"is_reserved":false,"is_disabled":false,"rental_uris":{"android":"levelo://app?vid=6c25cfbd-1f7a-41b1-9966-98ff041098e0","ios":"levelo://app?vid=6c25cfbd-1f7a-41b1-9966-98ff041098e0"},"vehicle_type_id":"4","last_reported":1742473156,"current_range_meters":3200,"station_id":"ce4bhbh2rcd13ifvqeo0","pricing_plan_id":"cebpf4jnsgd1na2vs0mg"},{"bike_id":"9e3f78d2-da2f-459a-ae1f-8dbb57f30844","system_id":"levelo_inurba_marseille","lat":43.29599,"lon":5.38103,"is_reserved":false,"is_disabled":false,"rental_uris":{"android":"levelo://app?vid=9e3f78d2-da2f-459a-ae1f-8dbb57f30844","ios":"levelo://app?vid=9e3f78d2-da2f-459a-ae1f-8dbb57f30844"},"vehicle_type_id":"4","last_reported":1742473156,"current_range_meters":3200,"station_id":"ce4bgl12rcd13ifvqbo0","pricing_plan_id":"cebpf4jnsgd1na2vs0mg"},{"bike_id":"a8c3c862-8263-411a-a431-89d0d1a497a2","system_id":"levelo_inurba_marseille","lat":43.31735,"lon":5.40423,"is_reserved":false,"is_disabled":false,"rental_uris":{"android":"levelo://app?vid=a8c3c862-8263-411a-a431-89d0d1a497a2","ios":"levelo://app?vid=a8c3c862-8263-411a-a431-89d0d1a497a2"},"vehicle_type_id":"4","last_reported":1742473156,"current_range_meters":3600,"station_id":"ce4bh012rcd13ifvqd00","pricing_plan_id":"cebpf4jnsgd1na2vs0mg"},{"bike_id":"b5e15382-51f5-4515-8a72-175f844083fa","system_id":"levelo_inurba_marseille","lat":43.30956,"lon":5.39032,"is_reserved":false,"is_disabled":true,"rental_uris":{"android":"levelo://app?vid=b5e15382-51f5-4515-8a72-175f844083fa","ios":"levelo://app?vid=b5e15382-51f5-4515-8a72-175f844083fa"},"vehicle_type_id":"4","last_reported":1742473156,"current_range_meters":3600,"station_id":"ce4bgup2rcd13ifvqco0","pricing_plan_id":"cebpf4jnsgd1na2vs0mg"},{"bike_id":"9156239b-c678-4e94-a3fc-a60ac55fd706","system_id":"levelo_inurba_marseille","lat":43.31082,"lon":5.37591,"is_reserved":false,"is_disabled":false,"rental_uris":{"android":"levelo://app?vid=9156239b-c678-4e94-a3fc-a60ac55fd706","ios":"levelo://app?vid=9156239b-c678-4e94-a3fc-a60ac55fd706"},"vehicle_type_id":"4","last_reported":1742473156,"current_range_meters":4000,"station_id":"","pricing_plan_id":"cebpf4jnsgd1na2vs0mg"},{"bike_id":"ce28ec21-fe4c-4faa-8e7e-ce9767bd4ded","system_id":"levelo_inurba_marseille","lat":43.25828,"lon":5.39432,"is_reserved":false,"is_disabled":false,"rental_uris":{"android":"levelo://app?vid=ce28ec21-fe4c-4faa-8e7e-ce9767bd4ded","ios":"levelo://app?vid=ce28ec21-fe4c-4faa-8e7e-ce9767bd4ded"},"vehicle_type_id":"4","last_reported":1742473156,"current_range_meters":3600,"station_id":"ce4bhip2rcd13ifvqft0","pricing_plan_id":"cebpf4jnsgd1na2vs0mg"},{"bike_id":"ea939fd4-46fb-41eb-9c31-484a9cc566a0","system_id":"levelo_inurba_marseille","lat":43.3114,"lon":5.37801,"is_reserved":false,"is_disabled":false,"rental_uris":{"android":"levelo://app?vid=ea939fd4-46fb-41eb-9c31-484a9cc566a0","ios":"levelo://app?vid=ea939fd4-46fb-41eb-9c31-484a9cc566a0"},"vehicle_type_id":"4","last_reported":1742473156,"current_range_meters":3600,"station_id":"ce4bgt92rcd13ifvqcg0","pricing_plan_id":"cebpf4jnsgd1na2vs0mg"},{"bike_id":"89ec0cd9-fb27-4a74-b399-65006010a265","system_id":"levelo_inurba_marseille","lat":43.24661,"lon":5.38884,"is_reserved":false,"is_disabled":false,"rental_uris":{"android":"levelo://app?vid=89ec0cd9-fb27-4a74-b399-65006010a265","ios":"levelo://app?vid=89ec0cd9-fb27-4a74-b399-65006010a265"},"vehicle_type_id":"4","last_reported":1742473156,"current_range_meters":4000,"station_id":"ce4bhg12rcd13ifvqf60","pricing_plan_id":"cebpf4jnsgd1na2vs0mg"},{"bike_id":"8ae8d754-3227-4207-b8bc-bb4384f4078b","system_id":"levelo_inurba_marseille","lat":43.28105,"lon":5.37829,"is_reserved":false,"is_disabled":false,"rental_uris":{"android":"levelo://app?vid=8ae8d754-3227-4207-b8bc-bb4384f4078b","ios":"levelo://app?vid=8ae8d754-3227-4207-b8bc-bb4384f4078b"},"vehicle_type_id":"4","last_reported":1742473156,"current_range_meters":3600,"station_id":"ce4bha12rcd13ifvqee0","pricing_plan_id":"cebpf4jnsgd1na2vs0mg"},{"bike_id":"9f98a0eb-cf50-4073-834c-23a8e6ad6274","system_id":"levelo_inurba_marseille","lat":43.30593,"lon":5.39362,"is_reserved":false,"is_disabled":false,"rental_uris":{"android":"levelo://app?vid=9f98a0eb-cf50-4073-834c-23a8e6ad6274","ios":"levelo://app?vid=9f98a0eb-cf50-4073-834c-23a8e6ad6274"},"vehicle_type_id":"4","last_reported":1742473156,"current_range_meters":4400,"station_id":"ce4bh0p2rcd13ifvqd80","pricing_plan_id":"cebpf4jnsgd1na2vs0mg"},{"bike_id":"b39eed6c-6f9d-4cea-ad34-25844c9daeaa","system_id":"levelo_inurba_marseille","lat":43.302657,"lon":5.400773,"is_reserved":false,"is_disabled":false,"rental_uris":{"android":"levelo://app?vid=b39eed6c-6f9d-4cea-ad34-25844c9daeaa","ios":"levelo://app?vid=b39eed6c-6f9d-4cea-ad34-25844c9daeaa"},"vehicle_type_id":"4","last_reported":1742473156,"current_range_meters":4400,"station_id":"ce4bgvh2rcd13ifvqcs0","pricing_plan_id":"cebpf4jnsgd1na2vs0mg"},{"bike_id":"30e7ccf6-0518-4d60-bae8-183abb20759b","system_id":"levelo_inurba_marseille","lat":43.29287,"lon":5.38429,"is_reserved":false,"is_disabled":false,"rental_uris":{"android":"levelo://app?vid=30e7ccf6-0518-4d60-bae8-183abb20759b","ios":"levelo://app?vid=30e7ccf6-0518-4d60-bae8-183abb20759b"},"vehicle_type_id":"4","last_reported":1742473156,"current_range_meters":4400,"station_id":"ce4bh692rcd13ifvqea0","pricing_plan_id":"cebpf4jnsgd1na2vs0mg"},{"bike_id":"770a8d6d-1953-448c-92f8-5b95b03d16a0","system_id":"levelo_inurba_marseille","lat":43.23214,"lon":5.35524,"is_reserved":false,"is_disabled":false,"rental_uris":{"android":"levelo://app?vid=770a8d6d-1953-448c-92f8-5b95b03d16a0","ios":"levelo://app?vid=770a8d6d-1953-448c-92f8-5b95b03d16a0"},"vehicle_type_id":"4","last_reported":1742473156,"current_range_meters":4400,"station_id":"ce4bhu92rcd13ifvqi70","pricing_plan_id":"cebpf4jnsgd1na2vs0mg"},{"bike_id":"534d024e-03a1-42f5-9cef-44c0f30c8a24","system_id":"levelo_inurba_marseille","lat":43.26685,"lon":5.38283,"is_reserved":false,"is_disabled":false,"rental_uris":{"android":"levelo://app?vid=534d024e-03a1-42f5-9cef-44c0f30c8a24","ios":"levelo://app?vid=534d024e-03a1-42f5-9cef-44c0f30c8a24"},"vehicle_type_id":"4","last_reported":1742473156,"current_range_meters":4400,"station_id":"ce4bhg92rcd13ifvqf90","pricing_plan_id":"cebpf4jnsgd1na2vs0mg"},{"bike_id":"51303281-4f04-43e8-b00c-08d0d12305ef","system_id":"levelo_inurba_marseille","lat":43.32662,"lon":5.40983,"is_reserved":false,"is_disabled":false,"rental_uris":{"android":"levelo://app?vid=51303281-4f04-43e8-b00c-08d0d12305ef","ios":"levelo://app?vid=51303281-4f04-43e8-b00c-08d0d12305ef"},"vehicle_type_id":"4","last_reported":1742473156,"current_range_meters":4800,"station_id":"ce4bhpp2rcd13ifvqhgg","pricing_plan_id":"cebpf4jnsgd1na2vs0mg"},{"bike_id":"2bfe3aa7-cdec-4b48-868c-64cb235c9f2f","system_id":"levelo_inurba_marseille","lat":43.31162,"lon":5.38726,"is_reserved":false,"is_disabled":false,"rental_uris":{"android":"levelo://app?vid=2bfe3aa7-cdec-4b48-868c-64cb235c9f2f","ios":"levelo://app?vid=2bfe3aa7-cdec-4b48-868c-64cb235c9f2f"},"vehicle_type_id":"4","last_reported":1742473156,"current_range_meters":4800,"station_id":"ce4bgv12rcd13ifvqcp0","pricing_plan_id":"cebpf4jnsgd1na2vs0mg"},{"bike_id":"3c0f86bf-2134-4462-a7ab-79aaede557c9","system_id":"levelo_inurba_marseille","lat":43.3172,"lon":5.43699,"is_reserved":false,"is_disabled":false,"rental_uris":{"android":"levelo://app?vid=3c0f86bf-2134-4462-a7ab-79aaede557c9","ios":"levelo://app?vid=3c0f86bf-2134-4462-a7ab-79aaede557c9"},"vehicle_type_id":"4","last_reported":1742473156,"current_range_meters":4800,"station_id":"ce4bhp92rcd13ifvqhcg","pricing_plan_id":"cebpf4jnsgd1na2vs0mg"},{"bike_id":"ae9b1099-a0c3-4c6b-94c3-7604b9ad0326","system_id":"levelo_inurba_marseille","lat":43.23966,"lon":5.36623,"is_reserved":false,"is_disabled":false,"rental_uris":{"android":"levelo://app?vid=ae9b1099-a0c3-4c6b-94c3-7604b9ad0326","ios":"levelo://app?vid=ae9b1099-a0c3-4c6b-94c3-7604b9ad0326"},"vehicle_type_id":"4","last_reported":1742473156,"current_range_meters":4800,"station_id":"ce4bhi12rcd13ifvqfp0","pricing_plan_id":"cebpf4jnsgd1na2vs0mg"},{"bike_id":"1fe8cbb2-e61f-4748-8f3f-eff906305549","system_id":"levelo_inurba_marseille","lat":43.23037,"lon":5.35502,"is_reserved":false,"is_disabled":false,"rental_uris":{"android":"levelo://app?vid=1fe8cbb2-e61f-4748-8f3f-eff906305549","ios":"levelo://app?vid=1fe8cbb2-e61f-4748-8f3f-eff906305549"},"vehicle_type_id":"4","last_reported":1742473156,"current_range_meters":5600,"station_id":"cpo3342slgdg3j2ifvpg","pricing_plan_id":"cebpf4jnsgd1na2vs0mg"},{"bike_id":"727c2aa1-fc61-478a-828f-de8ac706e90c","system_id":"levelo_inurba_marseille","lat":43.26197,"lon":5.37932,"is_reserved":false,"is_disabled":false,"rental_uris":{"android":"levelo://app?vid=727c2aa1-fc61-478a-828f-de8ac706e90c","ios":"levelo://app?vid=727c2aa1-fc61-478a-828f-de8ac706e90c"},"vehicle_type_id":"4","last_reported":1742473156,"current_range_meters":5600,"station_id":"ce4bhjp2rcd13ifvqg90","pricing_plan_id":"cebpf4jnsgd1na2vs0mg"},{"bike_id":"17dbc2ad-97ff-4990-8bde-33ef48f20f40","system_id":"levelo_inurba_marseille","lat":43.28859,"lon":5.35854,"is_reserved":false,"is_disabled":false,"rental_uris":{"android":"levelo://app?vid=17dbc2ad-97ff-4990-8bde-33ef48f20f40","ios":"levelo://app?vid=17dbc2ad-97ff-4990-8bde-33ef48f20f40"},"vehicle_type_id":"4","last_reported":1742473156,"current_range_meters":6000,"station_id":"ce4bhb12rcd13ifvqem0","pricing_plan_id":"cebpf4jnsgd1na2vs0mg"},{"bike_id":"a28abf16-b269-4dd6-8a6b-7405838384a7","system_id":"levelo_inurba_marseille","lat":43.32484,"lon":5.36589,"is_reserved":false,"is_disabled":false,"rental_uris":{"android":"levelo://app?vid=a28abf16-b269-4dd6-8a6b-7405838384a7","ios":"levelo://app?vid=a28abf16-b269-4dd6-8a6b-7405838384a7"},"vehicle_type_id":"4","last_reported":1742473156,"current_range_meters":6000,"station_id":"ce4bhs12rcd13ifvqhvg","pricing_plan_id":"cebpf4jnsgd1na2vs0mg"},{"bike_id":"5b09ea89-8c25-446c-a5f0-55286cbaad78","system_id":"levelo_inurba_marseille","lat":43.25177,"lon":5.37577,"is_reserved":false,"is_disabled":false,"rental_uris":{"android":"levelo://app?vid=5b09ea89-8c25-446c-a5f0-55286cbaad78","ios":"levelo://app?vid=5b09ea89-8c25-446c-a5f0-55286cbaad78"},"vehicle_type_id":"4","last_reported":1742473156,"current_range_meters":6000,"station_id":"ce4bhhh2rcd13ifvqfk0","pricing_plan_id":"cebpf4jnsgd1na2vs0mg"},{"bike_id":"2fae07c9-076f-4c39-b921-5cc913ddefb5","system_id":"levelo_inurba_marseille","lat":43.29672,"lon":5.3789,"is_reserved":false,"is_disabled":false,"rental_uris":{"android":"levelo://app?vid=2fae07c9-076f-4c39-b921-5cc913ddefb5","ios":"levelo://app?vid=2fae07c9-076f-4c39-b921-5cc913ddefb5"},"vehicle_type_id":"4","last_reported":1742473156,"current_range_meters":6400,"station_id":"","pricing_plan_id":"cebpf4jnsgd1na2vs0mg"},{"bike_id":"8123ae49-99b6-4aea-8569-d3cdab8543ed","system_id":"levelo_inurba_marseille","lat":43.26556,"lon":5.37283,"is_reserved":false,"is_disabled":false,"rental_uris":{"android":"levelo://app?vid=8123ae49-99b6-4aea-8569-d3cdab8543ed","ios":"levelo://app?vid=8123ae49-99b6-4aea-8569-d3cdab8543ed"},"vehicle_type_id":"4","last_reported":1742473156,"current_range_meters":1600,"station_id":"ce4bhg12rcd13ifvqf70","pricing_plan_id":"cebpf4jnsgd1na2vs0mg"},{"bike_id":"dbbdfe22-24f1-4a2c-aa26-284bc58db4c3","system_id":"levelo_inurba_marseille","lat":43.29518,"lon":5.39042,"is_reserved":false,"is_disabled":false,"rental_uris":{"android":"levelo://app?vid=dbbdfe22-24f1-4a2c-aa26-284bc58db4c3","ios":"levelo://app?vid=dbbdfe22-24f1-4a2c-aa26-284bc58db4c3"},"vehicle_type_id":"4","last_reported":1742473156,"current_range_meters":6400,"station_id":"ce4bh3p2rcd13ifvqdp0","pricing_plan_id":"cebpf4jnsgd1na2vs0mg"},{"bike_id":"a2f158af-77e4-4e25-a814-fccde7b2d73a","system_id":"levelo_inurba_marseille","lat":43.27896,"lon":5.38002,"is_reserved":false,"is_disabled":false,"rental_uris":{"android":"levelo://app?vid=a2f158af-77e4-4e25-a814-fccde7b2d73a","ios":"levelo://app?vid=a2f158af-77e4-4e25-a814-fccde7b2d73a"},"vehicle_type_id":"4","last_reported":1742473156,"current_range_meters":6400,"station_id":"ce4bhf92rcd13ifvqf50","pricing_plan_id":"cebpf4jnsgd1na2vs0mg"},{"bike_id":"7c9cf1fe-d9a2-4001-a629-fcc670d7bf93","system_id":"levelo_inurba_marseille","lat":43.32663,"lon":5.40984,"is_reserved":false,"is_disabled":false,"rental_uris":{"android":"levelo://app?vid=7c9cf1fe-d9a2-4001-a629-fcc670d7bf93","ios":"levelo://app?vid=7c9cf1fe-d9a2-4001-a629-fcc670d7bf93"},"vehicle_type_id":"4","last_reported":1742473156,"current_range_meters":6400,"station_id":"ce4bhpp2rcd13ifvqhgg","pricing_plan_id":"cebpf4jnsgd1na2vs0mg"},{"bike_id":"c8caf61f-9c76-4c0d-83e6-884abe469f8d","system_id":"levelo_inurba_marseille","lat":43.30144,"lon":5.38779,"is_reserved":false,"is_disabled":false,"rental_uris":{"android":"levelo://app?vid=c8caf61f-9c76-4c0d-83e6-884abe469f8d","ios":"levelo://app?vid=c8caf61f-9c76-4c0d-83e6-884abe469f8d"},"vehicle_type_id":"4","last_reported":1742473156,"current_range_meters":6400,"station_id":"ce4bghh2rcd13ifvqb60","pricing_plan_id":"cebpf4jnsgd1na2vs0mg"},{"bike_id":"46be5a43-6392-41dd-86fd-6c8fb137fc70","system_id":"levelo_inurba_marseille","lat":43.29005,"lon":5.35629,"is_reserved":false,"is_disabled":false,"rental_uris":{"android":"levelo://app?vid=46be5a43-6392-41dd-86fd-6c8fb137fc70","ios":"levelo://app?vid=46be5a43-6392-41dd-86fd-6c8fb137fc70"},"vehicle_type_id":"4","last_reported":1742473156,"current_range_meters":6000,"station_id":"ce4bhb92rcd13ifvqen0","pricing_plan_id":"cebpf4jnsgd1na2vs0mg"},{"bike_id":"2b95a1e2-c0e3-49a7-9da8-9e00598fb437","system_id":"levelo_inurba_marseille","lat":43.28688,"lon":5.37399,"is_reserved":false,"is_disabled":false,"rental_uris":{"android":"levelo://app?vid=2b95a1e2-c0e3-49a7-9da8-9e00598fb437","ios":"levelo://app?vid=2b95a1e2-c0e3-49a7-9da8-9e00598fb437"},"vehicle_type_id":"4","last_reported":1742473156,"current_range_meters":6400,"station_id":"ce4bh3p2rcd13ifvqdq0","pricing_plan_id":"cebpf4jnsgd1na2vs0mg"},{"bike_id":"0134c4eb-cb81-45fb-8190-07fb52725b22","system_id":"levelo_inurba_marseille","lat":43.27173,"lon":5.40993,"is_reserved":false,"is_disabled":false,"rental_uris":{"android":"levelo://app?vid=0134c4eb-cb81-45fb-8190-07fb52725b22","ios":"levelo://app?vid=0134c4eb-cb81-45fb-8190-07fb52725b22"},"vehicle_type_id":"4","last_reported":1742473156,"current_range_meters":6400,"station_id":"ce4bhl12rcd13ifvqgf0","pricing_plan_id":"cebpf4jnsgd1na2vs0mg"},{"bike_id":"2c19ccb2-df76-4ec4-bc02-1225f1ba868d","system_id":"levelo_inurba_marseille","lat":43.27497,"lon":5.42469,"is_reserved":false,"is_disabled":true,"rental_uris":{"android":"levelo://app?vid=2c19ccb2-df76-4ec4-bc02-1225f1ba868d","ios":"levelo://app?vid=2c19ccb2-df76-4ec4-bc02-1225f1ba868d"},"vehicle_type_id":"4","last_reported":1742473156,"current_range_meters":6400,"station_id":"","pricing_plan_id":"cebpf4jnsgd1na2vs0mg"},{"bike_id":"9c0a205d-4941-47a3-a94a-481f34fa0baa","system_id":"levelo_inurba_marseille","lat":43.29024,"lon":5.38649,"is_reserved":false,"is_disabled":false,"rental_uris":{"android":"levelo://app?vid=9c0a205d-4941-47a3-a94a-481f34fa0baa","ios":"levelo://app?vid=9c0a205d-4941-47a3-a94a-481f34fa0baa"},"vehicle_type_id":"4","last_reported":1742473156,"current_range_meters":6400,"station_id":"ce4bh4p2rcd13ifvqe0g","pricing_plan_id":"cebpf4jnsgd1na2vs0mg"},{"bike_id":"8ece9f02-8a1e-438d-8284-235495791d23","system_id":"levelo_inurba_marseille","lat":43.2723,"lon":5.39225,"is_reserved":false,"is_disabled":false,"rental_uris":{"android":"levelo://app?vid=8ece9f02-8a1e-438d-8284-235495791d23","ios":"levelo://app?vid=8ece9f02-8a1e-438d-8284-235495791d23"},"vehicle_type_id":"4","last_reported":1742473156,"current_range_meters":6400,"station_id":"ce4bhhp2rcd13ifvqfm0","pricing_plan_id":"cebpf4jnsgd1na2vs0mg"},{"bike_id":"87f8221d-e2b7-49ed-a350-def01f2caf86","system_id":"levelo_inurba_marseille","lat":43.29645,"lon":5.37849,"is_reserved":false,"is_disabled":false,"rental_uris":{"android":"levelo://app?vid=87f8221d-e2b7-49ed-a350-def01f2caf86","ios":"levelo://app?vid=87f8221d-e2b7-49ed-a350-def01f2caf86"},"vehicle_type_id":"4","last_reported":1742473156,"current_range_meters":6400,"station_id":"","pricing_plan_id":"cebpf4jnsgd1na2vs0mg"},{"bike_id":"9e7d520e-06b6-47d2-afb2-44c477f900b0","system_id":"levelo_inurba_marseille","lat":43.28729,"lon":5.36086,"is_reserved":false,"is_disabled":false,"rental_uris":{"android":"levelo://app?vid=9e7d520e-06b6-47d2-afb2-44c477f900b0","ios":"levelo://app?vid=9e7d520e-06b6-47d2-afb2-44c477f900b0"},"vehicle_type_id":"4","last_reported":1742473156,"current_range_meters":6800,"station_id":"cki0cbj6b192h4jlfktg","pricing_plan_id":"cebpf4jnsgd1na2vs0mg"},{"bike_id":"d0a24069-cb08-4879-8ddc-731ca8ca2549","system_id":"levelo_inurba_marseille","lat":43.23065,"lon":5.35505,"is_reserved":false,"is_disabled":false,"rental_uris":{"android":"levelo://app?vid=d0a24069-cb08-4879-8ddc-731ca8ca2549","ios":"levelo://app?vid=d0a24069-cb08-4879-8ddc-731ca8ca2549"},"vehicle_type_id":"4","last_reported":1742473156,"current_range_meters":6800,"station_id":"cpo3342slgdg3j2ifvpg","pricing_plan_id":"cebpf4jnsgd1na2vs0mg"},{"bike_id":"5d6040da-a22d-4644-92cc-c182b7481377","system_id":"levelo_inurba_marseille","lat":43.27175,"lon":5.40996,"is_reserved":false,"is_disabled":false,"rental_uris":{"android":"levelo://app?vid=5d6040da-a22d-4644-92cc-c182b7481377","ios":"levelo://app?vid=5d6040da-a22d-4644-92cc-c182b7481377"},"vehicle_type_id":"4","last_reported":1742473156,"current_range_meters":6800,"station_id":"ce4bhl12rcd13ifvqgf0","pricing_plan_id":"cebpf4jnsgd1na2vs0mg"},{"bike_id":"3058eb37-35b9-4277-898b-f9025638e045","system_id":"levelo_inurba_marseille","lat":43.25919,"lon":5.40899,"is_reserved":false,"is_disabled":false,"rental_uris":{"android":"levelo://app?vid=3058eb37-35b9-4277-898b-f9025638e045","ios":"levelo://app?vid=3058eb37-35b9-4277-898b-f9025638e045"},"vehicle_type_id":"4","last_reported":1742473156,"current_range_meters":6800,"station_id":"ce4bhm92rcd13ifvqglg","pricing_plan_id":"cebpf4jnsgd1na2vs0mg"},{"bike_id":"6641d614-2ae6-4c08-a02f-3cdb507a027a","system_id":"levelo_inurba_marseille","lat":43.26063,"lon":5.39398,"is_reserved":false,"is_disabled":false,"rental_uris":{"android":"levelo://app?vid=6641d614-2ae6-4c08-a02f-3cdb507a027a","ios":"levelo://app?vid=6641d614-2ae6-4c08-a02f-3cdb507a027a"},"vehicle_type_id":"4","last_reported":1742473156,"current_range_meters":6800,"station_id":"ce4bhh92rcd13ifvqfj0","pricing_plan_id":"cebpf4jnsgd1na2vs0mg"},{"bike_id":"4e0a029e-d1b7-445c-8044-a51b6ffb8f2e","system_id":"levelo_inurba_marseille","lat":43.31347,"lon":5.36734,"is_reserved":false,"is_disabled":false,"rental_uris":{"android":"levelo://app?vid=4e0a029e-d1b7-445c-8044-a51b6ffb8f2e","ios":"levelo://app?vid=4e0a029e-d1b7-445c-8044-a51b6ffb8f2e"},"vehicle_type_id":"4","last_reported":1742473156,"current_range_meters":6800,"station_id":"ce4bgr92rcd13ifvqc6g","pricing_plan_id":"cebpf4jnsgd1na2vs0mg"},{"bike_id":"d45aa902-4bcb-471b-8a0f-8cdc3416ec8c","system_id":"levelo_inurba_marseille","lat":43.27611,"lon":5.36111,"is_reserved":false,"is_disabled":false,"rental_uris":{"android":"levelo://app?vid=d45aa902-4bcb-471b-8a0f-8cdc3416ec8c","ios":"levelo://app?vid=d45aa902-4bcb-471b-8a0f-8cdc3416ec8c"},"vehicle_type_id":"4","last_reported":1742473156,"current_range_meters":6800,"station_id":"ce4bgj92rcd13ifvqbe0","pricing_plan_id":"cebpf4jnsgd1na2vs0mg"},{"bike_id":"3455258b-4135-46b9-9a26-10bf95160e40","system_id":"levelo_inurba_marseille","lat":43.23188,"lon":5.35552,"is_reserved":false,"is_disabled":false,"rental_uris":{"android":"levelo://app?vid=3455258b-4135-46b9-9a26-10bf95160e40","ios":"levelo://app?vid=3455258b-4135-46b9-9a26-10bf95160e40"},"vehicle_type_id":"4","last_reported":1742473156,"current_range_meters":6800,"station_id":"ce4bhu92rcd13ifvqi70","pricing_plan_id":"cebpf4jnsgd1na2vs0mg"},{"bike_id":"e2373ad1-2b50-4dc9-9234-06298adab2ab","system_id":"levelo_inurba_marseille","lat":43.27315,"lon":5.39109,"is_reserved":false,"is_disabled":false,"rental_uris":{"android":"levelo://app?vid=e2373ad1-2b50-4dc9-9234-06298adab2ab","ios":"levelo://app?vid=e2373ad1-2b50-4dc9-9234-06298adab2ab"},"vehicle_type_id":"4","last_reported":1742473156,"current_range_meters":6800,"station_id":"ce4bhgp2rcd13ifvqfe0","pricing_plan_id":"cebpf4jnsgd1na2vs0mg"},{"bike_id":"56d7a0c4-d537-4eef-81fa-727d31752ff7","system_id":"levelo_inurba_marseille","lat":43.29596,"lon":5.38103,"is_reserved":false,"is_disabled":false,"rental_uris":{"android":"levelo://app?vid=56d7a0c4-d537-4eef-81fa-727d31752ff7","ios":"levelo://app?vid=56d7a0c4-d537-4eef-81fa-727d31752ff7"},"vehicle_type_id":"4","last_reported":1742473156,"current_range_meters":6800,"station_id":"ce4bgl12rcd13ifvqbo0","pricing_plan_id":"cebpf4jnsgd1na2vs0mg"},{"bike_id":"0f635bde-4e1c-4f1b-b735-23eeb41e0e5e","system_id":"levelo_inurba_marseille","lat":43.23972,"lon":5.36623,"is_reserved":false,"is_disabled":false,"rental_uris":{"android":"levelo://app?vid=0f635bde-4e1c-4f1b-b735-23eeb41e0e5e","ios":"levelo://app?vid=0f635bde-4e1c-4f1b-b735-23eeb41e0e5e"},"vehicle_type_id":"4","last_reported":1742473156,"current_range_meters":6800,"station_id":"ce4bhi12rcd13ifvqfp0","pricing_plan_id":"cebpf4jnsgd1na2vs0mg"},{"bike_id":"822481ff-a31f-4bbe-96cd-0c4e5eeafc58","system_id":"levelo_inurba_marseille","lat":43.29527,"lon":5.3855,"is_reserved":false,"is_disabled":false,"rental_uris":{"android":"levelo://app?vid=822481ff-a31f-4bbe-96cd-0c4e5eeafc58","ios":"levelo://app?vid=822481ff-a31f-4bbe-96cd-0c4e5eeafc58"},"vehicle_type_id":"4","last_reported":1742473156,"current_range_meters":6800,"station_id":"ce4bgih2rcd13ifvqba0","pricing_plan_id":"cebpf4jnsgd1na2vs0mg"},{"bike_id":"69e2981b-cf61-41df-a4de-8adb4108b43d","system_id":"levelo_inurba_marseille","lat":43.31367,"lon":5.36736,"is_reserved":false,"is_disabled":false,"rental_uris":{"android":"levelo://app?vid=69e2981b-cf61-41df-a4de-8adb4108b43d","ios":"levelo://app?vid=69e2981b-cf61-41df-a4de-8adb4108b43d"},"vehicle_type_id":"4","last_reported":1742473156,"current_range_meters":6800,"station_id":"ce4bgr92rcd13ifvqc6g","pricing_plan_id":"cebpf4jnsgd1na2vs0mg"},{"bike_id":"516a14f2-e527-4a6d-99db-d5ad118faf7c","system_id":"levelo_inurba_marseille","lat":43.25924,"lon":5.40911,"is_reserved":false,"is_disabled":false,"rental_uris":{"android":"levelo://app?vid=516a14f2-e527-4a6d-99db-d5ad118faf7c","ios":"levelo://app?vid=516a14f2-e527-4a6d-99db-d5ad118faf7c"},"vehicle_type_id":"4","last_reported":1742473156,"current_range_meters":6800,"station_id":"ce4bhm92rcd13ifvqglg","pricing_plan_id":"cebpf4jnsgd1na2vs0mg"},{"bike_id":"cf9fcf7d-e6f9-40aa-b12e-b595d959fc1b","system_id":"levelo_inurba_marseille","lat":43.27979,"lon":5.3875,"is_reserved":false,"is_disabled":false,"rental_uris":{"android":"levelo://app?vid=cf9fcf7d-e6f9-40aa-b12e-b595d959fc1b","ios":"levelo://app?vid=cf9fcf7d-e6f9-40aa-b12e-b595d959fc1b"},"vehicle_type_id":"4","last_reported":1742473156,"current_range_meters":2800,"station_id":"ce4bhg12rcd13ifvqf80","pricing_plan_id":"cebpf4jnsgd1na2vs0mg"},{"bike_id":"ea91aac8-fd90-4aa0-97fd-ec515209a88f","system_id":"levelo_inurba_marseille","lat":43.279743,"lon":5.38731,"is_reserved":false,"is_disabled":false,"rental_uris":{"android":"levelo://app?vid=ea91aac8-fd90-4aa0-97fd-ec515209a88f","ios":"levelo://app?vid=ea91aac8-fd90-4aa0-97fd-ec515209a88f"},"vehicle_type_id":"4","last_reported":1742473156,"current_range_meters":6800,"station_id":"ce4bhg12rcd13ifvqf80","pricing_plan_id":"cebpf4jnsgd1na2vs0mg"},{"bike_id":"0f0379d0-9e31-4d59-aa71-1b8fef29c39c","system_id":"levelo_inurba_marseille","lat":43.25719,"lon":5.41113,"is_reserved":false,"is_disabled":false,"rental_uris":{"android":"levelo://app?vid=0f0379d0-9e31-4d59-aa71-1b8fef29c39c","ios":"levelo://app?vid=0f0379d0-9e31-4d59-aa71-1b8fef29c39c"},"vehicle_type_id":"4","last_reported":1742473156,"current_range_meters":7200,"station_id":"ce4bhkp2rcd13ifvqgd0","pricing_plan_id":"cebpf4jnsgd1na2vs0mg"},{"bike_id":"0722eeb2-556c-4102-bd8c-ad1d72a78d7e","system_id":"levelo_inurba_marseille","lat":43.25111,"lon":5.40319,"is_reserved":false,"is_disabled":false,"rental_uris":{"android":"levelo://app?vid=0722eeb2-556c-4102-bd8c-ad1d72a78d7e","ios":"levelo://app?vid=0722eeb2-556c-4102-bd8c-ad1d72a78d7e"},"vehicle_type_id":"4","last_reported":1742473156,"current_range_meters":7200,"station_id":"ce4bhlh2rcd13ifvqgig","pricing_plan_id":"cebpf4jnsgd1na2vs0mg"},{"bike_id":"b7d7f342-1a92-4d45-8c3a-58d5270f4a90","system_id":"levelo_inurba_marseille","lat":43.25915,"lon":5.40879,"is_reserved":false,"is_disabled":false,"rental_uris":{"android":"levelo://app?vid=b7d7f342-1a92-4d45-8c3a-58d5270f4a90","ios":"levelo://app?vid=b7d7f342-1a92-4d45-8c3a-58d5270f4a90"},"vehicle_type_id":"4","last_reported":1742473156,"current_range_meters":7200,"station_id":"ce4bhm92rcd13ifvqglg","pricing_plan_id":"cebpf4jnsgd1na2vs0mg"},{"bike_id":"7ee7ba8b-ed42-438f-bc33-b50333ce5cdb","system_id":"levelo_inurba_marseille","lat":43.30305,"lon":5.36887,"is_reserved":false,"is_disabled":false,"rental_uris":{"android":"levelo://app?vid=7ee7ba8b-ed42-438f-bc33-b50333ce5cdb","ios":"levelo://app?vid=7ee7ba8b-ed42-438f-bc33-b50333ce5cdb"},"vehicle_type_id":"4","last_reported":1742473156,"current_range_meters":7200,"station_id":"ce4bgqh2rcd13ifvqc5g","pricing_plan_id":"cebpf4jnsgd1na2vs0mg"},{"bike_id":"87eed296-e495-446e-bd56-25fd51fbe546","system_id":"levelo_inurba_marseille","lat":43.27833,"lon":5.39218,"is_reserved":false,"is_disabled":false,"rental_uris":{"android":"levelo://app?vid=87eed296-e495-446e-bd56-25fd51fbe546","ios":"levelo://app?vid=87eed296-e495-446e-bd56-25fd51fbe546"},"vehicle_type_id":"4","last_reported":1742473156,"current_range_meters":6800,"station_id":"ce4bhjp2rcd13ifvqga0","pricing_plan_id":"cebpf4jnsgd1na2vs0mg"},{"bike_id":"7398c73c-21e1-4756-b83c-8834e4fdc572","system_id":"levelo_inurba_marseille","lat":43.30927,"lon":5.40144,"is_reserved":false,"is_disabled":false,"rental_uris":{"android":"levelo://app?vid=7398c73c-21e1-4756-b83c-8834e4fdc572","ios":"levelo://app?vid=7398c73c-21e1-4756-b83c-8834e4fdc572"},"vehicle_type_id":"4","last_reported":1742473156,"current_range_meters":7200,"station_id":"ce4bgvp2rcd13ifvqct0","pricing_plan_id":"cebpf4jnsgd1na2vs0mg"},{"bike_id":"1fea0b3c-94ab-41af-b18e-d9bbaa7dda49","system_id":"levelo_inurba_marseille","lat":43.31726,"lon":5.43713,"is_reserved":false,"is_disabled":false,"rental_uris":{"android":"levelo://app?vid=1fea0b3c-94ab-41af-b18e-d9bbaa7dda49","ios":"levelo://app?vid=1fea0b3c-94ab-41af-b18e-d9bbaa7dda49"},"vehicle_type_id":"4","last_reported":1742473156,"current_range_meters":7200,"station_id":"ce4bhp92rcd13ifvqhcg","pricing_plan_id":"cebpf4jnsgd1na2vs0mg"},{"bike_id":"350538b7-69e1-4072-8e2b-433c59450563","system_id":"levelo_inurba_marseille","lat":43.24181,"lon":5.39745,"is_reserved":false,"is_disabled":false,"rental_uris":{"android":"levelo://app?vid=350538b7-69e1-4072-8e2b-433c59450563","ios":"levelo://app?vid=350538b7-69e1-4072-8e2b-433c59450563"},"vehicle_type_id":"4","last_reported":1742473156,"current_range_meters":7200,"station_id":"ce4bhn12rcd13ifvqgpg","pricing_plan_id":"cebpf4jnsgd1na2vs0mg"},{"bike_id":"c22de885-16c5-4c6e-b1c1-bd13bb312ed1","system_id":"levelo_inurba_marseille","lat":43.23073,"lon":5.35486,"is_reserved":false,"is_disabled":false,"rental_uris":{"android":"levelo://app?vid=c22de885-16c5-4c6e-b1c1-bd13bb312ed1","ios":"levelo://app?vid=c22de885-16c5-4c6e-b1c1-bd13bb312ed1"},"vehicle_type_id":"4","last_reported":1742473156,"current_range_meters":7200,"station_id":"cpo3342slgdg3j2ifvpg","pricing_plan_id":"cebpf4jnsgd1na2vs0mg"},{"bike_id":"fa0437cf-a815-4fee-83e9-6d3dae573a83","system_id":"levelo_inurba_marseille","lat":43.3374,"lon":5.39176,"is_reserved":false,"is_disabled":false,"rental_uris":{"android":"levelo://app?vid=fa0437cf-a815-4fee-83e9-6d3dae573a83","ios":"levelo://app?vid=fa0437cf-a815-4fee-83e9-6d3dae573a83"},"vehicle_type_id":"4","last_reported":1742473156,"current_range_meters":7200,"station_id":"ce4bhr92rcd13ifvqhsg","pricing_plan_id":"cebpf4jnsgd1na2vs0mg"},{"bike_id":"35971730-6c6f-4719-99f2-a8cdad28de63","system_id":"levelo_inurba_marseille","lat":43.29896,"lon":5.43658,"is_reserved":false,"is_disabled":false,"rental_uris":{"android":"levelo://app?vid=35971730-6c6f-4719-99f2-a8cdad28de63","ios":"levelo://app?vid=35971730-6c6f-4719-99f2-a8cdad28de63"},"vehicle_type_id":"4","last_reported":1742473156,"current_range_meters":7200,"station_id":"ce4bhpp2rcd13ifvqhfg","pricing_plan_id":"cebpf4jnsgd1na2vs0mg"},{"bike_id":"06d9fa0c-f8c0-4194-8154-73dd60e029d3","system_id":"levelo_inurba_marseille","lat":43.31359,"lon":5.38489,"is_reserved":false,"is_disabled":false,"rental_uris":{"android":"levelo://app?vid=06d9fa0c-f8c0-4194-8154-73dd60e029d3","ios":"levelo://app?vid=06d9fa0c-f8c0-4194-8154-73dd60e029d3"},"vehicle_type_id":"4","last_reported":1742473156,"current_range_meters":8000,"station_id":"ce4bgt92rcd13ifvqcf0","pricing_plan_id":"cebpf4jnsgd1na2vs0mg"},{"bike_id":"c76a4d35-3f4b-4728-a54f-decfdc407403","system_id":"levelo_inurba_marseille","lat":43.24678,"lon":5.38155,"is_reserved":false,"is_disabled":false,"rental_uris":{"android":"levelo://app?vid=c76a4d35-3f4b-4728-a54f-decfdc407403","ios":"levelo://app?vid=c76a4d35-3f4b-4728-a54f-decfdc407403"},"vehicle_type_id":"4","last_reported":1742473156,"current_range_meters":8000,"station_id":"ce4bhih2rcd13ifvqfr0","pricing_plan_id":"cebpf4jnsgd1na2vs0mg"},{"bike_id":"bfd67b10-fd7c-4b25-bc6e-0830b23c1f4b","system_id":"levelo_inurba_marseille","lat":43.25828,"lon":5.39422,"is_reserved":false,"is_disabled":false,"rental_uris":{"android":"levelo://app?vid=bfd67b10-fd7c-4b25-bc6e-0830b23c1f4b","ios":"levelo://app?vid=bfd67b10-fd7c-4b25-bc6e-0830b23c1f4b"},"vehicle_type_id":"4","last_reported":1742473156,"current_range_meters":8000,"station_id":"ce4bhip2rcd13ifvqft0","pricing_plan_id":"cebpf4jnsgd1na2vs0mg"},{"bike_id":"fa1662a9-4eda-49e6-92dc-fad2cd424f84","system_id":"levelo_inurba_marseille","lat":43.24159,"lon":5.36411,"is_reserved":false,"is_disabled":false,"rental_uris":{"android":"levelo://app?vid=fa1662a9-4eda-49e6-92dc-fad2cd424f84","ios":"levelo://app?vid=fa1662a9-4eda-49e6-92dc-fad2cd424f84"},"vehicle_type_id":"4","last_reported":1742473156,"current_range_meters":8000,"station_id":"cpo36qri1sfpv3e86is0","pricing_plan_id":"cebpf4jnsgd1na2vs0mg"},{"bike_id":"bca98eae-f924-4197-9a72-2c2374aeed13","system_id":"levelo_inurba_marseille","lat":43.29617,"lon":5.37717,"is_reserved":false,"is_disabled":false,"rental_uris":{"android":"levelo://app?vid=bca98eae-f924-4197-9a72-2c2374aeed13","ios":"levelo://app?vid=bca98eae-f924-4197-9a72-2c2374aeed13"},"vehicle_type_id":"4","last_reported":1742473156,"current_range_meters":7200,"station_id":"ce4bgi92rcd13ifvqb90","pricing_plan_id":"cebpf4jnsgd1na2vs0mg"},{"bike_id":"02f43b01-3b74-45fa-a40e-2df823c84cda","system_id":"levelo_inurba_marseille","lat":43.24181,"lon":5.3974,"is_reserved":false,"is_disabled":false,"rental_uris":{"android":"levelo://app?vid=02f43b01-3b74-45fa-a40e-2df823c84cda","ios":"levelo://app?vid=02f43b01-3b74-45fa-a40e-2df823c84cda"},"vehicle_type_id":"4","last_reported":1742473156,"current_range_meters":8000,"station_id":"ce4bhn12rcd13ifvqgpg","pricing_plan_id":"cebpf4jnsgd1na2vs0mg"},{"bike_id":"9d26c008-8ec1-4269-9cd2-f45774f03ccb","system_id":"levelo_inurba_marseille","lat":43.27946,"lon":5.37939,"is_reserved":false,"is_disabled":false,"rental_uris":{"android":"levelo://app?vid=9d26c008-8ec1-4269-9cd2-f45774f03ccb","ios":"levelo://app?vid=9d26c008-8ec1-4269-9cd2-f45774f03ccb"},"vehicle_type_id":"4","last_reported":1742473156,"current_range_meters":8000,"station_id":"","pricing_plan_id":"cebpf4jnsgd1na2vs0mg"},{"bike_id":"f8e532d6-e317-445d-91cb-19a6e01b4151","system_id":"levelo_inurba_marseille","lat":43.25954,"lon":5.40906,"is_reserved":false,"is_disabled":false,"rental_uris":{"android":"levelo://app?vid=f8e532d6-e317-445d-91cb-19a6e01b4151","ios":"levelo://app?vid=f8e532d6-e317-445d-91cb-19a6e01b4151"},"vehicle_type_id":"4","last_reported":1742473156,"current_range_meters":8000,"station_id":"ce4bhm92rcd13ifvqglg","pricing_plan_id":"cebpf4jnsgd1na2vs0mg"},{"bike_id":"a8b8dae1-87ef-4f8a-a2c8-fe9fd9bf0f77","system_id":"levelo_inurba_marseille","lat":43.23552,"lon":5.37734,"is_reserved":false,"is_disabled":false,"rental_uris":{"android":"levelo://app?vid=a8b8dae1-87ef-4f8a-a2c8-fe9fd9bf0f77","ios":"levelo://app?vid=a8b8dae1-87ef-4f8a-a2c8-fe9fd9bf0f77"},"vehicle_type_id":"4","last_reported":1742473156,"current_range_meters":8400,"station_id":"","pricing_plan_id":"cebpf4jnsgd1na2vs0mg"},{"bike_id":"9324ce0a-dc57-4707-91d9-46e15aa58d8e","system_id":"levelo_inurba_marseille","lat":43.27545,"lon":5.3845,"is_reserved":false,"is_disabled":false,"rental_uris":{"android":"levelo://app?vid=9324ce0a-dc57-4707-91d9-46e15aa58d8e","ios":"levelo://app?vid=9324ce0a-dc57-4707-91d9-46e15aa58d8e"},"vehicle_type_id":"4","last_reported":1742473156,"current_range_meters":8400,"station_id":"ce4bhh92rcd13ifvqfi0","pricing_plan_id":"cebpf4jnsgd1na2vs0mg"},{"bike_id":"c23775db-32d3-44dd-9499-441f6cc0e37b","system_id":"levelo_inurba_marseille","lat":43.255,"lon":5.37652,"is_reserved":false,"is_disabled":false,"rental_uris":{"android":"levelo://app?vid=c23775db-32d3-44dd-9499-441f6cc0e37b","ios":"levelo://app?vid=c23775db-32d3-44dd-9499-441f6cc0e37b"},"vehicle_type_id":"4","last_reported":1742473156,"current_range_meters":8400,"station_id":"ce4bhh12rcd13ifvqff0","pricing_plan_id":"cebpf4jnsgd1na2vs0mg"},{"bike_id":"1d88d6ad-cc36-4cac-ba43-a0c0a09f760d","system_id":"levelo_inurba_marseille","lat":43.25008,"lon":5.38884,"is_reserved":false,"is_disabled":false,"rental_uris":{"android":"levelo://app?vid=1d88d6ad-cc36-4cac-ba43-a0c0a09f760d","ios":"levelo://app?vid=1d88d6ad-cc36-4cac-ba43-a0c0a09f760d"},"vehicle_type_id":"4","last_reported":1742473156,"current_range_meters":8400,"station_id":"ce4bhgp2rcd13ifvqfd0","pricing_plan_id":"cebpf4jnsgd1na2vs0mg"},{"bike_id":"0b74de9f-e2b4-4a02-b6c3-278b27f0b52d","system_id":"levelo_inurba_marseille","lat":43.2314,"lon":5.43714,"is_reserved":false,"is_disabled":false,"rental_uris":{"android":"levelo://app?vid=0b74de9f-e2b4-4a02-b6c3-278b27f0b52d","ios":"levelo://app?vid=0b74de9f-e2b4-4a02-b6c3-278b27f0b52d"},"vehicle_type_id":"4","last_reported":1742473156,"current_range_meters":8400,"station_id":"ce4bhmp2rcd13ifvqgog","pricing_plan_id":"cebpf4jnsgd1na2vs0mg"},{"bike_id":"f73ea29f-f283-48fd-b3f6-955c325c870d","system_id":"levelo_inurba_marseille","lat":43.25949,"lon":5.40894,"is_reserved":false,"is_disabled":false,"rental_uris":{"android":"levelo://app?vid=f73ea29f-f283-48fd-b3f6-955c325c870d","ios":"levelo://app?vid=f73ea29f-f283-48fd-b3f6-955c325c870d"},"vehicle_type_id":"4","last_reported":1742473156,"current_range_meters":8400,"station_id":"ce4bhm92rcd13ifvqglg","pricing_plan_id":"cebpf4jnsgd1na2vs0mg"},{"bike_id":"8a23c3e3-2c50-4427-a456-769d00dddd3a","system_id":"levelo_inurba_marseille","lat":43.2993,"lon":5.37464,"is_reserved":false,"is_disabled":false,"rental_uris":{"android":"levelo://app?vid=8a23c3e3-2c50-4427-a456-769d00dddd3a","ios":"levelo://app?vid=8a23c3e3-2c50-4427-a456-769d00dddd3a"},"vehicle_type_id":"4","last_reported":1742473156,"current_range_meters":8400,"station_id":"ce4bgjh2rcd13ifvqbg0","pricing_plan_id":"cebpf4jnsgd1na2vs0mg"},{"bike_id":"3691e12e-962f-4298-9170-1cb5d85d0057","system_id":"levelo_inurba_marseille","lat":43.31369,"lon":5.36748,"is_reserved":false,"is_disabled":false,"rental_uris":{"android":"levelo://app?vid=3691e12e-962f-4298-9170-1cb5d85d0057","ios":"levelo://app?vid=3691e12e-962f-4298-9170-1cb5d85d0057"},"vehicle_type_id":"4","last_reported":1742473156,"current_range_meters":8400,"station_id":"ce4bgr92rcd13ifvqc6g","pricing_plan_id":"cebpf4jnsgd1na2vs0mg"},{"bike_id":"4a05e102-8e19-4e6a-ba1e-3e24c8865706","system_id":"levelo_inurba_marseille","lat":43.29607,"lon":5.37709,"is_reserved":false,"is_disabled":false,"rental_uris":{"android":"levelo://app?vid=4a05e102-8e19-4e6a-ba1e-3e24c8865706","ios":"levelo://app?vid=4a05e102-8e19-4e6a-ba1e-3e24c8865706"},"vehicle_type_id":"4","last_reported":1742473156,"current_range_meters":8400,"station_id":"ce4bgi92rcd13ifvqb90","pricing_plan_id":"cebpf4jnsgd1na2vs0mg"},{"bike_id":"176d2e0b-da43-4b98-b92e-b45d4ab12b2f","system_id":"levelo_inurba_marseille","lat":43.30223,"lon":5.38443,"is_reserved":false,"is_disabled":false,"rental_uris":{"android":"levelo://app?vid=176d2e0b-da43-4b98-b92e-b45d4ab12b2f","ios":"levelo://app?vid=176d2e0b-da43-4b98-b92e-b45d4ab12b2f"},"vehicle_type_id":"4","last_reported":1742473156,"current_range_meters":8400,"station_id":"","pricing_plan_id":"cebpf4jnsgd1na2vs0mg"},{"bike_id":"6eb98e18-92f8-411c-92c0-82d5569fb85c","system_id":"levelo_inurba_marseille","lat":43.32345,"lon":5.36743,"is_reserved":false,"is_disabled":false,"rental_uris":{"android":"levelo://app?vid=6eb98e18-92f8-411c-92c0-82d5569fb85c","ios":"levelo://app?vid=6eb98e18-92f8-411c-92c0-82d5569fb85c"},"vehicle_type_id":"4","last_reported":1742473156,"current_range_meters":8800,"station_id":"ce4bhsh2rcd13ifvqi2g","pricing_plan_id":"cebpf4jnsgd1na2vs0mg"},{"bike_id":"ee2d4e07-ff9c-4a7b-9e71-b0e6e842d986","system_id":"levelo_inurba_marseille","lat":43.29549,"lon":5.37504,"is_reserved":false,"is_disabled":true,"rental_uris":{"android":"levelo://app?vid=ee2d4e07-ff9c-4a7b-9e71-b0e6e842d986","ios":"levelo://app?vid=ee2d4e07-ff9c-4a7b-9e71-b0e6e842d986"},"vehicle_type_id":"4","last_reported":1742473156,"current_range_meters":8800,"station_id":"ce4bgkp2rcd13ifvqbmg","pricing_plan_id":"cebpf4jnsgd1na2vs0mg"},{"bike_id":"db1b6e42-64fc-4667-81de-b057d99f70b1","system_id":"levelo_inurba_marseille","lat":43.31837,"lon":5.3745,"is_reserved":false,"is_disabled":false,"rental_uris":{"android":"levelo://app?vid=db1b6e42-64fc-4667-81de-b057d99f70b1","ios":"levelo://app?vid=db1b6e42-64fc-4667-81de-b057d99f70b1"},"vehicle_type_id":"4","last_reported":1742473156,"current_range_meters":8800,"station_id":"","pricing_plan_id":"cebpf4jnsgd1na2vs0mg"},{"bike_id":"fc7d3299-db9a-40a4-b62c-8b438c38430d","system_id":"levelo_inurba_marseille","lat":43.28974,"lon":5.37843,"is_reserved":false,"is_disabled":false,"rental_uris":{"android":"levelo://app?vid=fc7d3299-db9a-40a4-b62c-8b438c38430d","ios":"levelo://app?vid=fc7d3299-db9a-40a4-b62c-8b438c38430d"},"vehicle_type_id":"4","last_reported":1742473156,"current_range_meters":8800,"station_id":"ce4bh9p2rcd13ifvqed0","pricing_plan_id":"cebpf4jnsgd1na2vs0mg"},{"bike_id":"df8fdc72-f4f0-42f3-90b7-957801e7040f","system_id":"levelo_inurba_marseille","lat":43.24081,"lon":5.3776,"is_reserved":false,"is_disabled":false,"rental_uris":{"android":"levelo://app?vid=df8fdc72-f4f0-42f3-90b7-957801e7040f","ios":"levelo://app?vid=df8fdc72-f4f0-42f3-90b7-957801e7040f"},"vehicle_type_id":"4","last_reported":1742473156,"current_range_meters":8800,"station_id":"ce4bhnp2rcd13ifvqgvg","pricing_plan_id":"cebpf4jnsgd1na2vs0mg"},{"bike_id":"f386fc2f-79c1-4753-b715-4907e9ae6367","system_id":"levelo_inurba_marseille","lat":43.29546,"lon":5.42287,"is_reserved":false,"is_disabled":false,"rental_uris":{"android":"levelo://app?vid=f386fc2f-79c1-4753-b715-4907e9ae6367","ios":"levelo://app?vid=f386fc2f-79c1-4753-b715-4907e9ae6367"},"vehicle_type_id":"4","last_reported":1742473156,"current_range_meters":8800,"station_id":"ce4bhph2rcd13ifvqhdg","pricing_plan_id":"cebpf4jnsgd1na2vs0mg"},{"bike_id":"f32def60-4f1a-4807-ac2f-c107a8732cdb","system_id":"levelo_inurba_marseille","lat":43.23154,"lon":5.43714,"is_reserved":false,"is_disabled":false,"rental_uris":{"android":"levelo://app?vid=f32def60-4f1a-4807-ac2f-c107a8732cdb","ios":"levelo://app?vid=f32def60-4f1a-4807-ac2f-c107a8732cdb"},"vehicle_type_id":"4","last_reported":1742473156,"current_range_meters":8800,"station_id":"ce4bhmp2rcd13ifvqgog","pricing_plan_id":"cebpf4jnsgd1na2vs0mg"},{"bike_id":"f4c4bf6d-48a4-4198-942b-eda89b945e41","system_id":"levelo_inurba_marseille","lat":43.27371,"lon":5.36263,"is_reserved":false,"is_disabled":false,"rental_uris":{"android":"levelo://app?vid=f4c4bf6d-48a4-4198-942b-eda89b945e41","ios":"levelo://app?vid=f4c4bf6d-48a4-4198-942b-eda89b945e41"},"vehicle_type_id":"4","last_reported":1742473156,"current_range_meters":8800,"station_id":"ce4bhbh2rcd13ifvqeo0","pricing_plan_id":"cebpf4jnsgd1na2vs0mg"},{"bike_id":"e6c8473b-6f16-40c7-9d09-903e0bcd4e87","system_id":"levelo_inurba_marseille","lat":43.32588,"lon":5.41944,"is_reserved":false,"is_disabled":false,"rental_uris":{"android":"levelo://app?vid=e6c8473b-6f16-40c7-9d09-903e0bcd4e87","ios":"levelo://app?vid=e6c8473b-6f16-40c7-9d09-903e0bcd4e87"},"vehicle_type_id":"4","last_reported":1742473156,"current_range_meters":8800,"station_id":"","pricing_plan_id":"cebpf4jnsgd1na2vs0mg"},{"bike_id":"471b8c1a-1a85-4080-b533-fb41f3dbfd81","system_id":"levelo_inurba_marseille","lat":43.23177,"lon":5.35561,"is_reserved":false,"is_disabled":false,"rental_uris":{"android":"levelo://app?vid=471b8c1a-1a85-4080-b533-fb41f3dbfd81","ios":"levelo://app?vid=471b8c1a-1a85-4080-b533-fb41f3dbfd81"},"vehicle_type_id":"4","last_reported":1742473156,"current_range_meters":8800,"station_id":"ce4bhu92rcd13ifvqi70","pricing_plan_id":"cebpf4jnsgd1na2vs0mg"},{"bike_id":"c6c8dd2d-5b6e-4c3a-8293-f6b60960b982","system_id":"levelo_inurba_marseille","lat":43.3088,"lon":5.37413,"is_reserved":false,"is_disabled":false,"rental_uris":{"android":"levelo://app?vid=c6c8dd2d-5b6e-4c3a-8293-f6b60960b982","ios":"levelo://app?vid=c6c8dd2d-5b6e-4c3a-8293-f6b60960b982"},"vehicle_type_id":"4","last_reported":1742473156,"current_range_meters":8800,"station_id":"","pricing_plan_id":"cebpf4jnsgd1na2vs0mg"},{"bike_id":"dfe5d08b-1884-4a75-865b-d27cd64dad11","system_id":"levelo_inurba_marseille","lat":43.29924,"lon":5.38135,"is_reserved":false,"is_disabled":false,"rental_uris":{"android":"levelo://app?vid=dfe5d08b-1884-4a75-865b-d27cd64dad11","ios":"levelo://app?vid=dfe5d08b-1884-4a75-865b-d27cd64dad11"},"vehicle_type_id":"4","last_reported":1742473156,"current_range_meters":9200,"station_id":"ce4bgj12rcd13ifvqbc0","pricing_plan_id":"cebpf4jnsgd1na2vs0mg"},{"bike_id":"9b2a4ae1-45d2-42a7-b1d8-970226b193d0","system_id":"levelo_inurba_marseille","lat":43.24176,"lon":5.39729,"is_reserved":false,"is_disabled":false,"rental_uris":{"android":"levelo://app?vid=9b2a4ae1-45d2-42a7-b1d8-970226b193d0","ios":"levelo://app?vid=9b2a4ae1-45d2-42a7-b1d8-970226b193d0"},"vehicle_type_id":"4","last_reported":1742473156,"current_range_meters":9200,"station_id":"ce4bhn12rcd13ifvqgpg","pricing_plan_id":"cebpf4jnsgd1na2vs0mg"},{"bike_id":"671210b1-9e8f-4893-953f-985ab8b97e34","system_id":"levelo_inurba_marseille","lat":43.32112,"lon":5.36766,"is_reserved":false,"is_disabled":false,"rental_uris":{"android":"levelo://app?vid=671210b1-9e8f-4893-953f-985ab8b97e34","ios":"levelo://app?vid=671210b1-9e8f-4893-953f-985ab8b97e34"},"vehicle_type_id":"4","last_reported":1742473156,"current_range_meters":9200,"station_id":"ce4bhrh2rcd13ifvqhug","pricing_plan_id":"cebpf4jnsgd1na2vs0mg"},{"bike_id":"97dd53ba-93f3-4994-a43c-245c31357955","system_id":"levelo_inurba_marseille","lat":43.26944,"lon":5.38636,"is_reserved":false,"is_disabled":false,"rental_uris":{"android":"levelo://app?vid=97dd53ba-93f3-4994-a43c-245c31357955","ios":"levelo://app?vid=97dd53ba-93f3-4994-a43c-245c31357955"},"vehicle_type_id":"4","last_reported":1742473156,"current_range_meters":9200,"station_id":"ce4bhh92rcd13ifvqfh0","pricing_plan_id":"cebpf4jnsgd1na2vs0mg"},{"bike_id":"9b1ab9d1-6497-43c1-8958-d421383bc8b1","system_id":"levelo_inurba_marseille","lat":43.24076,"lon":5.37755,"is_reserved":false,"is_disabled":false,"rental_uris":{"android":"levelo://app?vid=9b1ab9d1-6497-43c1-8958-d421383bc8b1","ios":"levelo://app?vid=9b1ab9d1-6497-43c1-8958-d421383bc8b1"},"vehicle_type_id":"4","last_reported":1742473156,"current_range_meters":9200,"station_id":"ce4bhnp2rcd13ifvqgvg","pricing_plan_id":"cebpf4jnsgd1na2vs0mg"},{"bike_id":"5bb77139-1578-4a8e-8114-9c0f2450d678","system_id":"levelo_inurba_marseille","lat":43.30548,"lon":5.36514,"is_reserved":false,"is_disabled":true,"rental_uris":{"android":"levelo://app?vid=5bb77139-1578-4a8e-8114-9c0f2450d678","ios":"levelo://app?vid=5bb77139-1578-4a8e-8114-9c0f2450d678"},"vehicle_type_id":"4","last_reported":1742473156,"current_range_meters":9200,"station_id":"ce4bgs12rcd13ifvqcag","pricing_plan_id":"cebpf4jnsgd1na2vs0mg"},{"bike_id":"94c2100e-755d-464b-a661-a5df225a4ca2","system_id":"levelo_inurba_marseille","lat":43.30252,"lon":5.40053,"is_reserved":false,"is_disabled":false,"rental_uris":{"android":"levelo://app?vid=94c2100e-755d-464b-a661-a5df225a4ca2","ios":"levelo://app?vid=94c2100e-755d-464b-a661-a5df225a4ca2"},"vehicle_type_id":"4","last_reported":1742473156,"current_range_meters":9200,"station_id":"ce4bgvh2rcd13ifvqcs0","pricing_plan_id":"cebpf4jnsgd1na2vs0mg"},{"bike_id":"cb6062cd-3cfa-4917-b79b-5707b99e3c03","system_id":"levelo_inurba_marseille","lat":43.321185,"lon":5.367534,"is_reserved":false,"is_disabled":false,"rental_uris":{"android":"levelo://app?vid=cb6062cd-3cfa-4917-b79b-5707b99e3c03","ios":"levelo://app?vid=cb6062cd-3cfa-4917-b79b-5707b99e3c03"},"vehicle_type_id":"4","last_reported":1742473156,"current_range_meters":9600,"station_id":"ce4bho92rcd13ifvqh3g","pricing_plan_id":"cebpf4jnsgd1na2vs0mg"},{"bike_id":"3d53a225-3b59-46df-9955-34f6b1e8305f","system_id":"levelo_inurba_marseille","lat":43.29711,"lon":5.3661,"is_reserved":false,"is_disabled":false,"rental_uris":{"android":"levelo://app?vid=3d53a225-3b59-46df-9955-34f6b1e8305f","ios":"levelo://app?vid=3d53a225-3b59-46df-9955-34f6b1e8305f"},"vehicle_type_id":"4","last_reported":1742473156,"current_range_meters":9600,"station_id":"ce4bgn12rcd13ifvqbt0","pricing_plan_id":"cebpf4jnsgd1na2vs0mg"},{"bike_id":"f9e6c2b6-66e5-4331-9b55-c46b80fddf34","system_id":"levelo_inurba_marseille","lat":43.28264,"lon":5.35074,"is_reserved":false,"is_disabled":false,"rental_uris":{"android":"levelo://app?vid=f9e6c2b6-66e5-4331-9b55-c46b80fddf34","ios":"levelo://app?vid=f9e6c2b6-66e5-4331-9b55-c46b80fddf34"},"vehicle_type_id":"4","last_reported":1742473156,"current_range_meters":9600,"station_id":"ce4bhbp2rcd13ifvqerg","pricing_plan_id":"cebpf4jnsgd1na2vs0mg"},{"bike_id":"a9e19266-f82e-4299-8799-60b47b7e829d","system_id":"levelo_inurba_marseille","lat":43.28913,"lon":5.36402,"is_reserved":false,"is_disabled":false,"rental_uris":{"android":"levelo://app?vid=a9e19266-f82e-4299-8799-60b47b7e829d","ios":"levelo://app?vid=a9e19266-f82e-4299-8799-60b47b7e829d"},"vehicle_type_id":"4","last_reported":1742473156,"current_range_meters":9200,"station_id":"ce4bhc92rcd13ifvqetg","pricing_plan_id":"cebpf4jnsgd1na2vs0mg"},{"bike_id":"6d3f830c-4185-4d92-aa5d-1c17ab550c3a","system_id":"levelo_inurba_marseille","lat":43.32112,"lon":5.36771,"is_reserved":false,"is_disabled":false,"rental_uris":{"android":"levelo://app?vid=6d3f830c-4185-4d92-aa5d-1c17ab550c3a","ios":"levelo://app?vid=6d3f830c-4185-4d92-aa5d-1c17ab550c3a"},"vehicle_type_id":"4","last_reported":1742473156,"current_range_meters":9600,"station_id":"ce4bhrh2rcd13ifvqhug","pricing_plan_id":"cebpf4jnsgd1na2vs0mg"},{"bike_id":"de84da4a-3571-420d-b198-b16185707696","system_id":"levelo_inurba_marseille","lat":43.25891,"lon":5.40918,"is_reserved":false,"is_disabled":false,"rental_uris":{"android":"levelo://app?vid=de84da4a-3571-420d-b198-b16185707696","ios":"levelo://app?vid=de84da4a-3571-420d-b198-b16185707696"},"vehicle_type_id":"4","last_reported":1742473156,"current_range_meters":9600,"station_id":"ce4bhm92rcd13ifvqglg","pricing_plan_id":"cebpf4jnsgd1na2vs0mg"},{"bike_id":"1983241e-dcf4-412a-b965-b9e661a9d6d5","system_id":"levelo_inurba_marseille","lat":43.2981,"lon":5.4016,"is_reserved":false,"is_disabled":false,"rental_uris":{"android":"levelo://app?vid=1983241e-dcf4-412a-b965-b9e661a9d6d5","ios":"levelo://app?vid=1983241e-dcf4-412a-b965-b9e661a9d6d5"},"vehicle_type_id":"4","last_reported":1742473156,"current_range_meters":9600,"station_id":"","pricing_plan_id":"cebpf4jnsgd1na2vs0mg"},{"bike_id":"0d95e6a4-60fa-4989-a414-058ecea80aee","system_id":"levelo_inurba_marseille","lat":43.3054,"lon":5.36509,"is_reserved":false,"is_disabled":false,"rental_uris":{"android":"levelo://app?vid=0d95e6a4-60fa-4989-a414-058ecea80aee","ios":"levelo://app?vid=0d95e6a4-60fa-4989-a414-058ecea80aee"},"vehicle_type_id":"4","last_reported":1742473156,"current_range_meters":10000,"station_id":"ce4bgs12rcd13ifvqcag","pricing_plan_id":"cebpf4jnsgd1na2vs0mg"},{"bike_id":"efb9ed43-dd51-4c99-a034-3cda93bac910","system_id":"levelo_inurba_marseille","lat":43.29933,"lon":5.36506,"is_reserved":false,"is_disabled":false,"rental_uris":{"android":"levelo://app?vid=efb9ed43-dd51-4c99-a034-3cda93bac910","ios":"levelo://app?vid=efb9ed43-dd51-4c99-a034-3cda93bac910"},"vehicle_type_id":"4","last_reported":1742473156,"current_range_meters":10000,"station_id":"ce4bgm92rcd13ifvqbr0","pricing_plan_id":"cebpf4jnsgd1na2vs0mg"},{"bike_id":"a0deeb6c-62a7-4efb-834c-1bec837aaba6","system_id":"levelo_inurba_marseille","lat":43.33703,"lon":5.37822,"is_reserved":false,"is_disabled":false,"rental_uris":{"android":"levelo://app?vid=a0deeb6c-62a7-4efb-834c-1bec837aaba6","ios":"levelo://app?vid=a0deeb6c-62a7-4efb-834c-1bec837aaba6"},"vehicle_type_id":"4","last_reported":1742473156,"current_range_meters":10000,"station_id":"","pricing_plan_id":"cebpf4jnsgd1na2vs0mg"},{"bike_id":"d72d8b41-69eb-4d0e-a312-234006cd56a5","system_id":"levelo_inurba_marseille","lat":43.27949,"lon":5.41046,"is_reserved":false,"is_disabled":false,"rental_uris":{"android":"levelo://app?vid=d72d8b41-69eb-4d0e-a312-234006cd56a5","ios":"levelo://app?vid=d72d8b41-69eb-4d0e-a312-234006cd56a5"},"vehicle_type_id":"4","last_reported":1742473156,"current_range_meters":10000,"station_id":"ce4bhnp2rcd13ifvqh0g","pricing_plan_id":"cebpf4jnsgd1na2vs0mg"},{"bike_id":"83193107-b9af-4265-a8cd-796183911dbe","system_id":"levelo_inurba_marseille","lat":43.24072,"lon":5.37757,"is_reserved":false,"is_disabled":false,"rental_uris":{"android":"levelo://app?vid=83193107-b9af-4265-a8cd-796183911dbe","ios":"levelo://app?vid=83193107-b9af-4265-a8cd-796183911dbe"},"vehicle_type_id":"4","last_reported":1742473156,"current_range_meters":10000,"station_id":"ce4bhnp2rcd13ifvqgvg","pricing_plan_id":"cebpf4jnsgd1na2vs0mg"},{"bike_id":"5f033699-a138-4543-bd84-067630977eb0","system_id":"levelo_inurba_marseille","lat":43.30329,"lon":5.40442,"is_reserved":false,"is_disabled":false,"rental_uris":{"android":"levelo://app?vid=5f033699-a138-4543-bd84-067630977eb0","ios":"levelo://app?vid=5f033699-a138-4543-bd84-067630977eb0"},"vehicle_type_id":"4","last_reported":1742473156,"current_range_meters":9600,"station_id":"ce4bh012rcd13ifvqd10","pricing_plan_id":"cebpf4jnsgd1na2vs0mg"},{"bike_id":"85782564-15b3-42d4-8810-12088c1abb61","system_id":"levelo_inurba_marseille","lat":43.3015,"lon":5.3808,"is_reserved":false,"is_disabled":false,"rental_uris":{"android":"levelo://app?vid=85782564-15b3-42d4-8810-12088c1abb61","ios":"levelo://app?vid=85782564-15b3-42d4-8810-12088c1abb61"},"vehicle_type_id":"4","last_reported":1742473156,"current_range_meters":10000,"station_id":"ce4bgjp2rcd13ifvqbh0","pricing_plan_id":"cebpf4jnsgd1na2vs0mg"},{"bike_id":"d7645557-54c5-44ed-8c44-41e433a350da","system_id":"levelo_inurba_marseille","lat":43.29481,"lon":5.35577,"is_reserved":false,"is_disabled":false,"rental_uris":{"android":"levelo://app?vid=d7645557-54c5-44ed-8c44-41e433a350da","ios":"levelo://app?vid=d7645557-54c5-44ed-8c44-41e433a350da"},"vehicle_type_id":"4","last_reported":1742473156,"current_range_meters":10000,"station_id":"","pricing_plan_id":"cebpf4jnsgd1na2vs0mg"},{"bike_id":"7b01a840-5f5b-495b-90e0-3238dad02e02","system_id":"levelo_inurba_marseille","lat":43.31687,"lon":5.40454,"is_reserved":false,"is_disabled":false,"rental_uris":{"android":"levelo://app?vid=7b01a840-5f5b-495b-90e0-3238dad02e02","ios":"levelo://app?vid=7b01a840-5f5b-495b-90e0-3238dad02e02"},"vehicle_type_id":"4","last_reported":1742473156,"current_range_meters":10800,"station_id":"ce4bh012rcd13ifvqd00","pricing_plan_id":"cebpf4jnsgd1na2vs0mg"},{"bike_id":"68294b0d-b401-46cb-8317-f0ab34cf90d1","system_id":"levelo_inurba_marseille","lat":43.29373,"lon":5.37863,"is_reserved":false,"is_disabled":false,"rental_uris":{"android":"levelo://app?vid=68294b0d-b401-46cb-8317-f0ab34cf90d1","ios":"levelo://app?vid=68294b0d-b401-46cb-8317-f0ab34cf90d1"},"vehicle_type_id":"4","last_reported":1742473156,"current_range_meters":10800,"station_id":"ce4bgjh2rcd13ifvqbf0","pricing_plan_id":"cebpf4jnsgd1na2vs0mg"},{"bike_id":"ffbee1c9-ab8d-45ee-b606-c546ab78c5f2","system_id":"levelo_inurba_marseille","lat":43.29728,"lon":5.37786,"is_reserved":false,"is_disabled":false,"rental_uris":{"android":"levelo://app?vid=ffbee1c9-ab8d-45ee-b606-c546ab78c5f2","ios":"levelo://app?vid=ffbee1c9-ab8d-45ee-b606-c546ab78c5f2"},"vehicle_type_id":"4","last_reported":1742473156,"current_range_meters":10800,"station_id":"","pricing_plan_id":"cebpf4jnsgd1na2vs0mg"},{"bike_id":"631955fe-2953-4d0a-8f65-d434cb701ba3","system_id":"levelo_inurba_marseille","lat":43.29008,"lon":5.35616,"is_reserved":false,"is_disabled":false,"rental_uris":{"android":"levelo://app?vid=631955fe-2953-4d0a-8f65-d434cb701ba3","ios":"levelo://app?vid=631955fe-2953-4d0a-8f65-d434cb701ba3"},"vehicle_type_id":"4","last_reported":1742473156,"current_range_meters":10800,"station_id":"ce4bhb92rcd13ifvqen0","pricing_plan_id":"cebpf4jnsgd1na2vs0mg"},{"bike_id":"135896c3-a3f2-4c10-9d59-9b861112de5a","system_id":"levelo_inurba_marseille","lat":43.32484,"lon":5.36561,"is_reserved":false,"is_disabled":false,"rental_uris":{"android":"levelo://app?vid=135896c3-a3f2-4c10-9d59-9b861112de5a","ios":"levelo://app?vid=135896c3-a3f2-4c10-9d59-9b861112de5a"},"vehicle_type_id":"4","last_reported":1742473156,"current_range_meters":10800,"station_id":"ce4bhs12rcd13ifvqhvg","pricing_plan_id":"cebpf4jnsgd1na2vs0mg"},{"bike_id":"ab53bd43-0fd9-40b0-bedd-84357013e2ab","system_id":"levelo_inurba_marseille","lat":43.25575,"lon":5.38233,"is_reserved":false,"is_disabled":false,"rental_uris":{"android":"levelo://app?vid=ab53bd43-0fd9-40b0-bedd-84357013e2ab","ios":"levelo://app?vid=ab53bd43-0fd9-40b0-bedd-84357013e2ab"},"vehicle_type_id":"4","last_reported":1742473156,"current_range_meters":10800,"station_id":"ce4bhih2rcd13ifvqfs0","pricing_plan_id":"cebpf4jnsgd1na2vs0mg"},{"bike_id":"5a744e10-af42-4895-8ea6-4be2388dba33","system_id":"levelo_inurba_marseille","lat":43.28435,"lon":5.39188,"is_reserved":false,"is_disabled":false,"rental_uris":{"android":"levelo://app?vid=5a744e10-af42-4895-8ea6-4be2388dba33","ios":"levelo://app?vid=5a744e10-af42-4895-8ea6-4be2388dba33"},"vehicle_type_id":"4","last_reported":1742473156,"current_range_meters":10800,"station_id":"ce4bhoh2rcd13ifvqh5g","pricing_plan_id":"cebpf4jnsgd1na2vs0mg"},{"bike_id":"6883c811-8746-429a-bd41-848ecf4dd19e","system_id":"levelo_inurba_marseille","lat":43.23518,"lon":5.37738,"is_reserved":false,"is_disabled":false,"rental_uris":{"android":"levelo://app?vid=6883c811-8746-429a-bd41-848ecf4dd19e","ios":"levelo://app?vid=6883c811-8746-429a-bd41-848ecf4dd19e"},"vehicle_type_id":"4","last_reported":1742473156,"current_range_meters":10800,"station_id":"","pricing_plan_id":"cebpf4jnsgd1na2vs0mg"},{"bike_id":"1d0da440-9eeb-4675-a2dc-ead8ee6f60ef","system_id":"levelo_inurba_marseille","lat":43.28616,"lon":5.35104,"is_reserved":false,"is_disabled":false,"rental_uris":{"android":"levelo://app?vid=1d0da440-9eeb-4675-a2dc-ead8ee6f60ef","ios":"levelo://app?vid=1d0da440-9eeb-4675-a2dc-ead8ee6f60ef"},"vehicle_type_id":"4","last_reported":1742473156,"current_range_meters":10800,"station_id":"ce4bhch2rcd13ifvqeug","pricing_plan_id":"cebpf4jnsgd1na2vs0mg"},{"bike_id":"181b1742-09ee-46ab-8712-67d8396af664","system_id":"levelo_inurba_marseille","lat":43.24182,"lon":5.39736,"is_reserved":false,"is_disabled":false,"rental_uris":{"android":"levelo://app?vid=181b1742-09ee-46ab-8712-67d8396af664","ios":"levelo://app?vid=181b1742-09ee-46ab-8712-67d8396af664"},"vehicle_type_id":"4","last_reported":1742473156,"current_range_meters":10800,"station_id":"ce4bhn12rcd13ifvqgpg","pricing_plan_id":"cebpf4jnsgd1na2vs0mg"},{"bike_id":"eb583d19-0742-4b56-b05e-93bdb506dacf","system_id":"levelo_inurba_marseille","lat":43.28273,"lon":5.35079,"is_reserved":false,"is_disabled":false,"rental_uris":{"android":"levelo://app?vid=eb583d19-0742-4b56-b05e-93bdb506dacf","ios":"levelo://app?vid=eb583d19-0742-4b56-b05e-93bdb506dacf"},"vehicle_type_id":"4","last_reported":1742473156,"current_range_meters":10800,"station_id":"ce4bhbp2rcd13ifvqerg","pricing_plan_id":"cebpf4jnsgd1na2vs0mg"},{"bike_id":"c5bb5dca-1dc9-450e-9a3d-9fa737cf345d","system_id":"levelo_inurba_marseille","lat":43.24654,"lon":5.38925,"is_reserved":false,"is_disabled":false,"rental_uris":{"android":"levelo://app?vid=c5bb5dca-1dc9-450e-9a3d-9fa737cf345d","ios":"levelo://app?vid=c5bb5dca-1dc9-450e-9a3d-9fa737cf345d"},"vehicle_type_id":"4","last_reported":1742473156,"current_range_meters":10800,"station_id":"ce4bhg12rcd13ifvqf60","pricing_plan_id":"cebpf4jnsgd1na2vs0mg"},{"bike_id":"b4f58fb9-f8fc-49f3-b537-d6ea695f1338","system_id":"levelo_inurba_marseille","lat":43.24633,"lon":5.38187,"is_reserved":false,"is_disabled":false,"rental_uris":{"android":"levelo://app?vid=b4f58fb9-f8fc-49f3-b537-d6ea695f1338","ios":"levelo://app?vid=b4f58fb9-f8fc-49f3-b537-d6ea695f1338"},"vehicle_type_id":"4","last_reported":1742473156,"current_range_meters":10800,"station_id":"ce4bhih2rcd13ifvqfr0","pricing_plan_id":"cebpf4jnsgd1na2vs0mg"},{"bike_id":"84221142-32e7-483c-8b29-e6e73caa8c8a","system_id":"levelo_inurba_marseille","lat":43.29841,"lon":5.36268,"is_reserved":false,"is_disabled":false,"rental_uris":{"android":"levelo://app?vid=84221142-32e7-483c-8b29-e6e73caa8c8a","ios":"levelo://app?vid=84221142-32e7-483c-8b29-e6e73caa8c8a"},"vehicle_type_id":"4","last_reported":1742473156,"current_range_meters":11200,"station_id":"ce4bgpp2rcd13ifvqc3g","pricing_plan_id":"cebpf4jnsgd1na2vs0mg"},{"bike_id":"91bbc4d7-c30f-4b98-bc8f-0b3299ccfa54","system_id":"levelo_inurba_marseille","lat":43.27366,"lon":5.36247,"is_reserved":false,"is_disabled":false,"rental_uris":{"android":"levelo://app?vid=91bbc4d7-c30f-4b98-bc8f-0b3299ccfa54","ios":"levelo://app?vid=91bbc4d7-c30f-4b98-bc8f-0b3299ccfa54"},"vehicle_type_id":"4","last_reported":1742473156,"current_range_meters":11200,"station_id":"ce4bhbh2rcd13ifvqeo0","pricing_plan_id":"cebpf4jnsgd1na2vs0mg"},{"bike_id":"067fb92d-3b64-43d5-9d88-fcb8897d2567","system_id":"levelo_inurba_marseille","lat":43.28658,"lon":5.35069,"is_reserved":false,"is_disabled":false,"rental_uris":{"android":"levelo://app?vid=067fb92d-3b64-43d5-9d88-fcb8897d2567","ios":"levelo://app?vid=067fb92d-3b64-43d5-9d88-fcb8897d2567"},"vehicle_type_id":"4","last_reported":1742473156,"current_range_meters":11200,"station_id":"ce4bhch2rcd13ifvqeug","pricing_plan_id":"cebpf4jnsgd1na2vs0mg"},{"bike_id":"92f31abb-25e7-481b-baf0-01963f45f7b3","system_id":"levelo_inurba_marseille","lat":43.30553,"lon":5.36526,"is_reserved":false,"is_disabled":false,"rental_uris":{"android":"levelo://app?vid=92f31abb-25e7-481b-baf0-01963f45f7b3","ios":"levelo://app?vid=92f31abb-25e7-481b-baf0-01963f45f7b3"},"vehicle_type_id":"4","last_reported":1742473156,"current_range_meters":11200,"station_id":"ce4bgs12rcd13ifvqcag","pricing_plan_id":"cebpf4jnsgd1na2vs0mg"},{"bike_id":"b9e4bdd0-024c-4547-9a94-39d0c7923642","system_id":"levelo_inurba_marseille","lat":43.24177,"lon":5.3639,"is_reserved":false,"is_disabled":false,"rental_uris":{"android":"levelo://app?vid=b9e4bdd0-024c-4547-9a94-39d0c7923642","ios":"levelo://app?vid=b9e4bdd0-024c-4547-9a94-39d0c7923642"},"vehicle_type_id":"4","last_reported":1742473156,"current_range_meters":11200,"station_id":"cpo36qri1sfpv3e86is0","pricing_plan_id":"cebpf4jnsgd1na2vs0mg"},{"bike_id":"e4fa4be4-c48f-4bf6-af84-7a8304cec4b3","system_id":"levelo_inurba_marseille","lat":43.24164,"lon":5.39706,"is_reserved":false,"is_disabled":false,"rental_uris":{"android":"levelo://app?vid=e4fa4be4-c48f-4bf6-af84-7a8304cec4b3","ios":"levelo://app?vid=e4fa4be4-c48f-4bf6-af84-7a8304cec4b3"},"vehicle_type_id":"4","last_reported":1742473156,"current_range_meters":11600,"station_id":"ce4bhn12rcd13ifvqgpg","pricing_plan_id":"cebpf4jnsgd1na2vs0mg"},{"bike_id":"e01e81b9-c3ee-46f0-a50c-ac1cdfab1fea","system_id":"levelo_inurba_marseille","lat":43.25737,"lon":5.42178,"is_reserved":false,"is_disabled":false,"rental_uris":{"android":"levelo://app?vid=e01e81b9-c3ee-46f0-a50c-ac1cdfab1fea","ios":"levelo://app?vid=e01e81b9-c3ee-46f0-a50c-ac1cdfab1fea"},"vehicle_type_id":"4","last_reported":1742473156,"current_range_meters":11600,"station_id":"","pricing_plan_id":"cebpf4jnsgd1na2vs0mg"},{"bike_id":"c11441a1-fb1b-49e0-b85a-3a8b587c71d3","system_id":"levelo_inurba_marseille","lat":43.27328,"lon":5.39082,"is_reserved":false,"is_disabled":true,"rental_uris":{"android":"levelo://app?vid=c11441a1-fb1b-49e0-b85a-3a8b587c71d3","ios":"levelo://app?vid=c11441a1-fb1b-49e0-b85a-3a8b587c71d3"},"vehicle_type_id":"4","last_reported":1742473156,"current_range_meters":11600,"station_id":"ce4bhgp2rcd13ifvqfe0","pricing_plan_id":"cebpf4jnsgd1na2vs0mg"},{"bike_id":"63fdbd23-b53c-4970-bf63-e82cffd68abf","system_id":"levelo_inurba_marseille","lat":43.29286,"lon":5.37429,"is_reserved":false,"is_disabled":false,"rental_uris":{"android":"levelo://app?vid=63fdbd23-b53c-4970-bf63-e82cffd68abf","ios":"levelo://app?vid=63fdbd23-b53c-4970-bf63-e82cffd68abf"},"vehicle_type_id":"4","last_reported":1742473156,"current_range_meters":11600,"station_id":"ce4bgi12rcd13ifvqb70","pricing_plan_id":"cebpf4jnsgd1na2vs0mg"},{"bike_id":"d62f88b1-6cab-456d-a2df-9b7ab4ec4675","system_id":"levelo_inurba_marseille","lat":43.28351,"lon":5.3811,"is_reserved":false,"is_disabled":false,"rental_uris":{"android":"levelo://app?vid=d62f88b1-6cab-456d-a2df-9b7ab4ec4675","ios":"levelo://app?vid=d62f88b1-6cab-456d-a2df-9b7ab4ec4675"},"vehicle_type_id":"4","last_reported":1742473156,"current_range_meters":11600,"station_id":"ce4bh412rcd13ifvqdr0","pricing_plan_id":"cebpf4jnsgd1na2vs0mg"},{"bike_id":"c5544639-2d44-4b2d-a154-7c53abb9719f","system_id":"levelo_inurba_marseille","lat":43.2409,"lon":5.37738,"is_reserved":false,"is_disabled":false,"rental_uris":{"android":"levelo://app?vid=c5544639-2d44-4b2d-a154-7c53abb9719f","ios":"levelo://app?vid=c5544639-2d44-4b2d-a154-7c53abb9719f"},"vehicle_type_id":"4","last_reported":1742473156,"current_range_meters":11600,"station_id":"ce4bhnp2rcd13ifvqgvg","pricing_plan_id":"cebpf4jnsgd1na2vs0mg"},{"bike_id":"a251843d-edd6-4466-85f8-1c24d2c0c828","system_id":"levelo_inurba_marseille","lat":43.29266,"lon":5.38453,"is_reserved":false,"is_disabled":false,"rental_uris":{"android":"levelo://app?vid=a251843d-edd6-4466-85f8-1c24d2c0c828","ios":"levelo://app?vid=a251843d-edd6-4466-85f8-1c24d2c0c828"},"vehicle_type_id":"4","last_reported":1742473156,"current_range_meters":11600,"station_id":"ce4bh692rcd13ifvqea0","pricing_plan_id":"cebpf4jnsgd1na2vs0mg"},{"bike_id":"6370e802-1ce7-46b3-ab38-c299ec041499","system_id":"levelo_inurba_marseille","lat":43.26684,"lon":5.38274,"is_reserved":false,"is_disabled":false,"rental_uris":{"android":"levelo://app?vid=6370e802-1ce7-46b3-ab38-c299ec041499","ios":"levelo://app?vid=6370e802-1ce7-46b3-ab38-c299ec041499"},"vehicle_type_id":"4","last_reported":1742473156,"current_range_meters":11600,"station_id":"ce4bhg92rcd13ifvqf90","pricing_plan_id":"cebpf4jnsgd1na2vs0mg"},{"bike_id":"6208d8e4-87c1-43cb-82ca-94bd4b638852","system_id":"levelo_inurba_marseille","lat":43.2893,"lon":5.36624,"is_reserved":false,"is_disabled":false,"rental_uris":{"android":"levelo://app?vid=6208d8e4-87c1-43cb-82ca-94bd4b638852","ios":"levelo://app?vid=6208d8e4-87c1-43cb-82ca-94bd4b638852"},"vehicle_type_id":"4","last_reported":1742473156,"current_range_meters":12000,"station_id":"ce4bhap2rcd13ifvqek0","pricing_plan_id":"cebpf4jnsgd1na2vs0mg"},{"bike_id":"a376549f-1ca3-483b-aede-3924e0f78cc7","system_id":"levelo_inurba_marseille","lat":43.296722,"lon":5.367014,"is_reserved":false,"is_disabled":false,"rental_uris":{"android":"levelo://app?vid=a376549f-1ca3-483b-aede-3924e0f78cc7","ios":"levelo://app?vid=a376549f-1ca3-483b-aede-3924e0f78cc7"},"vehicle_type_id":"4","last_reported":1742473156,"current_range_meters":12000,"station_id":"ce4bgn12rcd13ifvqbt0","pricing_plan_id":"cebpf4jnsgd1na2vs0mg"},{"bike_id":"5269e028-8467-446e-9fc5-2da8714d5280","system_id":"levelo_inurba_marseille","lat":43.29295,"lon":5.3684,"is_reserved":false,"is_disabled":false,"rental_uris":{"android":"levelo://app?vid=5269e028-8467-446e-9fc5-2da8714d5280","ios":"levelo://app?vid=5269e028-8467-446e-9fc5-2da8714d5280"},"vehicle_type_id":"4","last_reported":1742473156,"current_range_meters":12000,"station_id":"ce4bhbp2rcd13ifvqesg","pricing_plan_id":"cebpf4jnsgd1na2vs0mg"},{"bike_id":"3c18a8a1-d8a9-43a7-8b3c-85163c8e8ced","system_id":"levelo_inurba_marseille","lat":43.24798,"lon":5.37444,"is_reserved":false,"is_disabled":false,"rental_uris":{"android":"levelo://app?vid=3c18a8a1-d8a9-43a7-8b3c-85163c8e8ced","ios":"levelo://app?vid=3c18a8a1-d8a9-43a7-8b3c-85163c8e8ced"},"vehicle_type_id":"4","last_reported":1742473156,"current_range_meters":12000,"station_id":"ce4bhgh2rcd13ifvqfb0","pricing_plan_id":"cebpf4jnsgd1na2vs0mg"},{"bike_id":"cfcd43ac-55d6-41fe-bcae-b87609468037","system_id":"levelo_inurba_marseille","lat":43.27672,"lon":5.38898,"is_reserved":false,"is_disabled":true,"rental_uris":{"android":"levelo://app?vid=cfcd43ac-55d6-41fe-bcae-b87609468037","ios":"levelo://app?vid=cfcd43ac-55d6-41fe-bcae-b87609468037"},"vehicle_type_id":"4","last_reported":1742473156,"current_range_meters":12000,"station_id":"ce4bhi12rcd13ifvqfo0","pricing_plan_id":"cebpf4jnsgd1na2vs0mg"},{"bike_id":"22ec61c5-6837-40e2-802d-0a55fbd730d3","system_id":"levelo_inurba_marseille","lat":43.2721,"lon":5.3917,"is_reserved":false,"is_disabled":false,"rental_uris":{"android":"levelo://app?vid=22ec61c5-6837-40e2-802d-0a55fbd730d3","ios":"levelo://app?vid=22ec61c5-6837-40e2-802d-0a55fbd730d3"},"vehicle_type_id":"4","last_reported":1742473156,"current_range_meters":12000,"station_id":"ce4bhhp2rcd13ifvqfm0","pricing_plan_id":"cebpf4jnsgd1na2vs0mg"},{"bike_id":"4c44c71d-64d5-4bb1-9445-5c9bbff69c6e","system_id":"levelo_inurba_marseille","lat":43.2408,"lon":5.37761,"is_reserved":false,"is_disabled":false,"rental_uris":{"android":"levelo://app?vid=4c44c71d-64d5-4bb1-9445-5c9bbff69c6e","ios":"levelo://app?vid=4c44c71d-64d5-4bb1-9445-5c9bbff69c6e"},"vehicle_type_id":"4","last_reported":1742473156,"current_range_meters":12000,"station_id":"ce4bhnp2rcd13ifvqgvg","pricing_plan_id":"cebpf4jnsgd1na2vs0mg"},{"bike_id":"8cf3f598-e164-410f-aad7-cd791113c995","system_id":"levelo_inurba_marseille","lat":43.31766,"lon":5.39007,"is_reserved":false,"is_disabled":false,"rental_uris":{"android":"levelo://app?vid=8cf3f598-e164-410f-aad7-cd791113c995","ios":"levelo://app?vid=8cf3f598-e164-410f-aad7-cd791113c995"},"vehicle_type_id":"4","last_reported":1742473156,"current_range_meters":12400,"station_id":"ce4bhqp2rcd13ifvqhng","pricing_plan_id":"cebpf4jnsgd1na2vs0mg"},{"bike_id":"baae9e7c-52b4-43f0-9123-dc3360b121cc","system_id":"levelo_inurba_marseille","lat":43.31881,"lon":5.40736,"is_reserved":false,"is_disabled":false,"rental_uris":{"android":"levelo://app?vid=baae9e7c-52b4-43f0-9123-dc3360b121cc","ios":"levelo://app?vid=baae9e7c-52b4-43f0-9123-dc3360b121cc"},"vehicle_type_id":"4","last_reported":1742473156,"current_range_meters":12400,"station_id":"ce4bhq12rcd13ifvqhig","pricing_plan_id":"cebpf4jnsgd1na2vs0mg"},{"bike_id":"c1e9dcf3-2d52-4bba-8476-7b4dc745dd85","system_id":"levelo_inurba_marseille","lat":43.29273,"lon":5.36845,"is_reserved":false,"is_disabled":false,"rental_uris":{"android":"levelo://app?vid=c1e9dcf3-2d52-4bba-8476-7b4dc745dd85","ios":"levelo://app?vid=c1e9dcf3-2d52-4bba-8476-7b4dc745dd85"},"vehicle_type_id":"4","last_reported":1742473156,"current_range_meters":12400,"station_id":"ce4bhbp2rcd13ifvqesg","pricing_plan_id":"cebpf4jnsgd1na2vs0mg"},{"bike_id":"e5f5fc03-c9c4-488e-83b6-00bffbd9005c","system_id":"levelo_inurba_marseille","lat":43.24077,"lon":5.37759,"is_reserved":false,"is_disabled":false,"rental_uris":{"android":"levelo://app?vid=e5f5fc03-c9c4-488e-83b6-00bffbd9005c","ios":"levelo://app?vid=e5f5fc03-c9c4-488e-83b6-00bffbd9005c"},"vehicle_type_id":"4","last_reported":1742473156,"current_range_meters":12400,"station_id":"ce4bhnp2rcd13ifvqgvg","pricing_plan_id":"cebpf4jnsgd1na2vs0mg"},{"bike_id":"10040ff5-09c7-4549-9697-fbeae20cf216","system_id":"levelo_inurba_marseille","lat":43.24655,"lon":5.38887,"is_reserved":false,"is_disabled":false,"rental_uris":{"android":"levelo://app?vid=10040ff5-09c7-4549-9697-fbeae20cf216","ios":"levelo://app?vid=10040ff5-09c7-4549-9697-fbeae20cf216"},"vehicle_type_id":"4","last_reported":1742473156,"current_range_meters":12400,"station_id":"ce4bhg12rcd13ifvqf60","pricing_plan_id":"cebpf4jnsgd1na2vs0mg"},{"bike_id":"1d6e6dd8-c922-4e27-b82e-81fb3c6a6b73","system_id":"levelo_inurba_marseille","lat":43.31501,"lon":5.37309,"is_reserved":false,"is_disabled":false,"rental_uris":{"android":"levelo://app?vid=1d6e6dd8-c922-4e27-b82e-81fb3c6a6b73","ios":"levelo://app?vid=1d6e6dd8-c922-4e27-b82e-81fb3c6a6b73"},"vehicle_type_id":"4","last_reported":1742473156,"current_range_meters":12400,"station_id":"ce4bgt12rcd13ifvqcd0","pricing_plan_id":"cebpf4jnsgd1na2vs0mg"},{"bike_id":"e74fce09-490e-4ae2-9de7-a533dd9876c1","system_id":"levelo_inurba_marseille","lat":43.23138,"lon":5.43722,"is_reserved":false,"is_disabled":false,"rental_uris":{"android":"levelo://app?vid=e74fce09-490e-4ae2-9de7-a533dd9876c1","ios":"levelo://app?vid=e74fce09-490e-4ae2-9de7-a533dd9876c1"},"vehicle_type_id":"4","last_reported":1742473156,"current_range_meters":12400,"station_id":"ce4bhmp2rcd13ifvqgog","pricing_plan_id":"cebpf4jnsgd1na2vs0mg"},{"bike_id":"d88871c7-84ca-4733-bb3b-a22d1cf9f7c3","system_id":"levelo_inurba_marseille","lat":43.25577,"lon":5.38224,"is_reserved":false,"is_disabled":false,"rental_uris":{"android":"levelo://app?vid=d88871c7-84ca-4733-bb3b-a22d1cf9f7c3","ios":"levelo://app?vid=d88871c7-84ca-4733-bb3b-a22d1cf9f7c3"},"vehicle_type_id":"4","last_reported":1742473156,"current_range_meters":12400,"station_id":"ce4bhih2rcd13ifvqfs0","pricing_plan_id":"cebpf4jnsgd1na2vs0mg"},{"bike_id":"8d1667ce-2adc-431e-959e-13e7bce3e62f","system_id":"levelo_inurba_marseille","lat":43.3108,"lon":5.4243,"is_reserved":false,"is_disabled":false,"rental_uris":{"android":"levelo://app?vid=8d1667ce-2adc-431e-959e-13e7bce3e62f","ios":"levelo://app?vid=8d1667ce-2adc-431e-959e-13e7bce3e62f"},"vehicle_type_id":"4","last_reported":1742473156,"current_range_meters":12800,"station_id":"ce4bhp92rcd13ifvqhag","pricing_plan_id":"cebpf4jnsgd1na2vs0mg"},{"bike_id":"e2619bab-2bfc-4f4c-9f4d-1c75710b16cc","system_id":"levelo_inurba_marseille","lat":43.30602,"lon":5.37219,"is_reserved":false,"is_disabled":false,"rental_uris":{"android":"levelo://app?vid=e2619bab-2bfc-4f4c-9f4d-1c75710b16cc","ios":"levelo://app?vid=e2619bab-2bfc-4f4c-9f4d-1c75710b16cc"},"vehicle_type_id":"4","last_reported":1742473156,"current_range_meters":12400,"station_id":"ce4bgqh2rcd13ifvqc4g","pricing_plan_id":"cebpf4jnsgd1na2vs0mg"},{"bike_id":"8b822955-876b-4a35-ae38-897c81563b42","system_id":"levelo_inurba_marseille","lat":43.28358,"lon":5.38647,"is_reserved":false,"is_disabled":false,"rental_uris":{"android":"levelo://app?vid=8b822955-876b-4a35-ae38-897c81563b42","ios":"levelo://app?vid=8b822955-876b-4a35-ae38-897c81563b42"},"vehicle_type_id":"4","last_reported":1742473156,"current_range_meters":12800,"station_id":"ce4bh492rcd13ifvqdvg","pricing_plan_id":"cebpf4jnsgd1na2vs0mg"},{"bike_id":"4d240166-0784-4485-88d8-4566e7ef8b57","system_id":"levelo_inurba_marseille","lat":43.30545,"lon":5.36538,"is_reserved":false,"is_disabled":false,"rental_uris":{"android":"levelo://app?vid=4d240166-0784-4485-88d8-4566e7ef8b57","ios":"levelo://app?vid=4d240166-0784-4485-88d8-4566e7ef8b57"},"vehicle_type_id":"4","last_reported":1742473156,"current_range_meters":12800,"station_id":"ce4bgs12rcd13ifvqcag","pricing_plan_id":"cebpf4jnsgd1na2vs0mg"},{"bike_id":"76d34c62-7624-4a11-9903-4d60b8081ecf","system_id":"levelo_inurba_marseille","lat":43.27574,"lon":5.38427,"is_reserved":false,"is_disabled":false,"rental_uris":{"android":"levelo://app?vid=76d34c62-7624-4a11-9903-4d60b8081ecf","ios":"levelo://app?vid=76d34c62-7624-4a11-9903-4d60b8081ecf"},"vehicle_type_id":"4","last_reported":1742473156,"current_range_meters":12800,"station_id":"ce4bhh92rcd13ifvqfi0","pricing_plan_id":"cebpf4jnsgd1na2vs0mg"},{"bike_id":"1c3b5361-695c-4ccc-94f9-aca7f37b6d45","system_id":"levelo_inurba_marseille","lat":43.23192,"lon":5.35512,"is_reserved":false,"is_disabled":false,"rental_uris":{"android":"levelo://app?vid=1c3b5361-695c-4ccc-94f9-aca7f37b6d45","ios":"levelo://app?vid=1c3b5361-695c-4ccc-94f9-aca7f37b6d45"},"vehicle_type_id":"4","last_reported":1742473156,"current_range_meters":13600,"station_id":"ce4bhu92rcd13ifvqi70","pricing_plan_id":"cebpf4jnsgd1na2vs0mg"},{"bike_id":"6418754c-1eff-4fbb-8490-038b6705efce","system_id":"levelo_inurba_marseille","lat":43.30427,"lon":5.38898,"is_reserved":false,"is_disabled":false,"rental_uris":{"android":"levelo://app?vid=6418754c-1eff-4fbb-8490-038b6705efce","ios":"levelo://app?vid=6418754c-1eff-4fbb-8490-038b6705efce"},"vehicle_type_id":"4","last_reported":1742473156,"current_range_meters":13600,"station_id":"ce4bgk12rcd13ifvqbi0","pricing_plan_id":"cebpf4jnsgd1na2vs0mg"},{"bike_id":"16dd521d-50df-4f0b-a335-57ba62bdd742","system_id":"levelo_inurba_marseille","lat":43.2408,"lon":5.37746,"is_reserved":false,"is_disabled":false,"rental_uris":{"android":"levelo://app?vid=16dd521d-50df-4f0b-a335-57ba62bdd742","ios":"levelo://app?vid=16dd521d-50df-4f0b-a335-57ba62bdd742"},"vehicle_type_id":"4","last_reported":1742473156,"current_range_meters":13600,"station_id":"ce4bhnp2rcd13ifvqgvg","pricing_plan_id":"cebpf4jnsgd1na2vs0mg"},{"bike_id":"a2a2d5d4-45cd-4eea-b311-03caf73e0b85","system_id":"levelo_inurba_marseille","lat":43.29521,"lon":5.39035,"is_reserved":false,"is_disabled":false,"rental_uris":{"android":"levelo://app?vid=a2a2d5d4-45cd-4eea-b311-03caf73e0b85","ios":"levelo://app?vid=a2a2d5d4-45cd-4eea-b311-03caf73e0b85"},"vehicle_type_id":"4","last_reported":1742473156,"current_range_meters":13600,"station_id":"ce4bh3p2rcd13ifvqdp0","pricing_plan_id":"cebpf4jnsgd1na2vs0mg"},{"bike_id":"85b3fb0f-763b-44af-bd0b-01971c6e064c","system_id":"levelo_inurba_marseille","lat":43.25731,"lon":5.4111,"is_reserved":false,"is_disabled":false,"rental_uris":{"android":"levelo://app?vid=85b3fb0f-763b-44af-bd0b-01971c6e064c","ios":"levelo://app?vid=85b3fb0f-763b-44af-bd0b-01971c6e064c"},"vehicle_type_id":"4","last_reported":1742473156,"current_range_meters":12800,"station_id":"ce4bhkp2rcd13ifvqgd0","pricing_plan_id":"cebpf4jnsgd1na2vs0mg"},{"bike_id":"42510201-02b4-4f38-82bc-9dc134d4342c","system_id":"levelo_inurba_marseille","lat":43.22931,"lon":5.35371,"is_reserved":false,"is_disabled":false,"rental_uris":{"android":"levelo://app?vid=42510201-02b4-4f38-82bc-9dc134d4342c","ios":"levelo://app?vid=42510201-02b4-4f38-82bc-9dc134d4342c"},"vehicle_type_id":"4","last_reported":1742473156,"current_range_meters":13600,"station_id":"cpo3532slgdg3j2ikp40","pricing_plan_id":"cebpf4jnsgd1na2vs0mg"},{"bike_id":"ca4f38ad-a911-4729-9bf0-9cd10d233cd4","system_id":"levelo_inurba_marseille","lat":43.3137,"lon":5.36709,"is_reserved":false,"is_disabled":true,"rental_uris":{"android":"levelo://app?vid=ca4f38ad-a911-4729-9bf0-9cd10d233cd4","ios":"levelo://app?vid=ca4f38ad-a911-4729-9bf0-9cd10d233cd4"},"vehicle_type_id":"4","last_reported":1742473156,"current_range_meters":13600,"station_id":"ce4bgr92rcd13ifvqc6g","pricing_plan_id":"cebpf4jnsgd1na2vs0mg"},{"bike_id":"55ba6626-7065-4e1c-a55d-538bae0acc1b","system_id":"levelo_inurba_marseille","lat":43.29872,"lon":5.39736,"is_reserved":false,"is_disabled":false,"rental_uris":{"android":"levelo://app?vid=55ba6626-7065-4e1c-a55d-538bae0acc1b","ios":"levelo://app?vid=55ba6626-7065-4e1c-a55d-538bae0acc1b"},"vehicle_type_id":"4","last_reported":1742473156,"current_range_meters":13600,"station_id":"ce4bh0h2rcd13ifvqd50","pricing_plan_id":"cebpf4jnsgd1na2vs0mg"},{"bike_id":"33eac996-04c1-4244-862e-d262aa2b7f9f","system_id":"levelo_inurba_marseille","lat":43.2993,"lon":5.36509,"is_reserved":false,"is_disabled":false,"rental_uris":{"android":"levelo://app?vid=33eac996-04c1-4244-862e-d262aa2b7f9f","ios":"levelo://app?vid=33eac996-04c1-4244-862e-d262aa2b7f9f"},"vehicle_type_id":"4","last_reported":1742473156,"current_range_meters":13600,"station_id":"ce4bgm92rcd13ifvqbr0","pricing_plan_id":"cebpf4jnsgd1na2vs0mg"},{"bike_id":"bb657bda-96fd-4cbb-a0e8-4bafe9c06e5c","system_id":"levelo_inurba_marseille","lat":43.26929,"lon":5.38914,"is_reserved":false,"is_disabled":false,"rental_uris":{"android":"levelo://app?vid=bb657bda-96fd-4cbb-a0e8-4bafe9c06e5c","ios":"levelo://app?vid=bb657bda-96fd-4cbb-a0e8-4bafe9c06e5c"},"vehicle_type_id":"4","last_reported":1742473156,"current_range_meters":13600,"station_id":"ce4bhhh2rcd13ifvqfl0","pricing_plan_id":"cebpf4jnsgd1na2vs0mg"},{"bike_id":"83fe4b7d-c313-402b-a1b1-9f765824d193","system_id":"levelo_inurba_marseille","lat":43.26208,"lon":5.37437,"is_reserved":false,"is_disabled":false,"rental_uris":{"android":"levelo://app?vid=83fe4b7d-c313-402b-a1b1-9f765824d193","ios":"levelo://app?vid=83fe4b7d-c313-402b-a1b1-9f765824d193"},"vehicle_type_id":"4","last_reported":1742473156,"current_range_meters":13600,"station_id":"ce4bhgp2rcd13ifvqfc0","pricing_plan_id":"cebpf4jnsgd1na2vs0mg"},{"bike_id":"1d30afca-95f8-47f1-9bab-62e98fe2a186","system_id":"levelo_inurba_marseille","lat":43.31354,"lon":5.36733,"is_reserved":false,"is_disabled":false,"rental_uris":{"android":"levelo://app?vid=1d30afca-95f8-47f1-9bab-62e98fe2a186","ios":"levelo://app?vid=1d30afca-95f8-47f1-9bab-62e98fe2a186"},"vehicle_type_id":"4","last_reported":1742473156,"current_range_meters":13600,"station_id":"ce4bgr92rcd13ifvqc6g","pricing_plan_id":"cebpf4jnsgd1na2vs0mg"},{"bike_id":"7d533c3d-be34-4b0e-b05d-d42132d55da9","system_id":"levelo_inurba_marseille","lat":43.30525,"lon":5.36551,"is_reserved":false,"is_disabled":false,"rental_uris":{"android":"levelo://app?vid=7d533c3d-be34-4b0e-b05d-d42132d55da9","ios":"levelo://app?vid=7d533c3d-be34-4b0e-b05d-d42132d55da9"},"vehicle_type_id":"4","last_reported":1742473156,"current_range_meters":14000,"station_id":"ce4bgs12rcd13ifvqcag","pricing_plan_id":"cebpf4jnsgd1na2vs0mg"},{"bike_id":"dab5b599-564f-470d-b857-a9674d507c49","system_id":"levelo_inurba_marseille","lat":43.25947,"lon":5.40891,"is_reserved":false,"is_disabled":false,"rental_uris":{"android":"levelo://app?vid=dab5b599-564f-470d-b857-a9674d507c49","ios":"levelo://app?vid=dab5b599-564f-470d-b857-a9674d507c49"},"vehicle_type_id":"4","last_reported":1742473156,"current_range_meters":14400,"station_id":"ce4bhm92rcd13ifvqglg","pricing_plan_id":"cebpf4jnsgd1na2vs0mg"},{"bike_id":"915d9de7-c3e8-464a-b3f6-cd2d50b29f22","system_id":"levelo_inurba_marseille","lat":43.3146,"lon":5.37588,"is_reserved":false,"is_disabled":false,"rental_uris":{"android":"levelo://app?vid=915d9de7-c3e8-464a-b3f6-cd2d50b29f22","ios":"levelo://app?vid=915d9de7-c3e8-464a-b3f6-cd2d50b29f22"},"vehicle_type_id":"4","last_reported":1742473156,"current_range_meters":14400,"station_id":"","pricing_plan_id":"cebpf4jnsgd1na2vs0mg"},{"bike_id":"9f886278-fb89-46b1-a0e5-6c3189fc6b48","system_id":"levelo_inurba_marseille","lat":43.27053,"lon":5.40262,"is_reserved":false,"is_disabled":false,"rental_uris":{"android":"levelo://app?vid=9f886278-fb89-46b1-a0e5-6c3189fc6b48","ios":"levelo://app?vid=9f886278-fb89-46b1-a0e5-6c3189fc6b48"},"vehicle_type_id":"4","last_reported":1742473156,"current_range_meters":14400,"station_id":"ce4bhk92rcd13ifvqgc0","pricing_plan_id":"cebpf4jnsgd1na2vs0mg"},{"bike_id":"2678929a-312d-4089-b116-1e816de7db90","system_id":"levelo_inurba_marseille","lat":43.32132,"lon":5.3676,"is_reserved":false,"is_disabled":false,"rental_uris":{"android":"levelo://app?vid=2678929a-312d-4089-b116-1e816de7db90","ios":"levelo://app?vid=2678929a-312d-4089-b116-1e816de7db90"},"vehicle_type_id":"4","last_reported":1742473156,"current_range_meters":14400,"station_id":"ce4bhrh2rcd13ifvqhug","pricing_plan_id":"cebpf4jnsgd1na2vs0mg"},{"bike_id":"214b209c-2d8a-4a7c-9f7c-40f20c0e59e4","system_id":"levelo_inurba_marseille","lat":43.2893,"lon":5.38394,"is_reserved":false,"is_disabled":false,"rental_uris":{"android":"levelo://app?vid=214b209c-2d8a-4a7c-9f7c-40f20c0e59e4","ios":"levelo://app?vid=214b209c-2d8a-4a7c-9f7c-40f20c0e59e4"},"vehicle_type_id":"4","last_reported":1742473156,"current_range_meters":14400,"station_id":"ce4bh612rcd13ifvqe6g","pricing_plan_id":"cebpf4jnsgd1na2vs0mg"},{"bike_id":"0f4829c5-f12d-44ea-8a46-b6170105c343","system_id":"levelo_inurba_marseille","lat":43.230633,"lon":5.354923,"is_reserved":false,"is_disabled":false,"rental_uris":{"android":"levelo://app?vid=0f4829c5-f12d-44ea-8a46-b6170105c343","ios":"levelo://app?vid=0f4829c5-f12d-44ea-8a46-b6170105c343"},"vehicle_type_id":"4","last_reported":1742473156,"current_range_meters":14400,"station_id":"cpo3342slgdg3j2ifvpg","pricing_plan_id":"cebpf4jnsgd1na2vs0mg"},{"bike_id":"438e2098-3bfe-467f-9618-2694e9adcedc","system_id":"levelo_inurba_marseille","lat":43.30166,"lon":5.38104,"is_reserved":false,"is_disabled":false,"rental_uris":{"android":"levelo://app?vid=438e2098-3bfe-467f-9618-2694e9adcedc","ios":"levelo://app?vid=438e2098-3bfe-467f-9618-2694e9adcedc"},"vehicle_type_id":"4","last_reported":1742473156,"current_range_meters":14400,"station_id":"ce4bgjp2rcd13ifvqbh0","pricing_plan_id":"cebpf4jnsgd1na2vs0mg"},{"bike_id":"4c88b298-3be1-4b15-a2c9-436541b3264f","system_id":"levelo_inurba_marseille","lat":43.27567,"lon":5.38431,"is_reserved":false,"is_disabled":false,"rental_uris":{"android":"levelo://app?vid=4c88b298-3be1-4b15-a2c9-436541b3264f","ios":"levelo://app?vid=4c88b298-3be1-4b15-a2c9-436541b3264f"},"vehicle_type_id":"4","last_reported":1742473156,"current_range_meters":14400,"station_id":"ce4bhh92rcd13ifvqfi0","pricing_plan_id":"cebpf4jnsgd1na2vs0mg"},{"bike_id":"be3c72c1-6df8-4160-a164-723c89156a3f","system_id":"levelo_inurba_marseille","lat":43.25732,"lon":5.41092,"is_reserved":false,"is_disabled":false,"rental_uris":{"android":"levelo://app?vid=be3c72c1-6df8-4160-a164-723c89156a3f","ios":"levelo://app?vid=be3c72c1-6df8-4160-a164-723c89156a3f"},"vehicle_type_id":"4","last_reported":1742473156,"current_range_meters":14800,"station_id":"ce4bhkp2rcd13ifvqgd0","pricing_plan_id":"cebpf4jnsgd1na2vs0mg"},{"bike_id":"c0836cf9-975d-4392-a224-88af0b58655e","system_id":"levelo_inurba_marseille","lat":43.26573,"lon":5.39005,"is_reserved":false,"is_disabled":false,"rental_uris":{"android":"levelo://app?vid=c0836cf9-975d-4392-a224-88af0b58655e","ios":"levelo://app?vid=c0836cf9-975d-4392-a224-88af0b58655e"},"vehicle_type_id":"4","last_reported":1742473156,"current_range_meters":14800,"station_id":"ce4bhe12rcd13ifvqf30","pricing_plan_id":"cebpf4jnsgd1na2vs0mg"},{"bike_id":"6636cbbf-0b85-4759-9ce7-17a34ae618f5","system_id":"levelo_inurba_marseille","lat":43.27929,"lon":5.41036,"is_reserved":false,"is_disabled":false,"rental_uris":{"android":"levelo://app?vid=6636cbbf-0b85-4759-9ce7-17a34ae618f5","ios":"levelo://app?vid=6636cbbf-0b85-4759-9ce7-17a34ae618f5"},"vehicle_type_id":"4","last_reported":1742473156,"current_range_meters":14800,"station_id":"ce4bhnp2rcd13ifvqh0g","pricing_plan_id":"cebpf4jnsgd1na2vs0mg"},{"bike_id":"bb9bc00a-53b0-4dad-bedb-c23a53b5d88f","system_id":"levelo_inurba_marseille","lat":43.28613,"lon":5.35108,"is_reserved":false,"is_disabled":false,"rental_uris":{"android":"levelo://app?vid=bb9bc00a-53b0-4dad-bedb-c23a53b5d88f","ios":"levelo://app?vid=bb9bc00a-53b0-4dad-bedb-c23a53b5d88f"},"vehicle_type_id":"4","last_reported":1742473156,"current_range_meters":14800,"station_id":"ce4bhch2rcd13ifvqeug","pricing_plan_id":"cebpf4jnsgd1na2vs0mg"},{"bike_id":"750c8726-a58b-4b0e-b51b-8e8a5addc570","system_id":"levelo_inurba_marseille","lat":43.31369,"lon":5.36714,"is_reserved":false,"is_disabled":false,"rental_uris":{"android":"levelo://app?vid=750c8726-a58b-4b0e-b51b-8e8a5addc570","ios":"levelo://app?vid=750c8726-a58b-4b0e-b51b-8e8a5addc570"},"vehicle_type_id":"4","last_reported":1742473156,"current_range_meters":14800,"station_id":"ce4bgr92rcd13ifvqc6g","pricing_plan_id":"cebpf4jnsgd1na2vs0mg"},{"bike_id":"1b2135c5-25b2-4b4e-a508-c767aeb0060b","system_id":"levelo_inurba_marseille","lat":43.28437,"lon":5.39199,"is_reserved":false,"is_disabled":false,"rental_uris":{"android":"levelo://app?vid=1b2135c5-25b2-4b4e-a508-c767aeb0060b","ios":"levelo://app?vid=1b2135c5-25b2-4b4e-a508-c767aeb0060b"},"vehicle_type_id":"4","last_reported":1742473156,"current_range_meters":14400,"station_id":"ce4bhoh2rcd13ifvqh5g","pricing_plan_id":"cebpf4jnsgd1na2vs0mg"},{"bike_id":"f0fcd320-c5bd-443c-aab0-102d6103287c","system_id":"levelo_inurba_marseille","lat":43.27223,"lon":5.39203,"is_reserved":false,"is_disabled":false,"rental_uris":{"android":"levelo://app?vid=f0fcd320-c5bd-443c-aab0-102d6103287c","ios":"levelo://app?vid=f0fcd320-c5bd-443c-aab0-102d6103287c"},"vehicle_type_id":"4","last_reported":1742473156,"current_range_meters":14800,"station_id":"ce4bhhp2rcd13ifvqfm0","pricing_plan_id":"cebpf4jnsgd1na2vs0mg"},{"bike_id":"097c9362-b444-4eee-afca-575036da81e9","system_id":"levelo_inurba_marseille","lat":43.30331,"lon":5.40436,"is_reserved":false,"is_disabled":false,"rental_uris":{"android":"levelo://app?vid=097c9362-b444-4eee-afca-575036da81e9","ios":"levelo://app?vid=097c9362-b444-4eee-afca-575036da81e9"},"vehicle_type_id":"4","last_reported":1742473156,"current_range_meters":14800,"station_id":"ce4bh012rcd13ifvqd10","pricing_plan_id":"cebpf4jnsgd1na2vs0mg"},{"bike_id":"e02bf0f3-42b7-4eec-b767-8ec49a8f4df7","system_id":"levelo_inurba_marseille","lat":43.30036,"lon":5.38875,"is_reserved":false,"is_disabled":false,"rental_uris":{"android":"levelo://app?vid=e02bf0f3-42b7-4eec-b767-8ec49a8f4df7","ios":"levelo://app?vid=e02bf0f3-42b7-4eec-b767-8ec49a8f4df7"},"vehicle_type_id":"4","last_reported":1742473156,"current_range_meters":15200,"station_id":"ce4bh392rcd13ifvqdl0","pricing_plan_id":"cebpf4jnsgd1na2vs0mg"},{"bike_id":"5c0811a2-58ba-49ce-af2c-daa006c0123c","system_id":"levelo_inurba_marseille","lat":43.29604,"lon":5.38675,"is_reserved":false,"is_disabled":false,"rental_uris":{"android":"levelo://app?vid=5c0811a2-58ba-49ce-af2c-daa006c0123c","ios":"levelo://app?vid=5c0811a2-58ba-49ce-af2c-daa006c0123c"},"vehicle_type_id":"4","last_reported":1742473156,"current_range_meters":15200,"station_id":"ce4bgkh2rcd13ifvqbl0","pricing_plan_id":"cebpf4jnsgd1na2vs0mg"},{"bike_id":"bf5d7bdb-65a8-4310-b955-6a76e2cbd7fe","system_id":"levelo_inurba_marseille","lat":43.33737,"lon":5.39179,"is_reserved":false,"is_disabled":false,"rental_uris":{"android":"levelo://app?vid=bf5d7bdb-65a8-4310-b955-6a76e2cbd7fe","ios":"levelo://app?vid=bf5d7bdb-65a8-4310-b955-6a76e2cbd7fe"},"vehicle_type_id":"4","last_reported":1742473156,"current_range_meters":15200,"station_id":"ce4bhr92rcd13ifvqhsg","pricing_plan_id":"cebpf4jnsgd1na2vs0mg"},{"bike_id":"5f7ebdce-bcfd-49f5-b353-98d524adb295","system_id":"levelo_inurba_marseille","lat":43.23068,"lon":5.35499,"is_reserved":false,"is_disabled":false,"rental_uris":{"android":"levelo://app?vid=5f7ebdce-bcfd-49f5-b353-98d524adb295","ios":"levelo://app?vid=5f7ebdce-bcfd-49f5-b353-98d524adb295"},"vehicle_type_id":"4","last_reported":1742473156,"current_range_meters":15200,"station_id":"cpo3342slgdg3j2ifvpg","pricing_plan_id":"cebpf4jnsgd1na2vs0mg"},{"bike_id":"e3dcf81a-a673-4ac1-be2e-1db043500701","system_id":"levelo_inurba_marseille","lat":43.31243,"lon":5.36874,"is_reserved":false,"is_disabled":false,"rental_uris":{"android":"levelo://app?vid=e3dcf81a-a673-4ac1-be2e-1db043500701","ios":"levelo://app?vid=e3dcf81a-a673-4ac1-be2e-1db043500701"},"vehicle_type_id":"4","last_reported":1742473156,"current_range_meters":15200,"station_id":"ce4bgl92rcd13ifvqbq0","pricing_plan_id":"cebpf4jnsgd1na2vs0mg"},{"bike_id":"9225835f-a835-48bc-ab66-1238205a7e65","system_id":"levelo_inurba_marseille","lat":43.293,"lon":5.37452,"is_reserved":false,"is_disabled":false,"rental_uris":{"android":"levelo://app?vid=9225835f-a835-48bc-ab66-1238205a7e65","ios":"levelo://app?vid=9225835f-a835-48bc-ab66-1238205a7e65"},"vehicle_type_id":"4","last_reported":1742473156,"current_range_meters":16000,"station_id":"ce4bgi12rcd13ifvqb70","pricing_plan_id":"cebpf4jnsgd1na2vs0mg"},{"bike_id":"3297ba78-94f2-49ea-94bb-3dbe06aac92c","system_id":"levelo_inurba_marseille","lat":43.27064,"lon":5.40271,"is_reserved":false,"is_disabled":false,"rental_uris":{"android":"levelo://app?vid=3297ba78-94f2-49ea-94bb-3dbe06aac92c","ios":"levelo://app?vid=3297ba78-94f2-49ea-94bb-3dbe06aac92c"},"vehicle_type_id":"4","last_reported":1742473156,"current_range_meters":16000,"station_id":"ce4bhk92rcd13ifvqgc0","pricing_plan_id":"cebpf4jnsgd1na2vs0mg"},{"bike_id":"c239b307-a42c-4cfd-b5fc-105d04a3256f","system_id":"levelo_inurba_marseille","lat":43.239703,"lon":5.366257,"is_reserved":false,"is_disabled":false,"rental_uris":{"android":"levelo://app?vid=c239b307-a42c-4cfd-b5fc-105d04a3256f","ios":"levelo://app?vid=c239b307-a42c-4cfd-b5fc-105d04a3256f"},"vehicle_type_id":"4","last_reported":1742473156,"current_range_meters":16000,"station_id":"ce4bhi12rcd13ifvqfp0","pricing_plan_id":"cebpf4jnsgd1na2vs0mg"},{"bike_id":"a1041188-6377-4dc0-808b-553dfa8836d0","system_id":"levelo_inurba_marseille","lat":43.30543,"lon":5.36528,"is_reserved":false,"is_disabled":false,"rental_uris":{"android":"levelo://app?vid=a1041188-6377-4dc0-808b-553dfa8836d0","ios":"levelo://app?vid=a1041188-6377-4dc0-808b-553dfa8836d0"},"vehicle_type_id":"4","last_reported":1742473156,"current_range_meters":16000,"station_id":"ce4bgs12rcd13ifvqcag","pricing_plan_id":"cebpf4jnsgd1na2vs0mg"},{"bike_id":"def0e914-dd7e-4e0a-b8c3-2201689cbf80","system_id":"levelo_inurba_marseille","lat":43.29964,"lon":5.385,"is_reserved":false,"is_disabled":false,"rental_uris":{"android":"levelo://app?vid=def0e914-dd7e-4e0a-b8c3-2201689cbf80","ios":"levelo://app?vid=def0e914-dd7e-4e0a-b8c3-2201689cbf80"},"vehicle_type_id":"4","last_reported":1742473156,"current_range_meters":16000,"station_id":"ce4bgj92rcd13ifvqbd0","pricing_plan_id":"cebpf4jnsgd1na2vs0mg"},{"bike_id":"3bd67c75-26b3-4867-97d5-e8fe538648d9","system_id":"levelo_inurba_marseille","lat":43.26787,"lon":5.39424,"is_reserved":false,"is_disabled":false,"rental_uris":{"android":"levelo://app?vid=3bd67c75-26b3-4867-97d5-e8fe538648d9","ios":"levelo://app?vid=3bd67c75-26b3-4867-97d5-e8fe538648d9"},"vehicle_type_id":"4","last_reported":1742473156,"current_range_meters":16000,"station_id":"ce4bhh12rcd13ifvqfg0","pricing_plan_id":"cebpf4jnsgd1na2vs0mg"},{"bike_id":"6ebbf998-1ab5-4d20-ac68-3f4080273a21","system_id":"levelo_inurba_marseille","lat":43.23157,"lon":5.40002,"is_reserved":false,"is_disabled":false,"rental_uris":{"android":"levelo://app?vid=6ebbf998-1ab5-4d20-ac68-3f4080273a21","ios":"levelo://app?vid=6ebbf998-1ab5-4d20-ac68-3f4080273a21"},"vehicle_type_id":"4","last_reported":1742473156,"current_range_meters":16000,"station_id":"ce4bhn12rcd13ifvqgqg","pricing_plan_id":"cebpf4jnsgd1na2vs0mg"},{"bike_id":"22d692e7-1065-4d3c-8793-664156dfc750","system_id":"levelo_inurba_marseille","lat":43.27967,"lon":5.38738,"is_reserved":false,"is_disabled":false,"rental_uris":{"android":"levelo://app?vid=22d692e7-1065-4d3c-8793-664156dfc750","ios":"levelo://app?vid=22d692e7-1065-4d3c-8793-664156dfc750"},"vehicle_type_id":"4","last_reported":1742473156,"current_range_meters":16000,"station_id":"ce4bhg12rcd13ifvqf80","pricing_plan_id":"cebpf4jnsgd1na2vs0mg"},{"bike_id":"8cfa2c15-64c0-4c2f-9158-c66b335a455b","system_id":"levelo_inurba_marseille","lat":43.32348,"lon":5.36753,"is_reserved":false,"is_disabled":false,"rental_uris":{"android":"levelo://app?vid=8cfa2c15-64c0-4c2f-9158-c66b335a455b","ios":"levelo://app?vid=8cfa2c15-64c0-4c2f-9158-c66b335a455b"},"vehicle_type_id":"4","last_reported":1742473156,"current_range_meters":16000,"station_id":"ce4bhsh2rcd13ifvqi2g","pricing_plan_id":"cebpf4jnsgd1na2vs0mg"},{"bike_id":"ab392795-033a-4f18-9239-498e82197522","system_id":"levelo_inurba_marseille","lat":43.24073,"lon":5.37762,"is_reserved":false,"is_disabled":false,"rental_uris":{"android":"levelo://app?vid=ab392795-033a-4f18-9239-498e82197522","ios":"levelo://app?vid=ab392795-033a-4f18-9239-498e82197522"},"vehicle_type_id":"4","last_reported":1742473156,"current_range_meters":16000,"station_id":"ce4bhnp2rcd13ifvqgvg","pricing_plan_id":"cebpf4jnsgd1na2vs0mg"},{"bike_id":"84bfa33f-bcff-4fa9-9322-961c496621df","system_id":"levelo_inurba_marseille","lat":43.32332,"lon":5.40623,"is_reserved":false,"is_disabled":false,"rental_uris":{"android":"levelo://app?vid=84bfa33f-bcff-4fa9-9322-961c496621df","ios":"levelo://app?vid=84bfa33f-bcff-4fa9-9322-961c496621df"},"vehicle_type_id":"4","last_reported":1742473156,"current_range_meters":16000,"station_id":"ce4bhq92rcd13ifvqhjg","pricing_plan_id":"cebpf4jnsgd1na2vs0mg"},{"bike_id":"292bf2df-2116-470d-8ad0-b5019abaf2d6","system_id":"levelo_inurba_marseille","lat":43.30297,"lon":5.39226,"is_reserved":false,"is_disabled":true,"rental_uris":{"android":"levelo://app?vid=292bf2df-2116-470d-8ad0-b5019abaf2d6","ios":"levelo://app?vid=292bf2df-2116-470d-8ad0-b5019abaf2d6"},"vehicle_type_id":"4","last_reported":1742473156,"current_range_meters":16000,"station_id":"ce4bgkh2rcd13ifvqbk0","pricing_plan_id":"cebpf4jnsgd1na2vs0mg"},{"bike_id":"b488f128-9d1a-4f2c-a15a-376e5741447f","system_id":"levelo_inurba_marseille","lat":43.2985,"lon":5.36286,"is_reserved":false,"is_disabled":false,"rental_uris":{"android":"levelo://app?vid=b488f128-9d1a-4f2c-a15a-376e5741447f","ios":"levelo://app?vid=b488f128-9d1a-4f2c-a15a-376e5741447f"},"vehicle_type_id":"4","last_reported":1742473156,"current_range_meters":16000,"station_id":"ce4bgpp2rcd13ifvqc3g","pricing_plan_id":"cebpf4jnsgd1na2vs0mg"},{"bike_id":"9798e390-5cd0-418c-9b2c-4c39fdf23d0e","system_id":"levelo_inurba_marseille","lat":43.23145,"lon":5.43726,"is_reserved":false,"is_disabled":false,"rental_uris":{"android":"levelo://app?vid=9798e390-5cd0-418c-9b2c-4c39fdf23d0e","ios":"levelo://app?vid=9798e390-5cd0-418c-9b2c-4c39fdf23d0e"},