{"last_updated":1749633116,"ttl":60,"version":"2.2","data":{"bikes":[{"bike_id":"c1f745ac-2b13-43fa-b7e6-79ee72e5c579","system_id":"levelo_inurba_marseille","lat":43.27073,"lon":5.4227,"is_reserved":false,"is_disabled":false,"rental_uris":{"android":"levelo://app?vid=c1f745ac-2b13-43fa-b7e6-79ee72e5c579","ios":"levelo://app?vid=c1f745ac-2b13-43fa-b7e6-79ee72e5c579"},"vehicle_type_id":"4","last_reported":1749633116,"current_range_meters":2800,"station_id":"ce4bhk92rcd13ifvqgb0","pricing_plan_id":"cebpf4jnsgd1na2vs0mg"},{"bike_id":"315938f1-91fc-4ef1-9a28-3f568e59758b","system_id":"levelo_inurba_marseille","lat":43.30125,"lon":5.39856,"is_reserved":false,"is_disabled":false,"rental_uris":{"android":"levelo://app?vid=315938f1-91fc-4ef1-9a28-3f568e59758b","ios":"levelo://app?vid=315938f1-91fc-4ef1-9a28-3f568e59758b"},"vehicle_type_id":"4","last_reported":1749633116,"current_range_meters":3600,"station_id":"ce4bh0h2rcd13ifvqd40","pricing_plan_id":"cebpf4jnsgd1na2vs0mg"},{"bike_id":"b12791a0-eb8a-47f4-b1d4-9eba1f9dd7c0","system_id":"levelo_inurba_marseille","lat":43.29717,"lon":5.37702,"is_reserved":false,"is_disabled":false,"rental_uris":{"android":"levelo://app?vid=b12791a0-eb8a-47f4-b1d4-9eba1f9dd7c0","ios":"levelo://app?vid=b12791a0-eb8a-47f4-b1d4-9eba1f9dd7c0"},"vehicle_type_id":"4","last_reported":1749633116,"current_range_meters":3600,"station_id":"ce4bgkh2rcd13ifvqbl0","pricing_plan_id":"cebpf4jnsgd1na2vs0mg"},{"bike_id":"88113087-f0bb-4133-ab2a-bbfce1f3d99a","system_id":"levelo_inurba_marseille","lat":43.317107,"lon":5.404429,"is_reserved":false,"is_disabled":true,"rental_uris":{"android":"levelo://app?vid=88113087-f0bb-4133-ab2a-bbfce1f3d99a","ios":"levelo://app?vid=88113087-f0bb-4133-ab2a-bbfce1f3d99a"},"vehicle_type_id":"4","last_reported":1749633116,"current_range_meters":3600,"station_id":"ce4bh012rcd13ifvqd00","pricing_plan_id":"cebpf4jnsgd1na2vs0mg"},{"bike_id":"4bbf18c4-952a-4eb4-8649-6803f058eaa5","system_id":"levelo_inurba_marseille","lat":43.332075,"lon":5.4287,"is_reserved":false,"is_disabled":true,"rental_uris":{"android":"levelo://app?vid=4bbf18c4-952a-4eb4-8649-6803f058eaa5","ios":"levelo://app?vid=4bbf18c4-952a-4eb4-8649-6803f058eaa5"},"vehicle_type_id":"4","last_reported":1749633116,"current_range_meters":3600,"station_id":"","pricing_plan_id":"cebpf4jnsgd1na2vs0mg"},{"bike_id":"a471041d-0b6e-41ce-a5a3-cbcaf410bc87","system_id":"levelo_inurba_marseille","lat":43.32471,"lon":5.36564,"is_reserved":false,"is_disabled":false,"rental_uris":{"android":"levelo://app?vid=a471041d-0b6e-41ce-a5a3-cbcaf410bc87","ios":"levelo://app?vid=a471041d-0b6e-41ce-a5a3-cbcaf410bc87"},"vehicle_type_id":"4","last_reported":1749633116,"current_range_meters":4000,"station_id":"ce4bhs12rcd13ifvqhvg","pricing_plan_id":"cebpf4jnsgd1na2vs0mg"},{"bike_id":"3d61f512-4f28-4ebf-9b5a-b1753a5090c9","system_id":"levelo_inurba_marseille","lat":43.26559,"lon":5.39005,"is_reserved":false,"is_disabled":false,"rental_uris":{"android":"levelo://app?vid=3d61f512-4f28-4ebf-9b5a-b1753a5090c9","ios":"levelo://app?vid=3d61f512-4f28-4ebf-9b5a-b1753a5090c9"},"vehicle_type_id":"4","last_reported":1749633116,"current_range_meters":4000,"station_id":"ce4bhe12rcd13ifvqf30","pricing_plan_id":"cebpf4jnsgd1na2vs0mg"},{"bike_id":"7c80f4dd-f0fe-40ab-ad82-d8612107bf75","system_id":"levelo_inurba_marseille","lat":43.305367,"lon":5.365504,"is_reserved":false,"is_disabled":false,"rental_uris":{"android":"levelo://app?vid=7c80f4dd-f0fe-40ab-ad82-d8612107bf75","ios":"levelo://app?vid=7c80f4dd-f0fe-40ab-ad82-d8612107bf75"},"vehicle_type_id":"4","last_reported":1749633116,"current_range_meters":4800,"station_id":"ce4bgs12rcd13ifvqcag","pricing_plan_id":"cebpf4jnsgd1na2vs0mg"},{"bike_id":"209559ab-bdf2-4516-8be4-58e6dd935bc6","system_id":"levelo_inurba_marseille","lat":43.2439,"lon":5.37059,"is_reserved":false,"is_disabled":false,"rental_uris":{"android":"levelo://app?vid=209559ab-bdf2-4516-8be4-58e6dd935bc6","ios":"levelo://app?vid=209559ab-bdf2-4516-8be4-58e6dd935bc6"},"vehicle_type_id":"4","last_reported":1749633116,"current_range_meters":5600,"station_id":"ce4bhhh2rcd13ifvqfk0","pricing_plan_id":"cebpf4jnsgd1na2vs0mg"},{"bike_id":"4d3c59bb-3eb9-4b1e-a7a2-8a70b7bca0f9","system_id":"levelo_inurba_marseille","lat":43.27212,"lon":5.39183,"is_reserved":false,"is_disabled":false,"rental_uris":{"android":"levelo://app?vid=4d3c59bb-3eb9-4b1e-a7a2-8a70b7bca0f9","ios":"levelo://app?vid=4d3c59bb-3eb9-4b1e-a7a2-8a70b7bca0f9"},"vehicle_type_id":"4","last_reported":1749633116,"current_range_meters":5600,"station_id":"ce4bhhp2rcd13ifvqfm0","pricing_plan_id":"cebpf4jnsgd1na2vs0mg"},{"bike_id":"670dcc72-4507-481a-ba84-630d5c6bd7e5","system_id":"levelo_inurba_marseille","lat":43.28261,"lon":5.35064,"is_reserved":false,"is_disabled":false,"rental_uris":{"android":"levelo://app?vid=670dcc72-4507-481a-ba84-630d5c6bd7e5","ios":"levelo://app?vid=670dcc72-4507-481a-ba84-630d5c6bd7e5"},"vehicle_type_id":"4","last_reported":1749633116,"current_range_meters":5600,"station_id":"ce4bhbp2rcd13ifvqerg","pricing_plan_id":"cebpf4jnsgd1na2vs0mg"},{"bike_id":"7d1f0855-1aa8-47aa-b63e-27502f81ec54","system_id":"levelo_inurba_marseille","lat":43.30142,"lon":5.38056,"is_reserved":false,"is_disabled":false,"rental_uris":{"android":"levelo://app?vid=7d1f0855-1aa8-47aa-b63e-27502f81ec54","ios":"levelo://app?vid=7d1f0855-1aa8-47aa-b63e-27502f81ec54"},"vehicle_type_id":"4","last_reported":1749633116,"current_range_meters":5600,"station_id":"ce4bgjp2rcd13ifvqbh0","pricing_plan_id":"cebpf4jnsgd1na2vs0mg"},{"bike_id":"6085fd02-1466-4927-bcea-0625cb64778a","system_id":"levelo_inurba_marseille","lat":43.29893,"lon":5.43665,"is_reserved":false,"is_disabled":false,"rental_uris":{"android":"levelo://app?vid=6085fd02-1466-4927-bcea-0625cb64778a","ios":"levelo://app?vid=6085fd02-1466-4927-bcea-0625cb64778a"},"vehicle_type_id":"4","last_reported":1749633116,"current_range_meters":6400,"station_id":"ce4bhpp2rcd13ifvqhfg","pricing_plan_id":"cebpf4jnsgd1na2vs0mg"},{"bike_id":"17732f93-0b81-4776-a7fe-d6476e5125a1","system_id":"levelo_inurba_marseille","lat":43.32488,"lon":5.365558,"is_reserved":false,"is_disabled":false,"rental_uris":{"android":"levelo://app?vid=17732f93-0b81-4776-a7fe-d6476e5125a1","ios":"levelo://app?vid=17732f93-0b81-4776-a7fe-d6476e5125a1"},"vehicle_type_id":"4","last_reported":1749633116,"current_range_meters":6400,"station_id":"","pricing_plan_id":"cebpf4jnsgd1na2vs0mg"},{"bike_id":"3d59d2ec-b59a-43e8-abae-40ac02fdcdb8","system_id":"levelo_inurba_marseille","lat":43.29547,"lon":5.42281,"is_reserved":false,"is_disabled":false,"rental_uris":{"android":"levelo://app?vid=3d59d2ec-b59a-43e8-abae-40ac02fdcdb8","ios":"levelo://app?vid=3d59d2ec-b59a-43e8-abae-40ac02fdcdb8"},"vehicle_type_id":"4","last_reported":1749633116,"current_range_meters":6800,"station_id":"ce4bhph2rcd13ifvqhdg","pricing_plan_id":"cebpf4jnsgd1na2vs0mg"},{"bike_id":"1936de93-9a8b-48d8-8d04-2d0bf368a315","system_id":"levelo_inurba_marseille","lat":43.29003,"lon":5.35615,"is_reserved":false,"is_disabled":false,"rental_uris":{"android":"levelo://app?vid=1936de93-9a8b-48d8-8d04-2d0bf368a315","ios":"levelo://app?vid=1936de93-9a8b-48d8-8d04-2d0bf368a315"},"vehicle_type_id":"4","last_reported":1749633116,"current_range_meters":7200,"station_id":"ce4bhb92rcd13ifvqen0","pricing_plan_id":"cebpf4jnsgd1na2vs0mg"},{"bike_id":"e523f706-8c3e-4c14-b599-8e03c9d72beb","system_id":"levelo_inurba_marseille","lat":43.31679,"lon":5.40472,"is_reserved":false,"is_disabled":false,"rental_uris":{"android":"levelo://app?vid=e523f706-8c3e-4c14-b599-8e03c9d72beb","ios":"levelo://app?vid=e523f706-8c3e-4c14-b599-8e03c9d72beb"},"vehicle_type_id":"4","last_reported":1749633116,"current_range_meters":7200,"station_id":"ce4bh012rcd13ifvqd00","pricing_plan_id":"cebpf4jnsgd1na2vs0mg"},{"bike_id":"b3d982ff-85a1-4dd3-8d38-99737526bcfa","system_id":"levelo_inurba_marseille","lat":43.3029,"lon":5.36858,"is_reserved":false,"is_disabled":false,"rental_uris":{"android":"levelo://app?vid=b3d982ff-85a1-4dd3-8d38-99737526bcfa","ios":"levelo://app?vid=b3d982ff-85a1-4dd3-8d38-99737526bcfa"},"vehicle_type_id":"4","last_reported":1749633116,"current_range_meters":7200,"station_id":"ce4bgqh2rcd13ifvqc5g","pricing_plan_id":"cebpf4jnsgd1na2vs0mg"},{"bike_id":"a9334c0d-cdfc-464f-8eab-e98192ed3454","system_id":"levelo_inurba_marseille","lat":43.29229,"lon":5.39946,"is_reserved":false,"is_disabled":false,"rental_uris":{"android":"levelo://app?vid=a9334c0d-cdfc-464f-8eab-e98192ed3454","ios":"levelo://app?vid=a9334c0d-cdfc-464f-8eab-e98192ed3454"},"vehicle_type_id":"4","last_reported":1749633116,"current_range_meters":7200,"station_id":"","pricing_plan_id":"cebpf4jnsgd1na2vs0mg"},{"bike_id":"39d32260-51d5-455a-ba53-6471389bd255","system_id":"levelo_inurba_marseille","lat":43.319772,"lon":5.376114,"is_reserved":false,"is_disabled":false,"rental_uris":{"android":"levelo://app?vid=39d32260-51d5-455a-ba53-6471389bd255","ios":"levelo://app?vid=39d32260-51d5-455a-ba53-6471389bd255"},"vehicle_type_id":"4","last_reported":1749633116,"current_range_meters":7200,"station_id":"","pricing_plan_id":"cebpf4jnsgd1na2vs0mg"},{"bike_id":"29752b13-19a7-4378-ad5e-d62489aa8152","system_id":"levelo_inurba_marseille","lat":43.296051,"lon":5.381203,"is_reserved":false,"is_disabled":false,"rental_uris":{"android":"levelo://app?vid=29752b13-19a7-4378-ad5e-d62489aa8152","ios":"levelo://app?vid=29752b13-19a7-4378-ad5e-d62489aa8152"},"vehicle_type_id":"4","last_reported":1749633116,"current_range_meters":7200,"station_id":"ce4bgl12rcd13ifvqbo0","pricing_plan_id":"cebpf4jnsgd1na2vs0mg"},{"bike_id":"aa6b16e3-a31f-4741-b7e8-fdfc48df1313","system_id":"levelo_inurba_marseille","lat":43.28269,"lon":5.35077,"is_reserved":false,"is_disabled":false,"rental_uris":{"android":"levelo://app?vid=aa6b16e3-a31f-4741-b7e8-fdfc48df1313","ios":"levelo://app?vid=aa6b16e3-a31f-4741-b7e8-fdfc48df1313"},"vehicle_type_id":"4","last_reported":1749633116,"current_range_meters":7200,"station_id":"ce4bhbp2rcd13ifvqerg","pricing_plan_id":"cebpf4jnsgd1na2vs0mg"},{"bike_id":"c4aef8fb-53c8-4c38-83e4-2aa1b3935125","system_id":"levelo_inurba_marseille","lat":43.32657,"lon":5.41,"is_reserved":false,"is_disabled":false,"rental_uris":{"android":"levelo://app?vid=c4aef8fb-53c8-4c38-83e4-2aa1b3935125","ios":"levelo://app?vid=c4aef8fb-53c8-4c38-83e4-2aa1b3935125"},"vehicle_type_id":"4","last_reported":1749633116,"current_range_meters":6800,"station_id":"ce4bhpp2rcd13ifvqhgg","pricing_plan_id":"cebpf4jnsgd1na2vs0mg"},{"bike_id":"1e532920-9e26-4275-b7c0-535f652566f3","system_id":"levelo_inurba_marseille","lat":43.31332,"lon":5.36693,"is_reserved":false,"is_disabled":false,"rental_uris":{"android":"levelo://app?vid=1e532920-9e26-4275-b7c0-535f652566f3","ios":"levelo://app?vid=1e532920-9e26-4275-b7c0-535f652566f3"},"vehicle_type_id":"4","last_reported":1749633116,"current_range_meters":7200,"station_id":"ce4bgr92rcd13ifvqc6g","pricing_plan_id":"cebpf4jnsgd1na2vs0mg"},{"bike_id":"067e2ee8-1101-4b3d-8f2a-2f3961754b72","system_id":"levelo_inurba_marseille","lat":43.25931,"lon":5.40907,"is_reserved":false,"is_disabled":false,"rental_uris":{"android":"levelo://app?vid=067e2ee8-1101-4b3d-8f2a-2f3961754b72","ios":"levelo://app?vid=067e2ee8-1101-4b3d-8f2a-2f3961754b72"},"vehicle_type_id":"4","last_reported":1749633116,"current_range_meters":8000,"station_id":"ce4bhm92rcd13ifvqglg","pricing_plan_id":"cebpf4jnsgd1na2vs0mg"},{"bike_id":"ad5fea89-943a-4619-9edc-0ace3e829ee1","system_id":"levelo_inurba_marseille","lat":43.32533,"lon":5.41436,"is_reserved":false,"is_disabled":false,"rental_uris":{"android":"levelo://app?vid=ad5fea89-943a-4619-9edc-0ace3e829ee1","ios":"levelo://app?vid=ad5fea89-943a-4619-9edc-0ace3e829ee1"},"vehicle_type_id":"4","last_reported":1749633116,"current_range_meters":8000,"station_id":"ce4bhq12rcd13ifvqhhg","pricing_plan_id":"cebpf4jnsgd1na2vs0mg"},{"bike_id":"0c1fdff0-f22c-498b-bc96-61e2476425b8","system_id":"levelo_inurba_marseille","lat":43.22931,"lon":5.35376,"is_reserved":false,"is_disabled":false,"rental_uris":{"android":"levelo://app?vid=0c1fdff0-f22c-498b-bc96-61e2476425b8","ios":"levelo://app?vid=0c1fdff0-f22c-498b-bc96-61e2476425b8"},"vehicle_type_id":"4","last_reported":1749633116,"current_range_meters":8000,"station_id":"cpo3532slgdg3j2ikp40","pricing_plan_id":"cebpf4jnsgd1na2vs0mg"},{"bike_id":"d87c67d8-607f-4552-abf0-659d28a04da1","system_id":"levelo_inurba_marseille","lat":43.2841,"lon":5.34988,"is_reserved":false,"is_disabled":false,"rental_uris":{"android":"levelo://app?vid=d87c67d8-607f-4552-abf0-659d28a04da1","ios":"levelo://app?vid=d87c67d8-607f-4552-abf0-659d28a04da1"},"vehicle_type_id":"4","last_reported":1749633116,"current_range_meters":8000,"station_id":"ce4bhbh2rcd13ifvqepg","pricing_plan_id":"cebpf4jnsgd1na2vs0mg"},{"bike_id":"e1f194ce-0bae-4802-a8bb-ea19d2aed5d3","system_id":"levelo_inurba_marseille","lat":43.33603,"lon":5.41016,"is_reserved":false,"is_disabled":false,"rental_uris":{"android":"levelo://app?vid=e1f194ce-0bae-4802-a8bb-ea19d2aed5d3","ios":"levelo://app?vid=e1f194ce-0bae-4802-a8bb-ea19d2aed5d3"},"vehicle_type_id":"4","last_reported":1749633116,"current_range_meters":8000,"station_id":"ce4bhqh2rcd13ifvqhmg","pricing_plan_id":"cebpf4jnsgd1na2vs0mg"},{"bike_id":"5e6b1e47-16fd-488b-b7eb-507767b76ee6","system_id":"levelo_inurba_marseille","lat":43.2683,"lon":5.3906,"is_reserved":false,"is_disabled":false,"rental_uris":{"android":"levelo://app?vid=5e6b1e47-16fd-488b-b7eb-507767b76ee6","ios":"levelo://app?vid=5e6b1e47-16fd-488b-b7eb-507767b76ee6"},"vehicle_type_id":"4","last_reported":1749633116,"current_range_meters":8000,"station_id":"","pricing_plan_id":"cebpf4jnsgd1na2vs0mg"},{"bike_id":"125bd855-10ed-4a56-9707-403f3a8b58a0","system_id":"levelo_inurba_marseille","lat":43.33062,"lon":5.40469,"is_reserved":false,"is_disabled":false,"rental_uris":{"android":"levelo://app?vid=125bd855-10ed-4a56-9707-403f3a8b58a0","ios":"levelo://app?vid=125bd855-10ed-4a56-9707-403f3a8b58a0"},"vehicle_type_id":"4","last_reported":1749633116,"current_range_meters":8000,"station_id":"","pricing_plan_id":"cebpf4jnsgd1na2vs0mg"},{"bike_id":"4a547821-6e1b-42ff-bb92-10ab6581a149","system_id":"levelo_inurba_marseille","lat":43.31829,"lon":5.37467,"is_reserved":false,"is_disabled":false,"rental_uris":{"android":"levelo://app?vid=4a547821-6e1b-42ff-bb92-10ab6581a149","ios":"levelo://app?vid=4a547821-6e1b-42ff-bb92-10ab6581a149"},"vehicle_type_id":"4","last_reported":1749633116,"current_range_meters":8800,"station_id":"","pricing_plan_id":"cebpf4jnsgd1na2vs0mg"},{"bike_id":"5077581b-cebb-46fc-ba69-4fa8272d4810","system_id":"levelo_inurba_marseille","lat":43.21365,"lon":5.35519,"is_reserved":false,"is_disabled":false,"rental_uris":{"android":"levelo://app?vid=5077581b-cebb-46fc-ba69-4fa8272d4810","ios":"levelo://app?vid=5077581b-cebb-46fc-ba69-4fa8272d4810"},"vehicle_type_id":"4","last_reported":1749633116,"current_range_meters":8800,"station_id":"","pricing_plan_id":"cebpf4jnsgd1na2vs0mg"},{"bike_id":"30d48a95-a68b-4759-8123-b20e88242c2a","system_id":"levelo_inurba_marseille","lat":43.2315,"lon":5.43711,"is_reserved":false,"is_disabled":false,"rental_uris":{"android":"levelo://app?vid=30d48a95-a68b-4759-8123-b20e88242c2a","ios":"levelo://app?vid=30d48a95-a68b-4759-8123-b20e88242c2a"},"vehicle_type_id":"4","last_reported":1749633116,"current_range_meters":8800,"station_id":"ce4bhmp2rcd13ifvqgog","pricing_plan_id":"cebpf4jnsgd1na2vs0mg"},{"bike_id":"a679cb80-4242-4d18-a97e-ea4a60dc83be","system_id":"levelo_inurba_marseille","lat":43.32179,"lon":5.41285,"is_reserved":false,"is_disabled":false,"rental_uris":{"android":"levelo://app?vid=a679cb80-4242-4d18-a97e-ea4a60dc83be","ios":"levelo://app?vid=a679cb80-4242-4d18-a97e-ea4a60dc83be"},"vehicle_type_id":"4","last_reported":1749633116,"current_range_meters":8800,"station_id":"","pricing_plan_id":"cebpf4jnsgd1na2vs0mg"},{"bike_id":"2fb82a4e-0ee1-4839-87e1-0819fb18ed3d","system_id":"levelo_inurba_marseille","lat":43.27067,"lon":5.42283,"is_reserved":false,"is_disabled":true,"rental_uris":{"android":"levelo://app?vid=2fb82a4e-0ee1-4839-87e1-0819fb18ed3d","ios":"levelo://app?vid=2fb82a4e-0ee1-4839-87e1-0819fb18ed3d"},"vehicle_type_id":"4","last_reported":1749633116,"current_range_meters":8800,"station_id":"ce4bhk92rcd13ifvqgb0","pricing_plan_id":"cebpf4jnsgd1na2vs0mg"},{"bike_id":"39f61f0b-f0e0-4477-bcde-80f5a4da8f09","system_id":"levelo_inurba_marseille","lat":43.32543,"lon":5.41434,"is_reserved":false,"is_disabled":false,"rental_uris":{"android":"levelo://app?vid=39f61f0b-f0e0-4477-bcde-80f5a4da8f09","ios":"levelo://app?vid=39f61f0b-f0e0-4477-bcde-80f5a4da8f09"},"vehicle_type_id":"4","last_reported":1749633116,"current_range_meters":9200,"station_id":"ce4bhq12rcd13ifvqhhg","pricing_plan_id":"cebpf4jnsgd1na2vs0mg"},{"bike_id":"fb7a0414-68de-4bcf-a069-8b76b50de836","system_id":"levelo_inurba_marseille","lat":43.25916,"lon":5.40896,"is_reserved":false,"is_disabled":true,"rental_uris":{"android":"levelo://app?vid=fb7a0414-68de-4bcf-a069-8b76b50de836","ios":"levelo://app?vid=fb7a0414-68de-4bcf-a069-8b76b50de836"},"vehicle_type_id":"4","last_reported":1749633116,"current_range_meters":9200,"station_id":"ce4bhm92rcd13ifvqglg","pricing_plan_id":"cebpf4jnsgd1na2vs0mg"},{"bike_id":"ca27e12a-1f2d-4cf2-be29-12a2b9ff1547","system_id":"levelo_inurba_marseille","lat":43.31725,"lon":5.42398,"is_reserved":false,"is_disabled":false,"rental_uris":{"android":"levelo://app?vid=ca27e12a-1f2d-4cf2-be29-12a2b9ff1547","ios":"levelo://app?vid=ca27e12a-1f2d-4cf2-be29-12a2b9ff1547"},"vehicle_type_id":"4","last_reported":1749633116,"current_range_meters":9200,"station_id":"ce4bhp92rcd13ifvqhbg","pricing_plan_id":"cebpf4jnsgd1na2vs0mg"},{"bike_id":"60f440a3-f416-4034-8f3c-58318f9cd70c","system_id":"levelo_inurba_marseille","lat":43.32532,"lon":5.41456,"is_reserved":false,"is_disabled":false,"rental_uris":{"android":"levelo://app?vid=60f440a3-f416-4034-8f3c-58318f9cd70c","ios":"levelo://app?vid=60f440a3-f416-4034-8f3c-58318f9cd70c"},"vehicle_type_id":"4","last_reported":1749633116,"current_range_meters":9600,"station_id":"ce4bhq12rcd13ifvqhhg","pricing_plan_id":"cebpf4jnsgd1na2vs0mg"},{"bike_id":"c6a83da0-d1f0-40c0-8231-d035071935fc","system_id":"levelo_inurba_marseille","lat":43.28267,"lon":5.35056,"is_reserved":false,"is_disabled":false,"rental_uris":{"android":"levelo://app?vid=c6a83da0-d1f0-40c0-8231-d035071935fc","ios":"levelo://app?vid=c6a83da0-d1f0-40c0-8231-d035071935fc"},"vehicle_type_id":"4","last_reported":1749633116,"current_range_meters":9600,"station_id":"ce4bhbp2rcd13ifvqerg","pricing_plan_id":"cebpf4jnsgd1na2vs0mg"},{"bike_id":"50fb077e-89eb-40da-94be-90a6d38e0080","system_id":"levelo_inurba_marseille","lat":43.26685,"lon":5.38275,"is_reserved":false,"is_disabled":false,"rental_uris":{"android":"levelo://app?vid=50fb077e-89eb-40da-94be-90a6d38e0080","ios":"levelo://app?vid=50fb077e-89eb-40da-94be-90a6d38e0080"},"vehicle_type_id":"4","last_reported":1749633116,"current_range_meters":9600,"station_id":"ce4bhg92rcd13ifvqf90","pricing_plan_id":"cebpf4jnsgd1na2vs0mg"},{"bike_id":"9791d960-5edc-4f6b-8aff-b9047976a9fd","system_id":"levelo_inurba_marseille","lat":43.24999,"lon":5.38928,"is_reserved":false,"is_disabled":false,"rental_uris":{"android":"levelo://app?vid=9791d960-5edc-4f6b-8aff-b9047976a9fd","ios":"levelo://app?vid=9791d960-5edc-4f6b-8aff-b9047976a9fd"},"vehicle_type_id":"4","last_reported":1749633116,"current_range_meters":9600,"station_id":"ce4bhgp2rcd13ifvqfd0","pricing_plan_id":"cebpf4jnsgd1na2vs0mg"},{"bike_id":"ab5d796b-6f87-4b6e-a5bd-6ac051fcacd1","system_id":"levelo_inurba_marseille","lat":43.324806,"lon":5.365708,"is_reserved":false,"is_disabled":false,"rental_uris":{"android":"levelo://app?vid=ab5d796b-6f87-4b6e-a5bd-6ac051fcacd1","ios":"levelo://app?vid=ab5d796b-6f87-4b6e-a5bd-6ac051fcacd1"},"vehicle_type_id":"4","last_reported":1749633116,"current_range_meters":9600,"station_id":"ce4bhs12rcd13ifvqhvg","pricing_plan_id":"cebpf4jnsgd1na2vs0mg"},{"bike_id":"413191a8-b99c-4b21-ad14-c915925f20ff","system_id":"levelo_inurba_marseille","lat":43.280027,"lon":5.425,"is_reserved":false,"is_disabled":true,"rental_uris":{"android":"levelo://app?vid=413191a8-b99c-4b21-ad14-c915925f20ff","ios":"levelo://app?vid=413191a8-b99c-4b21-ad14-c915925f20ff"},"vehicle_type_id":"4","last_reported":1749633116,"current_range_meters":10000,"station_id":"","pricing_plan_id":"cebpf4jnsgd1na2vs0mg"},{"bike_id":"dc85e783-1233-405c-935f-1e6dc53236e9","system_id":"levelo_inurba_marseille","lat":43.337444,"lon":5.374475,"is_reserved":false,"is_disabled":false,"rental_uris":{"android":"levelo://app?vid=dc85e783-1233-405c-935f-1e6dc53236e9","ios":"levelo://app?vid=dc85e783-1233-405c-935f-1e6dc53236e9"},"vehicle_type_id":"4","last_reported":1749633116,"current_range_meters":10000,"station_id":"ce4bh512rcd13ifvqe2g","pricing_plan_id":"cebpf4jnsgd1na2vs0mg"},{"bike_id":"953a97a6-aacf-4cac-bc3c-29b9832d784d","system_id":"levelo_inurba_marseille","lat":43.28415,"lon":5.3499,"is_reserved":false,"is_disabled":false,"rental_uris":{"android":"levelo://app?vid=953a97a6-aacf-4cac-bc3c-29b9832d784d","ios":"levelo://app?vid=953a97a6-aacf-4cac-bc3c-29b9832d784d"},"vehicle_type_id":"4","last_reported":1749633116,"current_range_meters":10000,"station_id":"ce4bhbh2rcd13ifvqepg","pricing_plan_id":"cebpf4jnsgd1na2vs0mg"},{"bike_id":"4fe28e52-1584-4175-a933-4b923c06007d","system_id":"levelo_inurba_marseille","lat":43.30878,"lon":5.37186,"is_reserved":false,"is_disabled":false,"rental_uris":{"android":"levelo://app?vid=4fe28e52-1584-4175-a933-4b923c06007d","ios":"levelo://app?vid=4fe28e52-1584-4175-a933-4b923c06007d"},"vehicle_type_id":"4","last_reported":1749633116,"current_range_meters":10000,"station_id":"ce4bguh2rcd13ifvqckg","pricing_plan_id":"cebpf4jnsgd1na2vs0mg"},{"bike_id":"1e20f032-0f6a-40b2-ad29-e4d2225496fa","system_id":"levelo_inurba_marseille","lat":43.30269,"lon":5.36978,"is_reserved":false,"is_disabled":false,"rental_uris":{"android":"levelo://app?vid=1e20f032-0f6a-40b2-ad29-e4d2225496fa","ios":"levelo://app?vid=1e20f032-0f6a-40b2-ad29-e4d2225496fa"},"vehicle_type_id":"4","last_reported":1749633116,"current_range_meters":10800,"station_id":"","pricing_plan_id":"cebpf4jnsgd1na2vs0mg"},{"bike_id":"7827f560-396e-4aa9-ab9a-a4e8cbce4e7d","system_id":"levelo_inurba_marseille","lat":43.308442,"lon":5.368068,"is_reserved":false,"is_disabled":false,"rental_uris":{"android":"levelo://app?vid=7827f560-396e-4aa9-ab9a-a4e8cbce4e7d","ios":"levelo://app?vid=7827f560-396e-4aa9-ab9a-a4e8cbce4e7d"},"vehicle_type_id":"4","last_reported":1749633116,"current_range_meters":10000,"station_id":"","pricing_plan_id":"cebpf4jnsgd1na2vs0mg"},{"bike_id":"f30baccb-ba7d-4593-a009-83e09e2349a8","system_id":"levelo_inurba_marseille","lat":43.29303,"lon":5.37458,"is_reserved":false,"is_disabled":false,"rental_uris":{"android":"levelo://app?vid=f30baccb-ba7d-4593-a009-83e09e2349a8","ios":"levelo://app?vid=f30baccb-ba7d-4593-a009-83e09e2349a8"},"vehicle_type_id":"4","last_reported":1749633116,"current_range_meters":10000,"station_id":"ce4bgi12rcd13ifvqb70","pricing_plan_id":"cebpf4jnsgd1na2vs0mg"},{"bike_id":"24677b43-078a-4210-ad8c-935106b74628","system_id":"levelo_inurba_marseille","lat":43.30315,"lon":5.36902,"is_reserved":false,"is_disabled":false,"rental_uris":{"android":"levelo://app?vid=24677b43-078a-4210-ad8c-935106b74628","ios":"levelo://app?vid=24677b43-078a-4210-ad8c-935106b74628"},"vehicle_type_id":"4","last_reported":1749633116,"current_range_meters":10000,"station_id":"ce4bgqh2rcd13ifvqc5g","pricing_plan_id":"cebpf4jnsgd1na2vs0mg"},{"bike_id":"187b0a7b-e256-4c19-9794-bb250a6c5653","system_id":"levelo_inurba_marseille","lat":43.31847,"lon":5.37958,"is_reserved":false,"is_disabled":false,"rental_uris":{"android":"levelo://app?vid=187b0a7b-e256-4c19-9794-bb250a6c5653","ios":"levelo://app?vid=187b0a7b-e256-4c19-9794-bb250a6c5653"},"vehicle_type_id":"4","last_reported":1749633116,"current_range_meters":10000,"station_id":"","pricing_plan_id":"cebpf4jnsgd1na2vs0mg"},{"bike_id":"15138ce4-9850-4a09-9eb2-0da12393d0d8","system_id":"levelo_inurba_marseille","lat":43.31716,"lon":5.436989,"is_reserved":false,"is_disabled":false,"rental_uris":{"android":"levelo://app?vid=15138ce4-9850-4a09-9eb2-0da12393d0d8","ios":"levelo://app?vid=15138ce4-9850-4a09-9eb2-0da12393d0d8"},"vehicle_type_id":"4","last_reported":1749633116,"current_range_meters":10000,"station_id":"ce4bhp92rcd13ifvqhcg","pricing_plan_id":"cebpf4jnsgd1na2vs0mg"},{"bike_id":"2909fdf1-5de0-4015-965c-4039eac7212a","system_id":"levelo_inurba_marseille","lat":43.31685,"lon":5.40471,"is_reserved":false,"is_disabled":false,"rental_uris":{"android":"levelo://app?vid=2909fdf1-5de0-4015-965c-4039eac7212a","ios":"levelo://app?vid=2909fdf1-5de0-4015-965c-4039eac7212a"},"vehicle_type_id":"4","last_reported":1749633116,"current_range_meters":10800,"station_id":"ce4bh012rcd13ifvqd00","pricing_plan_id":"cebpf4jnsgd1na2vs0mg"},{"bike_id":"236e422e-563d-45a9-89dd-b134d86f6f50","system_id":"levelo_inurba_marseille","lat":43.29225,"lon":5.39604,"is_reserved":false,"is_disabled":false,"rental_uris":{"android":"levelo://app?vid=236e422e-563d-45a9-89dd-b134d86f6f50","ios":"levelo://app?vid=236e422e-563d-45a9-89dd-b134d86f6f50"},"vehicle_type_id":"4","last_reported":1749633116,"current_range_meters":10800,"station_id":"","pricing_plan_id":"cebpf4jnsgd1na2vs0mg"},{"bike_id":"6cacf355-0615-4db5-8e8e-baf841909203","system_id":"levelo_inurba_marseille","lat":43.27617,"lon":5.36109,"is_reserved":false,"is_disabled":false,"rental_uris":{"android":"levelo://app?vid=6cacf355-0615-4db5-8e8e-baf841909203","ios":"levelo://app?vid=6cacf355-0615-4db5-8e8e-baf841909203"},"vehicle_type_id":"4","last_reported":1749633116,"current_range_meters":10800,"station_id":"ce4bgj92rcd13ifvqbe0","pricing_plan_id":"cebpf4jnsgd1na2vs0mg"},{"bike_id":"de0aa6c2-4073-472d-8aa9-a45c3595c177","system_id":"levelo_inurba_marseille","lat":43.302135,"lon":5.394708,"is_reserved":false,"is_disabled":false,"rental_uris":{"android":"levelo://app?vid=de0aa6c2-4073-472d-8aa9-a45c3595c177","ios":"levelo://app?vid=de0aa6c2-4073-472d-8aa9-a45c3595c177"},"vehicle_type_id":"4","last_reported":1749633116,"current_range_meters":10800,"station_id":"ce4bh0p2rcd13ifvqd70","pricing_plan_id":"cebpf4jnsgd1na2vs0mg"},{"bike_id":"4a9b6360-1de0-48d3-9ebd-1e03d2c6d941","system_id":"levelo_inurba_marseille","lat":43.29105,"lon":5.38117,"is_reserved":false,"is_disabled":false,"rental_uris":{"android":"levelo://app?vid=4a9b6360-1de0-48d3-9ebd-1e03d2c6d941","ios":"levelo://app?vid=4a9b6360-1de0-48d3-9ebd-1e03d2c6d941"},"vehicle_type_id":"4","last_reported":1749633116,"current_range_meters":10800,"station_id":"ce4bh512rcd13ifvqe2g","pricing_plan_id":"cebpf4jnsgd1na2vs0mg"},{"bike_id":"0ab23c3f-531d-47b9-816b-8f9005a8b6a8","system_id":"levelo_inurba_marseille","lat":43.28861,"lon":5.35848,"is_reserved":false,"is_disabled":false,"rental_uris":{"android":"levelo://app?vid=0ab23c3f-531d-47b9-816b-8f9005a8b6a8","ios":"levelo://app?vid=0ab23c3f-531d-47b9-816b-8f9005a8b6a8"},"vehicle_type_id":"4","last_reported":1749633116,"current_range_meters":10800,"station_id":"ce4bhb12rcd13ifvqem0","pricing_plan_id":"cebpf4jnsgd1na2vs0mg"},{"bike_id":"acecc9dd-9f66-4fc9-b678-7dfbfc49612a","system_id":"levelo_inurba_marseille","lat":43.30366,"lon":5.42481,"is_reserved":false,"is_disabled":false,"rental_uris":{"android":"levelo://app?vid=acecc9dd-9f66-4fc9-b678-7dfbfc49612a","ios":"levelo://app?vid=acecc9dd-9f66-4fc9-b678-7dfbfc49612a"},"vehicle_type_id":"4","last_reported":1749633116,"current_range_meters":11200,"station_id":"ce4bhoh2rcd13ifvqh6g","pricing_plan_id":"cebpf4jnsgd1na2vs0mg"},{"bike_id":"90c79424-ca44-4c1c-9432-73fda46cb8e1","system_id":"levelo_inurba_marseille","lat":43.307667,"lon":5.377045,"is_reserved":false,"is_disabled":false,"rental_uris":{"android":"levelo://app?vid=90c79424-ca44-4c1c-9432-73fda46cb8e1","ios":"levelo://app?vid=90c79424-ca44-4c1c-9432-73fda46cb8e1"},"vehicle_type_id":"4","last_reported":1749633116,"current_range_meters":10800,"station_id":"ce4bgv92rcd13ifvqcq0","pricing_plan_id":"cebpf4jnsgd1na2vs0mg"},{"bike_id":"e6d67648-0d34-4392-8e2c-f83f208c9d05","system_id":"levelo_inurba_marseille","lat":43.31685,"lon":5.40453,"is_reserved":false,"is_disabled":false,"rental_uris":{"android":"levelo://app?vid=e6d67648-0d34-4392-8e2c-f83f208c9d05","ios":"levelo://app?vid=e6d67648-0d34-4392-8e2c-f83f208c9d05"},"vehicle_type_id":"4","last_reported":1749633116,"current_range_meters":11200,"station_id":"ce4bh012rcd13ifvqd00","pricing_plan_id":"cebpf4jnsgd1na2vs0mg"},{"bike_id":"18fc0abe-f563-414b-9e29-04b39385f28f","system_id":"levelo_inurba_marseille","lat":43.311693,"lon":5.387235,"is_reserved":false,"is_disabled":false,"rental_uris":{"android":"levelo://app?vid=18fc0abe-f563-414b-9e29-04b39385f28f","ios":"levelo://app?vid=18fc0abe-f563-414b-9e29-04b39385f28f"},"vehicle_type_id":"4","last_reported":1749633116,"current_range_meters":10800,"station_id":"ce4bgv12rcd13ifvqcp0","pricing_plan_id":"cebpf4jnsgd1na2vs0mg"},{"bike_id":"da6bc244-5269-48b3-95cc-6d42b316a4d4","system_id":"levelo_inurba_marseille","lat":43.29002,"lon":5.35607,"is_reserved":false,"is_disabled":false,"rental_uris":{"android":"levelo://app?vid=da6bc244-5269-48b3-95cc-6d42b316a4d4","ios":"levelo://app?vid=da6bc244-5269-48b3-95cc-6d42b316a4d4"},"vehicle_type_id":"4","last_reported":1749633116,"current_range_meters":11200,"station_id":"ce4bhb92rcd13ifvqen0","pricing_plan_id":"cebpf4jnsgd1na2vs0mg"},{"bike_id":"8f101082-5782-4114-b1ed-9162869ececf","system_id":"levelo_inurba_marseille","lat":43.284602,"lon":5.358886,"is_reserved":false,"is_disabled":false,"rental_uris":{"android":"levelo://app?vid=8f101082-5782-4114-b1ed-9162869ececf","ios":"levelo://app?vid=8f101082-5782-4114-b1ed-9162869ececf"},"vehicle_type_id":"4","last_reported":1749633116,"current_range_meters":11200,"station_id":"","pricing_plan_id":"cebpf4jnsgd1na2vs0mg"},{"bike_id":"c88aeb1a-3323-406e-bba7-891ec8bfc7be","system_id":"levelo_inurba_marseille","lat":43.29271,"lon":5.3684,"is_reserved":false,"is_disabled":false,"rental_uris":{"android":"levelo://app?vid=c88aeb1a-3323-406e-bba7-891ec8bfc7be","ios":"levelo://app?vid=c88aeb1a-3323-406e-bba7-891ec8bfc7be"},"vehicle_type_id":"4","last_reported":1749633116,"current_range_meters":11200,"station_id":"ce4bhbp2rcd13ifvqesg","pricing_plan_id":"cebpf4jnsgd1na2vs0mg"},{"bike_id":"f1cd0589-32b7-4712-a643-a2908bf2196d","system_id":"levelo_inurba_marseille","lat":43.27486,"lon":5.42452,"is_reserved":false,"is_disabled":false,"rental_uris":{"android":"levelo://app?vid=f1cd0589-32b7-4712-a643-a2908bf2196d","ios":"levelo://app?vid=f1cd0589-32b7-4712-a643-a2908bf2196d"},"vehicle_type_id":"4","last_reported":1749633116,"current_range_meters":11600,"station_id":"ce4bhn92rcd13ifvqgrg","pricing_plan_id":"cebpf4jnsgd1na2vs0mg"},{"bike_id":"9258c858-7e3b-4e7e-9e4f-c22650d7cb55","system_id":"levelo_inurba_marseille","lat":43.28279,"lon":5.35082,"is_reserved":false,"is_disabled":false,"rental_uris":{"android":"levelo://app?vid=9258c858-7e3b-4e7e-9e4f-c22650d7cb55","ios":"levelo://app?vid=9258c858-7e3b-4e7e-9e4f-c22650d7cb55"},"vehicle_type_id":"4","last_reported":1749633116,"current_range_meters":11600,"station_id":"ce4bhbp2rcd13ifvqerg","pricing_plan_id":"cebpf4jnsgd1na2vs0mg"},{"bike_id":"4aeb08c0-893b-4f67-9632-6a10b65a51ce","system_id":"levelo_inurba_marseille","lat":43.29096,"lon":5.38155,"is_reserved":false,"is_disabled":false,"rental_uris":{"android":"levelo://app?vid=4aeb08c0-893b-4f67-9632-6a10b65a51ce","ios":"levelo://app?vid=4aeb08c0-893b-4f67-9632-6a10b65a51ce"},"vehicle_type_id":"4","last_reported":1749633116,"current_range_meters":11600,"station_id":"ce4bh512rcd13ifvqe2g","pricing_plan_id":"cebpf4jnsgd1na2vs0mg"},{"bike_id":"83c117a4-4454-49a9-9b2f-e548255e6ba9","system_id":"levelo_inurba_marseille","lat":43.25703,"lon":5.41111,"is_reserved":false,"is_disabled":false,"rental_uris":{"android":"levelo://app?vid=83c117a4-4454-49a9-9b2f-e548255e6ba9","ios":"levelo://app?vid=83c117a4-4454-49a9-9b2f-e548255e6ba9"},"vehicle_type_id":"4","last_reported":1749633116,"current_range_meters":11600,"station_id":"ce4bhkp2rcd13ifvqgd0","pricing_plan_id":"cebpf4jnsgd1na2vs0mg"},{"bike_id":"262903a9-22b9-4b2d-96c2-2e5dbd155090","system_id":"levelo_inurba_marseille","lat":43.32419,"lon":5.36569,"is_reserved":false,"is_disabled":false,"rental_uris":{"android":"levelo://app?vid=262903a9-22b9-4b2d-96c2-2e5dbd155090","ios":"levelo://app?vid=262903a9-22b9-4b2d-96c2-2e5dbd155090"},"vehicle_type_id":"4","last_reported":1749633116,"current_range_meters":12000,"station_id":"","pricing_plan_id":"cebpf4jnsgd1na2vs0mg"},{"bike_id":"72a94b25-2fe0-4919-8521-e8b66695aa46","system_id":"levelo_inurba_marseille","lat":43.286987,"lon":5.399945,"is_reserved":false,"is_disabled":false,"rental_uris":{"android":"levelo://app?vid=72a94b25-2fe0-4919-8521-e8b66695aa46","ios":"levelo://app?vid=72a94b25-2fe0-4919-8521-e8b66695aa46"},"vehicle_type_id":"4","last_reported":1749633116,"current_range_meters":12000,"station_id":"","pricing_plan_id":"cebpf4jnsgd1na2vs0mg"},{"bike_id":"a6a9aa78-7299-47ac-a784-76282a099506","system_id":"levelo_inurba_marseille","lat":43.30152,"lon":5.38098,"is_reserved":false,"is_disabled":true,"rental_uris":{"android":"levelo://app?vid=a6a9aa78-7299-47ac-a784-76282a099506","ios":"levelo://app?vid=a6a9aa78-7299-47ac-a784-76282a099506"},"vehicle_type_id":"4","last_reported":1749633116,"current_range_meters":12000,"station_id":"ce4bgjp2rcd13ifvqbh0","pricing_plan_id":"cebpf4jnsgd1na2vs0mg"},{"bike_id":"84f5a926-1dd6-4535-b647-2764ce0ca103","system_id":"levelo_inurba_marseille","lat":43.32116,"lon":5.36777,"is_reserved":false,"is_disabled":false,"rental_uris":{"android":"levelo://app?vid=84f5a926-1dd6-4535-b647-2764ce0ca103","ios":"levelo://app?vid=84f5a926-1dd6-4535-b647-2764ce0ca103"},"vehicle_type_id":"4","last_reported":1749633116,"current_range_meters":12000,"station_id":"ce4bhrh2rcd13ifvqhug","pricing_plan_id":"cebpf4jnsgd1na2vs0mg"},{"bike_id":"32851809-7653-47f4-abe6-3b3cd9152d0e","system_id":"levelo_inurba_marseille","lat":43.292606,"lon":5.368496,"is_reserved":false,"is_disabled":false,"rental_uris":{"android":"levelo://app?vid=32851809-7653-47f4-abe6-3b3cd9152d0e","ios":"levelo://app?vid=32851809-7653-47f4-abe6-3b3cd9152d0e"},"vehicle_type_id":"4","last_reported":1749633116,"current_range_meters":12000,"station_id":"ce4bhbp2rcd13ifvqesg","pricing_plan_id":"cebpf4jnsgd1na2vs0mg"},{"bike_id":"c4ac7a5c-c960-4c83-b776-b8ff573e7853","system_id":"levelo_inurba_marseille","lat":43.303768,"lon":5.424798,"is_reserved":false,"is_disabled":false,"rental_uris":{"android":"levelo://app?vid=c4ac7a5c-c960-4c83-b776-b8ff573e7853","ios":"levelo://app?vid=c4ac7a5c-c960-4c83-b776-b8ff573e7853"},"vehicle_type_id":"4","last_reported":1749633116,"current_range_meters":12000,"station_id":"ce4bhoh2rcd13ifvqh6g","pricing_plan_id":"cebpf4jnsgd1na2vs0mg"},{"bike_id":"4c1d17d4-327b-412a-b5fe-13fda86712c4","system_id":"levelo_inurba_marseille","lat":43.27507,"lon":5.42435,"is_reserved":false,"is_disabled":false,"rental_uris":{"android":"levelo://app?vid=4c1d17d4-327b-412a-b5fe-13fda86712c4","ios":"levelo://app?vid=4c1d17d4-327b-412a-b5fe-13fda86712c4"},"vehicle_type_id":"4","last_reported":1749633116,"current_range_meters":12000,"station_id":"ce4bhn92rcd13ifvqgrg","pricing_plan_id":"cebpf4jnsgd1na2vs0mg"},{"bike_id":"83bfccf3-2057-4c03-bcac-6bf14595c4bf","system_id":"levelo_inurba_marseille","lat":43.29033,"lon":5.39979,"is_reserved":false,"is_disabled":false,"rental_uris":{"android":"levelo://app?vid=83bfccf3-2057-4c03-bcac-6bf14595c4bf","ios":"levelo://app?vid=83bfccf3-2057-4c03-bcac-6bf14595c4bf"},"vehicle_type_id":"4","last_reported":1749633116,"current_range_meters":12400,"station_id":"ce4bh392rcd13ifvqdm0","pricing_plan_id":"cebpf4jnsgd1na2vs0mg"},{"bike_id":"165ecccf-321b-45ee-abfd-553d9801aac0","system_id":"levelo_inurba_marseille","lat":43.29039,"lon":5.35582,"is_reserved":false,"is_disabled":false,"rental_uris":{"android":"levelo://app?vid=165ecccf-321b-45ee-abfd-553d9801aac0","ios":"levelo://app?vid=165ecccf-321b-45ee-abfd-553d9801aac0"},"vehicle_type_id":"4","last_reported":1749633116,"current_range_meters":12400,"station_id":"ce4bhb92rcd13ifvqen0","pricing_plan_id":"cebpf4jnsgd1na2vs0mg"},{"bike_id":"91252cb4-db98-4cff-ba49-0337a6eacf8f","system_id":"levelo_inurba_marseille","lat":43.319844,"lon":5.387774,"is_reserved":false,"is_disabled":false,"rental_uris":{"android":"levelo://app?vid=91252cb4-db98-4cff-ba49-0337a6eacf8f","ios":"levelo://app?vid=91252cb4-db98-4cff-ba49-0337a6eacf8f"},"vehicle_type_id":"4","last_reported":1749633116,"current_range_meters":12400,"station_id":"","pricing_plan_id":"cebpf4jnsgd1na2vs0mg"},{"bike_id":"0b193d91-1005-43f2-a074-0bd92319b273","system_id":"levelo_inurba_marseille","lat":43.26948,"lon":5.38627,"is_reserved":false,"is_disabled":false,"rental_uris":{"android":"levelo://app?vid=0b193d91-1005-43f2-a074-0bd92319b273","ios":"levelo://app?vid=0b193d91-1005-43f2-a074-0bd92319b273"},"vehicle_type_id":"4","last_reported":1749633116,"current_range_meters":12800,"station_id":"ce4bhh92rcd13ifvqfh0","pricing_plan_id":"cebpf4jnsgd1na2vs0mg"},{"bike_id":"55e83d7a-8994-48a7-8cb9-e7efa8fb8dde","system_id":"levelo_inurba_marseille","lat":43.23149,"lon":5.43725,"is_reserved":false,"is_disabled":false,"rental_uris":{"android":"levelo://app?vid=55e83d7a-8994-48a7-8cb9-e7efa8fb8dde","ios":"levelo://app?vid=55e83d7a-8994-48a7-8cb9-e7efa8fb8dde"},"vehicle_type_id":"4","last_reported":1749633116,"current_range_meters":12800,"station_id":"ce4bhmp2rcd13ifvqgog","pricing_plan_id":"cebpf4jnsgd1na2vs0mg"},{"bike_id":"398fc2d5-304a-4200-ba54-ed87b973990b","system_id":"levelo_inurba_marseille","lat":43.25926,"lon":5.4091,"is_reserved":false,"is_disabled":true,"rental_uris":{"android":"levelo://app?vid=398fc2d5-304a-4200-ba54-ed87b973990b","ios":"levelo://app?vid=398fc2d5-304a-4200-ba54-ed87b973990b"},"vehicle_type_id":"4","last_reported":1749633116,"current_range_meters":12800,"station_id":"ce4bhm92rcd13ifvqglg","pricing_plan_id":"cebpf4jnsgd1na2vs0mg"},{"bike_id":"4fd56cf1-7a39-4485-8445-5f3afeb675f5","system_id":"levelo_inurba_marseille","lat":43.25113,"lon":5.40318,"is_reserved":false,"is_disabled":false,"rental_uris":{"android":"levelo://app?vid=4fd56cf1-7a39-4485-8445-5f3afeb675f5","ios":"levelo://app?vid=4fd56cf1-7a39-4485-8445-5f3afeb675f5"},"vehicle_type_id":"4","last_reported":1749633116,"current_range_meters":13600,"station_id":"ce4bhlh2rcd13ifvqgig","pricing_plan_id":"cebpf4jnsgd1na2vs0mg"},{"bike_id":"4727b314-3bd1-43f9-b43d-76c9166f290d","system_id":"levelo_inurba_marseille","lat":43.323467,"lon":5.406303,"is_reserved":false,"is_disabled":false,"rental_uris":{"android":"levelo://app?vid=4727b314-3bd1-43f9-b43d-76c9166f290d","ios":"levelo://app?vid=4727b314-3bd1-43f9-b43d-76c9166f290d"},"vehicle_type_id":"4","last_reported":1749633116,"current_range_meters":13600,"station_id":"ce4bhq92rcd13ifvqhjg","pricing_plan_id":"cebpf4jnsgd1na2vs0mg"},{"bike_id":"1f42e774-0b65-4738-b3e3-0aae7ec0e65c","system_id":"levelo_inurba_marseille","lat":43.29576,"lon":5.37513,"is_reserved":false,"is_disabled":false,"rental_uris":{"android":"levelo://app?vid=1f42e774-0b65-4738-b3e3-0aae7ec0e65c","ios":"levelo://app?vid=1f42e774-0b65-4738-b3e3-0aae7ec0e65c"},"vehicle_type_id":"4","last_reported":1749633116,"current_range_meters":13600,"station_id":"ce4bgh92rcd13ifvqb50","pricing_plan_id":"cebpf4jnsgd1na2vs0mg"},{"bike_id":"1acfb620-cad7-48c0-8901-d7a5b74a5b65","system_id":"levelo_inurba_marseille","lat":43.33751,"lon":5.37456,"is_reserved":false,"is_disabled":false,"rental_uris":{"android":"levelo://app?vid=1acfb620-cad7-48c0-8901-d7a5b74a5b65","ios":"levelo://app?vid=1acfb620-cad7-48c0-8901-d7a5b74a5b65"},"vehicle_type_id":"4","last_reported":1749633116,"current_range_meters":13600,"station_id":"","pricing_plan_id":"cebpf4jnsgd1na2vs0mg"},{"bike_id":"266b4efa-d488-4157-9c86-7391ea966a22","system_id":"levelo_inurba_marseille","lat":43.29096,"lon":5.38138,"is_reserved":false,"is_disabled":false,"rental_uris":{"android":"levelo://app?vid=266b4efa-d488-4157-9c86-7391ea966a22","ios":"levelo://app?vid=266b4efa-d488-4157-9c86-7391ea966a22"},"vehicle_type_id":"4","last_reported":1749633116,"current_range_meters":13600,"station_id":"ce4bh512rcd13ifvqe2g","pricing_plan_id":"cebpf4jnsgd1na2vs0mg"},{"bike_id":"87b276b1-44a3-4cbf-86cf-448088384480","system_id":"levelo_inurba_marseille","lat":43.33607,"lon":5.41021,"is_reserved":false,"is_disabled":false,"rental_uris":{"android":"levelo://app?vid=87b276b1-44a3-4cbf-86cf-448088384480","ios":"levelo://app?vid=87b276b1-44a3-4cbf-86cf-448088384480"},"vehicle_type_id":"4","last_reported":1749633116,"current_range_meters":14000,"station_id":"ce4bhqh2rcd13ifvqhmg","pricing_plan_id":"cebpf4jnsgd1na2vs0mg"},{"bike_id":"348e51ac-c165-4532-b7ef-cd9c150faaf0","system_id":"levelo_inurba_marseille","lat":43.29941,"lon":5.38519,"is_reserved":false,"is_disabled":false,"rental_uris":{"android":"levelo://app?vid=348e51ac-c165-4532-b7ef-cd9c150faaf0","ios":"levelo://app?vid=348e51ac-c165-4532-b7ef-cd9c150faaf0"},"vehicle_type_id":"4","last_reported":1749633116,"current_range_meters":14000,"station_id":"ce4bgj92rcd13ifvqbd0","pricing_plan_id":"cebpf4jnsgd1na2vs0mg"},{"bike_id":"229c4061-f65e-47d7-8879-866adc3a27d6","system_id":"levelo_inurba_marseille","lat":43.27435,"lon":5.39392,"is_reserved":false,"is_disabled":false,"rental_uris":{"android":"levelo://app?vid=229c4061-f65e-47d7-8879-866adc3a27d6","ios":"levelo://app?vid=229c4061-f65e-47d7-8879-866adc3a27d6"},"vehicle_type_id":"4","last_reported":1749633116,"current_range_meters":14000,"station_id":"ce4bhdp2rcd13ifvqf20","pricing_plan_id":"cebpf4jnsgd1na2vs0mg"},{"bike_id":"f84da1a8-4a2f-448e-8806-43ca14a6d506","system_id":"levelo_inurba_marseille","lat":43.21188,"lon":5.35073,"is_reserved":false,"is_disabled":false,"rental_uris":{"android":"levelo://app?vid=f84da1a8-4a2f-448e-8806-43ca14a6d506","ios":"levelo://app?vid=f84da1a8-4a2f-448e-8806-43ca14a6d506"},"vehicle_type_id":"4","last_reported":1749633116,"current_range_meters":14400,"station_id":"st_cvj6sg6p6f1abm77japg","pricing_plan_id":"cebpf4jnsgd1na2vs0mg"},{"bike_id":"8c805d87-e2a4-4527-98b5-4015d38c4d15","system_id":"levelo_inurba_marseille","lat":43.29869,"lon":5.39729,"is_reserved":false,"is_disabled":false,"rental_uris":{"android":"levelo://app?vid=8c805d87-e2a4-4527-98b5-4015d38c4d15","ios":"levelo://app?vid=8c805d87-e2a4-4527-98b5-4015d38c4d15"},"vehicle_type_id":"4","last_reported":1749633116,"current_range_meters":14400,"station_id":"ce4bh0h2rcd13ifvqd50","pricing_plan_id":"cebpf4jnsgd1na2vs0mg"},{"bike_id":"8f007e10-4732-4d06-80bc-94e33b5da4e7","system_id":"levelo_inurba_marseille","lat":43.30162,"lon":5.39426,"is_reserved":false,"is_disabled":false,"rental_uris":{"android":"levelo://app?vid=8f007e10-4732-4d06-80bc-94e33b5da4e7","ios":"levelo://app?vid=8f007e10-4732-4d06-80bc-94e33b5da4e7"},"vehicle_type_id":"4","last_reported":1749633116,"current_range_meters":14800,"station_id":"","pricing_plan_id":"cebpf4jnsgd1na2vs0mg"},{"bike_id":"53533a60-fdf7-489a-8aaf-a5f0762e05f3","system_id":"levelo_inurba_marseille","lat":43.2959,"lon":5.36735,"is_reserved":false,"is_disabled":false,"rental_uris":{"android":"levelo://app?vid=53533a60-fdf7-489a-8aaf-a5f0762e05f3","ios":"levelo://app?vid=53533a60-fdf7-489a-8aaf-a5f0762e05f3"},"vehicle_type_id":"4","last_reported":1749633116,"current_range_meters":14800,"station_id":"ce4bgph2rcd13ifvqc2g","pricing_plan_id":"cebpf4jnsgd1na2vs0mg"},{"bike_id":"9231f021-d06e-4dc9-b555-e59bf1d45ecd","system_id":"levelo_inurba_marseille","lat":43.32113,"lon":5.36761,"is_reserved":false,"is_disabled":false,"rental_uris":{"android":"levelo://app?vid=9231f021-d06e-4dc9-b555-e59bf1d45ecd","ios":"levelo://app?vid=9231f021-d06e-4dc9-b555-e59bf1d45ecd"},"vehicle_type_id":"4","last_reported":1749633116,"current_range_meters":14800,"station_id":"ce4bhrh2rcd13ifvqhug","pricing_plan_id":"cebpf4jnsgd1na2vs0mg"},{"bike_id":"1a7da86e-4239-4ca5-9888-f2523b01955a","system_id":"levelo_inurba_marseille","lat":43.299,"lon":5.37464,"is_reserved":false,"is_disabled":false,"rental_uris":{"android":"levelo://app?vid=1a7da86e-4239-4ca5-9888-f2523b01955a","ios":"levelo://app?vid=1a7da86e-4239-4ca5-9888-f2523b01955a"},"vehicle_type_id":"4","last_reported":1749633116,"current_range_meters":15200,"station_id":"ce4bgjh2rcd13ifvqbg0","pricing_plan_id":"cebpf4jnsgd1na2vs0mg"},{"bike_id":"68c7cd7d-5234-4bd5-a02e-5a89ffc2fdb6","system_id":"levelo_inurba_marseille","lat":43.24176,"lon":5.39725,"is_reserved":false,"is_disabled":false,"rental_uris":{"android":"levelo://app?vid=68c7cd7d-5234-4bd5-a02e-5a89ffc2fdb6","ios":"levelo://app?vid=68c7cd7d-5234-4bd5-a02e-5a89ffc2fdb6"},"vehicle_type_id":"4","last_reported":1749633116,"current_range_meters":15200,"station_id":"ce4bhn12rcd13ifvqgpg","pricing_plan_id":"cebpf4jnsgd1na2vs0mg"},{"bike_id":"d6515318-ac2c-47f0-b0e4-ac5ab2c5d151","system_id":"levelo_inurba_marseille","lat":43.2418,"lon":5.36381,"is_reserved":false,"is_disabled":false,"rental_uris":{"android":"levelo://app?vid=d6515318-ac2c-47f0-b0e4-ac5ab2c5d151","ios":"levelo://app?vid=d6515318-ac2c-47f0-b0e4-ac5ab2c5d151"},"vehicle_type_id":"4","last_reported":1749633116,"current_range_meters":15200,"station_id":"cpo36qri1sfpv3e86is0","pricing_plan_id":"cebpf4jnsgd1na2vs0mg"},{"bike_id":"ac528de1-3758-4c95-a1b4-b85494606bd5","system_id":"levelo_inurba_marseille","lat":43.27057,"lon":5.42267,"is_reserved":false,"is_disabled":false,"rental_uris":{"android":"levelo://app?vid=ac528de1-3758-4c95-a1b4-b85494606bd5","ios":"levelo://app?vid=ac528de1-3758-4c95-a1b4-b85494606bd5"},"vehicle_type_id":"4","last_reported":1749633116,"current_range_meters":15200,"station_id":"ce4bhk92rcd13ifvqgb0","pricing_plan_id":"cebpf4jnsgd1na2vs0mg"},{"bike_id":"314bac2c-e47f-46cd-afcd-53cd84a7d142","system_id":"levelo_inurba_marseille","lat":43.2761,"lon":5.36094,"is_reserved":false,"is_disabled":true,"rental_uris":{"android":"levelo://app?vid=314bac2c-e47f-46cd-afcd-53cd84a7d142","ios":"levelo://app?vid=314bac2c-e47f-46cd-afcd-53cd84a7d142"},"vehicle_type_id":"4","last_reported":1749633116,"current_range_meters":15200,"station_id":"","pricing_plan_id":"cebpf4jnsgd1na2vs0mg"},{"bike_id":"dc6fca2e-5f1c-4ae8-aefe-7f65f0547e41","system_id":"levelo_inurba_marseille","lat":43.33766,"lon":5.37441,"is_reserved":false,"is_disabled":false,"rental_uris":{"android":"levelo://app?vid=dc6fca2e-5f1c-4ae8-aefe-7f65f0547e41","ios":"levelo://app?vid=dc6fca2e-5f1c-4ae8-aefe-7f65f0547e41"},"vehicle_type_id":"4","last_reported":1749633116,"current_range_meters":16000,"station_id":"","pricing_plan_id":"cebpf4jnsgd1na2vs0mg"},{"bike_id":"a2421370-e442-436f-a98a-844d44299694","system_id":"levelo_inurba_marseille","lat":43.32317,"lon":5.36657,"is_reserved":false,"is_disabled":false,"rental_uris":{"android":"levelo://app?vid=a2421370-e442-436f-a98a-844d44299694","ios":"levelo://app?vid=a2421370-e442-436f-a98a-844d44299694"},"vehicle_type_id":"4","last_reported":1749633116,"current_range_meters":16000,"station_id":"","pricing_plan_id":"cebpf4jnsgd1na2vs0mg"},{"bike_id":"35102793-43e7-4d85-98fd-80c60fc72fd6","system_id":"levelo_inurba_marseille","lat":43.26027,"lon":5.37548,"is_reserved":false,"is_disabled":false,"rental_uris":{"android":"levelo://app?vid=35102793-43e7-4d85-98fd-80c60fc72fd6","ios":"levelo://app?vid=35102793-43e7-4d85-98fd-80c60fc72fd6"},"vehicle_type_id":"4","last_reported":1749633116,"current_range_meters":16000,"station_id":"ce4bhgh2rcd13ifvqfa0","pricing_plan_id":"cebpf4jnsgd1na2vs0mg"},{"bike_id":"b746c2ea-582d-453e-b55d-7f4c2db34f3d","system_id":"levelo_inurba_marseille","lat":43.273164,"lon":5.390871,"is_reserved":false,"is_disabled":false,"rental_uris":{"android":"levelo://app?vid=b746c2ea-582d-453e-b55d-7f4c2db34f3d","ios":"levelo://app?vid=b746c2ea-582d-453e-b55d-7f4c2db34f3d"},"vehicle_type_id":"4","last_reported":1749633116,"current_range_meters":16000,"station_id":"ce4bhgp2rcd13ifvqfe0","pricing_plan_id":"cebpf4jnsgd1na2vs0mg"},{"bike_id":"6d2137c2-6e72-46b0-b620-69bd5212ff29","system_id":"levelo_inurba_marseille","lat":43.3065,"lon":5.40095,"is_reserved":false,"is_disabled":false,"rental_uris":{"android":"levelo://app?vid=6d2137c2-6e72-46b0-b620-69bd5212ff29","ios":"levelo://app?vid=6d2137c2-6e72-46b0-b620-69bd5212ff29"},"vehicle_type_id":"4","last_reported":1749633116,"current_range_meters":16000,"station_id":"ce4bh112rcd13ifvqda0","pricing_plan_id":"cebpf4jnsgd1na2vs0mg"},{"bike_id":"03ff7327-9d80-465b-bc3e-d109526df4c5","system_id":"levelo_inurba_marseille","lat":43.26219,"lon":5.40439,"is_reserved":false,"is_disabled":false,"rental_uris":{"android":"levelo://app?vid=03ff7327-9d80-465b-bc3e-d109526df4c5","ios":"levelo://app?vid=03ff7327-9d80-465b-bc3e-d109526df4c5"},"vehicle_type_id":"4","last_reported":1749633116,"current_range_meters":16000,"station_id":"ce4bhmh2rcd13ifvqgmg","pricing_plan_id":"cebpf4jnsgd1na2vs0mg"},{"bike_id":"b5f07396-9dc2-4a2d-94da-9ae6c6971084","system_id":"levelo_inurba_marseille","lat":43.2994,"lon":5.38508,"is_reserved":false,"is_disabled":false,"rental_uris":{"android":"levelo://app?vid=b5f07396-9dc2-4a2d-94da-9ae6c6971084","ios":"levelo://app?vid=b5f07396-9dc2-4a2d-94da-9ae6c6971084"},"vehicle_type_id":"4","last_reported":1749633116,"current_range_meters":16000,"station_id":"ce4bgj92rcd13ifvqbd0","pricing_plan_id":"cebpf4jnsgd1na2vs0mg"},{"bike_id":"2e6bef13-0ffd-4942-ac89-a578dca3f4ab","system_id":"levelo_inurba_marseille","lat":43.295264,"lon":5.394133,"is_reserved":false,"is_disabled":false,"rental_uris":{"android":"levelo://app?vid=2e6bef13-0ffd-4942-ac89-a578dca3f4ab","ios":"levelo://app?vid=2e6bef13-0ffd-4942-ac89-a578dca3f4ab"},"vehicle_type_id":"4","last_reported":1749633116,"current_range_meters":15200,"station_id":"ce4bh292rcd13ifvqdf0","pricing_plan_id":"cebpf4jnsgd1na2vs0mg"},{"bike_id":"800420fc-4164-4330-909d-91978f41eb0b","system_id":"levelo_inurba_marseille","lat":43.29519,"lon":5.38547,"is_reserved":false,"is_disabled":false,"rental_uris":{"android":"levelo://app?vid=800420fc-4164-4330-909d-91978f41eb0b","ios":"levelo://app?vid=800420fc-4164-4330-909d-91978f41eb0b"},"vehicle_type_id":"4","last_reported":1749633116,"current_range_meters":15200,"station_id":"ce4bgih2rcd13ifvqba0","pricing_plan_id":"cebpf4jnsgd1na2vs0mg"},{"bike_id":"a172b0cf-62c4-4c52-a818-ce564350df02","system_id":"levelo_inurba_marseille","lat":43.21204,"lon":5.35074,"is_reserved":false,"is_disabled":false,"rental_uris":{"android":"levelo://app?vid=a172b0cf-62c4-4c52-a818-ce564350df02","ios":"levelo://app?vid=a172b0cf-62c4-4c52-a818-ce564350df02"},"vehicle_type_id":"4","last_reported":1749633116,"current_range_meters":16000,"station_id":"st_cvj6sg6p6f1abm77japg","pricing_plan_id":"cebpf4jnsgd1na2vs0mg"},{"bike_id":"f0e93c69-2239-42d9-bc1a-3c4d59e8333f","system_id":"levelo_inurba_marseille","lat":43.27071,"lon":5.4228,"is_reserved":false,"is_disabled":false,"rental_uris":{"android":"levelo://app?vid=f0e93c69-2239-42d9-bc1a-3c4d59e8333f","ios":"levelo://app?vid=f0e93c69-2239-42d9-bc1a-3c4d59e8333f"},"vehicle_type_id":"4","last_reported":1749633116,"current_range_meters":16400,"station_id":"ce4bhk92rcd13ifvqgb0","pricing_plan_id":"cebpf4jnsgd1na2vs0mg"},{"bike_id":"6b4301fd-da9b-44ea-b9b4-e1cf2680d71c","system_id":"levelo_inurba_marseille","lat":43.2927,"lon":5.37631,"is_reserved":false,"is_disabled":false,"rental_uris":{"android":"levelo://app?vid=6b4301fd-da9b-44ea-b9b4-e1cf2680d71c","ios":"levelo://app?vid=6b4301fd-da9b-44ea-b9b4-e1cf2680d71c"},"vehicle_type_id":"4","last_reported":1749633116,"current_range_meters":16400,"station_id":"ce4bgi12rcd13ifvqb80","pricing_plan_id":"cebpf4jnsgd1na2vs0mg"},{"bike_id":"417de44c-21db-417c-a863-4a752a2dd5df","system_id":"levelo_inurba_marseille","lat":43.269418,"lon":5.386308,"is_reserved":false,"is_disabled":false,"rental_uris":{"android":"levelo://app?vid=417de44c-21db-417c-a863-4a752a2dd5df","ios":"levelo://app?vid=417de44c-21db-417c-a863-4a752a2dd5df"},"vehicle_type_id":"4","last_reported":1749633116,"current_range_meters":16400,"station_id":"ce4bhh92rcd13ifvqfh0","pricing_plan_id":"cebpf4jnsgd1na2vs0mg"},{"bike_id":"4a69c6fe-7b60-4246-ad19-0ca232c439a9","system_id":"levelo_inurba_marseille","lat":43.29183,"lon":5.37136,"is_reserved":false,"is_disabled":false,"rental_uris":{"android":"levelo://app?vid=4a69c6fe-7b60-4246-ad19-0ca232c439a9","ios":"levelo://app?vid=4a69c6fe-7b60-4246-ad19-0ca232c439a9"},"vehicle_type_id":"4","last_reported":1749633116,"current_range_meters":16400,"station_id":"ce4bha92rcd13ifvqeh0","pricing_plan_id":"cebpf4jnsgd1na2vs0mg"},{"bike_id":"1849e781-dd8d-4048-8c8b-e4bc19b4fdb2","system_id":"levelo_inurba_marseille","lat":43.289039,"lon":5.361422,"is_reserved":false,"is_disabled":false,"rental_uris":{"android":"levelo://app?vid=1849e781-dd8d-4048-8c8b-e4bc19b4fdb2","ios":"levelo://app?vid=1849e781-dd8d-4048-8c8b-e4bc19b4fdb2"},"vehicle_type_id":"4","last_reported":1749633116,"current_range_meters":16400,"station_id":"ce4bhb12rcd13ifvqem0","pricing_plan_id":"cebpf4jnsgd1na2vs0mg"},{"bike_id":"f10adc7e-6a3a-4a5d-9515-dc52fefe2058","system_id":"levelo_inurba_marseille","lat":43.32346,"lon":5.36737,"is_reserved":false,"is_disabled":false,"rental_uris":{"android":"levelo://app?vid=f10adc7e-6a3a-4a5d-9515-dc52fefe2058","ios":"levelo://app?vid=f10adc7e-6a3a-4a5d-9515-dc52fefe2058"},"vehicle_type_id":"4","last_reported":1749633116,"current_range_meters":16400,"station_id":"ce4bhsh2rcd13ifvqi2g","pricing_plan_id":"cebpf4jnsgd1na2vs0mg"},{"bike_id":"b1a9a8a4-dbb9-4db2-9f04-3c1f79933aad","system_id":"levelo_inurba_marseille","lat":43.23147,"lon":5.43707,"is_reserved":false,"is_disabled":false,"rental_uris":{"android":"levelo://app?vid=b1a9a8a4-dbb9-4db2-9f04-3c1f79933aad","ios":"levelo://app?vid=b1a9a8a4-dbb9-4db2-9f04-3c1f79933aad"},"vehicle_type_id":"4","last_reported":1749633116,"current_range_meters":16400,"station_id":"ce4bhmp2rcd13ifvqgog","pricing_plan_id":"cebpf4jnsgd1na2vs0mg"},{"bike_id":"6eb39ca8-babd-403d-92f6-80e2fc126458","system_id":"levelo_inurba_marseille","lat":43.290057,"lon":5.356265,"is_reserved":false,"is_disabled":false,"rental_uris":{"android":"levelo://app?vid=6eb39ca8-babd-403d-92f6-80e2fc126458","ios":"levelo://app?vid=6eb39ca8-babd-403d-92f6-80e2fc126458"},"vehicle_type_id":"4","last_reported":1749633116,"current_range_meters":16400,"station_id":"","pricing_plan_id":"cebpf4jnsgd1na2vs0mg"},{"bike_id":"ff6779a1-4f4c-471b-ab85-6c361d5c8c03","system_id":"levelo_inurba_marseille","lat":43.313521,"lon":5.367168,"is_reserved":false,"is_disabled":false,"rental_uris":{"android":"levelo://app?vid=ff6779a1-4f4c-471b-ab85-6c361d5c8c03","ios":"levelo://app?vid=ff6779a1-4f4c-471b-ab85-6c361d5c8c03"},"vehicle_type_id":"4","last_reported":1749633116,"current_range_meters":16400,"station_id":"ce4bgr92rcd13ifvqc6g","pricing_plan_id":"cebpf4jnsgd1na2vs0mg"},{"bike_id":"65066ef9-1c39-47d6-b104-be1d784d3bad","system_id":"levelo_inurba_marseille","lat":43.26218,"lon":5.40445,"is_reserved":false,"is_disabled":false,"rental_uris":{"android":"levelo://app?vid=65066ef9-1c39-47d6-b104-be1d784d3bad","ios":"levelo://app?vid=65066ef9-1c39-47d6-b104-be1d784d3bad"},"vehicle_type_id":"4","last_reported":1749633116,"current_range_meters":16800,"station_id":"ce4bhmh2rcd13ifvqgmg","pricing_plan_id":"cebpf4jnsgd1na2vs0mg"},{"bike_id":"54265529-c802-41ea-a434-8efe037aed4d","system_id":"levelo_inurba_marseille","lat":43.28419,"lon":5.34994,"is_reserved":false,"is_disabled":false,"rental_uris":{"android":"levelo://app?vid=54265529-c802-41ea-a434-8efe037aed4d","ios":"levelo://app?vid=54265529-c802-41ea-a434-8efe037aed4d"},"vehicle_type_id":"4","last_reported":1749633116,"current_range_meters":16800,"station_id":"ce4bhbh2rcd13ifvqepg","pricing_plan_id":"cebpf4jnsgd1na2vs0mg"},{"bike_id":"064fcc0e-c614-4e46-ad35-3eaadb004b47","system_id":"levelo_inurba_marseille","lat":43.27072,"lon":5.42281,"is_reserved":false,"is_disabled":false,"rental_uris":{"android":"levelo://app?vid=064fcc0e-c614-4e46-ad35-3eaadb004b47","ios":"levelo://app?vid=064fcc0e-c614-4e46-ad35-3eaadb004b47"},"vehicle_type_id":"4","last_reported":1749633116,"current_range_meters":16800,"station_id":"ce4bhk92rcd13ifvqgb0","pricing_plan_id":"cebpf4jnsgd1na2vs0mg"},{"bike_id":"4ddbf8a5-16e4-4842-8a74-0e0f14da1557","system_id":"levelo_inurba_marseille","lat":43.30466,"lon":5.37901,"is_reserved":false,"is_disabled":false,"rental_uris":{"android":"levelo://app?vid=4ddbf8a5-16e4-4842-8a74-0e0f14da1557","ios":"levelo://app?vid=4ddbf8a5-16e4-4842-8a74-0e0f14da1557"},"vehicle_type_id":"4","last_reported":1749633116,"current_range_meters":16800,"station_id":"ce4bgup2rcd13ifvqcn0","pricing_plan_id":"cebpf4jnsgd1na2vs0mg"},{"bike_id":"ba74330e-e7e1-47b7-aac8-f61ede63b89c","system_id":"levelo_inurba_marseille","lat":43.281494,"lon":5.426381,"is_reserved":false,"is_disabled":false,"rental_uris":{"android":"levelo://app?vid=ba74330e-e7e1-47b7-aac8-f61ede63b89c","ios":"levelo://app?vid=ba74330e-e7e1-47b7-aac8-f61ede63b89c"},"vehicle_type_id":"4","last_reported":1749633116,"current_range_meters":16800,"station_id":"ce4bhnh2rcd13ifvqgug","pricing_plan_id":"cebpf4jnsgd1na2vs0mg"},{"bike_id":"88febd41-fb4a-4499-886e-f4719eb106f4","system_id":"levelo_inurba_marseille","lat":43.26669,"lon":5.38267,"is_reserved":false,"is_disabled":false,"rental_uris":{"android":"levelo://app?vid=88febd41-fb4a-4499-886e-f4719eb106f4","ios":"levelo://app?vid=88febd41-fb4a-4499-886e-f4719eb106f4"},"vehicle_type_id":"4","last_reported":1749633116,"current_range_meters":16800,"station_id":"ce4bhg92rcd13ifvqf90","pricing_plan_id":"cebpf4jnsgd1na2vs0mg"},{"bike_id":"2a471939-28b8-4680-9f3a-e29f61a44ac8","system_id":"levelo_inurba_marseille","lat":43.29846,"lon":5.36269,"is_reserved":false,"is_disabled":false,"rental_uris":{"android":"levelo://app?vid=2a471939-28b8-4680-9f3a-e29f61a44ac8","ios":"levelo://app?vid=2a471939-28b8-4680-9f3a-e29f61a44ac8"},"vehicle_type_id":"4","last_reported":1749633116,"current_range_meters":17200,"station_id":"ce4bgpp2rcd13ifvqc3g","pricing_plan_id":"cebpf4jnsgd1na2vs0mg"},{"bike_id":"6983d750-4a32-4f92-a527-1d752430faa3","system_id":"levelo_inurba_marseille","lat":43.32052,"lon":5.41522,"is_reserved":false,"is_disabled":false,"rental_uris":{"android":"levelo://app?vid=6983d750-4a32-4f92-a527-1d752430faa3","ios":"levelo://app?vid=6983d750-4a32-4f92-a527-1d752430faa3"},"vehicle_type_id":"4","last_reported":1749633116,"current_range_meters":17200,"station_id":"ce4bhq92rcd13ifvqhkg","pricing_plan_id":"cebpf4jnsgd1na2vs0mg"},{"bike_id":"cf2d2f29-ae83-4a93-bf45-639ba65d75ca","system_id":"levelo_inurba_marseille","lat":43.27493,"lon":5.42453,"is_reserved":false,"is_disabled":false,"rental_uris":{"android":"levelo://app?vid=cf2d2f29-ae83-4a93-bf45-639ba65d75ca","ios":"levelo://app?vid=cf2d2f29-ae83-4a93-bf45-639ba65d75ca"},"vehicle_type_id":"4","last_reported":1749633116,"current_range_meters":17200,"station_id":"ce4bhn92rcd13ifvqgrg","pricing_plan_id":"cebpf4jnsgd1na2vs0mg"},{"bike_id":"8edf7c89-4391-42ac-8086-3871585eba82","system_id":"levelo_inurba_marseille","lat":43.289002,"lon":5.380023,"is_reserved":false,"is_disabled":false,"rental_uris":{"android":"levelo://app?vid=8edf7c89-4391-42ac-8086-3871585eba82","ios":"levelo://app?vid=8edf7c89-4391-42ac-8086-3871585eba82"},"vehicle_type_id":"4","last_reported":1749633116,"current_range_meters":17200,"station_id":"ce4bgn12rcd13ifvqbt0","pricing_plan_id":"cebpf4jnsgd1na2vs0mg"},{"bike_id":"71b50249-9dd6-4253-a9be-d8b465bf6be3","system_id":"levelo_inurba_marseille","lat":43.290059,"lon":5.356179,"is_reserved":false,"is_disabled":false,"rental_uris":{"android":"levelo://app?vid=71b50249-9dd6-4253-a9be-d8b465bf6be3","ios":"levelo://app?vid=71b50249-9dd6-4253-a9be-d8b465bf6be3"},"vehicle_type_id":"4","last_reported":1749633116,"current_range_meters":17200,"station_id":"ce4bhb92rcd13ifvqen0","pricing_plan_id":"cebpf4jnsgd1na2vs0mg"},{"bike_id":"d91f6a9c-b365-4bb3-ae1d-8221ca286875","system_id":"levelo_inurba_marseille","lat":43.27511,"lon":5.42459,"is_reserved":false,"is_disabled":false,"rental_uris":{"android":"levelo://app?vid=d91f6a9c-b365-4bb3-ae1d-8221ca286875","ios":"levelo://app?vid=d91f6a9c-b365-4bb3-ae1d-8221ca286875"},"vehicle_type_id":"4","last_reported":1749633116,"current_range_meters":17200,"station_id":"ce4bhn92rcd13ifvqgrg","pricing_plan_id":"cebpf4jnsgd1na2vs0mg"},{"bike_id":"3ae9240c-47c6-47d7-ac15-288432b863e1","system_id":"levelo_inurba_marseille","lat":43.31346,"lon":5.36716,"is_reserved":false,"is_disabled":false,"rental_uris":{"android":"levelo://app?vid=3ae9240c-47c6-47d7-ac15-288432b863e1","ios":"levelo://app?vid=3ae9240c-47c6-47d7-ac15-288432b863e1"},"vehicle_type_id":"4","last_reported":1749633116,"current_range_meters":17200,"station_id":"ce4bgr92rcd13ifvqc6g","pricing_plan_id":"cebpf4jnsgd1na2vs0mg"},{"bike_id":"71d23069-4b53-4c59-89de-c54de3aeb2cf","system_id":"levelo_inurba_marseille","lat":43.24568,"lon":5.41595,"is_reserved":false,"is_disabled":false,"rental_uris":{"android":"levelo://app?vid=71d23069-4b53-4c59-89de-c54de3aeb2cf","ios":"levelo://app?vid=71d23069-4b53-4c59-89de-c54de3aeb2cf"},"vehicle_type_id":"4","last_reported":1749633116,"current_range_meters":17200,"station_id":"","pricing_plan_id":"cebpf4jnsgd1na2vs0mg"},{"bike_id":"04f107b7-020e-49a3-8513-6c594c244cad","system_id":"levelo_inurba_marseille","lat":43.31367,"lon":5.38494,"is_reserved":false,"is_disabled":false,"rental_uris":{"android":"levelo://app?vid=04f107b7-020e-49a3-8513-6c594c244cad","ios":"levelo://app?vid=04f107b7-020e-49a3-8513-6c594c244cad"},"vehicle_type_id":"4","last_reported":1749633116,"current_range_meters":17200,"station_id":"ce4bgt92rcd13ifvqcf0","pricing_plan_id":"cebpf4jnsgd1na2vs0mg"},{"bike_id":"638b9117-c70b-47a3-9192-610d8a8acdda","system_id":"levelo_inurba_marseille","lat":43.29895,"lon":5.43669,"is_reserved":false,"is_disabled":false,"rental_uris":{"android":"levelo://app?vid=638b9117-c70b-47a3-9192-610d8a8acdda","ios":"levelo://app?vid=638b9117-c70b-47a3-9192-610d8a8acdda"},"vehicle_type_id":"4","last_reported":1749633116,"current_range_meters":17600,"station_id":"ce4bhpp2rcd13ifvqhfg","pricing_plan_id":"cebpf4jnsgd1na2vs0mg"},{"bike_id":"355cf286-0b63-4ba5-8fd3-08f2449a771d","system_id":"levelo_inurba_marseille","lat":43.27496,"lon":5.42449,"is_reserved":false,"is_disabled":false,"rental_uris":{"android":"levelo://app?vid=355cf286-0b63-4ba5-8fd3-08f2449a771d","ios":"levelo://app?vid=355cf286-0b63-4ba5-8fd3-08f2449a771d"},"vehicle_type_id":"4","last_reported":1749633116,"current_range_meters":17600,"station_id":"ce4bhn92rcd13ifvqgrg","pricing_plan_id":"cebpf4jnsgd1na2vs0mg"},{"bike_id":"26188140-1807-466a-b47c-9cde473e1f96","system_id":"levelo_inurba_marseille","lat":43.29983,"lon":5.37181,"is_reserved":false,"is_disabled":false,"rental_uris":{"android":"levelo://app?vid=26188140-1807-466a-b47c-9cde473e1f96","ios":"levelo://app?vid=26188140-1807-466a-b47c-9cde473e1f96"},"vehicle_type_id":"4","last_reported":1749633116,"current_range_meters":17600,"station_id":"ce4bgr92rcd13ifvqc7g","pricing_plan_id":"cebpf4jnsgd1na2vs0mg"},{"bike_id":"9b27829e-5332-4f5a-9e45-aad00442a969","system_id":"levelo_inurba_marseille","lat":43.27913,"lon":5.38283,"is_reserved":false,"is_disabled":false,"rental_uris":{"android":"levelo://app?vid=9b27829e-5332-4f5a-9e45-aad00442a969","ios":"levelo://app?vid=9b27829e-5332-4f5a-9e45-aad00442a969"},"vehicle_type_id":"4","last_reported":1749633116,"current_range_meters":17600,"station_id":"","pricing_plan_id":"cebpf4jnsgd1na2vs0mg"},{"bike_id":"99ccb411-d7f9-4fcb-b612-4d8582e16182","system_id":"levelo_inurba_marseille","lat":43.33713,"lon":5.39196,"is_reserved":false,"is_disabled":false,"rental_uris":{"android":"levelo://app?vid=99ccb411-d7f9-4fcb-b612-4d8582e16182","ios":"levelo://app?vid=99ccb411-d7f9-4fcb-b612-4d8582e16182"},"vehicle_type_id":"4","last_reported":1749633116,"current_range_meters":17600,"station_id":"ce4bhr92rcd13ifvqhsg","pricing_plan_id":"cebpf4jnsgd1na2vs0mg"},{"bike_id":"b663e164-d4db-4652-ba63-0551c538ab6b","system_id":"levelo_inurba_marseille","lat":43.27172,"lon":5.40996,"is_reserved":false,"is_disabled":false,"rental_uris":{"android":"levelo://app?vid=b663e164-d4db-4652-ba63-0551c538ab6b","ios":"levelo://app?vid=b663e164-d4db-4652-ba63-0551c538ab6b"},"vehicle_type_id":"4","last_reported":1749633116,"current_range_meters":18000,"station_id":"ce4bhl12rcd13ifvqgf0","pricing_plan_id":"cebpf4jnsgd1na2vs0mg"},{"bike_id":"1ffe6267-ffee-48b5-9a1a-8fe4f3a18bb0","system_id":"levelo_inurba_marseille","lat":43.31488,"lon":5.37293,"is_reserved":false,"is_disabled":false,"rental_uris":{"android":"levelo://app?vid=1ffe6267-ffee-48b5-9a1a-8fe4f3a18bb0","ios":"levelo://app?vid=1ffe6267-ffee-48b5-9a1a-8fe4f3a18bb0"},"vehicle_type_id":"4","last_reported":1749633116,"current_range_meters":18000,"station_id":"ce4bgt12rcd13ifvqcd0","pricing_plan_id":"cebpf4jnsgd1na2vs0mg"},{"bike_id":"421c7be3-9120-4355-bb79-af60b1bee98a","system_id":"levelo_inurba_marseille","lat":43.28446,"lon":5.35896,"is_reserved":false,"is_disabled":false,"rental_uris":{"android":"levelo://app?vid=421c7be3-9120-4355-bb79-af60b1bee98a","ios":"levelo://app?vid=421c7be3-9120-4355-bb79-af60b1bee98a"},"vehicle_type_id":"4","last_reported":1749633116,"current_range_meters":18000,"station_id":"ce4bhah2rcd13ifvqei0","pricing_plan_id":"cebpf4jnsgd1na2vs0mg"},{"bike_id":"00c94cd1-33f1-4483-8d50-d32717f9fe3e","system_id":"levelo_inurba_marseille","lat":43.31737,"lon":5.42387,"is_reserved":false,"is_disabled":false,"rental_uris":{"android":"levelo://app?vid=00c94cd1-33f1-4483-8d50-d32717f9fe3e","ios":"levelo://app?vid=00c94cd1-33f1-4483-8d50-d32717f9fe3e"},"vehicle_type_id":"4","last_reported":1749633116,"current_range_meters":18000,"station_id":"ce4bhp92rcd13ifvqhbg","pricing_plan_id":"cebpf4jnsgd1na2vs0mg"},{"bike_id":"6fb8c3f6-52c5-4669-b8da-cf9be9114e95","system_id":"levelo_inurba_marseille","lat":43.316846,"lon":5.404751,"is_reserved":false,"is_disabled":false,"rental_uris":{"android":"levelo://app?vid=6fb8c3f6-52c5-4669-b8da-cf9be9114e95","ios":"levelo://app?vid=6fb8c3f6-52c5-4669-b8da-cf9be9114e95"},"vehicle_type_id":"4","last_reported":1749633116,"current_range_meters":18000,"station_id":"ce4bhip2rcd13ifvqft0","pricing_plan_id":"cebpf4jnsgd1na2vs0mg"},{"bike_id":"32b62a51-6893-43fc-a047-9897e164dcd4","system_id":"levelo_inurba_marseille","lat":43.31767,"lon":5.37784,"is_reserved":false,"is_disabled":false,"rental_uris":{"android":"levelo://app?vid=32b62a51-6893-43fc-a047-9897e164dcd4","ios":"levelo://app?vid=32b62a51-6893-43fc-a047-9897e164dcd4"},"vehicle_type_id":"4","last_reported":1749633116,"current_range_meters":18000,"station_id":"","pricing_plan_id":"cebpf4jnsgd1na2vs0mg"},{"bike_id":"1bdf09ca-9bb5-43bd-8fac-6529129514d7","system_id":"levelo_inurba_marseille","lat":43.28934,"lon":5.36639,"is_reserved":false,"is_disabled":false,"rental_uris":{"android":"levelo://app?vid=1bdf09ca-9bb5-43bd-8fac-6529129514d7","ios":"levelo://app?vid=1bdf09ca-9bb5-43bd-8fac-6529129514d7"},"vehicle_type_id":"4","last_reported":1749633116,"current_range_meters":18000,"station_id":"ce4bhap2rcd13ifvqek0","pricing_plan_id":"cebpf4jnsgd1na2vs0mg"},{"bike_id":"136a956b-c67e-4ee7-bafc-f4953a39f893","system_id":"levelo_inurba_marseille","lat":43.25152,"lon":5.3964,"is_reserved":false,"is_disabled":false,"rental_uris":{"android":"levelo://app?vid=136a956b-c67e-4ee7-bafc-f4953a39f893","ios":"levelo://app?vid=136a956b-c67e-4ee7-bafc-f4953a39f893"},"vehicle_type_id":"4","last_reported":1749633116,"current_range_meters":18000,"station_id":"","pricing_plan_id":"cebpf4jnsgd1na2vs0mg"},{"bike_id":"7b1cfe02-109e-4836-ae59-8aad9c4f2698","system_id":"levelo_inurba_marseille","lat":43.32336,"lon":5.40634,"is_reserved":false,"is_disabled":false,"rental_uris":{"android":"levelo://app?vid=7b1cfe02-109e-4836-ae59-8aad9c4f2698","ios":"levelo://app?vid=7b1cfe02-109e-4836-ae59-8aad9c4f2698"},"vehicle_type_id":"4","last_reported":1749633116,"current_range_meters":18000,"station_id":"ce4bhq92rcd13ifvqhjg","pricing_plan_id":"cebpf4jnsgd1na2vs0mg"},{"bike_id":"922072d7-7611-49cc-b5c9-cfe6384b3d08","system_id":"levelo_inurba_marseille","lat":43.30553,"lon":5.36549,"is_reserved":false,"is_disabled":false,"rental_uris":{"android":"levelo://app?vid=922072d7-7611-49cc-b5c9-cfe6384b3d08","ios":"levelo://app?vid=922072d7-7611-49cc-b5c9-cfe6384b3d08"},"vehicle_type_id":"4","last_reported":1749633116,"current_range_meters":18000,"station_id":"ce4bgs12rcd13ifvqcag","pricing_plan_id":"cebpf4jnsgd1na2vs0mg"},{"bike_id":"0f4b6056-9c3d-4ab8-84f4-7d2fba44bd97","system_id":"levelo_inurba_marseille","lat":43.27413,"lon":5.39404,"is_reserved":false,"is_disabled":false,"rental_uris":{"android":"levelo://app?vid=0f4b6056-9c3d-4ab8-84f4-7d2fba44bd97","ios":"levelo://app?vid=0f4b6056-9c3d-4ab8-84f4-7d2fba44bd97"},"vehicle_type_id":"4","last_reported":1749633116,"current_range_meters":18000,"station_id":"ce4bhdp2rcd13ifvqf20","pricing_plan_id":"cebpf4jnsgd1na2vs0mg"},{"bike_id":"2cea2ce5-8a5c-494a-8112-7d3fbca3411b","system_id":"levelo_inurba_marseille","lat":43.3048,"lon":5.37912,"is_reserved":false,"is_disabled":false,"rental_uris":{"android":"levelo://app?vid=2cea2ce5-8a5c-494a-8112-7d3fbca3411b","ios":"levelo://app?vid=2cea2ce5-8a5c-494a-8112-7d3fbca3411b"},"vehicle_type_id":"4","last_reported":1749633116,"current_range_meters":18000,"station_id":"ce4bgup2rcd13ifvqcn0","pricing_plan_id":"cebpf4jnsgd1na2vs0mg"},{"bike_id":"415d307a-18cd-4efb-a2ea-509f707e5bc8","system_id":"levelo_inurba_marseille","lat":43.309514,"lon":5.39036,"is_reserved":false,"is_disabled":false,"rental_uris":{"android":"levelo://app?vid=415d307a-18cd-4efb-a2ea-509f707e5bc8","ios":"levelo://app?vid=415d307a-18cd-4efb-a2ea-509f707e5bc8"},"vehicle_type_id":"4","last_reported":1749633116,"current_range_meters":18000,"station_id":"ce4bghh2rcd13ifvqb60","pricing_plan_id":"cebpf4jnsgd1na2vs0mg"},{"bike_id":"c9fce19b-bd54-4522-bdc7-aa26a9be634a","system_id":"levelo_inurba_marseille","lat":43.27316,"lon":5.39096,"is_reserved":false,"is_disabled":true,"rental_uris":{"android":"levelo://app?vid=c9fce19b-bd54-4522-bdc7-aa26a9be634a","ios":"levelo://app?vid=c9fce19b-bd54-4522-bdc7-aa26a9be634a"},"vehicle_type_id":"4","last_reported":1749633116,"current_range_meters":18800,"station_id":"","pricing_plan_id":"cebpf4jnsgd1na2vs0mg"},{"bike_id":"8720c117-08ad-45d9-9ffe-2b9397284168","system_id":"levelo_inurba_marseille","lat":43.24052,"lon":5.37733,"is_reserved":false,"is_disabled":false,"rental_uris":{"android":"levelo://app?vid=8720c117-08ad-45d9-9ffe-2b9397284168","ios":"levelo://app?vid=8720c117-08ad-45d9-9ffe-2b9397284168"},"vehicle_type_id":"4","last_reported":1749633116,"current_range_meters":18800,"station_id":"ce4bhnp2rcd13ifvqgvg","pricing_plan_id":"cebpf4jnsgd1na2vs0mg"},{"bike_id":"8d4182e4-ebdd-4608-9457-fd3a4c2f8581","system_id":"levelo_inurba_marseille","lat":43.24161,"lon":5.39703,"is_reserved":false,"is_disabled":false,"rental_uris":{"android":"levelo://app?vid=8d4182e4-ebdd-4608-9457-fd3a4c2f8581","ios":"levelo://app?vid=8d4182e4-ebdd-4608-9457-fd3a4c2f8581"},"vehicle_type_id":"4","last_reported":1749633116,"current_range_meters":18800,"station_id":"ce4bhn12rcd13ifvqgpg","pricing_plan_id":"cebpf4jnsgd1na2vs0mg"},{"bike_id":"556ea021-f173-497b-9607-7375aef62e86","system_id":"levelo_inurba_marseille","lat":43.292297,"lon":5.379267,"is_reserved":false,"is_disabled":false,"rental_uris":{"android":"levelo://app?vid=556ea021-f173-497b-9607-7375aef62e86","ios":"levelo://app?vid=556ea021-f173-497b-9607-7375aef62e86"},"vehicle_type_id":"4","last_reported":1749633116,"current_range_meters":18800,"station_id":"ce4bh012rcd13ifvqd00","pricing_plan_id":"cebpf4jnsgd1na2vs0mg"},{"bike_id":"56fc8ed8-e04e-4dc8-a7ed-f1c117181c95","system_id":"levelo_inurba_marseille","lat":43.3027,"lon":5.37717,"is_reserved":false,"is_disabled":false,"rental_uris":{"android":"levelo://app?vid=56fc8ed8-e04e-4dc8-a7ed-f1c117181c95","ios":"levelo://app?vid=56fc8ed8-e04e-4dc8-a7ed-f1c117181c95"},"vehicle_type_id":"4","last_reported":1749633116,"current_range_meters":18800,"station_id":"ce4bguh2rcd13ifvqcj0","pricing_plan_id":"cebpf4jnsgd1na2vs0mg"},{"bike_id":"233d099d-7398-4251-a9ac-8ab5c25a21fc","system_id":"levelo_inurba_marseille","lat":43.29917,"lon":5.38553,"is_reserved":false,"is_disabled":false,"rental_uris":{"android":"levelo://app?vid=233d099d-7398-4251-a9ac-8ab5c25a21fc","ios":"levelo://app?vid=233d099d-7398-4251-a9ac-8ab5c25a21fc"},"vehicle_type_id":"4","last_reported":1749633116,"current_range_meters":18800,"station_id":"","pricing_plan_id":"cebpf4jnsgd1na2vs0mg"},{"bike_id":"27c3ce4c-2f83-41ff-abde-3fb4e2e068fb","system_id":"levelo_inurba_marseille","lat":43.30981,"lon":5.37475,"is_reserved":false,"is_disabled":false,"rental_uris":{"android":"levelo://app?vid=27c3ce4c-2f83-41ff-abde-3fb4e2e068fb","ios":"levelo://app?vid=27c3ce4c-2f83-41ff-abde-3fb4e2e068fb"},"vehicle_type_id":"4","last_reported":1749633116,"current_range_meters":18800,"station_id":"","pricing_plan_id":"cebpf4jnsgd1na2vs0mg"},{"bike_id":"1a3b0ef4-fd99-41cb-bbbe-2863e96b819d","system_id":"levelo_inurba_marseille","lat":43.31348,"lon":5.36708,"is_reserved":false,"is_disabled":false,"rental_uris":{"android":"levelo://app?vid=1a3b0ef4-fd99-41cb-bbbe-2863e96b819d","ios":"levelo://app?vid=1a3b0ef4-fd99-41cb-bbbe-2863e96b819d"},"vehicle_type_id":"4","last_reported":1749633116,"current_range_meters":18800,"station_id":"ce4bgr92rcd13ifvqc6g","pricing_plan_id":"cebpf4jnsgd1na2vs0mg"},{"bike_id":"d0f5fd5e-82d0-4068-b904-613e884eaef5","system_id":"levelo_inurba_marseille","lat":43.28272,"lon":5.35063,"is_reserved":false,"is_disabled":false,"rental_uris":{"android":"levelo://app?vid=d0f5fd5e-82d0-4068-b904-613e884eaef5","ios":"levelo://app?vid=d0f5fd5e-82d0-4068-b904-613e884eaef5"},"vehicle_type_id":"4","last_reported":1749633116,"current_range_meters":19200,"station_id":"ce4bhbp2rcd13ifvqerg","pricing_plan_id":"cebpf4jnsgd1na2vs0mg"},{"bike_id":"1b986ab5-899b-45c0-ae8f-5234203e90af","system_id":"levelo_inurba_marseille","lat":43.32087,"lon":5.36789,"is_reserved":false,"is_disabled":false,"rental_uris":{"android":"levelo://app?vid=1b986ab5-899b-45c0-ae8f-5234203e90af","ios":"levelo://app?vid=1b986ab5-899b-45c0-ae8f-5234203e90af"},"vehicle_type_id":"4","last_reported":1749633116,"current_range_meters":19200,"station_id":"ce4bhrh2rcd13ifvqhug","pricing_plan_id":"cebpf4jnsgd1na2vs0mg"},{"bike_id":"b21450a4-463f-4eb5-a5b1-a818c0abb90a","system_id":"levelo_inurba_marseille","lat":43.29898,"lon":5.43673,"is_reserved":false,"is_disabled":false,"rental_uris":{"android":"levelo://app?vid=b21450a4-463f-4eb5-a5b1-a818c0abb90a","ios":"levelo://app?vid=b21450a4-463f-4eb5-a5b1-a818c0abb90a"},"vehicle_type_id":"4","last_reported":1749633116,"current_range_meters":19200,"station_id":"ce4bhpp2rcd13ifvqhfg","pricing_plan_id":"cebpf4jnsgd1na2vs0mg"},{"bike_id":"7cd25528-3229-4cec-8144-c7d0b989b73d","system_id":"levelo_inurba_marseille","lat":43.24792,"lon":5.3745,"is_reserved":false,"is_disabled":false,"rental_uris":{"android":"levelo://app?vid=7cd25528-3229-4cec-8144-c7d0b989b73d","ios":"levelo://app?vid=7cd25528-3229-4cec-8144-c7d0b989b73d"},"vehicle_type_id":"4","last_reported":1749633116,"current_range_meters":19200,"station_id":"ce4bhgh2rcd13ifvqfb0","pricing_plan_id":"cebpf4jnsgd1na2vs0mg"},{"bike_id":"0207293a-a3b2-4296-92d4-1a624b173f1c","system_id":"levelo_inurba_marseille","lat":43.28456,"lon":5.3589,"is_reserved":false,"is_disabled":false,"rental_uris":{"android":"levelo://app?vid=0207293a-a3b2-4296-92d4-1a624b173f1c","ios":"levelo://app?vid=0207293a-a3b2-4296-92d4-1a624b173f1c"},"vehicle_type_id":"4","last_reported":1749633116,"current_range_meters":19200,"station_id":"ce4bhah2rcd13ifvqei0","pricing_plan_id":"cebpf4jnsgd1na2vs0mg"},{"bike_id":"43905188-6755-4fcf-a1e5-419d01155020","system_id":"levelo_inurba_marseille","lat":43.262,"lon":5.40481,"is_reserved":false,"is_disabled":false,"rental_uris":{"android":"levelo://app?vid=43905188-6755-4fcf-a1e5-419d01155020","ios":"levelo://app?vid=43905188-6755-4fcf-a1e5-419d01155020"},"vehicle_type_id":"4","last_reported":1749633116,"current_range_meters":19200,"station_id":"ce4bhmh2rcd13ifvqgmg","pricing_plan_id":"cebpf4jnsgd1na2vs0mg"},{"bike_id":"cc55b817-cc91-4b6e-871f-f7bd0dccbcd8","system_id":"levelo_inurba_marseille","lat":43.30949,"lon":5.39036,"is_reserved":false,"is_disabled":false,"rental_uris":{"android":"levelo://app?vid=cc55b817-cc91-4b6e-871f-f7bd0dccbcd8","ios":"levelo://app?vid=cc55b817-cc91-4b6e-871f-f7bd0dccbcd8"},"vehicle_type_id":"4","last_reported":1749633116,"current_range_meters":19200,"station_id":"ce4bgup2rcd13ifvqco0","pricing_plan_id":"cebpf4jnsgd1na2vs0mg"},{"bike_id":"01cdde47-f249-481f-aeec-114a968f7c5f","system_id":"levelo_inurba_marseille","lat":43.296591,"lon":5.37849,"is_reserved":false,"is_disabled":false,"rental_uris":{"android":"levelo://app?vid=01cdde47-f249-481f-aeec-114a968f7c5f","ios":"levelo://app?vid=01cdde47-f249-481f-aeec-114a968f7c5f"},"vehicle_type_id":"4","last_reported":1749633116,"current_range_meters":19600,"station_id":"ce4bgm92rcd13ifvqbr0","pricing_plan_id":"cebpf4jnsgd1na2vs0mg"},{"bike_id":"0db40102-158a-42a7-9960-74ab1bdde2a2","system_id":"levelo_inurba_marseille","lat":43.30747,"lon":5.37297,"is_reserved":false,"is_disabled":false,"rental_uris":{"android":"levelo://app?vid=0db40102-158a-42a7-9960-74ab1bdde2a2","ios":"levelo://app?vid=0db40102-158a-42a7-9960-74ab1bdde2a2"},"vehicle_type_id":"4","last_reported":1749633116,"current_range_meters":19600,"station_id":"","pricing_plan_id":"cebpf4jnsgd1na2vs0mg"},{"bike_id":"7ec3b950-1084-4a16-927c-281e7ea2d193","system_id":"levelo_inurba_marseille","lat":43.298,"lon":5.37098,"is_reserved":false,"is_disabled":false,"rental_uris":{"android":"levelo://app?vid=7ec3b950-1084-4a16-927c-281e7ea2d193","ios":"levelo://app?vid=7ec3b950-1084-4a16-927c-281e7ea2d193"},"vehicle_type_id":"4","last_reported":1749633116,"current_range_meters":19600,"station_id":"ce4bgop2rcd13ifvqc1g","pricing_plan_id":"cebpf4jnsgd1na2vs0mg"},{"bike_id":"8d4be66c-e979-424d-ad0c-da3761caeda1","system_id":"levelo_inurba_marseille","lat":43.30302,"lon":5.36849,"is_reserved":false,"is_disabled":false,"rental_uris":{"android":"levelo://app?vid=8d4be66c-e979-424d-ad0c-da3761caeda1","ios":"levelo://app?vid=8d4be66c-e979-424d-ad0c-da3761caeda1"},"vehicle_type_id":"4","last_reported":1749633116,"current_range_meters":19600,"station_id":"ce4bgqh2rcd13ifvqc5g","pricing_plan_id":"cebpf4jnsgd1na2vs0mg"},{"bike_id":"51ac4440-dde0-4f13-bf9a-5a5b6810d184","system_id":"levelo_inurba_marseille","lat":43.30369,"lon":5.42486,"is_reserved":false,"is_disabled":false,"rental_uris":{"android":"levelo://app?vid=51ac4440-dde0-4f13-bf9a-5a5b6810d184","ios":"levelo://app?vid=51ac4440-dde0-4f13-bf9a-5a5b6810d184"},"vehicle_type_id":"4","last_reported":1749633116,"current_range_meters":19600,"station_id":"ce4bhoh2rcd13ifvqh6g","pricing_plan_id":"cebpf4jnsgd1na2vs0mg"},{"bike_id":"3f091ab2-d036-4a00-b99c-c40a7c14c235","system_id":"levelo_inurba_marseille","lat":43.32414,"lon":5.36541,"is_reserved":false,"is_disabled":false,"rental_uris":{"android":"levelo://app?vid=3f091ab2-d036-4a00-b99c-c40a7c14c235","ios":"levelo://app?vid=3f091ab2-d036-4a00-b99c-c40a7c14c235"},"vehicle_type_id":"4","last_reported":1749633116,"current_range_meters":19600,"station_id":"","pricing_plan_id":"cebpf4jnsgd1na2vs0mg"},{"bike_id":"50490822-204a-4b19-9af8-0374c540b273","system_id":"levelo_inurba_marseille","lat":43.30897,"lon":5.37179,"is_reserved":false,"is_disabled":false,"rental_uris":{"android":"levelo://app?vid=50490822-204a-4b19-9af8-0374c540b273","ios":"levelo://app?vid=50490822-204a-4b19-9af8-0374c540b273"},"vehicle_type_id":"4","last_reported":1749633116,"current_range_meters":19600,"station_id":"ce4bguh2rcd13ifvqckg","pricing_plan_id":"cebpf4jnsgd1na2vs0mg"},{"bike_id":"ed1aa8e0-a33b-4919-9e0d-ab75dc3c6a07","system_id":"levelo_inurba_marseille","lat":43.26489,"lon":5.40943,"is_reserved":false,"is_disabled":false,"rental_uris":{"android":"levelo://app?vid=ed1aa8e0-a33b-4919-9e0d-ab75dc3c6a07","ios":"levelo://app?vid=ed1aa8e0-a33b-4919-9e0d-ab75dc3c6a07"},"vehicle_type_id":"4","last_reported":1749633116,"current_range_meters":19600,"station_id":"","pricing_plan_id":"cebpf4jnsgd1na2vs0mg"},{"bike_id":"3db8fde5-dc25-47f9-adb5-1429f5338e31","system_id":"levelo_inurba_marseille","lat":43.317464,"lon":5.384708,"is_reserved":false,"is_disabled":false,"rental_uris":{"android":"levelo://app?vid=3db8fde5-dc25-47f9-adb5-1429f5338e31","ios":"levelo://app?vid=3db8fde5-dc25-47f9-adb5-1429f5338e31"},"vehicle_type_id":"4","last_reported":1749633116,"current_range_meters":19600,"station_id":"","pricing_plan_id":"cebpf4jnsgd1na2vs0mg"},{"bike_id":"af9fe386-e93e-435e-a363-2b94f8ded7a5","system_id":"levelo_inurba_marseille","lat":43.24999,"lon":5.3893,"is_reserved":false,"is_disabled":false,"rental_uris":{"android":"levelo://app?vid=af9fe386-e93e-435e-a363-2b94f8ded7a5","ios":"levelo://app?vid=af9fe386-e93e-435e-a363-2b94f8ded7a5"},"vehicle_type_id":"4","last_reported":1749633116,"current_range_meters":19600,"station_id":"ce4bhgp2rcd13ifvqfd0","pricing_plan_id":"cebpf4jnsgd1na2vs0mg"},{"bike_id":"e6a39df1-acfb-40c0-a8e8-895175a9f12a","system_id":"levelo_inurba_marseille","lat":43.28462,"lon":5.35889,"is_reserved":false,"is_disabled":false,"rental_uris":{"android":"levelo://app?vid=e6a39df1-acfb-40c0-a8e8-895175a9f12a","ios":"levelo://app?vid=e6a39df1-acfb-40c0-a8e8-895175a9f12a"},"vehicle_type_id":"4","last_reported":1749633116,"current_range_meters":20000,"station_id":"ce4bhah2rcd13ifvqei0","pricing_plan_id":"cebpf4jnsgd1na2vs0mg"},{"bike_id":"b2654a16-6e23-4d84-af98-579b5ba94984","system_id":"levelo_inurba_marseille","lat":43.29785,"lon":5.37112,"is_reserved":false,"is_disabled":false,"rental_uris":{"android":"levelo://app?vid=b2654a16-6e23-4d84-af98-579b5ba94984","ios":"levelo://app?vid=b2654a16-6e23-4d84-af98-579b5ba94984"},"vehicle_type_id":"4","last_reported":1749633116,"current_range_meters":20000,"station_id":"ce4bgop2rcd13ifvqc1g","pricing_plan_id":"cebpf4jnsgd1na2vs0mg"},{"bike_id":"ed7b6444-d227-40dd-8b71-2b25b2f39759","system_id":"levelo_inurba_marseille","lat":43.31569,"lon":5.37287,"is_reserved":false,"is_disabled":false,"rental_uris":{"android":"levelo://app?vid=ed7b6444-d227-40dd-8b71-2b25b2f39759","ios":"levelo://app?vid=ed7b6444-d227-40dd-8b71-2b25b2f39759"},"vehicle_type_id":"4","last_reported":1749633116,"current_range_meters":20000,"station_id":"","pricing_plan_id":"cebpf4jnsgd1na2vs0mg"},{"bike_id":"7003b93c-725d-412e-9127-fbade718cbc3","system_id":"levelo_inurba_marseille","lat":43.21189,"lon":5.35077,"is_reserved":false,"is_disabled":false,"rental_uris":{"android":"levelo://app?vid=7003b93c-725d-412e-9127-fbade718cbc3","ios":"levelo://app?vid=7003b93c-725d-412e-9127-fbade718cbc3"},"vehicle_type_id":"4","last_reported":1749633116,"current_range_meters":20000,"station_id":"st_cvj6sg6p6f1abm77japg","pricing_plan_id":"cebpf4jnsgd1na2vs0mg"},{"bike_id":"2a7344b5-7126-4cc1-bbd1-a9bb0e44b7bd","system_id":"levelo_inurba_marseille","lat":43.23053,"lon":5.35491,"is_reserved":false,"is_disabled":false,"rental_uris":{"android":"levelo://app?vid=2a7344b5-7126-4cc1-bbd1-a9bb0e44b7bd","ios":"levelo://app?vid=2a7344b5-7126-4cc1-bbd1-a9bb0e44b7bd"},"vehicle_type_id":"4","last_reported":1749633116,"current_range_meters":20000,"station_id":"cpo3342slgdg3j2ifvpg","pricing_plan_id":"cebpf4jnsgd1na2vs0mg"},{"bike_id":"d0144d27-60cc-45ea-9eca-583c63b61cc6","system_id":"levelo_inurba_marseille","lat":43.30778,"lon":5.37649,"is_reserved":false,"is_disabled":false,"rental_uris":{"android":"levelo://app?vid=d0144d27-60cc-45ea-9eca-583c63b61cc6","ios":"levelo://app?vid=d0144d27-60cc-45ea-9eca-583c63b61cc6"},"vehicle_type_id":"4","last_reported":1749633116,"current_range_meters":20000,"station_id":"ce4bgv92rcd13ifvqcq0","pricing_plan_id":"cebpf4jnsgd1na2vs0mg"},{"bike_id":"11926c67-c581-4a5d-8203-15313e951bcf","system_id":"levelo_inurba_marseille","lat":43.21746,"lon":5.34597,"is_reserved":false,"is_disabled":false,"rental_uris":{"android":"levelo://app?vid=11926c67-c581-4a5d-8203-15313e951bcf","ios":"levelo://app?vid=11926c67-c581-4a5d-8203-15313e951bcf"},"vehicle_type_id":"4","last_reported":1749633116,"current_range_meters":20000,"station_id":"st_cvj6r9ubvosntc0bgbag","pricing_plan_id":"cebpf4jnsgd1na2vs0mg"},{"bike_id":"f9ba2e76-62e9-4c4d-8d9c-0342e60cf9b9","system_id":"levelo_inurba_marseille","lat":43.27372,"lon":5.36256,"is_reserved":false,"is_disabled":false,"rental_uris":{"android":"levelo://app?vid=f9ba2e76-62e9-4c4d-8d9c-0342e60cf9b9","ios":"levelo://app?vid=f9ba2e76-62e9-4c4d-8d9c-0342e60cf9b9"},"vehicle_type_id":"4","last_reported":1749633116,"current_range_meters":20000,"station_id":"ce4bhbh2rcd13ifvqeo0","pricing_plan_id":"cebpf4jnsgd1na2vs0mg"},{"bike_id":"322b9e46-42b2-4f43-ad8e-0c15022b2f6d","system_id":"levelo_inurba_marseille","lat":43.25708,"lon":5.41106,"is_reserved":false,"is_disabled":false,"rental_uris":{"android":"levelo://app?vid=322b9e46-42b2-4f43-ad8e-0c15022b2f6d","ios":"levelo://app?vid=322b9e46-42b2-4f43-ad8e-0c15022b2f6d"},"vehicle_type_id":"4","last_reported":1749633116,"current_range_meters":20000,"station_id":"ce4bhkp2rcd13ifvqgd0","pricing_plan_id":"cebpf4jnsgd1na2vs0mg"},{"bike_id":"79bf13b8-2d05-4b43-a1d7-2e739ac8bd97","system_id":"levelo_inurba_marseille","lat":43.29001,"lon":5.35612,"is_reserved":false,"is_disabled":false,"rental_uris":{"android":"levelo://app?vid=79bf13b8-2d05-4b43-a1d7-2e739ac8bd97","ios":"levelo://app?vid=79bf13b8-2d05-4b43-a1d7-2e739ac8bd97"},"vehicle_type_id":"4","last_reported":1749633116,"current_range_meters":20000,"station_id":"ce4bhb92rcd13ifvqen0","pricing_plan_id":"cebpf4jnsgd1na2vs0mg"},{"bike_id":"98855dfb-7f1a-4ad2-b5c8-6854d863a5f3","system_id":"levelo_inurba_marseille","lat":43.281509,"lon":5.426389,"is_reserved":false,"is_disabled":false,"rental_uris":{"android":"levelo://app?vid=98855dfb-7f1a-4ad2-b5c8-6854d863a5f3","ios":"levelo://app?vid=98855dfb-7f1a-4ad2-b5c8-6854d863a5f3"},"vehicle_type_id":"4","last_reported":1749633116,"current_range_meters":20400,"station_id":"ce4bhnh2rcd13ifvqgug","pricing_plan_id":"cebpf4jnsgd1na2vs0mg"},{"bike_id":"3203e9de-9d63-4a48-820c-c225ac38b825","system_id":"levelo_inurba_marseille","lat":43.29033,"lon":5.39961,"is_reserved":false,"is_disabled":false,"rental_uris":{"android":"levelo://app?vid=3203e9de-9d63-4a48-820c-c225ac38b825","ios":"levelo://app?vid=3203e9de-9d63-4a48-820c-c225ac38b825"},"vehicle_type_id":"4","last_reported":1749633116,"current_range_meters":20400,"station_id":"ce4bh392rcd13ifvqdm0","pricing_plan_id":"cebpf4jnsgd1na2vs0mg"},{"bike_id":"e0249f4b-8d8b-4dc7-a224-9ea697947c37","system_id":"levelo_inurba_marseille","lat":43.31716,"lon":5.42392,"is_reserved":false,"is_disabled":false,"rental_uris":{"android":"levelo://app?vid=e0249f4b-8d8b-4dc7-a224-9ea697947c37","ios":"levelo://app?vid=e0249f4b-8d8b-4dc7-a224-9ea697947c37"},"vehicle_type_id":"4","last_reported":1749633116,"current_range_meters":20400,"station_id":"ce4bhp92rcd13ifvqhbg","pricing_plan_id":"cebpf4jnsgd1na2vs0mg"},{"bike_id":"3f721d0a-a8f4-479e-aaa6-6ed8f7b1d35e","system_id":"levelo_inurba_marseille","lat":43.26171,"lon":5.37916,"is_reserved":false,"is_disabled":true,"rental_uris":{"android":"levelo://app?vid=3f721d0a-a8f4-479e-aaa6-6ed8f7b1d35e","ios":"levelo://app?vid=3f721d0a-a8f4-479e-aaa6-6ed8f7b1d35e"},"vehicle_type_id":"4","last_reported":1749633116,"current_range_meters":20800,"station_id":"ce4bhjp2rcd13ifvqg90","pricing_plan_id":"cebpf4jnsgd1na2vs0mg"},{"bike_id":"31b74d86-90b8-4af1-bd7b-9f2c8da2c72f","system_id":"levelo_inurba_marseille","lat":43.29934,"lon":5.36543,"is_reserved":false,"is_disabled":false,"rental_uris":{"android":"levelo://app?vid=31b74d86-90b8-4af1-bd7b-9f2c8da2c72f","ios":"levelo://app?vid=31b74d86-90b8-4af1-bd7b-9f2c8da2c72f"},"vehicle_type_id":"4","last_reported":1749633116,"current_range_meters":20800,"station_id":"ce4bgm92rcd13ifvqbr0","pricing_plan_id":"cebpf4jnsgd1na2vs0mg"},{"bike_id":"2b091a8f-1f16-4074-9743-727f3a29f4b1","system_id":"levelo_inurba_marseille","lat":43.27492,"lon":5.42456,"is_reserved":false,"is_disabled":false,"rental_uris":{"android":"levelo://app?vid=2b091a8f-1f16-4074-9743-727f3a29f4b1","ios":"levelo://app?vid=2b091a8f-1f16-4074-9743-727f3a29f4b1"},"vehicle_type_id":"4","last_reported":1749633116,"current_range_meters":20800,"station_id":"ce4bhn92rcd13ifvqgrg","pricing_plan_id":"cebpf4jnsgd1na2vs0mg"},{"bike_id":"80c4481f-3a94-40c5-bcb5-c1363c06279d","system_id":"levelo_inurba_marseille","lat":43.25945,"lon":5.40895,"is_reserved":false,"is_disabled":true,"rental_uris":{"android":"levelo://app?vid=80c4481f-3a94-40c5-bcb5-c1363c06279d","ios":"levelo://app?vid=80c4481f-3a94-40c5-bcb5-c1363c06279d"},"vehicle_type_id":"4","last_reported":1749633116,"current_range_meters":20800,"station_id":"ce4bhm92rcd13ifvqglg","pricing_plan_id":"cebpf4jnsgd1na2vs0mg"},{"bike_id":"30279476-1217-4ff3-95d0-446471d88d19","system_id":"levelo_inurba_marseille","lat":43.29039,"lon":5.3757,"is_reserved":false,"is_disabled":false,"rental_uris":{"android":"levelo://app?vid=30279476-1217-4ff3-95d0-446471d88d19","ios":"levelo://app?vid=30279476-1217-4ff3-95d0-446471d88d19"},"vehicle_type_id":"4","last_reported":1749633116,"current_range_meters":22000,"station_id":"ce4bh692rcd13ifvqe90","pricing_plan_id":"cebpf4jnsgd1na2vs0mg"},{"bike_id":"eb625d5f-bbf0-48bb-b040-f6951ee13b67","system_id":"levelo_inurba_marseille","lat":43.284058,"lon":5.349771,"is_reserved":false,"is_disabled":false,"rental_uris":{"android":"levelo://app?vid=eb625d5f-bbf0-48bb-b040-f6951ee13b67","ios":"levelo://app?vid=eb625d5f-bbf0-48bb-b040-f6951ee13b67"},"vehicle_type_id":"4","last_reported":1749633116,"current_range_meters":20000,"station_id":"ce4bhbh2rcd13ifvqepg","pricing_plan_id":"cebpf4jnsgd1na2vs0mg"},{"bike_id":"3cb0af7c-994a-4b71-98dc-211ebea626ad","system_id":"levelo_inurba_marseille","lat":43.32358,"lon":5.36739,"is_reserved":false,"is_disabled":false,"rental_uris":{"android":"levelo://app?vid=3cb0af7c-994a-4b71-98dc-211ebea626ad","ios":"levelo://app?vid=3cb0af7c-994a-4b71-98dc-211ebea626ad"},"vehicle_type_id":"4","last_reported":1749633116,"current_range_meters":20800,"station_id":"ce4bhsh2rcd13ifvqi2g","pricing_plan_id":"cebpf4jnsgd1na2vs0mg"},{"bike_id":"6e464720-93b0-4699-80fe-881649eb71cd","system_id":"levelo_inurba_marseille","lat":43.23244,"lon":5.35587,"is_reserved":false,"is_disabled":false,"rental_uris":{"android":"levelo://app?vid=6e464720-93b0-4699-80fe-881649eb71cd","ios":"levelo://app?vid=6e464720-93b0-4699-80fe-881649eb71cd"},"vehicle_type_id":"4","last_reported":1749633116,"current_range_meters":20800,"station_id":"","pricing_plan_id":"cebpf4jnsgd1na2vs0mg"},{"bike_id":"d5dc117f-3723-485d-9be3-c6203b4eefe4","system_id":"levelo_inurba_marseille","lat":43.28416,"lon":5.34979,"is_reserved":false,"is_disabled":false,"rental_uris":{"android":"levelo://app?vid=d5dc117f-3723-485d-9be3-c6203b4eefe4","ios":"levelo://app?vid=d5dc117f-3723-485d-9be3-c6203b4eefe4"},"vehicle_type_id":"4","last_reported":1749633116,"current_range_meters":20800,"station_id":"ce4bhbh2rcd13ifvqepg","pricing_plan_id":"cebpf4jnsgd1na2vs0mg"},{"bike_id":"a92fd47a-dd22-4500-8846-3601b231238f","system_id":"levelo_inurba_marseille","lat":43.298445,"lon":5.362732,"is_reserved":false,"is_disabled":false,"rental_uris":{"android":"levelo://app?vid=a92fd47a-dd22-4500-8846-3601b231238f","ios":"levelo://app?vid=a92fd47a-dd22-4500-8846-3601b231238f"},"vehicle_type_id":"4","last_reported":1749633116,"current_range_meters":21600,"station_id":"ce4bgpp2rcd13ifvqc3g","pricing_plan_id":"cebpf4jnsgd1na2vs0mg"},{"bike_id":"5240f6fd-7c4d-480e-89e7-ad5430e3da82","system_id":"levelo_inurba_marseille","lat":43.28415,"lon":5.34969,"is_reserved":false,"is_disabled":false,"rental_uris":{"android":"levelo://app?vid=5240f6fd-7c4d-480e-89e7-ad5430e3da82","ios":"levelo://app?vid=5240f6fd-7c4d-480e-89e7-ad5430e3da82"},"vehicle_type_id":"4","last_reported":1749633116,"current_range_meters":21600,"station_id":"ce4bhbh2rcd13ifvqepg","pricing_plan_id":"cebpf4jnsgd1na2vs0mg"},{"bike_id":"3a3f8fbe-0d89-4c4c-8c79-a9459b289db0","system_id":"levelo_inurba_marseille","lat":43.29513,"lon":5.37506,"is_reserved":false,"is_disabled":false,"rental_uris":{"android":"levelo://app?vid=3a3f8fbe-0d89-4c4c-8c79-a9459b289db0","ios":"levelo://app?vid=3a3f8fbe-0d89-4c4c-8c79-a9459b289db0"},"vehicle_type_id":"4","last_reported":1749633116,"current_range_meters":21600,"station_id":"ce4bgkp2rcd13ifvqbmg","pricing_plan_id":"cebpf4jnsgd1na2vs0mg"},{"bike_id":"5885abd4-2b29-4f53-bcda-5740497bbafe","system_id":"levelo_inurba_marseille","lat":43.28264,"lon":5.35062,"is_reserved":false,"is_disabled":false,"rental_uris":{"android":"levelo://app?vid=5885abd4-2b29-4f53-bcda-5740497bbafe","ios":"levelo://app?vid=5885abd4-2b29-4f53-bcda-5740497bbafe"},"vehicle_type_id":"4","last_reported":1749633116,"current_range_meters":21600,"station_id":"ce4bhbp2rcd13ifvqerg","pricing_plan_id":"cebpf4jnsgd1na2vs0mg"},{"bike_id":"36898c7e-95ce-4edf-912c-0569f315d2a1","system_id":"levelo_inurba_marseille","lat":43.28624,"lon":5.35105,"is_reserved":false,"is_disabled":false,"rental_uris":{"android":"levelo://app?vid=36898c7e-95ce-4edf-912c-0569f315d2a1","ios":"levelo://app?vid=36898c7e-95ce-4edf-912c-0569f315d2a1"},"vehicle_type_id":"4","last_reported":1749633116,"current_range_meters":21600,"station_id":"ce4bhch2rcd13ifvqeug","pricing_plan_id":"cebpf4jnsgd1na2vs0mg"},{"bike_id":"00e9aa13-9014-4428-a599-2343194c9d9b","system_id":"levelo_inurba_marseille","lat":43.28266,"lon":5.35068,"is_reserved":false,"is_disabled":false,"rental_uris":{"android":"levelo://app?vid=00e9aa13-9014-4428-a599-2343194c9d9b","ios":"levelo://app?vid=00e9aa13-9014-4428-a599-2343194c9d9b"},"vehicle_type_id":"4","last_reported":1749633116,"current_range_meters":21600,"station_id":"ce4bhbp2rcd13ifvqerg","pricing_plan_id":"cebpf4jnsgd1na2vs0mg"},{"bike_id":"02065d53-280e-439d-a9fe-301c29a56225","system_id":"levelo_inurba_marseille","lat":43.2558,"lon":5.38234,"is_reserved":false,"is_disabled":false,"rental_uris":{"android":"levelo://app?vid=02065d53-280e-439d-a9fe-301c29a56225","ios":"levelo://app?vid=02065d53-280e-439d-a9fe-301c29a56225"},"vehicle_type_id":"4","last_reported":1749633116,"current_range_meters":21600,"station_id":"ce4bhih2rcd13ifvqfs0","pricing_plan_id":"cebpf4jnsgd1na2vs0mg"},{"bike_id":"7477116d-b010-4929-b5b2-904414dc0d68","system_id":"levelo_inurba_marseille","lat":43.28152,"lon":5.42643,"is_reserved":false,"is_disabled":false,"rental_uris":{"android":"levelo://app?vid=7477116d-b010-4929-b5b2-904414dc0d68","ios":"levelo://app?vid=7477116d-b010-4929-b5b2-904414dc0d68"},"vehicle_type_id":"4","last_reported":1749633116,"current_range_meters":21600,"station_id":"ce4bhnh2rcd13ifvqgug","pricing_plan_id":"cebpf4jnsgd1na2vs0mg"},{"bike_id":"346f3f80-6b15-4406-b905-bb78596f5bac","system_id":"levelo_inurba_marseille","lat":43.32356,"lon":5.367568,"is_reserved":false,"is_disabled":false,"rental_uris":{"android":"levelo://app?vid=346f3f80-6b15-4406-b905-bb78596f5bac","ios":"levelo://app?vid=346f3f80-6b15-4406-b905-bb78596f5bac"},"vehicle_type_id":"4","last_reported":1749633116,"current_range_meters":21600,"station_id":"ce4bhsh2rcd13ifvqi2g","pricing_plan_id":"cebpf4jnsgd1na2vs0mg"},{"bike_id":"6129c9c1-d980-4e3a-a2b6-78c73976d62a","system_id":"levelo_inurba_marseille","lat":43.23191,"lon":5.39989,"is_reserved":false,"is_disabled":false,"rental_uris":{"android":"levelo://app?vid=6129c9c1-d980-4e3a-a2b6-78c73976d62a","ios":"levelo://app?vid=6129c9c1-d980-4e3a-a2b6-78c73976d62a"},"vehicle_type_id":"4","last_reported":1749633116,"current_range_meters":21600,"station_id":"ce4bhn12rcd13ifvqgqg","pricing_plan_id":"cebpf4jnsgd1na2vs0mg"},{"bike_id":"9860fce2-68ae-44aa-8380-5e395e47250a","system_id":"levelo_inurba_marseille","lat":43.305367,"lon":5.36555,"is_reserved":false,"is_disabled":false,"rental_uris":{"android":"levelo://app?vid=9860fce2-68ae-44aa-8380-5e395e47250a","ios":"levelo://app?vid=9860fce2-68ae-44aa-8380-5e395e47250a"},"vehicle_type_id":"4","last_reported":1749633116,"current_range_meters":22000,"station_id":"ce4bgs12rcd13ifvqcag","pricing_plan_id":"cebpf4jnsgd1na2vs0mg"},{"bike_id":"20698ad9-6935-43c8-872a-68c33a0a7d9b","system_id":"levelo_inurba_marseille","lat":43.23148,"lon":5.43698,"is_reserved":false,"is_disabled":false,"rental_uris":{"android":"levelo://app?vid=20698ad9-6935-43c8-872a-68c33a0a7d9b","ios":"levelo://app?vid=20698ad9-6935-43c8-872a-68c33a0a7d9b"},"vehicle_type_id":"4","last_reported":1749633116,"current_range_meters":22000,"station_id":"ce4bhmp2rcd13ifvqgog","pricing_plan_id":"cebpf4jnsgd1na2vs0mg"},{"bike_id":"ec591e98-6734-49e2-a8ea-c715f6a7d545","system_id":"levelo_inurba_marseille","lat":43.29721,"lon":5.37691,"is_reserved":false,"is_disabled":false,"rental_uris":{"android":"levelo://app?vid=ec591e98-6734-49e2-a8ea-c715f6a7d545","ios":"levelo://app?vid=ec591e98-6734-49e2-a8ea-c715f6a7d545"},"vehicle_type_id":"4","last_reported":1749633116,"current_range_meters":22000,"station_id":"ce4bgkh2rcd13ifvqbl0","pricing_plan_id":"cebpf4jnsgd1na2vs0mg"},{"bike_id":"fee78a87-13d7-4e8b-9a1c-2f91239954a1","system_id":"levelo_inurba_marseille","lat":43.30279,"lon":5.37706,"is_reserved":false,"is_disabled":false,"rental_uris":{"android":"levelo://app?vid=fee78a87-13d7-4e8b-9a1c-2f91239954a1","ios":"levelo://app?vid=fee78a87-13d7-4e8b-9a1c-2f91239954a1"},"vehicle_type_id":"4","last_reported":1749633116,"current_range_meters":22000,"station_id":"ce4bguh2rcd13ifvqcj0","pricing_plan_id":"cebpf4jnsgd1na2vs0mg"},{"bike_id":"4dbd4f9c-18b0-4952-a105-699afd380412","system_id":"levelo_inurba_marseille","lat":43.26674,"lon":5.38263,"is_reserved":false,"is_disabled":false,"rental_uris":{"android":"levelo://app?vid=4dbd4f9c-18b0-4952-a105-699afd380412","ios":"levelo://app?vid=4dbd4f9c-18b0-4952-a105-699afd380412"},"vehicle_type_id":"4","last_reported":1749633116,"current_range_meters":21600,"station_id":"ce4bhg92rcd13ifvqf90","pricing_plan_id":"cebpf4jnsgd1na2vs0mg"},{"bike_id":"77b38714-11d2-425d-81eb-8b161260adb0","system_id":"levelo_inurba_marseille","lat":43.28272,"lon":5.35082,"is_reserved":false,"is_disabled":false,"rental_uris":{"android":"levelo://app?vid=77b38714-11d2-425d-81eb-8b161260adb0","ios":"levelo://app?vid=77b38714-11d2-425d-81eb-8b161260adb0"},"vehicle_type_id":"4","last_reported":1749633116,"current_range_meters":22000,"station_id":"ce4bhbp2rcd13ifvqerg","pricing_plan_id":"cebpf4jnsgd1na2vs0mg"},{"bike_id":"89751972-2148-47e8-a9f5-6238a039cba7","system_id":"levelo_inurba_marseille","lat":43.30457,"lon":5.36692,"is_reserved":false,"is_disabled":false,"rental_uris":{"android":"levelo://app?vid=89751972-2148-47e8-a9f5-6238a039cba7","ios":"levelo://app?vid=89751972-2148-47e8-a9f5-6238a039cba7"},"vehicle_type_id":"4","last_reported":1749633116,"current_range_meters":22000,"station_id":"ce4bgs12rcd13ifvqcag","pricing_plan_id":"cebpf4jnsgd1na2vs0mg"},{"bike_id":"00e1765b-c113-458d-af17-4ffde14bace6","system_id":"levelo_inurba_marseille","lat":43.274979,"lon":5.424486,"is_reserved":false,"is_disabled":false,"rental_uris":{"android":"levelo://app?vid=00e1765b-c113-458d-af17-4ffde14bace6","ios":"levelo://app?vid=00e1765b-c113-458d-af17-4ffde14bace6"},"vehicle_type_id":"4","last_reported":1749633116,"current_range_meters":22000,"station_id":"ce4bhn92rcd13ifvqgrg","pricing_plan_id":"cebpf4jnsgd1na2vs0mg"},{"bike_id":"6c0fd13e-0872-4c8a-b703-37eb75f1c963","system_id":"levelo_inurba_marseille","lat":43.29892,"lon":5.43669,"is_reserved":false,"is_disabled":false,"rental_uris":{"android":"levelo://app?vid=6c0fd13e-0872-4c8a-b703-37eb75f1c963","ios":"levelo://app?vid=6c0fd13e-0872-4c8a-b703-37eb75f1c963"},"vehicle_type_id":"4","last_reported":1749633116,"current_range_meters":22400,"station_id":"ce4bhpp2rcd13ifvqhfg","pricing_plan_id":"cebpf4jnsgd1na2vs0mg"},