{"last_updated":1755965423,"ttl":60,"version":"2.2","data":{"bikes":[{"bike_id":"a1858387-35d2-44e6-95de-f3e0376c7fd8","system_id":"levelo_inurba_marseille","lat":43.337444,"lon":5.374475,"is_reserved":false,"is_disabled":true,"rental_uris":{"android":"levelo://app?vid=a1858387-35d2-44e6-95de-f3e0376c7fd8","ios":"levelo://app?vid=a1858387-35d2-44e6-95de-f3e0376c7fd8"},"vehicle_type_id":"4","last_reported":1755965424,"current_range_meters":0,"station_id":"","pricing_plan_id":"cebpf4jnsgd1na2vs0mg"},{"bike_id":"53860adc-3a95-48f9-8915-797d09a2a220","system_id":"levelo_inurba_marseille","lat":43.337444,"lon":5.374475,"is_reserved":false,"is_disabled":true,"rental_uris":{"android":"levelo://app?vid=53860adc-3a95-48f9-8915-797d09a2a220","ios":"levelo://app?vid=53860adc-3a95-48f9-8915-797d09a2a220"},"vehicle_type_id":"4","last_reported":1755965424,"current_range_meters":0,"station_id":"","pricing_plan_id":"cebpf4jnsgd1na2vs0mg"},{"bike_id":"fd36f5fa-bc2d-46d8-9563-87c9b2ceac32","system_id":"levelo_inurba_marseille","lat":43.337444,"lon":5.374475,"is_reserved":false,"is_disabled":true,"rental_uris":{"android":"levelo://app?vid=fd36f5fa-bc2d-46d8-9563-87c9b2ceac32","ios":"levelo://app?vid=fd36f5fa-bc2d-46d8-9563-87c9b2ceac32"},"vehicle_type_id":"4","last_reported":1755965424,"current_range_meters":0,"station_id":"","pricing_plan_id":"cebpf4jnsgd1na2vs0mg"},{"bike_id":"80284ef7-876c-4a64-9ba6-4e735c600874","system_id":"levelo_inurba_marseille","lat":43.33771,"lon":5.37424,"is_reserved":false,"is_disabled":true,"rental_uris":{"android":"levelo://app?vid=80284ef7-876c-4a64-9ba6-4e735c600874","ios":"levelo://app?vid=80284ef7-876c-4a64-9ba6-4e735c600874"},"vehicle_type_id":"4","last_reported":1755965424,"current_range_meters":0,"station_id":"","pricing_plan_id":"cebpf4jnsgd1na2vs0mg"},{"bike_id":"490999bf-bb1f-4584-a5f7-6571c4c4d2b9","system_id":"levelo_inurba_marseille","lat":43.33751,"lon":5.37456,"is_reserved":false,"is_disabled":true,"rental_uris":{"android":"levelo://app?vid=490999bf-bb1f-4584-a5f7-6571c4c4d2b9","ios":"levelo://app?vid=490999bf-bb1f-4584-a5f7-6571c4c4d2b9"},"vehicle_type_id":"4","last_reported":1755965424,"current_range_meters":0,"station_id":"","pricing_plan_id":"cebpf4jnsgd1na2vs0mg"},{"bike_id":"c9d9164b-8a8d-4b0f-bc8e-e7a0327586ef","system_id":"levelo_inurba_marseille","lat":43.33747,"lon":5.37463,"is_reserved":false,"is_disabled":true,"rental_uris":{"android":"levelo://app?vid=c9d9164b-8a8d-4b0f-bc8e-e7a0327586ef","ios":"levelo://app?vid=c9d9164b-8a8d-4b0f-bc8e-e7a0327586ef"},"vehicle_type_id":"1","last_reported":1755965424,"current_range_meters":0,"station_id":"","pricing_plan_id":"cebpf4jnsgd1na2vs0mg"},{"bike_id":"925ca7f4-ec1b-4f1f-8522-84dcbe766a79","system_id":"levelo_inurba_marseille","lat":43.33737,"lon":5.37465,"is_reserved":false,"is_disabled":true,"rental_uris":{"android":"levelo://app?vid=925ca7f4-ec1b-4f1f-8522-84dcbe766a79","ios":"levelo://app?vid=925ca7f4-ec1b-4f1f-8522-84dcbe766a79"},"vehicle_type_id":"4","last_reported":1755965424,"current_range_meters":0,"station_id":"","pricing_plan_id":"cebpf4jnsgd1na2vs0mg"},{"bike_id":"6e2a00b4-4497-47f9-adb0-83e4a41ab7b6","system_id":"levelo_inurba_marseille","lat":43.25583,"lon":5.38226,"is_reserved":false,"is_disabled":false,"rental_uris":{"android":"levelo://app?vid=6e2a00b4-4497-47f9-adb0-83e4a41ab7b6","ios":"levelo://app?vid=6e2a00b4-4497-47f9-adb0-83e4a41ab7b6"},"vehicle_type_id":"4","last_reported":1755965424,"current_range_meters":4400,"station_id":"ce4bhih2rcd13ifvqfs0","pricing_plan_id":"cebpf4jnsgd1na2vs0mg"},{"bike_id":"9c6538bc-3a5d-4d59-940a-a5e56f823b9d","system_id":"levelo_inurba_marseille","lat":43.28851,"lon":5.35329,"is_reserved":false,"is_disabled":false,"rental_uris":{"android":"levelo://app?vid=9c6538bc-3a5d-4d59-940a-a5e56f823b9d","ios":"levelo://app?vid=9c6538bc-3a5d-4d59-940a-a5e56f823b9d"},"vehicle_type_id":"4","last_reported":1755965424,"current_range_meters":32800,"station_id":"","pricing_plan_id":"cebpf4jnsgd1na2vs0mg"},{"bike_id":"ec1689ba-e3ec-4000-9c62-f6b9a2ee3016","system_id":"levelo_inurba_marseille","lat":43.23073,"lon":5.35479,"is_reserved":false,"is_disabled":false,"rental_uris":{"android":"levelo://app?vid=ec1689ba-e3ec-4000-9c62-f6b9a2ee3016","ios":"levelo://app?vid=ec1689ba-e3ec-4000-9c62-f6b9a2ee3016"},"vehicle_type_id":"4","last_reported":1755965424,"current_range_meters":38800,"station_id":"cpo3342slgdg3j2ifvpg","pricing_plan_id":"cebpf4jnsgd1na2vs0mg"},{"bike_id":"2aeeeae1-ef01-4e02-b6a4-cfe58bb6e48a","system_id":"levelo_inurba_marseille","lat":43.21543,"lon":5.34647,"is_reserved":false,"is_disabled":true,"rental_uris":{"android":"levelo://app?vid=2aeeeae1-ef01-4e02-b6a4-cfe58bb6e48a","ios":"levelo://app?vid=2aeeeae1-ef01-4e02-b6a4-cfe58bb6e48a"},"vehicle_type_id":"4","last_reported":1755965424,"current_range_meters":0,"station_id":"","pricing_plan_id":"cebpf4jnsgd1na2vs0mg"},{"bike_id":"e104b61b-10b6-4aa7-972a-84e659675d92","system_id":"levelo_inurba_marseille","lat":43.280701,"lon":5.347756,"is_reserved":false,"is_disabled":true,"rental_uris":{"android":"levelo://app?vid=e104b61b-10b6-4aa7-972a-84e659675d92","ios":"levelo://app?vid=e104b61b-10b6-4aa7-972a-84e659675d92"},"vehicle_type_id":"4","last_reported":1755965424,"current_range_meters":0,"station_id":"","pricing_plan_id":"cebpf4jnsgd1na2vs0mg"},{"bike_id":"a4449d75-479c-4065-a981-550b93ccadb6","system_id":"levelo_inurba_marseille","lat":43.33819,"lon":5.36998,"is_reserved":false,"is_disabled":true,"rental_uris":{"android":"levelo://app?vid=a4449d75-479c-4065-a981-550b93ccadb6","ios":"levelo://app?vid=a4449d75-479c-4065-a981-550b93ccadb6"},"vehicle_type_id":"4","last_reported":1755965424,"current_range_meters":0,"station_id":"","pricing_plan_id":"cebpf4jnsgd1na2vs0mg"},{"bike_id":"c99407ad-8915-4f2b-81e0-949c8673c6cb","system_id":"levelo_inurba_marseille","lat":43.337444,"lon":5.374475,"is_reserved":false,"is_disabled":true,"rental_uris":{"android":"levelo://app?vid=c99407ad-8915-4f2b-81e0-949c8673c6cb","ios":"levelo://app?vid=c99407ad-8915-4f2b-81e0-949c8673c6cb"},"vehicle_type_id":"4","last_reported":1755965424,"current_range_meters":0,"station_id":"","pricing_plan_id":"cebpf4jnsgd1na2vs0mg"},{"bike_id":"58c4e1ab-903d-4a81-9f69-cb7547543dd2","system_id":"levelo_inurba_marseille","lat":43.253352,"lon":5.421619,"is_reserved":false,"is_disabled":true,"rental_uris":{"android":"levelo://app?vid=58c4e1ab-903d-4a81-9f69-cb7547543dd2","ios":"levelo://app?vid=58c4e1ab-903d-4a81-9f69-cb7547543dd2"},"vehicle_type_id":"4","last_reported":1755965424,"current_range_meters":0,"station_id":"","pricing_plan_id":"cebpf4jnsgd1na2vs0mg"},{"bike_id":"aa566413-2530-4cba-b00c-3c8b424eaef2","system_id":"levelo_inurba_marseille","lat":43.32761,"lon":5.36253,"is_reserved":false,"is_disabled":true,"rental_uris":{"android":"levelo://app?vid=aa566413-2530-4cba-b00c-3c8b424eaef2","ios":"levelo://app?vid=aa566413-2530-4cba-b00c-3c8b424eaef2"},"vehicle_type_id":"4","last_reported":1755965424,"current_range_meters":0,"station_id":"","pricing_plan_id":"cebpf4jnsgd1na2vs0mg"},{"bike_id":"605c976f-1cbc-43bc-8b0d-1c26fc1d1cc4","system_id":"levelo_inurba_marseille","lat":43.28121,"lon":5.39863,"is_reserved":false,"is_disabled":true,"rental_uris":{"android":"levelo://app?vid=605c976f-1cbc-43bc-8b0d-1c26fc1d1cc4","ios":"levelo://app?vid=605c976f-1cbc-43bc-8b0d-1c26fc1d1cc4"},"vehicle_type_id":"4","last_reported":1755965424,"current_range_meters":0,"station_id":"","pricing_plan_id":"cebpf4jnsgd1na2vs0mg"},{"bike_id":"eaf86140-d09b-45c4-8e26-03fb5d4f65f4","system_id":"levelo_inurba_marseille","lat":43.33869,"lon":5.42223,"is_reserved":false,"is_disabled":true,"rental_uris":{"android":"levelo://app?vid=eaf86140-d09b-45c4-8e26-03fb5d4f65f4","ios":"levelo://app?vid=eaf86140-d09b-45c4-8e26-03fb5d4f65f4"},"vehicle_type_id":"4","last_reported":1755965424,"current_range_meters":0,"station_id":"","pricing_plan_id":"cebpf4jnsgd1na2vs0mg"},{"bike_id":"838efc46-a9b3-49b4-90c3-31b3513d6f3a","system_id":"levelo_inurba_marseille","lat":43.225104,"lon":5.347837,"is_reserved":false,"is_disabled":true,"rental_uris":{"android":"levelo://app?vid=838efc46-a9b3-49b4-90c3-31b3513d6f3a","ios":"levelo://app?vid=838efc46-a9b3-49b4-90c3-31b3513d6f3a"},"vehicle_type_id":"4","last_reported":1755965424,"current_range_meters":0,"station_id":"","pricing_plan_id":"cebpf4jnsgd1na2vs0mg"},{"bike_id":"f3d770ef-309f-4b4d-b0c1-de9b2454b3c7","system_id":"levelo_inurba_marseille","lat":43.33772,"lon":5.37424,"is_reserved":false,"is_disabled":true,"rental_uris":{"android":"levelo://app?vid=f3d770ef-309f-4b4d-b0c1-de9b2454b3c7","ios":"levelo://app?vid=f3d770ef-309f-4b4d-b0c1-de9b2454b3c7"},"vehicle_type_id":"4","last_reported":1755965424,"current_range_meters":0,"station_id":"","pricing_plan_id":"cebpf4jnsgd1na2vs0mg"},{"bike_id":"f60ca776-a142-4d8c-9004-731c440b3f0b","system_id":"levelo_inurba_marseille","lat":43.337687,"lon":5.374415,"is_reserved":false,"is_disabled":true,"rental_uris":{"android":"levelo://app?vid=f60ca776-a142-4d8c-9004-731c440b3f0b","ios":"levelo://app?vid=f60ca776-a142-4d8c-9004-731c440b3f0b"},"vehicle_type_id":"4","last_reported":1755965424,"current_range_meters":0,"station_id":"","pricing_plan_id":"cebpf4jnsgd1na2vs0mg"},{"bike_id":"dfc89248-1fc7-42ee-b537-2b9806691f97","system_id":"levelo_inurba_marseille","lat":43.21611,"lon":5.34519,"is_reserved":false,"is_disabled":true,"rental_uris":{"android":"levelo://app?vid=dfc89248-1fc7-42ee-b537-2b9806691f97","ios":"levelo://app?vid=dfc89248-1fc7-42ee-b537-2b9806691f97"},"vehicle_type_id":"4","last_reported":1755965424,"current_range_meters":0,"station_id":"","pricing_plan_id":"cebpf4jnsgd1na2vs0mg"},{"bike_id":"f02d8944-0959-4705-88a9-dddec44df443","system_id":"levelo_inurba_marseille","lat":43.21522,"lon":5.34657,"is_reserved":false,"is_disabled":true,"rental_uris":{"android":"levelo://app?vid=f02d8944-0959-4705-88a9-dddec44df443","ios":"levelo://app?vid=f02d8944-0959-4705-88a9-dddec44df443"},"vehicle_type_id":"4","last_reported":1755965424,"current_range_meters":0,"station_id":"","pricing_plan_id":"cebpf4jnsgd1na2vs0mg"},{"bike_id":"88b763ab-bfea-412c-afaf-ee00225e844a","system_id":"levelo_inurba_marseille","lat":43.292607,"lon":5.376303,"is_reserved":false,"is_disabled":true,"rental_uris":{"android":"levelo://app?vid=88b763ab-bfea-412c-afaf-ee00225e844a","ios":"levelo://app?vid=88b763ab-bfea-412c-afaf-ee00225e844a"},"vehicle_type_id":"4","last_reported":1755965424,"current_range_meters":0,"station_id":"ce4bgi12rcd13ifvqb80","pricing_plan_id":"cebpf4jnsgd1na2vs0mg"},{"bike_id":"55d671ff-9283-4811-ad2a-ea0cacfecec1","system_id":"levelo_inurba_marseille","lat":43.29611,"lon":5.37721,"is_reserved":false,"is_disabled":true,"rental_uris":{"android":"levelo://app?vid=55d671ff-9283-4811-ad2a-ea0cacfecec1","ios":"levelo://app?vid=55d671ff-9283-4811-ad2a-ea0cacfecec1"},"vehicle_type_id":"4","last_reported":1755965424,"current_range_meters":0,"station_id":"ce4bgi92rcd13ifvqb90","pricing_plan_id":"cebpf4jnsgd1na2vs0mg"},{"bike_id":"6642797c-55d0-4d8e-a3cc-c13047f6b918","system_id":"levelo_inurba_marseille","lat":43.29587,"lon":5.37596,"is_reserved":false,"is_disabled":true,"rental_uris":{"android":"levelo://app?vid=6642797c-55d0-4d8e-a3cc-c13047f6b918","ios":"levelo://app?vid=6642797c-55d0-4d8e-a3cc-c13047f6b918"},"vehicle_type_id":"4","last_reported":1755965424,"current_range_meters":0,"station_id":"ce4bgj92rcd13ifvqbd0","pricing_plan_id":"cebpf4jnsgd1na2vs0mg"},{"bike_id":"a1ef6a45-7329-4327-a953-8428c5930149","system_id":"levelo_inurba_marseille","lat":43.29727,"lon":5.37701,"is_reserved":false,"is_disabled":true,"rental_uris":{"android":"levelo://app?vid=a1ef6a45-7329-4327-a953-8428c5930149","ios":"levelo://app?vid=a1ef6a45-7329-4327-a953-8428c5930149"},"vehicle_type_id":"4","last_reported":1755965424,"current_range_meters":0,"station_id":"ce4bgkh2rcd13ifvqbl0","pricing_plan_id":"cebpf4jnsgd1na2vs0mg"},{"bike_id":"976c2939-3e76-4672-b578-ab9b31cc008c","system_id":"levelo_inurba_marseille","lat":43.29589,"lon":5.36734,"is_reserved":false,"is_disabled":true,"rental_uris":{"android":"levelo://app?vid=976c2939-3e76-4672-b578-ab9b31cc008c","ios":"levelo://app?vid=976c2939-3e76-4672-b578-ab9b31cc008c"},"vehicle_type_id":"4","last_reported":1755965424,"current_range_meters":0,"station_id":"ce4bgph2rcd13ifvqc2g","pricing_plan_id":"cebpf4jnsgd1na2vs0mg"},{"bike_id":"47605675-1312-4903-90d4-e4a85947137a","system_id":"levelo_inurba_marseille","lat":43.29509,"lon":5.39399,"is_reserved":false,"is_disabled":true,"rental_uris":{"android":"levelo://app?vid=47605675-1312-4903-90d4-e4a85947137a","ios":"levelo://app?vid=47605675-1312-4903-90d4-e4a85947137a"},"vehicle_type_id":"4","last_reported":1755965424,"current_range_meters":0,"station_id":"ce4bh292rcd13ifvqdf0","pricing_plan_id":"cebpf4jnsgd1na2vs0mg"},{"bike_id":"d6b43f18-525f-4297-a75c-89db91cbcf59","system_id":"levelo_inurba_marseille","lat":43.28369,"lon":5.3864,"is_reserved":false,"is_disabled":true,"rental_uris":{"android":"levelo://app?vid=d6b43f18-525f-4297-a75c-89db91cbcf59","ios":"levelo://app?vid=d6b43f18-525f-4297-a75c-89db91cbcf59"},"vehicle_type_id":"4","last_reported":1755965424,"current_range_meters":0,"station_id":"ce4bh492rcd13ifvqdvg","pricing_plan_id":"cebpf4jnsgd1na2vs0mg"},{"bike_id":"67ed31cc-ba50-4651-ad14-70f18e8d0d70","system_id":"levelo_inurba_marseille","lat":43.29029,"lon":5.38644,"is_reserved":false,"is_disabled":true,"rental_uris":{"android":"levelo://app?vid=67ed31cc-ba50-4651-ad14-70f18e8d0d70","ios":"levelo://app?vid=67ed31cc-ba50-4651-ad14-70f18e8d0d70"},"vehicle_type_id":"4","last_reported":1755965424,"current_range_meters":0,"station_id":"ce4bh4p2rcd13ifvqe0g","pricing_plan_id":"cebpf4jnsgd1na2vs0mg"},{"bike_id":"8a618bd8-84c9-47f8-995e-6cabe0436e1a","system_id":"levelo_inurba_marseille","lat":43.295339,"lon":5.385501,"is_reserved":false,"is_disabled":true,"rental_uris":{"android":"levelo://app?vid=8a618bd8-84c9-47f8-995e-6cabe0436e1a","ios":"levelo://app?vid=8a618bd8-84c9-47f8-995e-6cabe0436e1a"},"vehicle_type_id":"4","last_reported":1755965424,"current_range_meters":0,"station_id":"ce4bh612rcd13ifvqe6g","pricing_plan_id":"cebpf4jnsgd1na2vs0mg"},{"bike_id":"4730b4be-4d39-4aa4-a332-4829cd2c098c","system_id":"levelo_inurba_marseille","lat":43.28458,"lon":5.35885,"is_reserved":false,"is_disabled":true,"rental_uris":{"android":"levelo://app?vid=4730b4be-4d39-4aa4-a332-4829cd2c098c","ios":"levelo://app?vid=4730b4be-4d39-4aa4-a332-4829cd2c098c"},"vehicle_type_id":"4","last_reported":1755965424,"current_range_meters":0,"station_id":"ce4bhah2rcd13ifvqei0","pricing_plan_id":"cebpf4jnsgd1na2vs0mg"},{"bike_id":"9ec42130-0b6d-45bb-8c7e-7c7bc76e3bf8","system_id":"levelo_inurba_marseille","lat":43.27371,"lon":5.36261,"is_reserved":false,"is_disabled":true,"rental_uris":{"android":"levelo://app?vid=9ec42130-0b6d-45bb-8c7e-7c7bc76e3bf8","ios":"levelo://app?vid=9ec42130-0b6d-45bb-8c7e-7c7bc76e3bf8"},"vehicle_type_id":"4","last_reported":1755965424,"current_range_meters":0,"station_id":"ce4bhbh2rcd13ifvqeo0","pricing_plan_id":"cebpf4jnsgd1na2vs0mg"},{"bike_id":"c74f8cb6-9fc3-4f28-9038-2cf5e8cc8b8d","system_id":"levelo_inurba_marseille","lat":43.2829,"lon":5.35043,"is_reserved":false,"is_disabled":true,"rental_uris":{"android":"levelo://app?vid=c74f8cb6-9fc3-4f28-9038-2cf5e8cc8b8d","ios":"levelo://app?vid=c74f8cb6-9fc3-4f28-9038-2cf5e8cc8b8d"},"vehicle_type_id":"4","last_reported":1755965424,"current_range_meters":0,"station_id":"ce4bhbp2rcd13ifvqerg","pricing_plan_id":"cebpf4jnsgd1na2vs0mg"},{"bike_id":"e95ee0e0-8c0c-4478-a53f-4dc6cd8018de","system_id":"levelo_inurba_marseille","lat":43.29253,"lon":5.36868,"is_reserved":false,"is_disabled":true,"rental_uris":{"android":"levelo://app?vid=e95ee0e0-8c0c-4478-a53f-4dc6cd8018de","ios":"levelo://app?vid=e95ee0e0-8c0c-4478-a53f-4dc6cd8018de"},"vehicle_type_id":"4","last_reported":1755965424,"current_range_meters":0,"station_id":"ce4bhbp2rcd13ifvqesg","pricing_plan_id":"cebpf4jnsgd1na2vs0mg"},{"bike_id":"01dcab89-8794-4ad7-be34-bae98d706abd","system_id":"levelo_inurba_marseille","lat":43.26572,"lon":5.39042,"is_reserved":false,"is_disabled":true,"rental_uris":{"android":"levelo://app?vid=01dcab89-8794-4ad7-be34-bae98d706abd","ios":"levelo://app?vid=01dcab89-8794-4ad7-be34-bae98d706abd"},"vehicle_type_id":"4","last_reported":1755965424,"current_range_meters":0,"station_id":"ce4bhe12rcd13ifvqf30","pricing_plan_id":"cebpf4jnsgd1na2vs0mg"},{"bike_id":"892c4a2d-c40c-40b0-93f2-2d58dae4215b","system_id":"levelo_inurba_marseille","lat":43.26216,"lon":5.37464,"is_reserved":false,"is_disabled":true,"rental_uris":{"android":"levelo://app?vid=892c4a2d-c40c-40b0-93f2-2d58dae4215b","ios":"levelo://app?vid=892c4a2d-c40c-40b0-93f2-2d58dae4215b"},"vehicle_type_id":"4","last_reported":1755965424,"current_range_meters":0,"station_id":"ce4bhgp2rcd13ifvqfc0","pricing_plan_id":"cebpf4jnsgd1na2vs0mg"},{"bike_id":"53f12753-960f-427c-95bd-44690bb45502","system_id":"levelo_inurba_marseille","lat":43.249953,"lon":5.389322,"is_reserved":false,"is_disabled":true,"rental_uris":{"android":"levelo://app?vid=53f12753-960f-427c-95bd-44690bb45502","ios":"levelo://app?vid=53f12753-960f-427c-95bd-44690bb45502"},"vehicle_type_id":"4","last_reported":1755965424,"current_range_meters":0,"station_id":"ce4bhgp2rcd13ifvqfd0","pricing_plan_id":"cebpf4jnsgd1na2vs0mg"},{"bike_id":"f8da1654-d740-4f33-bf76-6583e571f1cf","system_id":"levelo_inurba_marseille","lat":43.2722,"lon":5.392,"is_reserved":false,"is_disabled":true,"rental_uris":{"android":"levelo://app?vid=f8da1654-d740-4f33-bf76-6583e571f1cf","ios":"levelo://app?vid=f8da1654-d740-4f33-bf76-6583e571f1cf"},"vehicle_type_id":"4","last_reported":1755965424,"current_range_meters":0,"station_id":"ce4bhhp2rcd13ifvqfm0","pricing_plan_id":"cebpf4jnsgd1na2vs0mg"},{"bike_id":"b39d875e-5049-4cb0-b0bf-fd99e82c1ea8","system_id":"levelo_inurba_marseille","lat":43.272146,"lon":5.391738,"is_reserved":false,"is_disabled":true,"rental_uris":{"android":"levelo://app?vid=b39d875e-5049-4cb0-b0bf-fd99e82c1ea8","ios":"levelo://app?vid=b39d875e-5049-4cb0-b0bf-fd99e82c1ea8"},"vehicle_type_id":"4","last_reported":1755965424,"current_range_meters":0,"station_id":"ce4bhhp2rcd13ifvqfm0","pricing_plan_id":"cebpf4jnsgd1na2vs0mg"},{"bike_id":"18a1b057-e86d-4c66-95fb-b892bc87a0fb","system_id":"levelo_inurba_marseille","lat":43.25815,"lon":5.39431,"is_reserved":false,"is_disabled":true,"rental_uris":{"android":"levelo://app?vid=18a1b057-e86d-4c66-95fb-b892bc87a0fb","ios":"levelo://app?vid=18a1b057-e86d-4c66-95fb-b892bc87a0fb"},"vehicle_type_id":"4","last_reported":1755965424,"current_range_meters":0,"station_id":"ce4bhip2rcd13ifvqft0","pricing_plan_id":"cebpf4jnsgd1na2vs0mg"},{"bike_id":"748c7c88-fc94-4215-9e1b-d44f7a02a07b","system_id":"levelo_inurba_marseille","lat":43.25716,"lon":5.41098,"is_reserved":false,"is_disabled":true,"rental_uris":{"android":"levelo://app?vid=748c7c88-fc94-4215-9e1b-d44f7a02a07b","ios":"levelo://app?vid=748c7c88-fc94-4215-9e1b-d44f7a02a07b"},"vehicle_type_id":"4","last_reported":1755965424,"current_range_meters":0,"station_id":"ce4bhkp2rcd13ifvqgd0","pricing_plan_id":"cebpf4jnsgd1na2vs0mg"},{"bike_id":"f5952980-2687-4f9b-a816-ef66afd72717","system_id":"levelo_inurba_marseille","lat":43.33016,"lon":5.3903,"is_reserved":false,"is_disabled":true,"rental_uris":{"android":"levelo://app?vid=f5952980-2687-4f9b-a816-ef66afd72717","ios":"levelo://app?vid=f5952980-2687-4f9b-a816-ef66afd72717"},"vehicle_type_id":"4","last_reported":1755965424,"current_range_meters":0,"station_id":"ce4bhr92rcd13ifvqhrg","pricing_plan_id":"cebpf4jnsgd1na2vs0mg"},{"bike_id":"32b5575e-649c-4496-9b4c-6706c1c15382","system_id":"levelo_inurba_marseille","lat":43.32478,"lon":5.36565,"is_reserved":false,"is_disabled":true,"rental_uris":{"android":"levelo://app?vid=32b5575e-649c-4496-9b4c-6706c1c15382","ios":"levelo://app?vid=32b5575e-649c-4496-9b4c-6706c1c15382"},"vehicle_type_id":"4","last_reported":1755965424,"current_range_meters":0,"station_id":"ce4bhs12rcd13ifvqhvg","pricing_plan_id":"cebpf4jnsgd1na2vs0mg"},{"bike_id":"244a3ba5-0fe7-4fba-b1c0-663297028d04","system_id":"levelo_inurba_marseille","lat":43.21751,"lon":5.34597,"is_reserved":false,"is_disabled":true,"rental_uris":{"android":"levelo://app?vid=244a3ba5-0fe7-4fba-b1c0-663297028d04","ios":"levelo://app?vid=244a3ba5-0fe7-4fba-b1c0-663297028d04"},"vehicle_type_id":"4","last_reported":1755965424,"current_range_meters":0,"station_id":"st_cvj6r9ubvosntc0bgbag","pricing_plan_id":"cebpf4jnsgd1na2vs0mg"},{"bike_id":"516bbbe7-ce65-4659-a1d9-2369eaf72aad","system_id":"levelo_inurba_marseille","lat":43.21762,"lon":5.34598,"is_reserved":false,"is_disabled":true,"rental_uris":{"android":"levelo://app?vid=516bbbe7-ce65-4659-a1d9-2369eaf72aad","ios":"levelo://app?vid=516bbbe7-ce65-4659-a1d9-2369eaf72aad"},"vehicle_type_id":"4","last_reported":1755965424,"current_range_meters":0,"station_id":"st_cvj6r9ubvosntc0bgbag","pricing_plan_id":"cebpf4jnsgd1na2vs0mg"},{"bike_id":"eeb338ff-a279-4a95-b11d-f9f80e642607","system_id":"levelo_inurba_marseille","lat":43.21748,"lon":5.34613,"is_reserved":false,"is_disabled":true,"rental_uris":{"android":"levelo://app?vid=eeb338ff-a279-4a95-b11d-f9f80e642607","ios":"levelo://app?vid=eeb338ff-a279-4a95-b11d-f9f80e642607"},"vehicle_type_id":"4","last_reported":1755965424,"current_range_meters":0,"station_id":"st_cvj6r9ubvosntc0bgbag","pricing_plan_id":"cebpf4jnsgd1na2vs0mg"},{"bike_id":"9452acea-7b13-46de-9aa5-b8e73c720ab2","system_id":"levelo_inurba_marseille","lat":43.21745,"lon":5.34598,"is_reserved":false,"is_disabled":true,"rental_uris":{"android":"levelo://app?vid=9452acea-7b13-46de-9aa5-b8e73c720ab2","ios":"levelo://app?vid=9452acea-7b13-46de-9aa5-b8e73c720ab2"},"vehicle_type_id":"4","last_reported":1755965424,"current_range_meters":0,"station_id":"st_cvj6r9ubvosntc0bgbag","pricing_plan_id":"cebpf4jnsgd1na2vs0mg"},{"bike_id":"3023ca94-84b3-44c2-a7aa-ad577f886b1f","system_id":"levelo_inurba_marseille","lat":43.258584,"lon":5.39886,"is_reserved":false,"is_disabled":true,"rental_uris":{"android":"levelo://app?vid=3023ca94-84b3-44c2-a7aa-ad577f886b1f","ios":"levelo://app?vid=3023ca94-84b3-44c2-a7aa-ad577f886b1f"},"vehicle_type_id":"4","last_reported":1755965424,"current_range_meters":0,"station_id":"st_cvj6sg6p6f1abm77japg","pricing_plan_id":"cebpf4jnsgd1na2vs0mg"},{"bike_id":"1996b991-2141-4f81-8618-be82dc20be9c","system_id":"levelo_inurba_marseille","lat":43.21191,"lon":5.35068,"is_reserved":false,"is_disabled":true,"rental_uris":{"android":"levelo://app?vid=1996b991-2141-4f81-8618-be82dc20be9c","ios":"levelo://app?vid=1996b991-2141-4f81-8618-be82dc20be9c"},"vehicle_type_id":"4","last_reported":1755965424,"current_range_meters":0,"station_id":"st_cvj6sg6p6f1abm77japg","pricing_plan_id":"cebpf4jnsgd1na2vs0mg"},{"bike_id":"29db8d11-ad80-41da-a3bf-68415ae60404","system_id":"levelo_inurba_marseille","lat":43.21193,"lon":5.35075,"is_reserved":false,"is_disabled":true,"rental_uris":{"android":"levelo://app?vid=29db8d11-ad80-41da-a3bf-68415ae60404","ios":"levelo://app?vid=29db8d11-ad80-41da-a3bf-68415ae60404"},"vehicle_type_id":"4","last_reported":1755965424,"current_range_meters":0,"station_id":"st_cvj6sg6p6f1abm77japg","pricing_plan_id":"cebpf4jnsgd1na2vs0mg"},{"bike_id":"7dba1bb1-47f4-49b4-b385-31348e0a1d59","system_id":"levelo_inurba_marseille","lat":43.26441,"lon":5.37369,"is_reserved":false,"is_disabled":true,"rental_uris":{"android":"levelo://app?vid=7dba1bb1-47f4-49b4-b385-31348e0a1d59","ios":"levelo://app?vid=7dba1bb1-47f4-49b4-b385-31348e0a1d59"},"vehicle_type_id":"4","last_reported":1755965424,"current_range_meters":400,"station_id":"","pricing_plan_id":"cebpf4jnsgd1na2vs0mg"},{"bike_id":"41b95262-f2f4-47a0-9f0a-fe93c771dafa","system_id":"levelo_inurba_marseille","lat":43.32984,"lon":5.4559,"is_reserved":false,"is_disabled":true,"rental_uris":{"android":"levelo://app?vid=41b95262-f2f4-47a0-9f0a-fe93c771dafa","ios":"levelo://app?vid=41b95262-f2f4-47a0-9f0a-fe93c771dafa"},"vehicle_type_id":"4","last_reported":1755965424,"current_range_meters":400,"station_id":"","pricing_plan_id":"cebpf4jnsgd1na2vs0mg"},{"bike_id":"e1f8c9ae-10bc-4797-ae02-7c2d59c8b630","system_id":"levelo_inurba_marseille","lat":43.29259,"lon":5.40902,"is_reserved":false,"is_disabled":true,"rental_uris":{"android":"levelo://app?vid=e1f8c9ae-10bc-4797-ae02-7c2d59c8b630","ios":"levelo://app?vid=e1f8c9ae-10bc-4797-ae02-7c2d59c8b630"},"vehicle_type_id":"4","last_reported":1755965424,"current_range_meters":400,"station_id":"ce4bh192rcd13ifvqdc0","pricing_plan_id":"cebpf4jnsgd1na2vs0mg"},{"bike_id":"07504063-05f7-435a-97f8-89b58f84acb2","system_id":"levelo_inurba_marseille","lat":43.29032,"lon":5.37556,"is_reserved":false,"is_disabled":true,"rental_uris":{"android":"levelo://app?vid=07504063-05f7-435a-97f8-89b58f84acb2","ios":"levelo://app?vid=07504063-05f7-435a-97f8-89b58f84acb2"},"vehicle_type_id":"4","last_reported":1755965424,"current_range_meters":400,"station_id":"ce4bh692rcd13ifvqe90","pricing_plan_id":"cebpf4jnsgd1na2vs0mg"},{"bike_id":"eddf394e-e3bf-40a6-b111-06aff221bffe","system_id":"levelo_inurba_marseille","lat":43.21783,"lon":5.345972,"is_reserved":false,"is_disabled":true,"rental_uris":{"android":"levelo://app?vid=eddf394e-e3bf-40a6-b111-06aff221bffe","ios":"levelo://app?vid=eddf394e-e3bf-40a6-b111-06aff221bffe"},"vehicle_type_id":"4","last_reported":1755965424,"current_range_meters":800,"station_id":"","pricing_plan_id":"cebpf4jnsgd1na2vs0mg"},{"bike_id":"cd86e9cb-8650-4a79-a1db-2db1beab49c8","system_id":"levelo_inurba_marseille","lat":43.2885,"lon":5.3932,"is_reserved":false,"is_disabled":true,"rental_uris":{"android":"levelo://app?vid=cd86e9cb-8650-4a79-a1db-2db1beab49c8","ios":"levelo://app?vid=cd86e9cb-8650-4a79-a1db-2db1beab49c8"},"vehicle_type_id":"4","last_reported":1755965424,"current_range_meters":800,"station_id":"ce4bh2p2rcd13ifvqdi0","pricing_plan_id":"cebpf4jnsgd1na2vs0mg"},{"bike_id":"ed07fd88-18f6-4d3f-b09b-c747e5404e31","system_id":"levelo_inurba_marseille","lat":43.29279,"lon":5.36847,"is_reserved":false,"is_disabled":true,"rental_uris":{"android":"levelo://app?vid=ed07fd88-18f6-4d3f-b09b-c747e5404e31","ios":"levelo://app?vid=ed07fd88-18f6-4d3f-b09b-c747e5404e31"},"vehicle_type_id":"4","last_reported":1755965424,"current_range_meters":800,"station_id":"ce4bhbp2rcd13ifvqesg","pricing_plan_id":"cebpf4jnsgd1na2vs0mg"},{"bike_id":"c1290141-a07c-41eb-be0b-c851ec4e7c39","system_id":"levelo_inurba_marseille","lat":43.265519,"lon":5.372808,"is_reserved":false,"is_disabled":true,"rental_uris":{"android":"levelo://app?vid=c1290141-a07c-41eb-be0b-c851ec4e7c39","ios":"levelo://app?vid=c1290141-a07c-41eb-be0b-c851ec4e7c39"},"vehicle_type_id":"4","last_reported":1755965424,"current_range_meters":800,"station_id":"ce4bhg12rcd13ifvqf70","pricing_plan_id":"cebpf4jnsgd1na2vs0mg"},{"bike_id":"75091fe4-0601-4a4a-802b-c8c7ca0e7420","system_id":"levelo_inurba_marseille","lat":43.243914,"lon":5.370586,"is_reserved":false,"is_disabled":true,"rental_uris":{"android":"levelo://app?vid=75091fe4-0601-4a4a-802b-c8c7ca0e7420","ios":"levelo://app?vid=75091fe4-0601-4a4a-802b-c8c7ca0e7420"},"vehicle_type_id":"4","last_reported":1755965424,"current_range_meters":800,"station_id":"ce4bhhh2rcd13ifvqfk0","pricing_plan_id":"cebpf4jnsgd1na2vs0mg"},{"bike_id":"545dd10f-fc7f-4cb8-a7d9-77d95e06a774","system_id":"levelo_inurba_marseille","lat":43.29807,"lon":5.38077,"is_reserved":false,"is_disabled":true,"rental_uris":{"android":"levelo://app?vid=545dd10f-fc7f-4cb8-a7d9-77d95e06a774","ios":"levelo://app?vid=545dd10f-fc7f-4cb8-a7d9-77d95e06a774"},"vehicle_type_id":"4","last_reported":1755965424,"current_range_meters":1200,"station_id":"ce4bgip2rcd13ifvqbb0","pricing_plan_id":"cebpf4jnsgd1na2vs0mg"},{"bike_id":"f6aa9fa3-a04b-4c6a-a0c2-047b269b2386","system_id":"levelo_inurba_marseille","lat":43.27316,"lon":5.3907,"is_reserved":false,"is_disabled":true,"rental_uris":{"android":"levelo://app?vid=f6aa9fa3-a04b-4c6a-a0c2-047b269b2386","ios":"levelo://app?vid=f6aa9fa3-a04b-4c6a-a0c2-047b269b2386"},"vehicle_type_id":"4","last_reported":1755965424,"current_range_meters":1200,"station_id":"ce4bhgp2rcd13ifvqfe0","pricing_plan_id":"cebpf4jnsgd1na2vs0mg"},{"bike_id":"dc919b6b-6459-4422-bfda-f7e9cf481311","system_id":"levelo_inurba_marseille","lat":43.30765,"lon":5.37141,"is_reserved":false,"is_disabled":true,"rental_uris":{"android":"levelo://app?vid=dc919b6b-6459-4422-bfda-f7e9cf481311","ios":"levelo://app?vid=dc919b6b-6459-4422-bfda-f7e9cf481311"},"vehicle_type_id":"4","last_reported":1755965424,"current_range_meters":1600,"station_id":"","pricing_plan_id":"cebpf4jnsgd1na2vs0mg"},{"bike_id":"be3874e8-11c3-4aee-8527-80ca42c9a8a8","system_id":"levelo_inurba_marseille","lat":43.27371,"lon":5.3626,"is_reserved":false,"is_disabled":true,"rental_uris":{"android":"levelo://app?vid=be3874e8-11c3-4aee-8527-80ca42c9a8a8","ios":"levelo://app?vid=be3874e8-11c3-4aee-8527-80ca42c9a8a8"},"vehicle_type_id":"4","last_reported":1755965424,"current_range_meters":1600,"station_id":"ce4bhbh2rcd13ifvqeo0","pricing_plan_id":"cebpf4jnsgd1na2vs0mg"},{"bike_id":"98989d2d-444f-4980-ba24-a2f68c98a48f","system_id":"levelo_inurba_marseille","lat":43.21744,"lon":5.34595,"is_reserved":false,"is_disabled":true,"rental_uris":{"android":"levelo://app?vid=98989d2d-444f-4980-ba24-a2f68c98a48f","ios":"levelo://app?vid=98989d2d-444f-4980-ba24-a2f68c98a48f"},"vehicle_type_id":"4","last_reported":1755965424,"current_range_meters":1600,"station_id":"st_cvj6r9ubvosntc0bgbag","pricing_plan_id":"cebpf4jnsgd1na2vs0mg"},{"bike_id":"af6feb1b-6a1d-485a-afe8-b03352a6daa3","system_id":"levelo_inurba_marseille","lat":43.29525,"lon":5.37503,"is_reserved":false,"is_disabled":true,"rental_uris":{"android":"levelo://app?vid=af6feb1b-6a1d-485a-afe8-b03352a6daa3","ios":"levelo://app?vid=af6feb1b-6a1d-485a-afe8-b03352a6daa3"},"vehicle_type_id":"4","last_reported":1755965424,"current_range_meters":2000,"station_id":"ce4bgkp2rcd13ifvqbmg","pricing_plan_id":"cebpf4jnsgd1na2vs0mg"},{"bike_id":"92544185-4a86-4b66-9b98-f248ba42628c","system_id":"levelo_inurba_marseille","lat":43.30882,"lon":5.39649,"is_reserved":false,"is_disabled":false,"rental_uris":{"android":"levelo://app?vid=92544185-4a86-4b66-9b98-f248ba42628c","ios":"levelo://app?vid=92544185-4a86-4b66-9b98-f248ba42628c"},"vehicle_type_id":"4","last_reported":1755965424,"current_range_meters":2000,"station_id":"ce4bh012rcd13ifvqcv0","pricing_plan_id":"cebpf4jnsgd1na2vs0mg"},{"bike_id":"e72cb233-3c97-4ace-9dfa-ac1433cf92d2","system_id":"levelo_inurba_marseille","lat":43.28666,"lon":5.38657,"is_reserved":false,"is_disabled":false,"rental_uris":{"android":"levelo://app?vid=e72cb233-3c97-4ace-9dfa-ac1433cf92d2","ios":"levelo://app?vid=e72cb233-3c97-4ace-9dfa-ac1433cf92d2"},"vehicle_type_id":"4","last_reported":1755965424,"current_range_meters":2000,"station_id":"ce4bh492rcd13ifvqdug","pricing_plan_id":"cebpf4jnsgd1na2vs0mg"},{"bike_id":"fb4869b5-e2f1-4bb2-b56a-0a82dba75fbf","system_id":"levelo_inurba_marseille","lat":43.290222,"lon":5.375642,"is_reserved":false,"is_disabled":true,"rental_uris":{"android":"levelo://app?vid=fb4869b5-e2f1-4bb2-b56a-0a82dba75fbf","ios":"levelo://app?vid=fb4869b5-e2f1-4bb2-b56a-0a82dba75fbf"},"vehicle_type_id":"4","last_reported":1755965424,"current_range_meters":2000,"station_id":"ce4bh692rcd13ifvqe90","pricing_plan_id":"cebpf4jnsgd1na2vs0mg"},{"bike_id":"354d2881-6f37-4091-b05c-1340ef39e639","system_id":"levelo_inurba_marseille","lat":43.27381,"lon":5.36252,"is_reserved":false,"is_disabled":true,"rental_uris":{"android":"levelo://app?vid=354d2881-6f37-4091-b05c-1340ef39e639","ios":"levelo://app?vid=354d2881-6f37-4091-b05c-1340ef39e639"},"vehicle_type_id":"4","last_reported":1755965424,"current_range_meters":2000,"station_id":"ce4bhbh2rcd13ifvqeo0","pricing_plan_id":"cebpf4jnsgd1na2vs0mg"},{"bike_id":"b1223d30-7052-4c1e-ba61-7c319cca22cb","system_id":"levelo_inurba_marseille","lat":43.28418,"lon":5.349784,"is_reserved":false,"is_disabled":false,"rental_uris":{"android":"levelo://app?vid=b1223d30-7052-4c1e-ba61-7c319cca22cb","ios":"levelo://app?vid=b1223d30-7052-4c1e-ba61-7c319cca22cb"},"vehicle_type_id":"4","last_reported":1755965424,"current_range_meters":2000,"station_id":"ce4bhbh2rcd13ifvqepg","pricing_plan_id":"cebpf4jnsgd1na2vs0mg"},{"bike_id":"b57d3cda-05d0-41cf-804f-88b8a2c49c47","system_id":"levelo_inurba_marseille","lat":43.26209,"lon":5.3744,"is_reserved":false,"is_disabled":true,"rental_uris":{"android":"levelo://app?vid=b57d3cda-05d0-41cf-804f-88b8a2c49c47","ios":"levelo://app?vid=b57d3cda-05d0-41cf-804f-88b8a2c49c47"},"vehicle_type_id":"4","last_reported":1755965424,"current_range_meters":2000,"station_id":"ce4bhgp2rcd13ifvqfc0","pricing_plan_id":"cebpf4jnsgd1na2vs0mg"},{"bike_id":"743abe84-c859-45f5-a2fa-1676cc8967fb","system_id":"levelo_inurba_marseille","lat":43.26063,"lon":5.39393,"is_reserved":false,"is_disabled":true,"rental_uris":{"android":"levelo://app?vid=743abe84-c859-45f5-a2fa-1676cc8967fb","ios":"levelo://app?vid=743abe84-c859-45f5-a2fa-1676cc8967fb"},"vehicle_type_id":"4","last_reported":1755965424,"current_range_meters":2000,"station_id":"ce4bhh92rcd13ifvqfj0","pricing_plan_id":"cebpf4jnsgd1na2vs0mg"},{"bike_id":"de9dff04-3c21-4efa-a455-1dc21ff66605","system_id":"levelo_inurba_marseille","lat":43.21756,"lon":5.34589,"is_reserved":false,"is_disabled":true,"rental_uris":{"android":"levelo://app?vid=de9dff04-3c21-4efa-a455-1dc21ff66605","ios":"levelo://app?vid=de9dff04-3c21-4efa-a455-1dc21ff66605"},"vehicle_type_id":"4","last_reported":1755965424,"current_range_meters":2000,"station_id":"st_cvj6r9ubvosntc0bgbag","pricing_plan_id":"cebpf4jnsgd1na2vs0mg"},{"bike_id":"920c82d0-5212-4888-ac79-25910448e1bd","system_id":"levelo_inurba_marseille","lat":43.21192,"lon":5.35069,"is_reserved":false,"is_disabled":true,"rental_uris":{"android":"levelo://app?vid=920c82d0-5212-4888-ac79-25910448e1bd","ios":"levelo://app?vid=920c82d0-5212-4888-ac79-25910448e1bd"},"vehicle_type_id":"4","last_reported":1755965424,"current_range_meters":2000,"station_id":"st_cvj6sg6p6f1abm77japg","pricing_plan_id":"cebpf4jnsgd1na2vs0mg"},{"bike_id":"49d92d9b-686e-4377-9a91-7d878b654b8c","system_id":"levelo_inurba_marseille","lat":43.21189,"lon":5.35078,"is_reserved":false,"is_disabled":true,"rental_uris":{"android":"levelo://app?vid=49d92d9b-686e-4377-9a91-7d878b654b8c","ios":"levelo://app?vid=49d92d9b-686e-4377-9a91-7d878b654b8c"},"vehicle_type_id":"4","last_reported":1755965424,"current_range_meters":2000,"station_id":"st_cvj6sg6p6f1abm77japg","pricing_plan_id":"cebpf4jnsgd1na2vs0mg"},{"bike_id":"4e1eea7f-e138-48e2-be27-b499614b7664","system_id":"levelo_inurba_marseille","lat":43.337604,"lon":5.374468,"is_reserved":false,"is_disabled":false,"rental_uris":{"android":"levelo://app?vid=4e1eea7f-e138-48e2-be27-b499614b7664","ios":"levelo://app?vid=4e1eea7f-e138-48e2-be27-b499614b7664"},"vehicle_type_id":"4","last_reported":1755965424,"current_range_meters":2800,"station_id":"","pricing_plan_id":"cebpf4jnsgd1na2vs0mg"},{"bike_id":"29b7780d-7c1f-4fa6-a50a-f4863d3165e3","system_id":"levelo_inurba_marseille","lat":43.29614,"lon":5.36044,"is_reserved":false,"is_disabled":false,"rental_uris":{"android":"levelo://app?vid=29b7780d-7c1f-4fa6-a50a-f4863d3165e3","ios":"levelo://app?vid=29b7780d-7c1f-4fa6-a50a-f4863d3165e3"},"vehicle_type_id":"4","last_reported":1755965424,"current_range_meters":3200,"station_id":"","pricing_plan_id":"cebpf4jnsgd1na2vs0mg"},{"bike_id":"7ce6f99d-82be-45c8-9929-b67c1d09b07b","system_id":"levelo_inurba_marseille","lat":43.28032,"lon":5.36955,"is_reserved":false,"is_disabled":false,"rental_uris":{"android":"levelo://app?vid=7ce6f99d-82be-45c8-9929-b67c1d09b07b","ios":"levelo://app?vid=7ce6f99d-82be-45c8-9929-b67c1d09b07b"},"vehicle_type_id":"4","last_reported":1755965424,"current_range_meters":3200,"station_id":"ce4bha12rcd13ifvqef0","pricing_plan_id":"cebpf4jnsgd1na2vs0mg"},{"bike_id":"f2cb1b21-aea6-4f1d-ac44-3f69fcc59f43","system_id":"levelo_inurba_marseille","lat":43.243866,"lon":5.370602,"is_reserved":false,"is_disabled":false,"rental_uris":{"android":"levelo://app?vid=f2cb1b21-aea6-4f1d-ac44-3f69fcc59f43","ios":"levelo://app?vid=f2cb1b21-aea6-4f1d-ac44-3f69fcc59f43"},"vehicle_type_id":"4","last_reported":1755965424,"current_range_meters":3200,"station_id":"ce4bhhh2rcd13ifvqfk0","pricing_plan_id":"cebpf4jnsgd1na2vs0mg"},{"bike_id":"ab26ff15-16c8-478d-b27f-4037efcc6489","system_id":"levelo_inurba_marseille","lat":43.21746,"lon":5.3459,"is_reserved":false,"is_disabled":false,"rental_uris":{"android":"levelo://app?vid=ab26ff15-16c8-478d-b27f-4037efcc6489","ios":"levelo://app?vid=ab26ff15-16c8-478d-b27f-4037efcc6489"},"vehicle_type_id":"4","last_reported":1755965424,"current_range_meters":3200,"station_id":"st_cvj6r9ubvosntc0bgbag","pricing_plan_id":"cebpf4jnsgd1na2vs0mg"},{"bike_id":"d1e7d0ad-a575-490a-baf2-1a268e649d94","system_id":"levelo_inurba_marseille","lat":43.337444,"lon":5.374475,"is_reserved":false,"is_disabled":false,"rental_uris":{"android":"levelo://app?vid=d1e7d0ad-a575-490a-baf2-1a268e649d94","ios":"levelo://app?vid=d1e7d0ad-a575-490a-baf2-1a268e649d94"},"vehicle_type_id":"4","last_reported":1755965424,"current_range_meters":3600,"station_id":"","pricing_plan_id":"cebpf4jnsgd1na2vs0mg"},{"bike_id":"58acf0c5-fcf1-45f2-81dd-176af86bd943","system_id":"levelo_inurba_marseille","lat":43.29224,"lon":5.36055,"is_reserved":false,"is_disabled":false,"rental_uris":{"android":"levelo://app?vid=58acf0c5-fcf1-45f2-81dd-176af86bd943","ios":"levelo://app?vid=58acf0c5-fcf1-45f2-81dd-176af86bd943"},"vehicle_type_id":"4","last_reported":1755965424,"current_range_meters":4000,"station_id":"ce4bhbh2rcd13ifvqeqg","pricing_plan_id":"cebpf4jnsgd1na2vs0mg"},{"bike_id":"97d131ee-8ace-43d1-9229-9fb78197ad8e","system_id":"levelo_inurba_marseille","lat":43.21757,"lon":5.34585,"is_reserved":false,"is_disabled":false,"rental_uris":{"android":"levelo://app?vid=97d131ee-8ace-43d1-9229-9fb78197ad8e","ios":"levelo://app?vid=97d131ee-8ace-43d1-9229-9fb78197ad8e"},"vehicle_type_id":"4","last_reported":1755965424,"current_range_meters":4000,"station_id":"st_cvj6r9ubvosntc0bgbag","pricing_plan_id":"cebpf4jnsgd1na2vs0mg"},{"bike_id":"9093aae7-ae08-4d46-a6b1-add3fc9b403a","system_id":"levelo_inurba_marseille","lat":43.30209,"lon":5.39461,"is_reserved":false,"is_disabled":false,"rental_uris":{"android":"levelo://app?vid=9093aae7-ae08-4d46-a6b1-add3fc9b403a","ios":"levelo://app?vid=9093aae7-ae08-4d46-a6b1-add3fc9b403a"},"vehicle_type_id":"4","last_reported":1755965424,"current_range_meters":4400,"station_id":"ce4bh0p2rcd13ifvqd70","pricing_plan_id":"cebpf4jnsgd1na2vs0mg"},{"bike_id":"cf94bd9f-8932-4192-af38-3aedb16e714e","system_id":"levelo_inurba_marseille","lat":43.26563,"lon":5.40296,"is_reserved":false,"is_disabled":false,"rental_uris":{"android":"levelo://app?vid=cf94bd9f-8932-4192-af38-3aedb16e714e","ios":"levelo://app?vid=cf94bd9f-8932-4192-af38-3aedb16e714e"},"vehicle_type_id":"4","last_reported":1755965424,"current_range_meters":4400,"station_id":"ce4bhmp2rcd13ifvqgng","pricing_plan_id":"cebpf4jnsgd1na2vs0mg"},{"bike_id":"0c34a80e-84a0-47cb-a6af-b9fb05fb780b","system_id":"levelo_inurba_marseille","lat":43.26063,"lon":5.39394,"is_reserved":false,"is_disabled":false,"rental_uris":{"android":"levelo://app?vid=0c34a80e-84a0-47cb-a6af-b9fb05fb780b","ios":"levelo://app?vid=0c34a80e-84a0-47cb-a6af-b9fb05fb780b"},"vehicle_type_id":"4","last_reported":1755965424,"current_range_meters":4800,"station_id":"ce4bhh92rcd13ifvqfj0","pricing_plan_id":"cebpf4jnsgd1na2vs0mg"},{"bike_id":"0c8e17e4-8d7c-497a-a245-81ca801d2e85","system_id":"levelo_inurba_marseille","lat":43.30423,"lon":5.39748,"is_reserved":false,"is_disabled":false,"rental_uris":{"android":"levelo://app?vid=0c8e17e4-8d7c-497a-a245-81ca801d2e85","ios":"levelo://app?vid=0c8e17e4-8d7c-497a-a245-81ca801d2e85"},"vehicle_type_id":"4","last_reported":1755965424,"current_range_meters":5600,"station_id":"ce4bh092rcd13ifvqd20","pricing_plan_id":"cebpf4jnsgd1na2vs0mg"},{"bike_id":"44513f65-3632-4d60-9149-f7e00c6745eb","system_id":"levelo_inurba_marseille","lat":43.281,"lon":5.37825,"is_reserved":false,"is_disabled":false,"rental_uris":{"android":"levelo://app?vid=44513f65-3632-4d60-9149-f7e00c6745eb","ios":"levelo://app?vid=44513f65-3632-4d60-9149-f7e00c6745eb"},"vehicle_type_id":"4","last_reported":1755965424,"current_range_meters":5600,"station_id":"ce4bha12rcd13ifvqee0","pricing_plan_id":"cebpf4jnsgd1na2vs0mg"},{"bike_id":"99dbd122-bad7-404d-a50d-203fb5a4ee9a","system_id":"levelo_inurba_marseille","lat":43.2804,"lon":5.36946,"is_reserved":false,"is_disabled":false,"rental_uris":{"android":"levelo://app?vid=99dbd122-bad7-404d-a50d-203fb5a4ee9a","ios":"levelo://app?vid=99dbd122-bad7-404d-a50d-203fb5a4ee9a"},"vehicle_type_id":"4","last_reported":1755965424,"current_range_meters":5600,"station_id":"ce4bha12rcd13ifvqef0","pricing_plan_id":"cebpf4jnsgd1na2vs0mg"},{"bike_id":"db402200-c6bb-442f-8b71-d48f584c9333","system_id":"levelo_inurba_marseille","lat":43.3237,"lon":5.38886,"is_reserved":false,"is_disabled":false,"rental_uris":{"android":"levelo://app?vid=db402200-c6bb-442f-8b71-d48f584c9333","ios":"levelo://app?vid=db402200-c6bb-442f-8b71-d48f584c9333"},"vehicle_type_id":"4","last_reported":1755965424,"current_range_meters":5600,"station_id":"ce4bhqp2rcd13ifvqhog","pricing_plan_id":"cebpf4jnsgd1na2vs0mg"},{"bike_id":"7f05b12c-6939-44ea-bc2f-5768b05b2221","system_id":"levelo_inurba_marseille","lat":43.276164,"lon":5.361066,"is_reserved":false,"is_disabled":false,"rental_uris":{"android":"levelo://app?vid=7f05b12c-6939-44ea-bc2f-5768b05b2221","ios":"levelo://app?vid=7f05b12c-6939-44ea-bc2f-5768b05b2221"},"vehicle_type_id":"4","last_reported":1755965424,"current_range_meters":6000,"station_id":"ce4bgj92rcd13ifvqbe0","pricing_plan_id":"cebpf4jnsgd1na2vs0mg"},{"bike_id":"51b6a370-a03a-4f21-8ca4-e4906946fb2e","system_id":"levelo_inurba_marseille","lat":43.28666,"lon":5.38659,"is_reserved":false,"is_disabled":false,"rental_uris":{"android":"levelo://app?vid=51b6a370-a03a-4f21-8ca4-e4906946fb2e","ios":"levelo://app?vid=51b6a370-a03a-4f21-8ca4-e4906946fb2e"},"vehicle_type_id":"4","last_reported":1755965424,"current_range_meters":6000,"station_id":"ce4bh492rcd13ifvqdug","pricing_plan_id":"cebpf4jnsgd1na2vs0mg"},{"bike_id":"7055ab71-3bb7-462f-bcad-b142b40bcd8a","system_id":"levelo_inurba_marseille","lat":43.2621,"lon":5.37441,"is_reserved":false,"is_disabled":false,"rental_uris":{"android":"levelo://app?vid=7055ab71-3bb7-462f-bcad-b142b40bcd8a","ios":"levelo://app?vid=7055ab71-3bb7-462f-bcad-b142b40bcd8a"},"vehicle_type_id":"4","last_reported":1755965424,"current_range_meters":6000,"station_id":"ce4bhgp2rcd13ifvqfc0","pricing_plan_id":"cebpf4jnsgd1na2vs0mg"},{"bike_id":"1e8e5f5f-f401-4248-b2ed-f945020c51ff","system_id":"levelo_inurba_marseille","lat":43.297527,"lon":5.377637,"is_reserved":false,"is_disabled":false,"rental_uris":{"android":"levelo://app?vid=1e8e5f5f-f401-4248-b2ed-f945020c51ff","ios":"levelo://app?vid=1e8e5f5f-f401-4248-b2ed-f945020c51ff"},"vehicle_type_id":"4","last_reported":1755965424,"current_range_meters":6400,"station_id":"","pricing_plan_id":"cebpf4jnsgd1na2vs0mg"},{"bike_id":"a247ab1e-ff79-4fe9-86cd-abfa72009859","system_id":"levelo_inurba_marseille","lat":43.32909,"lon":5.36711,"is_reserved":false,"is_disabled":false,"rental_uris":{"android":"levelo://app?vid=a247ab1e-ff79-4fe9-86cd-abfa72009859","ios":"levelo://app?vid=a247ab1e-ff79-4fe9-86cd-abfa72009859"},"vehicle_type_id":"4","last_reported":1755965424,"current_range_meters":6400,"station_id":"","pricing_plan_id":"cebpf4jnsgd1na2vs0mg"},{"bike_id":"694d973d-6f9f-46b1-b442-2ff5cc8be72d","system_id":"levelo_inurba_marseille","lat":43.3137,"lon":5.36717,"is_reserved":false,"is_disabled":false,"rental_uris":{"android":"levelo://app?vid=694d973d-6f9f-46b1-b442-2ff5cc8be72d","ios":"levelo://app?vid=694d973d-6f9f-46b1-b442-2ff5cc8be72d"},"vehicle_type_id":"4","last_reported":1755965424,"current_range_meters":6400,"station_id":"ce4bgr92rcd13ifvqc6g","pricing_plan_id":"cebpf4jnsgd1na2vs0mg"},{"bike_id":"a4c43fb6-63af-4b28-9d01-bc1cd84020c1","system_id":"levelo_inurba_marseille","lat":43.30586,"lon":5.39355,"is_reserved":false,"is_disabled":false,"rental_uris":{"android":"levelo://app?vid=a4c43fb6-63af-4b28-9d01-bc1cd84020c1","ios":"levelo://app?vid=a4c43fb6-63af-4b28-9d01-bc1cd84020c1"},"vehicle_type_id":"4","last_reported":1755965424,"current_range_meters":6400,"station_id":"ce4bh0p2rcd13ifvqd80","pricing_plan_id":"cebpf4jnsgd1na2vs0mg"},{"bike_id":"882bf430-be7e-479f-ac1c-42dc0d750af1","system_id":"levelo_inurba_marseille","lat":43.21741,"lon":5.34607,"is_reserved":false,"is_disabled":false,"rental_uris":{"android":"levelo://app?vid=882bf430-be7e-479f-ac1c-42dc0d750af1","ios":"levelo://app?vid=882bf430-be7e-479f-ac1c-42dc0d750af1"},"vehicle_type_id":"4","last_reported":1755965424,"current_range_meters":6400,"station_id":"st_cvj6r9ubvosntc0bgbag","pricing_plan_id":"cebpf4jnsgd1na2vs0mg"},{"bike_id":"0d3881a4-2483-4ac5-a67f-28f9b26e00ce","system_id":"levelo_inurba_marseille","lat":43.28317,"lon":5.410828,"is_reserved":false,"is_disabled":false,"rental_uris":{"android":"levelo://app?vid=0d3881a4-2483-4ac5-a67f-28f9b26e00ce","ios":"levelo://app?vid=0d3881a4-2483-4ac5-a67f-28f9b26e00ce"},"vehicle_type_id":"4","last_reported":1755965424,"current_range_meters":6800,"station_id":"","pricing_plan_id":"cebpf4jnsgd1na2vs0mg"},{"bike_id":"7d40d1be-b4dc-4946-9c8e-8475b9d7510f","system_id":"levelo_inurba_marseille","lat":43.30888,"lon":5.37186,"is_reserved":false,"is_disabled":false,"rental_uris":{"android":"levelo://app?vid=7d40d1be-b4dc-4946-9c8e-8475b9d7510f","ios":"levelo://app?vid=7d40d1be-b4dc-4946-9c8e-8475b9d7510f"},"vehicle_type_id":"4","last_reported":1755965424,"current_range_meters":6800,"station_id":"ce4bguh2rcd13ifvqckg","pricing_plan_id":"cebpf4jnsgd1na2vs0mg"},{"bike_id":"c144ae29-f604-441b-9719-e04ed9ba0175","system_id":"levelo_inurba_marseille","lat":43.29036,"lon":5.39962,"is_reserved":false,"is_disabled":false,"rental_uris":{"android":"levelo://app?vid=c144ae29-f604-441b-9719-e04ed9ba0175","ios":"levelo://app?vid=c144ae29-f604-441b-9719-e04ed9ba0175"},"vehicle_type_id":"4","last_reported":1755965424,"current_range_meters":6800,"station_id":"ce4bh392rcd13ifvqdm0","pricing_plan_id":"cebpf4jnsgd1na2vs0mg"},{"bike_id":"f9e2d914-23a4-4281-b711-7a74a66d409e","system_id":"levelo_inurba_marseille","lat":43.23194,"lon":5.35542,"is_reserved":false,"is_disabled":false,"rental_uris":{"android":"levelo://app?vid=f9e2d914-23a4-4281-b711-7a74a66d409e","ios":"levelo://app?vid=f9e2d914-23a4-4281-b711-7a74a66d409e"},"vehicle_type_id":"4","last_reported":1755965424,"current_range_meters":6800,"station_id":"ce4bhu92rcd13ifvqi70","pricing_plan_id":"cebpf4jnsgd1na2vs0mg"},{"bike_id":"9ed4f78b-c3ad-4016-a761-cd1e0b7cce41","system_id":"levelo_inurba_marseille","lat":43.21754,"lon":5.34611,"is_reserved":false,"is_disabled":false,"rental_uris":{"android":"levelo://app?vid=9ed4f78b-c3ad-4016-a761-cd1e0b7cce41","ios":"levelo://app?vid=9ed4f78b-c3ad-4016-a761-cd1e0b7cce41"},"vehicle_type_id":"4","last_reported":1755965424,"current_range_meters":6800,"station_id":"st_cvj6r9ubvosntc0bgbag","pricing_plan_id":"cebpf4jnsgd1na2vs0mg"},{"bike_id":"24c7c546-42c0-4109-a127-f2373265e64f","system_id":"levelo_inurba_marseille","lat":43.26058,"lon":5.39395,"is_reserved":false,"is_disabled":false,"rental_uris":{"android":"levelo://app?vid=24c7c546-42c0-4109-a127-f2373265e64f","ios":"levelo://app?vid=24c7c546-42c0-4109-a127-f2373265e64f"},"vehicle_type_id":"4","last_reported":1755965424,"current_range_meters":7200,"station_id":"ce4bhh92rcd13ifvqfj0","pricing_plan_id":"cebpf4jnsgd1na2vs0mg"},{"bike_id":"584ebc6f-b330-496e-9ac1-3c62bd6a6b02","system_id":"levelo_inurba_marseille","lat":43.21197,"lon":5.35058,"is_reserved":false,"is_disabled":false,"rental_uris":{"android":"levelo://app?vid=584ebc6f-b330-496e-9ac1-3c62bd6a6b02","ios":"levelo://app?vid=584ebc6f-b330-496e-9ac1-3c62bd6a6b02"},"vehicle_type_id":"4","last_reported":1755965424,"current_range_meters":7200,"station_id":"st_cvj6sg6p6f1abm77japg","pricing_plan_id":"cebpf4jnsgd1na2vs0mg"},{"bike_id":"882a270d-4233-45f2-8edc-849af4091290","system_id":"levelo_inurba_marseille","lat":43.31516,"lon":5.44267,"is_reserved":false,"is_disabled":false,"rental_uris":{"android":"levelo://app?vid=882a270d-4233-45f2-8edc-849af4091290","ios":"levelo://app?vid=882a270d-4233-45f2-8edc-849af4091290"},"vehicle_type_id":"4","last_reported":1755965424,"current_range_meters":8000,"station_id":"","pricing_plan_id":"cebpf4jnsgd1na2vs0mg"},{"bike_id":"4a855e14-584e-4249-b8a5-b0f11a84e9d8","system_id":"levelo_inurba_marseille","lat":43.29189,"lon":5.35807,"is_reserved":false,"is_disabled":false,"rental_uris":{"android":"levelo://app?vid=4a855e14-584e-4249-b8a5-b0f11a84e9d8","ios":"levelo://app?vid=4a855e14-584e-4249-b8a5-b0f11a84e9d8"},"vehicle_type_id":"4","last_reported":1755965424,"current_range_meters":8000,"station_id":"ce4bhb12rcd13ifvqel0","pricing_plan_id":"cebpf4jnsgd1na2vs0mg"},{"bike_id":"403abd55-8525-4e5d-9d93-f8b71861c08e","system_id":"levelo_inurba_marseille","lat":43.21186,"lon":5.3507,"is_reserved":false,"is_disabled":false,"rental_uris":{"android":"levelo://app?vid=403abd55-8525-4e5d-9d93-f8b71861c08e","ios":"levelo://app?vid=403abd55-8525-4e5d-9d93-f8b71861c08e"},"vehicle_type_id":"4","last_reported":1755965424,"current_range_meters":8000,"station_id":"st_cvj6sg6p6f1abm77japg","pricing_plan_id":"cebpf4jnsgd1na2vs0mg"},{"bike_id":"8a194c3e-f9d8-49fd-b5f9-66ea0ccb8bbc","system_id":"levelo_inurba_marseille","lat":43.29647,"lon":5.36932,"is_reserved":false,"is_disabled":false,"rental_uris":{"android":"levelo://app?vid=8a194c3e-f9d8-49fd-b5f9-66ea0ccb8bbc","ios":"levelo://app?vid=8a194c3e-f9d8-49fd-b5f9-66ea0ccb8bbc"},"vehicle_type_id":"4","last_reported":1755965424,"current_range_meters":8400,"station_id":"","pricing_plan_id":"cebpf4jnsgd1na2vs0mg"},{"bike_id":"fa35964c-2a97-4029-8d6c-969ea307e5c5","system_id":"levelo_inurba_marseille","lat":43.30591,"lon":5.39354,"is_reserved":false,"is_disabled":false,"rental_uris":{"android":"levelo://app?vid=fa35964c-2a97-4029-8d6c-969ea307e5c5","ios":"levelo://app?vid=fa35964c-2a97-4029-8d6c-969ea307e5c5"},"vehicle_type_id":"4","last_reported":1755965424,"current_range_meters":8400,"station_id":"ce4bh0p2rcd13ifvqd80","pricing_plan_id":"cebpf4jnsgd1na2vs0mg"},{"bike_id":"2a9471ab-47c6-4704-b5fe-5270c559901e","system_id":"levelo_inurba_marseille","lat":43.26018,"lon":5.37549,"is_reserved":false,"is_disabled":false,"rental_uris":{"android":"levelo://app?vid=2a9471ab-47c6-4704-b5fe-5270c559901e","ios":"levelo://app?vid=2a9471ab-47c6-4704-b5fe-5270c559901e"},"vehicle_type_id":"4","last_reported":1755965424,"current_range_meters":8400,"station_id":"ce4bhgh2rcd13ifvqfa0","pricing_plan_id":"cebpf4jnsgd1na2vs0mg"},{"bike_id":"d038b7d7-4ed7-440f-9c5d-cdf6e935c147","system_id":"levelo_inurba_marseille","lat":43.295288,"lon":5.392839,"is_reserved":false,"is_disabled":false,"rental_uris":{"android":"levelo://app?vid=d038b7d7-4ed7-440f-9c5d-cdf6e935c147","ios":"levelo://app?vid=d038b7d7-4ed7-440f-9c5d-cdf6e935c147"},"vehicle_type_id":"4","last_reported":1755965424,"current_range_meters":8800,"station_id":"","pricing_plan_id":"cebpf4jnsgd1na2vs0mg"},{"bike_id":"cab40e02-d63a-477d-89a5-6520ccf01968","system_id":"levelo_inurba_marseille","lat":43.283142,"lon":5.381162,"is_reserved":false,"is_disabled":false,"rental_uris":{"android":"levelo://app?vid=cab40e02-d63a-477d-89a5-6520ccf01968","ios":"levelo://app?vid=cab40e02-d63a-477d-89a5-6520ccf01968"},"vehicle_type_id":"4","last_reported":1755965424,"current_range_meters":8800,"station_id":"","pricing_plan_id":"cebpf4jnsgd1na2vs0mg"},{"bike_id":"34a45756-68c6-4093-8d04-7b53416d645f","system_id":"levelo_inurba_marseille","lat":43.27895,"lon":5.35432,"is_reserved":false,"is_disabled":false,"rental_uris":{"android":"levelo://app?vid=34a45756-68c6-4093-8d04-7b53416d645f","ios":"levelo://app?vid=34a45756-68c6-4093-8d04-7b53416d645f"},"vehicle_type_id":"4","last_reported":1755965424,"current_range_meters":8800,"station_id":"","pricing_plan_id":"cebpf4jnsgd1na2vs0mg"},{"bike_id":"82d915ad-92fc-490c-af07-2dad6e4c033f","system_id":"levelo_inurba_marseille","lat":43.30147,"lon":5.38078,"is_reserved":false,"is_disabled":false,"rental_uris":{"android":"levelo://app?vid=82d915ad-92fc-490c-af07-2dad6e4c033f","ios":"levelo://app?vid=82d915ad-92fc-490c-af07-2dad6e4c033f"},"vehicle_type_id":"4","last_reported":1755965424,"current_range_meters":8800,"station_id":"ce4bgjp2rcd13ifvqbh0","pricing_plan_id":"cebpf4jnsgd1na2vs0mg"},{"bike_id":"79e16dbb-6e94-4615-a845-f6192547309f","system_id":"levelo_inurba_marseille","lat":43.26681,"lon":5.38268,"is_reserved":false,"is_disabled":false,"rental_uris":{"android":"levelo://app?vid=79e16dbb-6e94-4615-a845-f6192547309f","ios":"levelo://app?vid=79e16dbb-6e94-4615-a845-f6192547309f"},"vehicle_type_id":"4","last_reported":1755965424,"current_range_meters":8800,"station_id":"ce4bhg92rcd13ifvqf90","pricing_plan_id":"cebpf4jnsgd1na2vs0mg"},{"bike_id":"a1207962-3a70-4994-9e8a-244f32f1505f","system_id":"levelo_inurba_marseille","lat":43.304167,"lon":5.412873,"is_reserved":false,"is_disabled":false,"rental_uris":{"android":"levelo://app?vid=a1207962-3a70-4994-9e8a-244f32f1505f","ios":"levelo://app?vid=a1207962-3a70-4994-9e8a-244f32f1505f"},"vehicle_type_id":"4","last_reported":1755965424,"current_range_meters":8800,"station_id":"ce4bhop2rcd13ifvqh8g","pricing_plan_id":"cebpf4jnsgd1na2vs0mg"},{"bike_id":"adc98a96-0dfc-4ed3-85d0-f2425ce9bee5","system_id":"levelo_inurba_marseille","lat":43.21187,"lon":5.35065,"is_reserved":false,"is_disabled":false,"rental_uris":{"android":"levelo://app?vid=adc98a96-0dfc-4ed3-85d0-f2425ce9bee5","ios":"levelo://app?vid=adc98a96-0dfc-4ed3-85d0-f2425ce9bee5"},"vehicle_type_id":"4","last_reported":1755965424,"current_range_meters":8800,"station_id":"st_cvj6sg6p6f1abm77japg","pricing_plan_id":"cebpf4jnsgd1na2vs0mg"},{"bike_id":"3704e542-766e-4fc1-b268-a29f0cae784b","system_id":"levelo_inurba_marseille","lat":43.21193,"lon":5.35069,"is_reserved":false,"is_disabled":false,"rental_uris":{"android":"levelo://app?vid=3704e542-766e-4fc1-b268-a29f0cae784b","ios":"levelo://app?vid=3704e542-766e-4fc1-b268-a29f0cae784b"},"vehicle_type_id":"4","last_reported":1755965424,"current_range_meters":8800,"station_id":"st_cvj6sg6p6f1abm77japg","pricing_plan_id":"cebpf4jnsgd1na2vs0mg"},{"bike_id":"2206abaf-12b6-4764-8324-a4296313aa80","system_id":"levelo_inurba_marseille","lat":43.27851,"lon":5.35441,"is_reserved":false,"is_disabled":false,"rental_uris":{"android":"levelo://app?vid=2206abaf-12b6-4764-8324-a4296313aa80","ios":"levelo://app?vid=2206abaf-12b6-4764-8324-a4296313aa80"},"vehicle_type_id":"4","last_reported":1755965424,"current_range_meters":9200,"station_id":"","pricing_plan_id":"cebpf4jnsgd1na2vs0mg"},{"bike_id":"e62a7331-2467-4613-8201-a834b14688a5","system_id":"levelo_inurba_marseille","lat":43.299711,"lon":5.3848,"is_reserved":false,"is_disabled":false,"rental_uris":{"android":"levelo://app?vid=e62a7331-2467-4613-8201-a834b14688a5","ios":"levelo://app?vid=e62a7331-2467-4613-8201-a834b14688a5"},"vehicle_type_id":"4","last_reported":1755965424,"current_range_meters":9200,"station_id":"ce4bgj92rcd13ifvqbd0","pricing_plan_id":"cebpf4jnsgd1na2vs0mg"},{"bike_id":"bf7c51e8-f0ea-40f0-a2f8-332d2bd851eb","system_id":"levelo_inurba_marseille","lat":43.30878,"lon":5.37197,"is_reserved":false,"is_disabled":false,"rental_uris":{"android":"levelo://app?vid=bf7c51e8-f0ea-40f0-a2f8-332d2bd851eb","ios":"levelo://app?vid=bf7c51e8-f0ea-40f0-a2f8-332d2bd851eb"},"vehicle_type_id":"4","last_reported":1755965424,"current_range_meters":9200,"station_id":"ce4bguh2rcd13ifvqckg","pricing_plan_id":"cebpf4jnsgd1na2vs0mg"},{"bike_id":"d9ac5ff6-9e76-4386-99c4-facf24d79322","system_id":"levelo_inurba_marseille","lat":43.28365,"lon":5.38623,"is_reserved":false,"is_disabled":false,"rental_uris":{"android":"levelo://app?vid=d9ac5ff6-9e76-4386-99c4-facf24d79322","ios":"levelo://app?vid=d9ac5ff6-9e76-4386-99c4-facf24d79322"},"vehicle_type_id":"4","last_reported":1755965424,"current_range_meters":9200,"station_id":"ce4bh492rcd13ifvqdvg","pricing_plan_id":"cebpf4jnsgd1na2vs0mg"},{"bike_id":"d553ede3-f6a4-4d55-84b7-ad122fad245e","system_id":"levelo_inurba_marseille","lat":43.3211,"lon":5.36772,"is_reserved":false,"is_disabled":false,"rental_uris":{"android":"levelo://app?vid=d553ede3-f6a4-4d55-84b7-ad122fad245e","ios":"levelo://app?vid=d553ede3-f6a4-4d55-84b7-ad122fad245e"},"vehicle_type_id":"4","last_reported":1755965424,"current_range_meters":9200,"station_id":"ce4bhrh2rcd13ifvqhug","pricing_plan_id":"cebpf4jnsgd1na2vs0mg"},{"bike_id":"916cd071-de26-4338-aff5-c37b33283959","system_id":"levelo_inurba_marseille","lat":43.29533,"lon":5.37503,"is_reserved":false,"is_disabled":false,"rental_uris":{"android":"levelo://app?vid=916cd071-de26-4338-aff5-c37b33283959","ios":"levelo://app?vid=916cd071-de26-4338-aff5-c37b33283959"},"vehicle_type_id":"4","last_reported":1755965424,"current_range_meters":9600,"station_id":"ce4bgkp2rcd13ifvqbmg","pricing_plan_id":"cebpf4jnsgd1na2vs0mg"},{"bike_id":"19dd485b-81a3-4ff9-aa5f-ccad34384c3c","system_id":"levelo_inurba_marseille","lat":43.29039,"lon":5.35941,"is_reserved":false,"is_disabled":false,"rental_uris":{"android":"levelo://app?vid=19dd485b-81a3-4ff9-aa5f-ccad34384c3c","ios":"levelo://app?vid=19dd485b-81a3-4ff9-aa5f-ccad34384c3c"},"vehicle_type_id":"4","last_reported":1755965424,"current_range_meters":9600,"station_id":"ce4bha92rcd13ifvqeg0","pricing_plan_id":"cebpf4jnsgd1na2vs0mg"},{"bike_id":"c33a5fd7-9139-4838-a89a-b25eb90c6e10","system_id":"levelo_inurba_marseille","lat":43.29167,"lon":5.37152,"is_reserved":false,"is_disabled":false,"rental_uris":{"android":"levelo://app?vid=c33a5fd7-9139-4838-a89a-b25eb90c6e10","ios":"levelo://app?vid=c33a5fd7-9139-4838-a89a-b25eb90c6e10"},"vehicle_type_id":"4","last_reported":1755965424,"current_range_meters":9600,"station_id":"ce4bha92rcd13ifvqeh0","pricing_plan_id":"cebpf4jnsgd1na2vs0mg"},{"bike_id":"360ecbe2-b04a-4f14-8598-3160f0df3971","system_id":"levelo_inurba_marseille","lat":43.27324,"lon":5.39099,"is_reserved":false,"is_disabled":false,"rental_uris":{"android":"levelo://app?vid=360ecbe2-b04a-4f14-8598-3160f0df3971","ios":"levelo://app?vid=360ecbe2-b04a-4f14-8598-3160f0df3971"},"vehicle_type_id":"4","last_reported":1755965424,"current_range_meters":9600,"station_id":"ce4bhgp2rcd13ifvqfe0","pricing_plan_id":"cebpf4jnsgd1na2vs0mg"},{"bike_id":"7a5d0c11-5109-40f0-905b-bf18fcb3f093","system_id":"levelo_inurba_marseille","lat":43.25492,"lon":5.37644,"is_reserved":false,"is_disabled":false,"rental_uris":{"android":"levelo://app?vid=7a5d0c11-5109-40f0-905b-bf18fcb3f093","ios":"levelo://app?vid=7a5d0c11-5109-40f0-905b-bf18fcb3f093"},"vehicle_type_id":"4","last_reported":1755965424,"current_range_meters":9600,"station_id":"ce4bhh12rcd13ifvqff0","pricing_plan_id":"cebpf4jnsgd1na2vs0mg"},{"bike_id":"45cf4ae7-86de-4506-9007-c00e80084613","system_id":"levelo_inurba_marseille","lat":43.22505,"lon":5.34785,"is_reserved":false,"is_disabled":false,"rental_uris":{"android":"levelo://app?vid=45cf4ae7-86de-4506-9007-c00e80084613","ios":"levelo://app?vid=45cf4ae7-86de-4506-9007-c00e80084613"},"vehicle_type_id":"4","last_reported":1755965424,"current_range_meters":9600,"station_id":"st_cvj5dfep6f1abm77gieg","pricing_plan_id":"cebpf4jnsgd1na2vs0mg"},{"bike_id":"061c48db-a88d-4ca9-a47f-b06ea114e954","system_id":"levelo_inurba_marseille","lat":43.21753,"lon":5.34602,"is_reserved":false,"is_disabled":false,"rental_uris":{"android":"levelo://app?vid=061c48db-a88d-4ca9-a47f-b06ea114e954","ios":"levelo://app?vid=061c48db-a88d-4ca9-a47f-b06ea114e954"},"vehicle_type_id":"4","last_reported":1755965424,"current_range_meters":9600,"station_id":"st_cvj6r9ubvosntc0bgbag","pricing_plan_id":"cebpf4jnsgd1na2vs0mg"},{"bike_id":"b31456f0-6d1e-4b23-951c-a33e26f6302d","system_id":"levelo_inurba_marseille","lat":43.21187,"lon":5.35058,"is_reserved":false,"is_disabled":false,"rental_uris":{"android":"levelo://app?vid=b31456f0-6d1e-4b23-951c-a33e26f6302d","ios":"levelo://app?vid=b31456f0-6d1e-4b23-951c-a33e26f6302d"},"vehicle_type_id":"4","last_reported":1755965424,"current_range_meters":9600,"station_id":"st_cvj6sg6p6f1abm77japg","pricing_plan_id":"cebpf4jnsgd1na2vs0mg"},{"bike_id":"1a85ab77-f4fd-4585-b10f-96af07f940df","system_id":"levelo_inurba_marseille","lat":43.305902,"lon":5.393556,"is_reserved":false,"is_disabled":false,"rental_uris":{"android":"levelo://app?vid=1a85ab77-f4fd-4585-b10f-96af07f940df","ios":"levelo://app?vid=1a85ab77-f4fd-4585-b10f-96af07f940df"},"vehicle_type_id":"4","last_reported":1755965424,"current_range_meters":10000,"station_id":"ce4bh0p2rcd13ifvqd80","pricing_plan_id":"cebpf4jnsgd1na2vs0mg"},{"bike_id":"b1d368a9-bd6a-4b73-8f72-984075722c7b","system_id":"levelo_inurba_marseille","lat":43.28938,"lon":5.36638,"is_reserved":false,"is_disabled":false,"rental_uris":{"android":"levelo://app?vid=b1d368a9-bd6a-4b73-8f72-984075722c7b","ios":"levelo://app?vid=b1d368a9-bd6a-4b73-8f72-984075722c7b"},"vehicle_type_id":"4","last_reported":1755965424,"current_range_meters":10000,"station_id":"ce4bhap2rcd13ifvqek0","pricing_plan_id":"cebpf4jnsgd1na2vs0mg"},{"bike_id":"39aa10fa-e1c6-4c84-8598-b977c655566e","system_id":"levelo_inurba_marseille","lat":43.29276,"lon":5.36841,"is_reserved":false,"is_disabled":false,"rental_uris":{"android":"levelo://app?vid=39aa10fa-e1c6-4c84-8598-b977c655566e","ios":"levelo://app?vid=39aa10fa-e1c6-4c84-8598-b977c655566e"},"vehicle_type_id":"4","last_reported":1755965424,"current_range_meters":10000,"station_id":"ce4bhbp2rcd13ifvqesg","pricing_plan_id":"cebpf4jnsgd1na2vs0mg"},{"bike_id":"67dcb4ca-2837-412a-9782-5867187914a6","system_id":"levelo_inurba_marseille","lat":43.29225,"lon":5.36063,"is_reserved":false,"is_disabled":false,"rental_uris":{"android":"levelo://app?vid=67dcb4ca-2837-412a-9782-5867187914a6","ios":"levelo://app?vid=67dcb4ca-2837-412a-9782-5867187914a6"},"vehicle_type_id":"4","last_reported":1755965424,"current_range_meters":10800,"station_id":"ce4bhbh2rcd13ifvqeqg","pricing_plan_id":"cebpf4jnsgd1na2vs0mg"},{"bike_id":"e4a199bf-2b62-45a4-829e-942ba3eb5066","system_id":"levelo_inurba_marseille","lat":43.28612,"lon":5.35099,"is_reserved":false,"is_disabled":false,"rental_uris":{"android":"levelo://app?vid=e4a199bf-2b62-45a4-829e-942ba3eb5066","ios":"levelo://app?vid=e4a199bf-2b62-45a4-829e-942ba3eb5066"},"vehicle_type_id":"4","last_reported":1755965424,"current_range_meters":10800,"station_id":"ce4bhch2rcd13ifvqeug","pricing_plan_id":"cebpf4jnsgd1na2vs0mg"},{"bike_id":"1a001bb1-c614-4024-a27e-cb305ff2835a","system_id":"levelo_inurba_marseille","lat":43.21751,"lon":5.34598,"is_reserved":false,"is_disabled":false,"rental_uris":{"android":"levelo://app?vid=1a001bb1-c614-4024-a27e-cb305ff2835a","ios":"levelo://app?vid=1a001bb1-c614-4024-a27e-cb305ff2835a"},"vehicle_type_id":"4","last_reported":1755965424,"current_range_meters":10800,"station_id":"st_cvj6r9ubvosntc0bgbag","pricing_plan_id":"cebpf4jnsgd1na2vs0mg"},{"bike_id":"d1dcc1de-c187-49f9-a191-de0405838674","system_id":"levelo_inurba_marseille","lat":43.30886,"lon":5.37193,"is_reserved":false,"is_disabled":false,"rental_uris":{"android":"levelo://app?vid=d1dcc1de-c187-49f9-a191-de0405838674","ios":"levelo://app?vid=d1dcc1de-c187-49f9-a191-de0405838674"},"vehicle_type_id":"4","last_reported":1755965424,"current_range_meters":11200,"station_id":"ce4bguh2rcd13ifvqckg","pricing_plan_id":"cebpf4jnsgd1na2vs0mg"},{"bike_id":"d48de16e-a801-4353-bcf1-862211121474","system_id":"levelo_inurba_marseille","lat":43.32123,"lon":5.36772,"is_reserved":false,"is_disabled":false,"rental_uris":{"android":"levelo://app?vid=d48de16e-a801-4353-bcf1-862211121474","ios":"levelo://app?vid=d48de16e-a801-4353-bcf1-862211121474"},"vehicle_type_id":"4","last_reported":1755965424,"current_range_meters":11200,"station_id":"ce4bhrh2rcd13ifvqhug","pricing_plan_id":"cebpf4jnsgd1na2vs0mg"},{"bike_id":"e064d3e8-2d0e-4f89-985d-b1a9edd4805e","system_id":"levelo_inurba_marseille","lat":43.32115,"lon":5.36763,"is_reserved":false,"is_disabled":false,"rental_uris":{"android":"levelo://app?vid=e064d3e8-2d0e-4f89-985d-b1a9edd4805e","ios":"levelo://app?vid=e064d3e8-2d0e-4f89-985d-b1a9edd4805e"},"vehicle_type_id":"4","last_reported":1755965424,"current_range_meters":11200,"station_id":"ce4bhrh2rcd13ifvqhug","pricing_plan_id":"cebpf4jnsgd1na2vs0mg"},{"bike_id":"5e0c96b3-f51f-4d8b-a15e-22adefff4778","system_id":"levelo_inurba_marseille","lat":43.23196,"lon":5.35527,"is_reserved":false,"is_disabled":false,"rental_uris":{"android":"levelo://app?vid=5e0c96b3-f51f-4d8b-a15e-22adefff4778","ios":"levelo://app?vid=5e0c96b3-f51f-4d8b-a15e-22adefff4778"},"vehicle_type_id":"4","last_reported":1755965424,"current_range_meters":11200,"station_id":"ce4bhu92rcd13ifvqi70","pricing_plan_id":"cebpf4jnsgd1na2vs0mg"},{"bike_id":"6af0469f-3db8-4c7b-bdc1-01a993d43916","system_id":"levelo_inurba_marseille","lat":43.22921,"lon":5.35379,"is_reserved":false,"is_disabled":false,"rental_uris":{"android":"levelo://app?vid=6af0469f-3db8-4c7b-bdc1-01a993d43916","ios":"levelo://app?vid=6af0469f-3db8-4c7b-bdc1-01a993d43916"},"vehicle_type_id":"4","last_reported":1755965424,"current_range_meters":11200,"station_id":"cpo3532slgdg3j2ikp40","pricing_plan_id":"cebpf4jnsgd1na2vs0mg"},{"bike_id":"d8a3298a-e19f-40ef-9fbe-6d3f283e8a11","system_id":"levelo_inurba_marseille","lat":43.21747,"lon":5.34599,"is_reserved":false,"is_disabled":false,"rental_uris":{"android":"levelo://app?vid=d8a3298a-e19f-40ef-9fbe-6d3f283e8a11","ios":"levelo://app?vid=d8a3298a-e19f-40ef-9fbe-6d3f283e8a11"},"vehicle_type_id":"4","last_reported":1755965424,"current_range_meters":11200,"station_id":"st_cvj6r9ubvosntc0bgbag","pricing_plan_id":"cebpf4jnsgd1na2vs0mg"},{"bike_id":"1319db1e-b692-4d02-81d0-a211af040fff","system_id":"levelo_inurba_marseille","lat":43.337578,"lon":5.374549,"is_reserved":false,"is_disabled":false,"rental_uris":{"android":"levelo://app?vid=1319db1e-b692-4d02-81d0-a211af040fff","ios":"levelo://app?vid=1319db1e-b692-4d02-81d0-a211af040fff"},"vehicle_type_id":"4","last_reported":1755965424,"current_range_meters":11600,"station_id":"","pricing_plan_id":"cebpf4jnsgd1na2vs0mg"},{"bike_id":"34cf5575-9848-40f4-a9b5-c7cd8bb9e8b7","system_id":"levelo_inurba_marseille","lat":43.27316,"lon":5.39089,"is_reserved":false,"is_disabled":false,"rental_uris":{"android":"levelo://app?vid=34cf5575-9848-40f4-a9b5-c7cd8bb9e8b7","ios":"levelo://app?vid=34cf5575-9848-40f4-a9b5-c7cd8bb9e8b7"},"vehicle_type_id":"4","last_reported":1755965424,"current_range_meters":11600,"station_id":"ce4bhgp2rcd13ifvqfe0","pricing_plan_id":"cebpf4jnsgd1na2vs0mg"},{"bike_id":"aa8ce6ad-dff3-407e-a3cd-fa8e454179f6","system_id":"levelo_inurba_marseille","lat":43.23209,"lon":5.35502,"is_reserved":false,"is_disabled":false,"rental_uris":{"android":"levelo://app?vid=aa8ce6ad-dff3-407e-a3cd-fa8e454179f6","ios":"levelo://app?vid=aa8ce6ad-dff3-407e-a3cd-fa8e454179f6"},"vehicle_type_id":"4","last_reported":1755965424,"current_range_meters":11600,"station_id":"ce4bhu92rcd13ifvqi70","pricing_plan_id":"cebpf4jnsgd1na2vs0mg"},{"bike_id":"354730de-3597-49cc-b9c1-2bcdb8ab086f","system_id":"levelo_inurba_marseille","lat":43.23183,"lon":5.3555,"is_reserved":false,"is_disabled":false,"rental_uris":{"android":"levelo://app?vid=354730de-3597-49cc-b9c1-2bcdb8ab086f","ios":"levelo://app?vid=354730de-3597-49cc-b9c1-2bcdb8ab086f"},"vehicle_type_id":"4","last_reported":1755965424,"current_range_meters":11600,"station_id":"ce4bhu92rcd13ifvqi70","pricing_plan_id":"cebpf4jnsgd1na2vs0mg"},{"bike_id":"5aedf988-81e9-400d-9d0a-a6b4eee7e89f","system_id":"levelo_inurba_marseille","lat":43.30988,"lon":5.37735,"is_reserved":false,"is_disabled":false,"rental_uris":{"android":"levelo://app?vid=5aedf988-81e9-400d-9d0a-a6b4eee7e89f","ios":"levelo://app?vid=5aedf988-81e9-400d-9d0a-a6b4eee7e89f"},"vehicle_type_id":"4","last_reported":1755965424,"current_range_meters":12000,"station_id":"","pricing_plan_id":"cebpf4jnsgd1na2vs0mg"},{"bike_id":"f2c8894c-bb93-43a8-9a31-d9cf2b5d80da","system_id":"levelo_inurba_marseille","lat":43.24801,"lon":5.37454,"is_reserved":false,"is_disabled":false,"rental_uris":{"android":"levelo://app?vid=f2c8894c-bb93-43a8-9a31-d9cf2b5d80da","ios":"levelo://app?vid=f2c8894c-bb93-43a8-9a31-d9cf2b5d80da"},"vehicle_type_id":"4","last_reported":1755965424,"current_range_meters":12000,"station_id":"ce4bhgh2rcd13ifvqfb0","pricing_plan_id":"cebpf4jnsgd1na2vs0mg"},{"bike_id":"69f0382f-e9ad-4793-ab3d-0aefafa4a006","system_id":"levelo_inurba_marseille","lat":43.320975,"lon":5.367678,"is_reserved":false,"is_disabled":false,"rental_uris":{"android":"levelo://app?vid=69f0382f-e9ad-4793-ab3d-0aefafa4a006","ios":"levelo://app?vid=69f0382f-e9ad-4793-ab3d-0aefafa4a006"},"vehicle_type_id":"4","last_reported":1755965424,"current_range_meters":12000,"station_id":"ce4bhrh2rcd13ifvqhug","pricing_plan_id":"cebpf4jnsgd1na2vs0mg"},{"bike_id":"d85e5945-cc50-4083-8e44-af7495368aa7","system_id":"levelo_inurba_marseille","lat":43.23191,"lon":5.35556,"is_reserved":false,"is_disabled":false,"rental_uris":{"android":"levelo://app?vid=d85e5945-cc50-4083-8e44-af7495368aa7","ios":"levelo://app?vid=d85e5945-cc50-4083-8e44-af7495368aa7"},"vehicle_type_id":"4","last_reported":1755965424,"current_range_meters":12000,"station_id":"ce4bhu92rcd13ifvqi70","pricing_plan_id":"cebpf4jnsgd1na2vs0mg"},{"bike_id":"34566493-3c2e-48df-98c6-1ff36c048c2e","system_id":"levelo_inurba_marseille","lat":43.24163,"lon":5.36386,"is_reserved":false,"is_disabled":false,"rental_uris":{"android":"levelo://app?vid=34566493-3c2e-48df-98c6-1ff36c048c2e","ios":"levelo://app?vid=34566493-3c2e-48df-98c6-1ff36c048c2e"},"vehicle_type_id":"4","last_reported":1755965424,"current_range_meters":12000,"station_id":"cpo36qri1sfpv3e86is0","pricing_plan_id":"cebpf4jnsgd1na2vs0mg"},{"bike_id":"e64ffe1a-934b-429f-acda-eacc41cb9ca0","system_id":"levelo_inurba_marseille","lat":43.29222,"lon":5.36066,"is_reserved":false,"is_disabled":false,"rental_uris":{"android":"levelo://app?vid=e64ffe1a-934b-429f-acda-eacc41cb9ca0","ios":"levelo://app?vid=e64ffe1a-934b-429f-acda-eacc41cb9ca0"},"vehicle_type_id":"4","last_reported":1755965424,"current_range_meters":12400,"station_id":"ce4bhbh2rcd13ifvqeqg","pricing_plan_id":"cebpf4jnsgd1na2vs0mg"},{"bike_id":"1a74aaf5-d16d-40d8-89fe-2a34fc4f1fc0","system_id":"levelo_inurba_marseille","lat":43.23961,"lon":5.36638,"is_reserved":false,"is_disabled":false,"rental_uris":{"android":"levelo://app?vid=1a74aaf5-d16d-40d8-89fe-2a34fc4f1fc0","ios":"levelo://app?vid=1a74aaf5-d16d-40d8-89fe-2a34fc4f1fc0"},"vehicle_type_id":"4","last_reported":1755965424,"current_range_meters":12400,"station_id":"ce4bhi12rcd13ifvqfp0","pricing_plan_id":"cebpf4jnsgd1na2vs0mg"},{"bike_id":"604eb16d-bfc6-48bc-a189-c2112bbc8be1","system_id":"levelo_inurba_marseille","lat":43.321227,"lon":5.367646,"is_reserved":false,"is_disabled":false,"rental_uris":{"android":"levelo://app?vid=604eb16d-bfc6-48bc-a189-c2112bbc8be1","ios":"levelo://app?vid=604eb16d-bfc6-48bc-a189-c2112bbc8be1"},"vehicle_type_id":"4","last_reported":1755965424,"current_range_meters":12400,"station_id":"ce4bhrh2rcd13ifvqhug","pricing_plan_id":"cebpf4jnsgd1na2vs0mg"},{"bike_id":"95ccef55-079e-4cce-870d-554be136d885","system_id":"levelo_inurba_marseille","lat":43.337444,"lon":5.374475,"is_reserved":false,"is_disabled":false,"rental_uris":{"android":"levelo://app?vid=95ccef55-079e-4cce-870d-554be136d885","ios":"levelo://app?vid=95ccef55-079e-4cce-870d-554be136d885"},"vehicle_type_id":"4","last_reported":1755965424,"current_range_meters":12800,"station_id":"","pricing_plan_id":"cebpf4jnsgd1na2vs0mg"},{"bike_id":"a7e8b6ab-502b-4f00-b499-b7adfaccd2e7","system_id":"levelo_inurba_marseille","lat":43.33761,"lon":5.37487,"is_reserved":false,"is_disabled":false,"rental_uris":{"android":"levelo://app?vid=a7e8b6ab-502b-4f00-b499-b7adfaccd2e7","ios":"levelo://app?vid=a7e8b6ab-502b-4f00-b499-b7adfaccd2e7"},"vehicle_type_id":"4","last_reported":1755965424,"current_range_meters":12800,"station_id":"","pricing_plan_id":"cebpf4jnsgd1na2vs0mg"},{"bike_id":"ec189034-f18c-49ba-baae-ce5190f9fc95","system_id":"levelo_inurba_marseille","lat":43.30899,"lon":5.37182,"is_reserved":false,"is_disabled":false,"rental_uris":{"android":"levelo://app?vid=ec189034-f18c-49ba-baae-ce5190f9fc95","ios":"levelo://app?vid=ec189034-f18c-49ba-baae-ce5190f9fc95"},"vehicle_type_id":"4","last_reported":1755965424,"current_range_meters":12800,"station_id":"ce4bguh2rcd13ifvqckg","pricing_plan_id":"cebpf4jnsgd1na2vs0mg"},{"bike_id":"0d86eeac-ce36-45a3-a8d0-95a96c144274","system_id":"levelo_inurba_marseille","lat":43.28462,"lon":5.35893,"is_reserved":false,"is_disabled":false,"rental_uris":{"android":"levelo://app?vid=0d86eeac-ce36-45a3-a8d0-95a96c144274","ios":"levelo://app?vid=0d86eeac-ce36-45a3-a8d0-95a96c144274"},"vehicle_type_id":"4","last_reported":1755965424,"current_range_meters":12800,"station_id":"ce4bhah2rcd13ifvqei0","pricing_plan_id":"cebpf4jnsgd1na2vs0mg"},{"bike_id":"a1f629f7-4a0c-4832-a452-d227beb4fc4d","system_id":"levelo_inurba_marseille","lat":43.23242,"lon":5.39983,"is_reserved":false,"is_disabled":false,"rental_uris":{"android":"levelo://app?vid=a1f629f7-4a0c-4832-a452-d227beb4fc4d","ios":"levelo://app?vid=a1f629f7-4a0c-4832-a452-d227beb4fc4d"},"vehicle_type_id":"4","last_reported":1755965424,"current_range_meters":12800,"station_id":"ce4bhn12rcd13ifvqgqg","pricing_plan_id":"cebpf4jnsgd1na2vs0mg"},{"bike_id":"e5ccb651-378c-4941-8759-7de0e15b509c","system_id":"levelo_inurba_marseille","lat":43.21754,"lon":5.34598,"is_reserved":false,"is_disabled":false,"rental_uris":{"android":"levelo://app?vid=e5ccb651-378c-4941-8759-7de0e15b509c","ios":"levelo://app?vid=e5ccb651-378c-4941-8759-7de0e15b509c"},"vehicle_type_id":"4","last_reported":1755965424,"current_range_meters":12800,"station_id":"st_cvj6r9ubvosntc0bgbag","pricing_plan_id":"cebpf4jnsgd1na2vs0mg"},{"bike_id":"058db3e0-249d-474b-ae11-deeecb3d190b","system_id":"levelo_inurba_marseille","lat":43.21189,"lon":5.35068,"is_reserved":false,"is_disabled":false,"rental_uris":{"android":"levelo://app?vid=058db3e0-249d-474b-ae11-deeecb3d190b","ios":"levelo://app?vid=058db3e0-249d-474b-ae11-deeecb3d190b"},"vehicle_type_id":"4","last_reported":1755965424,"current_range_meters":12800,"station_id":"st_cvj6sg6p6f1abm77japg","pricing_plan_id":"cebpf4jnsgd1na2vs0mg"},{"bike_id":"f19ef29c-d690-4aec-b3be-504a021c25d9","system_id":"levelo_inurba_marseille","lat":43.28703,"lon":5.3738,"is_reserved":false,"is_disabled":false,"rental_uris":{"android":"levelo://app?vid=f19ef29c-d690-4aec-b3be-504a021c25d9","ios":"levelo://app?vid=f19ef29c-d690-4aec-b3be-504a021c25d9"},"vehicle_type_id":"4","last_reported":1755965424,"current_range_meters":13600,"station_id":"ce4bh3p2rcd13ifvqdq0","pricing_plan_id":"cebpf4jnsgd1na2vs0mg"},{"bike_id":"fef9296b-90cb-4158-bae6-277134272e17","system_id":"levelo_inurba_marseille","lat":43.24808,"lon":5.37452,"is_reserved":false,"is_disabled":false,"rental_uris":{"android":"levelo://app?vid=fef9296b-90cb-4158-bae6-277134272e17","ios":"levelo://app?vid=fef9296b-90cb-4158-bae6-277134272e17"},"vehicle_type_id":"4","last_reported":1755965424,"current_range_meters":13600,"station_id":"ce4bhgh2rcd13ifvqfb0","pricing_plan_id":"cebpf4jnsgd1na2vs0mg"},{"bike_id":"1eb889df-3549-40bf-8422-32e96f00fa93","system_id":"levelo_inurba_marseille","lat":43.24804,"lon":5.37446,"is_reserved":false,"is_disabled":false,"rental_uris":{"android":"levelo://app?vid=1eb889df-3549-40bf-8422-32e96f00fa93","ios":"levelo://app?vid=1eb889df-3549-40bf-8422-32e96f00fa93"},"vehicle_type_id":"4","last_reported":1755965424,"current_range_meters":13600,"station_id":"ce4bhgh2rcd13ifvqfb0","pricing_plan_id":"cebpf4jnsgd1na2vs0mg"},{"bike_id":"1d6aea9b-1db0-47d7-a55c-995896f858d6","system_id":"levelo_inurba_marseille","lat":43.27314,"lon":5.3911,"is_reserved":false,"is_disabled":false,"rental_uris":{"android":"levelo://app?vid=1d6aea9b-1db0-47d7-a55c-995896f858d6","ios":"levelo://app?vid=1d6aea9b-1db0-47d7-a55c-995896f858d6"},"vehicle_type_id":"4","last_reported":1755965424,"current_range_meters":13600,"station_id":"ce4bhgp2rcd13ifvqfe0","pricing_plan_id":"cebpf4jnsgd1na2vs0mg"},{"bike_id":"df5e9420-c6b9-4572-8952-194ca0ddac94","system_id":"levelo_inurba_marseille","lat":43.32053,"lon":5.36763,"is_reserved":false,"is_disabled":false,"rental_uris":{"android":"levelo://app?vid=df5e9420-c6b9-4572-8952-194ca0ddac94","ios":"levelo://app?vid=df5e9420-c6b9-4572-8952-194ca0ddac94"},"vehicle_type_id":"4","last_reported":1755965424,"current_range_meters":13600,"station_id":"ce4bhrh2rcd13ifvqhug","pricing_plan_id":"cebpf4jnsgd1na2vs0mg"},{"bike_id":"73a36129-edfa-4460-8cf0-83fac50756ba","system_id":"levelo_inurba_marseille","lat":43.23061,"lon":5.35479,"is_reserved":false,"is_disabled":false,"rental_uris":{"android":"levelo://app?vid=73a36129-edfa-4460-8cf0-83fac50756ba","ios":"levelo://app?vid=73a36129-edfa-4460-8cf0-83fac50756ba"},"vehicle_type_id":"4","last_reported":1755965424,"current_range_meters":13600,"station_id":"cpo3342slgdg3j2ifvpg","pricing_plan_id":"cebpf4jnsgd1na2vs0mg"},{"bike_id":"69c72c46-10be-4328-8f2c-5cdb9781751d","system_id":"levelo_inurba_marseille","lat":43.2175,"lon":5.34598,"is_reserved":false,"is_disabled":false,"rental_uris":{"android":"levelo://app?vid=69c72c46-10be-4328-8f2c-5cdb9781751d","ios":"levelo://app?vid=69c72c46-10be-4328-8f2c-5cdb9781751d"},"vehicle_type_id":"4","last_reported":1755965424,"current_range_meters":13600,"station_id":"st_cvj6r9ubvosntc0bgbag","pricing_plan_id":"cebpf4jnsgd1na2vs0mg"},{"bike_id":"ec5e209a-818f-4b53-b406-67f31ac5c8df","system_id":"levelo_inurba_marseille","lat":43.21768,"lon":5.34563,"is_reserved":false,"is_disabled":false,"rental_uris":{"android":"levelo://app?vid=ec5e209a-818f-4b53-b406-67f31ac5c8df","ios":"levelo://app?vid=ec5e209a-818f-4b53-b406-67f31ac5c8df"},"vehicle_type_id":"4","last_reported":1755965424,"current_range_meters":13600,"station_id":"st_cvj6r9ubvosntc0bgbag","pricing_plan_id":"cebpf4jnsgd1na2vs0mg"},{"bike_id":"6cdfc37d-520e-48fe-aa22-6e5717dca0f5","system_id":"levelo_inurba_marseille","lat":43.21757,"lon":5.34617,"is_reserved":false,"is_disabled":false,"rental_uris":{"android":"levelo://app?vid=6cdfc37d-520e-48fe-aa22-6e5717dca0f5","ios":"levelo://app?vid=6cdfc37d-520e-48fe-aa22-6e5717dca0f5"},"vehicle_type_id":"4","last_reported":1755965424,"current_range_meters":13600,"station_id":"st_cvj6r9ubvosntc0bgbag","pricing_plan_id":"cebpf4jnsgd1na2vs0mg"},{"bike_id":"f29f3ef7-3acb-4569-95d5-148e75bea1b4","system_id":"levelo_inurba_marseille","lat":43.23198,"lon":5.35535,"is_reserved":false,"is_disabled":false,"rental_uris":{"android":"levelo://app?vid=f29f3ef7-3acb-4569-95d5-148e75bea1b4","ios":"levelo://app?vid=f29f3ef7-3acb-4569-95d5-148e75bea1b4"},"vehicle_type_id":"4","last_reported":1755965424,"current_range_meters":14000,"station_id":"ce4bhu92rcd13ifvqi70","pricing_plan_id":"cebpf4jnsgd1na2vs0mg"},{"bike_id":"d9da755a-dd2f-41fc-aaff-e519c01261ff","system_id":"levelo_inurba_marseille","lat":43.22504,"lon":5.34777,"is_reserved":false,"is_disabled":false,"rental_uris":{"android":"levelo://app?vid=d9da755a-dd2f-41fc-aaff-e519c01261ff","ios":"levelo://app?vid=d9da755a-dd2f-41fc-aaff-e519c01261ff"},"vehicle_type_id":"4","last_reported":1755965424,"current_range_meters":14000,"station_id":"st_cvj5dfep6f1abm77gieg","pricing_plan_id":"cebpf4jnsgd1na2vs0mg"},{"bike_id":"1ca6969c-1ca7-4fbe-a5bd-b92200061c0d","system_id":"levelo_inurba_marseille","lat":43.31123,"lon":5.37238,"is_reserved":false,"is_disabled":false,"rental_uris":{"android":"levelo://app?vid=1ca6969c-1ca7-4fbe-a5bd-b92200061c0d","ios":"levelo://app?vid=1ca6969c-1ca7-4fbe-a5bd-b92200061c0d"},"vehicle_type_id":"4","last_reported":1755965424,"current_range_meters":14400,"station_id":"","pricing_plan_id":"cebpf4jnsgd1na2vs0mg"},{"bike_id":"3d07f423-81ae-4617-a7cc-95cba1ccfc6b","system_id":"levelo_inurba_marseille","lat":43.29615,"lon":5.37169,"is_reserved":false,"is_disabled":false,"rental_uris":{"android":"levelo://app?vid=3d07f423-81ae-4617-a7cc-95cba1ccfc6b","ios":"levelo://app?vid=3d07f423-81ae-4617-a7cc-95cba1ccfc6b"},"vehicle_type_id":"4","last_reported":1755965424,"current_range_meters":14400,"station_id":"ce4bgnh2rcd13ifvqc0g","pricing_plan_id":"cebpf4jnsgd1na2vs0mg"},{"bike_id":"c2206e6a-7f08-4703-a194-46c20a9a11fa","system_id":"levelo_inurba_marseille","lat":43.28037,"lon":5.36943,"is_reserved":false,"is_disabled":false,"rental_uris":{"android":"levelo://app?vid=c2206e6a-7f08-4703-a194-46c20a9a11fa","ios":"levelo://app?vid=c2206e6a-7f08-4703-a194-46c20a9a11fa"},"vehicle_type_id":"4","last_reported":1755965424,"current_range_meters":14400,"station_id":"ce4bha12rcd13ifvqef0","pricing_plan_id":"cebpf4jnsgd1na2vs0mg"},{"bike_id":"db5322b2-085e-4db1-9cd6-91d122e6d02b","system_id":"levelo_inurba_marseille","lat":43.21753,"lon":5.34589,"is_reserved":false,"is_disabled":false,"rental_uris":{"android":"levelo://app?vid=db5322b2-085e-4db1-9cd6-91d122e6d02b","ios":"levelo://app?vid=db5322b2-085e-4db1-9cd6-91d122e6d02b"},"vehicle_type_id":"4","last_reported":1755965424,"current_range_meters":14400,"station_id":"st_cvj6r9ubvosntc0bgbag","pricing_plan_id":"cebpf4jnsgd1na2vs0mg"},{"bike_id":"b944ee2e-794d-4710-a4c3-15c579af6500","system_id":"levelo_inurba_marseille","lat":43.217509,"lon":5.345982,"is_reserved":false,"is_disabled":false,"rental_uris":{"android":"levelo://app?vid=b944ee2e-794d-4710-a4c3-15c579af6500","ios":"levelo://app?vid=b944ee2e-794d-4710-a4c3-15c579af6500"},"vehicle_type_id":"4","last_reported":1755965424,"current_range_meters":14400,"station_id":"st_cvj6r9ubvosntc0bgbag","pricing_plan_id":"cebpf4jnsgd1na2vs0mg"},{"bike_id":"868cebad-79e7-4e33-9ce2-2d086b14cddc","system_id":"levelo_inurba_marseille","lat":43.217789,"lon":5.346073,"is_reserved":false,"is_disabled":false,"rental_uris":{"android":"levelo://app?vid=868cebad-79e7-4e33-9ce2-2d086b14cddc","ios":"levelo://app?vid=868cebad-79e7-4e33-9ce2-2d086b14cddc"},"vehicle_type_id":"4","last_reported":1755965424,"current_range_meters":14400,"station_id":"st_cvj6r9ubvosntc0bgbag","pricing_plan_id":"cebpf4jnsgd1na2vs0mg"},{"bike_id":"b8ed15c5-fa9d-46bc-8850-2af290daf684","system_id":"levelo_inurba_marseille","lat":43.30036,"lon":5.3755,"is_reserved":false,"is_disabled":false,"rental_uris":{"android":"levelo://app?vid=b8ed15c5-fa9d-46bc-8850-2af290daf684","ios":"levelo://app?vid=b8ed15c5-fa9d-46bc-8850-2af290daf684"},"vehicle_type_id":"4","last_reported":1755965424,"current_range_meters":14800,"station_id":"","pricing_plan_id":"cebpf4jnsgd1na2vs0mg"},{"bike_id":"45c714a6-c5d8-4fe7-904a-86db2065312d","system_id":"levelo_inurba_marseille","lat":43.2962,"lon":5.3771,"is_reserved":false,"is_disabled":false,"rental_uris":{"android":"levelo://app?vid=45c714a6-c5d8-4fe7-904a-86db2065312d","ios":"levelo://app?vid=45c714a6-c5d8-4fe7-904a-86db2065312d"},"vehicle_type_id":"4","last_reported":1755965424,"current_range_meters":14800,"station_id":"ce4bgi92rcd13ifvqb90","pricing_plan_id":"cebpf4jnsgd1na2vs0mg"},{"bike_id":"e65ab1e8-7ac3-4308-a368-a9a2886f4296","system_id":"levelo_inurba_marseille","lat":43.217487,"lon":5.346002,"is_reserved":false,"is_disabled":false,"rental_uris":{"android":"levelo://app?vid=e65ab1e8-7ac3-4308-a368-a9a2886f4296","ios":"levelo://app?vid=e65ab1e8-7ac3-4308-a368-a9a2886f4296"},"vehicle_type_id":"4","last_reported":1755965424,"current_range_meters":14800,"station_id":"ce4bh0p2rcd13ifvqd80","pricing_plan_id":"cebpf4jnsgd1na2vs0mg"},{"bike_id":"fbf367c6-41b1-4c2e-8f8a-d5ba685f2ff5","system_id":"levelo_inurba_marseille","lat":43.24807,"lon":5.37447,"is_reserved":false,"is_disabled":false,"rental_uris":{"android":"levelo://app?vid=fbf367c6-41b1-4c2e-8f8a-d5ba685f2ff5","ios":"levelo://app?vid=fbf367c6-41b1-4c2e-8f8a-d5ba685f2ff5"},"vehicle_type_id":"4","last_reported":1755965424,"current_range_meters":14800,"station_id":"ce4bhgh2rcd13ifvqfb0","pricing_plan_id":"cebpf4jnsgd1na2vs0mg"},{"bike_id":"d2009ba0-b5c5-48e1-a87a-decb87b9f387","system_id":"levelo_inurba_marseille","lat":43.27322,"lon":5.39081,"is_reserved":false,"is_disabled":false,"rental_uris":{"android":"levelo://app?vid=d2009ba0-b5c5-48e1-a87a-decb87b9f387","ios":"levelo://app?vid=d2009ba0-b5c5-48e1-a87a-decb87b9f387"},"vehicle_type_id":"4","last_reported":1755965424,"current_range_meters":14800,"station_id":"ce4bhgp2rcd13ifvqfe0","pricing_plan_id":"cebpf4jnsgd1na2vs0mg"},{"bike_id":"b870cfba-7b1f-401f-8cc1-cd3e5ab0765b","system_id":"levelo_inurba_marseille","lat":43.32365,"lon":5.38879,"is_reserved":false,"is_disabled":false,"rental_uris":{"android":"levelo://app?vid=b870cfba-7b1f-401f-8cc1-cd3e5ab0765b","ios":"levelo://app?vid=b870cfba-7b1f-401f-8cc1-cd3e5ab0765b"},"vehicle_type_id":"4","last_reported":1755965424,"current_range_meters":14800,"station_id":"ce4bhqp2rcd13ifvqhog","pricing_plan_id":"cebpf4jnsgd1na2vs0mg"},{"bike_id":"db467d19-e53d-428c-9b8b-b1bb24143ef9","system_id":"levelo_inurba_marseille","lat":43.22924,"lon":5.35384,"is_reserved":false,"is_disabled":false,"rental_uris":{"android":"levelo://app?vid=db467d19-e53d-428c-9b8b-b1bb24143ef9","ios":"levelo://app?vid=db467d19-e53d-428c-9b8b-b1bb24143ef9"},"vehicle_type_id":"4","last_reported":1755965424,"current_range_meters":14800,"station_id":"cpo3532slgdg3j2ikp40","pricing_plan_id":"cebpf4jnsgd1na2vs0mg"},{"bike_id":"bd28555c-72eb-4195-94f1-69605abf2449","system_id":"levelo_inurba_marseille","lat":43.24162,"lon":5.364,"is_reserved":false,"is_disabled":false,"rental_uris":{"android":"levelo://app?vid=bd28555c-72eb-4195-94f1-69605abf2449","ios":"levelo://app?vid=bd28555c-72eb-4195-94f1-69605abf2449"},"vehicle_type_id":"4","last_reported":1755965424,"current_range_meters":14800,"station_id":"cpo36qri1sfpv3e86is0","pricing_plan_id":"cebpf4jnsgd1na2vs0mg"},{"bike_id":"a20c6c91-1f52-4dd5-9852-b674daa14515","system_id":"levelo_inurba_marseille","lat":43.24172,"lon":5.36394,"is_reserved":false,"is_disabled":false,"rental_uris":{"android":"levelo://app?vid=a20c6c91-1f52-4dd5-9852-b674daa14515","ios":"levelo://app?vid=a20c6c91-1f52-4dd5-9852-b674daa14515"},"vehicle_type_id":"4","last_reported":1755965424,"current_range_meters":14800,"station_id":"cpo36qri1sfpv3e86is0","pricing_plan_id":"cebpf4jnsgd1na2vs0mg"},{"bike_id":"72abf7f9-8e24-4688-8a0f-522c52b76d25","system_id":"levelo_inurba_marseille","lat":43.24168,"lon":5.36384,"is_reserved":false,"is_disabled":false,"rental_uris":{"android":"levelo://app?vid=72abf7f9-8e24-4688-8a0f-522c52b76d25","ios":"levelo://app?vid=72abf7f9-8e24-4688-8a0f-522c52b76d25"},"vehicle_type_id":"4","last_reported":1755965424,"current_range_meters":14800,"station_id":"cpo36qri1sfpv3e86is0","pricing_plan_id":"cebpf4jnsgd1na2vs0mg"},{"bike_id":"bd147540-2bba-415c-9932-198b2e13849b","system_id":"levelo_inurba_marseille","lat":43.21202,"lon":5.35038,"is_reserved":false,"is_disabled":false,"rental_uris":{"android":"levelo://app?vid=bd147540-2bba-415c-9932-198b2e13849b","ios":"levelo://app?vid=bd147540-2bba-415c-9932-198b2e13849b"},"vehicle_type_id":"4","last_reported":1755965424,"current_range_meters":14800,"station_id":"st_cvj6sg6p6f1abm77japg","pricing_plan_id":"cebpf4jnsgd1na2vs0mg"},{"bike_id":"b3e3b5c4-da48-426b-817c-fb785ffa85d0","system_id":"levelo_inurba_marseille","lat":43.31496,"lon":5.37212,"is_reserved":false,"is_disabled":false,"rental_uris":{"android":"levelo://app?vid=b3e3b5c4-da48-426b-817c-fb785ffa85d0","ios":"levelo://app?vid=b3e3b5c4-da48-426b-817c-fb785ffa85d0"},"vehicle_type_id":"4","last_reported":1755965424,"current_range_meters":15200,"station_id":"","pricing_plan_id":"cebpf4jnsgd1na2vs0mg"},{"bike_id":"ed705ac1-ae3e-41be-859e-1e6b93fc6aeb","system_id":"levelo_inurba_marseille","lat":43.26221,"lon":5.37436,"is_reserved":false,"is_disabled":false,"rental_uris":{"android":"levelo://app?vid=ed705ac1-ae3e-41be-859e-1e6b93fc6aeb","ios":"levelo://app?vid=ed705ac1-ae3e-41be-859e-1e6b93fc6aeb"},"vehicle_type_id":"4","last_reported":1755965424,"current_range_meters":15200,"station_id":"ce4bhgp2rcd13ifvqfc0","pricing_plan_id":"cebpf4jnsgd1na2vs0mg"},{"bike_id":"19fb8d94-e936-4ab2-b29f-03c1a9d6828f","system_id":"levelo_inurba_marseille","lat":43.23955,"lon":5.36634,"is_reserved":false,"is_disabled":false,"rental_uris":{"android":"levelo://app?vid=19fb8d94-e936-4ab2-b29f-03c1a9d6828f","ios":"levelo://app?vid=19fb8d94-e936-4ab2-b29f-03c1a9d6828f"},"vehicle_type_id":"4","last_reported":1755965424,"current_range_meters":15200,"station_id":"ce4bhi12rcd13ifvqfp0","pricing_plan_id":"cebpf4jnsgd1na2vs0mg"},{"bike_id":"101252dd-7439-46af-b512-346f1b2187a3","system_id":"levelo_inurba_marseille","lat":43.281626,"lon":5.426575,"is_reserved":false,"is_disabled":false,"rental_uris":{"android":"levelo://app?vid=101252dd-7439-46af-b512-346f1b2187a3","ios":"levelo://app?vid=101252dd-7439-46af-b512-346f1b2187a3"},"vehicle_type_id":"4","last_reported":1755965424,"current_range_meters":15200,"station_id":"ce4bhnh2rcd13ifvqgug","pricing_plan_id":"cebpf4jnsgd1na2vs0mg"},{"bike_id":"906099d8-e3d1-4a4b-84c8-2864d8a8cdb2","system_id":"levelo_inurba_marseille","lat":43.32111,"lon":5.36768,"is_reserved":false,"is_disabled":false,"rental_uris":{"android":"levelo://app?vid=906099d8-e3d1-4a4b-84c8-2864d8a8cdb2","ios":"levelo://app?vid=906099d8-e3d1-4a4b-84c8-2864d8a8cdb2"},"vehicle_type_id":"4","last_reported":1755965424,"current_range_meters":15200,"station_id":"ce4bhrh2rcd13ifvqhug","pricing_plan_id":"cebpf4jnsgd1na2vs0mg"},{"bike_id":"3d63de24-a7d0-414f-ba00-8badb41eb493","system_id":"levelo_inurba_marseille","lat":43.286139,"lon":5.351001,"is_reserved":false,"is_disabled":false,"rental_uris":{"android":"levelo://app?vid=3d63de24-a7d0-414f-ba00-8badb41eb493","ios":"levelo://app?vid=3d63de24-a7d0-414f-ba00-8badb41eb493"},"vehicle_type_id":"4","last_reported":1755965424,"current_range_meters":16000,"station_id":"","pricing_plan_id":"cebpf4jnsgd1na2vs0mg"},{"bike_id":"60b1e19c-1d7a-4721-a42c-a97b2166039e","system_id":"levelo_inurba_marseille","lat":43.31263,"lon":5.40108,"is_reserved":false,"is_disabled":false,"rental_uris":{"android":"levelo://app?vid=60b1e19c-1d7a-4721-a42c-a97b2166039e","ios":"levelo://app?vid=60b1e19c-1d7a-4721-a42c-a97b2166039e"},"vehicle_type_id":"4","last_reported":1755965424,"current_range_meters":16000,"station_id":"ce4bh092rcd13ifvqd30","pricing_plan_id":"cebpf4jnsgd1na2vs0mg"},{"bike_id":"11a34af9-9f33-45b2-85eb-304de3f99739","system_id":"levelo_inurba_marseille","lat":43.248047,"lon":5.374606,"is_reserved":false,"is_disabled":false,"rental_uris":{"android":"levelo://app?vid=11a34af9-9f33-45b2-85eb-304de3f99739","ios":"levelo://app?vid=11a34af9-9f33-45b2-85eb-304de3f99739"},"vehicle_type_id":"4","last_reported":1755965424,"current_range_meters":16000,"station_id":"ce4bhgh2rcd13ifvqfb0","pricing_plan_id":"cebpf4jnsgd1na2vs0mg"},{"bike_id":"2b70870c-70c3-4bdd-b60e-31505f872d76","system_id":"levelo_inurba_marseille","lat":43.26211,"lon":5.37442,"is_reserved":false,"is_disabled":false,"rental_uris":{"android":"levelo://app?vid=2b70870c-70c3-4bdd-b60e-31505f872d76","ios":"levelo://app?vid=2b70870c-70c3-4bdd-b60e-31505f872d76"},"vehicle_type_id":"4","last_reported":1755965424,"current_range_meters":16000,"station_id":"ce4bhgp2rcd13ifvqfc0","pricing_plan_id":"cebpf4jnsgd1na2vs0mg"},{"bike_id":"4a28082f-03e5-46c0-9ee2-4577e0cee908","system_id":"levelo_inurba_marseille","lat":43.272099,"lon":5.39194,"is_reserved":false,"is_disabled":false,"rental_uris":{"android":"levelo://app?vid=4a28082f-03e5-46c0-9ee2-4577e0cee908","ios":"levelo://app?vid=4a28082f-03e5-46c0-9ee2-4577e0cee908"},"vehicle_type_id":"4","last_reported":1755965424,"current_range_meters":16000,"station_id":"ce4bhhp2rcd13ifvqfm0","pricing_plan_id":"cebpf4jnsgd1na2vs0mg"},{"bike_id":"34d6aec2-6379-4546-ab6a-3ed17211040c","system_id":"levelo_inurba_marseille","lat":43.27834,"lon":5.39211,"is_reserved":false,"is_disabled":false,"rental_uris":{"android":"levelo://app?vid=34d6aec2-6379-4546-ab6a-3ed17211040c","ios":"levelo://app?vid=34d6aec2-6379-4546-ab6a-3ed17211040c"},"vehicle_type_id":"4","last_reported":1755965424,"current_range_meters":16000,"station_id":"ce4bhjp2rcd13ifvqga0","pricing_plan_id":"cebpf4jnsgd1na2vs0mg"},{"bike_id":"95d155b4-11a6-4bbc-b85e-40a8bcc3c2b9","system_id":"levelo_inurba_marseille","lat":43.24548,"lon":5.3952,"is_reserved":false,"is_disabled":false,"rental_uris":{"android":"levelo://app?vid=95d155b4-11a6-4bbc-b85e-40a8bcc3c2b9","ios":"levelo://app?vid=95d155b4-11a6-4bbc-b85e-40a8bcc3c2b9"},"vehicle_type_id":"4","last_reported":1755965424,"current_range_meters":16000,"station_id":"ce4bhlp2rcd13ifvqgjg","pricing_plan_id":"cebpf4jnsgd1na2vs0mg"},{"bike_id":"e092177c-9a95-4020-8271-43b4ded02c04","system_id":"levelo_inurba_marseille","lat":43.22918,"lon":5.35322,"is_reserved":false,"is_disabled":false,"rental_uris":{"android":"levelo://app?vid=e092177c-9a95-4020-8271-43b4ded02c04","ios":"levelo://app?vid=e092177c-9a95-4020-8271-43b4ded02c04"},"vehicle_type_id":"4","last_reported":1755965424,"current_range_meters":16000,"station_id":"cpo3532slgdg3j2ikp40","pricing_plan_id":"cebpf4jnsgd1na2vs0mg"},{"bike_id":"e25c68cc-eff5-4e00-8ace-8a6ce6b6ced9","system_id":"levelo_inurba_marseille","lat":43.21745,"lon":5.34599,"is_reserved":false,"is_disabled":false,"rental_uris":{"android":"levelo://app?vid=e25c68cc-eff5-4e00-8ace-8a6ce6b6ced9","ios":"levelo://app?vid=e25c68cc-eff5-4e00-8ace-8a6ce6b6ced9"},"vehicle_type_id":"4","last_reported":1755965424,"current_range_meters":16000,"station_id":"st_cvj6r9ubvosntc0bgbag","pricing_plan_id":"cebpf4jnsgd1na2vs0mg"},{"bike_id":"d035a98d-a678-4a77-a22b-852bd0a1afbf","system_id":"levelo_inurba_marseille","lat":43.21753,"lon":5.34612,"is_reserved":false,"is_disabled":false,"rental_uris":{"android":"levelo://app?vid=d035a98d-a678-4a77-a22b-852bd0a1afbf","ios":"levelo://app?vid=d035a98d-a678-4a77-a22b-852bd0a1afbf"},"vehicle_type_id":"4","last_reported":1755965424,"current_range_meters":16000,"station_id":"st_cvj6r9ubvosntc0bgbag","pricing_plan_id":"cebpf4jnsgd1na2vs0mg"},{"bike_id":"8e2a0fb8-c4ca-46b9-8468-1e2d18f01163","system_id":"levelo_inurba_marseille","lat":43.21746,"lon":5.34605,"is_reserved":false,"is_disabled":false,"rental_uris":{"android":"levelo://app?vid=8e2a0fb8-c4ca-46b9-8468-1e2d18f01163","ios":"levelo://app?vid=8e2a0fb8-c4ca-46b9-8468-1e2d18f01163"},"vehicle_type_id":"4","last_reported":1755965424,"current_range_meters":16000,"station_id":"st_cvj6r9ubvosntc0bgbag","pricing_plan_id":"cebpf4jnsgd1na2vs0mg"},{"bike_id":"5d1ff99d-5aea-4181-9795-52287de49356","system_id":"levelo_inurba_marseille","lat":43.21189,"lon":5.35072,"is_reserved":false,"is_disabled":false,"rental_uris":{"android":"levelo://app?vid=5d1ff99d-5aea-4181-9795-52287de49356","ios":"levelo://app?vid=5d1ff99d-5aea-4181-9795-52287de49356"},"vehicle_type_id":"4","last_reported":1755965424,"current_range_meters":16000,"station_id":"st_cvj6sg6p6f1abm77japg","pricing_plan_id":"cebpf4jnsgd1na2vs0mg"},{"bike_id":"a60133c2-a689-41f1-8d60-644226897137","system_id":"levelo_inurba_marseille","lat":43.27379,"lon":5.3624,"is_reserved":false,"is_disabled":false,"rental_uris":{"android":"levelo://app?vid=a60133c2-a689-41f1-8d60-644226897137","ios":"levelo://app?vid=a60133c2-a689-41f1-8d60-644226897137"},"vehicle_type_id":"4","last_reported":1755965424,"current_range_meters":16400,"station_id":"ce4bhbh2rcd13ifvqeo0","pricing_plan_id":"cebpf4jnsgd1na2vs0mg"},{"bike_id":"76e804d8-b878-4ca5-a330-58ba41506d48","system_id":"levelo_inurba_marseille","lat":43.26062,"lon":5.39394,"is_reserved":false,"is_disabled":false,"rental_uris":{"android":"levelo://app?vid=76e804d8-b878-4ca5-a330-58ba41506d48","ios":"levelo://app?vid=76e804d8-b878-4ca5-a330-58ba41506d48"},"vehicle_type_id":"4","last_reported":1755965424,"current_range_meters":16400,"station_id":"ce4bhh92rcd13ifvqfj0","pricing_plan_id":"cebpf4jnsgd1na2vs0mg"},{"bike_id":"fb0e4f58-b0d1-42b8-88c7-33ec7a98d4cc","system_id":"levelo_inurba_marseille","lat":43.27201,"lon":5.39175,"is_reserved":false,"is_disabled":false,"rental_uris":{"android":"levelo://app?vid=fb0e4f58-b0d1-42b8-88c7-33ec7a98d4cc","ios":"levelo://app?vid=fb0e4f58-b0d1-42b8-88c7-33ec7a98d4cc"},"vehicle_type_id":"4","last_reported":1755965424,"current_range_meters":16400,"station_id":"ce4bhhp2rcd13ifvqfm0","pricing_plan_id":"cebpf4jnsgd1na2vs0mg"},{"bike_id":"a9d3a4de-1ee0-4cd5-b678-b9ca8111ad83","system_id":"levelo_inurba_marseille","lat":43.3211,"lon":5.36772,"is_reserved":false,"is_disabled":false,"rental_uris":{"android":"levelo://app?vid=a9d3a4de-1ee0-4cd5-b678-b9ca8111ad83","ios":"levelo://app?vid=a9d3a4de-1ee0-4cd5-b678-b9ca8111ad83"},"vehicle_type_id":"4","last_reported":1755965424,"current_range_meters":16400,"station_id":"ce4bhrh2rcd13ifvqhug","pricing_plan_id":"cebpf4jnsgd1na2vs0mg"},{"bike_id":"c459cb40-301a-444b-b7db-b4759d6d7ac2","system_id":"levelo_inurba_marseille","lat":43.30044,"lon":5.37057,"is_reserved":false,"is_disabled":false,"rental_uris":{"android":"levelo://app?vid=c459cb40-301a-444b-b7db-b4759d6d7ac2","ios":"levelo://app?vid=c459cb40-301a-444b-b7db-b4759d6d7ac2"},"vehicle_type_id":"4","last_reported":1755965424,"current_range_meters":16800,"station_id":"","pricing_plan_id":"cebpf4jnsgd1na2vs0mg"},{"bike_id":"c48f7fff-643a-401e-a117-a53433bb7723","system_id":"levelo_inurba_marseille","lat":43.33757,"lon":5.374529,"is_reserved":false,"is_disabled":false,"rental_uris":{"android":"levelo://app?vid=c48f7fff-643a-401e-a117-a53433bb7723","ios":"levelo://app?vid=c48f7fff-643a-401e-a117-a53433bb7723"},"vehicle_type_id":"4","last_reported":1755965424,"current_range_meters":16800,"station_id":"","pricing_plan_id":"cebpf4jnsgd1na2vs0mg"},{"bike_id":"8d1c5378-0673-443b-95a0-00a4a414d705","system_id":"levelo_inurba_marseille","lat":43.26218,"lon":5.37426,"is_reserved":false,"is_disabled":false,"rental_uris":{"android":"levelo://app?vid=8d1c5378-0673-443b-95a0-00a4a414d705","ios":"levelo://app?vid=8d1c5378-0673-443b-95a0-00a4a414d705"},"vehicle_type_id":"4","last_reported":1755965424,"current_range_meters":16800,"station_id":"ce4bhgp2rcd13ifvqfc0","pricing_plan_id":"cebpf4jnsgd1na2vs0mg"},{"bike_id":"632fbde6-c058-44f7-90fe-bfccd4b5de90","system_id":"levelo_inurba_marseille","lat":43.232058,"lon":5.355443,"is_reserved":false,"is_disabled":false,"rental_uris":{"android":"levelo://app?vid=632fbde6-c058-44f7-90fe-bfccd4b5de90","ios":"levelo://app?vid=632fbde6-c058-44f7-90fe-bfccd4b5de90"},"vehicle_type_id":"4","last_reported":1755965424,"current_range_meters":16800,"station_id":"ce4bhu92rcd13ifvqi70","pricing_plan_id":"cebpf4jnsgd1na2vs0mg"},{"bike_id":"a54ca4d3-96af-4502-aa94-30f29eecee3a","system_id":"levelo_inurba_marseille","lat":43.23195,"lon":5.35546,"is_reserved":false,"is_disabled":false,"rental_uris":{"android":"levelo://app?vid=a54ca4d3-96af-4502-aa94-30f29eecee3a","ios":"levelo://app?vid=a54ca4d3-96af-4502-aa94-30f29eecee3a"},"vehicle_type_id":"4","last_reported":1755965424,"current_range_meters":16800,"station_id":"ce4bhu92rcd13ifvqi70","pricing_plan_id":"cebpf4jnsgd1na2vs0mg"},{"bike_id":"603f2187-74f7-4b14-84ee-2e7533135d4f","system_id":"levelo_inurba_marseille","lat":43.23055,"lon":5.35487,"is_reserved":false,"is_disabled":false,"rental_uris":{"android":"levelo://app?vid=603f2187-74f7-4b14-84ee-2e7533135d4f","ios":"levelo://app?vid=603f2187-74f7-4b14-84ee-2e7533135d4f"},"vehicle_type_id":"4","last_reported":1755965424,"current_range_meters":16800,"station_id":"cpo3342slgdg3j2ifvpg","pricing_plan_id":"cebpf4jnsgd1na2vs0mg"},{"bike_id":"13616cc1-1386-4377-b52a-d4977c1d8b3c","system_id":"levelo_inurba_marseille","lat":43.298113,"lon":5.374036,"is_reserved":false,"is_disabled":false,"rental_uris":{"android":"levelo://app?vid=13616cc1-1386-4377-b52a-d4977c1d8b3c","ios":"levelo://app?vid=13616cc1-1386-4377-b52a-d4977c1d8b3c"},"vehicle_type_id":"4","last_reported":1755965424,"current_range_meters":17200,"station_id":"","pricing_plan_id":"cebpf4jnsgd1na2vs0mg"},