{"last_updated":1737090563,"ttl":60,"version":"2.2","data":{"bikes":[{"bike_id":"97285aa9-5761-409a-831f-0e86e3084153","system_id":"levelo_inurba_marseille","lat":43.3133,"lon":5.39688,"is_reserved":false,"is_disabled":false,"rental_uris":{"android":"levelo://app?vid=97285aa9-5761-409a-831f-0e86e3084153","ios":"levelo://app?vid=97285aa9-5761-409a-831f-0e86e3084153"},"vehicle_type_id":"4","last_reported":1737090564,"current_range_meters":38400,"station_id":"ce4bgvp2rcd13ifvqcu0","pricing_plan_id":"cebpf4jnsgd1na2vs0mg"},{"bike_id":"fbba789f-860c-4d62-8452-c64ff2ef0dd3","system_id":"levelo_inurba_marseille","lat":43.25117,"lon":5.40317,"is_reserved":false,"is_disabled":false,"rental_uris":{"android":"levelo://app?vid=fbba789f-860c-4d62-8452-c64ff2ef0dd3","ios":"levelo://app?vid=fbba789f-860c-4d62-8452-c64ff2ef0dd3"},"vehicle_type_id":"4","last_reported":1737090564,"current_range_meters":38800,"station_id":"ce4bhlh2rcd13ifvqgig","pricing_plan_id":"cebpf4jnsgd1na2vs0mg"},{"bike_id":"e40b7c60-2fc0-44af-954b-2ed7110cf526","system_id":"levelo_inurba_marseille","lat":43.2856,"lon":5.39505,"is_reserved":false,"is_disabled":false,"rental_uris":{"android":"levelo://app?vid=e40b7c60-2fc0-44af-954b-2ed7110cf526","ios":"levelo://app?vid=e40b7c60-2fc0-44af-954b-2ed7110cf526"},"vehicle_type_id":"4","last_reported":1737090564,"current_range_meters":19200,"station_id":"ce4bh292rcd13ifvqdg0","pricing_plan_id":"cebpf4jnsgd1na2vs0mg"},{"bike_id":"d1625a4a-8a24-47e6-97c9-23684f501ba7","system_id":"levelo_inurba_marseille","lat":43.25877,"lon":5.39902,"is_reserved":false,"is_disabled":false,"rental_uris":{"android":"levelo://app?vid=d1625a4a-8a24-47e6-97c9-23684f501ba7","ios":"levelo://app?vid=d1625a4a-8a24-47e6-97c9-23684f501ba7"},"vehicle_type_id":"4","last_reported":1737090564,"current_range_meters":19200,"station_id":"ce4bhl92rcd13ifvqghg","pricing_plan_id":"cebpf4jnsgd1na2vs0mg"},{"bike_id":"fcc7858f-7afc-4c13-b0d1-377955f56520","system_id":"levelo_inurba_marseille","lat":43.304128,"lon":5.412861,"is_reserved":false,"is_disabled":false,"rental_uris":{"android":"levelo://app?vid=fcc7858f-7afc-4c13-b0d1-377955f56520","ios":"levelo://app?vid=fcc7858f-7afc-4c13-b0d1-377955f56520"},"vehicle_type_id":"4","last_reported":1737090564,"current_range_meters":7200,"station_id":"ce4bhop2rcd13ifvqh8g","pricing_plan_id":"cebpf4jnsgd1na2vs0mg"},{"bike_id":"a39c946b-f215-435b-b58f-d6dc4c7b0aaf","system_id":"levelo_inurba_marseille","lat":43.28156,"lon":5.42618,"is_reserved":false,"is_disabled":true,"rental_uris":{"android":"levelo://app?vid=a39c946b-f215-435b-b58f-d6dc4c7b0aaf","ios":"levelo://app?vid=a39c946b-f215-435b-b58f-d6dc4c7b0aaf"},"vehicle_type_id":"4","last_reported":1737090564,"current_range_meters":36000,"station_id":"ce4bhnh2rcd13ifvqgug","pricing_plan_id":"cebpf4jnsgd1na2vs0mg"},{"bike_id":"f920b982-cf2b-4f22-a8e5-d4ce681958df","system_id":"levelo_inurba_marseille","lat":43.29799,"lon":5.40413,"is_reserved":false,"is_disabled":false,"rental_uris":{"android":"levelo://app?vid=f920b982-cf2b-4f22-a8e5-d4ce681958df","ios":"levelo://app?vid=f920b982-cf2b-4f22-a8e5-d4ce681958df"},"vehicle_type_id":"4","last_reported":1737090564,"current_range_meters":39200,"station_id":"ce4bh112rcd13ifvqd90","pricing_plan_id":"cebpf4jnsgd1na2vs0mg"},{"bike_id":"4526ff20-897a-402d-8ff0-907831075ba8","system_id":"levelo_inurba_marseille","lat":43.307871,"lon":5.381561,"is_reserved":false,"is_disabled":false,"rental_uris":{"android":"levelo://app?vid=4526ff20-897a-402d-8ff0-907831075ba8","ios":"levelo://app?vid=4526ff20-897a-402d-8ff0-907831075ba8"},"vehicle_type_id":"4","last_reported":1737090564,"current_range_meters":38800,"station_id":"ce4bgt12rcd13ifvqce0","pricing_plan_id":"cebpf4jnsgd1na2vs0mg"},{"bike_id":"5756557f-d524-4c5a-8f29-291d01811e0e","system_id":"levelo_inurba_marseille","lat":43.2844,"lon":5.38492,"is_reserved":false,"is_disabled":false,"rental_uris":{"android":"levelo://app?vid=5756557f-d524-4c5a-8f29-291d01811e0e","ios":"levelo://app?vid=5756557f-d524-4c5a-8f29-291d01811e0e"},"vehicle_type_id":"4","last_reported":1737090564,"current_range_meters":39200,"station_id":"ce4bh8p2rcd13ifvqeb0","pricing_plan_id":"cebpf4jnsgd1na2vs0mg"},{"bike_id":"37452161-8329-4f67-9abc-9c1324bfde65","system_id":"levelo_inurba_marseille","lat":43.30771,"lon":5.3767,"is_reserved":false,"is_disabled":false,"rental_uris":{"android":"levelo://app?vid=37452161-8329-4f67-9abc-9c1324bfde65","ios":"levelo://app?vid=37452161-8329-4f67-9abc-9c1324bfde65"},"vehicle_type_id":"4","last_reported":1737090564,"current_range_meters":11600,"station_id":"ce4bgv92rcd13ifvqcq0","pricing_plan_id":"cebpf4jnsgd1na2vs0mg"},{"bike_id":"25b01166-8b4c-49d6-8386-8f83eb8111f5","system_id":"levelo_inurba_marseille","lat":43.25828,"lon":5.39433,"is_reserved":false,"is_disabled":false,"rental_uris":{"android":"levelo://app?vid=25b01166-8b4c-49d6-8386-8f83eb8111f5","ios":"levelo://app?vid=25b01166-8b4c-49d6-8386-8f83eb8111f5"},"vehicle_type_id":"4","last_reported":1737090564,"current_range_meters":38800,"station_id":"ce4bhip2rcd13ifvqft0","pricing_plan_id":"cebpf4jnsgd1na2vs0mg"},{"bike_id":"f4e3e49e-ddf1-4319-b366-d0a56f98e36d","system_id":"levelo_inurba_marseille","lat":43.25577,"lon":5.38243,"is_reserved":false,"is_disabled":false,"rental_uris":{"android":"levelo://app?vid=f4e3e49e-ddf1-4319-b366-d0a56f98e36d","ios":"levelo://app?vid=f4e3e49e-ddf1-4319-b366-d0a56f98e36d"},"vehicle_type_id":"4","last_reported":1737090564,"current_range_meters":28400,"station_id":"ce4bhih2rcd13ifvqfs0","pricing_plan_id":"cebpf4jnsgd1na2vs0mg"},{"bike_id":"302ab681-9b5d-4689-8679-3cf53f5e36dc","system_id":"levelo_inurba_marseille","lat":43.28718,"lon":5.36101,"is_reserved":false,"is_disabled":false,"rental_uris":{"android":"levelo://app?vid=302ab681-9b5d-4689-8679-3cf53f5e36dc","ios":"levelo://app?vid=302ab681-9b5d-4689-8679-3cf53f5e36dc"},"vehicle_type_id":"4","last_reported":1737090564,"current_range_meters":32000,"station_id":"cki0cbj6b192h4jlfktg","pricing_plan_id":"cebpf4jnsgd1na2vs0mg"},{"bike_id":"4c981b7a-6a20-4f99-8f7f-b78dfe740cbc","system_id":"levelo_inurba_marseille","lat":43.27917,"lon":5.39583,"is_reserved":false,"is_disabled":false,"rental_uris":{"android":"levelo://app?vid=4c981b7a-6a20-4f99-8f7f-b78dfe740cbc","ios":"levelo://app?vid=4c981b7a-6a20-4f99-8f7f-b78dfe740cbc"},"vehicle_type_id":"4","last_reported":1737090564,"current_range_meters":38400,"station_id":"ce4bhf92rcd13ifvqf40","pricing_plan_id":"cebpf4jnsgd1na2vs0mg"},{"bike_id":"044de657-125b-44b9-a9ca-b96ab86f3594","system_id":"levelo_inurba_marseille","lat":43.275512,"lon":5.38426,"is_reserved":false,"is_disabled":false,"rental_uris":{"android":"levelo://app?vid=044de657-125b-44b9-a9ca-b96ab86f3594","ios":"levelo://app?vid=044de657-125b-44b9-a9ca-b96ab86f3594"},"vehicle_type_id":"4","last_reported":1737090564,"current_range_meters":36800,"station_id":"ce4bhh92rcd13ifvqfi0","pricing_plan_id":"cebpf4jnsgd1na2vs0mg"},{"bike_id":"3686f018-e558-4d62-9d71-c8b7629c3c1a","system_id":"levelo_inurba_marseille","lat":43.25887,"lon":5.39888,"is_reserved":false,"is_disabled":false,"rental_uris":{"android":"levelo://app?vid=3686f018-e558-4d62-9d71-c8b7629c3c1a","ios":"levelo://app?vid=3686f018-e558-4d62-9d71-c8b7629c3c1a"},"vehicle_type_id":"4","last_reported":1737090564,"current_range_meters":21600,"station_id":"ce4bhl92rcd13ifvqghg","pricing_plan_id":"cebpf4jnsgd1na2vs0mg"},{"bike_id":"d8522c69-8ae9-443b-aaf1-dbf92740d84f","system_id":"levelo_inurba_marseille","lat":43.23201,"lon":5.39982,"is_reserved":false,"is_disabled":false,"rental_uris":{"android":"levelo://app?vid=d8522c69-8ae9-443b-aaf1-dbf92740d84f","ios":"levelo://app?vid=d8522c69-8ae9-443b-aaf1-dbf92740d84f"},"vehicle_type_id":"4","last_reported":1737090564,"current_range_meters":24800,"station_id":"ce4bhn12rcd13ifvqgqg","pricing_plan_id":"cebpf4jnsgd1na2vs0mg"},{"bike_id":"2bf65692-cbc9-4581-916b-1c0b607a4dbb","system_id":"levelo_inurba_marseille","lat":43.284316,"lon":5.391994,"is_reserved":false,"is_disabled":false,"rental_uris":{"android":"levelo://app?vid=2bf65692-cbc9-4581-916b-1c0b607a4dbb","ios":"levelo://app?vid=2bf65692-cbc9-4581-916b-1c0b607a4dbb"},"vehicle_type_id":"4","last_reported":1737090564,"current_range_meters":25200,"station_id":"ce4bhoh2rcd13ifvqh5g","pricing_plan_id":"cebpf4jnsgd1na2vs0mg"},{"bike_id":"8800286a-027a-4841-87ae-71bd90fd9e19","system_id":"levelo_inurba_marseille","lat":43.28656,"lon":5.36354,"is_reserved":false,"is_disabled":false,"rental_uris":{"android":"levelo://app?vid=8800286a-027a-4841-87ae-71bd90fd9e19","ios":"levelo://app?vid=8800286a-027a-4841-87ae-71bd90fd9e19"},"vehicle_type_id":"4","last_reported":1737090564,"current_range_meters":39200,"station_id":"ce4bhah2rcd13ifvqej0","pricing_plan_id":"cebpf4jnsgd1na2vs0mg"},{"bike_id":"7f02950a-6af8-4077-8bd4-f17cb739a40e","system_id":"levelo_inurba_marseille","lat":43.27072,"lon":5.42285,"is_reserved":false,"is_disabled":false,"rental_uris":{"android":"levelo://app?vid=7f02950a-6af8-4077-8bd4-f17cb739a40e","ios":"levelo://app?vid=7f02950a-6af8-4077-8bd4-f17cb739a40e"},"vehicle_type_id":"4","last_reported":1737090564,"current_range_meters":17600,"station_id":"ce4bhk92rcd13ifvqgb0","pricing_plan_id":"cebpf4jnsgd1na2vs0mg"},{"bike_id":"98431729-94fb-4241-805d-8415886c3e70","system_id":"levelo_inurba_marseille","lat":43.28283,"lon":5.35076,"is_reserved":false,"is_disabled":false,"rental_uris":{"android":"levelo://app?vid=98431729-94fb-4241-805d-8415886c3e70","ios":"levelo://app?vid=98431729-94fb-4241-805d-8415886c3e70"},"vehicle_type_id":"4","last_reported":1737090564,"current_range_meters":22800,"station_id":"ce4bhbp2rcd13ifvqerg","pricing_plan_id":"cebpf4jnsgd1na2vs0mg"},{"bike_id":"718b07eb-688a-4df3-bacc-bf20940de13c","system_id":"levelo_inurba_marseille","lat":43.31541,"lon":5.38011,"is_reserved":false,"is_disabled":false,"rental_uris":{"android":"levelo://app?vid=718b07eb-688a-4df3-bacc-bf20940de13c","ios":"levelo://app?vid=718b07eb-688a-4df3-bacc-bf20940de13c"},"vehicle_type_id":"4","last_reported":1737090564,"current_range_meters":38800,"station_id":"ce4bhsp2rcd13ifvqi50","pricing_plan_id":"cebpf4jnsgd1na2vs0mg"},{"bike_id":"a920ddac-3c1b-47f2-a8b1-da6f51ba3922","system_id":"levelo_inurba_marseille","lat":43.28622,"lon":5.35107,"is_reserved":false,"is_disabled":false,"rental_uris":{"android":"levelo://app?vid=a920ddac-3c1b-47f2-a8b1-da6f51ba3922","ios":"levelo://app?vid=a920ddac-3c1b-47f2-a8b1-da6f51ba3922"},"vehicle_type_id":"4","last_reported":1737090564,"current_range_meters":5600,"station_id":"ce4bhch2rcd13ifvqeug","pricing_plan_id":"cebpf4jnsgd1na2vs0mg"},{"bike_id":"b8225691-11be-4983-9892-fd7f44abb870","system_id":"levelo_inurba_marseille","lat":43.25729,"lon":5.41106,"is_reserved":false,"is_disabled":false,"rental_uris":{"android":"levelo://app?vid=b8225691-11be-4983-9892-fd7f44abb870","ios":"levelo://app?vid=b8225691-11be-4983-9892-fd7f44abb870"},"vehicle_type_id":"4","last_reported":1737090564,"current_range_meters":37600,"station_id":"ce4bhkp2rcd13ifvqgd0","pricing_plan_id":"cebpf4jnsgd1na2vs0mg"},{"bike_id":"aa1c2cd9-ddaa-4aee-8c47-810e68694606","system_id":"levelo_inurba_marseille","lat":43.317046,"lon":5.377897,"is_reserved":false,"is_disabled":false,"rental_uris":{"android":"levelo://app?vid=aa1c2cd9-ddaa-4aee-8c47-810e68694606","ios":"levelo://app?vid=aa1c2cd9-ddaa-4aee-8c47-810e68694606"},"vehicle_type_id":"4","last_reported":1737090564,"current_range_meters":21600,"station_id":"ce4bgth2rcd13ifvqch0","pricing_plan_id":"cebpf4jnsgd1na2vs0mg"},{"bike_id":"94436272-347b-472b-8d27-53e5554457e3","system_id":"levelo_inurba_marseille","lat":43.27227,"lon":5.39222,"is_reserved":false,"is_disabled":false,"rental_uris":{"android":"levelo://app?vid=94436272-347b-472b-8d27-53e5554457e3","ios":"levelo://app?vid=94436272-347b-472b-8d27-53e5554457e3"},"vehicle_type_id":"4","last_reported":1737090564,"current_range_meters":38000,"station_id":"ce4bhhp2rcd13ifvqfm0","pricing_plan_id":"cebpf4jnsgd1na2vs0mg"},{"bike_id":"c4fc9679-1008-473b-9e9b-26f1ed62312e","system_id":"levelo_inurba_marseille","lat":43.229269,"lon":5.353887,"is_reserved":false,"is_disabled":false,"rental_uris":{"android":"levelo://app?vid=c4fc9679-1008-473b-9e9b-26f1ed62312e","ios":"levelo://app?vid=c4fc9679-1008-473b-9e9b-26f1ed62312e"},"vehicle_type_id":"4","last_reported":1737090564,"current_range_meters":19600,"station_id":"cpo3532slgdg3j2ikp40","pricing_plan_id":"cebpf4jnsgd1na2vs0mg"},{"bike_id":"87911755-e5ea-4b1c-85d9-7185179f27cb","system_id":"levelo_inurba_marseille","lat":43.28467,"lon":5.38409,"is_reserved":false,"is_disabled":false,"rental_uris":{"android":"levelo://app?vid=87911755-e5ea-4b1c-85d9-7185179f27cb","ios":"levelo://app?vid=87911755-e5ea-4b1c-85d9-7185179f27cb"},"vehicle_type_id":"4","last_reported":1737090564,"current_range_meters":38000,"station_id":"ce4bh512rcd13ifvqe3g","pricing_plan_id":"cebpf4jnsgd1na2vs0mg"},{"bike_id":"220ab61f-f38e-47e4-81a4-94aca747a8b9","system_id":"levelo_inurba_marseille","lat":43.24069,"lon":5.3773,"is_reserved":false,"is_disabled":false,"rental_uris":{"android":"levelo://app?vid=220ab61f-f38e-47e4-81a4-94aca747a8b9","ios":"levelo://app?vid=220ab61f-f38e-47e4-81a4-94aca747a8b9"},"vehicle_type_id":"4","last_reported":1737090564,"current_range_meters":38000,"station_id":"ce4bhnp2rcd13ifvqgvg","pricing_plan_id":"cebpf4jnsgd1na2vs0mg"},{"bike_id":"0e842b39-329d-48e2-b781-7e3babc96cf4","system_id":"levelo_inurba_marseille","lat":43.2294,"lon":5.35363,"is_reserved":false,"is_disabled":false,"rental_uris":{"android":"levelo://app?vid=0e842b39-329d-48e2-b781-7e3babc96cf4","ios":"levelo://app?vid=0e842b39-329d-48e2-b781-7e3babc96cf4"},"vehicle_type_id":"4","last_reported":1737090564,"current_range_meters":10000,"station_id":"cpo3532slgdg3j2ikp40","pricing_plan_id":"cebpf4jnsgd1na2vs0mg"},{"bike_id":"02d57b27-63b4-40a8-801a-daad74368e5a","system_id":"levelo_inurba_marseille","lat":43.28693,"lon":5.37402,"is_reserved":false,"is_disabled":false,"rental_uris":{"android":"levelo://app?vid=02d57b27-63b4-40a8-801a-daad74368e5a","ios":"levelo://app?vid=02d57b27-63b4-40a8-801a-daad74368e5a"},"vehicle_type_id":"4","last_reported":1737090564,"current_range_meters":35600,"station_id":"ce4bh3p2rcd13ifvqdq0","pricing_plan_id":"cebpf4jnsgd1na2vs0mg"},{"bike_id":"c9806663-5f37-40a2-b61c-e634d1492aa4","system_id":"levelo_inurba_marseille","lat":43.23967,"lon":5.36625,"is_reserved":false,"is_disabled":false,"rental_uris":{"android":"levelo://app?vid=c9806663-5f37-40a2-b61c-e634d1492aa4","ios":"levelo://app?vid=c9806663-5f37-40a2-b61c-e634d1492aa4"},"vehicle_type_id":"4","last_reported":1737090564,"current_range_meters":16400,"station_id":"ce4bhi12rcd13ifvqfp0","pricing_plan_id":"cebpf4jnsgd1na2vs0mg"},{"bike_id":"99edffd1-a5ba-4759-befa-f12a00faec89","system_id":"levelo_inurba_marseille","lat":43.28576,"lon":5.3948,"is_reserved":false,"is_disabled":true,"rental_uris":{"android":"levelo://app?vid=99edffd1-a5ba-4759-befa-f12a00faec89","ios":"levelo://app?vid=99edffd1-a5ba-4759-befa-f12a00faec89"},"vehicle_type_id":"4","last_reported":1737090564,"current_range_meters":10800,"station_id":"ce4bh292rcd13ifvqdg0","pricing_plan_id":"cebpf4jnsgd1na2vs0mg"},{"bike_id":"0ac8c9de-930b-4f5b-af4a-b48038f658a1","system_id":"levelo_inurba_marseille","lat":43.28024,"lon":5.36959,"is_reserved":false,"is_disabled":false,"rental_uris":{"android":"levelo://app?vid=0ac8c9de-930b-4f5b-af4a-b48038f658a1","ios":"levelo://app?vid=0ac8c9de-930b-4f5b-af4a-b48038f658a1"},"vehicle_type_id":"4","last_reported":1737090564,"current_range_meters":16400,"station_id":"ce4bha12rcd13ifvqef0","pricing_plan_id":"cebpf4jnsgd1na2vs0mg"},{"bike_id":"240793b7-2334-47eb-b07b-36073cab0422","system_id":"levelo_inurba_marseille","lat":43.231852,"lon":5.39979,"is_reserved":false,"is_disabled":false,"rental_uris":{"android":"levelo://app?vid=240793b7-2334-47eb-b07b-36073cab0422","ios":"levelo://app?vid=240793b7-2334-47eb-b07b-36073cab0422"},"vehicle_type_id":"4","last_reported":1737090564,"current_range_meters":38800,"station_id":"ce4bhn12rcd13ifvqgqg","pricing_plan_id":"cebpf4jnsgd1na2vs0mg"},{"bike_id":"4c95b24d-5e81-4bcc-9c3f-8e13fb6505af","system_id":"levelo_inurba_marseille","lat":43.27312,"lon":5.39932,"is_reserved":false,"is_disabled":false,"rental_uris":{"android":"levelo://app?vid=4c95b24d-5e81-4bcc-9c3f-8e13fb6505af","ios":"levelo://app?vid=4c95b24d-5e81-4bcc-9c3f-8e13fb6505af"},"vehicle_type_id":"4","last_reported":1737090564,"current_range_meters":36800,"station_id":"","pricing_plan_id":"cebpf4jnsgd1na2vs0mg"},{"bike_id":"8f67b9cc-1ed4-4e29-8a11-d155f996044f","system_id":"levelo_inurba_marseille","lat":43.290403,"lon":5.39965,"is_reserved":false,"is_disabled":false,"rental_uris":{"android":"levelo://app?vid=8f67b9cc-1ed4-4e29-8a11-d155f996044f","ios":"levelo://app?vid=8f67b9cc-1ed4-4e29-8a11-d155f996044f"},"vehicle_type_id":"4","last_reported":1737090564,"current_range_meters":27600,"station_id":"ce4bh392rcd13ifvqdm0","pricing_plan_id":"cebpf4jnsgd1na2vs0mg"},{"bike_id":"a262b8c3-1be1-4041-a54a-9049b3ba3668","system_id":"levelo_inurba_marseille","lat":43.28702,"lon":5.3609,"is_reserved":false,"is_disabled":false,"rental_uris":{"android":"levelo://app?vid=a262b8c3-1be1-4041-a54a-9049b3ba3668","ios":"levelo://app?vid=a262b8c3-1be1-4041-a54a-9049b3ba3668"},"vehicle_type_id":"4","last_reported":1737090564,"current_range_meters":39200,"station_id":"cki0cbj6b192h4jlfktg","pricing_plan_id":"cebpf4jnsgd1na2vs0mg"},{"bike_id":"8240d19d-0738-4c35-b97a-8d2f95fb533d","system_id":"levelo_inurba_marseille","lat":43.27636,"lon":5.36093,"is_reserved":false,"is_disabled":false,"rental_uris":{"android":"levelo://app?vid=8240d19d-0738-4c35-b97a-8d2f95fb533d","ios":"levelo://app?vid=8240d19d-0738-4c35-b97a-8d2f95fb533d"},"vehicle_type_id":"4","last_reported":1737090564,"current_range_meters":38800,"station_id":"ce4bgj92rcd13ifvqbe0","pricing_plan_id":"cebpf4jnsgd1na2vs0mg"},{"bike_id":"a8513bfd-4fd3-4342-a553-667ab2f2734a","system_id":"levelo_inurba_marseille","lat":43.314799,"lon":5.373033,"is_reserved":false,"is_disabled":false,"rental_uris":{"android":"levelo://app?vid=a8513bfd-4fd3-4342-a553-667ab2f2734a","ios":"levelo://app?vid=a8513bfd-4fd3-4342-a553-667ab2f2734a"},"vehicle_type_id":"4","last_reported":1737090564,"current_range_meters":30000,"station_id":"ce4bgt12rcd13ifvqcd0","pricing_plan_id":"cebpf4jnsgd1na2vs0mg"},{"bike_id":"70199fc2-df6a-4ec4-910c-a63d7bb31e5e","system_id":"levelo_inurba_marseille","lat":43.29182,"lon":5.35806,"is_reserved":false,"is_disabled":false,"rental_uris":{"android":"levelo://app?vid=70199fc2-df6a-4ec4-910c-a63d7bb31e5e","ios":"levelo://app?vid=70199fc2-df6a-4ec4-910c-a63d7bb31e5e"},"vehicle_type_id":"4","last_reported":1737090564,"current_range_meters":38800,"station_id":"ce4bhb12rcd13ifvqel0","pricing_plan_id":"cebpf4jnsgd1na2vs0mg"},{"bike_id":"7edfd060-522f-4e8d-bd3c-29a71f6f685e","system_id":"levelo_inurba_marseille","lat":43.275646,"lon":5.384181,"is_reserved":false,"is_disabled":false,"rental_uris":{"android":"levelo://app?vid=7edfd060-522f-4e8d-bd3c-29a71f6f685e","ios":"levelo://app?vid=7edfd060-522f-4e8d-bd3c-29a71f6f685e"},"vehicle_type_id":"4","last_reported":1737090564,"current_range_meters":38800,"station_id":"ce4bhh92rcd13ifvqfi0","pricing_plan_id":"cebpf4jnsgd1na2vs0mg"},{"bike_id":"66ec8711-3dbc-48f7-b091-25773ac6b77c","system_id":"levelo_inurba_marseille","lat":43.28141,"lon":5.44201,"is_reserved":false,"is_disabled":true,"rental_uris":{"android":"levelo://app?vid=66ec8711-3dbc-48f7-b091-25773ac6b77c","ios":"levelo://app?vid=66ec8711-3dbc-48f7-b091-25773ac6b77c"},"vehicle_type_id":"4","last_reported":1737090564,"current_range_meters":0,"station_id":"","pricing_plan_id":"cebpf4jnsgd1na2vs0mg"},{"bike_id":"de8d341a-7a63-48f7-8ea6-a2be755ab501","system_id":"levelo_inurba_marseille","lat":43.27175,"lon":5.40982,"is_reserved":false,"is_disabled":false,"rental_uris":{"android":"levelo://app?vid=de8d341a-7a63-48f7-8ea6-a2be755ab501","ios":"levelo://app?vid=de8d341a-7a63-48f7-8ea6-a2be755ab501"},"vehicle_type_id":"4","last_reported":1737090564,"current_range_meters":9200,"station_id":"ce4bhl12rcd13ifvqgf0","pricing_plan_id":"cebpf4jnsgd1na2vs0mg"},{"bike_id":"85b17b88-0932-436f-a3cd-d6633f9898b6","system_id":"levelo_inurba_marseille","lat":43.23195,"lon":5.39979,"is_reserved":false,"is_disabled":false,"rental_uris":{"android":"levelo://app?vid=85b17b88-0932-436f-a3cd-d6633f9898b6","ios":"levelo://app?vid=85b17b88-0932-436f-a3cd-d6633f9898b6"},"vehicle_type_id":"4","last_reported":1737090564,"current_range_meters":38800,"station_id":"ce4bhn12rcd13ifvqgqg","pricing_plan_id":"cebpf4jnsgd1na2vs0mg"},{"bike_id":"28b285d3-b5b9-40e4-89bb-f54a3d8cd4d6","system_id":"levelo_inurba_marseille","lat":43.28729,"lon":5.36078,"is_reserved":false,"is_disabled":false,"rental_uris":{"android":"levelo://app?vid=28b285d3-b5b9-40e4-89bb-f54a3d8cd4d6","ios":"levelo://app?vid=28b285d3-b5b9-40e4-89bb-f54a3d8cd4d6"},"vehicle_type_id":"4","last_reported":1737090564,"current_range_meters":37600,"station_id":"cki0cbj6b192h4jlfktg","pricing_plan_id":"cebpf4jnsgd1na2vs0mg"},{"bike_id":"d2ed35f8-7da5-4b4b-8781-01e92d76cd9e","system_id":"levelo_inurba_marseille","lat":43.28423,"lon":5.37518,"is_reserved":false,"is_disabled":false,"rental_uris":{"android":"levelo://app?vid=d2ed35f8-7da5-4b4b-8781-01e92d76cd9e","ios":"levelo://app?vid=d2ed35f8-7da5-4b4b-8781-01e92d76cd9e"},"vehicle_type_id":"4","last_reported":1737090564,"current_range_meters":38000,"station_id":"ce4bh412rcd13ifvqds0","pricing_plan_id":"cebpf4jnsgd1na2vs0mg"},{"bike_id":"18d8deee-1c5e-43f2-acc4-897789b5ade0","system_id":"levelo_inurba_marseille","lat":43.284439,"lon":5.391938,"is_reserved":false,"is_disabled":false,"rental_uris":{"android":"levelo://app?vid=18d8deee-1c5e-43f2-acc4-897789b5ade0","ios":"levelo://app?vid=18d8deee-1c5e-43f2-acc4-897789b5ade0"},"vehicle_type_id":"4","last_reported":1737090564,"current_range_meters":38800,"station_id":"ce4bhoh2rcd13ifvqh5g","pricing_plan_id":"cebpf4jnsgd1na2vs0mg"},{"bike_id":"09d51a14-46a9-4268-9e5f-24188260f5a5","system_id":"levelo_inurba_marseille","lat":43.31073,"lon":5.3835,"is_reserved":false,"is_disabled":false,"rental_uris":{"android":"levelo://app?vid=09d51a14-46a9-4268-9e5f-24188260f5a5","ios":"levelo://app?vid=09d51a14-46a9-4268-9e5f-24188260f5a5"},"vehicle_type_id":"4","last_reported":1737090564,"current_range_meters":32000,"station_id":"ce4bgv92rcd13ifvqcr0","pricing_plan_id":"cebpf4jnsgd1na2vs0mg"},{"bike_id":"a081f130-2639-43c2-92eb-70e044a75aa7","system_id":"levelo_inurba_marseille","lat":43.31495,"lon":5.37253,"is_reserved":false,"is_disabled":false,"rental_uris":{"android":"levelo://app?vid=a081f130-2639-43c2-92eb-70e044a75aa7","ios":"levelo://app?vid=a081f130-2639-43c2-92eb-70e044a75aa7"},"vehicle_type_id":"4","last_reported":1737090564,"current_range_meters":37600,"station_id":"ce4bgt12rcd13ifvqcd0","pricing_plan_id":"cebpf4jnsgd1na2vs0mg"},{"bike_id":"2b00c272-dc80-4324-9629-cced2ff56b66","system_id":"levelo_inurba_marseille","lat":43.30501,"lon":5.38085,"is_reserved":false,"is_disabled":false,"rental_uris":{"android":"levelo://app?vid=2b00c272-dc80-4324-9629-cced2ff56b66","ios":"levelo://app?vid=2b00c272-dc80-4324-9629-cced2ff56b66"},"vehicle_type_id":"4","last_reported":1737090564,"current_range_meters":9200,"station_id":"","pricing_plan_id":"cebpf4jnsgd1na2vs0mg"},{"bike_id":"f51b8e4a-8d36-4139-8767-64d60aa071ce","system_id":"levelo_inurba_marseille","lat":43.31221,"lon":5.36862,"is_reserved":false,"is_disabled":false,"rental_uris":{"android":"levelo://app?vid=f51b8e4a-8d36-4139-8767-64d60aa071ce","ios":"levelo://app?vid=f51b8e4a-8d36-4139-8767-64d60aa071ce"},"vehicle_type_id":"4","last_reported":1737090564,"current_range_meters":38800,"station_id":"ce4bgl92rcd13ifvqbq0","pricing_plan_id":"cebpf4jnsgd1na2vs0mg"},{"bike_id":"87707ecc-a555-4041-b4c9-046040370b07","system_id":"levelo_inurba_marseille","lat":43.31992,"lon":5.3814,"is_reserved":false,"is_disabled":false,"rental_uris":{"android":"levelo://app?vid=87707ecc-a555-4041-b4c9-046040370b07","ios":"levelo://app?vid=87707ecc-a555-4041-b4c9-046040370b07"},"vehicle_type_id":"4","last_reported":1737090564,"current_range_meters":38800,"station_id":"ce4bhr12rcd13ifvqhpg","pricing_plan_id":"cebpf4jnsgd1na2vs0mg"},{"bike_id":"1c8bd864-0efd-419e-86a4-cee1dd52b311","system_id":"levelo_inurba_marseille","lat":43.28984,"lon":5.39979,"is_reserved":false,"is_disabled":false,"rental_uris":{"android":"levelo://app?vid=1c8bd864-0efd-419e-86a4-cee1dd52b311","ios":"levelo://app?vid=1c8bd864-0efd-419e-86a4-cee1dd52b311"},"vehicle_type_id":"4","last_reported":1737090564,"current_range_meters":35200,"station_id":"","pricing_plan_id":"cebpf4jnsgd1na2vs0mg"},{"bike_id":"f3a22efe-885e-4b13-9ca2-776fdd2f8daa","system_id":"levelo_inurba_marseille","lat":43.279151,"lon":5.395824,"is_reserved":false,"is_disabled":false,"rental_uris":{"android":"levelo://app?vid=f3a22efe-885e-4b13-9ca2-776fdd2f8daa","ios":"levelo://app?vid=f3a22efe-885e-4b13-9ca2-776fdd2f8daa"},"vehicle_type_id":"4","last_reported":1737090564,"current_range_meters":24400,"station_id":"ce4bhf92rcd13ifvqf40","pricing_plan_id":"cebpf4jnsgd1na2vs0mg"},{"bike_id":"4d21a537-3816-432c-8aec-6acfffac2e27","system_id":"levelo_inurba_marseille","lat":43.318873,"lon":5.407264,"is_reserved":false,"is_disabled":false,"rental_uris":{"android":"levelo://app?vid=4d21a537-3816-432c-8aec-6acfffac2e27","ios":"levelo://app?vid=4d21a537-3816-432c-8aec-6acfffac2e27"},"vehicle_type_id":"4","last_reported":1737090564,"current_range_meters":37600,"station_id":"ce4bhq12rcd13ifvqhig","pricing_plan_id":"cebpf4jnsgd1na2vs0mg"},{"bike_id":"e6bc1741-36d9-44de-83fb-05dadc8f1cb4","system_id":"levelo_inurba_marseille","lat":43.29816,"lon":5.38097,"is_reserved":false,"is_disabled":false,"rental_uris":{"android":"levelo://app?vid=e6bc1741-36d9-44de-83fb-05dadc8f1cb4","ios":"levelo://app?vid=e6bc1741-36d9-44de-83fb-05dadc8f1cb4"},"vehicle_type_id":"4","last_reported":1737090564,"current_range_meters":38800,"station_id":"ce4bgip2rcd13ifvqbb0","pricing_plan_id":"cebpf4jnsgd1na2vs0mg"},{"bike_id":"0a958d4e-4d20-4701-8fa8-baa00cba515e","system_id":"levelo_inurba_marseille","lat":43.29788,"lon":5.37109,"is_reserved":false,"is_disabled":false,"rental_uris":{"android":"levelo://app?vid=0a958d4e-4d20-4701-8fa8-baa00cba515e","ios":"levelo://app?vid=0a958d4e-4d20-4701-8fa8-baa00cba515e"},"vehicle_type_id":"4","last_reported":1737090564,"current_range_meters":38800,"station_id":"ce4bgop2rcd13ifvqc1g","pricing_plan_id":"cebpf4jnsgd1na2vs0mg"},{"bike_id":"fa53afd0-c3c0-46c2-be7e-d056eb14f6b8","system_id":"levelo_inurba_marseille","lat":43.261,"lon":5.39377,"is_reserved":false,"is_disabled":false,"rental_uris":{"android":"levelo://app?vid=fa53afd0-c3c0-46c2-be7e-d056eb14f6b8","ios":"levelo://app?vid=fa53afd0-c3c0-46c2-be7e-d056eb14f6b8"},"vehicle_type_id":"4","last_reported":1737090564,"current_range_meters":37600,"station_id":"ce4bhh92rcd13ifvqfj0","pricing_plan_id":"cebpf4jnsgd1na2vs0mg"},{"bike_id":"a47874b2-92b6-4162-9330-775ee9873e24","system_id":"levelo_inurba_marseille","lat":43.323466,"lon":5.4062,"is_reserved":false,"is_disabled":false,"rental_uris":{"android":"levelo://app?vid=a47874b2-92b6-4162-9330-775ee9873e24","ios":"levelo://app?vid=a47874b2-92b6-4162-9330-775ee9873e24"},"vehicle_type_id":"4","last_reported":1737090564,"current_range_meters":16400,"station_id":"ce4bhq92rcd13ifvqhjg","pricing_plan_id":"cebpf4jnsgd1na2vs0mg"},{"bike_id":"07a2cb33-2eed-4a29-8b19-b248e5658320","system_id":"levelo_inurba_marseille","lat":43.30642,"lon":5.40085,"is_reserved":false,"is_disabled":false,"rental_uris":{"android":"levelo://app?vid=07a2cb33-2eed-4a29-8b19-b248e5658320","ios":"levelo://app?vid=07a2cb33-2eed-4a29-8b19-b248e5658320"},"vehicle_type_id":"4","last_reported":1737090564,"current_range_meters":38800,"station_id":"ce4bh112rcd13ifvqda0","pricing_plan_id":"cebpf4jnsgd1na2vs0mg"},{"bike_id":"c8e3ea81-f477-49c4-a720-87f4f6251591","system_id":"levelo_inurba_marseille","lat":43.30879,"lon":5.39621,"is_reserved":false,"is_disabled":false,"rental_uris":{"android":"levelo://app?vid=c8e3ea81-f477-49c4-a720-87f4f6251591","ios":"levelo://app?vid=c8e3ea81-f477-49c4-a720-87f4f6251591"},"vehicle_type_id":"4","last_reported":1737090564,"current_range_meters":38800,"station_id":"ce4bh012rcd13ifvqcv0","pricing_plan_id":"cebpf4jnsgd1na2vs0mg"},{"bike_id":"46ce5eee-7728-4c53-9661-714af7e3c0a3","system_id":"levelo_inurba_marseille","lat":43.284961,"lon":5.385728,"is_reserved":false,"is_disabled":false,"rental_uris":{"android":"levelo://app?vid=46ce5eee-7728-4c53-9661-714af7e3c0a3","ios":"levelo://app?vid=46ce5eee-7728-4c53-9661-714af7e3c0a3"},"vehicle_type_id":"4","last_reported":1737090564,"current_range_meters":10800,"station_id":"ce4bh8p2rcd13ifvqeb0","pricing_plan_id":"cebpf4jnsgd1na2vs0mg"},{"bike_id":"155dbf4b-d6fe-46aa-9097-9994452a5158","system_id":"levelo_inurba_marseille","lat":43.230657,"lon":5.35492,"is_reserved":false,"is_disabled":false,"rental_uris":{"android":"levelo://app?vid=155dbf4b-d6fe-46aa-9097-9994452a5158","ios":"levelo://app?vid=155dbf4b-d6fe-46aa-9097-9994452a5158"},"vehicle_type_id":"4","last_reported":1737090564,"current_range_meters":6800,"station_id":"cpo3342slgdg3j2ifvpg","pricing_plan_id":"cebpf4jnsgd1na2vs0mg"},{"bike_id":"44d65a31-bb68-4e49-86bf-b4d0ff0902f2","system_id":"levelo_inurba_marseille","lat":43.28449,"lon":5.35899,"is_reserved":false,"is_disabled":false,"rental_uris":{"android":"levelo://app?vid=44d65a31-bb68-4e49-86bf-b4d0ff0902f2","ios":"levelo://app?vid=44d65a31-bb68-4e49-86bf-b4d0ff0902f2"},"vehicle_type_id":"4","last_reported":1737090564,"current_range_meters":38400,"station_id":"ce4bhah2rcd13ifvqei0","pricing_plan_id":"cebpf4jnsgd1na2vs0mg"},{"bike_id":"80bc6287-ce2b-4ae4-b9d5-67d3150daa6d","system_id":"levelo_inurba_marseille","lat":43.271733,"lon":5.409922,"is_reserved":false,"is_disabled":false,"rental_uris":{"android":"levelo://app?vid=80bc6287-ce2b-4ae4-b9d5-67d3150daa6d","ios":"levelo://app?vid=80bc6287-ce2b-4ae4-b9d5-67d3150daa6d"},"vehicle_type_id":"4","last_reported":1737090564,"current_range_meters":26800,"station_id":"ce4bhl12rcd13ifvqgf0","pricing_plan_id":"cebpf4jnsgd1na2vs0mg"},{"bike_id":"06a2e876-604b-4466-b27d-2e7dee553ec8","system_id":"levelo_inurba_marseille","lat":43.250895,"lon":5.395131,"is_reserved":false,"is_disabled":false,"rental_uris":{"android":"levelo://app?vid=06a2e876-604b-4466-b27d-2e7dee553ec8","ios":"levelo://app?vid=06a2e876-604b-4466-b27d-2e7dee553ec8"},"vehicle_type_id":"4","last_reported":1737090564,"current_range_meters":4000,"station_id":"ce4bhm12rcd13ifvqgkg","pricing_plan_id":"cebpf4jnsgd1na2vs0mg"},{"bike_id":"6c1eb061-4d0a-4ea5-acf9-07045a27131a","system_id":"levelo_inurba_marseille","lat":43.313706,"lon":5.384996,"is_reserved":false,"is_disabled":false,"rental_uris":{"android":"levelo://app?vid=6c1eb061-4d0a-4ea5-acf9-07045a27131a","ios":"levelo://app?vid=6c1eb061-4d0a-4ea5-acf9-07045a27131a"},"vehicle_type_id":"4","last_reported":1737090564,"current_range_meters":38800,"station_id":"ce4bgt92rcd13ifvqcf0","pricing_plan_id":"cebpf4jnsgd1na2vs0mg"},{"bike_id":"91dd189b-5adb-487a-9bc6-b2591da729ec","system_id":"levelo_inurba_marseille","lat":43.33753,"lon":5.3919,"is_reserved":false,"is_disabled":false,"rental_uris":{"android":"levelo://app?vid=91dd189b-5adb-487a-9bc6-b2591da729ec","ios":"levelo://app?vid=91dd189b-5adb-487a-9bc6-b2591da729ec"},"vehicle_type_id":"4","last_reported":1737090564,"current_range_meters":28400,"station_id":"ce4bhr92rcd13ifvqhsg","pricing_plan_id":"cebpf4jnsgd1na2vs0mg"},{"bike_id":"ca0daeb3-551a-47db-9568-cfb249748609","system_id":"levelo_inurba_marseille","lat":43.299791,"lon":5.385093,"is_reserved":false,"is_disabled":true,"rental_uris":{"android":"levelo://app?vid=ca0daeb3-551a-47db-9568-cfb249748609","ios":"levelo://app?vid=ca0daeb3-551a-47db-9568-cfb249748609"},"vehicle_type_id":"4","last_reported":1737090564,"current_range_meters":26800,"station_id":"ce4bgj92rcd13ifvqbd0","pricing_plan_id":"cebpf4jnsgd1na2vs0mg"},{"bike_id":"ef0a295e-6f2c-40d3-853b-67ee4b529971","system_id":"levelo_inurba_marseille","lat":43.295103,"lon":5.394093,"is_reserved":false,"is_disabled":false,"rental_uris":{"android":"levelo://app?vid=ef0a295e-6f2c-40d3-853b-67ee4b529971","ios":"levelo://app?vid=ef0a295e-6f2c-40d3-853b-67ee4b529971"},"vehicle_type_id":"4","last_reported":1737090564,"current_range_meters":6000,"station_id":"ce4bh292rcd13ifvqdf0","pricing_plan_id":"cebpf4jnsgd1na2vs0mg"},{"bike_id":"160c4de7-7f2e-4ddd-89ef-4765ad4546e8","system_id":"levelo_inurba_marseille","lat":43.29,"lon":5.35605,"is_reserved":false,"is_disabled":false,"rental_uris":{"android":"levelo://app?vid=160c4de7-7f2e-4ddd-89ef-4765ad4546e8","ios":"levelo://app?vid=160c4de7-7f2e-4ddd-89ef-4765ad4546e8"},"vehicle_type_id":"4","last_reported":1737090564,"current_range_meters":35600,"station_id":"ce4bhb92rcd13ifvqen0","pricing_plan_id":"cebpf4jnsgd1na2vs0mg"},{"bike_id":"48797849-8121-4d6d-aaf8-da32dceb5e88","system_id":"levelo_inurba_marseille","lat":43.285633,"lon":5.395038,"is_reserved":false,"is_disabled":false,"rental_uris":{"android":"levelo://app?vid=48797849-8121-4d6d-aaf8-da32dceb5e88","ios":"levelo://app?vid=48797849-8121-4d6d-aaf8-da32dceb5e88"},"vehicle_type_id":"4","last_reported":1737090564,"current_range_meters":38800,"station_id":"ce4bh292rcd13ifvqdg0","pricing_plan_id":"cebpf4jnsgd1na2vs0mg"},{"bike_id":"f835befa-e0c4-4cbe-a2f0-932b8650c0b0","system_id":"levelo_inurba_marseille","lat":43.23193,"lon":5.39975,"is_reserved":false,"is_disabled":false,"rental_uris":{"android":"levelo://app?vid=f835befa-e0c4-4cbe-a2f0-932b8650c0b0","ios":"levelo://app?vid=f835befa-e0c4-4cbe-a2f0-932b8650c0b0"},"vehicle_type_id":"4","last_reported":1737090564,"current_range_meters":12800,"station_id":"ce4bhn12rcd13ifvqgqg","pricing_plan_id":"cebpf4jnsgd1na2vs0mg"},{"bike_id":"41b0b4ec-7526-4290-96f9-44cbe4cd1ada","system_id":"levelo_inurba_marseille","lat":43.26789,"lon":5.3942,"is_reserved":false,"is_disabled":true,"rental_uris":{"android":"levelo://app?vid=41b0b4ec-7526-4290-96f9-44cbe4cd1ada","ios":"levelo://app?vid=41b0b4ec-7526-4290-96f9-44cbe4cd1ada"},"vehicle_type_id":"4","last_reported":1737090564,"current_range_meters":18000,"station_id":"ce4bhh12rcd13ifvqfg0","pricing_plan_id":"cebpf4jnsgd1na2vs0mg"},{"bike_id":"2351632a-b5eb-4ea8-bafe-04f0d75ace5c","system_id":"levelo_inurba_marseille","lat":43.30606,"lon":5.37227,"is_reserved":false,"is_disabled":false,"rental_uris":{"android":"levelo://app?vid=2351632a-b5eb-4ea8-bafe-04f0d75ace5c","ios":"levelo://app?vid=2351632a-b5eb-4ea8-bafe-04f0d75ace5c"},"vehicle_type_id":"4","last_reported":1737090564,"current_range_meters":34000,"station_id":"ce4bgqh2rcd13ifvqc4g","pricing_plan_id":"cebpf4jnsgd1na2vs0mg"},{"bike_id":"dd83d1be-c2fa-4d27-a156-169c858b21cb","system_id":"levelo_inurba_marseille","lat":43.306568,"lon":5.400736,"is_reserved":false,"is_disabled":false,"rental_uris":{"android":"levelo://app?vid=dd83d1be-c2fa-4d27-a156-169c858b21cb","ios":"levelo://app?vid=dd83d1be-c2fa-4d27-a156-169c858b21cb"},"vehicle_type_id":"4","last_reported":1737090564,"current_range_meters":38800,"station_id":"ce4bh112rcd13ifvqda0","pricing_plan_id":"cebpf4jnsgd1na2vs0mg"},{"bike_id":"4d67d339-e8e1-4f5a-8086-1d6e90a5223c","system_id":"levelo_inurba_marseille","lat":43.31437,"lon":5.37601,"is_reserved":false,"is_disabled":false,"rental_uris":{"android":"levelo://app?vid=4d67d339-e8e1-4f5a-8086-1d6e90a5223c","ios":"levelo://app?vid=4d67d339-e8e1-4f5a-8086-1d6e90a5223c"},"vehicle_type_id":"4","last_reported":1737090564,"current_range_meters":37600,"station_id":"","pricing_plan_id":"cebpf4jnsgd1na2vs0mg"},{"bike_id":"04ab2eff-d3a3-4ed1-81e9-0dbaaed79129","system_id":"levelo_inurba_marseille","lat":43.31116,"lon":5.37762,"is_reserved":false,"is_disabled":false,"rental_uris":{"android":"levelo://app?vid=04ab2eff-d3a3-4ed1-81e9-0dbaaed79129","ios":"levelo://app?vid=04ab2eff-d3a3-4ed1-81e9-0dbaaed79129"},"vehicle_type_id":"4","last_reported":1737090564,"current_range_meters":35600,"station_id":"ce4bgt92rcd13ifvqcg0","pricing_plan_id":"cebpf4jnsgd1na2vs0mg"},{"bike_id":"4380f0ba-ebac-4c81-a1ad-fa15ed8c6bf4","system_id":"levelo_inurba_marseille","lat":43.29317,"lon":5.40101,"is_reserved":false,"is_disabled":false,"rental_uris":{"android":"levelo://app?vid=4380f0ba-ebac-4c81-a1ad-fa15ed8c6bf4","ios":"levelo://app?vid=4380f0ba-ebac-4c81-a1ad-fa15ed8c6bf4"},"vehicle_type_id":"4","last_reported":1737090564,"current_range_meters":12800,"station_id":"ce4bh312rcd13ifvqdk0","pricing_plan_id":"cebpf4jnsgd1na2vs0mg"},{"bike_id":"9dd5eb0e-e4b7-4224-8da7-7d77946e21bf","system_id":"levelo_inurba_marseille","lat":43.3102,"lon":5.38715,"is_reserved":false,"is_disabled":false,"rental_uris":{"android":"levelo://app?vid=9dd5eb0e-e4b7-4224-8da7-7d77946e21bf","ios":"levelo://app?vid=9dd5eb0e-e4b7-4224-8da7-7d77946e21bf"},"vehicle_type_id":"4","last_reported":1737090564,"current_range_meters":35200,"station_id":"","pricing_plan_id":"cebpf4jnsgd1na2vs0mg"},{"bike_id":"2c839bfc-228b-4afd-9c45-0e54b8f36672","system_id":"levelo_inurba_marseille","lat":43.24625,"lon":5.38882,"is_reserved":false,"is_disabled":false,"rental_uris":{"android":"levelo://app?vid=2c839bfc-228b-4afd-9c45-0e54b8f36672","ios":"levelo://app?vid=2c839bfc-228b-4afd-9c45-0e54b8f36672"},"vehicle_type_id":"4","last_reported":1737090564,"current_range_meters":38800,"station_id":"ce4bhg12rcd13ifvqf60","pricing_plan_id":"cebpf4jnsgd1na2vs0mg"},{"bike_id":"dcd8c243-6fd7-4dee-ade4-644579790105","system_id":"levelo_inurba_marseille","lat":43.28439,"lon":5.39197,"is_reserved":false,"is_disabled":false,"rental_uris":{"android":"levelo://app?vid=dcd8c243-6fd7-4dee-ade4-644579790105","ios":"levelo://app?vid=dcd8c243-6fd7-4dee-ade4-644579790105"},"vehicle_type_id":"4","last_reported":1737090564,"current_range_meters":37600,"station_id":"ce4bhoh2rcd13ifvqh5g","pricing_plan_id":"cebpf4jnsgd1na2vs0mg"},{"bike_id":"0ffbb6d5-5f43-44c9-bcfe-382d025fc0c1","system_id":"levelo_inurba_marseille","lat":43.24653,"lon":5.38163,"is_reserved":false,"is_disabled":false,"rental_uris":{"android":"levelo://app?vid=0ffbb6d5-5f43-44c9-bcfe-382d025fc0c1","ios":"levelo://app?vid=0ffbb6d5-5f43-44c9-bcfe-382d025fc0c1"},"vehicle_type_id":"4","last_reported":1737090564,"current_range_meters":16800,"station_id":"ce4bhih2rcd13ifvqfr0","pricing_plan_id":"cebpf4jnsgd1na2vs0mg"},{"bike_id":"fed11d0f-977e-443b-a693-d5ff6345bfde","system_id":"levelo_inurba_marseille","lat":43.24072,"lon":5.37745,"is_reserved":false,"is_disabled":false,"rental_uris":{"android":"levelo://app?vid=fed11d0f-977e-443b-a693-d5ff6345bfde","ios":"levelo://app?vid=fed11d0f-977e-443b-a693-d5ff6345bfde"},"vehicle_type_id":"4","last_reported":1737090564,"current_range_meters":27200,"station_id":"ce4bhnp2rcd13ifvqgvg","pricing_plan_id":"cebpf4jnsgd1na2vs0mg"},{"bike_id":"36852f13-aa6c-409c-99d3-7142866f7549","system_id":"levelo_inurba_marseille","lat":43.30586,"lon":5.37823,"is_reserved":false,"is_disabled":false,"rental_uris":{"android":"levelo://app?vid=36852f13-aa6c-409c-99d3-7142866f7549","ios":"levelo://app?vid=36852f13-aa6c-409c-99d3-7142866f7549"},"vehicle_type_id":"4","last_reported":1737090564,"current_range_meters":36800,"station_id":"ce4bgup2rcd13ifvqcn0","pricing_plan_id":"cebpf4jnsgd1na2vs0mg"},{"bike_id":"647ff97c-778f-4d52-9f27-1a7403149c23","system_id":"levelo_inurba_marseille","lat":43.29803,"lon":5.40407,"is_reserved":false,"is_disabled":false,"rental_uris":{"android":"levelo://app?vid=647ff97c-778f-4d52-9f27-1a7403149c23","ios":"levelo://app?vid=647ff97c-778f-4d52-9f27-1a7403149c23"},"vehicle_type_id":"4","last_reported":1737090564,"current_range_meters":32400,"station_id":"ce4bh112rcd13ifvqd90","pricing_plan_id":"cebpf4jnsgd1na2vs0mg"},{"bike_id":"e1a3393e-ee05-4b1c-b9fb-3908e373ee14","system_id":"levelo_inurba_marseille","lat":43.265551,"lon":5.372904,"is_reserved":false,"is_disabled":true,"rental_uris":{"android":"levelo://app?vid=e1a3393e-ee05-4b1c-b9fb-3908e373ee14","ios":"levelo://app?vid=e1a3393e-ee05-4b1c-b9fb-3908e373ee14"},"vehicle_type_id":"4","last_reported":1737090564,"current_range_meters":4800,"station_id":"ce4bhg12rcd13ifvqf70","pricing_plan_id":"cebpf4jnsgd1na2vs0mg"},{"bike_id":"7c7fb340-91d3-481f-bef7-3c012bdf7da2","system_id":"levelo_inurba_marseille","lat":43.279898,"lon":5.416619,"is_reserved":false,"is_disabled":true,"rental_uris":{"android":"levelo://app?vid=7c7fb340-91d3-481f-bef7-3c012bdf7da2","ios":"levelo://app?vid=7c7fb340-91d3-481f-bef7-3c012bdf7da2"},"vehicle_type_id":"4","last_reported":1737090564,"current_range_meters":37600,"station_id":"ce4bho12rcd13ifvqh1g","pricing_plan_id":"cebpf4jnsgd1na2vs0mg"},{"bike_id":"d049be83-ab38-4bec-aeb8-0d3be3214f8e","system_id":"levelo_inurba_marseille","lat":43.28718,"lon":5.36105,"is_reserved":false,"is_disabled":false,"rental_uris":{"android":"levelo://app?vid=d049be83-ab38-4bec-aeb8-0d3be3214f8e","ios":"levelo://app?vid=d049be83-ab38-4bec-aeb8-0d3be3214f8e"},"vehicle_type_id":"4","last_reported":1737090564,"current_range_meters":9600,"station_id":"cki0cbj6b192h4jlfktg","pricing_plan_id":"cebpf4jnsgd1na2vs0mg"},{"bike_id":"7fa654ae-7830-4bb8-8064-8a9fb0bddebc","system_id":"levelo_inurba_marseille","lat":43.30891,"lon":5.39635,"is_reserved":false,"is_disabled":false,"rental_uris":{"android":"levelo://app?vid=7fa654ae-7830-4bb8-8064-8a9fb0bddebc","ios":"levelo://app?vid=7fa654ae-7830-4bb8-8064-8a9fb0bddebc"},"vehicle_type_id":"4","last_reported":1737090564,"current_range_meters":38800,"station_id":"ce4bh012rcd13ifvqcv0","pricing_plan_id":"cebpf4jnsgd1na2vs0mg"},{"bike_id":"25b90a90-681c-4a0d-a7c0-7d3d6738c181","system_id":"levelo_inurba_marseille","lat":43.31494,"lon":5.37293,"is_reserved":false,"is_disabled":false,"rental_uris":{"android":"levelo://app?vid=25b90a90-681c-4a0d-a7c0-7d3d6738c181","ios":"levelo://app?vid=25b90a90-681c-4a0d-a7c0-7d3d6738c181"},"vehicle_type_id":"4","last_reported":1737090564,"current_range_meters":26800,"station_id":"ce4bgt12rcd13ifvqcd0","pricing_plan_id":"cebpf4jnsgd1na2vs0mg"},{"bike_id":"57692b3a-b258-4369-8902-af7a7e41e7b7","system_id":"levelo_inurba_marseille","lat":43.29713,"lon":5.36612,"is_reserved":false,"is_disabled":false,"rental_uris":{"android":"levelo://app?vid=57692b3a-b258-4369-8902-af7a7e41e7b7","ios":"levelo://app?vid=57692b3a-b258-4369-8902-af7a7e41e7b7"},"vehicle_type_id":"4","last_reported":1737090564,"current_range_meters":39200,"station_id":"ce4bgn12rcd13ifvqbt0","pricing_plan_id":"cebpf4jnsgd1na2vs0mg"},{"bike_id":"46ba6b6d-9ee4-42b3-a0a1-c688f874954f","system_id":"levelo_inurba_marseille","lat":43.25113,"lon":5.39499,"is_reserved":false,"is_disabled":false,"rental_uris":{"android":"levelo://app?vid=46ba6b6d-9ee4-42b3-a0a1-c688f874954f","ios":"levelo://app?vid=46ba6b6d-9ee4-42b3-a0a1-c688f874954f"},"vehicle_type_id":"4","last_reported":1737090564,"current_range_meters":27600,"station_id":"ce4bhm12rcd13ifvqgkg","pricing_plan_id":"cebpf4jnsgd1na2vs0mg"},{"bike_id":"867be2c4-4232-4631-abfa-6492cf3ef561","system_id":"levelo_inurba_marseille","lat":43.30259,"lon":5.40075,"is_reserved":false,"is_disabled":false,"rental_uris":{"android":"levelo://app?vid=867be2c4-4232-4631-abfa-6492cf3ef561","ios":"levelo://app?vid=867be2c4-4232-4631-abfa-6492cf3ef561"},"vehicle_type_id":"4","last_reported":1737090564,"current_range_meters":9600,"station_id":"ce4bgvh2rcd13ifvqcs0","pricing_plan_id":"cebpf4jnsgd1na2vs0mg"},{"bike_id":"7e053760-c04f-4b13-9566-126be82540c4","system_id":"levelo_inurba_marseille","lat":43.31277,"lon":5.40164,"is_reserved":false,"is_disabled":false,"rental_uris":{"android":"levelo://app?vid=7e053760-c04f-4b13-9566-126be82540c4","ios":"levelo://app?vid=7e053760-c04f-4b13-9566-126be82540c4"},"vehicle_type_id":"4","last_reported":1737090564,"current_range_meters":38400,"station_id":"ce4bh092rcd13ifvqd30","pricing_plan_id":"cebpf4jnsgd1na2vs0mg"},{"bike_id":"3b2df4f8-614c-4fbc-a6c0-c04057981018","system_id":"levelo_inurba_marseille","lat":43.296323,"lon":5.405975,"is_reserved":false,"is_disabled":false,"rental_uris":{"android":"levelo://app?vid=3b2df4f8-614c-4fbc-a6c0-c04057981018","ios":"levelo://app?vid=3b2df4f8-614c-4fbc-a6c0-c04057981018"},"vehicle_type_id":"4","last_reported":1737090564,"current_range_meters":30800,"station_id":"ce4bh0h2rcd13ifvqd60","pricing_plan_id":"cebpf4jnsgd1na2vs0mg"},{"bike_id":"2bf14e65-d93d-45bb-bad1-71fdf26cad9f","system_id":"levelo_inurba_marseille","lat":43.251176,"lon":5.403194,"is_reserved":false,"is_disabled":false,"rental_uris":{"android":"levelo://app?vid=2bf14e65-d93d-45bb-bad1-71fdf26cad9f","ios":"levelo://app?vid=2bf14e65-d93d-45bb-bad1-71fdf26cad9f"},"vehicle_type_id":"4","last_reported":1737090564,"current_range_meters":8400,"station_id":"ce4bhlh2rcd13ifvqgig","pricing_plan_id":"cebpf4jnsgd1na2vs0mg"},{"bike_id":"116e7514-2e81-4563-a614-e60a431e2012","system_id":"levelo_inurba_marseille","lat":43.28668,"lon":5.36365,"is_reserved":false,"is_disabled":false,"rental_uris":{"android":"levelo://app?vid=116e7514-2e81-4563-a614-e60a431e2012","ios":"levelo://app?vid=116e7514-2e81-4563-a614-e60a431e2012"},"vehicle_type_id":"4","last_reported":1737090564,"current_range_meters":39200,"station_id":"ce4bhah2rcd13ifvqej0","pricing_plan_id":"cebpf4jnsgd1na2vs0mg"},{"bike_id":"e6d52744-fcef-4b04-b3e0-4aafb92377b1","system_id":"levelo_inurba_marseille","lat":43.30542,"lon":5.36693,"is_reserved":false,"is_disabled":true,"rental_uris":{"android":"levelo://app?vid=e6d52744-fcef-4b04-b3e0-4aafb92377b1","ios":"levelo://app?vid=e6d52744-fcef-4b04-b3e0-4aafb92377b1"},"vehicle_type_id":"4","last_reported":1737090564,"current_range_meters":34000,"station_id":"ce4bgrp2rcd13ifvqc9g","pricing_plan_id":"cebpf4jnsgd1na2vs0mg"},{"bike_id":"078fa2d8-b6e2-4689-814d-1564c1917c5d","system_id":"levelo_inurba_marseille","lat":43.24085,"lon":5.37742,"is_reserved":false,"is_disabled":false,"rental_uris":{"android":"levelo://app?vid=078fa2d8-b6e2-4689-814d-1564c1917c5d","ios":"levelo://app?vid=078fa2d8-b6e2-4689-814d-1564c1917c5d"},"vehicle_type_id":"4","last_reported":1737090564,"current_range_meters":38400,"station_id":"ce4bhnp2rcd13ifvqgvg","pricing_plan_id":"cebpf4jnsgd1na2vs0mg"},{"bike_id":"9be957d2-26d1-49a4-9f85-b06ee3432064","system_id":"levelo_inurba_marseille","lat":43.33737,"lon":5.39194,"is_reserved":false,"is_disabled":false,"rental_uris":{"android":"levelo://app?vid=9be957d2-26d1-49a4-9f85-b06ee3432064","ios":"levelo://app?vid=9be957d2-26d1-49a4-9f85-b06ee3432064"},"vehicle_type_id":"4","last_reported":1737090564,"current_range_meters":31200,"station_id":"ce4bhr92rcd13ifvqhsg","pricing_plan_id":"cebpf4jnsgd1na2vs0mg"},{"bike_id":"4488423e-fb64-4bbe-9192-9966dc0edac0","system_id":"levelo_inurba_marseille","lat":43.317099,"lon":5.377588,"is_reserved":false,"is_disabled":false,"rental_uris":{"android":"levelo://app?vid=4488423e-fb64-4bbe-9192-9966dc0edac0","ios":"levelo://app?vid=4488423e-fb64-4bbe-9192-9966dc0edac0"},"vehicle_type_id":"4","last_reported":1737090564,"current_range_meters":38800,"station_id":"ce4bgth2rcd13ifvqch0","pricing_plan_id":"cebpf4jnsgd1na2vs0mg"},{"bike_id":"99a31782-c2ee-4a27-b493-d0450f1fbc77","system_id":"levelo_inurba_marseille","lat":43.31519,"lon":5.37318,"is_reserved":false,"is_disabled":false,"rental_uris":{"android":"levelo://app?vid=99a31782-c2ee-4a27-b493-d0450f1fbc77","ios":"levelo://app?vid=99a31782-c2ee-4a27-b493-d0450f1fbc77"},"vehicle_type_id":"4","last_reported":1737090564,"current_range_meters":38800,"station_id":"ce4bgt12rcd13ifvqcd0","pricing_plan_id":"cebpf4jnsgd1na2vs0mg"},{"bike_id":"ece2ae38-fa22-411a-b4b6-2bec87a39b75","system_id":"levelo_inurba_marseille","lat":43.32545,"lon":5.41441,"is_reserved":false,"is_disabled":false,"rental_uris":{"android":"levelo://app?vid=ece2ae38-fa22-411a-b4b6-2bec87a39b75","ios":"levelo://app?vid=ece2ae38-fa22-411a-b4b6-2bec87a39b75"},"vehicle_type_id":"4","last_reported":1737090564,"current_range_meters":38400,"station_id":"ce4bhq12rcd13ifvqhhg","pricing_plan_id":"cebpf4jnsgd1na2vs0mg"},{"bike_id":"24cb9b07-a6e0-4af5-9357-127b22b317c9","system_id":"levelo_inurba_marseille","lat":43.28269,"lon":5.350836,"is_reserved":false,"is_disabled":false,"rental_uris":{"android":"levelo://app?vid=24cb9b07-a6e0-4af5-9357-127b22b317c9","ios":"levelo://app?vid=24cb9b07-a6e0-4af5-9357-127b22b317c9"},"vehicle_type_id":"4","last_reported":1737090564,"current_range_meters":8800,"station_id":"ce4bhbp2rcd13ifvqerg","pricing_plan_id":"cebpf4jnsgd1na2vs0mg"},{"bike_id":"4a4bdb5d-7f2d-4b22-a0dd-b6ee22b2db6e","system_id":"levelo_inurba_marseille","lat":43.25115,"lon":5.39505,"is_reserved":false,"is_disabled":false,"rental_uris":{"android":"levelo://app?vid=4a4bdb5d-7f2d-4b22-a0dd-b6ee22b2db6e","ios":"levelo://app?vid=4a4bdb5d-7f2d-4b22-a0dd-b6ee22b2db6e"},"vehicle_type_id":"4","last_reported":1737090564,"current_range_meters":38400,"station_id":"ce4bhm12rcd13ifvqgkg","pricing_plan_id":"cebpf4jnsgd1na2vs0mg"},{"bike_id":"4d2298b4-b398-4a2e-ac8d-5af2053ce27d","system_id":"levelo_inurba_marseille","lat":43.276131,"lon":5.36118,"is_reserved":false,"is_disabled":false,"rental_uris":{"android":"levelo://app?vid=4d2298b4-b398-4a2e-ac8d-5af2053ce27d","ios":"levelo://app?vid=4d2298b4-b398-4a2e-ac8d-5af2053ce27d"},"vehicle_type_id":"4","last_reported":1737090564,"current_range_meters":38400,"station_id":"ce4bgj92rcd13ifvqbe0","pricing_plan_id":"cebpf4jnsgd1na2vs0mg"},{"bike_id":"6691d7b5-893f-49fd-babf-60f7317b3915","system_id":"levelo_inurba_marseille","lat":43.31899,"lon":5.40737,"is_reserved":false,"is_disabled":false,"rental_uris":{"android":"levelo://app?vid=6691d7b5-893f-49fd-babf-60f7317b3915","ios":"levelo://app?vid=6691d7b5-893f-49fd-babf-60f7317b3915"},"vehicle_type_id":"4","last_reported":1737090564,"current_range_meters":34800,"station_id":"ce4bhq12rcd13ifvqhig","pricing_plan_id":"cebpf4jnsgd1na2vs0mg"},{"bike_id":"d4be0a13-0001-4e34-b741-2602c6fd9372","system_id":"levelo_inurba_marseille","lat":43.292564,"lon":5.408987,"is_reserved":false,"is_disabled":false,"rental_uris":{"android":"levelo://app?vid=d4be0a13-0001-4e34-b741-2602c6fd9372","ios":"levelo://app?vid=d4be0a13-0001-4e34-b741-2602c6fd9372"},"vehicle_type_id":"4","last_reported":1737090564,"current_range_meters":38400,"station_id":"ce4bh192rcd13ifvqdc0","pricing_plan_id":"cebpf4jnsgd1na2vs0mg"},{"bike_id":"03935354-1e7a-40f8-863c-0bdee5f978b9","system_id":"levelo_inurba_marseille","lat":43.29873,"lon":5.39777,"is_reserved":false,"is_disabled":false,"rental_uris":{"android":"levelo://app?vid=03935354-1e7a-40f8-863c-0bdee5f978b9","ios":"levelo://app?vid=03935354-1e7a-40f8-863c-0bdee5f978b9"},"vehicle_type_id":"4","last_reported":1737090564,"current_range_meters":6000,"station_id":"ce4bh0h2rcd13ifvqd50","pricing_plan_id":"cebpf4jnsgd1na2vs0mg"},{"bike_id":"61d33c90-a781-4a26-bf58-4b4a4778ca8e","system_id":"levelo_inurba_marseille","lat":43.240679,"lon":5.377554,"is_reserved":false,"is_disabled":false,"rental_uris":{"android":"levelo://app?vid=61d33c90-a781-4a26-bf58-4b4a4778ca8e","ios":"levelo://app?vid=61d33c90-a781-4a26-bf58-4b4a4778ca8e"},"vehicle_type_id":"4","last_reported":1737090564,"current_range_meters":12000,"station_id":"ce4bhnp2rcd13ifvqgvg","pricing_plan_id":"cebpf4jnsgd1na2vs0mg"},{"bike_id":"242e1a46-c878-4185-b387-d1a4f0fb8589","system_id":"levelo_inurba_marseille","lat":43.27679,"lon":5.42224,"is_reserved":false,"is_disabled":false,"rental_uris":{"android":"levelo://app?vid=242e1a46-c878-4185-b387-d1a4f0fb8589","ios":"levelo://app?vid=242e1a46-c878-4185-b387-d1a4f0fb8589"},"vehicle_type_id":"4","last_reported":1737090564,"current_range_meters":8000,"station_id":"","pricing_plan_id":"cebpf4jnsgd1na2vs0mg"},{"bike_id":"71845b4e-4f9c-4bb8-9a9c-5f8ddd03e282","system_id":"levelo_inurba_marseille","lat":43.28742,"lon":5.38912,"is_reserved":false,"is_disabled":false,"rental_uris":{"android":"levelo://app?vid=71845b4e-4f9c-4bb8-9a9c-5f8ddd03e282","ios":"levelo://app?vid=71845b4e-4f9c-4bb8-9a9c-5f8ddd03e282"},"vehicle_type_id":"4","last_reported":1737090564,"current_range_meters":22000,"station_id":"","pricing_plan_id":"cebpf4jnsgd1na2vs0mg"},{"bike_id":"d423e2c6-eb9c-4138-80c2-df50dbb59c49","system_id":"levelo_inurba_marseille","lat":43.30447,"lon":5.38884,"is_reserved":false,"is_disabled":false,"rental_uris":{"android":"levelo://app?vid=d423e2c6-eb9c-4138-80c2-df50dbb59c49","ios":"levelo://app?vid=d423e2c6-eb9c-4138-80c2-df50dbb59c49"},"vehicle_type_id":"4","last_reported":1737090564,"current_range_meters":38400,"station_id":"ce4bgk12rcd13ifvqbi0","pricing_plan_id":"cebpf4jnsgd1na2vs0mg"},{"bike_id":"da738d9e-7b5d-4b7d-a437-4d0a8b9a7557","system_id":"levelo_inurba_marseille","lat":43.29055,"lon":5.39982,"is_reserved":false,"is_disabled":false,"rental_uris":{"android":"levelo://app?vid=da738d9e-7b5d-4b7d-a437-4d0a8b9a7557","ios":"levelo://app?vid=da738d9e-7b5d-4b7d-a437-4d0a8b9a7557"},"vehicle_type_id":"4","last_reported":1737090564,"current_range_meters":7200,"station_id":"ce4bh392rcd13ifvqdm0","pricing_plan_id":"cebpf4jnsgd1na2vs0mg"},{"bike_id":"ceaa1458-83a9-43c8-aed6-e72ea07fb43a","system_id":"levelo_inurba_marseille","lat":43.31327,"lon":5.39703,"is_reserved":false,"is_disabled":false,"rental_uris":{"android":"levelo://app?vid=ceaa1458-83a9-43c8-aed6-e72ea07fb43a","ios":"levelo://app?vid=ceaa1458-83a9-43c8-aed6-e72ea07fb43a"},"vehicle_type_id":"4","last_reported":1737090564,"current_range_meters":10800,"station_id":"ce4bgvp2rcd13ifvqcu0","pricing_plan_id":"cebpf4jnsgd1na2vs0mg"},{"bike_id":"c7b548c0-92b1-4b91-b606-2d963bec61ed","system_id":"levelo_inurba_marseille","lat":43.274951,"lon":5.424542,"is_reserved":false,"is_disabled":false,"rental_uris":{"android":"levelo://app?vid=c7b548c0-92b1-4b91-b606-2d963bec61ed","ios":"levelo://app?vid=c7b548c0-92b1-4b91-b606-2d963bec61ed"},"vehicle_type_id":"4","last_reported":1737090564,"current_range_meters":16800,"station_id":"ce4bhn92rcd13ifvqgrg","pricing_plan_id":"cebpf4jnsgd1na2vs0mg"},{"bike_id":"227e2104-9342-467a-bb13-dc81a29065f7","system_id":"levelo_inurba_marseille","lat":43.28525,"lon":5.38871,"is_reserved":false,"is_disabled":false,"rental_uris":{"android":"levelo://app?vid=227e2104-9342-467a-bb13-dc81a29065f7","ios":"levelo://app?vid=227e2104-9342-467a-bb13-dc81a29065f7"},"vehicle_type_id":"4","last_reported":1737090564,"current_range_meters":28000,"station_id":"","pricing_plan_id":"cebpf4jnsgd1na2vs0mg"},{"bike_id":"b2632576-d2f4-4f91-975b-2a6e65937421","system_id":"levelo_inurba_marseille","lat":43.25098,"lon":5.39527,"is_reserved":false,"is_disabled":false,"rental_uris":{"android":"levelo://app?vid=b2632576-d2f4-4f91-975b-2a6e65937421","ios":"levelo://app?vid=b2632576-d2f4-4f91-975b-2a6e65937421"},"vehicle_type_id":"4","last_reported":1737090564,"current_range_meters":30800,"station_id":"ce4bhm12rcd13ifvqgkg","pricing_plan_id":"cebpf4jnsgd1na2vs0mg"},{"bike_id":"00268844-800e-432e-9f56-0b567fb9e2a0","system_id":"levelo_inurba_marseille","lat":43.29778,"lon":5.38091,"is_reserved":false,"is_disabled":true,"rental_uris":{"android":"levelo://app?vid=00268844-800e-432e-9f56-0b567fb9e2a0","ios":"levelo://app?vid=00268844-800e-432e-9f56-0b567fb9e2a0"},"vehicle_type_id":"4","last_reported":1737090564,"current_range_meters":34000,"station_id":"ce4bgip2rcd13ifvqbb0","pricing_plan_id":"cebpf4jnsgd1na2vs0mg"},{"bike_id":"516e6204-9dad-4554-93fc-892569dbc06c","system_id":"levelo_inurba_marseille","lat":43.29066,"lon":5.40013,"is_reserved":false,"is_disabled":false,"rental_uris":{"android":"levelo://app?vid=516e6204-9dad-4554-93fc-892569dbc06c","ios":"levelo://app?vid=516e6204-9dad-4554-93fc-892569dbc06c"},"vehicle_type_id":"4","last_reported":1737090564,"current_range_meters":37600,"station_id":"ce4bh392rcd13ifvqdm0","pricing_plan_id":"cebpf4jnsgd1na2vs0mg"},{"bike_id":"c2baf212-3b5f-423e-ad6b-f367686975c3","system_id":"levelo_inurba_marseille","lat":43.324751,"lon":5.365531,"is_reserved":false,"is_disabled":false,"rental_uris":{"android":"levelo://app?vid=c2baf212-3b5f-423e-ad6b-f367686975c3","ios":"levelo://app?vid=c2baf212-3b5f-423e-ad6b-f367686975c3"},"vehicle_type_id":"4","last_reported":1737090564,"current_range_meters":37600,"station_id":"ce4bhs12rcd13ifvqhvg","pricing_plan_id":"cebpf4jnsgd1na2vs0mg"},{"bike_id":"9420b624-d9bf-4f1f-a95c-985e5844ac92","system_id":"levelo_inurba_marseille","lat":43.29181,"lon":5.35801,"is_reserved":false,"is_disabled":false,"rental_uris":{"android":"levelo://app?vid=9420b624-d9bf-4f1f-a95c-985e5844ac92","ios":"levelo://app?vid=9420b624-d9bf-4f1f-a95c-985e5844ac92"},"vehicle_type_id":"4","last_reported":1737090564,"current_range_meters":10800,"station_id":"ce4bhb12rcd13ifvqel0","pricing_plan_id":"cebpf4jnsgd1na2vs0mg"},{"bike_id":"05d7658d-212b-4a26-9e06-d214e1226f9d","system_id":"levelo_inurba_marseille","lat":43.30069,"lon":5.39085,"is_reserved":false,"is_disabled":false,"rental_uris":{"android":"levelo://app?vid=05d7658d-212b-4a26-9e06-d214e1226f9d","ios":"levelo://app?vid=05d7658d-212b-4a26-9e06-d214e1226f9d"},"vehicle_type_id":"4","last_reported":1737090564,"current_range_meters":38000,"station_id":"ce4bh192rcd13ifvqdb0","pricing_plan_id":"cebpf4jnsgd1na2vs0mg"},{"bike_id":"06847a7c-81a3-47a7-969a-ce10f7980e65","system_id":"levelo_inurba_marseille","lat":43.23147,"lon":5.43694,"is_reserved":false,"is_disabled":true,"rental_uris":{"android":"levelo://app?vid=06847a7c-81a3-47a7-969a-ce10f7980e65","ios":"levelo://app?vid=06847a7c-81a3-47a7-969a-ce10f7980e65"},"vehicle_type_id":"4","last_reported":1737090564,"current_range_meters":35600,"station_id":"ce4bhmp2rcd13ifvqgog","pricing_plan_id":"cebpf4jnsgd1na2vs0mg"},{"bike_id":"02db88da-fe69-4240-835f-2138ef5342eb","system_id":"levelo_inurba_marseille","lat":43.31116,"lon":5.37756,"is_reserved":false,"is_disabled":false,"rental_uris":{"android":"levelo://app?vid=02db88da-fe69-4240-835f-2138ef5342eb","ios":"levelo://app?vid=02db88da-fe69-4240-835f-2138ef5342eb"},"vehicle_type_id":"4","last_reported":1737090564,"current_range_meters":28800,"station_id":"ce4bgt92rcd13ifvqcg0","pricing_plan_id":"cebpf4jnsgd1na2vs0mg"},{"bike_id":"13692a24-fa14-4270-86ad-88f1c1d9b123","system_id":"levelo_inurba_marseille","lat":43.29218,"lon":5.3608,"is_reserved":false,"is_disabled":false,"rental_uris":{"android":"levelo://app?vid=13692a24-fa14-4270-86ad-88f1c1d9b123","ios":"levelo://app?vid=13692a24-fa14-4270-86ad-88f1c1d9b123"},"vehicle_type_id":"4","last_reported":1737090564,"current_range_meters":20000,"station_id":"ce4bhbh2rcd13ifvqeqg","pricing_plan_id":"cebpf4jnsgd1na2vs0mg"},{"bike_id":"68d2aa27-7285-4898-92ae-751a441b0c6a","system_id":"levelo_inurba_marseille","lat":43.29225,"lon":5.36075,"is_reserved":false,"is_disabled":false,"rental_uris":{"android":"levelo://app?vid=68d2aa27-7285-4898-92ae-751a441b0c6a","ios":"levelo://app?vid=68d2aa27-7285-4898-92ae-751a441b0c6a"},"vehicle_type_id":"4","last_reported":1737090564,"current_range_meters":38800,"station_id":"ce4bhbh2rcd13ifvqeqg","pricing_plan_id":"cebpf4jnsgd1na2vs0mg"},{"bike_id":"cd193a81-b114-46fc-aa0b-4f8b297c5418","system_id":"levelo_inurba_marseille","lat":43.28723,"lon":5.3609,"is_reserved":false,"is_disabled":false,"rental_uris":{"android":"levelo://app?vid=cd193a81-b114-46fc-aa0b-4f8b297c5418","ios":"levelo://app?vid=cd193a81-b114-46fc-aa0b-4f8b297c5418"},"vehicle_type_id":"4","last_reported":1737090564,"current_range_meters":24800,"station_id":"cki0cbj6b192h4jlfktg","pricing_plan_id":"cebpf4jnsgd1na2vs0mg"},{"bike_id":"05f89a4d-9e49-4e51-8cbc-aa66933493cb","system_id":"levelo_inurba_marseille","lat":43.30443,"lon":5.38901,"is_reserved":false,"is_disabled":true,"rental_uris":{"android":"levelo://app?vid=05f89a4d-9e49-4e51-8cbc-aa66933493cb","ios":"levelo://app?vid=05f89a4d-9e49-4e51-8cbc-aa66933493cb"},"vehicle_type_id":"4","last_reported":1737090564,"current_range_meters":0,"station_id":"ce4bgk12rcd13ifvqbi0","pricing_plan_id":"cebpf4jnsgd1na2vs0mg"},{"bike_id":"7786dd35-d957-4483-98bb-dfc174ebf3e9","system_id":"levelo_inurba_marseille","lat":43.30885,"lon":5.37192,"is_reserved":false,"is_disabled":false,"rental_uris":{"android":"levelo://app?vid=7786dd35-d957-4483-98bb-dfc174ebf3e9","ios":"levelo://app?vid=7786dd35-d957-4483-98bb-dfc174ebf3e9"},"vehicle_type_id":"4","last_reported":1737090564,"current_range_meters":38000,"station_id":"ce4bguh2rcd13ifvqckg","pricing_plan_id":"cebpf4jnsgd1na2vs0mg"},{"bike_id":"450e4b2e-2717-46bb-9250-32754d000e21","system_id":"levelo_inurba_marseille","lat":43.31704,"lon":5.37766,"is_reserved":false,"is_disabled":false,"rental_uris":{"android":"levelo://app?vid=450e4b2e-2717-46bb-9250-32754d000e21","ios":"levelo://app?vid=450e4b2e-2717-46bb-9250-32754d000e21"},"vehicle_type_id":"4","last_reported":1737090564,"current_range_meters":38800,"station_id":"ce4bgth2rcd13ifvqch0","pricing_plan_id":"cebpf4jnsgd1na2vs0mg"},{"bike_id":"0d8b3f38-41dd-47ed-bfa6-3906b618d9f2","system_id":"levelo_inurba_marseille","lat":43.28295,"lon":5.35075,"is_reserved":false,"is_disabled":false,"rental_uris":{"android":"levelo://app?vid=0d8b3f38-41dd-47ed-bfa6-3906b618d9f2","ios":"levelo://app?vid=0d8b3f38-41dd-47ed-bfa6-3906b618d9f2"},"vehicle_type_id":"4","last_reported":1737090564,"current_range_meters":28800,"station_id":"ce4bhbp2rcd13ifvqerg","pricing_plan_id":"cebpf4jnsgd1na2vs0mg"},{"bike_id":"907763a0-f256-43b3-9d64-e58396652444","system_id":"levelo_inurba_marseille","lat":43.2866,"lon":5.36347,"is_reserved":false,"is_disabled":false,"rental_uris":{"android":"levelo://app?vid=907763a0-f256-43b3-9d64-e58396652444","ios":"levelo://app?vid=907763a0-f256-43b3-9d64-e58396652444"},"vehicle_type_id":"4","last_reported":1737090564,"current_range_meters":18000,"station_id":"ce4bhah2rcd13ifvqej0","pricing_plan_id":"cebpf4jnsgd1na2vs0mg"},{"bike_id":"f10dec5a-e383-4b22-8edc-5f22d333e2f5","system_id":"levelo_inurba_marseille","lat":43.27173,"lon":5.40994,"is_reserved":false,"is_disabled":false,"rental_uris":{"android":"levelo://app?vid=f10dec5a-e383-4b22-8edc-5f22d333e2f5","ios":"levelo://app?vid=f10dec5a-e383-4b22-8edc-5f22d333e2f5"},"vehicle_type_id":"4","last_reported":1737090564,"current_range_meters":12400,"station_id":"ce4bhl12rcd13ifvqgf0","pricing_plan_id":"cebpf4jnsgd1na2vs0mg"},{"bike_id":"efd05c32-4d50-4342-9945-bb25c7efcd6f","system_id":"levelo_inurba_marseille","lat":43.27986,"lon":5.38754,"is_reserved":false,"is_disabled":false,"rental_uris":{"android":"levelo://app?vid=efd05c32-4d50-4342-9945-bb25c7efcd6f","ios":"levelo://app?vid=efd05c32-4d50-4342-9945-bb25c7efcd6f"},"vehicle_type_id":"4","last_reported":1737090564,"current_range_meters":38800,"station_id":"ce4bhg12rcd13ifvqf80","pricing_plan_id":"cebpf4jnsgd1na2vs0mg"},{"bike_id":"aac2ecf2-9c1e-46b0-98dd-0e3058686375","system_id":"levelo_inurba_marseille","lat":43.30129,"lon":5.3985,"is_reserved":false,"is_disabled":false,"rental_uris":{"android":"levelo://app?vid=aac2ecf2-9c1e-46b0-98dd-0e3058686375","ios":"levelo://app?vid=aac2ecf2-9c1e-46b0-98dd-0e3058686375"},"vehicle_type_id":"4","last_reported":1737090564,"current_range_meters":38800,"station_id":"ce4bh0h2rcd13ifvqd40","pricing_plan_id":"cebpf4jnsgd1na2vs0mg"},{"bike_id":"101c61dc-ddec-40be-85b2-8ae79149e94c","system_id":"levelo_inurba_marseille","lat":43.28726,"lon":5.39978,"is_reserved":false,"is_disabled":false,"rental_uris":{"android":"levelo://app?vid=101c61dc-ddec-40be-85b2-8ae79149e94c","ios":"levelo://app?vid=101c61dc-ddec-40be-85b2-8ae79149e94c"},"vehicle_type_id":"4","last_reported":1737090564,"current_range_meters":18000,"station_id":"ce4bho92rcd13ifvqh3g","pricing_plan_id":"cebpf4jnsgd1na2vs0mg"},{"bike_id":"a4b779dc-e9f6-42d9-b786-46a4421bfccd","system_id":"levelo_inurba_marseille","lat":43.30595,"lon":5.37194,"is_reserved":false,"is_disabled":false,"rental_uris":{"android":"levelo://app?vid=a4b779dc-e9f6-42d9-b786-46a4421bfccd","ios":"levelo://app?vid=a4b779dc-e9f6-42d9-b786-46a4421bfccd"},"vehicle_type_id":"4","last_reported":1737090564,"current_range_meters":26800,"station_id":"ce4bgqh2rcd13ifvqc4g","pricing_plan_id":"cebpf4jnsgd1na2vs0mg"},{"bike_id":"0d6a002d-ca3d-4185-9493-09ae357dc4ef","system_id":"levelo_inurba_marseille","lat":43.3133,"lon":5.39707,"is_reserved":false,"is_disabled":false,"rental_uris":{"android":"levelo://app?vid=0d6a002d-ca3d-4185-9493-09ae357dc4ef","ios":"levelo://app?vid=0d6a002d-ca3d-4185-9493-09ae357dc4ef"},"vehicle_type_id":"4","last_reported":1737090564,"current_range_meters":27200,"station_id":"ce4bgvp2rcd13ifvqcu0","pricing_plan_id":"cebpf4jnsgd1na2vs0mg"},{"bike_id":"7f02ee37-da3b-42b9-9dc0-3eb4937746d3","system_id":"levelo_inurba_marseille","lat":43.29253,"lon":5.38449,"is_reserved":false,"is_disabled":false,"rental_uris":{"android":"levelo://app?vid=7f02ee37-da3b-42b9-9dc0-3eb4937746d3","ios":"levelo://app?vid=7f02ee37-da3b-42b9-9dc0-3eb4937746d3"},"vehicle_type_id":"4","last_reported":1737090564,"current_range_meters":31200,"station_id":"ce4bh692rcd13ifvqea0","pricing_plan_id":"cebpf4jnsgd1na2vs0mg"},{"bike_id":"f21955f8-a46c-4890-be70-66409620de02","system_id":"levelo_inurba_marseille","lat":43.23181,"lon":5.39982,"is_reserved":false,"is_disabled":false,"rental_uris":{"android":"levelo://app?vid=f21955f8-a46c-4890-be70-66409620de02","ios":"levelo://app?vid=f21955f8-a46c-4890-be70-66409620de02"},"vehicle_type_id":"4","last_reported":1737090564,"current_range_meters":7200,"station_id":"ce4bhn12rcd13ifvqgqg","pricing_plan_id":"cebpf4jnsgd1na2vs0mg"},{"bike_id":"34709e64-d1c8-4538-88a5-33805792c0a5","system_id":"levelo_inurba_marseille","lat":43.25826,"lon":5.39431,"is_reserved":false,"is_disabled":false,"rental_uris":{"android":"levelo://app?vid=34709e64-d1c8-4538-88a5-33805792c0a5","ios":"levelo://app?vid=34709e64-d1c8-4538-88a5-33805792c0a5"},"vehicle_type_id":"4","last_reported":1737090564,"current_range_meters":38800,"station_id":"ce4bhip2rcd13ifvqft0","pricing_plan_id":"cebpf4jnsgd1na2vs0mg"},{"bike_id":"deb05b1a-b900-4e6d-ae79-4bed81d3291f","system_id":"levelo_inurba_marseille","lat":43.27077,"lon":5.4227,"is_reserved":false,"is_disabled":true,"rental_uris":{"android":"levelo://app?vid=deb05b1a-b900-4e6d-ae79-4bed81d3291f","ios":"levelo://app?vid=deb05b1a-b900-4e6d-ae79-4bed81d3291f"},"vehicle_type_id":"4","last_reported":1737090564,"current_range_meters":1200,"station_id":"ce4bhk92rcd13ifvqgb0","pricing_plan_id":"cebpf4jnsgd1na2vs0mg"},{"bike_id":"8016bb32-7427-4e1b-9c8a-c2b432c90bc1","system_id":"levelo_inurba_marseille","lat":43.27994,"lon":5.40017,"is_reserved":false,"is_disabled":false,"rental_uris":{"android":"levelo://app?vid=8016bb32-7427-4e1b-9c8a-c2b432c90bc1","ios":"levelo://app?vid=8016bb32-7427-4e1b-9c8a-c2b432c90bc1"},"vehicle_type_id":"4","last_reported":1737090564,"current_range_meters":30800,"station_id":"ce4bho92rcd13ifvqh4g","pricing_plan_id":"cebpf4jnsgd1na2vs0mg"},{"bike_id":"6a9e411c-b5e9-44f4-92e8-dd3893a908de","system_id":"levelo_inurba_marseille","lat":43.280827,"lon":5.396538,"is_reserved":false,"is_disabled":false,"rental_uris":{"android":"levelo://app?vid=6a9e411c-b5e9-44f4-92e8-dd3893a908de","ios":"levelo://app?vid=6a9e411c-b5e9-44f4-92e8-dd3893a908de"},"vehicle_type_id":"4","last_reported":1737090564,"current_range_meters":38800,"station_id":"ce4bho12rcd13ifvqh2g","pricing_plan_id":"cebpf4jnsgd1na2vs0mg"},{"bike_id":"f2be7778-b6de-4880-adcb-065b4a5b8e7d","system_id":"levelo_inurba_marseille","lat":43.32344,"lon":5.406163,"is_reserved":false,"is_disabled":false,"rental_uris":{"android":"levelo://app?vid=f2be7778-b6de-4880-adcb-065b4a5b8e7d","ios":"levelo://app?vid=f2be7778-b6de-4880-adcb-065b4a5b8e7d"},"vehicle_type_id":"4","last_reported":1737090564,"current_range_meters":38800,"station_id":"ce4bhq92rcd13ifvqhjg","pricing_plan_id":"cebpf4jnsgd1na2vs0mg"},{"bike_id":"7a26b63c-652f-4d2d-8353-1a9dfb4e945a","system_id":"levelo_inurba_marseille","lat":43.33725,"lon":5.3918,"is_reserved":false,"is_disabled":false,"rental_uris":{"android":"levelo://app?vid=7a26b63c-652f-4d2d-8353-1a9dfb4e945a","ios":"levelo://app?vid=7a26b63c-652f-4d2d-8353-1a9dfb4e945a"},"vehicle_type_id":"4","last_reported":1737090564,"current_range_meters":38800,"station_id":"ce4bhr92rcd13ifvqhsg","pricing_plan_id":"cebpf4jnsgd1na2vs0mg"},{"bike_id":"5dc88dba-495e-484f-9b04-2299461d7f8a","system_id":"levelo_inurba_marseille","lat":43.26051,"lon":5.39394,"is_reserved":false,"is_disabled":false,"rental_uris":{"android":"levelo://app?vid=5dc88dba-495e-484f-9b04-2299461d7f8a","ios":"levelo://app?vid=5dc88dba-495e-484f-9b04-2299461d7f8a"},"vehicle_type_id":"4","last_reported":1737090564,"current_range_meters":24800,"station_id":"ce4bhh92rcd13ifvqfj0","pricing_plan_id":"cebpf4jnsgd1na2vs0mg"},{"bike_id":"d5bc3fc7-0eed-4839-b6d6-869ab1cdeef9","system_id":"levelo_inurba_marseille","lat":43.28722,"lon":5.36107,"is_reserved":false,"is_disabled":false,"rental_uris":{"android":"levelo://app?vid=d5bc3fc7-0eed-4839-b6d6-869ab1cdeef9","ios":"levelo://app?vid=d5bc3fc7-0eed-4839-b6d6-869ab1cdeef9"},"vehicle_type_id":"4","last_reported":1737090564,"current_range_meters":38400,"station_id":"cki0cbj6b192h4jlfktg","pricing_plan_id":"cebpf4jnsgd1na2vs0mg"},{"bike_id":"56b8e9bc-f750-4815-bc98-9098414d16db","system_id":"levelo_inurba_marseille","lat":43.23194,"lon":5.35546,"is_reserved":false,"is_disabled":true,"rental_uris":{"android":"levelo://app?vid=56b8e9bc-f750-4815-bc98-9098414d16db","ios":"levelo://app?vid=56b8e9bc-f750-4815-bc98-9098414d16db"},"vehicle_type_id":"4","last_reported":1737090564,"current_range_meters":0,"station_id":"ce4bhu92rcd13ifvqi70","pricing_plan_id":"cebpf4jnsgd1na2vs0mg"},{"bike_id":"91fc6ba3-f467-4b4f-b86f-00c0f05ad79b","system_id":"levelo_inurba_marseille","lat":43.29176,"lon":5.35799,"is_reserved":false,"is_disabled":false,"rental_uris":{"android":"levelo://app?vid=91fc6ba3-f467-4b4f-b86f-00c0f05ad79b","ios":"levelo://app?vid=91fc6ba3-f467-4b4f-b86f-00c0f05ad79b"},"vehicle_type_id":"4","last_reported":1737090564,"current_range_meters":38000,"station_id":"ce4bhb12rcd13ifvqel0","pricing_plan_id":"cebpf4jnsgd1na2vs0mg"},{"bike_id":"d63854c3-34d3-433b-ab9c-33fe7aa4d6d9","system_id":"levelo_inurba_marseille","lat":43.26574,"lon":5.39038,"is_reserved":false,"is_disabled":false,"rental_uris":{"android":"levelo://app?vid=d63854c3-34d3-433b-ab9c-33fe7aa4d6d9","ios":"levelo://app?vid=d63854c3-34d3-433b-ab9c-33fe7aa4d6d9"},"vehicle_type_id":"4","last_reported":1737090564,"current_range_meters":20800,"station_id":"ce4bhe12rcd13ifvqf30","pricing_plan_id":"cebpf4jnsgd1na2vs0mg"},{"bike_id":"d7a710b0-adff-4c5c-bf44-f4013363962c","system_id":"levelo_inurba_marseille","lat":43.24695,"lon":5.39431,"is_reserved":false,"is_disabled":false,"rental_uris":{"android":"levelo://app?vid=d7a710b0-adff-4c5c-bf44-f4013363962c","ios":"levelo://app?vid=d7a710b0-adff-4c5c-bf44-f4013363962c"},"vehicle_type_id":"4","last_reported":1737090564,"current_range_meters":38800,"station_id":"","pricing_plan_id":"cebpf4jnsgd1na2vs0mg"},{"bike_id":"fe7ba5aa-2295-4219-b011-ec35d891e374","system_id":"levelo_inurba_marseille","lat":43.29794,"lon":5.3935,"is_reserved":false,"is_disabled":false,"rental_uris":{"android":"levelo://app?vid=fe7ba5aa-2295-4219-b011-ec35d891e374","ios":"levelo://app?vid=fe7ba5aa-2295-4219-b011-ec35d891e374"},"vehicle_type_id":"4","last_reported":1737090564,"current_range_meters":24400,"station_id":"chh1huq6cuj3fo74tm60","pricing_plan_id":"cebpf4jnsgd1na2vs0mg"},{"bike_id":"5fe947e0-0768-4d0b-b66e-7dba1c4c7af8","system_id":"levelo_inurba_marseille","lat":43.3119,"lon":5.38711,"is_reserved":false,"is_disabled":false,"rental_uris":{"android":"levelo://app?vid=5fe947e0-0768-4d0b-b66e-7dba1c4c7af8","ios":"levelo://app?vid=5fe947e0-0768-4d0b-b66e-7dba1c4c7af8"},"vehicle_type_id":"4","last_reported":1737090564,"current_range_meters":30400,"station_id":"ce4bgv12rcd13ifvqcp0","pricing_plan_id":"cebpf4jnsgd1na2vs0mg"},{"bike_id":"796937da-d3c2-4907-8246-a357ef994094","system_id":"levelo_inurba_marseille","lat":43.31281,"lon":5.40167,"is_reserved":false,"is_disabled":false,"rental_uris":{"android":"levelo://app?vid=796937da-d3c2-4907-8246-a357ef994094","ios":"levelo://app?vid=796937da-d3c2-4907-8246-a357ef994094"},"vehicle_type_id":"4","last_reported":1737090564,"current_range_meters":24000,"station_id":"ce4bh092rcd13ifvqd30","pricing_plan_id":"cebpf4jnsgd1na2vs0mg"},{"bike_id":"60c469fc-3d82-43ea-8ec4-fc0b26db70e6","system_id":"levelo_inurba_marseille","lat":43.241665,"lon":5.397221,"is_reserved":false,"is_disabled":false,"rental_uris":{"android":"levelo://app?vid=60c469fc-3d82-43ea-8ec4-fc0b26db70e6","ios":"levelo://app?vid=60c469fc-3d82-43ea-8ec4-fc0b26db70e6"},"vehicle_type_id":"4","last_reported":1737090564,"current_range_meters":25600,"station_id":"ce4bhn12rcd13ifvqgpg","pricing_plan_id":"cebpf4jnsgd1na2vs0mg"},{"bike_id":"a1efa4cb-90b8-4ba7-95c5-9f7094dd45e5","system_id":"levelo_inurba_marseille","lat":43.25115,"lon":5.40337,"is_reserved":false,"is_disabled":false,"rental_uris":{"android":"levelo://app?vid=a1efa4cb-90b8-4ba7-95c5-9f7094dd45e5","ios":"levelo://app?vid=a1efa4cb-90b8-4ba7-95c5-9f7094dd45e5"},"vehicle_type_id":"4","last_reported":1737090564,"current_range_meters":24800,"station_id":"ce4bhlh2rcd13ifvqgig","pricing_plan_id":"cebpf4jnsgd1na2vs0mg"},{"bike_id":"3badb9dc-30c2-4fd6-ba97-722705a3b10c","system_id":"levelo_inurba_marseille","lat":43.33027,"lon":5.39038,"is_reserved":false,"is_disabled":false,"rental_uris":{"android":"levelo://app?vid=3badb9dc-30c2-4fd6-ba97-722705a3b10c","ios":"levelo://app?vid=3badb9dc-30c2-4fd6-ba97-722705a3b10c"},"vehicle_type_id":"4","last_reported":1737090564,"current_range_meters":8400,"station_id":"ce4bhr92rcd13ifvqhrg","pricing_plan_id":"cebpf4jnsgd1na2vs0mg"},{"bike_id":"2e70836a-a10f-4618-953a-21e9a7e8b8d7","system_id":"levelo_inurba_marseille","lat":43.28425,"lon":5.37519,"is_reserved":false,"is_disabled":false,"rental_uris":{"android":"levelo://app?vid=2e70836a-a10f-4618-953a-21e9a7e8b8d7","ios":"levelo://app?vid=2e70836a-a10f-4618-953a-21e9a7e8b8d7"},"vehicle_type_id":"4","last_reported":1737090564,"current_range_meters":27600,"station_id":"ce4bh412rcd13ifvqds0","pricing_plan_id":"cebpf4jnsgd1na2vs0mg"},{"bike_id":"7607e5e4-bfb0-479d-9bfe-af6a7bc68285","system_id":"levelo_inurba_marseille","lat":43.28014,"lon":5.36949,"is_reserved":false,"is_disabled":false,"rental_uris":{"android":"levelo://app?vid=7607e5e4-bfb0-479d-9bfe-af6a7bc68285","ios":"levelo://app?vid=7607e5e4-bfb0-479d-9bfe-af6a7bc68285"},"vehicle_type_id":"4","last_reported":1737090564,"current_range_meters":13600,"station_id":"ce4bha12rcd13ifvqef0","pricing_plan_id":"cebpf4jnsgd1na2vs0mg"},{"bike_id":"22465212-93af-4e0b-b803-6ee82bba56d5","system_id":"levelo_inurba_marseille","lat":43.337612,"lon":5.374918,"is_reserved":false,"is_disabled":false,"rental_uris":{"android":"levelo://app?vid=22465212-93af-4e0b-b803-6ee82bba56d5","ios":"levelo://app?vid=22465212-93af-4e0b-b803-6ee82bba56d5"},"vehicle_type_id":"4","last_reported":1737090564,"current_range_meters":32400,"station_id":"","pricing_plan_id":"cebpf4jnsgd1na2vs0mg"},{"bike_id":"c51cc554-db55-4370-8ce5-1d643e4f4fac","system_id":"levelo_inurba_marseille","lat":43.31072,"lon":5.38363,"is_reserved":false,"is_disabled":false,"rental_uris":{"android":"levelo://app?vid=c51cc554-db55-4370-8ce5-1d643e4f4fac","ios":"levelo://app?vid=c51cc554-db55-4370-8ce5-1d643e4f4fac"},"vehicle_type_id":"4","last_reported":1737090564,"current_range_meters":38400,"station_id":"ce4bgv92rcd13ifvqcr0","pricing_plan_id":"cebpf4jnsgd1na2vs0mg"},{"bike_id":"950bc21b-63fe-44c1-b3fa-5c243fc9e8a8","system_id":"levelo_inurba_marseille","lat":43.28304,"lon":5.35041,"is_reserved":false,"is_disabled":false,"rental_uris":{"android":"levelo://app?vid=950bc21b-63fe-44c1-b3fa-5c243fc9e8a8","ios":"levelo://app?vid=950bc21b-63fe-44c1-b3fa-5c243fc9e8a8"},"vehicle_type_id":"4","last_reported":1737090564,"current_range_meters":24800,"station_id":"ce4bhbp2rcd13ifvqerg","pricing_plan_id":"cebpf4jnsgd1na2vs0mg"},{"bike_id":"fc705563-96e6-45d0-adb3-8588f3962dd4","system_id":"levelo_inurba_marseille","lat":43.323623,"lon":5.388972,"is_reserved":false,"is_disabled":false,"rental_uris":{"android":"levelo://app?vid=fc705563-96e6-45d0-adb3-8588f3962dd4","ios":"levelo://app?vid=fc705563-96e6-45d0-adb3-8588f3962dd4"},"vehicle_type_id":"4","last_reported":1737090564,"current_range_meters":30000,"station_id":"ce4bhqp2rcd13ifvqhog","pricing_plan_id":"cebpf4jnsgd1na2vs0mg"},{"bike_id":"116abbd6-c384-4026-9286-815c5e949b26","system_id":"levelo_inurba_marseille","lat":43.268,"lon":5.40267,"is_reserved":false,"is_disabled":false,"rental_uris":{"android":"levelo://app?vid=116abbd6-c384-4026-9286-815c5e949b26","ios":"levelo://app?vid=116abbd6-c384-4026-9286-815c5e949b26"},"vehicle_type_id":"4","last_reported":1737090564,"current_range_meters":38000,"station_id":"ce501612rcd8frsf0b60","pricing_plan_id":"cebpf4jnsgd1na2vs0mg"},{"bike_id":"a8db5288-c1e8-4edb-9813-ff376462315e","system_id":"levelo_inurba_marseille","lat":43.29512,"lon":5.39398,"is_reserved":false,"is_disabled":false,"rental_uris":{"android":"levelo://app?vid=a8db5288-c1e8-4edb-9813-ff376462315e","ios":"levelo://app?vid=a8db5288-c1e8-4edb-9813-ff376462315e"},"vehicle_type_id":"4","last_reported":1737090564,"current_range_meters":16800,"station_id":"ce4bh292rcd13ifvqdf0","pricing_plan_id":"cebpf4jnsgd1na2vs0mg"},{"bike_id":"ec41b1e8-bba3-4e66-982f-aeea97468d8d","system_id":"levelo_inurba_marseille","lat":43.30646,"lon":5.40049,"is_reserved":false,"is_disabled":false,"rental_uris":{"android":"levelo://app?vid=ec41b1e8-bba3-4e66-982f-aeea97468d8d","ios":"levelo://app?vid=ec41b1e8-bba3-4e66-982f-aeea97468d8d"},"vehicle_type_id":"4","last_reported":1737090564,"current_range_meters":38000,"station_id":"ce4bh112rcd13ifvqda0","pricing_plan_id":"cebpf4jnsgd1na2vs0mg"},{"bike_id":"84708e74-0fe7-4fb2-addd-7c044bcdb32e","system_id":"levelo_inurba_marseille","lat":43.32037,"lon":5.38152,"is_reserved":false,"is_disabled":false,"rental_uris":{"android":"levelo://app?vid=84708e74-0fe7-4fb2-addd-7c044bcdb32e","ios":"levelo://app?vid=84708e74-0fe7-4fb2-addd-7c044bcdb32e"},"vehicle_type_id":"4","last_reported":1737090564,"current_range_meters":30000,"station_id":"ce4bhr12rcd13ifvqhpg","pricing_plan_id":"cebpf4jnsgd1na2vs0mg"},{"bike_id":"9b3f5263-092a-42a3-985e-303e3ee0becf","system_id":"levelo_inurba_marseille","lat":43.264997,"lon":5.395432,"is_reserved":false,"is_disabled":true,"rental_uris":{"android":"levelo://app?vid=9b3f5263-092a-42a3-985e-303e3ee0becf","ios":"levelo://app?vid=9b3f5263-092a-42a3-985e-303e3ee0becf"},"vehicle_type_id":"4","last_reported":1737090564,"current_range_meters":800,"station_id":"ce4bhi12rcd13ifvqfq0","pricing_plan_id":"cebpf4jnsgd1na2vs0mg"},{"bike_id":"03ceb659-62e9-480b-9c9d-2ee192b5c61e","system_id":"levelo_inurba_marseille","lat":43.30145,"lon":5.39849,"is_reserved":false,"is_disabled":false,"rental_uris":{"android":"levelo://app?vid=03ceb659-62e9-480b-9c9d-2ee192b5c61e","ios":"levelo://app?vid=03ceb659-62e9-480b-9c9d-2ee192b5c61e"},"vehicle_type_id":"4","last_reported":1737090564,"current_range_meters":39200,"station_id":"ce4bh0h2rcd13ifvqd40","pricing_plan_id":"cebpf4jnsgd1na2vs0mg"},{"bike_id":"12d1acc0-d47e-4031-b610-839a5a37f231","system_id":"levelo_inurba_marseille","lat":43.30803,"lon":5.37634,"is_reserved":false,"is_disabled":false,"rental_uris":{"android":"levelo://app?vid=12d1acc0-d47e-4031-b610-839a5a37f231","ios":"levelo://app?vid=12d1acc0-d47e-4031-b610-839a5a37f231"},"vehicle_type_id":"4","last_reported":1737090564,"current_range_meters":29600,"station_id":"ce4bgv92rcd13ifvqcq0","pricing_plan_id":"cebpf4jnsgd1na2vs0mg"},{"bike_id":"6b54765a-e657-4a02-9991-c6ec403a0067","system_id":"levelo_inurba_marseille","lat":43.27833,"lon":5.39205,"is_reserved":false,"is_disabled":false,"rental_uris":{"android":"levelo://app?vid=6b54765a-e657-4a02-9991-c6ec403a0067","ios":"levelo://app?vid=6b54765a-e657-4a02-9991-c6ec403a0067"},"vehicle_type_id":"4","last_reported":1737090564,"current_range_meters":16000,"station_id":"ce4bhjp2rcd13ifvqga0","pricing_plan_id":"cebpf4jnsgd1na2vs0mg"},{"bike_id":"84ea5426-3fce-4231-9bdf-a79c77ac6453","system_id":"levelo_inurba_marseille","lat":43.279081,"lon":5.395828,"is_reserved":false,"is_disabled":true,"rental_uris":{"android":"levelo://app?vid=84ea5426-3fce-4231-9bdf-a79c77ac6453","ios":"levelo://app?vid=84ea5426-3fce-4231-9bdf-a79c77ac6453"},"vehicle_type_id":"4","last_reported":1737090564,"current_range_meters":2000,"station_id":"ce4bhf92rcd13ifvqf40","pricing_plan_id":"cebpf4jnsgd1na2vs0mg"},{"bike_id":"e501bc45-b105-4431-b368-9d9682b80a8a","system_id":"levelo_inurba_marseille","lat":43.24397,"lon":5.37052,"is_reserved":false,"is_disabled":false,"rental_uris":{"android":"levelo://app?vid=e501bc45-b105-4431-b368-9d9682b80a8a","ios":"levelo://app?vid=e501bc45-b105-4431-b368-9d9682b80a8a"},"vehicle_type_id":"4","last_reported":1737090564,"current_range_meters":38800,"station_id":"ce4bhhh2rcd13ifvqfk0","pricing_plan_id":"cebpf4jnsgd1na2vs0mg"},{"bike_id":"24bcc0cf-8c95-40af-8068-dc3c48d5cf59","system_id":"levelo_inurba_marseille","lat":43.33609,"lon":5.41019,"is_reserved":false,"is_disabled":false,"rental_uris":{"android":"levelo://app?vid=24bcc0cf-8c95-40af-8068-dc3c48d5cf59","ios":"levelo://app?vid=24bcc0cf-8c95-40af-8068-dc3c48d5cf59"},"vehicle_type_id":"4","last_reported":1737090564,"current_range_meters":38800,"station_id":"ce4bhqh2rcd13ifvqhmg","pricing_plan_id":"cebpf4jnsgd1na2vs0mg"},{"bike_id":"88f06cab-f371-470b-85ff-7238b57cbcc5","system_id":"levelo_inurba_marseille","lat":43.25862,"lon":5.399,"is_reserved":false,"is_disabled":false,"rental_uris":{"android":"levelo://app?vid=88f06cab-f371-470b-85ff-7238b57cbcc5","ios":"levelo://app?vid=88f06cab-f371-470b-85ff-7238b57cbcc5"},"vehicle_type_id":"4","last_reported":1737090564,"current_range_meters":27200,"station_id":"ce4bhl92rcd13ifvqghg","pricing_plan_id":"cebpf4jnsgd1na2vs0mg"},{"bike_id":"6a7366d7-ed8c-4629-bf0c-70c2abcda36d","system_id":"levelo_inurba_marseille","lat":43.23193,"lon":5.35549,"is_reserved":false,"is_disabled":false,"rental_uris":{"android":"levelo://app?vid=6a7366d7-ed8c-4629-bf0c-70c2abcda36d","ios":"levelo://app?vid=6a7366d7-ed8c-4629-bf0c-70c2abcda36d"},"vehicle_type_id":"4","last_reported":1737090564,"current_range_meters":8800,"station_id":"ce4bhu92rcd13ifvqi70","pricing_plan_id":"cebpf4jnsgd1na2vs0mg"},{"bike_id":"fb728eb9-c6dd-478e-b742-f6d266b3696e","system_id":"levelo_inurba_marseille","lat":43.24083,"lon":5.37752,"is_reserved":false,"is_disabled":false,"rental_uris":{"android":"levelo://app?vid=fb728eb9-c6dd-478e-b742-f6d266b3696e","ios":"levelo://app?vid=fb728eb9-c6dd-478e-b742-f6d266b3696e"},"vehicle_type_id":"4","last_reported":1737090564,"current_range_meters":37600,"station_id":"ce4bhnp2rcd13ifvqgvg","pricing_plan_id":"cebpf4jnsgd1na2vs0mg"},{"bike_id":"2d7f3353-743b-41e1-85f2-e32181d4ae48","system_id":"levelo_inurba_marseille","lat":43.31947,"lon":5.38166,"is_reserved":false,"is_disabled":false,"rental_uris":{"android":"levelo://app?vid=2d7f3353-743b-41e1-85f2-e32181d4ae48","ios":"levelo://app?vid=2d7f3353-743b-41e1-85f2-e32181d4ae48"},"vehicle_type_id":"4","last_reported":1737090564,"current_range_meters":30000,"station_id":"ce4bhr12rcd13ifvqhpg","pricing_plan_id":"cebpf4jnsgd1na2vs0mg"},{"bike_id":"573076c8-1172-47e5-b129-cb987286e5ee","system_id":"levelo_inurba_marseille","lat":43.27829,"lon":5.40707,"is_reserved":false,"is_disabled":false,"rental_uris":{"android":"levelo://app?vid=573076c8-1172-47e5-b129-cb987286e5ee","ios":"levelo://app?vid=573076c8-1172-47e5-b129-cb987286e5ee"},"vehicle_type_id":"4","last_reported":1737090564,"current_range_meters":38800,"station_id":"ce4bhnh2rcd13ifvqgtg","pricing_plan_id":"cebpf4jnsgd1na2vs0mg"},{"bike_id":"dfe49980-a3aa-4a59-8079-82a869c76fb4","system_id":"levelo_inurba_marseille","lat":43.31118,"lon":5.37764,"is_reserved":false,"is_disabled":false,"rental_uris":{"android":"levelo://app?vid=dfe49980-a3aa-4a59-8079-82a869c76fb4","ios":"levelo://app?vid=dfe49980-a3aa-4a59-8079-82a869c76fb4"},"vehicle_type_id":"4","last_reported":1737090564,"current_range_meters":20800,"station_id":"ce4bgt92rcd13ifvqcg0","pricing_plan_id":"cebpf4jnsgd1na2vs0mg"},{"bike_id":"35deb437-7ef2-4ee7-9ea5-27ce0001ca7b","system_id":"levelo_inurba_marseille","lat":43.260646,"lon":5.393949,"is_reserved":false,"is_disabled":false,"rental_uris":{"android":"levelo://app?vid=35deb437-7ef2-4ee7-9ea5-27ce0001ca7b","ios":"levelo://app?vid=35deb437-7ef2-4ee7-9ea5-27ce0001ca7b"},"vehicle_type_id":"4","last_reported":1737090564,"current_range_meters":38400,"station_id":"ce4bhh92rcd13ifvqfj0","pricing_plan_id":"cebpf4jnsgd1na2vs0mg"},{"bike_id":"cf2b4e8a-67ae-4671-8949-a61a6e5d6291","system_id":"levelo_inurba_marseille","lat":43.28721,"lon":5.36081,"is_reserved":false,"is_disabled":false,"rental_uris":{"android":"levelo://app?vid=cf2b4e8a-67ae-4671-8949-a61a6e5d6291","ios":"levelo://app?vid=cf2b4e8a-67ae-4671-8949-a61a6e5d6291"},"vehicle_type_id":"4","last_reported":1737090564,"current_range_meters":24000,"station_id":"cki0cbj6b192h4jlfktg","pricing_plan_id":"cebpf4jnsgd1na2vs0mg"},{"bike_id":"74dd2b96-e42e-4604-90a2-ea12934db450","system_id":"levelo_inurba_marseille","lat":43.28708,"lon":5.37384,"is_reserved":false,"is_disabled":false,"rental_uris":{"android":"levelo://app?vid=74dd2b96-e42e-4604-90a2-ea12934db450","ios":"levelo://app?vid=74dd2b96-e42e-4604-90a2-ea12934db450"},"vehicle_type_id":"4","last_reported":1737090564,"current_range_meters":26800,"station_id":"ce4bh3p2rcd13ifvqdq0","pricing_plan_id":"cebpf4jnsgd1na2vs0mg"},{"bike_id":"006eddf6-3b41-4a21-a985-f7a4350b5bf4","system_id":"levelo_inurba_marseille","lat":43.26056,"lon":5.393935,"is_reserved":false,"is_disabled":false,"rental_uris":{"android":"levelo://app?vid=006eddf6-3b41-4a21-a985-f7a4350b5bf4","ios":"levelo://app?vid=006eddf6-3b41-4a21-a985-f7a4350b5bf4"},"vehicle_type_id":"4","last_reported":1737090564,"current_range_meters":30000,"station_id":"ce4bhh92rcd13ifvqfj0","pricing_plan_id":"cebpf4jnsgd1na2vs0mg"},{"bike_id":"ed6fa31d-6e12-4552-91b0-03f764193d1c","system_id":"levelo_inurba_marseille","lat":43.30898,"lon":5.39608,"is_reserved":false,"is_disabled":false,"rental_uris":{"android":"levelo://app?vid=ed6fa31d-6e12-4552-91b0-03f764193d1c","ios":"levelo://app?vid=ed6fa31d-6e12-4552-91b0-03f764193d1c"},"vehicle_type_id":"4","last_reported":1737090564,"current_range_meters":17600,"station_id":"ce4bh012rcd13ifvqcv0","pricing_plan_id":"cebpf4jnsgd1na2vs0mg"},{"bike_id":"a545456e-daba-46fc-9598-bdbbf3d84031","system_id":"levelo_inurba_marseille","lat":43.3013,"lon":5.38787,"is_reserved":false,"is_disabled":false,"rental_uris":{"android":"levelo://app?vid=a545456e-daba-46fc-9598-bdbbf3d84031","ios":"levelo://app?vid=a545456e-daba-46fc-9598-bdbbf3d84031"},"vehicle_type_id":"4","last_reported":1737090564,"current_range_meters":37600,"station_id":"ce4bhoh2rcd13ifvqh6g","pricing_plan_id":"cebpf4jnsgd1na2vs0mg"},{"bike_id":"e2b2f78a-aa43-4460-82ba-2098e62e5e5c","system_id":"levelo_inurba_marseille","lat":43.32337,"lon":5.40626,"is_reserved":false,"is_disabled":false,"rental_uris":{"android":"levelo://app?vid=e2b2f78a-aa43-4460-82ba-2098e62e5e5c","ios":"levelo://app?vid=e2b2f78a-aa43-4460-82ba-2098e62e5e5c"},"vehicle_type_id":"4","last_reported":1737090564,"current_range_meters":38800,"station_id":"ce4bhq92rcd13ifvqhjg","pricing_plan_id":"cebpf4jnsgd1na2vs0mg"},{"bike_id":"3c7eae7d-5d56-4a4e-b634-6ae607c41217","system_id":"levelo_inurba_marseille","lat":43.2984,"lon":5.39736,"is_reserved":false,"is_disabled":false,"rental_uris":{"android":"levelo://app?vid=3c7eae7d-5d56-4a4e-b634-6ae607c41217","ios":"levelo://app?vid=3c7eae7d-5d56-4a4e-b634-6ae607c41217"},"vehicle_type_id":"4","last_reported":1737090564,"current_range_meters":25600,"station_id":"ce4bh0h2rcd13ifvqd50","pricing_plan_id":"cebpf4jnsgd1na2vs0mg"},{"bike_id":"5d42a98e-bef8-43af-946e-751274f82d4c","system_id":"levelo_inurba_marseille","lat":43.23664,"lon":5.43602,"is_reserved":false,"is_disabled":true,"rental_uris":{"android":"levelo://app?vid=5d42a98e-bef8-43af-946e-751274f82d4c","ios":"levelo://app?vid=5d42a98e-bef8-43af-946e-751274f82d4c"},"vehicle_type_id":"4","last_reported":1737090564,"current_range_meters":28800,"station_id":"","pricing_plan_id":"cebpf4jnsgd1na2vs0mg"},{"bike_id":"8571fa29-2eb6-4f83-8953-37247149cbcd","system_id":"levelo_inurba_marseille","lat":43.30318,"lon":5.40441,"is_reserved":false,"is_disabled":false,"rental_uris":{"android":"levelo://app?vid=8571fa29-2eb6-4f83-8953-37247149cbcd","ios":"levelo://app?vid=8571fa29-2eb6-4f83-8953-37247149cbcd"},"vehicle_type_id":"4","last_reported":1737090564,"current_range_meters":38800,"station_id":"ce4bh012rcd13ifvqd10","pricing_plan_id":"cebpf4jnsgd1na2vs0mg"},{"bike_id":"9fef62c1-09f6-4d53-ab83-76888bceebbd","system_id":"levelo_inurba_marseille","lat":43.261908,"lon":5.420702,"is_reserved":false,"is_disabled":false,"rental_uris":{"android":"levelo://app?vid=9fef62c1-09f6-4d53-ab83-76888bceebbd","ios":"levelo://app?vid=9fef62c1-09f6-4d53-ab83-76888bceebbd"},"vehicle_type_id":"4","last_reported":1737090564,"current_range_meters":26000,"station_id":"","pricing_plan_id":"cebpf4jnsgd1na2vs0mg"},{"bike_id":"e81fcb6d-fd74-41a0-9349-bad6277ce826","system_id":"levelo_inurba_marseille","lat":43.29254,"lon":5.40922,"is_reserved":false,"is_disabled":false,"rental_uris":{"android":"levelo://app?vid=e81fcb6d-fd74-41a0-9349-bad6277ce826","ios":"levelo://app?vid=e81fcb6d-fd74-41a0-9349-bad6277ce826"},"vehicle_type_id":"4","last_reported":1737090564,"current_range_meters":38800,"station_id":"ce4bh192rcd13ifvqdc0","pricing_plan_id":"cebpf4jnsgd1na2vs0mg"},{"bike_id":"28f470e6-004d-41dc-a451-c260ad329b1d","system_id":"levelo_inurba_marseille","lat":43.27558,"lon":5.3842,"is_reserved":false,"is_disabled":false,"rental_uris":{"android":"levelo://app?vid=28f470e6-004d-41dc-a451-c260ad329b1d","ios":"levelo://app?vid=28f470e6-004d-41dc-a451-c260ad329b1d"},"vehicle_type_id":"4","last_reported":1737090564,"current_range_meters":35200,"station_id":"ce4bhh92rcd13ifvqfi0","pricing_plan_id":"cebpf4jnsgd1na2vs0mg"},{"bike_id":"f82b49c3-eae7-4beb-9bf0-f2964a4e2408","system_id":"levelo_inurba_marseille","lat":43.25833,"lon":5.39918,"is_reserved":false,"is_disabled":false,"rental_uris":{"android":"levelo://app?vid=f82b49c3-eae7-4beb-9bf0-f2964a4e2408","ios":"levelo://app?vid=f82b49c3-eae7-4beb-9bf0-f2964a4e2408"},"vehicle_type_id":"4","last_reported":1737090564,"current_range_meters":38800,"station_id":"ce4bhl92rcd13ifvqghg","pricing_plan_id":"cebpf4jnsgd1na2vs0mg"},{"bike_id":"781610f3-1b32-40db-8861-69091e243170","system_id":"levelo_inurba_marseille","lat":43.30143,"lon":5.38774,"is_reserved":false,"is_disabled":false,"rental_uris":{"android":"levelo://app?vid=781610f3-1b32-40db-8861-69091e243170","ios":"levelo://app?vid=781610f3-1b32-40db-8861-69091e243170"},"vehicle_type_id":"4","last_reported":1737090564,"current_range_meters":35600,"station_id":"ce4bghh2rcd13ifvqb60","pricing_plan_id":"cebpf4jnsgd1na2vs0mg"},{"bike_id":"c00bc195-a15c-4f3b-9a6a-fb6af373d505","system_id":"levelo_inurba_marseille","lat":43.33089,"lon":5.39016,"is_reserved":false,"is_disabled":false,"rental_uris":{"android":"levelo://app?vid=c00bc195-a15c-4f3b-9a6a-fb6af373d505","ios":"levelo://app?vid=c00bc195-a15c-4f3b-9a6a-fb6af373d505"},"vehicle_type_id":"4","last_reported":1737090564,"current_range_meters":24400,"station_id":"","pricing_plan_id":"cebpf4jnsgd1na2vs0mg"},{"bike_id":"71b9d26b-1162-49db-b498-f140bd0e1c7d","system_id":"levelo_inurba_marseille","lat":43.297911,"lon":5.393426,"is_reserved":false,"is_disabled":false,"rental_uris":{"android":"levelo://app?vid=71b9d26b-1162-49db-b498-f140bd0e1c7d","ios":"levelo://app?vid=71b9d26b-1162-49db-b498-f140bd0e1c7d"},"vehicle_type_id":"4","last_reported":1737090564,"current_range_meters":31200,"station_id":"chh1huq6cuj3fo74tm60","pricing_plan_id":"cebpf4jnsgd1na2vs0mg"},{"bike_id":"66f16007-b1a5-436f-ac44-7c6e43289790","system_id":"levelo_inurba_marseille","lat":43.24697,"lon":5.3815,"is_reserved":false,"is_disabled":false,"rental_uris":{"android":"levelo://app?vid=66f16007-b1a5-436f-ac44-7c6e43289790","ios":"levelo://app?vid=66f16007-b1a5-436f-ac44-7c6e43289790"},"vehicle_type_id":"4","last_reported":1737090564,"current_range_meters":38000,"station_id":"ce4bhih2rcd13ifvqfr0","pricing_plan_id":"cebpf4jnsgd1na2vs0mg"},{"bike_id":"bb475463-9f40-4832-94e8-039b247d6f2c","system_id":"levelo_inurba_marseille","lat":43.308906,"lon":5.396296,"is_reserved":false,"is_disabled":false,"rental_uris":{"android":"levelo://app?vid=bb475463-9f40-4832-94e8-039b247d6f2c","ios":"levelo://app?vid=bb475463-9f40-4832-94e8-039b247d6f2c"},"vehicle_type_id":"4","last_reported":1737090564,"current_range_meters":38800,"station_id":"ce4bh012rcd13ifvqcv0","pricing_plan_id":"cebpf4jnsgd1na2vs0mg"},{"bike_id":"ea400eeb-e641-4dc5-ad96-ebeeae8838b9","system_id":"levelo_inurba_marseille","lat":43.31185,"lon":5.38715,"is_reserved":false,"is_disabled":false,"rental_uris":{"android":"levelo://app?vid=ea400eeb-e641-4dc5-ad96-ebeeae8838b9","ios":"levelo://app?vid=ea400eeb-e641-4dc5-ad96-ebeeae8838b9"},"vehicle_type_id":"4","last_reported":1737090564,"current_range_meters":30800,"station_id":"ce4bgv12rcd13ifvqcp0","pricing_plan_id":"cebpf4jnsgd1na2vs0mg"},{"bike_id":"d6a42346-a590-43c2-877e-f1bf8e8be9ea","system_id":"levelo_inurba_marseille","lat":43.23964,"lon":5.3662,"is_reserved":false,"is_disabled":false,"rental_uris":{"android":"levelo://app?vid=d6a42346-a590-43c2-877e-f1bf8e8be9ea","ios":"levelo://app?vid=d6a42346-a590-43c2-877e-f1bf8e8be9ea"},"vehicle_type_id":"4","last_reported":1737090564,"current_range_meters":29600,"station_id":"ce4bhi12rcd13ifvqfp0","pricing_plan_id":"cebpf4jnsgd1na2vs0mg"},{"bike_id":"163f01a4-28b1-4f1c-9a85-f7075b5dbb69","system_id":"levelo_inurba_marseille","lat":43.30202,"lon":5.39478,"is_reserved":false,"is_disabled":false,"rental_uris":{"android":"levelo://app?vid=163f01a4-28b1-4f1c-9a85-f7075b5dbb69","ios":"levelo://app?vid=163f01a4-28b1-4f1c-9a85-f7075b5dbb69"},"vehicle_type_id":"4","last_reported":1737090564,"current_range_meters":38800,"station_id":"ce4bh0p2rcd13ifvqd70","pricing_plan_id":"cebpf4jnsgd1na2vs0mg"},{"bike_id":"ea68a76e-b4c6-4be9-ab98-1a2f34b18dea","system_id":"levelo_inurba_marseille","lat":43.24157,"lon":5.39746,"is_reserved":false,"is_disabled":false,"rental_uris":{"android":"levelo://app?vid=ea68a76e-b4c6-4be9-ab98-1a2f34b18dea","ios":"levelo://app?vid=ea68a76e-b4c6-4be9-ab98-1a2f34b18dea"},"vehicle_type_id":"4","last_reported":1737090564,"current_range_meters":16400,"station_id":"ce4bhn12rcd13ifvqgpg","pricing_plan_id":"cebpf4jnsgd1na2vs0mg"},{"bike_id":"c7b019f7-5d57-48a0-afbe-9c39028ab5f4","system_id":"levelo_inurba_marseille","lat":43.27566,"lon":5.38406,"is_reserved":false,"is_disabled":false,"rental_uris":{"android":"levelo://app?vid=c7b019f7-5d57-48a0-afbe-9c39028ab5f4","ios":"levelo://app?vid=c7b019f7-5d57-48a0-afbe-9c39028ab5f4"},"vehicle_type_id":"4","last_reported":1737090564,"current_range_meters":25600,"station_id":"ce4bhh92rcd13ifvqfi0","pricing_plan_id":"cebpf4jnsgd1na2vs0mg"},{"bike_id":"a486527d-ab61-4f0a-a481-7382e3f08ab1","system_id":"levelo_inurba_marseille","lat":43.28076,"lon":5.39655,"is_reserved":false,"is_disabled":false,"rental_uris":{"android":"levelo://app?vid=a486527d-ab61-4f0a-a481-7382e3f08ab1","ios":"levelo://app?vid=a486527d-ab61-4f0a-a481-7382e3f08ab1"},"vehicle_type_id":"4","last_reported":1737090564,"current_range_meters":16800,"station_id":"ce4bho12rcd13ifvqh2g","pricing_plan_id":"cebpf4jnsgd1na2vs0mg"},{"bike_id":"adcf948d-f764-4480-a63e-dadc9d72f803","system_id":"levelo_inurba_marseille","lat":43.31689,"lon":5.37768,"is_reserved":false,"is_disabled":false,"rental_uris":{"android":"levelo://app?vid=adcf948d-f764-4480-a63e-dadc9d72f803","ios":"levelo://app?vid=adcf948d-f764-4480-a63e-dadc9d72f803"},"vehicle_type_id":"4","last_reported":1737090564,"current_range_meters":26800,"station_id":"ce4bgth2rcd13ifvqch0","pricing_plan_id":"cebpf4jnsgd1na2vs0mg"},{"bike_id":"7383474c-b45a-4438-837c-99d7ae866fe7","system_id":"levelo_inurba_marseille","lat":43.26062,"lon":5.393915,"is_reserved":false,"is_disabled":false,"rental_uris":{"android":"levelo://app?vid=7383474c-b45a-4438-837c-99d7ae866fe7","ios":"levelo://app?vid=7383474c-b45a-4438-837c-99d7ae866fe7"},"vehicle_type_id":"4","last_reported":1737090564,"current_range_meters":38800,"station_id":"ce4bhh92rcd13ifvqfj0","pricing_plan_id":"cebpf4jnsgd1na2vs0mg"},{"bike_id":"732a7b0e-76ff-4586-af78-f3829e7ab96d","system_id":"levelo_inurba_marseille","lat":43.28373,"lon":5.38615,"is_reserved":false,"is_disabled":false,"rental_uris":{"android":"levelo://app?vid=732a7b0e-76ff-4586-af78-f3829e7ab96d","ios":"levelo://app?vid=732a7b0e-76ff-4586-af78-f3829e7ab96d"},"vehicle_type_id":"4","last_reported":1737090564,"current_range_meters":24400,"station_id":"ce4bh492rcd13ifvqdvg","pricing_plan_id":"cebpf4jnsgd1na2vs0mg"},{"bike_id":"69ae9584-9a03-4c67-af99-00b3bcfab561","system_id":"levelo_inurba_marseille","lat":43.278153,"lon":5.407105,"is_reserved":false,"is_disabled":false,"rental_uris":{"android":"levelo://app?vid=69ae9584-9a03-4c67-af99-00b3bcfab561","ios":"levelo://app?vid=69ae9584-9a03-4c67-af99-00b3bcfab561"},"vehicle_type_id":"4","last_reported":1737090564,"current_range_meters":28800,"station_id":"ce4bhnh2rcd13ifvqgtg","pricing_plan_id":"cebpf4jnsgd1na2vs0mg"},{"bike_id":"45a7bbd0-5ae5-423a-a26d-d8a9d414243f","system_id":"levelo_inurba_marseille","lat":43.25104,"lon":5.40326,"is_reserved":false,"is_disabled":false,"rental_uris":{"android":"levelo://app?vid=45a7bbd0-5ae5-423a-a26d-d8a9d414243f","ios":"levelo://app?vid=45a7bbd0-5ae5-423a-a26d-d8a9d414243f"},"vehicle_type_id":"4","last_reported":1737090564,"current_range_meters":32800,"station_id":"ce4bhlh2rcd13ifvqgig","pricing_plan_id":"cebpf4jnsgd1na2vs0mg"},{"bike_id":"d5a0b615-4526-4d7e-af0a-77e05de502d3","system_id":"levelo_inurba_marseille","lat":43.295692,"lon":5.399828,"is_reserved":false,"is_disabled":false,"rental_uris":{"android":"levelo://app?vid=d5a0b615-4526-4d7e-af0a-77e05de502d3","ios":"levelo://app?vid=d5a0b615-4526-4d7e-af0a-77e05de502d3"},"vehicle_type_id":"4","last_reported":1737090564,"current_range_meters":38800,"station_id":"ce4bh312rcd13ifvqdj0","pricing_plan_id":"cebpf4jnsgd1na2vs0mg"},{"bike_id":"b40614b7-3a44-4202-8806-9fd2213aa7fa","system_id":"levelo_inurba_marseille","lat":43.298719,"lon":5.397386,"is_reserved":false,"is_disabled":false,"rental_uris":{"android":"levelo://app?vid=b40614b7-3a44-4202-8806-9fd2213aa7fa","ios":"levelo://app?vid=b40614b7-3a44-4202-8806-9fd2213aa7fa"},"vehicle_type_id":"4","last_reported":1737090564,"current_range_meters":27600,"station_id":"ce4bh0h2rcd13ifvqd50","pricing_plan_id":"cebpf4jnsgd1na2vs0mg"},{"bike_id":"2437477f-81ad-4536-a69a-573e43db8531","system_id":"levelo_inurba_marseille","lat":43.31306,"lon":5.39688,"is_reserved":false,"is_disabled":false,"rental_uris":{"android":"levelo://app?vid=2437477f-81ad-4536-a69a-573e43db8531","ios":"levelo://app?vid=2437477f-81ad-4536-a69a-573e43db8531"},"vehicle_type_id":"4","last_reported":1737090564,"current_range_meters":7200,"station_id":"ce4bgvp2rcd13ifvqcu0","pricing_plan_id":"cebpf4jnsgd1na2vs0mg"},{"bike_id":"66ecc205-2fae-4213-9be3-91528272c1e6","system_id":"levelo_inurba_marseille","lat":43.23194,"lon":5.35573,"is_reserved":false,"is_disabled":false,"rental_uris":{"android":"levelo://app?vid=66ecc205-2fae-4213-9be3-91528272c1e6","ios":"levelo://app?vid=66ecc205-2fae-4213-9be3-91528272c1e6"},"vehicle_type_id":"4","last_reported":1737090564,"current_range_meters":38000,"station_id":"ce4bhu92rcd13ifvqi70","pricing_plan_id":"cebpf4jnsgd1na2vs0mg"},{"bike_id":"fcf1fa5f-2412-4a0a-a0f4-a80c6292d5a8","system_id":"levelo_inurba_marseille","lat":43.30883,"lon":5.39631,"is_reserved":false,"is_disabled":false,"rental_uris":{"android":"levelo://app?vid=fcf1fa5f-2412-4a0a-a0f4-a80c6292d5a8","ios":"levelo://app?vid=fcf1fa5f-2412-4a0a-a0f4-a80c6292d5a8"},"vehicle_type_id":"4","last_reported":1737090564,"current_range_meters":36800,"station_id":"ce4bh012rcd13ifvqcv0","pricing_plan_id":"cebpf4jnsgd1na2vs0mg"},