{"last_updated":1742886656,"ttl":60,"version":"2.2","data":{"bikes":[{"bike_id":"b765753e-a815-443b-a36c-053ca684f888","system_id":"levelo_inurba_marseille","lat":43.24651,"lon":5.38896,"is_reserved":false,"is_disabled":false,"rental_uris":{"android":"levelo://app?vid=b765753e-a815-443b-a36c-053ca684f888","ios":"levelo://app?vid=b765753e-a815-443b-a36c-053ca684f888"},"vehicle_type_id":"4","last_reported":1742886657,"current_range_meters":2800,"station_id":"ce4bhg12rcd13ifvqf60","pricing_plan_id":"cebpf4jnsgd1na2vs0mg"},{"bike_id":"5521f4bf-5dc6-4e03-97d0-da89ae4f43d9","system_id":"levelo_inurba_marseille","lat":43.27635,"lon":5.36129,"is_reserved":false,"is_disabled":false,"rental_uris":{"android":"levelo://app?vid=5521f4bf-5dc6-4e03-97d0-da89ae4f43d9","ios":"levelo://app?vid=5521f4bf-5dc6-4e03-97d0-da89ae4f43d9"},"vehicle_type_id":"4","last_reported":1742886657,"current_range_meters":2800,"station_id":"ce4bgj92rcd13ifvqbe0","pricing_plan_id":"cebpf4jnsgd1na2vs0mg"},{"bike_id":"c1f1d47b-a032-4f69-846f-35b43aa189e1","system_id":"levelo_inurba_marseille","lat":43.241681,"lon":5.36394,"is_reserved":false,"is_disabled":false,"rental_uris":{"android":"levelo://app?vid=c1f1d47b-a032-4f69-846f-35b43aa189e1","ios":"levelo://app?vid=c1f1d47b-a032-4f69-846f-35b43aa189e1"},"vehicle_type_id":"4","last_reported":1742886657,"current_range_meters":3200,"station_id":"cpo36qri1sfpv3e86is0","pricing_plan_id":"cebpf4jnsgd1na2vs0mg"},{"bike_id":"732a627f-01b2-4ae6-a8e5-331bcbff3b4f","system_id":"levelo_inurba_marseille","lat":43.25152,"lon":5.40337,"is_reserved":false,"is_disabled":false,"rental_uris":{"android":"levelo://app?vid=732a627f-01b2-4ae6-a8e5-331bcbff3b4f","ios":"levelo://app?vid=732a627f-01b2-4ae6-a8e5-331bcbff3b4f"},"vehicle_type_id":"4","last_reported":1742886657,"current_range_meters":3200,"station_id":"","pricing_plan_id":"cebpf4jnsgd1na2vs0mg"},{"bike_id":"5f267237-ac25-4b82-8e75-e9e3e54330ac","system_id":"levelo_inurba_marseille","lat":43.286085,"lon":5.383959,"is_reserved":false,"is_disabled":false,"rental_uris":{"android":"levelo://app?vid=5f267237-ac25-4b82-8e75-e9e3e54330ac","ios":"levelo://app?vid=5f267237-ac25-4b82-8e75-e9e3e54330ac"},"vehicle_type_id":"4","last_reported":1742886657,"current_range_meters":3600,"station_id":"ce4bh412rcd13ifvqdr0","pricing_plan_id":"cebpf4jnsgd1na2vs0mg"},{"bike_id":"40b7fd24-6205-4329-8d91-9baa7dc14f35","system_id":"levelo_inurba_marseille","lat":43.30591,"lon":5.39344,"is_reserved":false,"is_disabled":false,"rental_uris":{"android":"levelo://app?vid=40b7fd24-6205-4329-8d91-9baa7dc14f35","ios":"levelo://app?vid=40b7fd24-6205-4329-8d91-9baa7dc14f35"},"vehicle_type_id":"4","last_reported":1742886657,"current_range_meters":3600,"station_id":"ce4bh0p2rcd13ifvqd80","pricing_plan_id":"cebpf4jnsgd1na2vs0mg"},{"bike_id":"1b7c5e4e-130d-4e75-8db2-feee0d51fa46","system_id":"levelo_inurba_marseille","lat":43.241785,"lon":5.397217,"is_reserved":false,"is_disabled":false,"rental_uris":{"android":"levelo://app?vid=1b7c5e4e-130d-4e75-8db2-feee0d51fa46","ios":"levelo://app?vid=1b7c5e4e-130d-4e75-8db2-feee0d51fa46"},"vehicle_type_id":"4","last_reported":1742886657,"current_range_meters":3600,"station_id":"ce4bhn12rcd13ifvqgpg","pricing_plan_id":"cebpf4jnsgd1na2vs0mg"},{"bike_id":"58e6cef4-f02b-40d4-a703-749bd81a23d4","system_id":"levelo_inurba_marseille","lat":43.30584,"lon":5.39373,"is_reserved":false,"is_disabled":false,"rental_uris":{"android":"levelo://app?vid=58e6cef4-f02b-40d4-a703-749bd81a23d4","ios":"levelo://app?vid=58e6cef4-f02b-40d4-a703-749bd81a23d4"},"vehicle_type_id":"4","last_reported":1742886657,"current_range_meters":3600,"station_id":"ce4bh0p2rcd13ifvqd80","pricing_plan_id":"cebpf4jnsgd1na2vs0mg"},{"bike_id":"d1f993ec-8e82-4e82-a38b-e848ded0cf74","system_id":"levelo_inurba_marseille","lat":43.25079,"lon":5.39514,"is_reserved":false,"is_disabled":false,"rental_uris":{"android":"levelo://app?vid=d1f993ec-8e82-4e82-a38b-e848ded0cf74","ios":"levelo://app?vid=d1f993ec-8e82-4e82-a38b-e848ded0cf74"},"vehicle_type_id":"4","last_reported":1742886657,"current_range_meters":3600,"station_id":"","pricing_plan_id":"cebpf4jnsgd1na2vs0mg"},{"bike_id":"c36cefb3-0db7-45d8-b171-a7dea51fd330","system_id":"levelo_inurba_marseille","lat":43.25703,"lon":5.41072,"is_reserved":false,"is_disabled":false,"rental_uris":{"android":"levelo://app?vid=c36cefb3-0db7-45d8-b171-a7dea51fd330","ios":"levelo://app?vid=c36cefb3-0db7-45d8-b171-a7dea51fd330"},"vehicle_type_id":"4","last_reported":1742886657,"current_range_meters":4000,"station_id":"ce4bhkp2rcd13ifvqgd0","pricing_plan_id":"cebpf4jnsgd1na2vs0mg"},{"bike_id":"bebbaaa4-9324-461e-b685-01f74c9202e0","system_id":"levelo_inurba_marseille","lat":43.23963,"lon":5.36631,"is_reserved":false,"is_disabled":false,"rental_uris":{"android":"levelo://app?vid=bebbaaa4-9324-461e-b685-01f74c9202e0","ios":"levelo://app?vid=bebbaaa4-9324-461e-b685-01f74c9202e0"},"vehicle_type_id":"4","last_reported":1742886657,"current_range_meters":4000,"station_id":"ce4bhi12rcd13ifvqfp0","pricing_plan_id":"cebpf4jnsgd1na2vs0mg"},{"bike_id":"634c433d-3db3-4fd8-8be9-8b653dae530e","system_id":"levelo_inurba_marseille","lat":43.280436,"lon":5.390138,"is_reserved":false,"is_disabled":true,"rental_uris":{"android":"levelo://app?vid=634c433d-3db3-4fd8-8be9-8b653dae530e","ios":"levelo://app?vid=634c433d-3db3-4fd8-8be9-8b653dae530e"},"vehicle_type_id":"4","last_reported":1742886657,"current_range_meters":4000,"station_id":"","pricing_plan_id":"cebpf4jnsgd1na2vs0mg"},{"bike_id":"8b630951-f900-4a02-a32e-de980d0f5c14","system_id":"levelo_inurba_marseille","lat":43.28263,"lon":5.35092,"is_reserved":false,"is_disabled":false,"rental_uris":{"android":"levelo://app?vid=8b630951-f900-4a02-a32e-de980d0f5c14","ios":"levelo://app?vid=8b630951-f900-4a02-a32e-de980d0f5c14"},"vehicle_type_id":"4","last_reported":1742886657,"current_range_meters":4000,"station_id":"","pricing_plan_id":"cebpf4jnsgd1na2vs0mg"},{"bike_id":"e8a8681a-90be-4ab3-80a0-95a4b8b4cbd9","system_id":"levelo_inurba_marseille","lat":43.31226,"lon":5.36855,"is_reserved":false,"is_disabled":false,"rental_uris":{"android":"levelo://app?vid=e8a8681a-90be-4ab3-80a0-95a4b8b4cbd9","ios":"levelo://app?vid=e8a8681a-90be-4ab3-80a0-95a4b8b4cbd9"},"vehicle_type_id":"4","last_reported":1742886657,"current_range_meters":4400,"station_id":"ce4bgl92rcd13ifvqbq0","pricing_plan_id":"cebpf4jnsgd1na2vs0mg"},{"bike_id":"86a65fab-1faf-4fc4-885c-2b086e92c069","system_id":"levelo_inurba_marseille","lat":43.241623,"lon":5.363903,"is_reserved":false,"is_disabled":false,"rental_uris":{"android":"levelo://app?vid=86a65fab-1faf-4fc4-885c-2b086e92c069","ios":"levelo://app?vid=86a65fab-1faf-4fc4-885c-2b086e92c069"},"vehicle_type_id":"4","last_reported":1742886657,"current_range_meters":4400,"station_id":"cpo36qri1sfpv3e86is0","pricing_plan_id":"cebpf4jnsgd1na2vs0mg"},{"bike_id":"f28c0c94-d4e7-41d2-bcc2-de39a5af2bd0","system_id":"levelo_inurba_marseille","lat":43.31385,"lon":5.36687,"is_reserved":false,"is_disabled":false,"rental_uris":{"android":"levelo://app?vid=f28c0c94-d4e7-41d2-bcc2-de39a5af2bd0","ios":"levelo://app?vid=f28c0c94-d4e7-41d2-bcc2-de39a5af2bd0"},"vehicle_type_id":"4","last_reported":1742886657,"current_range_meters":4800,"station_id":"ce4bgr92rcd13ifvqc6g","pricing_plan_id":"cebpf4jnsgd1na2vs0mg"},{"bike_id":"76f3d16e-d7a5-4684-96dc-ab38a67e3c56","system_id":"levelo_inurba_marseille","lat":43.27818,"lon":5.40731,"is_reserved":false,"is_disabled":false,"rental_uris":{"android":"levelo://app?vid=76f3d16e-d7a5-4684-96dc-ab38a67e3c56","ios":"levelo://app?vid=76f3d16e-d7a5-4684-96dc-ab38a67e3c56"},"vehicle_type_id":"4","last_reported":1742886657,"current_range_meters":4800,"station_id":"ce4bhnh2rcd13ifvqgtg","pricing_plan_id":"cebpf4jnsgd1na2vs0mg"},{"bike_id":"91456e3b-facc-45cb-b00f-aea26e6eaf6c","system_id":"levelo_inurba_marseille","lat":43.27823,"lon":5.40723,"is_reserved":false,"is_disabled":true,"rental_uris":{"android":"levelo://app?vid=91456e3b-facc-45cb-b00f-aea26e6eaf6c","ios":"levelo://app?vid=91456e3b-facc-45cb-b00f-aea26e6eaf6c"},"vehicle_type_id":"4","last_reported":1742886657,"current_range_meters":4800,"station_id":"ce4bhnh2rcd13ifvqgtg","pricing_plan_id":"cebpf4jnsgd1na2vs0mg"},{"bike_id":"11fbfb59-5148-4932-9bdb-f87f7e53a88d","system_id":"levelo_inurba_marseille","lat":43.28356,"lon":5.38624,"is_reserved":false,"is_disabled":false,"rental_uris":{"android":"levelo://app?vid=11fbfb59-5148-4932-9bdb-f87f7e53a88d","ios":"levelo://app?vid=11fbfb59-5148-4932-9bdb-f87f7e53a88d"},"vehicle_type_id":"4","last_reported":1742886657,"current_range_meters":4000,"station_id":"ce4bh492rcd13ifvqdvg","pricing_plan_id":"cebpf4jnsgd1na2vs0mg"},{"bike_id":"9a2ea345-35b9-4eed-b1b5-1ed4d8bb31c9","system_id":"levelo_inurba_marseille","lat":43.31339,"lon":5.36723,"is_reserved":false,"is_disabled":false,"rental_uris":{"android":"levelo://app?vid=9a2ea345-35b9-4eed-b1b5-1ed4d8bb31c9","ios":"levelo://app?vid=9a2ea345-35b9-4eed-b1b5-1ed4d8bb31c9"},"vehicle_type_id":"4","last_reported":1742886657,"current_range_meters":5600,"station_id":"ce4bgr92rcd13ifvqc6g","pricing_plan_id":"cebpf4jnsgd1na2vs0mg"},{"bike_id":"8c8ae326-c7fa-4045-abb3-ab1e145f1966","system_id":"levelo_inurba_marseille","lat":43.27496,"lon":5.42449,"is_reserved":false,"is_disabled":false,"rental_uris":{"android":"levelo://app?vid=8c8ae326-c7fa-4045-abb3-ab1e145f1966","ios":"levelo://app?vid=8c8ae326-c7fa-4045-abb3-ab1e145f1966"},"vehicle_type_id":"4","last_reported":1742886657,"current_range_meters":5600,"station_id":"ce4bhn92rcd13ifvqgrg","pricing_plan_id":"cebpf4jnsgd1na2vs0mg"},{"bike_id":"d8bcbbc9-04d6-4a02-896c-19cc573823a2","system_id":"levelo_inurba_marseille","lat":43.26205,"lon":5.37931,"is_reserved":false,"is_disabled":false,"rental_uris":{"android":"levelo://app?vid=d8bcbbc9-04d6-4a02-896c-19cc573823a2","ios":"levelo://app?vid=d8bcbbc9-04d6-4a02-896c-19cc573823a2"},"vehicle_type_id":"4","last_reported":1742886657,"current_range_meters":5600,"station_id":"ce4bhjp2rcd13ifvqg90","pricing_plan_id":"cebpf4jnsgd1na2vs0mg"},{"bike_id":"bb7d553e-f91c-478a-a14a-5f3ea0dc4964","system_id":"levelo_inurba_marseille","lat":43.24586,"lon":5.39545,"is_reserved":false,"is_disabled":false,"rental_uris":{"android":"levelo://app?vid=bb7d553e-f91c-478a-a14a-5f3ea0dc4964","ios":"levelo://app?vid=bb7d553e-f91c-478a-a14a-5f3ea0dc4964"},"vehicle_type_id":"4","last_reported":1742886657,"current_range_meters":5600,"station_id":"","pricing_plan_id":"cebpf4jnsgd1na2vs0mg"},{"bike_id":"9099b1da-7fd7-401d-acb1-68ae757af661","system_id":"levelo_inurba_marseille","lat":43.23215,"lon":5.39981,"is_reserved":false,"is_disabled":false,"rental_uris":{"android":"levelo://app?vid=9099b1da-7fd7-401d-acb1-68ae757af661","ios":"levelo://app?vid=9099b1da-7fd7-401d-acb1-68ae757af661"},"vehicle_type_id":"4","last_reported":1742886657,"current_range_meters":5600,"station_id":"ce4bhn12rcd13ifvqgqg","pricing_plan_id":"cebpf4jnsgd1na2vs0mg"},{"bike_id":"763cfa5b-c33b-448e-9f64-07102448a732","system_id":"levelo_inurba_marseille","lat":43.281581,"lon":5.426512,"is_reserved":false,"is_disabled":false,"rental_uris":{"android":"levelo://app?vid=763cfa5b-c33b-448e-9f64-07102448a732","ios":"levelo://app?vid=763cfa5b-c33b-448e-9f64-07102448a732"},"vehicle_type_id":"4","last_reported":1742886657,"current_range_meters":5600,"station_id":"","pricing_plan_id":"cebpf4jnsgd1na2vs0mg"},{"bike_id":"e81b9efc-c3e9-46cd-9370-940cdbb79c4a","system_id":"levelo_inurba_marseille","lat":43.29787,"lon":5.38103,"is_reserved":false,"is_disabled":false,"rental_uris":{"android":"levelo://app?vid=e81b9efc-c3e9-46cd-9370-940cdbb79c4a","ios":"levelo://app?vid=e81b9efc-c3e9-46cd-9370-940cdbb79c4a"},"vehicle_type_id":"4","last_reported":1742886657,"current_range_meters":5600,"station_id":"ce4bgip2rcd13ifvqbb0","pricing_plan_id":"cebpf4jnsgd1na2vs0mg"},{"bike_id":"ec60c32b-5ee6-4a49-9920-594d37999be6","system_id":"levelo_inurba_marseille","lat":43.32536,"lon":5.41426,"is_reserved":false,"is_disabled":false,"rental_uris":{"android":"levelo://app?vid=ec60c32b-5ee6-4a49-9920-594d37999be6","ios":"levelo://app?vid=ec60c32b-5ee6-4a49-9920-594d37999be6"},"vehicle_type_id":"4","last_reported":1742886657,"current_range_meters":6000,"station_id":"ce4bhq12rcd13ifvqhhg","pricing_plan_id":"cebpf4jnsgd1na2vs0mg"},{"bike_id":"9fc87cb3-4f61-4e11-a37d-bb25cfffc8b7","system_id":"levelo_inurba_marseille","lat":43.24576,"lon":5.42893,"is_reserved":false,"is_disabled":false,"rental_uris":{"android":"levelo://app?vid=9fc87cb3-4f61-4e11-a37d-bb25cfffc8b7","ios":"levelo://app?vid=9fc87cb3-4f61-4e11-a37d-bb25cfffc8b7"},"vehicle_type_id":"4","last_reported":1742886657,"current_range_meters":6000,"station_id":"","pricing_plan_id":"cebpf4jnsgd1na2vs0mg"},{"bike_id":"e22b4409-ad89-44bc-9897-fb42e1599873","system_id":"levelo_inurba_marseille","lat":43.28954,"lon":5.36412,"is_reserved":false,"is_disabled":false,"rental_uris":{"android":"levelo://app?vid=e22b4409-ad89-44bc-9897-fb42e1599873","ios":"levelo://app?vid=e22b4409-ad89-44bc-9897-fb42e1599873"},"vehicle_type_id":"4","last_reported":1742886657,"current_range_meters":6000,"station_id":"ce4bhc92rcd13ifvqetg","pricing_plan_id":"cebpf4jnsgd1na2vs0mg"},{"bike_id":"ba77c809-1111-412f-8eae-c3c885fbd6c5","system_id":"levelo_inurba_marseille","lat":43.241671,"lon":5.363994,"is_reserved":false,"is_disabled":false,"rental_uris":{"android":"levelo://app?vid=ba77c809-1111-412f-8eae-c3c885fbd6c5","ios":"levelo://app?vid=ba77c809-1111-412f-8eae-c3c885fbd6c5"},"vehicle_type_id":"4","last_reported":1742886657,"current_range_meters":6000,"station_id":"cpo36qri1sfpv3e86is0","pricing_plan_id":"cebpf4jnsgd1na2vs0mg"},{"bike_id":"6da44af1-8b7c-4791-bcb1-30013b0638eb","system_id":"levelo_inurba_marseille","lat":43.2733,"lon":5.39125,"is_reserved":false,"is_disabled":true,"rental_uris":{"android":"levelo://app?vid=6da44af1-8b7c-4791-bcb1-30013b0638eb","ios":"levelo://app?vid=6da44af1-8b7c-4791-bcb1-30013b0638eb"},"vehicle_type_id":"4","last_reported":1742886657,"current_range_meters":6400,"station_id":"","pricing_plan_id":"cebpf4jnsgd1na2vs0mg"},{"bike_id":"e3c6d100-9b3b-44e1-abd1-7cf3538ee12c","system_id":"levelo_inurba_marseille","lat":43.231941,"lon":5.355504,"is_reserved":false,"is_disabled":false,"rental_uris":{"android":"levelo://app?vid=e3c6d100-9b3b-44e1-abd1-7cf3538ee12c","ios":"levelo://app?vid=e3c6d100-9b3b-44e1-abd1-7cf3538ee12c"},"vehicle_type_id":"4","last_reported":1742886657,"current_range_meters":6400,"station_id":"","pricing_plan_id":"cebpf4jnsgd1na2vs0mg"},{"bike_id":"f02a77b8-f810-41ff-bf5b-5ab742b469a7","system_id":"levelo_inurba_marseille","lat":43.23165,"lon":5.43704,"is_reserved":false,"is_disabled":false,"rental_uris":{"android":"levelo://app?vid=f02a77b8-f810-41ff-bf5b-5ab742b469a7","ios":"levelo://app?vid=f02a77b8-f810-41ff-bf5b-5ab742b469a7"},"vehicle_type_id":"4","last_reported":1742886657,"current_range_meters":6400,"station_id":"ce4bhmp2rcd13ifvqgog","pricing_plan_id":"cebpf4jnsgd1na2vs0mg"},{"bike_id":"24852267-9542-4ae1-a0f9-ac2619261e8b","system_id":"levelo_inurba_marseille","lat":43.27487,"lon":5.42461,"is_reserved":false,"is_disabled":false,"rental_uris":{"android":"levelo://app?vid=24852267-9542-4ae1-a0f9-ac2619261e8b","ios":"levelo://app?vid=24852267-9542-4ae1-a0f9-ac2619261e8b"},"vehicle_type_id":"4","last_reported":1742886657,"current_range_meters":6400,"station_id":"ce4bhn92rcd13ifvqgrg","pricing_plan_id":"cebpf4jnsgd1na2vs0mg"},{"bike_id":"c11722a1-afbf-42e6-84e0-454a563c66b5","system_id":"levelo_inurba_marseille","lat":43.31997,"lon":5.38147,"is_reserved":false,"is_disabled":true,"rental_uris":{"android":"levelo://app?vid=c11722a1-afbf-42e6-84e0-454a563c66b5","ios":"levelo://app?vid=c11722a1-afbf-42e6-84e0-454a563c66b5"},"vehicle_type_id":"4","last_reported":1742886657,"current_range_meters":6400,"station_id":"ce4bhr12rcd13ifvqhpg","pricing_plan_id":"cebpf4jnsgd1na2vs0mg"},{"bike_id":"e5d47a28-b60d-44fd-868d-406ab1a1fffa","system_id":"levelo_inurba_marseille","lat":43.27502,"lon":5.42465,"is_reserved":false,"is_disabled":false,"rental_uris":{"android":"levelo://app?vid=e5d47a28-b60d-44fd-868d-406ab1a1fffa","ios":"levelo://app?vid=e5d47a28-b60d-44fd-868d-406ab1a1fffa"},"vehicle_type_id":"4","last_reported":1742886657,"current_range_meters":6800,"station_id":"ce4bhn92rcd13ifvqgrg","pricing_plan_id":"cebpf4jnsgd1na2vs0mg"},{"bike_id":"4984db66-5241-446c-94cd-2a35586b6040","system_id":"levelo_inurba_marseille","lat":43.28125,"lon":5.44606,"is_reserved":false,"is_disabled":false,"rental_uris":{"android":"levelo://app?vid=4984db66-5241-446c-94cd-2a35586b6040","ios":"levelo://app?vid=4984db66-5241-446c-94cd-2a35586b6040"},"vehicle_type_id":"4","last_reported":1742886657,"current_range_meters":6800,"station_id":"","pricing_plan_id":"cebpf4jnsgd1na2vs0mg"},{"bike_id":"759dd723-07b3-4664-9d3e-f5fe0959b718","system_id":"levelo_inurba_marseille","lat":43.302093,"lon":5.389717,"is_reserved":false,"is_disabled":false,"rental_uris":{"android":"levelo://app?vid=759dd723-07b3-4664-9d3e-f5fe0959b718","ios":"levelo://app?vid=759dd723-07b3-4664-9d3e-f5fe0959b718"},"vehicle_type_id":"4","last_reported":1742886657,"current_range_meters":6800,"station_id":"ce4bgip2rcd13ifvqbb0","pricing_plan_id":"cebpf4jnsgd1na2vs0mg"},{"bike_id":"a0a460eb-34d7-43d6-85ef-87b30455cbf0","system_id":"levelo_inurba_marseille","lat":43.23959,"lon":5.3663,"is_reserved":false,"is_disabled":false,"rental_uris":{"android":"levelo://app?vid=a0a460eb-34d7-43d6-85ef-87b30455cbf0","ios":"levelo://app?vid=a0a460eb-34d7-43d6-85ef-87b30455cbf0"},"vehicle_type_id":"4","last_reported":1742886657,"current_range_meters":6800,"station_id":"ce4bhi12rcd13ifvqfp0","pricing_plan_id":"cebpf4jnsgd1na2vs0mg"},{"bike_id":"c77ba74c-34b4-4065-8232-671a3f8577ef","system_id":"levelo_inurba_marseille","lat":43.26222,"lon":5.37913,"is_reserved":false,"is_disabled":false,"rental_uris":{"android":"levelo://app?vid=c77ba74c-34b4-4065-8232-671a3f8577ef","ios":"levelo://app?vid=c77ba74c-34b4-4065-8232-671a3f8577ef"},"vehicle_type_id":"4","last_reported":1742886657,"current_range_meters":6800,"station_id":"","pricing_plan_id":"cebpf4jnsgd1na2vs0mg"},{"bike_id":"8f6dc465-64f5-4666-a110-cc6a786c0020","system_id":"levelo_inurba_marseille","lat":43.32014,"lon":5.38154,"is_reserved":false,"is_disabled":true,"rental_uris":{"android":"levelo://app?vid=8f6dc465-64f5-4666-a110-cc6a786c0020","ios":"levelo://app?vid=8f6dc465-64f5-4666-a110-cc6a786c0020"},"vehicle_type_id":"4","last_reported":1742886657,"current_range_meters":6800,"station_id":"","pricing_plan_id":"cebpf4jnsgd1na2vs0mg"},{"bike_id":"99e89320-1438-4f82-a1ad-83c1acd2b0a2","system_id":"levelo_inurba_marseille","lat":43.29046,"lon":5.39966,"is_reserved":false,"is_disabled":false,"rental_uris":{"android":"levelo://app?vid=99e89320-1438-4f82-a1ad-83c1acd2b0a2","ios":"levelo://app?vid=99e89320-1438-4f82-a1ad-83c1acd2b0a2"},"vehicle_type_id":"4","last_reported":1742886657,"current_range_meters":6800,"station_id":"ce4bh392rcd13ifvqdm0","pricing_plan_id":"cebpf4jnsgd1na2vs0mg"},{"bike_id":"3685bbce-63af-434c-8c0c-dd5d05ef1e6e","system_id":"levelo_inurba_marseille","lat":43.30604,"lon":5.39357,"is_reserved":false,"is_disabled":false,"rental_uris":{"android":"levelo://app?vid=3685bbce-63af-434c-8c0c-dd5d05ef1e6e","ios":"levelo://app?vid=3685bbce-63af-434c-8c0c-dd5d05ef1e6e"},"vehicle_type_id":"4","last_reported":1742886657,"current_range_meters":6800,"station_id":"ce4bh0p2rcd13ifvqd80","pricing_plan_id":"cebpf4jnsgd1na2vs0mg"},{"bike_id":"6767d65f-236c-4b2c-a7f3-3d513792b933","system_id":"levelo_inurba_marseille","lat":43.281,"lon":5.39633,"is_reserved":false,"is_disabled":false,"rental_uris":{"android":"levelo://app?vid=6767d65f-236c-4b2c-a7f3-3d513792b933","ios":"levelo://app?vid=6767d65f-236c-4b2c-a7f3-3d513792b933"},"vehicle_type_id":"4","last_reported":1742886657,"current_range_meters":6800,"station_id":"","pricing_plan_id":"cebpf4jnsgd1na2vs0mg"},{"bike_id":"ebf86de8-a3f7-4563-b9cd-62f5316ef4ec","system_id":"levelo_inurba_marseille","lat":43.309281,"lon":5.401353,"is_reserved":false,"is_disabled":true,"rental_uris":{"android":"levelo://app?vid=ebf86de8-a3f7-4563-b9cd-62f5316ef4ec","ios":"levelo://app?vid=ebf86de8-a3f7-4563-b9cd-62f5316ef4ec"},"vehicle_type_id":"4","last_reported":1742886657,"current_range_meters":7200,"station_id":"ce4bgvp2rcd13ifvqct0","pricing_plan_id":"cebpf4jnsgd1na2vs0mg"},{"bike_id":"19c4d38c-721f-4a6d-8de0-ad162aee3dc3","system_id":"levelo_inurba_marseille","lat":43.29858,"lon":5.38909,"is_reserved":false,"is_disabled":true,"rental_uris":{"android":"levelo://app?vid=19c4d38c-721f-4a6d-8de0-ad162aee3dc3","ios":"levelo://app?vid=19c4d38c-721f-4a6d-8de0-ad162aee3dc3"},"vehicle_type_id":"4","last_reported":1742886657,"current_range_meters":7200,"station_id":"ce4bh392rcd13ifvqdl0","pricing_plan_id":"cebpf4jnsgd1na2vs0mg"},{"bike_id":"049f62f5-27f5-40af-8260-a97afa0c0113","system_id":"levelo_inurba_marseille","lat":43.24074,"lon":5.37767,"is_reserved":false,"is_disabled":false,"rental_uris":{"android":"levelo://app?vid=049f62f5-27f5-40af-8260-a97afa0c0113","ios":"levelo://app?vid=049f62f5-27f5-40af-8260-a97afa0c0113"},"vehicle_type_id":"4","last_reported":1742886657,"current_range_meters":7200,"station_id":"ce4bhnp2rcd13ifvqgvg","pricing_plan_id":"cebpf4jnsgd1na2vs0mg"},{"bike_id":"21e3a6e5-11f0-467c-9e11-90aab4ee0f83","system_id":"levelo_inurba_marseille","lat":43.27383,"lon":5.36253,"is_reserved":false,"is_disabled":false,"rental_uris":{"android":"levelo://app?vid=21e3a6e5-11f0-467c-9e11-90aab4ee0f83","ios":"levelo://app?vid=21e3a6e5-11f0-467c-9e11-90aab4ee0f83"},"vehicle_type_id":"4","last_reported":1742886657,"current_range_meters":7200,"station_id":"ce4bhbh2rcd13ifvqeo0","pricing_plan_id":"cebpf4jnsgd1na2vs0mg"},{"bike_id":"ce806f02-a2bd-4850-a7ac-d191182a57c6","system_id":"levelo_inurba_marseille","lat":43.26946,"lon":5.38655,"is_reserved":false,"is_disabled":false,"rental_uris":{"android":"levelo://app?vid=ce806f02-a2bd-4850-a7ac-d191182a57c6","ios":"levelo://app?vid=ce806f02-a2bd-4850-a7ac-d191182a57c6"},"vehicle_type_id":"4","last_reported":1742886657,"current_range_meters":7200,"station_id":"ce4bhh92rcd13ifvqfh0","pricing_plan_id":"cebpf4jnsgd1na2vs0mg"},{"bike_id":"b37b8334-a4d2-441f-a325-c846ac4151a4","system_id":"levelo_inurba_marseille","lat":43.28732,"lon":5.39986,"is_reserved":false,"is_disabled":false,"rental_uris":{"android":"levelo://app?vid=b37b8334-a4d2-441f-a325-c846ac4151a4","ios":"levelo://app?vid=b37b8334-a4d2-441f-a325-c846ac4151a4"},"vehicle_type_id":"4","last_reported":1742886657,"current_range_meters":7200,"station_id":"ce4bho92rcd13ifvqh3g","pricing_plan_id":"cebpf4jnsgd1na2vs0mg"},{"bike_id":"b97a26ea-c7a0-4700-922c-2d08646fbb02","system_id":"levelo_inurba_marseille","lat":43.28987,"lon":5.36541,"is_reserved":false,"is_disabled":false,"rental_uris":{"android":"levelo://app?vid=b97a26ea-c7a0-4700-922c-2d08646fbb02","ios":"levelo://app?vid=b97a26ea-c7a0-4700-922c-2d08646fbb02"},"vehicle_type_id":"4","last_reported":1742886657,"current_range_meters":7200,"station_id":"","pricing_plan_id":"cebpf4jnsgd1na2vs0mg"},{"bike_id":"2462aff4-312c-46a9-ae18-d864ef42c20c","system_id":"levelo_inurba_marseille","lat":43.24186,"lon":5.3641,"is_reserved":false,"is_disabled":false,"rental_uris":{"android":"levelo://app?vid=2462aff4-312c-46a9-ae18-d864ef42c20c","ios":"levelo://app?vid=2462aff4-312c-46a9-ae18-d864ef42c20c"},"vehicle_type_id":"4","last_reported":1742886657,"current_range_meters":8000,"station_id":"cpo36qri1sfpv3e86is0","pricing_plan_id":"cebpf4jnsgd1na2vs0mg"},{"bike_id":"46292841-acf4-43f2-a4cf-ef4cf736cd97","system_id":"levelo_inurba_marseille","lat":43.309528,"lon":5.390254,"is_reserved":false,"is_disabled":false,"rental_uris":{"android":"levelo://app?vid=46292841-acf4-43f2-a4cf-ef4cf736cd97","ios":"levelo://app?vid=46292841-acf4-43f2-a4cf-ef4cf736cd97"},"vehicle_type_id":"4","last_reported":1742886657,"current_range_meters":8000,"station_id":"ce4bgup2rcd13ifvqco0","pricing_plan_id":"cebpf4jnsgd1na2vs0mg"},{"bike_id":"1b8779ee-15bd-411f-8230-66fb3b9d06b8","system_id":"levelo_inurba_marseille","lat":43.29901,"lon":5.43646,"is_reserved":false,"is_disabled":false,"rental_uris":{"android":"levelo://app?vid=1b8779ee-15bd-411f-8230-66fb3b9d06b8","ios":"levelo://app?vid=1b8779ee-15bd-411f-8230-66fb3b9d06b8"},"vehicle_type_id":"4","last_reported":1742886657,"current_range_meters":8000,"station_id":"","pricing_plan_id":"cebpf4jnsgd1na2vs0mg"},{"bike_id":"e9fb805f-46c7-4ab4-986f-b736869e324d","system_id":"levelo_inurba_marseille","lat":43.30481,"lon":5.3791,"is_reserved":false,"is_disabled":false,"rental_uris":{"android":"levelo://app?vid=e9fb805f-46c7-4ab4-986f-b736869e324d","ios":"levelo://app?vid=e9fb805f-46c7-4ab4-986f-b736869e324d"},"vehicle_type_id":"4","last_reported":1742886657,"current_range_meters":8000,"station_id":"ce4bgup2rcd13ifvqcn0","pricing_plan_id":"cebpf4jnsgd1na2vs0mg"},{"bike_id":"42a0b69b-f29a-4ea2-80ed-6573bad37aeb","system_id":"levelo_inurba_marseille","lat":43.24558,"lon":5.39535,"is_reserved":false,"is_disabled":false,"rental_uris":{"android":"levelo://app?vid=42a0b69b-f29a-4ea2-80ed-6573bad37aeb","ios":"levelo://app?vid=42a0b69b-f29a-4ea2-80ed-6573bad37aeb"},"vehicle_type_id":"4","last_reported":1742886657,"current_range_meters":8000,"station_id":"","pricing_plan_id":"cebpf4jnsgd1na2vs0mg"},{"bike_id":"46774e41-cc26-42e2-8ed3-a8ea17d2f850","system_id":"levelo_inurba_marseille","lat":43.3134,"lon":5.36722,"is_reserved":false,"is_disabled":false,"rental_uris":{"android":"levelo://app?vid=46774e41-cc26-42e2-8ed3-a8ea17d2f850","ios":"levelo://app?vid=46774e41-cc26-42e2-8ed3-a8ea17d2f850"},"vehicle_type_id":"4","last_reported":1742886657,"current_range_meters":8800,"station_id":"ce4bgr92rcd13ifvqc6g","pricing_plan_id":"cebpf4jnsgd1na2vs0mg"},{"bike_id":"03d1a04c-08db-49c7-b7e5-8ea81366c987","system_id":"levelo_inurba_marseille","lat":43.265573,"lon":5.390445,"is_reserved":false,"is_disabled":false,"rental_uris":{"android":"levelo://app?vid=03d1a04c-08db-49c7-b7e5-8ea81366c987","ios":"levelo://app?vid=03d1a04c-08db-49c7-b7e5-8ea81366c987"},"vehicle_type_id":"4","last_reported":1742886657,"current_range_meters":8000,"station_id":"ce4bhe12rcd13ifvqf30","pricing_plan_id":"cebpf4jnsgd1na2vs0mg"},{"bike_id":"58ee7c52-ae94-40b6-8819-d192641dcd3f","system_id":"levelo_inurba_marseille","lat":43.25001,"lon":5.38927,"is_reserved":false,"is_disabled":false,"rental_uris":{"android":"levelo://app?vid=58ee7c52-ae94-40b6-8819-d192641dcd3f","ios":"levelo://app?vid=58ee7c52-ae94-40b6-8819-d192641dcd3f"},"vehicle_type_id":"4","last_reported":1742886657,"current_range_meters":8000,"station_id":"ce4bhgp2rcd13ifvqfd0","pricing_plan_id":"cebpf4jnsgd1na2vs0mg"},{"bike_id":"490ce111-53a8-4b90-99db-f7c5d3571949","system_id":"levelo_inurba_marseille","lat":43.28946,"lon":5.36646,"is_reserved":false,"is_disabled":false,"rental_uris":{"android":"levelo://app?vid=490ce111-53a8-4b90-99db-f7c5d3571949","ios":"levelo://app?vid=490ce111-53a8-4b90-99db-f7c5d3571949"},"vehicle_type_id":"4","last_reported":1742886657,"current_range_meters":8000,"station_id":"ce4bhap2rcd13ifvqek0","pricing_plan_id":"cebpf4jnsgd1na2vs0mg"},{"bike_id":"af8697a1-763f-430e-adda-174ffa496cb0","system_id":"levelo_inurba_marseille","lat":43.29042,"lon":5.39976,"is_reserved":false,"is_disabled":false,"rental_uris":{"android":"levelo://app?vid=af8697a1-763f-430e-adda-174ffa496cb0","ios":"levelo://app?vid=af8697a1-763f-430e-adda-174ffa496cb0"},"vehicle_type_id":"4","last_reported":1742886657,"current_range_meters":8400,"station_id":"ce4bh392rcd13ifvqdm0","pricing_plan_id":"cebpf4jnsgd1na2vs0mg"},{"bike_id":"07275620-d3ef-42aa-bbd6-8bd074d10962","system_id":"levelo_inurba_marseille","lat":43.279484,"lon":5.410517,"is_reserved":false,"is_disabled":false,"rental_uris":{"android":"levelo://app?vid=07275620-d3ef-42aa-bbd6-8bd074d10962","ios":"levelo://app?vid=07275620-d3ef-42aa-bbd6-8bd074d10962"},"vehicle_type_id":"4","last_reported":1742886657,"current_range_meters":8400,"station_id":"ce4bhnp2rcd13ifvqh0g","pricing_plan_id":"cebpf4jnsgd1na2vs0mg"},{"bike_id":"bd93ebf1-847b-43cb-bd47-c1ffae2e0716","system_id":"levelo_inurba_marseille","lat":43.30608,"lon":5.39382,"is_reserved":false,"is_disabled":false,"rental_uris":{"android":"levelo://app?vid=bd93ebf1-847b-43cb-bd47-c1ffae2e0716","ios":"levelo://app?vid=bd93ebf1-847b-43cb-bd47-c1ffae2e0716"},"vehicle_type_id":"4","last_reported":1742886657,"current_range_meters":8400,"station_id":"ce4bh0p2rcd13ifvqd80","pricing_plan_id":"cebpf4jnsgd1na2vs0mg"},{"bike_id":"cf7ab940-fff2-485f-867b-a1e0d73a2a8f","system_id":"levelo_inurba_marseille","lat":43.30134,"lon":5.38807,"is_reserved":false,"is_disabled":false,"rental_uris":{"android":"levelo://app?vid=cf7ab940-fff2-485f-867b-a1e0d73a2a8f","ios":"levelo://app?vid=cf7ab940-fff2-485f-867b-a1e0d73a2a8f"},"vehicle_type_id":"4","last_reported":1742886657,"current_range_meters":8400,"station_id":"ce4bghh2rcd13ifvqb60","pricing_plan_id":"cebpf4jnsgd1na2vs0mg"},{"bike_id":"7a707f21-1e32-4c91-be80-678af74d6907","system_id":"levelo_inurba_marseille","lat":43.29365,"lon":5.37847,"is_reserved":false,"is_disabled":false,"rental_uris":{"android":"levelo://app?vid=7a707f21-1e32-4c91-be80-678af74d6907","ios":"levelo://app?vid=7a707f21-1e32-4c91-be80-678af74d6907"},"vehicle_type_id":"4","last_reported":1742886657,"current_range_meters":8400,"station_id":"ce4bgjh2rcd13ifvqbf0","pricing_plan_id":"cebpf4jnsgd1na2vs0mg"},{"bike_id":"5d4d6b8d-905f-4396-8812-b0df417454f7","system_id":"levelo_inurba_marseille","lat":43.299302,"lon":5.365368,"is_reserved":false,"is_disabled":false,"rental_uris":{"android":"levelo://app?vid=5d4d6b8d-905f-4396-8812-b0df417454f7","ios":"levelo://app?vid=5d4d6b8d-905f-4396-8812-b0df417454f7"},"vehicle_type_id":"4","last_reported":1742886657,"current_range_meters":8400,"station_id":"ce4bgm92rcd13ifvqbr0","pricing_plan_id":"cebpf4jnsgd1na2vs0mg"},{"bike_id":"2ff570d2-4d8e-48ed-9e8e-8a83ca9149b2","system_id":"levelo_inurba_marseille","lat":43.27071,"lon":5.42287,"is_reserved":false,"is_disabled":true,"rental_uris":{"android":"levelo://app?vid=2ff570d2-4d8e-48ed-9e8e-8a83ca9149b2","ios":"levelo://app?vid=2ff570d2-4d8e-48ed-9e8e-8a83ca9149b2"},"vehicle_type_id":"4","last_reported":1742886657,"current_range_meters":8400,"station_id":"ce4bhk92rcd13ifvqgb0","pricing_plan_id":"cebpf4jnsgd1na2vs0mg"},{"bike_id":"fbfecbb6-5794-4d9a-9176-1810e4b4a7ef","system_id":"levelo_inurba_marseille","lat":43.23072,"lon":5.35496,"is_reserved":false,"is_disabled":false,"rental_uris":{"android":"levelo://app?vid=fbfecbb6-5794-4d9a-9176-1810e4b4a7ef","ios":"levelo://app?vid=fbfecbb6-5794-4d9a-9176-1810e4b4a7ef"},"vehicle_type_id":"4","last_reported":1742886657,"current_range_meters":8400,"station_id":"","pricing_plan_id":"cebpf4jnsgd1na2vs0mg"},{"bike_id":"b32d10ca-210b-45e2-a63d-25cd70ca00c8","system_id":"levelo_inurba_marseille","lat":43.24145,"lon":5.39726,"is_reserved":false,"is_disabled":false,"rental_uris":{"android":"levelo://app?vid=b32d10ca-210b-45e2-a63d-25cd70ca00c8","ios":"levelo://app?vid=b32d10ca-210b-45e2-a63d-25cd70ca00c8"},"vehicle_type_id":"4","last_reported":1742886657,"current_range_meters":8400,"station_id":"ce4bhn12rcd13ifvqgpg","pricing_plan_id":"cebpf4jnsgd1na2vs0mg"},{"bike_id":"2887ade1-a1d4-45b1-bf39-3f76b6d21162","system_id":"levelo_inurba_marseille","lat":43.29606,"lon":5.381,"is_reserved":false,"is_disabled":false,"rental_uris":{"android":"levelo://app?vid=2887ade1-a1d4-45b1-bf39-3f76b6d21162","ios":"levelo://app?vid=2887ade1-a1d4-45b1-bf39-3f76b6d21162"},"vehicle_type_id":"4","last_reported":1742886657,"current_range_meters":8400,"station_id":"ce4bgl12rcd13ifvqbo0","pricing_plan_id":"cebpf4jnsgd1na2vs0mg"},{"bike_id":"0dfb0d89-73f2-49b8-91e9-15d856e46939","system_id":"levelo_inurba_marseille","lat":43.241779,"lon":5.397351,"is_reserved":false,"is_disabled":false,"rental_uris":{"android":"levelo://app?vid=0dfb0d89-73f2-49b8-91e9-15d856e46939","ios":"levelo://app?vid=0dfb0d89-73f2-49b8-91e9-15d856e46939"},"vehicle_type_id":"4","last_reported":1742886657,"current_range_meters":8400,"station_id":"ce4bhn12rcd13ifvqgpg","pricing_plan_id":"cebpf4jnsgd1na2vs0mg"},{"bike_id":"e1b0e5a5-4d2c-439f-a035-eadd5217d570","system_id":"levelo_inurba_marseille","lat":43.31239,"lon":5.36878,"is_reserved":false,"is_disabled":true,"rental_uris":{"android":"levelo://app?vid=e1b0e5a5-4d2c-439f-a035-eadd5217d570","ios":"levelo://app?vid=e1b0e5a5-4d2c-439f-a035-eadd5217d570"},"vehicle_type_id":"4","last_reported":1742886657,"current_range_meters":8400,"station_id":"ce4bgl92rcd13ifvqbq0","pricing_plan_id":"cebpf4jnsgd1na2vs0mg"},{"bike_id":"d6b9068b-bec0-4f76-9c03-273151aa3d54","system_id":"levelo_inurba_marseille","lat":43.26542,"lon":5.3733,"is_reserved":false,"is_disabled":false,"rental_uris":{"android":"levelo://app?vid=d6b9068b-bec0-4f76-9c03-273151aa3d54","ios":"levelo://app?vid=d6b9068b-bec0-4f76-9c03-273151aa3d54"},"vehicle_type_id":"4","last_reported":1742886657,"current_range_meters":8400,"station_id":"","pricing_plan_id":"cebpf4jnsgd1na2vs0mg"},{"bike_id":"f64a5f06-bff4-4284-a64d-ce271f664dc4","system_id":"levelo_inurba_marseille","lat":43.26162,"lon":5.40547,"is_reserved":false,"is_disabled":false,"rental_uris":{"android":"levelo://app?vid=f64a5f06-bff4-4284-a64d-ce271f664dc4","ios":"levelo://app?vid=f64a5f06-bff4-4284-a64d-ce271f664dc4"},"vehicle_type_id":"4","last_reported":1742886657,"current_range_meters":8400,"station_id":"","pricing_plan_id":"cebpf4jnsgd1na2vs0mg"},{"bike_id":"32801d47-3de3-4f50-bdf9-08873265369d","system_id":"levelo_inurba_marseille","lat":43.298115,"lon":5.38103,"is_reserved":false,"is_disabled":false,"rental_uris":{"android":"levelo://app?vid=32801d47-3de3-4f50-bdf9-08873265369d","ios":"levelo://app?vid=32801d47-3de3-4f50-bdf9-08873265369d"},"vehicle_type_id":"4","last_reported":1742886657,"current_range_meters":8800,"station_id":"ce4bh412rcd13ifvqds0","pricing_plan_id":"cebpf4jnsgd1na2vs0mg"},{"bike_id":"a8ec6202-7b46-4d53-817e-b36a3b1eba9f","system_id":"levelo_inurba_marseille","lat":43.30139,"lon":5.38086,"is_reserved":false,"is_disabled":false,"rental_uris":{"android":"levelo://app?vid=a8ec6202-7b46-4d53-817e-b36a3b1eba9f","ios":"levelo://app?vid=a8ec6202-7b46-4d53-817e-b36a3b1eba9f"},"vehicle_type_id":"4","last_reported":1742886657,"current_range_meters":8800,"station_id":"ce4bgjp2rcd13ifvqbh0","pricing_plan_id":"cebpf4jnsgd1na2vs0mg"},{"bike_id":"3da4b3bc-0879-44d3-9eac-943e9c93a131","system_id":"levelo_inurba_marseille","lat":43.27922,"lon":5.41051,"is_reserved":false,"is_disabled":false,"rental_uris":{"android":"levelo://app?vid=3da4b3bc-0879-44d3-9eac-943e9c93a131","ios":"levelo://app?vid=3da4b3bc-0879-44d3-9eac-943e9c93a131"},"vehicle_type_id":"4","last_reported":1742886657,"current_range_meters":8800,"station_id":"ce4bhnp2rcd13ifvqh0g","pricing_plan_id":"cebpf4jnsgd1na2vs0mg"},{"bike_id":"9eef2c13-4412-429d-a6b0-e32bea5d5b99","system_id":"levelo_inurba_marseille","lat":43.32475,"lon":5.36559,"is_reserved":false,"is_disabled":false,"rental_uris":{"android":"levelo://app?vid=9eef2c13-4412-429d-a6b0-e32bea5d5b99","ios":"levelo://app?vid=9eef2c13-4412-429d-a6b0-e32bea5d5b99"},"vehicle_type_id":"4","last_reported":1742886657,"current_range_meters":8800,"station_id":"ce4bhs12rcd13ifvqhvg","pricing_plan_id":"cebpf4jnsgd1na2vs0mg"},{"bike_id":"c9c19aa6-3fe4-401b-ab2c-9612f3df5e72","system_id":"levelo_inurba_marseille","lat":43.30953,"lon":5.3903,"is_reserved":false,"is_disabled":true,"rental_uris":{"android":"levelo://app?vid=c9c19aa6-3fe4-401b-ab2c-9612f3df5e72","ios":"levelo://app?vid=c9c19aa6-3fe4-401b-ab2c-9612f3df5e72"},"vehicle_type_id":"4","last_reported":1742886657,"current_range_meters":8800,"station_id":"ce4bgup2rcd13ifvqco0","pricing_plan_id":"cebpf4jnsgd1na2vs0mg"},{"bike_id":"7955c63a-7365-402f-bd5c-0f6460ac413a","system_id":"levelo_inurba_marseille","lat":43.25075,"lon":5.39503,"is_reserved":false,"is_disabled":false,"rental_uris":{"android":"levelo://app?vid=7955c63a-7365-402f-bd5c-0f6460ac413a","ios":"levelo://app?vid=7955c63a-7365-402f-bd5c-0f6460ac413a"},"vehicle_type_id":"4","last_reported":1742886657,"current_range_meters":8800,"station_id":"ce4bhm12rcd13ifvqgkg","pricing_plan_id":"cebpf4jnsgd1na2vs0mg"},{"bike_id":"6068d6f9-6702-41e9-92c9-b22b47b5d81b","system_id":"levelo_inurba_marseille","lat":43.3015,"lon":5.38101,"is_reserved":false,"is_disabled":false,"rental_uris":{"android":"levelo://app?vid=6068d6f9-6702-41e9-92c9-b22b47b5d81b","ios":"levelo://app?vid=6068d6f9-6702-41e9-92c9-b22b47b5d81b"},"vehicle_type_id":"4","last_reported":1742886657,"current_range_meters":9200,"station_id":"ce4bgjp2rcd13ifvqbh0","pricing_plan_id":"cebpf4jnsgd1na2vs0mg"},{"bike_id":"a0d4632a-7a87-4031-aeeb-061ca0feaca6","system_id":"levelo_inurba_marseille","lat":43.23991,"lon":5.36692,"is_reserved":false,"is_disabled":false,"rental_uris":{"android":"levelo://app?vid=a0d4632a-7a87-4031-aeeb-061ca0feaca6","ios":"levelo://app?vid=a0d4632a-7a87-4031-aeeb-061ca0feaca6"},"vehicle_type_id":"4","last_reported":1742886657,"current_range_meters":9200,"station_id":"","pricing_plan_id":"cebpf4jnsgd1na2vs0mg"},{"bike_id":"42e12277-2404-40c1-a358-f3ca2810181d","system_id":"levelo_inurba_marseille","lat":43.2984,"lon":5.36297,"is_reserved":false,"is_disabled":false,"rental_uris":{"android":"levelo://app?vid=42e12277-2404-40c1-a358-f3ca2810181d","ios":"levelo://app?vid=42e12277-2404-40c1-a358-f3ca2810181d"},"vehicle_type_id":"4","last_reported":1742886657,"current_range_meters":9200,"station_id":"ce4bgpp2rcd13ifvqc3g","pricing_plan_id":"cebpf4jnsgd1na2vs0mg"},{"bike_id":"ef43d9bd-e531-4a59-b8a9-fdc80b41fa34","system_id":"levelo_inurba_marseille","lat":43.312771,"lon":5.401701,"is_reserved":false,"is_disabled":true,"rental_uris":{"android":"levelo://app?vid=ef43d9bd-e531-4a59-b8a9-fdc80b41fa34","ios":"levelo://app?vid=ef43d9bd-e531-4a59-b8a9-fdc80b41fa34"},"vehicle_type_id":"4","last_reported":1742886657,"current_range_meters":9200,"station_id":"ce4bh092rcd13ifvqd30","pricing_plan_id":"cebpf4jnsgd1na2vs0mg"},{"bike_id":"19ba041b-c7bb-491b-a917-058fe073750b","system_id":"levelo_inurba_marseille","lat":43.3054,"lon":5.36545,"is_reserved":false,"is_disabled":false,"rental_uris":{"android":"levelo://app?vid=19ba041b-c7bb-491b-a917-058fe073750b","ios":"levelo://app?vid=19ba041b-c7bb-491b-a917-058fe073750b"},"vehicle_type_id":"4","last_reported":1742886657,"current_range_meters":9200,"station_id":"ce4bgs12rcd13ifvqcag","pricing_plan_id":"cebpf4jnsgd1na2vs0mg"},{"bike_id":"096c2a2d-ec5f-42ea-9235-ab18bf593be7","system_id":"levelo_inurba_marseille","lat":43.30537,"lon":5.36552,"is_reserved":false,"is_disabled":false,"rental_uris":{"android":"levelo://app?vid=096c2a2d-ec5f-42ea-9235-ab18bf593be7","ios":"levelo://app?vid=096c2a2d-ec5f-42ea-9235-ab18bf593be7"},"vehicle_type_id":"4","last_reported":1742886657,"current_range_meters":9200,"station_id":"ce4bgs12rcd13ifvqcag","pricing_plan_id":"cebpf4jnsgd1na2vs0mg"},{"bike_id":"a0d05f03-0e02-4b04-8fa4-3561235d49f8","system_id":"levelo_inurba_marseille","lat":43.289234,"lon":5.384005,"is_reserved":false,"is_disabled":true,"rental_uris":{"android":"levelo://app?vid=a0d05f03-0e02-4b04-8fa4-3561235d49f8","ios":"levelo://app?vid=a0d05f03-0e02-4b04-8fa4-3561235d49f8"},"vehicle_type_id":"4","last_reported":1742886657,"current_range_meters":9600,"station_id":"","pricing_plan_id":"cebpf4jnsgd1na2vs0mg"},{"bike_id":"07273ad5-0d14-41f9-aa20-8a351943b18a","system_id":"levelo_inurba_marseille","lat":43.28163,"lon":5.42632,"is_reserved":false,"is_disabled":false,"rental_uris":{"android":"levelo://app?vid=07273ad5-0d14-41f9-aa20-8a351943b18a","ios":"levelo://app?vid=07273ad5-0d14-41f9-aa20-8a351943b18a"},"vehicle_type_id":"4","last_reported":1742886657,"current_range_meters":9600,"station_id":"","pricing_plan_id":"cebpf4jnsgd1na2vs0mg"},{"bike_id":"9c0e4c1e-a5ed-4071-b7be-e09a952e8da2","system_id":"levelo_inurba_marseille","lat":43.28415,"lon":5.34993,"is_reserved":false,"is_disabled":false,"rental_uris":{"android":"levelo://app?vid=9c0e4c1e-a5ed-4071-b7be-e09a952e8da2","ios":"levelo://app?vid=9c0e4c1e-a5ed-4071-b7be-e09a952e8da2"},"vehicle_type_id":"4","last_reported":1742886657,"current_range_meters":9600,"station_id":"ce4bhbh2rcd13ifvqepg","pricing_plan_id":"cebpf4jnsgd1na2vs0mg"},{"bike_id":"813c586a-08b4-40aa-bb36-217ace87d1fd","system_id":"levelo_inurba_marseille","lat":43.24736,"lon":5.37448,"is_reserved":false,"is_disabled":false,"rental_uris":{"android":"levelo://app?vid=813c586a-08b4-40aa-bb36-217ace87d1fd","ios":"levelo://app?vid=813c586a-08b4-40aa-bb36-217ace87d1fd"},"vehicle_type_id":"4","last_reported":1742886657,"current_range_meters":9600,"station_id":"","pricing_plan_id":"cebpf4jnsgd1na2vs0mg"},{"bike_id":"4fe82e65-425c-453e-9e10-5bbbfdd7a6b8","system_id":"levelo_inurba_marseille","lat":43.241727,"lon":5.397357,"is_reserved":false,"is_disabled":false,"rental_uris":{"android":"levelo://app?vid=4fe82e65-425c-453e-9e10-5bbbfdd7a6b8","ios":"levelo://app?vid=4fe82e65-425c-453e-9e10-5bbbfdd7a6b8"},"vehicle_type_id":"4","last_reported":1742886657,"current_range_meters":9600,"station_id":"ce4bhn12rcd13ifvqgpg","pricing_plan_id":"cebpf4jnsgd1na2vs0mg"},{"bike_id":"938c0f4e-65bf-479a-ba6e-fe7a68ff9b08","system_id":"levelo_inurba_marseille","lat":43.26519,"lon":5.37316,"is_reserved":false,"is_disabled":false,"rental_uris":{"android":"levelo://app?vid=938c0f4e-65bf-479a-ba6e-fe7a68ff9b08","ios":"levelo://app?vid=938c0f4e-65bf-479a-ba6e-fe7a68ff9b08"},"vehicle_type_id":"4","last_reported":1742886657,"current_range_meters":9600,"station_id":"","pricing_plan_id":"cebpf4jnsgd1na2vs0mg"},{"bike_id":"347b5f32-1321-46a0-98a5-30276354563a","system_id":"levelo_inurba_marseille","lat":43.24073,"lon":5.3776,"is_reserved":false,"is_disabled":false,"rental_uris":{"android":"levelo://app?vid=347b5f32-1321-46a0-98a5-30276354563a","ios":"levelo://app?vid=347b5f32-1321-46a0-98a5-30276354563a"},"vehicle_type_id":"4","last_reported":1742886657,"current_range_meters":9600,"station_id":"ce4bhnp2rcd13ifvqgvg","pricing_plan_id":"cebpf4jnsgd1na2vs0mg"},{"bike_id":"c353c957-fbb8-408a-9097-46c8d6b68074","system_id":"levelo_inurba_marseille","lat":43.24184,"lon":5.3974,"is_reserved":false,"is_disabled":false,"rental_uris":{"android":"levelo://app?vid=c353c957-fbb8-408a-9097-46c8d6b68074","ios":"levelo://app?vid=c353c957-fbb8-408a-9097-46c8d6b68074"},"vehicle_type_id":"4","last_reported":1742886657,"current_range_meters":9600,"station_id":"ce4bhn12rcd13ifvqgpg","pricing_plan_id":"cebpf4jnsgd1na2vs0mg"},{"bike_id":"e2cc1de4-a29e-496d-a887-4c49f18c0c38","system_id":"levelo_inurba_marseille","lat":43.26554,"lon":5.39003,"is_reserved":false,"is_disabled":false,"rental_uris":{"android":"levelo://app?vid=e2cc1de4-a29e-496d-a887-4c49f18c0c38","ios":"levelo://app?vid=e2cc1de4-a29e-496d-a887-4c49f18c0c38"},"vehicle_type_id":"4","last_reported":1742886657,"current_range_meters":9600,"station_id":"ce4bhe12rcd13ifvqf30","pricing_plan_id":"cebpf4jnsgd1na2vs0mg"},{"bike_id":"8871fee1-c30f-4721-bb9f-022f22051a94","system_id":"levelo_inurba_marseille","lat":43.2418,"lon":5.39747,"is_reserved":false,"is_disabled":false,"rental_uris":{"android":"levelo://app?vid=8871fee1-c30f-4721-bb9f-022f22051a94","ios":"levelo://app?vid=8871fee1-c30f-4721-bb9f-022f22051a94"},"vehicle_type_id":"4","last_reported":1742886657,"current_range_meters":10000,"station_id":"ce4bhn12rcd13ifvqgpg","pricing_plan_id":"cebpf4jnsgd1na2vs0mg"},{"bike_id":"2a99ecb7-4bf0-4c00-89bb-11ff019b8a6d","system_id":"levelo_inurba_marseille","lat":43.22957,"lon":5.35405,"is_reserved":false,"is_disabled":false,"rental_uris":{"android":"levelo://app?vid=2a99ecb7-4bf0-4c00-89bb-11ff019b8a6d","ios":"levelo://app?vid=2a99ecb7-4bf0-4c00-89bb-11ff019b8a6d"},"vehicle_type_id":"4","last_reported":1742886657,"current_range_meters":10000,"station_id":"cpo3532slgdg3j2ikp40","pricing_plan_id":"cebpf4jnsgd1na2vs0mg"},{"bike_id":"1887fe37-51a0-4284-bd26-ea9ec274ce5e","system_id":"levelo_inurba_marseille","lat":43.25641,"lon":5.41097,"is_reserved":false,"is_disabled":false,"rental_uris":{"android":"levelo://app?vid=1887fe37-51a0-4284-bd26-ea9ec274ce5e","ios":"levelo://app?vid=1887fe37-51a0-4284-bd26-ea9ec274ce5e"},"vehicle_type_id":"4","last_reported":1742886657,"current_range_meters":10000,"station_id":"","pricing_plan_id":"cebpf4jnsgd1na2vs0mg"},{"bike_id":"d0ce6a4c-8c1a-4117-b620-bb8816808dbc","system_id":"levelo_inurba_marseille","lat":43.23966,"lon":5.36617,"is_reserved":false,"is_disabled":false,"rental_uris":{"android":"levelo://app?vid=d0ce6a4c-8c1a-4117-b620-bb8816808dbc","ios":"levelo://app?vid=d0ce6a4c-8c1a-4117-b620-bb8816808dbc"},"vehicle_type_id":"4","last_reported":1742886657,"current_range_meters":10000,"station_id":"ce4bhi12rcd13ifvqfp0","pricing_plan_id":"cebpf4jnsgd1na2vs0mg"},{"bike_id":"16d1a1e8-6833-46ef-8ac2-dd05daf383fb","system_id":"levelo_inurba_marseille","lat":43.271251,"lon":5.41693,"is_reserved":false,"is_disabled":false,"rental_uris":{"android":"levelo://app?vid=16d1a1e8-6833-46ef-8ac2-dd05daf383fb","ios":"levelo://app?vid=16d1a1e8-6833-46ef-8ac2-dd05daf383fb"},"vehicle_type_id":"4","last_reported":1742886657,"current_range_meters":10000,"station_id":"","pricing_plan_id":"cebpf4jnsgd1na2vs0mg"},{"bike_id":"b6fd1ec3-47b2-486f-8b84-f71e2b87ecef","system_id":"levelo_inurba_marseille","lat":43.31082,"lon":5.42434,"is_reserved":false,"is_disabled":true,"rental_uris":{"android":"levelo://app?vid=b6fd1ec3-47b2-486f-8b84-f71e2b87ecef","ios":"levelo://app?vid=b6fd1ec3-47b2-486f-8b84-f71e2b87ecef"},"vehicle_type_id":"4","last_reported":1742886657,"current_range_meters":10000,"station_id":"ce4bhp92rcd13ifvqhag","pricing_plan_id":"cebpf4jnsgd1na2vs0mg"},{"bike_id":"6bb6f1fc-5b4f-4f3d-97c1-f093e7e9a8ef","system_id":"levelo_inurba_marseille","lat":43.230581,"lon":5.355015,"is_reserved":false,"is_disabled":false,"rental_uris":{"android":"levelo://app?vid=6bb6f1fc-5b4f-4f3d-97c1-f093e7e9a8ef","ios":"levelo://app?vid=6bb6f1fc-5b4f-4f3d-97c1-f093e7e9a8ef"},"vehicle_type_id":"4","last_reported":1742886657,"current_range_meters":10000,"station_id":"cpo3342slgdg3j2ifvpg","pricing_plan_id":"cebpf4jnsgd1na2vs0mg"},{"bike_id":"6457a7c3-e47d-4e22-a706-55621349603c","system_id":"levelo_inurba_marseille","lat":43.2606,"lon":5.3942,"is_reserved":false,"is_disabled":false,"rental_uris":{"android":"levelo://app?vid=6457a7c3-e47d-4e22-a706-55621349603c","ios":"levelo://app?vid=6457a7c3-e47d-4e22-a706-55621349603c"},"vehicle_type_id":"4","last_reported":1742886657,"current_range_meters":10000,"station_id":"","pricing_plan_id":"cebpf4jnsgd1na2vs0mg"},{"bike_id":"0ff5c1b1-7832-4431-921a-f9e33b47c9ed","system_id":"levelo_inurba_marseille","lat":43.26966,"lon":5.38665,"is_reserved":false,"is_disabled":false,"rental_uris":{"android":"levelo://app?vid=0ff5c1b1-7832-4431-921a-f9e33b47c9ed","ios":"levelo://app?vid=0ff5c1b1-7832-4431-921a-f9e33b47c9ed"},"vehicle_type_id":"4","last_reported":1742886657,"current_range_meters":10000,"station_id":"ce4bhh92rcd13ifvqfh0","pricing_plan_id":"cebpf4jnsgd1na2vs0mg"},{"bike_id":"76e8801f-7397-41b3-853d-515c85f2bf54","system_id":"levelo_inurba_marseille","lat":43.29558,"lon":5.36749,"is_reserved":false,"is_disabled":false,"rental_uris":{"android":"levelo://app?vid=76e8801f-7397-41b3-853d-515c85f2bf54","ios":"levelo://app?vid=76e8801f-7397-41b3-853d-515c85f2bf54"},"vehicle_type_id":"4","last_reported":1742886657,"current_range_meters":10800,"station_id":"ce4bgph2rcd13ifvqc2g","pricing_plan_id":"cebpf4jnsgd1na2vs0mg"},{"bike_id":"8284de5c-d227-47cd-b1ac-1bc2e0170d0f","system_id":"levelo_inurba_marseille","lat":43.27819,"lon":5.4072,"is_reserved":false,"is_disabled":true,"rental_uris":{"android":"levelo://app?vid=8284de5c-d227-47cd-b1ac-1bc2e0170d0f","ios":"levelo://app?vid=8284de5c-d227-47cd-b1ac-1bc2e0170d0f"},"vehicle_type_id":"4","last_reported":1742886657,"current_range_meters":10800,"station_id":"","pricing_plan_id":"cebpf4jnsgd1na2vs0mg"},{"bike_id":"61c7c2e9-98e7-4c3a-91dd-59a97b6ffc82","system_id":"levelo_inurba_marseille","lat":43.283463,"lon":5.381059,"is_reserved":false,"is_disabled":false,"rental_uris":{"android":"levelo://app?vid=61c7c2e9-98e7-4c3a-91dd-59a97b6ffc82","ios":"levelo://app?vid=61c7c2e9-98e7-4c3a-91dd-59a97b6ffc82"},"vehicle_type_id":"4","last_reported":1742886657,"current_range_meters":15200,"station_id":"ce4bh3h2rcd13ifvqdn0","pricing_plan_id":"cebpf4jnsgd1na2vs0mg"},{"bike_id":"e3f76d45-4904-44a7-aac2-e04832e991bb","system_id":"levelo_inurba_marseille","lat":43.29978,"lon":5.41319,"is_reserved":false,"is_disabled":true,"rental_uris":{"android":"levelo://app?vid=e3f76d45-4904-44a7-aac2-e04832e991bb","ios":"levelo://app?vid=e3f76d45-4904-44a7-aac2-e04832e991bb"},"vehicle_type_id":"4","last_reported":1742886657,"current_range_meters":10800,"station_id":"","pricing_plan_id":"cebpf4jnsgd1na2vs0mg"},{"bike_id":"e1e35c11-11be-4d6b-9a98-3de91e1bd819","system_id":"levelo_inurba_marseille","lat":43.324776,"lon":5.365734,"is_reserved":false,"is_disabled":false,"rental_uris":{"android":"levelo://app?vid=e1e35c11-11be-4d6b-9a98-3de91e1bd819","ios":"levelo://app?vid=e1e35c11-11be-4d6b-9a98-3de91e1bd819"},"vehicle_type_id":"4","last_reported":1742886657,"current_range_meters":10800,"station_id":"ce4bhs12rcd13ifvqhvg","pricing_plan_id":"cebpf4jnsgd1na2vs0mg"},{"bike_id":"df2b523a-d800-449b-8f64-59a4fecd7853","system_id":"levelo_inurba_marseille","lat":43.27479,"lon":5.42442,"is_reserved":false,"is_disabled":false,"rental_uris":{"android":"levelo://app?vid=df2b523a-d800-449b-8f64-59a4fecd7853","ios":"levelo://app?vid=df2b523a-d800-449b-8f64-59a4fecd7853"},"vehicle_type_id":"4","last_reported":1742886657,"current_range_meters":10800,"station_id":"ce4bhn92rcd13ifvqgrg","pricing_plan_id":"cebpf4jnsgd1na2vs0mg"},{"bike_id":"7da1780c-a707-4e5c-9536-83f171012129","system_id":"levelo_inurba_marseille","lat":43.31057,"lon":5.38342,"is_reserved":false,"is_disabled":false,"rental_uris":{"android":"levelo://app?vid=7da1780c-a707-4e5c-9536-83f171012129","ios":"levelo://app?vid=7da1780c-a707-4e5c-9536-83f171012129"},"vehicle_type_id":"4","last_reported":1742886657,"current_range_meters":10800,"station_id":"","pricing_plan_id":"cebpf4jnsgd1na2vs0mg"},{"bike_id":"2f3e2a92-1301-4a27-8eaa-7b0ea525530e","system_id":"levelo_inurba_marseille","lat":43.317111,"lon":5.436977,"is_reserved":false,"is_disabled":false,"rental_uris":{"android":"levelo://app?vid=2f3e2a92-1301-4a27-8eaa-7b0ea525530e","ios":"levelo://app?vid=2f3e2a92-1301-4a27-8eaa-7b0ea525530e"},"vehicle_type_id":"4","last_reported":1742886657,"current_range_meters":10800,"station_id":"","pricing_plan_id":"cebpf4jnsgd1na2vs0mg"},{"bike_id":"0a2fd2bd-0465-4490-8bf0-a948a7c174a7","system_id":"levelo_inurba_marseille","lat":43.26605,"lon":5.39028,"is_reserved":false,"is_disabled":true,"rental_uris":{"android":"levelo://app?vid=0a2fd2bd-0465-4490-8bf0-a948a7c174a7","ios":"levelo://app?vid=0a2fd2bd-0465-4490-8bf0-a948a7c174a7"},"vehicle_type_id":"4","last_reported":1742886657,"current_range_meters":10800,"station_id":"ce4bhe12rcd13ifvqf30","pricing_plan_id":"cebpf4jnsgd1na2vs0mg"},{"bike_id":"97d6eb6a-b65b-4156-ad8d-2447a201a9f7","system_id":"levelo_inurba_marseille","lat":43.26962,"lon":5.38635,"is_reserved":false,"is_disabled":false,"rental_uris":{"android":"levelo://app?vid=97d6eb6a-b65b-4156-ad8d-2447a201a9f7","ios":"levelo://app?vid=97d6eb6a-b65b-4156-ad8d-2447a201a9f7"},"vehicle_type_id":"4","last_reported":1742886657,"current_range_meters":10800,"station_id":"ce4bhh92rcd13ifvqfh0","pricing_plan_id":"cebpf4jnsgd1na2vs0mg"},{"bike_id":"6adb5407-e228-44f4-a1da-80d9852b3164","system_id":"levelo_inurba_marseille","lat":43.25012,"lon":5.38926,"is_reserved":false,"is_disabled":false,"rental_uris":{"android":"levelo://app?vid=6adb5407-e228-44f4-a1da-80d9852b3164","ios":"levelo://app?vid=6adb5407-e228-44f4-a1da-80d9852b3164"},"vehicle_type_id":"4","last_reported":1742886657,"current_range_meters":10800,"station_id":"ce4bhgp2rcd13ifvqfd0","pricing_plan_id":"cebpf4jnsgd1na2vs0mg"},{"bike_id":"89e75ed9-7f20-48f7-ad37-e0033e47c633","system_id":"levelo_inurba_marseille","lat":43.24638,"lon":5.38891,"is_reserved":false,"is_disabled":false,"rental_uris":{"android":"levelo://app?vid=89e75ed9-7f20-48f7-ad37-e0033e47c633","ios":"levelo://app?vid=89e75ed9-7f20-48f7-ad37-e0033e47c633"},"vehicle_type_id":"4","last_reported":1742886657,"current_range_meters":10800,"station_id":"ce4bhg12rcd13ifvqf60","pricing_plan_id":"cebpf4jnsgd1na2vs0mg"},{"bike_id":"4f722b0b-3881-4995-a9af-a059276a3d7f","system_id":"levelo_inurba_marseille","lat":43.29635,"lon":5.38094,"is_reserved":false,"is_disabled":false,"rental_uris":{"android":"levelo://app?vid=4f722b0b-3881-4995-a9af-a059276a3d7f","ios":"levelo://app?vid=4f722b0b-3881-4995-a9af-a059276a3d7f"},"vehicle_type_id":"4","last_reported":1742886657,"current_range_meters":11200,"station_id":"ce4bgl12rcd13ifvqbo0","pricing_plan_id":"cebpf4jnsgd1na2vs0mg"},{"bike_id":"94d98bce-14a7-484d-aab1-29c7982ad8cc","system_id":"levelo_inurba_marseille","lat":43.31188,"lon":5.38719,"is_reserved":false,"is_disabled":false,"rental_uris":{"android":"levelo://app?vid=94d98bce-14a7-484d-aab1-29c7982ad8cc","ios":"levelo://app?vid=94d98bce-14a7-484d-aab1-29c7982ad8cc"},"vehicle_type_id":"4","last_reported":1742886657,"current_range_meters":11200,"station_id":"ce4bgv12rcd13ifvqcp0","pricing_plan_id":"cebpf4jnsgd1na2vs0mg"},{"bike_id":"d7c9b119-99cc-4acd-80c4-6ecaf67a26b1","system_id":"levelo_inurba_marseille","lat":43.23072,"lon":5.35517,"is_reserved":false,"is_disabled":false,"rental_uris":{"android":"levelo://app?vid=d7c9b119-99cc-4acd-80c4-6ecaf67a26b1","ios":"levelo://app?vid=d7c9b119-99cc-4acd-80c4-6ecaf67a26b1"},"vehicle_type_id":"4","last_reported":1742886657,"current_range_meters":11200,"station_id":"cpo3342slgdg3j2ifvpg","pricing_plan_id":"cebpf4jnsgd1na2vs0mg"},{"bike_id":"3b0a7a40-2561-42ac-804d-cb85064eaca6","system_id":"levelo_inurba_marseille","lat":43.27491,"lon":5.42453,"is_reserved":false,"is_disabled":false,"rental_uris":{"android":"levelo://app?vid=3b0a7a40-2561-42ac-804d-cb85064eaca6","ios":"levelo://app?vid=3b0a7a40-2561-42ac-804d-cb85064eaca6"},"vehicle_type_id":"4","last_reported":1742886657,"current_range_meters":11200,"station_id":"ce4bhn92rcd13ifvqgrg","pricing_plan_id":"cebpf4jnsgd1na2vs0mg"},{"bike_id":"3b236f75-736b-40f8-b2c0-3f3b6647c125","system_id":"levelo_inurba_marseille","lat":43.24073,"lon":5.37763,"is_reserved":false,"is_disabled":false,"rental_uris":{"android":"levelo://app?vid=3b236f75-736b-40f8-b2c0-3f3b6647c125","ios":"levelo://app?vid=3b236f75-736b-40f8-b2c0-3f3b6647c125"},"vehicle_type_id":"4","last_reported":1742886657,"current_range_meters":11200,"station_id":"ce4bhnp2rcd13ifvqgvg","pricing_plan_id":"cebpf4jnsgd1na2vs0mg"},{"bike_id":"8f208df7-81e0-45c5-bd98-a49c85a38fa2","system_id":"levelo_inurba_marseille","lat":43.30317,"lon":5.36903,"is_reserved":false,"is_disabled":false,"rental_uris":{"android":"levelo://app?vid=8f208df7-81e0-45c5-bd98-a49c85a38fa2","ios":"levelo://app?vid=8f208df7-81e0-45c5-bd98-a49c85a38fa2"},"vehicle_type_id":"4","last_reported":1742886657,"current_range_meters":11200,"station_id":"ce4bgqh2rcd13ifvqc5g","pricing_plan_id":"cebpf4jnsgd1na2vs0mg"},{"bike_id":"01e18a58-61c0-4135-8f06-6020e1d348ce","system_id":"levelo_inurba_marseille","lat":43.28356,"lon":5.38107,"is_reserved":false,"is_disabled":false,"rental_uris":{"android":"levelo://app?vid=01e18a58-61c0-4135-8f06-6020e1d348ce","ios":"levelo://app?vid=01e18a58-61c0-4135-8f06-6020e1d348ce"},"vehicle_type_id":"4","last_reported":1742886657,"current_range_meters":11200,"station_id":"ce4bh412rcd13ifvqdr0","pricing_plan_id":"cebpf4jnsgd1na2vs0mg"},{"bike_id":"a6a5366f-ec51-44e7-ad48-a15bbfd176c7","system_id":"levelo_inurba_marseille","lat":43.296326,"lon":5.372293,"is_reserved":false,"is_disabled":false,"rental_uris":{"android":"levelo://app?vid=a6a5366f-ec51-44e7-ad48-a15bbfd176c7","ios":"levelo://app?vid=a6a5366f-ec51-44e7-ad48-a15bbfd176c7"},"vehicle_type_id":"4","last_reported":1742886657,"current_range_meters":11200,"station_id":"ce4bgrh2rcd13ifvqc8g","pricing_plan_id":"cebpf4jnsgd1na2vs0mg"},{"bike_id":"11638dcf-c183-4940-bebb-985f736789bf","system_id":"levelo_inurba_marseille","lat":43.27674,"lon":5.38886,"is_reserved":false,"is_disabled":true,"rental_uris":{"android":"levelo://app?vid=11638dcf-c183-4940-bebb-985f736789bf","ios":"levelo://app?vid=11638dcf-c183-4940-bebb-985f736789bf"},"vehicle_type_id":"4","last_reported":1742886657,"current_range_meters":11600,"station_id":"ce4bhi12rcd13ifvqfo0","pricing_plan_id":"cebpf4jnsgd1na2vs0mg"},{"bike_id":"887da96c-88d1-4438-ae4f-a57de58dc0f3","system_id":"levelo_inurba_marseille","lat":43.2835,"lon":5.38106,"is_reserved":false,"is_disabled":false,"rental_uris":{"android":"levelo://app?vid=887da96c-88d1-4438-ae4f-a57de58dc0f3","ios":"levelo://app?vid=887da96c-88d1-4438-ae4f-a57de58dc0f3"},"vehicle_type_id":"4","last_reported":1742886657,"current_range_meters":11600,"station_id":"ce4bh412rcd13ifvqdr0","pricing_plan_id":"cebpf4jnsgd1na2vs0mg"},{"bike_id":"74406c35-ee35-437d-be26-2d7711378046","system_id":"levelo_inurba_marseille","lat":43.32362,"lon":5.36747,"is_reserved":false,"is_disabled":false,"rental_uris":{"android":"levelo://app?vid=74406c35-ee35-437d-be26-2d7711378046","ios":"levelo://app?vid=74406c35-ee35-437d-be26-2d7711378046"},"vehicle_type_id":"4","last_reported":1742886657,"current_range_meters":11600,"station_id":"ce4bhsh2rcd13ifvqi2g","pricing_plan_id":"cebpf4jnsgd1na2vs0mg"},{"bike_id":"6e1494f2-4372-4d8b-8688-1334fe9e50ee","system_id":"levelo_inurba_marseille","lat":43.28148,"lon":5.42644,"is_reserved":false,"is_disabled":false,"rental_uris":{"android":"levelo://app?vid=6e1494f2-4372-4d8b-8688-1334fe9e50ee","ios":"levelo://app?vid=6e1494f2-4372-4d8b-8688-1334fe9e50ee"},"vehicle_type_id":"4","last_reported":1742886657,"current_range_meters":12400,"station_id":"ce4bhnh2rcd13ifvqgug","pricing_plan_id":"cebpf4jnsgd1na2vs0mg"},{"bike_id":"008c8db6-be2b-43ce-8a53-8af51fd8b577","system_id":"levelo_inurba_marseille","lat":43.24181,"lon":5.39733,"is_reserved":false,"is_disabled":false,"rental_uris":{"android":"levelo://app?vid=008c8db6-be2b-43ce-8a53-8af51fd8b577","ios":"levelo://app?vid=008c8db6-be2b-43ce-8a53-8af51fd8b577"},"vehicle_type_id":"4","last_reported":1742886657,"current_range_meters":11600,"station_id":"","pricing_plan_id":"cebpf4jnsgd1na2vs0mg"},{"bike_id":"9d901bcb-7adf-402a-b67f-43b2cf34de78","system_id":"levelo_inurba_marseille","lat":43.28715,"lon":5.36097,"is_reserved":false,"is_disabled":false,"rental_uris":{"android":"levelo://app?vid=9d901bcb-7adf-402a-b67f-43b2cf34de78","ios":"levelo://app?vid=9d901bcb-7adf-402a-b67f-43b2cf34de78"},"vehicle_type_id":"4","last_reported":1742886657,"current_range_meters":11600,"station_id":"cki0cbj6b192h4jlfktg","pricing_plan_id":"cebpf4jnsgd1na2vs0mg"},{"bike_id":"1e213915-9f3e-481a-af24-46f10a50b5cc","system_id":"levelo_inurba_marseille","lat":43.30896,"lon":5.39609,"is_reserved":false,"is_disabled":false,"rental_uris":{"android":"levelo://app?vid=1e213915-9f3e-481a-af24-46f10a50b5cc","ios":"levelo://app?vid=1e213915-9f3e-481a-af24-46f10a50b5cc"},"vehicle_type_id":"4","last_reported":1742886657,"current_range_meters":11600,"station_id":"","pricing_plan_id":"cebpf4jnsgd1na2vs0mg"},{"bike_id":"bb58f931-d39b-4674-bcbc-5096c1d815e7","system_id":"levelo_inurba_marseille","lat":43.241792,"lon":5.397284,"is_reserved":false,"is_disabled":false,"rental_uris":{"android":"levelo://app?vid=bb58f931-d39b-4674-bcbc-5096c1d815e7","ios":"levelo://app?vid=bb58f931-d39b-4674-bcbc-5096c1d815e7"},"vehicle_type_id":"4","last_reported":1742886657,"current_range_meters":11600,"station_id":"","pricing_plan_id":"cebpf4jnsgd1na2vs0mg"},{"bike_id":"31853493-08cd-48ca-8af6-a1f588cefafe","system_id":"levelo_inurba_marseille","lat":43.258157,"lon":5.394494,"is_reserved":false,"is_disabled":false,"rental_uris":{"android":"levelo://app?vid=31853493-08cd-48ca-8af6-a1f588cefafe","ios":"levelo://app?vid=31853493-08cd-48ca-8af6-a1f588cefafe"},"vehicle_type_id":"4","last_reported":1742886657,"current_range_meters":11600,"station_id":"ce4bhip2rcd13ifvqft0","pricing_plan_id":"cebpf4jnsgd1na2vs0mg"},{"bike_id":"a18d6c1a-a883-4771-be1b-f48bcf1c35ff","system_id":"levelo_inurba_marseille","lat":43.30795,"lon":5.37668,"is_reserved":false,"is_disabled":false,"rental_uris":{"android":"levelo://app?vid=a18d6c1a-a883-4771-be1b-f48bcf1c35ff","ios":"levelo://app?vid=a18d6c1a-a883-4771-be1b-f48bcf1c35ff"},"vehicle_type_id":"4","last_reported":1742886657,"current_range_meters":12000,"station_id":"ce4bgv92rcd13ifvqcq0","pricing_plan_id":"cebpf4jnsgd1na2vs0mg"},{"bike_id":"670214b8-0c1a-44c6-9ec1-e4e7883cf534","system_id":"levelo_inurba_marseille","lat":43.3051,"lon":5.36535,"is_reserved":false,"is_disabled":false,"rental_uris":{"android":"levelo://app?vid=670214b8-0c1a-44c6-9ec1-e4e7883cf534","ios":"levelo://app?vid=670214b8-0c1a-44c6-9ec1-e4e7883cf534"},"vehicle_type_id":"4","last_reported":1742886657,"current_range_meters":12000,"station_id":"","pricing_plan_id":"cebpf4jnsgd1na2vs0mg"},{"bike_id":"18a7fec5-cd4f-470b-b4aa-49a452d96c3f","system_id":"levelo_inurba_marseille","lat":43.30615,"lon":5.39351,"is_reserved":false,"is_disabled":true,"rental_uris":{"android":"levelo://app?vid=18a7fec5-cd4f-470b-b4aa-49a452d96c3f","ios":"levelo://app?vid=18a7fec5-cd4f-470b-b4aa-49a452d96c3f"},"vehicle_type_id":"4","last_reported":1742886657,"current_range_meters":12000,"station_id":"ce4bh0p2rcd13ifvqd80","pricing_plan_id":"cebpf4jnsgd1na2vs0mg"},{"bike_id":"dea1f70c-3a59-4563-bb09-a9d3b04a8744","system_id":"levelo_inurba_marseille","lat":43.25871,"lon":5.38919,"is_reserved":false,"is_disabled":false,"rental_uris":{"android":"levelo://app?vid=dea1f70c-3a59-4563-bb09-a9d3b04a8744","ios":"levelo://app?vid=dea1f70c-3a59-4563-bb09-a9d3b04a8744"},"vehicle_type_id":"4","last_reported":1742886657,"current_range_meters":12000,"station_id":"","pricing_plan_id":"cebpf4jnsgd1na2vs0mg"},{"bike_id":"6633349b-54ae-41b8-88d5-61ec5d012302","system_id":"levelo_inurba_marseille","lat":43.32107,"lon":5.36796,"is_reserved":false,"is_disabled":false,"rental_uris":{"android":"levelo://app?vid=6633349b-54ae-41b8-88d5-61ec5d012302","ios":"levelo://app?vid=6633349b-54ae-41b8-88d5-61ec5d012302"},"vehicle_type_id":"4","last_reported":1742886657,"current_range_meters":12000,"station_id":"ce4bhrh2rcd13ifvqhug","pricing_plan_id":"cebpf4jnsgd1na2vs0mg"},{"bike_id":"0d89eca0-5671-404f-88cc-d263b1555cb5","system_id":"levelo_inurba_marseille","lat":43.257303,"lon":5.411082,"is_reserved":false,"is_disabled":false,"rental_uris":{"android":"levelo://app?vid=0d89eca0-5671-404f-88cc-d263b1555cb5","ios":"levelo://app?vid=0d89eca0-5671-404f-88cc-d263b1555cb5"},"vehicle_type_id":"4","last_reported":1742886657,"current_range_meters":12000,"station_id":"","pricing_plan_id":"cebpf4jnsgd1na2vs0mg"},{"bike_id":"71d053fe-72cd-4674-8064-9f91eaaa9762","system_id":"levelo_inurba_marseille","lat":43.28479,"lon":5.38545,"is_reserved":false,"is_disabled":true,"rental_uris":{"android":"levelo://app?vid=71d053fe-72cd-4674-8064-9f91eaaa9762","ios":"levelo://app?vid=71d053fe-72cd-4674-8064-9f91eaaa9762"},"vehicle_type_id":"4","last_reported":1742886657,"current_range_meters":12000,"station_id":"ce4bh8p2rcd13ifvqeb0","pricing_plan_id":"cebpf4jnsgd1na2vs0mg"},{"bike_id":"8583bcae-e817-4db7-ab92-448c595780ea","system_id":"levelo_inurba_marseille","lat":43.33017,"lon":5.39064,"is_reserved":false,"is_disabled":false,"rental_uris":{"android":"levelo://app?vid=8583bcae-e817-4db7-ab92-448c595780ea","ios":"levelo://app?vid=8583bcae-e817-4db7-ab92-448c595780ea"},"vehicle_type_id":"4","last_reported":1742886657,"current_range_meters":12000,"station_id":"","pricing_plan_id":"cebpf4jnsgd1na2vs0mg"},{"bike_id":"b3dedc06-95d1-4e6a-a63a-8c109abcde13","system_id":"levelo_inurba_marseille","lat":43.28,"lon":5.37843,"is_reserved":false,"is_disabled":false,"rental_uris":{"android":"levelo://app?vid=b3dedc06-95d1-4e6a-a63a-8c109abcde13","ios":"levelo://app?vid=b3dedc06-95d1-4e6a-a63a-8c109abcde13"},"vehicle_type_id":"4","last_reported":1742886657,"current_range_meters":12000,"station_id":"ce4bhh92rcd13ifvqfh0","pricing_plan_id":"cebpf4jnsgd1na2vs0mg"},{"bike_id":"cdedb536-aa45-44e4-ad8f-f81b5b76bd61","system_id":"levelo_inurba_marseille","lat":43.30149,"lon":5.38078,"is_reserved":false,"is_disabled":false,"rental_uris":{"android":"levelo://app?vid=cdedb536-aa45-44e4-ad8f-f81b5b76bd61","ios":"levelo://app?vid=cdedb536-aa45-44e4-ad8f-f81b5b76bd61"},"vehicle_type_id":"4","last_reported":1742886657,"current_range_meters":12400,"station_id":"ce4bgjp2rcd13ifvqbh0","pricing_plan_id":"cebpf4jnsgd1na2vs0mg"},{"bike_id":"844d3370-21e5-4de2-9d45-2b091e1157d6","system_id":"levelo_inurba_marseille","lat":43.239684,"lon":5.366309,"is_reserved":false,"is_disabled":false,"rental_uris":{"android":"levelo://app?vid=844d3370-21e5-4de2-9d45-2b091e1157d6","ios":"levelo://app?vid=844d3370-21e5-4de2-9d45-2b091e1157d6"},"vehicle_type_id":"4","last_reported":1742886657,"current_range_meters":12400,"station_id":"ce4bhi12rcd13ifvqfp0","pricing_plan_id":"cebpf4jnsgd1na2vs0mg"},{"bike_id":"04357187-31a2-4621-9b88-fc476381d72a","system_id":"levelo_inurba_marseille","lat":43.25821,"lon":5.39438,"is_reserved":false,"is_disabled":false,"rental_uris":{"android":"levelo://app?vid=04357187-31a2-4621-9b88-fc476381d72a","ios":"levelo://app?vid=04357187-31a2-4621-9b88-fc476381d72a"},"vehicle_type_id":"4","last_reported":1742886657,"current_range_meters":12400,"station_id":"ce4bhip2rcd13ifvqft0","pricing_plan_id":"cebpf4jnsgd1na2vs0mg"},{"bike_id":"587392a3-d117-4608-be51-e14c44959cb6","system_id":"levelo_inurba_marseille","lat":43.297041,"lon":5.376796,"is_reserved":false,"is_disabled":false,"rental_uris":{"android":"levelo://app?vid=587392a3-d117-4608-be51-e14c44959cb6","ios":"levelo://app?vid=587392a3-d117-4608-be51-e14c44959cb6"},"vehicle_type_id":"4","last_reported":1742886657,"current_range_meters":12400,"station_id":"ce4bgkh2rcd13ifvqbl0","pricing_plan_id":"cebpf4jnsgd1na2vs0mg"},{"bike_id":"50e3359a-15f1-4f66-bbc8-eed7afb5cb08","system_id":"levelo_inurba_marseille","lat":43.25937,"lon":5.40908,"is_reserved":false,"is_disabled":false,"rental_uris":{"android":"levelo://app?vid=50e3359a-15f1-4f66-bbc8-eed7afb5cb08","ios":"levelo://app?vid=50e3359a-15f1-4f66-bbc8-eed7afb5cb08"},"vehicle_type_id":"4","last_reported":1742886657,"current_range_meters":12400,"station_id":"ce4bhm92rcd13ifvqglg","pricing_plan_id":"cebpf4jnsgd1na2vs0mg"},{"bike_id":"14a7fa2c-fac1-4321-b2bc-58f9d1899727","system_id":"levelo_inurba_marseille","lat":43.313575,"lon":5.367029,"is_reserved":false,"is_disabled":false,"rental_uris":{"android":"levelo://app?vid=14a7fa2c-fac1-4321-b2bc-58f9d1899727","ios":"levelo://app?vid=14a7fa2c-fac1-4321-b2bc-58f9d1899727"},"vehicle_type_id":"4","last_reported":1742886657,"current_range_meters":12400,"station_id":"ce4bgr92rcd13ifvqc6g","pricing_plan_id":"cebpf4jnsgd1na2vs0mg"},{"bike_id":"c17e766d-72fd-4570-b62c-2beb5e983b80","system_id":"levelo_inurba_marseille","lat":43.286941,"lon":5.37396,"is_reserved":false,"is_disabled":false,"rental_uris":{"android":"levelo://app?vid=c17e766d-72fd-4570-b62c-2beb5e983b80","ios":"levelo://app?vid=c17e766d-72fd-4570-b62c-2beb5e983b80"},"vehicle_type_id":"4","last_reported":1742886657,"current_range_meters":12800,"station_id":"ce4bh3p2rcd13ifvqdq0","pricing_plan_id":"cebpf4jnsgd1na2vs0mg"},{"bike_id":"252db539-be05-4aee-88aa-2cf0fb8e0e06","system_id":"levelo_inurba_marseille","lat":43.2891,"lon":5.36395,"is_reserved":false,"is_disabled":false,"rental_uris":{"android":"levelo://app?vid=252db539-be05-4aee-88aa-2cf0fb8e0e06","ios":"levelo://app?vid=252db539-be05-4aee-88aa-2cf0fb8e0e06"},"vehicle_type_id":"4","last_reported":1742886657,"current_range_meters":12800,"station_id":"ce4bhc92rcd13ifvqetg","pricing_plan_id":"cebpf4jnsgd1na2vs0mg"},{"bike_id":"b599ec8c-9116-4cb3-980c-d0a7d1e83114","system_id":"levelo_inurba_marseille","lat":43.32418,"lon":5.36542,"is_reserved":false,"is_disabled":false,"rental_uris":{"android":"levelo://app?vid=b599ec8c-9116-4cb3-980c-d0a7d1e83114","ios":"levelo://app?vid=b599ec8c-9116-4cb3-980c-d0a7d1e83114"},"vehicle_type_id":"4","last_reported":1742886657,"current_range_meters":12800,"station_id":"ce4bhs12rcd13ifvqhvg","pricing_plan_id":"cebpf4jnsgd1na2vs0mg"},{"bike_id":"70d24091-5096-41c8-a922-ab05401584f6","system_id":"levelo_inurba_marseille","lat":43.292776,"lon":5.368466,"is_reserved":false,"is_disabled":false,"rental_uris":{"android":"levelo://app?vid=70d24091-5096-41c8-a922-ab05401584f6","ios":"levelo://app?vid=70d24091-5096-41c8-a922-ab05401584f6"},"vehicle_type_id":"4","last_reported":1742886657,"current_range_meters":12800,"station_id":"ce4bhqp2rcd13ifvqhng","pricing_plan_id":"cebpf4jnsgd1na2vs0mg"},{"bike_id":"5bb0bf23-fa2e-4e35-939f-c5286a4accbb","system_id":"levelo_inurba_marseille","lat":43.31528,"lon":5.37354,"is_reserved":false,"is_disabled":false,"rental_uris":{"android":"levelo://app?vid=5bb0bf23-fa2e-4e35-939f-c5286a4accbb","ios":"levelo://app?vid=5bb0bf23-fa2e-4e35-939f-c5286a4accbb"},"vehicle_type_id":"4","last_reported":1742886657,"current_range_meters":12800,"station_id":"ce4bgt12rcd13ifvqcd0","pricing_plan_id":"cebpf4jnsgd1na2vs0mg"},{"bike_id":"9d6cee4b-2c8a-4e85-af80-220eb7a86ba4","system_id":"levelo_inurba_marseille","lat":43.262,"lon":5.37933,"is_reserved":false,"is_disabled":false,"rental_uris":{"android":"levelo://app?vid=9d6cee4b-2c8a-4e85-af80-220eb7a86ba4","ios":"levelo://app?vid=9d6cee4b-2c8a-4e85-af80-220eb7a86ba4"},"vehicle_type_id":"4","last_reported":1742886657,"current_range_meters":12800,"station_id":"ce4bhjp2rcd13ifvqg90","pricing_plan_id":"cebpf4jnsgd1na2vs0mg"},{"bike_id":"87bc971d-7f2a-4f5b-9231-d1a713fc5fde","system_id":"levelo_inurba_marseille","lat":43.32011,"lon":5.38152,"is_reserved":false,"is_disabled":false,"rental_uris":{"android":"levelo://app?vid=87bc971d-7f2a-4f5b-9231-d1a713fc5fde","ios":"levelo://app?vid=87bc971d-7f2a-4f5b-9231-d1a713fc5fde"},"vehicle_type_id":"4","last_reported":1742886657,"current_range_meters":12800,"station_id":"ce4bhr12rcd13ifvqhpg","pricing_plan_id":"cebpf4jnsgd1na2vs0mg"},{"bike_id":"00d8699e-eac7-4b25-a5e5-4d2f462e0645","system_id":"levelo_inurba_marseille","lat":43.23186,"lon":5.39991,"is_reserved":false,"is_disabled":false,"rental_uris":{"android":"levelo://app?vid=00d8699e-eac7-4b25-a5e5-4d2f462e0645","ios":"levelo://app?vid=00d8699e-eac7-4b25-a5e5-4d2f462e0645"},"vehicle_type_id":"4","last_reported":1742886657,"current_range_meters":13600,"station_id":"","pricing_plan_id":"cebpf4jnsgd1na2vs0mg"},{"bike_id":"2412be7f-8201-4d86-94a4-44958d5e232f","system_id":"levelo_inurba_marseille","lat":43.27216,"lon":5.39181,"is_reserved":false,"is_disabled":false,"rental_uris":{"android":"levelo://app?vid=2412be7f-8201-4d86-94a4-44958d5e232f","ios":"levelo://app?vid=2412be7f-8201-4d86-94a4-44958d5e232f"},"vehicle_type_id":"4","last_reported":1742886657,"current_range_meters":13600,"station_id":"ce4bhhp2rcd13ifvqfm0","pricing_plan_id":"cebpf4jnsgd1na2vs0mg"},{"bike_id":"38351309-2dec-417c-a558-74c8bc991036","system_id":"levelo_inurba_marseille","lat":43.30826,"lon":5.40645,"is_reserved":false,"is_disabled":true,"rental_uris":{"android":"levelo://app?vid=38351309-2dec-417c-a558-74c8bc991036","ios":"levelo://app?vid=38351309-2dec-417c-a558-74c8bc991036"},"vehicle_type_id":"4","last_reported":1742886657,"current_range_meters":13600,"station_id":"","pricing_plan_id":"cebpf4jnsgd1na2vs0mg"},{"bike_id":"98d38a64-15b2-410c-b614-5635d097b9ba","system_id":"levelo_inurba_marseille","lat":43.303043,"lon":5.392069,"is_reserved":false,"is_disabled":true,"rental_uris":{"android":"levelo://app?vid=98d38a64-15b2-410c-b614-5635d097b9ba","ios":"levelo://app?vid=98d38a64-15b2-410c-b614-5635d097b9ba"},"vehicle_type_id":"4","last_reported":1742886657,"current_range_meters":13600,"station_id":"ce4bgkh2rcd13ifvqbk0","pricing_plan_id":"cebpf4jnsgd1na2vs0mg"},{"bike_id":"28ad6442-8388-483f-bf3b-904d871cf221","system_id":"levelo_inurba_marseille","lat":43.3047,"lon":5.37912,"is_reserved":false,"is_disabled":false,"rental_uris":{"android":"levelo://app?vid=28ad6442-8388-483f-bf3b-904d871cf221","ios":"levelo://app?vid=28ad6442-8388-483f-bf3b-904d871cf221"},"vehicle_type_id":"4","last_reported":1742886657,"current_range_meters":13600,"station_id":"ce4bgup2rcd13ifvqcn0","pricing_plan_id":"cebpf4jnsgd1na2vs0mg"},{"bike_id":"49fbe21e-ba16-4e56-8617-5066ed12268a","system_id":"levelo_inurba_marseille","lat":43.31086,"lon":5.42432,"is_reserved":false,"is_disabled":false,"rental_uris":{"android":"levelo://app?vid=49fbe21e-ba16-4e56-8617-5066ed12268a","ios":"levelo://app?vid=49fbe21e-ba16-4e56-8617-5066ed12268a"},"vehicle_type_id":"4","last_reported":1742886657,"current_range_meters":14000,"station_id":"ce4bhp92rcd13ifvqhag","pricing_plan_id":"cebpf4jnsgd1na2vs0mg"},{"bike_id":"b2c87977-8489-4807-b93d-12c456c96670","system_id":"levelo_inurba_marseille","lat":43.28941,"lon":5.36402,"is_reserved":false,"is_disabled":false,"rental_uris":{"android":"levelo://app?vid=b2c87977-8489-4807-b93d-12c456c96670","ios":"levelo://app?vid=b2c87977-8489-4807-b93d-12c456c96670"},"vehicle_type_id":"4","last_reported":1742886657,"current_range_meters":14000,"station_id":"ce4bhc92rcd13ifvqetg","pricing_plan_id":"cebpf4jnsgd1na2vs0mg"},{"bike_id":"28b8bdb3-c73f-4e95-859b-e9db1be690ff","system_id":"levelo_inurba_marseille","lat":43.33036,"lon":5.39063,"is_reserved":false,"is_disabled":false,"rental_uris":{"android":"levelo://app?vid=28b8bdb3-c73f-4e95-859b-e9db1be690ff","ios":"levelo://app?vid=28b8bdb3-c73f-4e95-859b-e9db1be690ff"},"vehicle_type_id":"4","last_reported":1742886657,"current_range_meters":14000,"station_id":"","pricing_plan_id":"cebpf4jnsgd1na2vs0mg"},{"bike_id":"7fbb5cc4-ceec-4424-b26c-0b8b49614ca0","system_id":"levelo_inurba_marseille","lat":43.301321,"lon":5.398649,"is_reserved":false,"is_disabled":true,"rental_uris":{"android":"levelo://app?vid=7fbb5cc4-ceec-4424-b26c-0b8b49614ca0","ios":"levelo://app?vid=7fbb5cc4-ceec-4424-b26c-0b8b49614ca0"},"vehicle_type_id":"4","last_reported":1742886657,"current_range_meters":14000,"station_id":"","pricing_plan_id":"cebpf4jnsgd1na2vs0mg"},{"bike_id":"4a3cef67-7854-486a-96a1-875577c9d100","system_id":"levelo_inurba_marseille","lat":43.28097,"lon":5.39667,"is_reserved":false,"is_disabled":true,"rental_uris":{"android":"levelo://app?vid=4a3cef67-7854-486a-96a1-875577c9d100","ios":"levelo://app?vid=4a3cef67-7854-486a-96a1-875577c9d100"},"vehicle_type_id":"4","last_reported":1742886657,"current_range_meters":14000,"station_id":"ce4bho12rcd13ifvqh2g","pricing_plan_id":"cebpf4jnsgd1na2vs0mg"},{"bike_id":"f28a28aa-72bf-4178-ad8f-4eaeef70955b","system_id":"levelo_inurba_marseille","lat":43.27496,"lon":5.42449,"is_reserved":false,"is_disabled":false,"rental_uris":{"android":"levelo://app?vid=f28a28aa-72bf-4178-ad8f-4eaeef70955b","ios":"levelo://app?vid=f28a28aa-72bf-4178-ad8f-4eaeef70955b"},"vehicle_type_id":"4","last_reported":1742886657,"current_range_meters":14400,"station_id":"ce4bhn92rcd13ifvqgrg","pricing_plan_id":"cebpf4jnsgd1na2vs0mg"},{"bike_id":"5da00ec4-28a8-4524-a7ee-c8ce009c9624","system_id":"levelo_inurba_marseille","lat":43.24549,"lon":5.39528,"is_reserved":false,"is_disabled":false,"rental_uris":{"android":"levelo://app?vid=5da00ec4-28a8-4524-a7ee-c8ce009c9624","ios":"levelo://app?vid=5da00ec4-28a8-4524-a7ee-c8ce009c9624"},"vehicle_type_id":"4","last_reported":1742886657,"current_range_meters":14400,"station_id":"ce4bhlp2rcd13ifvqgjg","pricing_plan_id":"cebpf4jnsgd1na2vs0mg"},{"bike_id":"ac7172cf-1608-41cd-a364-88ed9da7638d","system_id":"levelo_inurba_marseille","lat":43.29531,"lon":5.37511,"is_reserved":false,"is_disabled":false,"rental_uris":{"android":"levelo://app?vid=ac7172cf-1608-41cd-a364-88ed9da7638d","ios":"levelo://app?vid=ac7172cf-1608-41cd-a364-88ed9da7638d"},"vehicle_type_id":"4","last_reported":1742886657,"current_range_meters":14800,"station_id":"ce4bgkp2rcd13ifvqbmg","pricing_plan_id":"cebpf4jnsgd1na2vs0mg"},{"bike_id":"7e1a9145-ca6a-4a17-b5e6-320201ea3679","system_id":"levelo_inurba_marseille","lat":43.26605,"lon":5.39056,"is_reserved":false,"is_disabled":true,"rental_uris":{"android":"levelo://app?vid=7e1a9145-ca6a-4a17-b5e6-320201ea3679","ios":"levelo://app?vid=7e1a9145-ca6a-4a17-b5e6-320201ea3679"},"vehicle_type_id":"4","last_reported":1742886657,"current_range_meters":14400,"station_id":"ce4bhe12rcd13ifvqf30","pricing_plan_id":"cebpf4jnsgd1na2vs0mg"},{"bike_id":"cc9070db-db26-4490-b1cb-5c34c990cbca","system_id":"levelo_inurba_marseille","lat":43.25252,"lon":5.40326,"is_reserved":false,"is_disabled":false,"rental_uris":{"android":"levelo://app?vid=cc9070db-db26-4490-b1cb-5c34c990cbca","ios":"levelo://app?vid=cc9070db-db26-4490-b1cb-5c34c990cbca"},"vehicle_type_id":"4","last_reported":1742886657,"current_range_meters":14400,"station_id":"","pricing_plan_id":"cebpf4jnsgd1na2vs0mg"},{"bike_id":"669a03dd-86fc-4194-9d1f-57d32977ea07","system_id":"levelo_inurba_marseille","lat":43.25088,"lon":5.39515,"is_reserved":false,"is_disabled":false,"rental_uris":{"android":"levelo://app?vid=669a03dd-86fc-4194-9d1f-57d32977ea07","ios":"levelo://app?vid=669a03dd-86fc-4194-9d1f-57d32977ea07"},"vehicle_type_id":"4","last_reported":1742886657,"current_range_meters":14800,"station_id":"ce4bhm12rcd13ifvqgkg","pricing_plan_id":"cebpf4jnsgd1na2vs0mg"},{"bike_id":"46ea3265-2e21-444f-b76d-43bec06167de","system_id":"levelo_inurba_marseille","lat":43.29197,"lon":5.35812,"is_reserved":false,"is_disabled":false,"rental_uris":{"android":"levelo://app?vid=46ea3265-2e21-444f-b76d-43bec06167de","ios":"levelo://app?vid=46ea3265-2e21-444f-b76d-43bec06167de"},"vehicle_type_id":"4","last_reported":1742886657,"current_range_meters":14800,"station_id":"ce4bhb12rcd13ifvqel0","pricing_plan_id":"cebpf4jnsgd1na2vs0mg"},{"bike_id":"4bf82290-6c34-4724-be7a-fccc387df49e","system_id":"levelo_inurba_marseille","lat":43.31502,"lon":5.37319,"is_reserved":false,"is_disabled":false,"rental_uris":{"android":"levelo://app?vid=4bf82290-6c34-4724-be7a-fccc387df49e","ios":"levelo://app?vid=4bf82290-6c34-4724-be7a-fccc387df49e"},"vehicle_type_id":"4","last_reported":1742886657,"current_range_meters":14800,"station_id":"ce4bgt12rcd13ifvqcd0","pricing_plan_id":"cebpf4jnsgd1na2vs0mg"},{"bike_id":"d2ebc3dd-bf8e-4010-87fc-e1f62b4d321f","system_id":"levelo_inurba_marseille","lat":43.29602,"lon":5.38097,"is_reserved":false,"is_disabled":false,"rental_uris":{"android":"levelo://app?vid=d2ebc3dd-bf8e-4010-87fc-e1f62b4d321f","ios":"levelo://app?vid=d2ebc3dd-bf8e-4010-87fc-e1f62b4d321f"},"vehicle_type_id":"4","last_reported":1742886657,"current_range_meters":14800,"station_id":"ce4bgl12rcd13ifvqbo0","pricing_plan_id":"cebpf4jnsgd1na2vs0mg"},{"bike_id":"a9d9ca28-f8e7-452a-9007-4a0b216d069c","system_id":"levelo_inurba_marseille","lat":43.30959,"lon":5.39035,"is_reserved":false,"is_disabled":false,"rental_uris":{"android":"levelo://app?vid=a9d9ca28-f8e7-452a-9007-4a0b216d069c","ios":"levelo://app?vid=a9d9ca28-f8e7-452a-9007-4a0b216d069c"},"vehicle_type_id":"4","last_reported":1742886657,"current_range_meters":14800,"station_id":"ce4bgup2rcd13ifvqco0","pricing_plan_id":"cebpf4jnsgd1na2vs0mg"},{"bike_id":"dd407082-433d-4d57-8c48-bf5e6a4dd6ac","system_id":"levelo_inurba_marseille","lat":43.307348,"lon":5.382278,"is_reserved":false,"is_disabled":false,"rental_uris":{"android":"levelo://app?vid=dd407082-433d-4d57-8c48-bf5e6a4dd6ac","ios":"levelo://app?vid=dd407082-433d-4d57-8c48-bf5e6a4dd6ac"},"vehicle_type_id":"4","last_reported":1742886657,"current_range_meters":14800,"station_id":"ce4bgt92rcd13ifvqcg0","pricing_plan_id":"cebpf4jnsgd1na2vs0mg"},{"bike_id":"07101b2e-7606-4bb3-bbe8-f0db91cd353d","system_id":"levelo_inurba_marseille","lat":43.28619,"lon":5.35102,"is_reserved":false,"is_disabled":false,"rental_uris":{"android":"levelo://app?vid=07101b2e-7606-4bb3-bbe8-f0db91cd353d","ios":"levelo://app?vid=07101b2e-7606-4bb3-bbe8-f0db91cd353d"},"vehicle_type_id":"4","last_reported":1742886657,"current_range_meters":14800,"station_id":"ce4bhch2rcd13ifvqeug","pricing_plan_id":"cebpf4jnsgd1na2vs0mg"},{"bike_id":"fdd793a0-d38a-49dc-81a6-f692fa6085e3","system_id":"levelo_inurba_marseille","lat":43.27208,"lon":5.39181,"is_reserved":false,"is_disabled":false,"rental_uris":{"android":"levelo://app?vid=fdd793a0-d38a-49dc-81a6-f692fa6085e3","ios":"levelo://app?vid=fdd793a0-d38a-49dc-81a6-f692fa6085e3"},"vehicle_type_id":"4","last_reported":1742886657,"current_range_meters":15200,"station_id":"ce4bhhp2rcd13ifvqfm0","pricing_plan_id":"cebpf4jnsgd1na2vs0mg"},{"bike_id":"fd8a75d3-0882-41af-8e38-82df19569887","system_id":"levelo_inurba_marseille","lat":43.310285,"lon":5.378903,"is_reserved":false,"is_disabled":false,"rental_uris":{"android":"levelo://app?vid=fd8a75d3-0882-41af-8e38-82df19569887","ios":"levelo://app?vid=fd8a75d3-0882-41af-8e38-82df19569887"},"vehicle_type_id":"4","last_reported":1742886657,"current_range_meters":15200,"station_id":"","pricing_plan_id":"cebpf4jnsgd1na2vs0mg"},{"bike_id":"682f6eaa-4c29-4c3b-a483-b3baee9bd977","system_id":"levelo_inurba_marseille","lat":43.259254,"lon":5.408894,"is_reserved":false,"is_disabled":true,"rental_uris":{"android":"levelo://app?vid=682f6eaa-4c29-4c3b-a483-b3baee9bd977","ios":"levelo://app?vid=682f6eaa-4c29-4c3b-a483-b3baee9bd977"},"vehicle_type_id":"4","last_reported":1742886657,"current_range_meters":15200,"station_id":"ce4bhm92rcd13ifvqglg","pricing_plan_id":"cebpf4jnsgd1na2vs0mg"},{"bike_id":"9ff2268b-3567-478b-8f31-4659f7a9ac11","system_id":"levelo_inurba_marseille","lat":43.29037,"lon":5.39986,"is_reserved":false,"is_disabled":false,"rental_uris":{"android":"levelo://app?vid=9ff2268b-3567-478b-8f31-4659f7a9ac11","ios":"levelo://app?vid=9ff2268b-3567-478b-8f31-4659f7a9ac11"},"vehicle_type_id":"4","last_reported":1742886657,"current_range_meters":15200,"station_id":"ce4bh392rcd13ifvqdm0","pricing_plan_id":"cebpf4jnsgd1na2vs0mg"},{"bike_id":"5f41bbcd-9b2a-45e4-b6d2-c05f6542eb69","system_id":"levelo_inurba_marseille","lat":43.323343,"lon":5.406275,"is_reserved":false,"is_disabled":false,"rental_uris":{"android":"levelo://app?vid=5f41bbcd-9b2a-45e4-b6d2-c05f6542eb69","ios":"levelo://app?vid=5f41bbcd-9b2a-45e4-b6d2-c05f6542eb69"},"vehicle_type_id":"4","last_reported":1742886657,"current_range_meters":15200,"station_id":"ce4bhq12rcd13ifvqhhg","pricing_plan_id":"cebpf4jnsgd1na2vs0mg"},{"bike_id":"f27a066d-098a-4f38-98f0-ce8cad730371","system_id":"levelo_inurba_marseille","lat":43.24196,"lon":5.39727,"is_reserved":false,"is_disabled":false,"rental_uris":{"android":"levelo://app?vid=f27a066d-098a-4f38-98f0-ce8cad730371","ios":"levelo://app?vid=f27a066d-098a-4f38-98f0-ce8cad730371"},"vehicle_type_id":"4","last_reported":1742886657,"current_range_meters":15200,"station_id":"ce4bhn12rcd13ifvqgpg","pricing_plan_id":"cebpf4jnsgd1na2vs0mg"},{"bike_id":"df1efd5f-be49-4301-af80-2a80146ee489","system_id":"levelo_inurba_marseille","lat":43.27494,"lon":5.42464,"is_reserved":false,"is_disabled":true,"rental_uris":{"android":"levelo://app?vid=df1efd5f-be49-4301-af80-2a80146ee489","ios":"levelo://app?vid=df1efd5f-be49-4301-af80-2a80146ee489"},"vehicle_type_id":"4","last_reported":1742886657,"current_range_meters":16000,"station_id":"ce4bhn92rcd13ifvqgrg","pricing_plan_id":"cebpf4jnsgd1na2vs0mg"},{"bike_id":"653815b1-cbe6-45a2-92aa-a1b7d05a609d","system_id":"levelo_inurba_marseille","lat":43.27499,"lon":5.42457,"is_reserved":false,"is_disabled":false,"rental_uris":{"android":"levelo://app?vid=653815b1-cbe6-45a2-92aa-a1b7d05a609d","ios":"levelo://app?vid=653815b1-cbe6-45a2-92aa-a1b7d05a609d"},"vehicle_type_id":"4","last_reported":1742886657,"current_range_meters":16000,"station_id":"ce4bhn92rcd13ifvqgrg","pricing_plan_id":"cebpf4jnsgd1na2vs0mg"},{"bike_id":"84a7a785-5392-42bc-8088-fb903bcc7f5c","system_id":"levelo_inurba_marseille","lat":43.23091,"lon":5.35511,"is_reserved":false,"is_disabled":false,"rental_uris":{"android":"levelo://app?vid=84a7a785-5392-42bc-8088-fb903bcc7f5c","ios":"levelo://app?vid=84a7a785-5392-42bc-8088-fb903bcc7f5c"},"vehicle_type_id":"4","last_reported":1742886657,"current_range_meters":16000,"station_id":"cpo3342slgdg3j2ifvpg","pricing_plan_id":"cebpf4jnsgd1na2vs0mg"},{"bike_id":"c5bd7432-9c52-4c76-a235-76274b9cd639","system_id":"levelo_inurba_marseille","lat":43.30595,"lon":5.39353,"is_reserved":false,"is_disabled":false,"rental_uris":{"android":"levelo://app?vid=c5bd7432-9c52-4c76-a235-76274b9cd639","ios":"levelo://app?vid=c5bd7432-9c52-4c76-a235-76274b9cd639"},"vehicle_type_id":"4","last_reported":1742886657,"current_range_meters":16000,"station_id":"ce4bh0p2rcd13ifvqd80","pricing_plan_id":"cebpf4jnsgd1na2vs0mg"},{"bike_id":"c0a6ee91-e903-4e25-865c-83e501e7c028","system_id":"levelo_inurba_marseille","lat":43.27493,"lon":5.42456,"is_reserved":false,"is_disabled":false,"rental_uris":{"android":"levelo://app?vid=c0a6ee91-e903-4e25-865c-83e501e7c028","ios":"levelo://app?vid=c0a6ee91-e903-4e25-865c-83e501e7c028"},"vehicle_type_id":"4","last_reported":1742886657,"current_range_meters":16000,"station_id":"ce4bhn92rcd13ifvqgrg","pricing_plan_id":"cebpf4jnsgd1na2vs0mg"},{"bike_id":"a2a4dbc2-a9e8-44b5-a596-aa42699b8c22","system_id":"levelo_inurba_marseille","lat":43.25095,"lon":5.39508,"is_reserved":false,"is_disabled":true,"rental_uris":{"android":"levelo://app?vid=a2a4dbc2-a9e8-44b5-a596-aa42699b8c22","ios":"levelo://app?vid=a2a4dbc2-a9e8-44b5-a596-aa42699b8c22"},"vehicle_type_id":"4","last_reported":1742886657,"current_range_meters":16000,"station_id":"","pricing_plan_id":"cebpf4jnsgd1na2vs0mg"},{"bike_id":"da43d894-069e-486e-a738-14255c3635ad","system_id":"levelo_inurba_marseille","lat":43.26057,"lon":5.3942,"is_reserved":false,"is_disabled":false,"rental_uris":{"android":"levelo://app?vid=da43d894-069e-486e-a738-14255c3635ad","ios":"levelo://app?vid=da43d894-069e-486e-a738-14255c3635ad"},"vehicle_type_id":"4","last_reported":1742886657,"current_range_meters":16000,"station_id":"","pricing_plan_id":"cebpf4jnsgd1na2vs0mg"},{"bike_id":"9e65acd4-821a-42d2-be3b-a66a5d3a5045","system_id":"levelo_inurba_marseille","lat":43.29025,"lon":5.39987,"is_reserved":false,"is_disabled":false,"rental_uris":{"android":"levelo://app?vid=9e65acd4-821a-42d2-be3b-a66a5d3a5045","ios":"levelo://app?vid=9e65acd4-821a-42d2-be3b-a66a5d3a5045"},"vehicle_type_id":"4","last_reported":1742886657,"current_range_meters":16000,"station_id":"ce4bh392rcd13ifvqdm0","pricing_plan_id":"cebpf4jnsgd1na2vs0mg"},{"bike_id":"4dfa8770-0998-4f17-8301-0e220f01c89c","system_id":"levelo_inurba_marseille","lat":43.313334,"lon":5.396947,"is_reserved":false,"is_disabled":false,"rental_uris":{"android":"levelo://app?vid=4dfa8770-0998-4f17-8301-0e220f01c89c","ios":"levelo://app?vid=4dfa8770-0998-4f17-8301-0e220f01c89c"},"vehicle_type_id":"4","last_reported":1742886657,"current_range_meters":16000,"station_id":"ce4bgvp2rcd13ifvqcu0","pricing_plan_id":"cebpf4jnsgd1na2vs0mg"},{"bike_id":"b949dccb-c8af-4318-9be7-4d2310eb048a","system_id":"levelo_inurba_marseille","lat":43.26383,"lon":5.4001,"is_reserved":false,"is_disabled":false,"rental_uris":{"android":"levelo://app?vid=b949dccb-c8af-4318-9be7-4d2310eb048a","ios":"levelo://app?vid=b949dccb-c8af-4318-9be7-4d2310eb048a"},"vehicle_type_id":"4","last_reported":1742886657,"current_range_meters":16000,"station_id":"","pricing_plan_id":"cebpf4jnsgd1na2vs0mg"},{"bike_id":"e7844ca5-b70d-4f5f-a38a-039ddece2ac1","system_id":"levelo_inurba_marseille","lat":43.303189,"lon":5.368919,"is_reserved":false,"is_disabled":false,"rental_uris":{"android":"levelo://app?vid=e7844ca5-b70d-4f5f-a38a-039ddece2ac1","ios":"levelo://app?vid=e7844ca5-b70d-4f5f-a38a-039ddece2ac1"},"vehicle_type_id":"4","last_reported":1742886657,"current_range_meters":16000,"station_id":"","pricing_plan_id":"cebpf4jnsgd1na2vs0mg"},{"bike_id":"c1b05b54-e6d2-442a-9aed-c65618b2e584","system_id":"levelo_inurba_marseille","lat":43.272,"lon":5.39185,"is_reserved":false,"is_disabled":false,"rental_uris":{"android":"levelo://app?vid=c1b05b54-e6d2-442a-9aed-c65618b2e584","ios":"levelo://app?vid=c1b05b54-e6d2-442a-9aed-c65618b2e584"},"vehicle_type_id":"4","last_reported":1742886657,"current_range_meters":17200,"station_id":"ce4bhhp2rcd13ifvqfm0","pricing_plan_id":"cebpf4jnsgd1na2vs0mg"},{"bike_id":"7aac1fa6-8563-4483-89a1-e00634e9c45b","system_id":"levelo_inurba_marseille","lat":43.30291,"lon":5.36903,"is_reserved":false,"is_disabled":false,"rental_uris":{"android":"levelo://app?vid=7aac1fa6-8563-4483-89a1-e00634e9c45b","ios":"levelo://app?vid=7aac1fa6-8563-4483-89a1-e00634e9c45b"},"vehicle_type_id":"4","last_reported":1742886657,"current_range_meters":16000,"station_id":"ce4bgqh2rcd13ifvqc5g","pricing_plan_id":"cebpf4jnsgd1na2vs0mg"},{"bike_id":"1bfb707a-47e2-41d5-beaa-11dd438698a9","system_id":"levelo_inurba_marseille","lat":43.24177,"lon":5.39728,"is_reserved":false,"is_disabled":false,"rental_uris":{"android":"levelo://app?vid=1bfb707a-47e2-41d5-beaa-11dd438698a9","ios":"levelo://app?vid=1bfb707a-47e2-41d5-beaa-11dd438698a9"},"vehicle_type_id":"4","last_reported":1742886657,"current_range_meters":16000,"station_id":"ce4bhn12rcd13ifvqgpg","pricing_plan_id":"cebpf4jnsgd1na2vs0mg"},{"bike_id":"253854d6-c154-4801-9340-652d1ea24ec1","system_id":"levelo_inurba_marseille","lat":43.25728,"lon":5.41036,"is_reserved":false,"is_disabled":true,"rental_uris":{"android":"levelo://app?vid=253854d6-c154-4801-9340-652d1ea24ec1","ios":"levelo://app?vid=253854d6-c154-4801-9340-652d1ea24ec1"},"vehicle_type_id":"4","last_reported":1742886657,"current_range_meters":16400,"station_id":"","pricing_plan_id":"cebpf4jnsgd1na2vs0mg"},{"bike_id":"3ab26aff-3afc-4d71-871d-c242fa59a039","system_id":"levelo_inurba_marseille","lat":43.28882,"lon":5.35866,"is_reserved":false,"is_disabled":false,"rental_uris":{"android":"levelo://app?vid=3ab26aff-3afc-4d71-871d-c242fa59a039","ios":"levelo://app?vid=3ab26aff-3afc-4d71-871d-c242fa59a039"},"vehicle_type_id":"4","last_reported":1742886657,"current_range_meters":16400,"station_id":"ce4bhb12rcd13ifvqem0","pricing_plan_id":"cebpf4jnsgd1na2vs0mg"},{"bike_id":"56cdda37-ce98-40ee-a8cf-1237548ad2ed","system_id":"levelo_inurba_marseille","lat":43.239655,"lon":5.366342,"is_reserved":false,"is_disabled":false,"rental_uris":{"android":"levelo://app?vid=56cdda37-ce98-40ee-a8cf-1237548ad2ed","ios":"levelo://app?vid=56cdda37-ce98-40ee-a8cf-1237548ad2ed"},"vehicle_type_id":"4","last_reported":1742886657,"current_range_meters":16400,"station_id":"","pricing_plan_id":"cebpf4jnsgd1na2vs0mg"},{"bike_id":"8ba11d0e-dc45-4bc3-a15d-ccf081ccb3e7","system_id":"levelo_inurba_marseille","lat":43.23066,"lon":5.35495,"is_reserved":false,"is_disabled":false,"rental_uris":{"android":"levelo://app?vid=8ba11d0e-dc45-4bc3-a15d-ccf081ccb3e7","ios":"levelo://app?vid=8ba11d0e-dc45-4bc3-a15d-ccf081ccb3e7"},"vehicle_type_id":"4","last_reported":1742886657,"current_range_meters":16400,"station_id":"","pricing_plan_id":"cebpf4jnsgd1na2vs0mg"},{"bike_id":"b6b09f1e-aff5-4874-9bcf-607b083d39df","system_id":"levelo_inurba_marseille","lat":43.29025,"lon":5.35948,"is_reserved":false,"is_disabled":true,"rental_uris":{"android":"levelo://app?vid=b6b09f1e-aff5-4874-9bcf-607b083d39df","ios":"levelo://app?vid=b6b09f1e-aff5-4874-9bcf-607b083d39df"},"vehicle_type_id":"4","last_reported":1742886657,"current_range_meters":16400,"station_id":"ce4bha92rcd13ifvqeg0","pricing_plan_id":"cebpf4jnsgd1na2vs0mg"},{"bike_id":"fcf450d2-c235-472a-96bd-6e234d8f6e10","system_id":"levelo_inurba_marseille","lat":43.29897,"lon":5.4366,"is_reserved":false,"is_disabled":false,"rental_uris":{"android":"levelo://app?vid=fcf450d2-c235-472a-96bd-6e234d8f6e10","ios":"levelo://app?vid=fcf450d2-c235-472a-96bd-6e234d8f6e10"},"vehicle_type_id":"4","last_reported":1742886657,"current_range_meters":16400,"station_id":"","pricing_plan_id":"cebpf4jnsgd1na2vs0mg"},{"bike_id":"82219511-549c-4b63-baf5-ff8405cca9d7","system_id":"levelo_inurba_marseille","lat":43.31693,"lon":5.43698,"is_reserved":false,"is_disabled":false,"rental_uris":{"android":"levelo://app?vid=82219511-549c-4b63-baf5-ff8405cca9d7","ios":"levelo://app?vid=82219511-549c-4b63-baf5-ff8405cca9d7"},"vehicle_type_id":"4","last_reported":1742886657,"current_range_meters":16400,"station_id":"","pricing_plan_id":"cebpf4jnsgd1na2vs0mg"},{"bike_id":"ccb7e9b2-e1da-4475-b002-ea2df1a5517f","system_id":"levelo_inurba_marseille","lat":43.26677,"lon":5.38276,"is_reserved":false,"is_disabled":false,"rental_uris":{"android":"levelo://app?vid=ccb7e9b2-e1da-4475-b002-ea2df1a5517f","ios":"levelo://app?vid=ccb7e9b2-e1da-4475-b002-ea2df1a5517f"},"vehicle_type_id":"4","last_reported":1742886657,"current_range_meters":16400,"station_id":"ce4bhg92rcd13ifvqf90","pricing_plan_id":"cebpf4jnsgd1na2vs0mg"},{"bike_id":"7dba1ed3-aad4-4672-a61d-214f30d78d89","system_id":"levelo_inurba_marseille","lat":43.29541,"lon":5.37505,"is_reserved":false,"is_disabled":false,"rental_uris":{"android":"levelo://app?vid=7dba1ed3-aad4-4672-a61d-214f30d78d89","ios":"levelo://app?vid=7dba1ed3-aad4-4672-a61d-214f30d78d89"},"vehicle_type_id":"4","last_reported":1742886657,"current_range_meters":16400,"station_id":"ce4bgkp2rcd13ifvqbmg","pricing_plan_id":"cebpf4jnsgd1na2vs0mg"},{"bike_id":"1c4b93a4-d61e-4a62-8975-80cc4f44b381","system_id":"levelo_inurba_marseille","lat":43.25087,"lon":5.40394,"is_reserved":false,"is_disabled":false,"rental_uris":{"android":"levelo://app?vid=1c4b93a4-d61e-4a62-8975-80cc4f44b381","ios":"levelo://app?vid=1c4b93a4-d61e-4a62-8975-80cc4f44b381"},"vehicle_type_id":"4","last_reported":1742886657,"current_range_meters":16400,"station_id":"","pricing_plan_id":"cebpf4jnsgd1na2vs0mg"},{"bike_id":"ba09b109-550c-40ce-9d5f-9cf76b6d7f5e","system_id":"levelo_inurba_marseille","lat":43.32122,"lon":5.36768,"is_reserved":false,"is_disabled":false,"rental_uris":{"android":"levelo://app?vid=ba09b109-550c-40ce-9d5f-9cf76b6d7f5e","ios":"levelo://app?vid=ba09b109-550c-40ce-9d5f-9cf76b6d7f5e"},"vehicle_type_id":"4","last_reported":1742886657,"current_range_meters":16800,"station_id":"","pricing_plan_id":"cebpf4jnsgd1na2vs0mg"},{"bike_id":"8ac9306b-45ae-469d-af78-5ff9982d8be6","system_id":"levelo_inurba_marseille","lat":43.2454,"lon":5.39531,"is_reserved":false,"is_disabled":false,"rental_uris":{"android":"levelo://app?vid=8ac9306b-45ae-469d-af78-5ff9982d8be6","ios":"levelo://app?vid=8ac9306b-45ae-469d-af78-5ff9982d8be6"},"vehicle_type_id":"4","last_reported":1742886657,"current_range_meters":16800,"station_id":"","pricing_plan_id":"cebpf4jnsgd1na2vs0mg"},{"bike_id":"40979c07-de91-4809-961a-2e5982cc9ca5","system_id":"levelo_inurba_marseille","lat":43.28412,"lon":5.34977,"is_reserved":false,"is_disabled":false,"rental_uris":{"android":"levelo://app?vid=40979c07-de91-4809-961a-2e5982cc9ca5","ios":"levelo://app?vid=40979c07-de91-4809-961a-2e5982cc9ca5"},"vehicle_type_id":"4","last_reported":1742886657,"current_range_meters":16800,"station_id":"ce4bhbh2rcd13ifvqepg","pricing_plan_id":"cebpf4jnsgd1na2vs0mg"},{"bike_id":"0b9a35bf-20f7-4d43-b485-de28bdbe5a68","system_id":"levelo_inurba_marseille","lat":43.31717,"lon":5.3775,"is_reserved":false,"is_disabled":false,"rental_uris":{"android":"levelo://app?vid=0b9a35bf-20f7-4d43-b485-de28bdbe5a68","ios":"levelo://app?vid=0b9a35bf-20f7-4d43-b485-de28bdbe5a68"},"vehicle_type_id":"4","last_reported":1742886657,"current_range_meters":16800,"station_id":"ce4bgth2rcd13ifvqch0","pricing_plan_id":"cebpf4jnsgd1na2vs0mg"},{"bike_id":"7dd79c3b-4085-4b8a-bac9-412b6b369447","system_id":"levelo_inurba_marseille","lat":43.274973,"lon":5.424472,"is_reserved":false,"is_disabled":false,"rental_uris":{"android":"levelo://app?vid=7dd79c3b-4085-4b8a-bac9-412b6b369447","ios":"levelo://app?vid=7dd79c3b-4085-4b8a-bac9-412b6b369447"},"vehicle_type_id":"4","last_reported":1742886657,"current_range_meters":16800,"station_id":"ce4bhn92rcd13ifvqgrg","pricing_plan_id":"cebpf4jnsgd1na2vs0mg"},{"bike_id":"1301625c-28f6-4a38-8eef-375feb9aa311","system_id":"levelo_inurba_marseille","lat":43.29362,"lon":5.37854,"is_reserved":false,"is_disabled":false,"rental_uris":{"android":"levelo://app?vid=1301625c-28f6-4a38-8eef-375feb9aa311","ios":"levelo://app?vid=1301625c-28f6-4a38-8eef-375feb9aa311"},"vehicle_type_id":"4","last_reported":1742886657,"current_range_meters":16800,"station_id":"ce4bgjh2rcd13ifvqbf0","pricing_plan_id":"cebpf4jnsgd1na2vs0mg"},{"bike_id":"262c3039-236f-4406-8923-bde2e7dfc819","system_id":"levelo_inurba_marseille","lat":43.28908,"lon":5.36384,"is_reserved":false,"is_disabled":false,"rental_uris":{"android":"levelo://app?vid=262c3039-236f-4406-8923-bde2e7dfc819","ios":"levelo://app?vid=262c3039-236f-4406-8923-bde2e7dfc819"},"vehicle_type_id":"4","last_reported":1742886657,"current_range_meters":16800,"station_id":"ce4bhc92rcd13ifvqetg","pricing_plan_id":"cebpf4jnsgd1na2vs0mg"},{"bike_id":"0c9cada4-2764-4013-a528-15089818cb84","system_id":"levelo_inurba_marseille","lat":43.27733,"lon":5.41153,"is_reserved":false,"is_disabled":false,"rental_uris":{"android":"levelo://app?vid=0c9cada4-2764-4013-a528-15089818cb84","ios":"levelo://app?vid=0c9cada4-2764-4013-a528-15089818cb84"},"vehicle_type_id":"4","last_reported":1742886657,"current_range_meters":17200,"station_id":"","pricing_plan_id":"cebpf4jnsgd1na2vs0mg"},{"bike_id":"3bf1c431-de19-45c3-8015-d01a89e59816","system_id":"levelo_inurba_marseille","lat":43.281487,"lon":5.395728,"is_reserved":false,"is_disabled":false,"rental_uris":{"android":"levelo://app?vid=3bf1c431-de19-45c3-8015-d01a89e59816","ios":"levelo://app?vid=3bf1c431-de19-45c3-8015-d01a89e59816"},"vehicle_type_id":"4","last_reported":1742886657,"current_range_meters":17200,"station_id":"ce4bho12rcd13ifvqh2g","pricing_plan_id":"cebpf4jnsgd1na2vs0mg"},{"bike_id":"2de14cff-869e-4553-a7f2-ff224a9570df","system_id":"levelo_inurba_marseille","lat":43.34144,"lon":5.40906,"is_reserved":false,"is_disabled":false,"rental_uris":{"android":"levelo://app?vid=2de14cff-869e-4553-a7f2-ff224a9570df","ios":"levelo://app?vid=2de14cff-869e-4553-a7f2-ff224a9570df"},"vehicle_type_id":"4","last_reported":1742886657,"current_range_meters":17200,"station_id":"ce4bhqh2rcd13ifvqhlg","pricing_plan_id":"cebpf4jnsgd1na2vs0mg"},{"bike_id":"59fe22d8-d274-4893-ab73-2843d1181beb","system_id":"levelo_inurba_marseille","lat":43.30127,"lon":5.38081,"is_reserved":false,"is_disabled":false,"rental_uris":{"android":"levelo://app?vid=59fe22d8-d274-4893-ab73-2843d1181beb","ios":"levelo://app?vid=59fe22d8-d274-4893-ab73-2843d1181beb"},"vehicle_type_id":"4","last_reported":1742886657,"current_range_meters":17200,"station_id":"ce4bgjp2rcd13ifvqbh0","pricing_plan_id":"cebpf4jnsgd1na2vs0mg"},{"bike_id":"efc2a6cc-e5eb-4910-a9c8-75c0f28971e4","system_id":"levelo_inurba_marseille","lat":43.27494,"lon":5.42457,"is_reserved":false,"is_disabled":false,"rental_uris":{"android":"levelo://app?vid=efc2a6cc-e5eb-4910-a9c8-75c0f28971e4","ios":"levelo://app?vid=efc2a6cc-e5eb-4910-a9c8-75c0f28971e4"},"vehicle_type_id":"4","last_reported":1742886657,"current_range_meters":17200,"station_id":"ce4bhn92rcd13ifvqgrg","pricing_plan_id":"cebpf4jnsgd1na2vs0mg"},{"bike_id":"dc55e2b7-0e4b-41a5-8e5a-3ff0823fed8e","system_id":"levelo_inurba_marseille","lat":43.29848,"lon":5.36285,"is_reserved":false,"is_disabled":false,"rental_uris":{"android":"levelo://app?vid=dc55e2b7-0e4b-41a5-8e5a-3ff0823fed8e","ios":"levelo://app?vid=dc55e2b7-0e4b-41a5-8e5a-3ff0823fed8e"},"vehicle_type_id":"4","last_reported":1742886657,"current_range_meters":12800,"station_id":"ce4bgpp2rcd13ifvqc3g","pricing_plan_id":"cebpf4jnsgd1na2vs0mg"},{"bike_id":"1b0c63c7-3076-40d8-ae44-98f0f3deb292","system_id":"levelo_inurba_marseille","lat":43.24183,"lon":5.39731,"is_reserved":false,"is_disabled":false,"rental_uris":{"android":"levelo://app?vid=1b0c63c7-3076-40d8-ae44-98f0f3deb292","ios":"levelo://app?vid=1b0c63c7-3076-40d8-ae44-98f0f3deb292"},"vehicle_type_id":"4","last_reported":1742886657,"current_range_meters":17200,"station_id":"ce4bhn12rcd13ifvqgpg","pricing_plan_id":"cebpf4jnsgd1na2vs0mg"},