{"last_updated":1740154258,"ttl":60,"version":"2.2","data":{"bikes":[{"bike_id":"e819e380-d388-4098-bd0a-a5c72a87b330","system_id":"levelo_inurba_marseille","lat":43.25868,"lon":5.39897,"is_reserved":false,"is_disabled":false,"rental_uris":{"android":"levelo://app?vid=e819e380-d388-4098-bd0a-a5c72a87b330","ios":"levelo://app?vid=e819e380-d388-4098-bd0a-a5c72a87b330"},"vehicle_type_id":"4","last_reported":1740154258,"current_range_meters":3200,"station_id":"ce4bhl92rcd13ifvqghg","pricing_plan_id":"cebpf4jnsgd1na2vs0mg"},{"bike_id":"4525f653-f4ea-45c7-a0ad-7af95ead230a","system_id":"levelo_inurba_marseille","lat":43.26193,"lon":5.37447,"is_reserved":false,"is_disabled":false,"rental_uris":{"android":"levelo://app?vid=4525f653-f4ea-45c7-a0ad-7af95ead230a","ios":"levelo://app?vid=4525f653-f4ea-45c7-a0ad-7af95ead230a"},"vehicle_type_id":"4","last_reported":1740154258,"current_range_meters":3200,"station_id":"ce4bhgp2rcd13ifvqfc0","pricing_plan_id":"cebpf4jnsgd1na2vs0mg"},{"bike_id":"869fc4e9-e959-436d-9d8d-935013c9e624","system_id":"levelo_inurba_marseille","lat":43.23965,"lon":5.36622,"is_reserved":false,"is_disabled":false,"rental_uris":{"android":"levelo://app?vid=869fc4e9-e959-436d-9d8d-935013c9e624","ios":"levelo://app?vid=869fc4e9-e959-436d-9d8d-935013c9e624"},"vehicle_type_id":"4","last_reported":1740154258,"current_range_meters":3600,"station_id":"ce4bhi12rcd13ifvqfp0","pricing_plan_id":"cebpf4jnsgd1na2vs0mg"},{"bike_id":"fd0e1041-d211-4549-ba6f-50670e3773c5","system_id":"levelo_inurba_marseille","lat":43.25086,"lon":5.39524,"is_reserved":false,"is_disabled":false,"rental_uris":{"android":"levelo://app?vid=fd0e1041-d211-4549-ba6f-50670e3773c5","ios":"levelo://app?vid=fd0e1041-d211-4549-ba6f-50670e3773c5"},"vehicle_type_id":"4","last_reported":1740154258,"current_range_meters":4000,"station_id":"ce4bhm12rcd13ifvqgkg","pricing_plan_id":"cebpf4jnsgd1na2vs0mg"},{"bike_id":"4d3bf88c-c8ea-4272-b6ff-1dc2f5deb5f6","system_id":"levelo_inurba_marseille","lat":43.272061,"lon":5.391798,"is_reserved":false,"is_disabled":false,"rental_uris":{"android":"levelo://app?vid=4d3bf88c-c8ea-4272-b6ff-1dc2f5deb5f6","ios":"levelo://app?vid=4d3bf88c-c8ea-4272-b6ff-1dc2f5deb5f6"},"vehicle_type_id":"4","last_reported":1740154258,"current_range_meters":4800,"station_id":"ce4bhhp2rcd13ifvqfm0","pricing_plan_id":"cebpf4jnsgd1na2vs0mg"},{"bike_id":"1e2322ba-a03d-40dd-92cf-f567273a4d18","system_id":"levelo_inurba_marseille","lat":43.29249,"lon":5.38428,"is_reserved":false,"is_disabled":false,"rental_uris":{"android":"levelo://app?vid=1e2322ba-a03d-40dd-92cf-f567273a4d18","ios":"levelo://app?vid=1e2322ba-a03d-40dd-92cf-f567273a4d18"},"vehicle_type_id":"4","last_reported":1740154258,"current_range_meters":4000,"station_id":"ce4bh692rcd13ifvqea0","pricing_plan_id":"cebpf4jnsgd1na2vs0mg"},{"bike_id":"f22982b6-759d-4b67-8193-04a56335afff","system_id":"levelo_inurba_marseille","lat":43.2866,"lon":5.38682,"is_reserved":false,"is_disabled":false,"rental_uris":{"android":"levelo://app?vid=f22982b6-759d-4b67-8193-04a56335afff","ios":"levelo://app?vid=f22982b6-759d-4b67-8193-04a56335afff"},"vehicle_type_id":"4","last_reported":1740154258,"current_range_meters":5600,"station_id":"ce4bh492rcd13ifvqdug","pricing_plan_id":"cebpf4jnsgd1na2vs0mg"},{"bike_id":"c8e530c6-5102-424a-8be6-5c73b04e381f","system_id":"levelo_inurba_marseille","lat":43.291684,"lon":5.371591,"is_reserved":false,"is_disabled":false,"rental_uris":{"android":"levelo://app?vid=c8e530c6-5102-424a-8be6-5c73b04e381f","ios":"levelo://app?vid=c8e530c6-5102-424a-8be6-5c73b04e381f"},"vehicle_type_id":"4","last_reported":1740154258,"current_range_meters":4400,"station_id":"ce4bgjp2rcd13ifvqbh0","pricing_plan_id":"cebpf4jnsgd1na2vs0mg"},{"bike_id":"a8bb1456-b05a-415e-a255-fd18ef16f029","system_id":"levelo_inurba_marseille","lat":43.33727,"lon":5.3918,"is_reserved":false,"is_disabled":false,"rental_uris":{"android":"levelo://app?vid=a8bb1456-b05a-415e-a255-fd18ef16f029","ios":"levelo://app?vid=a8bb1456-b05a-415e-a255-fd18ef16f029"},"vehicle_type_id":"4","last_reported":1740154258,"current_range_meters":4400,"station_id":"ce4bhr92rcd13ifvqhsg","pricing_plan_id":"cebpf4jnsgd1na2vs0mg"},{"bike_id":"75a2a566-ce82-4ffc-b487-779a9c500491","system_id":"levelo_inurba_marseille","lat":43.29276,"lon":5.36846,"is_reserved":false,"is_disabled":false,"rental_uris":{"android":"levelo://app?vid=75a2a566-ce82-4ffc-b487-779a9c500491","ios":"levelo://app?vid=75a2a566-ce82-4ffc-b487-779a9c500491"},"vehicle_type_id":"4","last_reported":1740154258,"current_range_meters":4400,"station_id":"ce4bhbp2rcd13ifvqesg","pricing_plan_id":"cebpf4jnsgd1na2vs0mg"},{"bike_id":"4a5a9794-dacd-4c04-85fb-86a46173caa9","system_id":"levelo_inurba_marseille","lat":43.25086,"lon":5.39511,"is_reserved":false,"is_disabled":false,"rental_uris":{"android":"levelo://app?vid=4a5a9794-dacd-4c04-85fb-86a46173caa9","ios":"levelo://app?vid=4a5a9794-dacd-4c04-85fb-86a46173caa9"},"vehicle_type_id":"4","last_reported":1740154258,"current_range_meters":4800,"station_id":"ce4bhm12rcd13ifvqgkg","pricing_plan_id":"cebpf4jnsgd1na2vs0mg"},{"bike_id":"226e97d3-b24d-4d01-b807-3f727d1f4df5","system_id":"levelo_inurba_marseille","lat":43.27074,"lon":5.42287,"is_reserved":false,"is_disabled":false,"rental_uris":{"android":"levelo://app?vid=226e97d3-b24d-4d01-b807-3f727d1f4df5","ios":"levelo://app?vid=226e97d3-b24d-4d01-b807-3f727d1f4df5"},"vehicle_type_id":"4","last_reported":1740154258,"current_range_meters":4400,"station_id":"ce4bhk92rcd13ifvqgb0","pricing_plan_id":"cebpf4jnsgd1na2vs0mg"},{"bike_id":"14ce4aca-0c3d-4ba8-bb78-644279ae36b0","system_id":"levelo_inurba_marseille","lat":43.30142,"lon":5.37423,"is_reserved":false,"is_disabled":false,"rental_uris":{"android":"levelo://app?vid=14ce4aca-0c3d-4ba8-bb78-644279ae36b0","ios":"levelo://app?vid=14ce4aca-0c3d-4ba8-bb78-644279ae36b0"},"vehicle_type_id":"4","last_reported":1740154258,"current_range_meters":4800,"station_id":"ce4bgs92rcd13ifvqcc0","pricing_plan_id":"cebpf4jnsgd1na2vs0mg"},{"bike_id":"258e2068-4625-4566-922e-8a6d2f7cfe9a","system_id":"levelo_inurba_marseille","lat":43.299146,"lon":5.3815,"is_reserved":false,"is_disabled":false,"rental_uris":{"android":"levelo://app?vid=258e2068-4625-4566-922e-8a6d2f7cfe9a","ios":"levelo://app?vid=258e2068-4625-4566-922e-8a6d2f7cfe9a"},"vehicle_type_id":"4","last_reported":1740154258,"current_range_meters":4800,"station_id":"ce4bgj12rcd13ifvqbc0","pricing_plan_id":"cebpf4jnsgd1na2vs0mg"},{"bike_id":"0c55054b-3fa5-4c02-a06c-3ccf8ea6f0fd","system_id":"levelo_inurba_marseille","lat":43.25009,"lon":5.3894,"is_reserved":false,"is_disabled":false,"rental_uris":{"android":"levelo://app?vid=0c55054b-3fa5-4c02-a06c-3ccf8ea6f0fd","ios":"levelo://app?vid=0c55054b-3fa5-4c02-a06c-3ccf8ea6f0fd"},"vehicle_type_id":"4","last_reported":1740154258,"current_range_meters":4800,"station_id":"ce4bhgp2rcd13ifvqfd0","pricing_plan_id":"cebpf4jnsgd1na2vs0mg"},{"bike_id":"843c8993-eb89-48c0-bc46-978aec656ac8","system_id":"levelo_inurba_marseille","lat":43.27939,"lon":5.40858,"is_reserved":false,"is_disabled":false,"rental_uris":{"android":"levelo://app?vid=843c8993-eb89-48c0-bc46-978aec656ac8","ios":"levelo://app?vid=843c8993-eb89-48c0-bc46-978aec656ac8"},"vehicle_type_id":"4","last_reported":1740154258,"current_range_meters":5600,"station_id":"","pricing_plan_id":"cebpf4jnsgd1na2vs0mg"},{"bike_id":"d6482de2-a901-43b5-91e8-88f95038db21","system_id":"levelo_inurba_marseille","lat":43.26558,"lon":5.37284,"is_reserved":false,"is_disabled":false,"rental_uris":{"android":"levelo://app?vid=d6482de2-a901-43b5-91e8-88f95038db21","ios":"levelo://app?vid=d6482de2-a901-43b5-91e8-88f95038db21"},"vehicle_type_id":"4","last_reported":1740154258,"current_range_meters":5600,"station_id":"ce4bhg12rcd13ifvqf70","pricing_plan_id":"cebpf4jnsgd1na2vs0mg"},{"bike_id":"6e3efc9c-bdc4-4902-8611-bfc25638a31b","system_id":"levelo_inurba_marseille","lat":43.29914,"lon":5.37472,"is_reserved":false,"is_disabled":false,"rental_uris":{"android":"levelo://app?vid=6e3efc9c-bdc4-4902-8611-bfc25638a31b","ios":"levelo://app?vid=6e3efc9c-bdc4-4902-8611-bfc25638a31b"},"vehicle_type_id":"4","last_reported":1740154258,"current_range_meters":5600,"station_id":"ce4bgjh2rcd13ifvqbg0","pricing_plan_id":"cebpf4jnsgd1na2vs0mg"},{"bike_id":"f2170d8e-b1ab-4bf9-8e90-2e9e50c2d33f","system_id":"levelo_inurba_marseille","lat":43.27374,"lon":5.36251,"is_reserved":false,"is_disabled":false,"rental_uris":{"android":"levelo://app?vid=f2170d8e-b1ab-4bf9-8e90-2e9e50c2d33f","ios":"levelo://app?vid=f2170d8e-b1ab-4bf9-8e90-2e9e50c2d33f"},"vehicle_type_id":"4","last_reported":1740154258,"current_range_meters":5600,"station_id":"ce4bhbh2rcd13ifvqeo0","pricing_plan_id":"cebpf4jnsgd1na2vs0mg"},{"bike_id":"5516853e-78cf-4be2-9f26-f0cbb736d267","system_id":"levelo_inurba_marseille","lat":43.29901,"lon":5.43663,"is_reserved":false,"is_disabled":false,"rental_uris":{"android":"levelo://app?vid=5516853e-78cf-4be2-9f26-f0cbb736d267","ios":"levelo://app?vid=5516853e-78cf-4be2-9f26-f0cbb736d267"},"vehicle_type_id":"4","last_reported":1740154258,"current_range_meters":6000,"station_id":"ce4bhpp2rcd13ifvqhfg","pricing_plan_id":"cebpf4jnsgd1na2vs0mg"},{"bike_id":"56146f8a-5f06-44b1-9740-6d58b3b71940","system_id":"levelo_inurba_marseille","lat":43.26564,"lon":5.39009,"is_reserved":false,"is_disabled":false,"rental_uris":{"android":"levelo://app?vid=56146f8a-5f06-44b1-9740-6d58b3b71940","ios":"levelo://app?vid=56146f8a-5f06-44b1-9740-6d58b3b71940"},"vehicle_type_id":"4","last_reported":1740154258,"current_range_meters":6000,"station_id":"ce4bhe12rcd13ifvqf30","pricing_plan_id":"cebpf4jnsgd1na2vs0mg"},{"bike_id":"f938abac-a7d2-469a-bf93-ecbf5be8f47e","system_id":"levelo_inurba_marseille","lat":43.29894,"lon":5.38141,"is_reserved":false,"is_disabled":false,"rental_uris":{"android":"levelo://app?vid=f938abac-a7d2-469a-bf93-ecbf5be8f47e","ios":"levelo://app?vid=f938abac-a7d2-469a-bf93-ecbf5be8f47e"},"vehicle_type_id":"4","last_reported":1740154258,"current_range_meters":6000,"station_id":"ce4bgj12rcd13ifvqbc0","pricing_plan_id":"cebpf4jnsgd1na2vs0mg"},{"bike_id":"d4fca504-dbbc-496e-b2bb-268afc677883","system_id":"levelo_inurba_marseille","lat":43.27491,"lon":5.42449,"is_reserved":false,"is_disabled":false,"rental_uris":{"android":"levelo://app?vid=d4fca504-dbbc-496e-b2bb-268afc677883","ios":"levelo://app?vid=d4fca504-dbbc-496e-b2bb-268afc677883"},"vehicle_type_id":"4","last_reported":1740154258,"current_range_meters":6400,"station_id":"ce4bhn92rcd13ifvqgrg","pricing_plan_id":"cebpf4jnsgd1na2vs0mg"},{"bike_id":"77ff63e8-b5ae-48d0-8725-3fc2e7c2e786","system_id":"levelo_inurba_marseille","lat":43.32106,"lon":5.36782,"is_reserved":false,"is_disabled":false,"rental_uris":{"android":"levelo://app?vid=77ff63e8-b5ae-48d0-8725-3fc2e7c2e786","ios":"levelo://app?vid=77ff63e8-b5ae-48d0-8725-3fc2e7c2e786"},"vehicle_type_id":"4","last_reported":1740154258,"current_range_meters":6400,"station_id":"ce4bhrh2rcd13ifvqhug","pricing_plan_id":"cebpf4jnsgd1na2vs0mg"},{"bike_id":"9c02c790-b192-4e12-985d-8db6d2ac71fb","system_id":"levelo_inurba_marseille","lat":43.3188,"lon":5.40734,"is_reserved":false,"is_disabled":false,"rental_uris":{"android":"levelo://app?vid=9c02c790-b192-4e12-985d-8db6d2ac71fb","ios":"levelo://app?vid=9c02c790-b192-4e12-985d-8db6d2ac71fb"},"vehicle_type_id":"4","last_reported":1740154258,"current_range_meters":6400,"station_id":"ce4bhq12rcd13ifvqhig","pricing_plan_id":"cebpf4jnsgd1na2vs0mg"},{"bike_id":"63518f45-f853-4047-9f3d-d1c189bf9e9b","system_id":"levelo_inurba_marseille","lat":43.25579,"lon":5.38239,"is_reserved":false,"is_disabled":false,"rental_uris":{"android":"levelo://app?vid=63518f45-f853-4047-9f3d-d1c189bf9e9b","ios":"levelo://app?vid=63518f45-f853-4047-9f3d-d1c189bf9e9b"},"vehicle_type_id":"4","last_reported":1740154258,"current_range_meters":6400,"station_id":"ce4bhih2rcd13ifvqfs0","pricing_plan_id":"cebpf4jnsgd1na2vs0mg"},{"bike_id":"7c297fd4-7841-48f3-b60f-cda762589a24","system_id":"levelo_inurba_marseille","lat":43.30144,"lon":5.3808,"is_reserved":false,"is_disabled":false,"rental_uris":{"android":"levelo://app?vid=7c297fd4-7841-48f3-b60f-cda762589a24","ios":"levelo://app?vid=7c297fd4-7841-48f3-b60f-cda762589a24"},"vehicle_type_id":"4","last_reported":1740154258,"current_range_meters":6400,"station_id":"ce4bgjp2rcd13ifvqbh0","pricing_plan_id":"cebpf4jnsgd1na2vs0mg"},{"bike_id":"0322b79d-7968-4044-8c35-83fcc06924fe","system_id":"levelo_inurba_marseille","lat":43.29603,"lon":5.38098,"is_reserved":false,"is_disabled":false,"rental_uris":{"android":"levelo://app?vid=0322b79d-7968-4044-8c35-83fcc06924fe","ios":"levelo://app?vid=0322b79d-7968-4044-8c35-83fcc06924fe"},"vehicle_type_id":"4","last_reported":1740154258,"current_range_meters":6800,"station_id":"ce4bgl12rcd13ifvqbo0","pricing_plan_id":"cebpf4jnsgd1na2vs0mg"},{"bike_id":"1fba2f81-aef1-4c80-aca1-30106818d175","system_id":"levelo_inurba_marseille","lat":43.29258,"lon":5.3844,"is_reserved":false,"is_disabled":false,"rental_uris":{"android":"levelo://app?vid=1fba2f81-aef1-4c80-aca1-30106818d175","ios":"levelo://app?vid=1fba2f81-aef1-4c80-aca1-30106818d175"},"vehicle_type_id":"4","last_reported":1740154258,"current_range_meters":6800,"station_id":"ce4bh692rcd13ifvqea0","pricing_plan_id":"cebpf4jnsgd1na2vs0mg"},{"bike_id":"21d22a66-8579-4cf3-923f-22cf3cc043bf","system_id":"levelo_inurba_marseille","lat":43.23194,"lon":5.39997,"is_reserved":false,"is_disabled":false,"rental_uris":{"android":"levelo://app?vid=21d22a66-8579-4cf3-923f-22cf3cc043bf","ios":"levelo://app?vid=21d22a66-8579-4cf3-923f-22cf3cc043bf"},"vehicle_type_id":"4","last_reported":1740154258,"current_range_meters":6800,"station_id":"ce4bhn12rcd13ifvqgqg","pricing_plan_id":"cebpf4jnsgd1na2vs0mg"},{"bike_id":"f14c20be-ecd7-4925-adc9-d57c2930e21d","system_id":"levelo_inurba_marseille","lat":43.26554,"lon":5.39031,"is_reserved":false,"is_disabled":false,"rental_uris":{"android":"levelo://app?vid=f14c20be-ecd7-4925-adc9-d57c2930e21d","ios":"levelo://app?vid=f14c20be-ecd7-4925-adc9-d57c2930e21d"},"vehicle_type_id":"4","last_reported":1740154258,"current_range_meters":6800,"station_id":"ce4bhe12rcd13ifvqf30","pricing_plan_id":"cebpf4jnsgd1na2vs0mg"},{"bike_id":"7d932747-8fa4-4a65-94af-ec8450f17c5c","system_id":"levelo_inurba_marseille","lat":43.27041,"lon":5.40226,"is_reserved":false,"is_disabled":false,"rental_uris":{"android":"levelo://app?vid=7d932747-8fa4-4a65-94af-ec8450f17c5c","ios":"levelo://app?vid=7d932747-8fa4-4a65-94af-ec8450f17c5c"},"vehicle_type_id":"4","last_reported":1740154258,"current_range_meters":6800,"station_id":"ce4bhk92rcd13ifvqgc0","pricing_plan_id":"cebpf4jnsgd1na2vs0mg"},{"bike_id":"563d52de-e585-4e7f-8850-0e01e570b0ca","system_id":"levelo_inurba_marseille","lat":43.304572,"lon":5.379058,"is_reserved":false,"is_disabled":false,"rental_uris":{"android":"levelo://app?vid=563d52de-e585-4e7f-8850-0e01e570b0ca","ios":"levelo://app?vid=563d52de-e585-4e7f-8850-0e01e570b0ca"},"vehicle_type_id":"4","last_reported":1740154258,"current_range_meters":6800,"station_id":"ce4bgup2rcd13ifvqcn0","pricing_plan_id":"cebpf4jnsgd1na2vs0mg"},{"bike_id":"d4d7201e-8a9f-4276-80c3-a187d6287e7b","system_id":"levelo_inurba_marseille","lat":43.31067,"lon":5.3835,"is_reserved":false,"is_disabled":false,"rental_uris":{"android":"levelo://app?vid=d4d7201e-8a9f-4276-80c3-a187d6287e7b","ios":"levelo://app?vid=d4d7201e-8a9f-4276-80c3-a187d6287e7b"},"vehicle_type_id":"4","last_reported":1740154258,"current_range_meters":7200,"station_id":"ce4bgv92rcd13ifvqcr0","pricing_plan_id":"cebpf4jnsgd1na2vs0mg"},{"bike_id":"0d19b7e0-b957-42e1-8ded-98a1ef5de94e","system_id":"levelo_inurba_marseille","lat":43.27897,"lon":5.38013,"is_reserved":false,"is_disabled":false,"rental_uris":{"android":"levelo://app?vid=0d19b7e0-b957-42e1-8ded-98a1ef5de94e","ios":"levelo://app?vid=0d19b7e0-b957-42e1-8ded-98a1ef5de94e"},"vehicle_type_id":"4","last_reported":1740154258,"current_range_meters":7200,"station_id":"ce4bhf92rcd13ifvqf50","pricing_plan_id":"cebpf4jnsgd1na2vs0mg"},{"bike_id":"948ca15e-dd0e-4b24-9dae-3803d237a65d","system_id":"levelo_inurba_marseille","lat":43.23951,"lon":5.36648,"is_reserved":false,"is_disabled":false,"rental_uris":{"android":"levelo://app?vid=948ca15e-dd0e-4b24-9dae-3803d237a65d","ios":"levelo://app?vid=948ca15e-dd0e-4b24-9dae-3803d237a65d"},"vehicle_type_id":"4","last_reported":1740154258,"current_range_meters":8000,"station_id":"ce4bhi12rcd13ifvqfp0","pricing_plan_id":"cebpf4jnsgd1na2vs0mg"},{"bike_id":"4c87352b-e4ee-4aa9-b24f-9d6ccdea13e6","system_id":"levelo_inurba_marseille","lat":43.25093,"lon":5.39521,"is_reserved":false,"is_disabled":false,"rental_uris":{"android":"levelo://app?vid=4c87352b-e4ee-4aa9-b24f-9d6ccdea13e6","ios":"levelo://app?vid=4c87352b-e4ee-4aa9-b24f-9d6ccdea13e6"},"vehicle_type_id":"4","last_reported":1740154258,"current_range_meters":8000,"station_id":"ce4bhm12rcd13ifvqgkg","pricing_plan_id":"cebpf4jnsgd1na2vs0mg"},{"bike_id":"45528c36-0352-462f-a5df-dcf6e64ae67e","system_id":"levelo_inurba_marseille","lat":43.27375,"lon":5.36253,"is_reserved":false,"is_disabled":false,"rental_uris":{"android":"levelo://app?vid=45528c36-0352-462f-a5df-dcf6e64ae67e","ios":"levelo://app?vid=45528c36-0352-462f-a5df-dcf6e64ae67e"},"vehicle_type_id":"4","last_reported":1740154258,"current_range_meters":8000,"station_id":"ce4bhbh2rcd13ifvqeo0","pricing_plan_id":"cebpf4jnsgd1na2vs0mg"},{"bike_id":"87590419-9431-46cd-a562-7648976d855a","system_id":"levelo_inurba_marseille","lat":43.2791,"lon":5.41206,"is_reserved":false,"is_disabled":false,"rental_uris":{"android":"levelo://app?vid=87590419-9431-46cd-a562-7648976d855a","ios":"levelo://app?vid=87590419-9431-46cd-a562-7648976d855a"},"vehicle_type_id":"4","last_reported":1740154258,"current_range_meters":8000,"station_id":"","pricing_plan_id":"cebpf4jnsgd1na2vs0mg"},{"bike_id":"130f9693-efc1-4544-ac5a-952bad4a139b","system_id":"levelo_inurba_marseille","lat":43.3171,"lon":5.43705,"is_reserved":false,"is_disabled":false,"rental_uris":{"android":"levelo://app?vid=130f9693-efc1-4544-ac5a-952bad4a139b","ios":"levelo://app?vid=130f9693-efc1-4544-ac5a-952bad4a139b"},"vehicle_type_id":"4","last_reported":1740154258,"current_range_meters":2000,"station_id":"ce4bhp92rcd13ifvqhcg","pricing_plan_id":"cebpf4jnsgd1na2vs0mg"},{"bike_id":"549e66e1-0629-4b47-8fcb-52b230450be6","system_id":"levelo_inurba_marseille","lat":43.24986,"lon":5.38943,"is_reserved":false,"is_disabled":false,"rental_uris":{"android":"levelo://app?vid=549e66e1-0629-4b47-8fcb-52b230450be6","ios":"levelo://app?vid=549e66e1-0629-4b47-8fcb-52b230450be6"},"vehicle_type_id":"4","last_reported":1740154258,"current_range_meters":8000,"station_id":"ce4bhgp2rcd13ifvqfd0","pricing_plan_id":"cebpf4jnsgd1na2vs0mg"},{"bike_id":"9fbf478e-59a5-411e-a379-f517842dee7d","system_id":"levelo_inurba_marseille","lat":43.31088,"lon":5.38356,"is_reserved":false,"is_disabled":false,"rental_uris":{"android":"levelo://app?vid=9fbf478e-59a5-411e-a379-f517842dee7d","ios":"levelo://app?vid=9fbf478e-59a5-411e-a379-f517842dee7d"},"vehicle_type_id":"4","last_reported":1740154258,"current_range_meters":8400,"station_id":"ce4bgv92rcd13ifvqcr0","pricing_plan_id":"cebpf4jnsgd1na2vs0mg"},{"bike_id":"e87ecf2d-c3b1-489e-8704-1d1d013c688a","system_id":"levelo_inurba_marseille","lat":43.29529,"lon":5.39058,"is_reserved":false,"is_disabled":false,"rental_uris":{"android":"levelo://app?vid=e87ecf2d-c3b1-489e-8704-1d1d013c688a","ios":"levelo://app?vid=e87ecf2d-c3b1-489e-8704-1d1d013c688a"},"vehicle_type_id":"4","last_reported":1740154258,"current_range_meters":8400,"station_id":"ce4bh3p2rcd13ifvqdp0","pricing_plan_id":"cebpf4jnsgd1na2vs0mg"},{"bike_id":"6b6e1059-5264-45b9-9cb9-d24cf5205f2a","system_id":"levelo_inurba_marseille","lat":43.23971,"lon":5.36647,"is_reserved":false,"is_disabled":true,"rental_uris":{"android":"levelo://app?vid=6b6e1059-5264-45b9-9cb9-d24cf5205f2a","ios":"levelo://app?vid=6b6e1059-5264-45b9-9cb9-d24cf5205f2a"},"vehicle_type_id":"4","last_reported":1740154258,"current_range_meters":8400,"station_id":"","pricing_plan_id":"cebpf4jnsgd1na2vs0mg"},{"bike_id":"5f51c95d-2056-405b-84c3-ec0f06069b58","system_id":"levelo_inurba_marseille","lat":43.28996,"lon":5.35599,"is_reserved":false,"is_disabled":false,"rental_uris":{"android":"levelo://app?vid=5f51c95d-2056-405b-84c3-ec0f06069b58","ios":"levelo://app?vid=5f51c95d-2056-405b-84c3-ec0f06069b58"},"vehicle_type_id":"4","last_reported":1740154258,"current_range_meters":8400,"station_id":"ce4bhb92rcd13ifvqen0","pricing_plan_id":"cebpf4jnsgd1na2vs0mg"},{"bike_id":"be26f271-d50d-4427-903d-11a4c916aef4","system_id":"levelo_inurba_marseille","lat":43.29283,"lon":5.38438,"is_reserved":false,"is_disabled":false,"rental_uris":{"android":"levelo://app?vid=be26f271-d50d-4427-903d-11a4c916aef4","ios":"levelo://app?vid=be26f271-d50d-4427-903d-11a4c916aef4"},"vehicle_type_id":"4","last_reported":1740154258,"current_range_meters":8400,"station_id":"ce4bh692rcd13ifvqea0","pricing_plan_id":"cebpf4jnsgd1na2vs0mg"},{"bike_id":"c2c9e96d-fb24-4f9e-9cc1-5c25f812e5fe","system_id":"levelo_inurba_marseille","lat":43.26192,"lon":5.37457,"is_reserved":false,"is_disabled":false,"rental_uris":{"android":"levelo://app?vid=c2c9e96d-fb24-4f9e-9cc1-5c25f812e5fe","ios":"levelo://app?vid=c2c9e96d-fb24-4f9e-9cc1-5c25f812e5fe"},"vehicle_type_id":"4","last_reported":1740154258,"current_range_meters":8400,"station_id":"ce4bhgp2rcd13ifvqfc0","pricing_plan_id":"cebpf4jnsgd1na2vs0mg"},{"bike_id":"fc0349de-a96b-4e9e-88b6-f49bf89d84ae","system_id":"levelo_inurba_marseille","lat":43.28002,"lon":5.40018,"is_reserved":false,"is_disabled":false,"rental_uris":{"android":"levelo://app?vid=fc0349de-a96b-4e9e-88b6-f49bf89d84ae","ios":"levelo://app?vid=fc0349de-a96b-4e9e-88b6-f49bf89d84ae"},"vehicle_type_id":"4","last_reported":1740154258,"current_range_meters":8400,"station_id":"ce4bho92rcd13ifvqh4g","pricing_plan_id":"cebpf4jnsgd1na2vs0mg"},{"bike_id":"4324db35-7707-404a-9f3f-3fb217e86386","system_id":"levelo_inurba_marseille","lat":43.30885,"lon":5.39641,"is_reserved":false,"is_disabled":false,"rental_uris":{"android":"levelo://app?vid=4324db35-7707-404a-9f3f-3fb217e86386","ios":"levelo://app?vid=4324db35-7707-404a-9f3f-3fb217e86386"},"vehicle_type_id":"4","last_reported":1740154258,"current_range_meters":8000,"station_id":"ce4bh012rcd13ifvqcv0","pricing_plan_id":"cebpf4jnsgd1na2vs0mg"},{"bike_id":"a29234ae-8ccd-40b8-8c60-17eeaae28530","system_id":"levelo_inurba_marseille","lat":43.28463,"lon":5.35877,"is_reserved":false,"is_disabled":false,"rental_uris":{"android":"levelo://app?vid=a29234ae-8ccd-40b8-8c60-17eeaae28530","ios":"levelo://app?vid=a29234ae-8ccd-40b8-8c60-17eeaae28530"},"vehicle_type_id":"4","last_reported":1740154258,"current_range_meters":8800,"station_id":"ce4bhah2rcd13ifvqei0","pricing_plan_id":"cebpf4jnsgd1na2vs0mg"},{"bike_id":"d5e7b54b-e932-4925-b97c-360094f3da64","system_id":"levelo_inurba_marseille","lat":43.27386,"lon":5.3627,"is_reserved":false,"is_disabled":false,"rental_uris":{"android":"levelo://app?vid=d5e7b54b-e932-4925-b97c-360094f3da64","ios":"levelo://app?vid=d5e7b54b-e932-4925-b97c-360094f3da64"},"vehicle_type_id":"4","last_reported":1740154258,"current_range_meters":8800,"station_id":"","pricing_plan_id":"cebpf4jnsgd1na2vs0mg"},{"bike_id":"7a227780-efa1-4341-8263-6444da5d6812","system_id":"levelo_inurba_marseille","lat":43.279046,"lon":5.395788,"is_reserved":false,"is_disabled":false,"rental_uris":{"android":"levelo://app?vid=7a227780-efa1-4341-8263-6444da5d6812","ios":"levelo://app?vid=7a227780-efa1-4341-8263-6444da5d6812"},"vehicle_type_id":"4","last_reported":1740154258,"current_range_meters":8800,"station_id":"ce4bhf92rcd13ifvqf40","pricing_plan_id":"cebpf4jnsgd1na2vs0mg"},{"bike_id":"a53f77cb-e7d4-423c-be95-31f568a935d2","system_id":"levelo_inurba_marseille","lat":43.27393,"lon":5.36227,"is_reserved":false,"is_disabled":false,"rental_uris":{"android":"levelo://app?vid=a53f77cb-e7d4-423c-be95-31f568a935d2","ios":"levelo://app?vid=a53f77cb-e7d4-423c-be95-31f568a935d2"},"vehicle_type_id":"4","last_reported":1740154258,"current_range_meters":8800,"station_id":"ce4bhbh2rcd13ifvqeo0","pricing_plan_id":"cebpf4jnsgd1na2vs0mg"},{"bike_id":"f75ece54-414d-4d3e-9198-c4a6ae7eb90d","system_id":"levelo_inurba_marseille","lat":43.24999,"lon":5.38913,"is_reserved":false,"is_disabled":false,"rental_uris":{"android":"levelo://app?vid=f75ece54-414d-4d3e-9198-c4a6ae7eb90d","ios":"levelo://app?vid=f75ece54-414d-4d3e-9198-c4a6ae7eb90d"},"vehicle_type_id":"4","last_reported":1740154258,"current_range_meters":9200,"station_id":"ce4bhgp2rcd13ifvqfd0","pricing_plan_id":"cebpf4jnsgd1na2vs0mg"},{"bike_id":"cfb05cb1-bdaf-4628-af25-de48d634065f","system_id":"levelo_inurba_marseille","lat":43.29219,"lon":5.36071,"is_reserved":false,"is_disabled":false,"rental_uris":{"android":"levelo://app?vid=cfb05cb1-bdaf-4628-af25-de48d634065f","ios":"levelo://app?vid=cfb05cb1-bdaf-4628-af25-de48d634065f"},"vehicle_type_id":"4","last_reported":1740154258,"current_range_meters":9200,"station_id":"ce4bhbh2rcd13ifvqeqg","pricing_plan_id":"cebpf4jnsgd1na2vs0mg"},{"bike_id":"a7e57524-7096-4476-8d9d-8e8806b1c3d0","system_id":"levelo_inurba_marseille","lat":43.23158,"lon":5.43681,"is_reserved":false,"is_disabled":true,"rental_uris":{"android":"levelo://app?vid=a7e57524-7096-4476-8d9d-8e8806b1c3d0","ios":"levelo://app?vid=a7e57524-7096-4476-8d9d-8e8806b1c3d0"},"vehicle_type_id":"4","last_reported":1740154258,"current_range_meters":9200,"station_id":"ce4bhmp2rcd13ifvqgog","pricing_plan_id":"cebpf4jnsgd1na2vs0mg"},{"bike_id":"d66231e7-6d2f-4c47-80b1-842d86c9ca36","system_id":"levelo_inurba_marseille","lat":43.31278,"lon":5.39645,"is_reserved":false,"is_disabled":false,"rental_uris":{"android":"levelo://app?vid=d66231e7-6d2f-4c47-80b1-842d86c9ca36","ios":"levelo://app?vid=d66231e7-6d2f-4c47-80b1-842d86c9ca36"},"vehicle_type_id":"4","last_reported":1740154258,"current_range_meters":9200,"station_id":"ce4bgvp2rcd13ifvqcu0","pricing_plan_id":"cebpf4jnsgd1na2vs0mg"},{"bike_id":"e080c45a-a05d-4297-8995-86678422b056","system_id":"levelo_inurba_marseille","lat":43.34443,"lon":5.38118,"is_reserved":false,"is_disabled":false,"rental_uris":{"android":"levelo://app?vid=e080c45a-a05d-4297-8995-86678422b056","ios":"levelo://app?vid=e080c45a-a05d-4297-8995-86678422b056"},"vehicle_type_id":"4","last_reported":1740154258,"current_range_meters":9200,"station_id":"","pricing_plan_id":"cebpf4jnsgd1na2vs0mg"},{"bike_id":"efb60bb1-9625-462e-a842-333679bee345","system_id":"levelo_inurba_marseille","lat":43.3375,"lon":5.39152,"is_reserved":false,"is_disabled":true,"rental_uris":{"android":"levelo://app?vid=efb60bb1-9625-462e-a842-333679bee345","ios":"levelo://app?vid=efb60bb1-9625-462e-a842-333679bee345"},"vehicle_type_id":"4","last_reported":1740154258,"current_range_meters":9600,"station_id":"ce4bhr92rcd13ifvqhsg","pricing_plan_id":"cebpf4jnsgd1na2vs0mg"},{"bike_id":"ac54eaaa-15f9-474a-ad9d-32b614e52e3c","system_id":"levelo_inurba_marseille","lat":43.28974,"lon":5.37842,"is_reserved":false,"is_disabled":false,"rental_uris":{"android":"levelo://app?vid=ac54eaaa-15f9-474a-ad9d-32b614e52e3c","ios":"levelo://app?vid=ac54eaaa-15f9-474a-ad9d-32b614e52e3c"},"vehicle_type_id":"4","last_reported":1740154258,"current_range_meters":9600,"station_id":"ce4bh9p2rcd13ifvqed0","pricing_plan_id":"cebpf4jnsgd1na2vs0mg"},{"bike_id":"4fa8bf46-90e7-42f5-bd69-8132a897f84f","system_id":"levelo_inurba_marseille","lat":43.31433,"lon":5.39305,"is_reserved":false,"is_disabled":false,"rental_uris":{"android":"levelo://app?vid=4fa8bf46-90e7-42f5-bd69-8132a897f84f","ios":"levelo://app?vid=4fa8bf46-90e7-42f5-bd69-8132a897f84f"},"vehicle_type_id":"4","last_reported":1740154258,"current_range_meters":9600,"station_id":"","pricing_plan_id":"cebpf4jnsgd1na2vs0mg"},{"bike_id":"d0109f8e-c695-44b8-83b5-050518c2c6c9","system_id":"levelo_inurba_marseille","lat":43.23067,"lon":5.35487,"is_reserved":false,"is_disabled":false,"rental_uris":{"android":"levelo://app?vid=d0109f8e-c695-44b8-83b5-050518c2c6c9","ios":"levelo://app?vid=d0109f8e-c695-44b8-83b5-050518c2c6c9"},"vehicle_type_id":"4","last_reported":1740154258,"current_range_meters":9600,"station_id":"cpo3342slgdg3j2ifvpg","pricing_plan_id":"cebpf4jnsgd1na2vs0mg"},{"bike_id":"ea7dce44-2079-49d5-be9b-89a51b15d247","system_id":"levelo_inurba_marseille","lat":43.290308,"lon":5.386477,"is_reserved":false,"is_disabled":false,"rental_uris":{"android":"levelo://app?vid=ea7dce44-2079-49d5-be9b-89a51b15d247","ios":"levelo://app?vid=ea7dce44-2079-49d5-be9b-89a51b15d247"},"vehicle_type_id":"4","last_reported":1740154258,"current_range_meters":8400,"station_id":"ce4bh4p2rcd13ifvqe0g","pricing_plan_id":"cebpf4jnsgd1na2vs0mg"},{"bike_id":"d4ca4edd-7f77-43c0-b9e1-077b64e8135c","system_id":"levelo_inurba_marseille","lat":43.29536,"lon":5.38546,"is_reserved":false,"is_disabled":false,"rental_uris":{"android":"levelo://app?vid=d4ca4edd-7f77-43c0-b9e1-077b64e8135c","ios":"levelo://app?vid=d4ca4edd-7f77-43c0-b9e1-077b64e8135c"},"vehicle_type_id":"4","last_reported":1740154258,"current_range_meters":9600,"station_id":"ce4bgih2rcd13ifvqba0","pricing_plan_id":"cebpf4jnsgd1na2vs0mg"},{"bike_id":"e93b71ae-eb32-4a1d-9682-e9edaba76334","system_id":"levelo_inurba_marseille","lat":43.24547,"lon":5.39532,"is_reserved":false,"is_disabled":false,"rental_uris":{"android":"levelo://app?vid=e93b71ae-eb32-4a1d-9682-e9edaba76334","ios":"levelo://app?vid=e93b71ae-eb32-4a1d-9682-e9edaba76334"},"vehicle_type_id":"4","last_reported":1740154258,"current_range_meters":9600,"station_id":"ce4bhlp2rcd13ifvqgjg","pricing_plan_id":"cebpf4jnsgd1na2vs0mg"},{"bike_id":"e46e8e17-341b-46bf-8ef3-b6e8fceb563b","system_id":"levelo_inurba_marseille","lat":43.29925,"lon":5.37483,"is_reserved":false,"is_disabled":false,"rental_uris":{"android":"levelo://app?vid=e46e8e17-341b-46bf-8ef3-b6e8fceb563b","ios":"levelo://app?vid=e46e8e17-341b-46bf-8ef3-b6e8fceb563b"},"vehicle_type_id":"4","last_reported":1740154258,"current_range_meters":9200,"station_id":"ce4bgjh2rcd13ifvqbg0","pricing_plan_id":"cebpf4jnsgd1na2vs0mg"},{"bike_id":"849d245a-be14-47ff-9742-f234bf067745","system_id":"levelo_inurba_marseille","lat":43.29751,"lon":5.3791,"is_reserved":false,"is_disabled":false,"rental_uris":{"android":"levelo://app?vid=849d245a-be14-47ff-9742-f234bf067745","ios":"levelo://app?vid=849d245a-be14-47ff-9742-f234bf067745"},"vehicle_type_id":"4","last_reported":1740154258,"current_range_meters":9600,"station_id":"ce4bguh2rcd13ifvqckg","pricing_plan_id":"cebpf4jnsgd1na2vs0mg"},{"bike_id":"e2605be6-729f-4263-a772-380592b3879d","system_id":"levelo_inurba_marseille","lat":43.3046,"lon":5.381,"is_reserved":false,"is_disabled":false,"rental_uris":{"android":"levelo://app?vid=e2605be6-729f-4263-a772-380592b3879d","ios":"levelo://app?vid=e2605be6-729f-4263-a772-380592b3879d"},"vehicle_type_id":"4","last_reported":1740154258,"current_range_meters":9600,"station_id":"","pricing_plan_id":"cebpf4jnsgd1na2vs0mg"},{"bike_id":"834c525f-fcf6-494a-bbad-ca022c4cd0d4","system_id":"levelo_inurba_marseille","lat":43.30538,"lon":5.36691,"is_reserved":false,"is_disabled":false,"rental_uris":{"android":"levelo://app?vid=834c525f-fcf6-494a-bbad-ca022c4cd0d4","ios":"levelo://app?vid=834c525f-fcf6-494a-bbad-ca022c4cd0d4"},"vehicle_type_id":"4","last_reported":1740154258,"current_range_meters":9600,"station_id":"ce4bgrp2rcd13ifvqc9g","pricing_plan_id":"cebpf4jnsgd1na2vs0mg"},{"bike_id":"9a8e6324-462d-476d-ae8b-81702c07646c","system_id":"levelo_inurba_marseille","lat":43.25724,"lon":5.41108,"is_reserved":false,"is_disabled":false,"rental_uris":{"android":"levelo://app?vid=9a8e6324-462d-476d-ae8b-81702c07646c","ios":"levelo://app?vid=9a8e6324-462d-476d-ae8b-81702c07646c"},"vehicle_type_id":"4","last_reported":1740154258,"current_range_meters":9600,"station_id":"ce4bhkp2rcd13ifvqgd0","pricing_plan_id":"cebpf4jnsgd1na2vs0mg"},{"bike_id":"277f9e3a-3c81-42ba-88d5-38cb4f4750f9","system_id":"levelo_inurba_marseille","lat":43.31169,"lon":5.38724,"is_reserved":false,"is_disabled":false,"rental_uris":{"android":"levelo://app?vid=277f9e3a-3c81-42ba-88d5-38cb4f4750f9","ios":"levelo://app?vid=277f9e3a-3c81-42ba-88d5-38cb4f4750f9"},"vehicle_type_id":"4","last_reported":1740154258,"current_range_meters":10000,"station_id":"ce4bgv12rcd13ifvqcp0","pricing_plan_id":"cebpf4jnsgd1na2vs0mg"},{"bike_id":"72d88ed5-31c3-4182-b474-74e7faa44b4d","system_id":"levelo_inurba_marseille","lat":43.28679,"lon":5.38658,"is_reserved":false,"is_disabled":false,"rental_uris":{"android":"levelo://app?vid=72d88ed5-31c3-4182-b474-74e7faa44b4d","ios":"levelo://app?vid=72d88ed5-31c3-4182-b474-74e7faa44b4d"},"vehicle_type_id":"4","last_reported":1740154258,"current_range_meters":10000,"station_id":"ce4bh492rcd13ifvqdug","pricing_plan_id":"cebpf4jnsgd1na2vs0mg"},{"bike_id":"0dbab506-ebec-4d03-8a4a-a2b813a9ef71","system_id":"levelo_inurba_marseille","lat":43.28941,"lon":5.36393,"is_reserved":false,"is_disabled":false,"rental_uris":{"android":"levelo://app?vid=0dbab506-ebec-4d03-8a4a-a2b813a9ef71","ios":"levelo://app?vid=0dbab506-ebec-4d03-8a4a-a2b813a9ef71"},"vehicle_type_id":"4","last_reported":1740154258,"current_range_meters":8400,"station_id":"ce4bhc92rcd13ifvqetg","pricing_plan_id":"cebpf4jnsgd1na2vs0mg"},{"bike_id":"903e96ed-1785-4514-80d2-55412010618a","system_id":"levelo_inurba_marseille","lat":43.26558,"lon":5.39021,"is_reserved":false,"is_disabled":false,"rental_uris":{"android":"levelo://app?vid=903e96ed-1785-4514-80d2-55412010618a","ios":"levelo://app?vid=903e96ed-1785-4514-80d2-55412010618a"},"vehicle_type_id":"4","last_reported":1740154258,"current_range_meters":10000,"station_id":"ce4bhe12rcd13ifvqf30","pricing_plan_id":"cebpf4jnsgd1na2vs0mg"},{"bike_id":"739293d9-b53e-4079-9d62-3a30df03fb8f","system_id":"levelo_inurba_marseille","lat":43.29724,"lon":5.37699,"is_reserved":false,"is_disabled":false,"rental_uris":{"android":"levelo://app?vid=739293d9-b53e-4079-9d62-3a30df03fb8f","ios":"levelo://app?vid=739293d9-b53e-4079-9d62-3a30df03fb8f"},"vehicle_type_id":"4","last_reported":1740154258,"current_range_meters":10800,"station_id":"ce4bgkh2rcd13ifvqbl0","pricing_plan_id":"cebpf4jnsgd1na2vs0mg"},{"bike_id":"6800d1e9-9795-4c3c-ac9b-8baf82c7ed7c","system_id":"levelo_inurba_marseille","lat":43.27428,"lon":5.3942,"is_reserved":false,"is_disabled":false,"rental_uris":{"android":"levelo://app?vid=6800d1e9-9795-4c3c-ac9b-8baf82c7ed7c","ios":"levelo://app?vid=6800d1e9-9795-4c3c-ac9b-8baf82c7ed7c"},"vehicle_type_id":"4","last_reported":1740154258,"current_range_meters":10800,"station_id":"ce4bhdp2rcd13ifvqf20","pricing_plan_id":"cebpf4jnsgd1na2vs0mg"},{"bike_id":"3edfe649-8b37-4949-b51f-6fccb69d3ecb","system_id":"levelo_inurba_marseille","lat":43.278321,"lon":5.392042,"is_reserved":false,"is_disabled":false,"rental_uris":{"android":"levelo://app?vid=3edfe649-8b37-4949-b51f-6fccb69d3ecb","ios":"levelo://app?vid=3edfe649-8b37-4949-b51f-6fccb69d3ecb"},"vehicle_type_id":"4","last_reported":1740154258,"current_range_meters":10000,"station_id":"ce4bhjp2rcd13ifvqga0","pricing_plan_id":"cebpf4jnsgd1na2vs0mg"},{"bike_id":"f5b1da5b-9f7d-40b0-9627-5d54f2d18a31","system_id":"levelo_inurba_marseille","lat":43.28484,"lon":5.38421,"is_reserved":false,"is_disabled":false,"rental_uris":{"android":"levelo://app?vid=f5b1da5b-9f7d-40b0-9627-5d54f2d18a31","ios":"levelo://app?vid=f5b1da5b-9f7d-40b0-9627-5d54f2d18a31"},"vehicle_type_id":"4","last_reported":1740154258,"current_range_meters":10800,"station_id":"ce4bh512rcd13ifvqe3g","pricing_plan_id":"cebpf4jnsgd1na2vs0mg"},{"bike_id":"6752940c-5fea-4481-a87a-a2d37860f30e","system_id":"levelo_inurba_marseille","lat":43.30462,"lon":5.37911,"is_reserved":false,"is_disabled":false,"rental_uris":{"android":"levelo://app?vid=6752940c-5fea-4481-a87a-a2d37860f30e","ios":"levelo://app?vid=6752940c-5fea-4481-a87a-a2d37860f30e"},"vehicle_type_id":"4","last_reported":1740154258,"current_range_meters":10800,"station_id":"ce4bgup2rcd13ifvqcn0","pricing_plan_id":"cebpf4jnsgd1na2vs0mg"},{"bike_id":"71aea503-8d56-4e1f-8567-3fd58840a68f","system_id":"levelo_inurba_marseille","lat":43.3052,"lon":5.36685,"is_reserved":false,"is_disabled":false,"rental_uris":{"android":"levelo://app?vid=71aea503-8d56-4e1f-8567-3fd58840a68f","ios":"levelo://app?vid=71aea503-8d56-4e1f-8567-3fd58840a68f"},"vehicle_type_id":"4","last_reported":1740154258,"current_range_meters":10800,"station_id":"ce4bgrp2rcd13ifvqc9g","pricing_plan_id":"cebpf4jnsgd1na2vs0mg"},{"bike_id":"c0113693-ac95-454f-9ff7-0b17263c28a5","system_id":"levelo_inurba_marseille","lat":43.292872,"lon":5.374628,"is_reserved":false,"is_disabled":false,"rental_uris":{"android":"levelo://app?vid=c0113693-ac95-454f-9ff7-0b17263c28a5","ios":"levelo://app?vid=c0113693-ac95-454f-9ff7-0b17263c28a5"},"vehicle_type_id":"4","last_reported":1740154258,"current_range_meters":10800,"station_id":"ce4bgi12rcd13ifvqb70","pricing_plan_id":"cebpf4jnsgd1na2vs0mg"},{"bike_id":"d414c500-f227-4efb-aabd-f7246cca81bc","system_id":"levelo_inurba_marseille","lat":43.23063,"lon":5.35493,"is_reserved":false,"is_disabled":false,"rental_uris":{"android":"levelo://app?vid=d414c500-f227-4efb-aabd-f7246cca81bc","ios":"levelo://app?vid=d414c500-f227-4efb-aabd-f7246cca81bc"},"vehicle_type_id":"4","last_reported":1740154258,"current_range_meters":10800,"station_id":"cpo3342slgdg3j2ifvpg","pricing_plan_id":"cebpf4jnsgd1na2vs0mg"},{"bike_id":"7b64e26d-e0fa-4bba-a473-ead123733594","system_id":"levelo_inurba_marseille","lat":43.28487,"lon":5.38561,"is_reserved":false,"is_disabled":false,"rental_uris":{"android":"levelo://app?vid=7b64e26d-e0fa-4bba-a473-ead123733594","ios":"levelo://app?vid=7b64e26d-e0fa-4bba-a473-ead123733594"},"vehicle_type_id":"4","last_reported":1740154258,"current_range_meters":10800,"station_id":"ce4bh8p2rcd13ifvqeb0","pricing_plan_id":"cebpf4jnsgd1na2vs0mg"},{"bike_id":"e82e8931-2b12-44ae-a1ed-56a9f381278e","system_id":"levelo_inurba_marseille","lat":43.3078,"lon":5.37649,"is_reserved":false,"is_disabled":false,"rental_uris":{"android":"levelo://app?vid=e82e8931-2b12-44ae-a1ed-56a9f381278e","ios":"levelo://app?vid=e82e8931-2b12-44ae-a1ed-56a9f381278e"},"vehicle_type_id":"4","last_reported":1740154258,"current_range_meters":10800,"station_id":"ce4bgv92rcd13ifvqcq0","pricing_plan_id":"cebpf4jnsgd1na2vs0mg"},{"bike_id":"f3feea2e-5bf7-41f6-a6d2-c494ec11d6a2","system_id":"levelo_inurba_marseille","lat":43.230658,"lon":5.354909,"is_reserved":false,"is_disabled":false,"rental_uris":{"android":"levelo://app?vid=f3feea2e-5bf7-41f6-a6d2-c494ec11d6a2","ios":"levelo://app?vid=f3feea2e-5bf7-41f6-a6d2-c494ec11d6a2"},"vehicle_type_id":"4","last_reported":1740154258,"current_range_meters":10800,"station_id":"cpo3342slgdg3j2ifvpg","pricing_plan_id":"cebpf4jnsgd1na2vs0mg"},{"bike_id":"cf21f364-c09b-48b6-a326-c0ee7dd7e876","system_id":"levelo_inurba_marseille","lat":43.28158,"lon":5.42653,"is_reserved":false,"is_disabled":false,"rental_uris":{"android":"levelo://app?vid=cf21f364-c09b-48b6-a326-c0ee7dd7e876","ios":"levelo://app?vid=cf21f364-c09b-48b6-a326-c0ee7dd7e876"},"vehicle_type_id":"4","last_reported":1740154258,"current_range_meters":11200,"station_id":"ce4bhnh2rcd13ifvqgug","pricing_plan_id":"cebpf4jnsgd1na2vs0mg"},{"bike_id":"ddf4922b-dd0a-453d-bc60-a2446b115b23","system_id":"levelo_inurba_marseille","lat":43.28446,"lon":5.39216,"is_reserved":false,"is_disabled":false,"rental_uris":{"android":"levelo://app?vid=ddf4922b-dd0a-453d-bc60-a2446b115b23","ios":"levelo://app?vid=ddf4922b-dd0a-453d-bc60-a2446b115b23"},"vehicle_type_id":"4","last_reported":1740154258,"current_range_meters":11200,"station_id":"ce4bhoh2rcd13ifvqh5g","pricing_plan_id":"cebpf4jnsgd1na2vs0mg"},{"bike_id":"0e83fd88-86f7-4517-a39b-e471b52c5628","system_id":"levelo_inurba_marseille","lat":43.28463,"lon":5.3589,"is_reserved":false,"is_disabled":false,"rental_uris":{"android":"levelo://app?vid=0e83fd88-86f7-4517-a39b-e471b52c5628","ios":"levelo://app?vid=0e83fd88-86f7-4517-a39b-e471b52c5628"},"vehicle_type_id":"4","last_reported":1740154258,"current_range_meters":11600,"station_id":"ce4bhah2rcd13ifvqei0","pricing_plan_id":"cebpf4jnsgd1na2vs0mg"},{"bike_id":"7bf22e3c-1e8a-4d71-9ca7-cb41e77b5744","system_id":"levelo_inurba_marseille","lat":43.26208,"lon":5.37442,"is_reserved":false,"is_disabled":false,"rental_uris":{"android":"levelo://app?vid=7bf22e3c-1e8a-4d71-9ca7-cb41e77b5744","ios":"levelo://app?vid=7bf22e3c-1e8a-4d71-9ca7-cb41e77b5744"},"vehicle_type_id":"4","last_reported":1740154258,"current_range_meters":11600,"station_id":"ce4bhgp2rcd13ifvqfc0","pricing_plan_id":"cebpf4jnsgd1na2vs0mg"},{"bike_id":"1a68e309-f373-4dc0-82ff-e4edf0c31f64","system_id":"levelo_inurba_marseille","lat":43.23187,"lon":5.39974,"is_reserved":false,"is_disabled":false,"rental_uris":{"android":"levelo://app?vid=1a68e309-f373-4dc0-82ff-e4edf0c31f64","ios":"levelo://app?vid=1a68e309-f373-4dc0-82ff-e4edf0c31f64"},"vehicle_type_id":"4","last_reported":1740154258,"current_range_meters":11600,"station_id":"ce4bhn12rcd13ifvqgqg","pricing_plan_id":"cebpf4jnsgd1na2vs0mg"},{"bike_id":"edbcb957-35cd-4500-84e7-6376facae100","system_id":"levelo_inurba_marseille","lat":43.28465,"lon":5.3588,"is_reserved":false,"is_disabled":false,"rental_uris":{"android":"levelo://app?vid=edbcb957-35cd-4500-84e7-6376facae100","ios":"levelo://app?vid=edbcb957-35cd-4500-84e7-6376facae100"},"vehicle_type_id":"4","last_reported":1740154258,"current_range_meters":11600,"station_id":"ce4bhah2rcd13ifvqei0","pricing_plan_id":"cebpf4jnsgd1na2vs0mg"},{"bike_id":"7a811fd9-b132-4914-a795-bbd931482c71","system_id":"levelo_inurba_marseille","lat":43.2955,"lon":5.3856,"is_reserved":false,"is_disabled":true,"rental_uris":{"android":"levelo://app?vid=7a811fd9-b132-4914-a795-bbd931482c71","ios":"levelo://app?vid=7a811fd9-b132-4914-a795-bbd931482c71"},"vehicle_type_id":"4","last_reported":1740154258,"current_range_meters":12000,"station_id":"ce4bgih2rcd13ifvqba0","pricing_plan_id":"cebpf4jnsgd1na2vs0mg"},{"bike_id":"0ff23037-66f3-44d2-a831-b2b111edf000","system_id":"levelo_inurba_marseille","lat":43.23156,"lon":5.43707,"is_reserved":false,"is_disabled":false,"rental_uris":{"android":"levelo://app?vid=0ff23037-66f3-44d2-a831-b2b111edf000","ios":"levelo://app?vid=0ff23037-66f3-44d2-a831-b2b111edf000"},"vehicle_type_id":"4","last_reported":1740154258,"current_range_meters":12000,"station_id":"ce4bhmp2rcd13ifvqgog","pricing_plan_id":"cebpf4jnsgd1na2vs0mg"},{"bike_id":"491f8629-056a-497d-b532-f5a119a45e0e","system_id":"levelo_inurba_marseille","lat":43.298388,"lon":5.362676,"is_reserved":false,"is_disabled":false,"rental_uris":{"android":"levelo://app?vid=491f8629-056a-497d-b532-f5a119a45e0e","ios":"levelo://app?vid=491f8629-056a-497d-b532-f5a119a45e0e"},"vehicle_type_id":"4","last_reported":1740154258,"current_range_meters":11200,"station_id":"ce4bgph2rcd13ifvqc2g","pricing_plan_id":"cebpf4jnsgd1na2vs0mg"},{"bike_id":"5348d5dc-5dca-4978-b167-cd7e8ce45433","system_id":"levelo_inurba_marseille","lat":43.30542,"lon":5.36531,"is_reserved":false,"is_disabled":true,"rental_uris":{"android":"levelo://app?vid=5348d5dc-5dca-4978-b167-cd7e8ce45433","ios":"levelo://app?vid=5348d5dc-5dca-4978-b167-cd7e8ce45433"},"vehicle_type_id":"4","last_reported":1740154258,"current_range_meters":12000,"station_id":"ce4bgs12rcd13ifvqcag","pricing_plan_id":"cebpf4jnsgd1na2vs0mg"},{"bike_id":"5ad3a0d8-46ea-4fd4-953b-e240392f0644","system_id":"levelo_inurba_marseille","lat":43.27203,"lon":5.39169,"is_reserved":false,"is_disabled":false,"rental_uris":{"android":"levelo://app?vid=5ad3a0d8-46ea-4fd4-953b-e240392f0644","ios":"levelo://app?vid=5ad3a0d8-46ea-4fd4-953b-e240392f0644"},"vehicle_type_id":"4","last_reported":1740154258,"current_range_meters":12000,"station_id":"ce4bhhp2rcd13ifvqfm0","pricing_plan_id":"cebpf4jnsgd1na2vs0mg"},{"bike_id":"23ac3309-07ce-4a42-9bd2-523b180186f4","system_id":"levelo_inurba_marseille","lat":43.33607,"lon":5.40963,"is_reserved":false,"is_disabled":false,"rental_uris":{"android":"levelo://app?vid=23ac3309-07ce-4a42-9bd2-523b180186f4","ios":"levelo://app?vid=23ac3309-07ce-4a42-9bd2-523b180186f4"},"vehicle_type_id":"4","last_reported":1740154258,"current_range_meters":12000,"station_id":"","pricing_plan_id":"cebpf4jnsgd1na2vs0mg"},{"bike_id":"1f357dad-05e8-43bf-8396-bf5cce2a1d78","system_id":"levelo_inurba_marseille","lat":43.28032,"lon":5.36941,"is_reserved":false,"is_disabled":false,"rental_uris":{"android":"levelo://app?vid=1f357dad-05e8-43bf-8396-bf5cce2a1d78","ios":"levelo://app?vid=1f357dad-05e8-43bf-8396-bf5cce2a1d78"},"vehicle_type_id":"4","last_reported":1740154258,"current_range_meters":12000,"station_id":"ce4bha12rcd13ifvqef0","pricing_plan_id":"cebpf4jnsgd1na2vs0mg"},{"bike_id":"ece000d4-661c-4b73-9213-ce0ed97eff8c","system_id":"levelo_inurba_marseille","lat":43.26993,"lon":5.40193,"is_reserved":false,"is_disabled":false,"rental_uris":{"android":"levelo://app?vid=ece000d4-661c-4b73-9213-ce0ed97eff8c","ios":"levelo://app?vid=ece000d4-661c-4b73-9213-ce0ed97eff8c"},"vehicle_type_id":"4","last_reported":1740154258,"current_range_meters":12400,"station_id":"","pricing_plan_id":"cebpf4jnsgd1na2vs0mg"},{"bike_id":"418204bb-d845-489c-a63c-8be02144db94","system_id":"levelo_inurba_marseille","lat":43.30112,"lon":5.38075,"is_reserved":false,"is_disabled":false,"rental_uris":{"android":"levelo://app?vid=418204bb-d845-489c-a63c-8be02144db94","ios":"levelo://app?vid=418204bb-d845-489c-a63c-8be02144db94"},"vehicle_type_id":"4","last_reported":1740154258,"current_range_meters":12400,"station_id":"","pricing_plan_id":"cebpf4jnsgd1na2vs0mg"},{"bike_id":"fa53feaa-08fb-4c3d-9edb-6397ad5b6189","system_id":"levelo_inurba_marseille","lat":43.29242,"lon":5.40913,"is_reserved":false,"is_disabled":false,"rental_uris":{"android":"levelo://app?vid=fa53feaa-08fb-4c3d-9edb-6397ad5b6189","ios":"levelo://app?vid=fa53feaa-08fb-4c3d-9edb-6397ad5b6189"},"vehicle_type_id":"4","last_reported":1740154258,"current_range_meters":12800,"station_id":"ce4bh192rcd13ifvqdc0","pricing_plan_id":"cebpf4jnsgd1na2vs0mg"},{"bike_id":"b2ac771d-c64c-4aa4-bfb8-31778c6cf734","system_id":"levelo_inurba_marseille","lat":43.24651,"lon":5.38891,"is_reserved":false,"is_disabled":false,"rental_uris":{"android":"levelo://app?vid=b2ac771d-c64c-4aa4-bfb8-31778c6cf734","ios":"levelo://app?vid=b2ac771d-c64c-4aa4-bfb8-31778c6cf734"},"vehicle_type_id":"4","last_reported":1740154258,"current_range_meters":12800,"station_id":"ce4bhg12rcd13ifvqf60","pricing_plan_id":"cebpf4jnsgd1na2vs0mg"},{"bike_id":"7c8f3d05-5401-4545-847e-9fcee9ea83d5","system_id":"levelo_inurba_marseille","lat":43.26574,"lon":5.39873,"is_reserved":false,"is_disabled":false,"rental_uris":{"android":"levelo://app?vid=7c8f3d05-5401-4545-847e-9fcee9ea83d5","ios":"levelo://app?vid=7c8f3d05-5401-4545-847e-9fcee9ea83d5"},"vehicle_type_id":"4","last_reported":1740154258,"current_range_meters":12800,"station_id":"","pricing_plan_id":"cebpf4jnsgd1na2vs0mg"},{"bike_id":"f1a5c5fa-5ba8-4fa5-92c0-903187c5ee65","system_id":"levelo_inurba_marseille","lat":43.27374,"lon":5.36254,"is_reserved":false,"is_disabled":false,"rental_uris":{"android":"levelo://app?vid=f1a5c5fa-5ba8-4fa5-92c0-903187c5ee65","ios":"levelo://app?vid=f1a5c5fa-5ba8-4fa5-92c0-903187c5ee65"},"vehicle_type_id":"4","last_reported":1740154258,"current_range_meters":12800,"station_id":"ce4bhbh2rcd13ifvqeo0","pricing_plan_id":"cebpf4jnsgd1na2vs0mg"},{"bike_id":"af99980f-9f11-4e95-9d5d-c71a251b1742","system_id":"levelo_inurba_marseille","lat":43.30131,"lon":5.37425,"is_reserved":false,"is_disabled":false,"rental_uris":{"android":"levelo://app?vid=af99980f-9f11-4e95-9d5d-c71a251b1742","ios":"levelo://app?vid=af99980f-9f11-4e95-9d5d-c71a251b1742"},"vehicle_type_id":"4","last_reported":1740154258,"current_range_meters":12800,"station_id":"ce4bgs92rcd13ifvqcc0","pricing_plan_id":"cebpf4jnsgd1na2vs0mg"},{"bike_id":"e5b97541-8b4b-4dbf-a29f-c1c2d6ee4195","system_id":"levelo_inurba_marseille","lat":43.26569,"lon":5.38992,"is_reserved":false,"is_disabled":false,"rental_uris":{"android":"levelo://app?vid=e5b97541-8b4b-4dbf-a29f-c1c2d6ee4195","ios":"levelo://app?vid=e5b97541-8b4b-4dbf-a29f-c1c2d6ee4195"},"vehicle_type_id":"4","last_reported":1740154258,"current_range_meters":12800,"station_id":"ce4bhe12rcd13ifvqf30","pricing_plan_id":"cebpf4jnsgd1na2vs0mg"},{"bike_id":"bbe5d292-ed4d-41c9-b50c-cc288ce422c9","system_id":"levelo_inurba_marseille","lat":43.28879,"lon":5.38246,"is_reserved":false,"is_disabled":false,"rental_uris":{"android":"levelo://app?vid=bbe5d292-ed4d-41c9-b50c-cc288ce422c9","ios":"levelo://app?vid=bbe5d292-ed4d-41c9-b50c-cc288ce422c9"},"vehicle_type_id":"4","last_reported":1740154258,"current_range_meters":13600,"station_id":"ce4bgj92rcd13ifvqbe0","pricing_plan_id":"cebpf4jnsgd1na2vs0mg"},{"bike_id":"a404738f-d592-4923-bb7f-8cad6bf8fec4","system_id":"levelo_inurba_marseille","lat":43.27949,"lon":5.38495,"is_reserved":false,"is_disabled":false,"rental_uris":{"android":"levelo://app?vid=a404738f-d592-4923-bb7f-8cad6bf8fec4","ios":"levelo://app?vid=a404738f-d592-4923-bb7f-8cad6bf8fec4"},"vehicle_type_id":"4","last_reported":1740154258,"current_range_meters":13600,"station_id":"","pricing_plan_id":"cebpf4jnsgd1na2vs0mg"},{"bike_id":"c0a936dd-8b78-4344-b0ca-0e19fa1b2ac4","system_id":"levelo_inurba_marseille","lat":43.278142,"lon":5.407051,"is_reserved":false,"is_disabled":false,"rental_uris":{"android":"levelo://app?vid=c0a936dd-8b78-4344-b0ca-0e19fa1b2ac4","ios":"levelo://app?vid=c0a936dd-8b78-4344-b0ca-0e19fa1b2ac4"},"vehicle_type_id":"4","last_reported":1740154258,"current_range_meters":13600,"station_id":"ce4bhnh2rcd13ifvqgtg","pricing_plan_id":"cebpf4jnsgd1na2vs0mg"},{"bike_id":"5902af95-411b-49ba-8f1f-17df4e3c9aac","system_id":"levelo_inurba_marseille","lat":43.30131,"lon":5.37426,"is_reserved":false,"is_disabled":false,"rental_uris":{"android":"levelo://app?vid=5902af95-411b-49ba-8f1f-17df4e3c9aac","ios":"levelo://app?vid=5902af95-411b-49ba-8f1f-17df4e3c9aac"},"vehicle_type_id":"4","last_reported":1740154258,"current_range_meters":13600,"station_id":"ce4bgs92rcd13ifvqcc0","pricing_plan_id":"cebpf4jnsgd1na2vs0mg"},{"bike_id":"e501be99-a171-4e91-9e5b-ac547e4c06f2","system_id":"levelo_inurba_marseille","lat":43.23188,"lon":5.3554,"is_reserved":false,"is_disabled":false,"rental_uris":{"android":"levelo://app?vid=e501be99-a171-4e91-9e5b-ac547e4c06f2","ios":"levelo://app?vid=e501be99-a171-4e91-9e5b-ac547e4c06f2"},"vehicle_type_id":"4","last_reported":1740154258,"current_range_meters":13600,"station_id":"ce4bhu92rcd13ifvqi70","pricing_plan_id":"cebpf4jnsgd1na2vs0mg"},{"bike_id":"e15148c8-3f28-4eaf-b4b7-9f1e9d2fe03f","system_id":"levelo_inurba_marseille","lat":43.32338,"lon":5.40628,"is_reserved":false,"is_disabled":false,"rental_uris":{"android":"levelo://app?vid=e15148c8-3f28-4eaf-b4b7-9f1e9d2fe03f","ios":"levelo://app?vid=e15148c8-3f28-4eaf-b4b7-9f1e9d2fe03f"},"vehicle_type_id":"4","last_reported":1740154258,"current_range_meters":14000,"station_id":"ce4bhq92rcd13ifvqhjg","pricing_plan_id":"cebpf4jnsgd1na2vs0mg"},{"bike_id":"78ccc1b5-e05d-4c30-bc5b-473f9d97e2cd","system_id":"levelo_inurba_marseille","lat":43.30125,"lon":5.37814,"is_reserved":false,"is_disabled":false,"rental_uris":{"android":"levelo://app?vid=78ccc1b5-e05d-4c30-bc5b-473f9d97e2cd","ios":"levelo://app?vid=78ccc1b5-e05d-4c30-bc5b-473f9d97e2cd"},"vehicle_type_id":"4","last_reported":1740154258,"current_range_meters":14000,"station_id":"","pricing_plan_id":"cebpf4jnsgd1na2vs0mg"},{"bike_id":"54b45f3b-f685-44dd-8b79-1a758bf759d2","system_id":"levelo_inurba_marseille","lat":43.337444,"lon":5.374475,"is_reserved":false,"is_disabled":true,"rental_uris":{"android":"levelo://app?vid=54b45f3b-f685-44dd-8b79-1a758bf759d2","ios":"levelo://app?vid=54b45f3b-f685-44dd-8b79-1a758bf759d2"},"vehicle_type_id":"4","last_reported":1740154258,"current_range_meters":14000,"station_id":"","pricing_plan_id":"cebpf4jnsgd1na2vs0mg"},{"bike_id":"ecb37c58-f3e9-4260-bb8c-61ca601c0d22","system_id":"levelo_inurba_marseille","lat":43.24166,"lon":5.36414,"is_reserved":false,"is_disabled":false,"rental_uris":{"android":"levelo://app?vid=ecb37c58-f3e9-4260-bb8c-61ca601c0d22","ios":"levelo://app?vid=ecb37c58-f3e9-4260-bb8c-61ca601c0d22"},"vehicle_type_id":"4","last_reported":1740154258,"current_range_meters":14400,"station_id":"cpo36qri1sfpv3e86is0","pricing_plan_id":"cebpf4jnsgd1na2vs0mg"},{"bike_id":"d80f0342-9541-4563-8eb0-f138c386af65","system_id":"levelo_inurba_marseille","lat":43.29014,"lon":5.35595,"is_reserved":false,"is_disabled":false,"rental_uris":{"android":"levelo://app?vid=d80f0342-9541-4563-8eb0-f138c386af65","ios":"levelo://app?vid=d80f0342-9541-4563-8eb0-f138c386af65"},"vehicle_type_id":"4","last_reported":1740154258,"current_range_meters":14400,"station_id":"ce4bhb92rcd13ifvqen0","pricing_plan_id":"cebpf4jnsgd1na2vs0mg"},{"bike_id":"b985ad1f-1942-453b-b5eb-7462cafd1e31","system_id":"levelo_inurba_marseille","lat":43.23186,"lon":5.35556,"is_reserved":false,"is_disabled":false,"rental_uris":{"android":"levelo://app?vid=b985ad1f-1942-453b-b5eb-7462cafd1e31","ios":"levelo://app?vid=b985ad1f-1942-453b-b5eb-7462cafd1e31"},"vehicle_type_id":"4","last_reported":1740154258,"current_range_meters":14400,"station_id":"ce4bhu92rcd13ifvqi70","pricing_plan_id":"cebpf4jnsgd1na2vs0mg"},{"bike_id":"1b7ac129-ecd5-4ebe-ac49-f8a6cd5fd7db","system_id":"levelo_inurba_marseille","lat":43.25006,"lon":5.38918,"is_reserved":false,"is_disabled":false,"rental_uris":{"android":"levelo://app?vid=1b7ac129-ecd5-4ebe-ac49-f8a6cd5fd7db","ios":"levelo://app?vid=1b7ac129-ecd5-4ebe-ac49-f8a6cd5fd7db"},"vehicle_type_id":"4","last_reported":1740154258,"current_range_meters":14800,"station_id":"ce4bhgp2rcd13ifvqfd0","pricing_plan_id":"cebpf4jnsgd1na2vs0mg"},{"bike_id":"683a6c2e-9960-4cc9-ad0b-d5288c90d013","system_id":"levelo_inurba_marseille","lat":43.2989,"lon":5.39712,"is_reserved":false,"is_disabled":false,"rental_uris":{"android":"levelo://app?vid=683a6c2e-9960-4cc9-ad0b-d5288c90d013","ios":"levelo://app?vid=683a6c2e-9960-4cc9-ad0b-d5288c90d013"},"vehicle_type_id":"4","last_reported":1740154258,"current_range_meters":15200,"station_id":"ce4bh0h2rcd13ifvqd50","pricing_plan_id":"cebpf4jnsgd1na2vs0mg"},{"bike_id":"fcbd1448-ee4a-44cc-91c8-61722bc35a03","system_id":"levelo_inurba_marseille","lat":43.27918,"lon":5.3958,"is_reserved":false,"is_disabled":false,"rental_uris":{"android":"levelo://app?vid=fcbd1448-ee4a-44cc-91c8-61722bc35a03","ios":"levelo://app?vid=fcbd1448-ee4a-44cc-91c8-61722bc35a03"},"vehicle_type_id":"4","last_reported":1740154258,"current_range_meters":15200,"station_id":"ce4bh492rcd13ifvqdug","pricing_plan_id":"cebpf4jnsgd1na2vs0mg"},{"bike_id":"bf53f9e9-e721-4de6-8b04-415f193111d6","system_id":"levelo_inurba_marseille","lat":43.23063,"lon":5.35503,"is_reserved":false,"is_disabled":false,"rental_uris":{"android":"levelo://app?vid=bf53f9e9-e721-4de6-8b04-415f193111d6","ios":"levelo://app?vid=bf53f9e9-e721-4de6-8b04-415f193111d6"},"vehicle_type_id":"4","last_reported":1740154258,"current_range_meters":16000,"station_id":"cpo3342slgdg3j2ifvpg","pricing_plan_id":"cebpf4jnsgd1na2vs0mg"},{"bike_id":"661fdff0-f0ad-4cb8-b5b0-dc2395fe1e67","system_id":"levelo_inurba_marseille","lat":43.3054,"lon":5.36716,"is_reserved":false,"is_disabled":false,"rental_uris":{"android":"levelo://app?vid=661fdff0-f0ad-4cb8-b5b0-dc2395fe1e67","ios":"levelo://app?vid=661fdff0-f0ad-4cb8-b5b0-dc2395fe1e67"},"vehicle_type_id":"4","last_reported":1740154258,"current_range_meters":16000,"station_id":"ce4bgrp2rcd13ifvqc9g","pricing_plan_id":"cebpf4jnsgd1na2vs0mg"},{"bike_id":"35331f57-b06c-41f1-8224-4eb3668702eb","system_id":"levelo_inurba_marseille","lat":43.23059,"lon":5.3549,"is_reserved":false,"is_disabled":false,"rental_uris":{"android":"levelo://app?vid=35331f57-b06c-41f1-8224-4eb3668702eb","ios":"levelo://app?vid=35331f57-b06c-41f1-8224-4eb3668702eb"},"vehicle_type_id":"4","last_reported":1740154258,"current_range_meters":16000,"station_id":"cpo3342slgdg3j2ifvpg","pricing_plan_id":"cebpf4jnsgd1na2vs0mg"},{"bike_id":"06b96f40-2f45-4719-84b1-c6fffcb9164f","system_id":"levelo_inurba_marseille","lat":43.29709,"lon":5.37696,"is_reserved":false,"is_disabled":false,"rental_uris":{"android":"levelo://app?vid=06b96f40-2f45-4719-84b1-c6fffcb9164f","ios":"levelo://app?vid=06b96f40-2f45-4719-84b1-c6fffcb9164f"},"vehicle_type_id":"4","last_reported":1740154258,"current_range_meters":16800,"station_id":"ce4bgkh2rcd13ifvqbl0","pricing_plan_id":"cebpf4jnsgd1na2vs0mg"},{"bike_id":"ea72e978-b1c7-4a5d-95c0-b73e4a0d91e3","system_id":"levelo_inurba_marseille","lat":43.29005,"lon":5.35589,"is_reserved":false,"is_disabled":false,"rental_uris":{"android":"levelo://app?vid=ea72e978-b1c7-4a5d-95c0-b73e4a0d91e3","ios":"levelo://app?vid=ea72e978-b1c7-4a5d-95c0-b73e4a0d91e3"},"vehicle_type_id":"4","last_reported":1740154258,"current_range_meters":16000,"station_id":"ce4bhb92rcd13ifvqen0","pricing_plan_id":"cebpf4jnsgd1na2vs0mg"},{"bike_id":"e297894e-9654-4d80-87c5-92e5d1d23aba","system_id":"levelo_inurba_marseille","lat":43.27498,"lon":5.42458,"is_reserved":false,"is_disabled":false,"rental_uris":{"android":"levelo://app?vid=e297894e-9654-4d80-87c5-92e5d1d23aba","ios":"levelo://app?vid=e297894e-9654-4d80-87c5-92e5d1d23aba"},"vehicle_type_id":"4","last_reported":1740154258,"current_range_meters":16400,"station_id":"ce4bhn92rcd13ifvqgrg","pricing_plan_id":"cebpf4jnsgd1na2vs0mg"},{"bike_id":"ffa261bf-3088-45fb-953f-e9a9aa0849f3","system_id":"levelo_inurba_marseille","lat":43.31853,"lon":5.40696,"is_reserved":false,"is_disabled":false,"rental_uris":{"android":"levelo://app?vid=ffa261bf-3088-45fb-953f-e9a9aa0849f3","ios":"levelo://app?vid=ffa261bf-3088-45fb-953f-e9a9aa0849f3"},"vehicle_type_id":"4","last_reported":1740154258,"current_range_meters":16400,"station_id":"ce4bhq12rcd13ifvqhig","pricing_plan_id":"cebpf4jnsgd1na2vs0mg"},{"bike_id":"6df39156-7bc9-4bbd-a598-92187611a67f","system_id":"levelo_inurba_marseille","lat":43.24548,"lon":5.39524,"is_reserved":false,"is_disabled":false,"rental_uris":{"android":"levelo://app?vid=6df39156-7bc9-4bbd-a598-92187611a67f","ios":"levelo://app?vid=6df39156-7bc9-4bbd-a598-92187611a67f"},"vehicle_type_id":"4","last_reported":1740154258,"current_range_meters":16400,"station_id":"ce4bhlp2rcd13ifvqgjg","pricing_plan_id":"cebpf4jnsgd1na2vs0mg"},{"bike_id":"e8a1e1f5-b474-4f67-aaf9-e92874b81e6f","system_id":"levelo_inurba_marseille","lat":43.30296,"lon":5.39194,"is_reserved":false,"is_disabled":false,"rental_uris":{"android":"levelo://app?vid=e8a1e1f5-b474-4f67-aaf9-e92874b81e6f","ios":"levelo://app?vid=e8a1e1f5-b474-4f67-aaf9-e92874b81e6f"},"vehicle_type_id":"4","last_reported":1740154258,"current_range_meters":16800,"station_id":"ce4bgkh2rcd13ifvqbk0","pricing_plan_id":"cebpf4jnsgd1na2vs0mg"},{"bike_id":"f7a0ffcb-4436-4c84-8ca4-4faeff61ef91","system_id":"levelo_inurba_marseille","lat":43.29578,"lon":5.37507,"is_reserved":false,"is_disabled":false,"rental_uris":{"android":"levelo://app?vid=f7a0ffcb-4436-4c84-8ca4-4faeff61ef91","ios":"levelo://app?vid=f7a0ffcb-4436-4c84-8ca4-4faeff61ef91"},"vehicle_type_id":"4","last_reported":1740154258,"current_range_meters":16800,"station_id":"ce4bgh92rcd13ifvqb50","pricing_plan_id":"cebpf4jnsgd1na2vs0mg"},{"bike_id":"26feced3-470c-4bad-a8da-b6269a280540","system_id":"levelo_inurba_marseille","lat":43.313586,"lon":5.3848,"is_reserved":false,"is_disabled":false,"rental_uris":{"android":"levelo://app?vid=26feced3-470c-4bad-a8da-b6269a280540","ios":"levelo://app?vid=26feced3-470c-4bad-a8da-b6269a280540"},"vehicle_type_id":"4","last_reported":1740154258,"current_range_meters":14000,"station_id":"ce4bgkh2rcd13ifvqbl0","pricing_plan_id":"cebpf4jnsgd1na2vs0mg"},{"bike_id":"b28f3e3d-4105-46b3-96eb-e4b954e9c03f","system_id":"levelo_inurba_marseille","lat":43.32053,"lon":5.41557,"is_reserved":false,"is_disabled":false,"rental_uris":{"android":"levelo://app?vid=b28f3e3d-4105-46b3-96eb-e4b954e9c03f","ios":"levelo://app?vid=b28f3e3d-4105-46b3-96eb-e4b954e9c03f"},"vehicle_type_id":"4","last_reported":1740154258,"current_range_meters":16800,"station_id":"ce4bhq92rcd13ifvqhkg","pricing_plan_id":"cebpf4jnsgd1na2vs0mg"},{"bike_id":"d08c14de-a47c-45fd-aa99-9d8ad77362ae","system_id":"levelo_inurba_marseille","lat":43.29165,"lon":5.37176,"is_reserved":false,"is_disabled":false,"rental_uris":{"android":"levelo://app?vid=d08c14de-a47c-45fd-aa99-9d8ad77362ae","ios":"levelo://app?vid=d08c14de-a47c-45fd-aa99-9d8ad77362ae"},"vehicle_type_id":"4","last_reported":1740154258,"current_range_meters":16400,"station_id":"ce4bha92rcd13ifvqeh0","pricing_plan_id":"cebpf4jnsgd1na2vs0mg"},{"bike_id":"f429721c-c014-44e8-94f5-8e31292db7a4","system_id":"levelo_inurba_marseille","lat":43.2861,"lon":5.35102,"is_reserved":false,"is_disabled":false,"rental_uris":{"android":"levelo://app?vid=f429721c-c014-44e8-94f5-8e31292db7a4","ios":"levelo://app?vid=f429721c-c014-44e8-94f5-8e31292db7a4"},"vehicle_type_id":"4","last_reported":1740154258,"current_range_meters":16800,"station_id":"ce4bhch2rcd13ifvqeug","pricing_plan_id":"cebpf4jnsgd1na2vs0mg"},{"bike_id":"a10a254a-c520-445a-bf85-d8419fa744b0","system_id":"levelo_inurba_marseille","lat":43.28467,"lon":5.35892,"is_reserved":false,"is_disabled":false,"rental_uris":{"android":"levelo://app?vid=a10a254a-c520-445a-bf85-d8419fa744b0","ios":"levelo://app?vid=a10a254a-c520-445a-bf85-d8419fa744b0"},"vehicle_type_id":"4","last_reported":1740154258,"current_range_meters":17200,"station_id":"ce4bhah2rcd13ifvqei0","pricing_plan_id":"cebpf4jnsgd1na2vs0mg"},{"bike_id":"823016e0-362e-4c4e-a5f1-e3da2e7be8ca","system_id":"levelo_inurba_marseille","lat":43.30263,"lon":5.4008,"is_reserved":false,"is_disabled":false,"rental_uris":{"android":"levelo://app?vid=823016e0-362e-4c4e-a5f1-e3da2e7be8ca","ios":"levelo://app?vid=823016e0-362e-4c4e-a5f1-e3da2e7be8ca"},"vehicle_type_id":"4","last_reported":1740154258,"current_range_meters":17200,"station_id":"ce4bgvh2rcd13ifvqcs0","pricing_plan_id":"cebpf4jnsgd1na2vs0mg"},{"bike_id":"0b35ef10-1d1d-4e8a-949e-c3122c5e3874","system_id":"levelo_inurba_marseille","lat":43.23949,"lon":5.36636,"is_reserved":false,"is_disabled":false,"rental_uris":{"android":"levelo://app?vid=0b35ef10-1d1d-4e8a-949e-c3122c5e3874","ios":"levelo://app?vid=0b35ef10-1d1d-4e8a-949e-c3122c5e3874"},"vehicle_type_id":"4","last_reported":1740154258,"current_range_meters":17200,"station_id":"ce4bhi12rcd13ifvqfp0","pricing_plan_id":"cebpf4jnsgd1na2vs0mg"},{"bike_id":"06b5b92e-20c2-4581-8ccf-06307578ea44","system_id":"levelo_inurba_marseille","lat":43.27183,"lon":5.4098,"is_reserved":false,"is_disabled":false,"rental_uris":{"android":"levelo://app?vid=06b5b92e-20c2-4581-8ccf-06307578ea44","ios":"levelo://app?vid=06b5b92e-20c2-4581-8ccf-06307578ea44"},"vehicle_type_id":"4","last_reported":1740154258,"current_range_meters":17200,"station_id":"ce4bhl12rcd13ifvqgf0","pricing_plan_id":"cebpf4jnsgd1na2vs0mg"},{"bike_id":"b0c4cff7-ef87-4f78-9f9a-1600e3ee01ad","system_id":"levelo_inurba_marseille","lat":43.3014,"lon":5.39863,"is_reserved":false,"is_disabled":false,"rental_uris":{"android":"levelo://app?vid=b0c4cff7-ef87-4f78-9f9a-1600e3ee01ad","ios":"levelo://app?vid=b0c4cff7-ef87-4f78-9f9a-1600e3ee01ad"},"vehicle_type_id":"4","last_reported":1740154258,"current_range_meters":17200,"station_id":"ce4bh0h2rcd13ifvqd40","pricing_plan_id":"cebpf4jnsgd1na2vs0mg"},{"bike_id":"fc267cf3-8c17-4614-8955-a553f4f5c15a","system_id":"levelo_inurba_marseille","lat":43.27058,"lon":5.40257,"is_reserved":false,"is_disabled":false,"rental_uris":{"android":"levelo://app?vid=fc267cf3-8c17-4614-8955-a553f4f5c15a","ios":"levelo://app?vid=fc267cf3-8c17-4614-8955-a553f4f5c15a"},"vehicle_type_id":"4","last_reported":1740154258,"current_range_meters":17200,"station_id":"ce4bhk92rcd13ifvqgc0","pricing_plan_id":"cebpf4jnsgd1na2vs0mg"},{"bike_id":"24b87019-ab18-4324-874c-b55bcb0b0a7a","system_id":"levelo_inurba_marseille","lat":43.280323,"lon":5.369488,"is_reserved":false,"is_disabled":false,"rental_uris":{"android":"levelo://app?vid=24b87019-ab18-4324-874c-b55bcb0b0a7a","ios":"levelo://app?vid=24b87019-ab18-4324-874c-b55bcb0b0a7a"},"vehicle_type_id":"4","last_reported":1740154258,"current_range_meters":17200,"station_id":"ce4bha12rcd13ifvqef0","pricing_plan_id":"cebpf4jnsgd1na2vs0mg"},{"bike_id":"efd39355-5765-48b4-bc73-853847f7aabf","system_id":"levelo_inurba_marseille","lat":43.293304,"lon":5.408701,"is_reserved":false,"is_disabled":false,"rental_uris":{"android":"levelo://app?vid=efd39355-5765-48b4-bc73-853847f7aabf","ios":"levelo://app?vid=efd39355-5765-48b4-bc73-853847f7aabf"},"vehicle_type_id":"4","last_reported":1740154258,"current_range_meters":19200,"station_id":"ce4bh192rcd13ifvqdc0","pricing_plan_id":"cebpf4jnsgd1na2vs0mg"},{"bike_id":"e787ca5c-fddf-4351-8e22-c39460f7265b","system_id":"levelo_inurba_marseille","lat":43.2656,"lon":5.38993,"is_reserved":false,"is_disabled":false,"rental_uris":{"android":"levelo://app?vid=e787ca5c-fddf-4351-8e22-c39460f7265b","ios":"levelo://app?vid=e787ca5c-fddf-4351-8e22-c39460f7265b"},"vehicle_type_id":"4","last_reported":1740154258,"current_range_meters":17200,"station_id":"ce4bhe12rcd13ifvqf30","pricing_plan_id":"cebpf4jnsgd1na2vs0mg"},{"bike_id":"d11825b8-23fc-47b2-84b9-7b315e040508","system_id":"levelo_inurba_marseille","lat":43.30308,"lon":5.36891,"is_reserved":false,"is_disabled":false,"rental_uris":{"android":"levelo://app?vid=d11825b8-23fc-47b2-84b9-7b315e040508","ios":"levelo://app?vid=d11825b8-23fc-47b2-84b9-7b315e040508"},"vehicle_type_id":"4","last_reported":1740154258,"current_range_meters":17600,"station_id":"ce4bgqh2rcd13ifvqc5g","pricing_plan_id":"cebpf4jnsgd1na2vs0mg"},{"bike_id":"47c2bda1-b080-4330-9259-8165a7e570ad","system_id":"levelo_inurba_marseille","lat":43.32692,"lon":5.3899,"is_reserved":false,"is_disabled":false,"rental_uris":{"android":"levelo://app?vid=47c2bda1-b080-4330-9259-8165a7e570ad","ios":"levelo://app?vid=47c2bda1-b080-4330-9259-8165a7e570ad"},"vehicle_type_id":"4","last_reported":1740154258,"current_range_meters":17600,"station_id":"","pricing_plan_id":"cebpf4jnsgd1na2vs0mg"},{"bike_id":"2dd4c48b-2a0c-40f5-a353-fc4262c5e9a1","system_id":"levelo_inurba_marseille","lat":43.27371,"lon":5.36247,"is_reserved":false,"is_disabled":false,"rental_uris":{"android":"levelo://app?vid=2dd4c48b-2a0c-40f5-a353-fc4262c5e9a1","ios":"levelo://app?vid=2dd4c48b-2a0c-40f5-a353-fc4262c5e9a1"},"vehicle_type_id":"4","last_reported":1740154258,"current_range_meters":17600,"station_id":"ce4bhbh2rcd13ifvqeo0","pricing_plan_id":"cebpf4jnsgd1na2vs0mg"},{"bike_id":"2b3bdbe3-a8c0-4b69-bddd-17d1ebc91f64","system_id":"levelo_inurba_marseille","lat":43.2657,"lon":5.39019,"is_reserved":false,"is_disabled":false,"rental_uris":{"android":"levelo://app?vid=2b3bdbe3-a8c0-4b69-bddd-17d1ebc91f64","ios":"levelo://app?vid=2b3bdbe3-a8c0-4b69-bddd-17d1ebc91f64"},"vehicle_type_id":"4","last_reported":1740154258,"current_range_meters":17600,"station_id":"ce4bhe12rcd13ifvqf30","pricing_plan_id":"cebpf4jnsgd1na2vs0mg"},{"bike_id":"3ac73025-a0c2-4fbe-90e5-cd9268126521","system_id":"levelo_inurba_marseille","lat":43.30139,"lon":5.39855,"is_reserved":false,"is_disabled":false,"rental_uris":{"android":"levelo://app?vid=3ac73025-a0c2-4fbe-90e5-cd9268126521","ios":"levelo://app?vid=3ac73025-a0c2-4fbe-90e5-cd9268126521"},"vehicle_type_id":"4","last_reported":1740154258,"current_range_meters":17600,"station_id":"ce4bh0h2rcd13ifvqd40","pricing_plan_id":"cebpf4jnsgd1na2vs0mg"},{"bike_id":"89163711-bddf-43c7-9d93-35ad2cf06223","system_id":"levelo_inurba_marseille","lat":43.29968,"lon":5.38503,"is_reserved":false,"is_disabled":false,"rental_uris":{"android":"levelo://app?vid=89163711-bddf-43c7-9d93-35ad2cf06223","ios":"levelo://app?vid=89163711-bddf-43c7-9d93-35ad2cf06223"},"vehicle_type_id":"4","last_reported":1740154258,"current_range_meters":19200,"station_id":"ce4bgj92rcd13ifvqbd0","pricing_plan_id":"cebpf4jnsgd1na2vs0mg"},{"bike_id":"12739888-087a-40a1-8d9d-4ffe00ab1cb9","system_id":"levelo_inurba_marseille","lat":43.30251,"lon":5.40062,"is_reserved":false,"is_disabled":false,"rental_uris":{"android":"levelo://app?vid=12739888-087a-40a1-8d9d-4ffe00ab1cb9","ios":"levelo://app?vid=12739888-087a-40a1-8d9d-4ffe00ab1cb9"},"vehicle_type_id":"4","last_reported":1740154258,"current_range_meters":17600,"station_id":"ce4bgvh2rcd13ifvqcs0","pricing_plan_id":"cebpf4jnsgd1na2vs0mg"},{"bike_id":"4a0a122d-993b-4dc4-9873-f2db9984f8fc","system_id":"levelo_inurba_marseille","lat":43.29026,"lon":5.38644,"is_reserved":false,"is_disabled":false,"rental_uris":{"android":"levelo://app?vid=4a0a122d-993b-4dc4-9873-f2db9984f8fc","ios":"levelo://app?vid=4a0a122d-993b-4dc4-9873-f2db9984f8fc"},"vehicle_type_id":"4","last_reported":1740154258,"current_range_meters":17200,"station_id":"ce4bh4p2rcd13ifvqe0g","pricing_plan_id":"cebpf4jnsgd1na2vs0mg"},{"bike_id":"d00f3609-34bb-45d0-8c16-425058b982e6","system_id":"levelo_inurba_marseille","lat":43.28463,"lon":5.35895,"is_reserved":false,"is_disabled":false,"rental_uris":{"android":"levelo://app?vid=d00f3609-34bb-45d0-8c16-425058b982e6","ios":"levelo://app?vid=d00f3609-34bb-45d0-8c16-425058b982e6"},"vehicle_type_id":"4","last_reported":1740154258,"current_range_meters":17600,"station_id":"ce4bhah2rcd13ifvqei0","pricing_plan_id":"cebpf4jnsgd1na2vs0mg"},{"bike_id":"305b3427-3221-4e74-8eeb-f6edd601a3a8","system_id":"levelo_inurba_marseille","lat":43.25118,"lon":5.40319,"is_reserved":false,"is_disabled":false,"rental_uris":{"android":"levelo://app?vid=305b3427-3221-4e74-8eeb-f6edd601a3a8","ios":"levelo://app?vid=305b3427-3221-4e74-8eeb-f6edd601a3a8"},"vehicle_type_id":"4","last_reported":1740154258,"current_range_meters":18000,"station_id":"ce4bhlh2rcd13ifvqgig","pricing_plan_id":"cebpf4jnsgd1na2vs0mg"},{"bike_id":"042e241a-5cc7-4795-abd6-ecfe0230dfcb","system_id":"levelo_inurba_marseille","lat":43.30427,"lon":5.41288,"is_reserved":false,"is_disabled":false,"rental_uris":{"android":"levelo://app?vid=042e241a-5cc7-4795-abd6-ecfe0230dfcb","ios":"levelo://app?vid=042e241a-5cc7-4795-abd6-ecfe0230dfcb"},"vehicle_type_id":"4","last_reported":1740154258,"current_range_meters":17600,"station_id":"ce4bhop2rcd13ifvqh8g","pricing_plan_id":"cebpf4jnsgd1na2vs0mg"},{"bike_id":"1b0d6542-f74d-4dd5-b78b-1cd1115ff80b","system_id":"levelo_inurba_marseille","lat":43.30621,"lon":5.37372,"is_reserved":false,"is_disabled":false,"rental_uris":{"android":"levelo://app?vid=1b0d6542-f74d-4dd5-b78b-1cd1115ff80b","ios":"levelo://app?vid=1b0d6542-f74d-4dd5-b78b-1cd1115ff80b"},"vehicle_type_id":"4","last_reported":1740154258,"current_range_meters":18000,"station_id":"","pricing_plan_id":"cebpf4jnsgd1na2vs0mg"},{"bike_id":"519c0d90-c598-4074-9c80-d5e1565ff705","system_id":"levelo_inurba_marseille","lat":43.23055,"lon":5.35493,"is_reserved":false,"is_disabled":false,"rental_uris":{"android":"levelo://app?vid=519c0d90-c598-4074-9c80-d5e1565ff705","ios":"levelo://app?vid=519c0d90-c598-4074-9c80-d5e1565ff705"},"vehicle_type_id":"4","last_reported":1740154258,"current_range_meters":18000,"station_id":"cpo3342slgdg3j2ifvpg","pricing_plan_id":"cebpf4jnsgd1na2vs0mg"},{"bike_id":"1deaa002-5243-48d8-8779-82891264a102","system_id":"levelo_inurba_marseille","lat":43.24814,"lon":5.37445,"is_reserved":false,"is_disabled":false,"rental_uris":{"android":"levelo://app?vid=1deaa002-5243-48d8-8779-82891264a102","ios":"levelo://app?vid=1deaa002-5243-48d8-8779-82891264a102"},"vehicle_type_id":"4","last_reported":1740154258,"current_range_meters":18000,"station_id":"ce4bhgh2rcd13ifvqfb0","pricing_plan_id":"cebpf4jnsgd1na2vs0mg"},{"bike_id":"d98e29be-7c7a-4ebc-95ae-cd403abc761b","system_id":"levelo_inurba_marseille","lat":43.308,"lon":5.43518,"is_reserved":false,"is_disabled":false,"rental_uris":{"android":"levelo://app?vid=d98e29be-7c7a-4ebc-95ae-cd403abc761b","ios":"levelo://app?vid=d98e29be-7c7a-4ebc-95ae-cd403abc761b"},"vehicle_type_id":"4","last_reported":1740154258,"current_range_meters":18000,"station_id":"ce4bhph2rcd13ifvqheg","pricing_plan_id":"cebpf4jnsgd1na2vs0mg"},{"bike_id":"c5d31fc4-a289-4d80-bedf-015a045a6311","system_id":"levelo_inurba_marseille","lat":43.26038,"lon":5.37551,"is_reserved":false,"is_disabled":false,"rental_uris":{"android":"levelo://app?vid=c5d31fc4-a289-4d80-bedf-015a045a6311","ios":"levelo://app?vid=c5d31fc4-a289-4d80-bedf-015a045a6311"},"vehicle_type_id":"4","last_reported":1740154258,"current_range_meters":18000,"station_id":"ce4bhgh2rcd13ifvqfa0","pricing_plan_id":"cebpf4jnsgd1na2vs0mg"},{"bike_id":"1b5b87c8-f96f-4740-8b60-bcc62c6e3f59","system_id":"levelo_inurba_marseille","lat":43.31389,"lon":5.38459,"is_reserved":false,"is_disabled":false,"rental_uris":{"android":"levelo://app?vid=1b5b87c8-f96f-4740-8b60-bcc62c6e3f59","ios":"levelo://app?vid=1b5b87c8-f96f-4740-8b60-bcc62c6e3f59"},"vehicle_type_id":"4","last_reported":1740154258,"current_range_meters":18000,"station_id":"ce4bgt92rcd13ifvqcf0","pricing_plan_id":"cebpf4jnsgd1na2vs0mg"},{"bike_id":"977f7155-cf49-4e6e-aa90-15cccdd9916f","system_id":"levelo_inurba_marseille","lat":43.2572,"lon":5.41115,"is_reserved":false,"is_disabled":false,"rental_uris":{"android":"levelo://app?vid=977f7155-cf49-4e6e-aa90-15cccdd9916f","ios":"levelo://app?vid=977f7155-cf49-4e6e-aa90-15cccdd9916f"},"vehicle_type_id":"4","last_reported":1740154258,"current_range_meters":17600,"station_id":"ce4bhkp2rcd13ifvqgd0","pricing_plan_id":"cebpf4jnsgd1na2vs0mg"},{"bike_id":"64e754dc-73d6-43fb-9004-56cacf3080b5","system_id":"levelo_inurba_marseille","lat":43.3053,"lon":5.36529,"is_reserved":false,"is_disabled":false,"rental_uris":{"android":"levelo://app?vid=64e754dc-73d6-43fb-9004-56cacf3080b5","ios":"levelo://app?vid=64e754dc-73d6-43fb-9004-56cacf3080b5"},"vehicle_type_id":"4","last_reported":1740154258,"current_range_meters":18000,"station_id":"ce4bgs12rcd13ifvqcag","pricing_plan_id":"cebpf4jnsgd1na2vs0mg"},{"bike_id":"a7c4fa13-c21c-42ce-82ab-11370de54a3d","system_id":"levelo_inurba_marseille","lat":43.27989,"lon":5.40026,"is_reserved":false,"is_disabled":false,"rental_uris":{"android":"levelo://app?vid=a7c4fa13-c21c-42ce-82ab-11370de54a3d","ios":"levelo://app?vid=a7c4fa13-c21c-42ce-82ab-11370de54a3d"},"vehicle_type_id":"4","last_reported":1740154258,"current_range_meters":18800,"station_id":"ce4bho92rcd13ifvqh4g","pricing_plan_id":"cebpf4jnsgd1na2vs0mg"},{"bike_id":"21c70f33-f388-497b-8b14-d982df458e79","system_id":"levelo_inurba_marseille","lat":43.29533,"lon":5.38534,"is_reserved":false,"is_disabled":false,"rental_uris":{"android":"levelo://app?vid=21c70f33-f388-497b-8b14-d982df458e79","ios":"levelo://app?vid=21c70f33-f388-497b-8b14-d982df458e79"},"vehicle_type_id":"4","last_reported":1740154258,"current_range_meters":14800,"station_id":"ce4bgih2rcd13ifvqba0","pricing_plan_id":"cebpf4jnsgd1na2vs0mg"},{"bike_id":"467a0ac7-872c-4bb6-8ee3-3c6f458a51d9","system_id":"levelo_inurba_marseille","lat":43.27909,"lon":5.41218,"is_reserved":false,"is_disabled":false,"rental_uris":{"android":"levelo://app?vid=467a0ac7-872c-4bb6-8ee3-3c6f458a51d9","ios":"levelo://app?vid=467a0ac7-872c-4bb6-8ee3-3c6f458a51d9"},"vehicle_type_id":"4","last_reported":1740154258,"current_range_meters":18800,"station_id":"","pricing_plan_id":"cebpf4jnsgd1na2vs0mg"},{"bike_id":"c10e3ef8-8a9c-4f21-8d33-5a11cdfaa9a9","system_id":"levelo_inurba_marseille","lat":43.31374,"lon":5.38483,"is_reserved":false,"is_disabled":false,"rental_uris":{"android":"levelo://app?vid=c10e3ef8-8a9c-4f21-8d33-5a11cdfaa9a9","ios":"levelo://app?vid=c10e3ef8-8a9c-4f21-8d33-5a11cdfaa9a9"},"vehicle_type_id":"4","last_reported":1740154258,"current_range_meters":18800,"station_id":"ce4bgt92rcd13ifvqcf0","pricing_plan_id":"cebpf4jnsgd1na2vs0mg"},{"bike_id":"f19bfe6f-1ada-4332-ab4c-451ed4f7a455","system_id":"levelo_inurba_marseille","lat":43.25497,"lon":5.37647,"is_reserved":false,"is_disabled":false,"rental_uris":{"android":"levelo://app?vid=f19bfe6f-1ada-4332-ab4c-451ed4f7a455","ios":"levelo://app?vid=f19bfe6f-1ada-4332-ab4c-451ed4f7a455"},"vehicle_type_id":"4","last_reported":1740154258,"current_range_meters":18000,"station_id":"ce4bhh12rcd13ifvqff0","pricing_plan_id":"cebpf4jnsgd1na2vs0mg"},{"bike_id":"ba0bce3c-2f0f-4319-a7aa-4f3727bd81ea","system_id":"levelo_inurba_marseille","lat":43.32098,"lon":5.36812,"is_reserved":false,"is_disabled":false,"rental_uris":{"android":"levelo://app?vid=ba0bce3c-2f0f-4319-a7aa-4f3727bd81ea","ios":"levelo://app?vid=ba0bce3c-2f0f-4319-a7aa-4f3727bd81ea"},"vehicle_type_id":"4","last_reported":1740154258,"current_range_meters":18800,"station_id":"ce4bhrh2rcd13ifvqhug","pricing_plan_id":"cebpf4jnsgd1na2vs0mg"},{"bike_id":"ecb792ba-e590-4d62-97cc-1e9b429064df","system_id":"levelo_inurba_marseille","lat":43.25006,"lon":5.38919,"is_reserved":false,"is_disabled":false,"rental_uris":{"android":"levelo://app?vid=ecb792ba-e590-4d62-97cc-1e9b429064df","ios":"levelo://app?vid=ecb792ba-e590-4d62-97cc-1e9b429064df"},"vehicle_type_id":"4","last_reported":1740154258,"current_range_meters":18800,"station_id":"ce4bhgp2rcd13ifvqfd0","pricing_plan_id":"cebpf4jnsgd1na2vs0mg"},{"bike_id":"d5566d2e-78e8-488f-b3e7-c9c338cd491f","system_id":"levelo_inurba_marseille","lat":43.27492,"lon":5.42467,"is_reserved":false,"is_disabled":false,"rental_uris":{"android":"levelo://app?vid=d5566d2e-78e8-488f-b3e7-c9c338cd491f","ios":"levelo://app?vid=d5566d2e-78e8-488f-b3e7-c9c338cd491f"},"vehicle_type_id":"4","last_reported":1740154258,"current_range_meters":18800,"station_id":"ce4bhn92rcd13ifvqgrg","pricing_plan_id":"cebpf4jnsgd1na2vs0mg"},{"bike_id":"dd8b9d22-b4c3-433f-912a-93daef42f1e7","system_id":"levelo_inurba_marseille","lat":43.2988,"lon":5.3892,"is_reserved":false,"is_disabled":false,"rental_uris":{"android":"levelo://app?vid=dd8b9d22-b4c3-433f-912a-93daef42f1e7","ios":"levelo://app?vid=dd8b9d22-b4c3-433f-912a-93daef42f1e7"},"vehicle_type_id":"4","last_reported":1740154258,"current_range_meters":18800,"station_id":"ce4bh392rcd13ifvqdl0","pricing_plan_id":"cebpf4jnsgd1na2vs0mg"},{"bike_id":"dab960d9-1ede-46dd-ade3-a5360c9021cf","system_id":"levelo_inurba_marseille","lat":43.23199,"lon":5.35556,"is_reserved":false,"is_disabled":false,"rental_uris":{"android":"levelo://app?vid=dab960d9-1ede-46dd-ade3-a5360c9021cf","ios":"levelo://app?vid=dab960d9-1ede-46dd-ade3-a5360c9021cf"},"vehicle_type_id":"4","last_reported":1740154258,"current_range_meters":18800,"station_id":"ce4bhu92rcd13ifvqi70","pricing_plan_id":"cebpf4jnsgd1na2vs0mg"},{"bike_id":"330d64ce-5713-4328-9727-7f6f0bc2e963","system_id":"levelo_inurba_marseille","lat":43.24077,"lon":5.37756,"is_reserved":false,"is_disabled":false,"rental_uris":{"android":"levelo://app?vid=330d64ce-5713-4328-9727-7f6f0bc2e963","ios":"levelo://app?vid=330d64ce-5713-4328-9727-7f6f0bc2e963"},"vehicle_type_id":"4","last_reported":1740154258,"current_range_meters":18800,"station_id":"ce4bhnp2rcd13ifvqgvg","pricing_plan_id":"cebpf4jnsgd1na2vs0mg"},{"bike_id":"84e364eb-0bd3-4a3c-8233-6ea88f117d5c","system_id":"levelo_inurba_marseille","lat":43.3013,"lon":5.38093,"is_reserved":false,"is_disabled":false,"rental_uris":{"android":"levelo://app?vid=84e364eb-0bd3-4a3c-8233-6ea88f117d5c","ios":"levelo://app?vid=84e364eb-0bd3-4a3c-8233-6ea88f117d5c"},"vehicle_type_id":"4","last_reported":1740154258,"current_range_meters":18800,"station_id":"ce4bgjp2rcd13ifvqbh0","pricing_plan_id":"cebpf4jnsgd1na2vs0mg"},{"bike_id":"af04c52e-64bc-4b40-9c5d-f4b0968fc255","system_id":"levelo_inurba_marseille","lat":43.24084,"lon":5.37756,"is_reserved":false,"is_disabled":false,"rental_uris":{"android":"levelo://app?vid=af04c52e-64bc-4b40-9c5d-f4b0968fc255","ios":"levelo://app?vid=af04c52e-64bc-4b40-9c5d-f4b0968fc255"},"vehicle_type_id":"4","last_reported":1740154258,"current_range_meters":18800,"station_id":"ce4bhnp2rcd13ifvqgvg","pricing_plan_id":"cebpf4jnsgd1na2vs0mg"},{"bike_id":"8c20ab15-f04e-4e58-be71-0abf1d05d250","system_id":"levelo_inurba_marseille","lat":43.23961,"lon":5.36632,"is_reserved":false,"is_disabled":false,"rental_uris":{"android":"levelo://app?vid=8c20ab15-f04e-4e58-be71-0abf1d05d250","ios":"levelo://app?vid=8c20ab15-f04e-4e58-be71-0abf1d05d250"},"vehicle_type_id":"4","last_reported":1740154258,"current_range_meters":19200,"station_id":"ce4bhi12rcd13ifvqfp0","pricing_plan_id":"cebpf4jnsgd1na2vs0mg"},{"bike_id":"655461b4-a378-4488-adf6-8ee5f09ad70a","system_id":"levelo_inurba_marseille","lat":43.31382,"lon":5.38507,"is_reserved":false,"is_disabled":false,"rental_uris":{"android":"levelo://app?vid=655461b4-a378-4488-adf6-8ee5f09ad70a","ios":"levelo://app?vid=655461b4-a378-4488-adf6-8ee5f09ad70a"},"vehicle_type_id":"4","last_reported":1740154258,"current_range_meters":19200,"station_id":"ce4bgt92rcd13ifvqcf0","pricing_plan_id":"cebpf4jnsgd1na2vs0mg"},{"bike_id":"7962d863-1f38-42ab-ae86-da1aa00d5013","system_id":"levelo_inurba_marseille","lat":43.30154,"lon":5.37408,"is_reserved":false,"is_disabled":false,"rental_uris":{"android":"levelo://app?vid=7962d863-1f38-42ab-ae86-da1aa00d5013","ios":"levelo://app?vid=7962d863-1f38-42ab-ae86-da1aa00d5013"},"vehicle_type_id":"4","last_reported":1740154258,"current_range_meters":19200,"station_id":"ce4bgs92rcd13ifvqcc0","pricing_plan_id":"cebpf4jnsgd1na2vs0mg"},{"bike_id":"6897935d-90c4-4aaa-81bd-a334d1112cb3","system_id":"levelo_inurba_marseille","lat":43.24669,"lon":5.38178,"is_reserved":false,"is_disabled":false,"rental_uris":{"android":"levelo://app?vid=6897935d-90c4-4aaa-81bd-a334d1112cb3","ios":"levelo://app?vid=6897935d-90c4-4aaa-81bd-a334d1112cb3"},"vehicle_type_id":"4","last_reported":1740154258,"current_range_meters":19600,"station_id":"ce4bhih2rcd13ifvqfr0","pricing_plan_id":"cebpf4jnsgd1na2vs0mg"},{"bike_id":"8b52c24a-60e9-4f95-8f6d-a404db75239c","system_id":"levelo_inurba_marseille","lat":43.27374,"lon":5.3625,"is_reserved":false,"is_disabled":false,"rental_uris":{"android":"levelo://app?vid=8b52c24a-60e9-4f95-8f6d-a404db75239c","ios":"levelo://app?vid=8b52c24a-60e9-4f95-8f6d-a404db75239c"},"vehicle_type_id":"4","last_reported":1740154258,"current_range_meters":19600,"station_id":"ce4bhbh2rcd13ifvqeo0","pricing_plan_id":"cebpf4jnsgd1na2vs0mg"},{"bike_id":"364f3e51-fd29-4ae7-837e-e9b95d49470c","system_id":"levelo_inurba_marseille","lat":43.30165,"lon":5.3808,"is_reserved":false,"is_disabled":false,"rental_uris":{"android":"levelo://app?vid=364f3e51-fd29-4ae7-837e-e9b95d49470c","ios":"levelo://app?vid=364f3e51-fd29-4ae7-837e-e9b95d49470c"},"vehicle_type_id":"4","last_reported":1740154258,"current_range_meters":19600,"station_id":"ce4bgjp2rcd13ifvqbh0","pricing_plan_id":"cebpf4jnsgd1na2vs0mg"},{"bike_id":"8e7663d1-3289-432f-a861-ae06282fb6ad","system_id":"levelo_inurba_marseille","lat":43.2943,"lon":5.3862,"is_reserved":false,"is_disabled":false,"rental_uris":{"android":"levelo://app?vid=8e7663d1-3289-432f-a861-ae06282fb6ad","ios":"levelo://app?vid=8e7663d1-3289-432f-a861-ae06282fb6ad"},"vehicle_type_id":"4","last_reported":1740154258,"current_range_meters":19600,"station_id":"ce4bh2h2rcd13ifvqdh0","pricing_plan_id":"cebpf4jnsgd1na2vs0mg"},{"bike_id":"1b34faa4-a592-4e9c-8183-46ceb41d7473","system_id":"levelo_inurba_marseille","lat":43.31182,"lon":5.38697,"is_reserved":false,"is_disabled":false,"rental_uris":{"android":"levelo://app?vid=1b34faa4-a592-4e9c-8183-46ceb41d7473","ios":"levelo://app?vid=1b34faa4-a592-4e9c-8183-46ceb41d7473"},"vehicle_type_id":"4","last_reported":1740154258,"current_range_meters":19600,"station_id":"ce4bgv12rcd13ifvqcp0","pricing_plan_id":"cebpf4jnsgd1na2vs0mg"},{"bike_id":"38f9bc40-639e-4f64-87e9-15092cc7344e","system_id":"levelo_inurba_marseille","lat":43.34405,"lon":5.38154,"is_reserved":false,"is_disabled":false,"rental_uris":{"android":"levelo://app?vid=38f9bc40-639e-4f64-87e9-15092cc7344e","ios":"levelo://app?vid=38f9bc40-639e-4f64-87e9-15092cc7344e"},"vehicle_type_id":"4","last_reported":1740154258,"current_range_meters":19600,"station_id":"","pricing_plan_id":"cebpf4jnsgd1na2vs0mg"},{"bike_id":"ab46b189-6bae-4129-a7fd-10b3ccd5a48e","system_id":"levelo_inurba_marseille","lat":43.27205,"lon":5.4,"is_reserved":false,"is_disabled":false,"rental_uris":{"android":"levelo://app?vid=ab46b189-6bae-4129-a7fd-10b3ccd5a48e","ios":"levelo://app?vid=ab46b189-6bae-4129-a7fd-10b3ccd5a48e"},"vehicle_type_id":"4","last_reported":1740154258,"current_range_meters":19600,"station_id":"","pricing_plan_id":"cebpf4jnsgd1na2vs0mg"},{"bike_id":"4bb011b2-4a00-46fd-959c-9b2c8748e602","system_id":"levelo_inurba_marseille","lat":43.27814,"lon":5.40715,"is_reserved":false,"is_disabled":false,"rental_uris":{"android":"levelo://app?vid=4bb011b2-4a00-46fd-959c-9b2c8748e602","ios":"levelo://app?vid=4bb011b2-4a00-46fd-959c-9b2c8748e602"},"vehicle_type_id":"4","last_reported":1740154258,"current_range_meters":19200,"station_id":"ce4bhnh2rcd13ifvqgtg","pricing_plan_id":"cebpf4jnsgd1na2vs0mg"},{"bike_id":"f5298310-14cd-4aed-bc3f-841e7d37dcf5","system_id":"levelo_inurba_marseille","lat":43.32656,"lon":5.40997,"is_reserved":false,"is_disabled":true,"rental_uris":{"android":"levelo://app?vid=f5298310-14cd-4aed-bc3f-841e7d37dcf5","ios":"levelo://app?vid=f5298310-14cd-4aed-bc3f-841e7d37dcf5"},"vehicle_type_id":"4","last_reported":1740154258,"current_range_meters":19600,"station_id":"ce4bhpp2rcd13ifvqhgg","pricing_plan_id":"cebpf4jnsgd1na2vs0mg"},{"bike_id":"3307539e-16e5-457c-9daf-1311bdad1b6a","system_id":"levelo_inurba_marseille","lat":43.299,"lon":5.43675,"is_reserved":false,"is_disabled":false,"rental_uris":{"android":"levelo://app?vid=3307539e-16e5-457c-9daf-1311bdad1b6a","ios":"levelo://app?vid=3307539e-16e5-457c-9daf-1311bdad1b6a"},"vehicle_type_id":"4","last_reported":1740154258,"current_range_meters":19600,"station_id":"ce4bhpp2rcd13ifvqhfg","pricing_plan_id":"cebpf4jnsgd1na2vs0mg"},{"bike_id":"3381290f-536f-44b4-9297-cce35bc3f907","system_id":"levelo_inurba_marseille","lat":43.30215,"lon":5.39465,"is_reserved":false,"is_disabled":false,"rental_uris":{"android":"levelo://app?vid=3381290f-536f-44b4-9297-cce35bc3f907","ios":"levelo://app?vid=3381290f-536f-44b4-9297-cce35bc3f907"},"vehicle_type_id":"4","last_reported":1740154258,"current_range_meters":19600,"station_id":"ce4bh0p2rcd13ifvqd70","pricing_plan_id":"cebpf4jnsgd1na2vs0mg"},{"bike_id":"747fa2c0-95e2-426f-8743-6fe536412916","system_id":"levelo_inurba_marseille","lat":43.24388,"lon":5.37056,"is_reserved":false,"is_disabled":false,"rental_uris":{"android":"levelo://app?vid=747fa2c0-95e2-426f-8743-6fe536412916","ios":"levelo://app?vid=747fa2c0-95e2-426f-8743-6fe536412916"},"vehicle_type_id":"4","last_reported":1740154258,"current_range_meters":19600,"station_id":"ce4bhhh2rcd13ifvqfk0","pricing_plan_id":"cebpf4jnsgd1na2vs0mg"},{"bike_id":"cdcbde40-ff63-44fd-83d1-d2a91bf6a64f","system_id":"levelo_inurba_marseille","lat":43.29025,"lon":5.38142,"is_reserved":false,"is_disabled":false,"rental_uris":{"android":"levelo://app?vid=cdcbde40-ff63-44fd-83d1-d2a91bf6a64f","ios":"levelo://app?vid=cdcbde40-ff63-44fd-83d1-d2a91bf6a64f"},"vehicle_type_id":"4","last_reported":1740154258,"current_range_meters":20000,"station_id":"ce4bh4p2rcd13ifvqe1g","pricing_plan_id":"cebpf4jnsgd1na2vs0mg"},{"bike_id":"32dcb531-1f75-410a-bf0f-54ce43a2e819","system_id":"levelo_inurba_marseille","lat":43.31362,"lon":5.38501,"is_reserved":false,"is_disabled":false,"rental_uris":{"android":"levelo://app?vid=32dcb531-1f75-410a-bf0f-54ce43a2e819","ios":"levelo://app?vid=32dcb531-1f75-410a-bf0f-54ce43a2e819"},"vehicle_type_id":"4","last_reported":1740154258,"current_range_meters":20000,"station_id":"ce4bgt92rcd13ifvqcf0","pricing_plan_id":"cebpf4jnsgd1na2vs0mg"},{"bike_id":"9c05d086-6115-4558-8b92-9ecf9a0b2115","system_id":"levelo_inurba_marseille","lat":43.2903,"lon":5.38656,"is_reserved":false,"is_disabled":false,"rental_uris":{"android":"levelo://app?vid=9c05d086-6115-4558-8b92-9ecf9a0b2115","ios":"levelo://app?vid=9c05d086-6115-4558-8b92-9ecf9a0b2115"},"vehicle_type_id":"4","last_reported":1740154258,"current_range_meters":20000,"station_id":"ce4bh4p2rcd13ifvqe0g","pricing_plan_id":"cebpf4jnsgd1na2vs0mg"},{"bike_id":"3956cc44-fc75-4f94-89d5-9c133698b60d","system_id":"levelo_inurba_marseille","lat":43.29993,"lon":5.3718,"is_reserved":false,"is_disabled":true,"rental_uris":{"android":"levelo://app?vid=3956cc44-fc75-4f94-89d5-9c133698b60d","ios":"levelo://app?vid=3956cc44-fc75-4f94-89d5-9c133698b60d"},"vehicle_type_id":"4","last_reported":1740154258,"current_range_meters":20000,"station_id":"ce4bgr92rcd13ifvqc7g","pricing_plan_id":"cebpf4jnsgd1na2vs0mg"},{"bike_id":"c2a577a3-44a6-426d-aac1-5124994319eb","system_id":"levelo_inurba_marseille","lat":43.279953,"lon":5.40018,"is_reserved":false,"is_disabled":false,"rental_uris":{"android":"levelo://app?vid=c2a577a3-44a6-426d-aac1-5124994319eb","ios":"levelo://app?vid=c2a577a3-44a6-426d-aac1-5124994319eb"},"vehicle_type_id":"4","last_reported":1740154258,"current_range_meters":20400,"station_id":"ce4bho92rcd13ifvqh4g","pricing_plan_id":"cebpf4jnsgd1na2vs0mg"},{"bike_id":"177dda35-b5d6-4cf4-a1cc-120e2feecc71","system_id":"levelo_inurba_marseille","lat":43.26557,"lon":5.37301,"is_reserved":false,"is_disabled":false,"rental_uris":{"android":"levelo://app?vid=177dda35-b5d6-4cf4-a1cc-120e2feecc71","ios":"levelo://app?vid=177dda35-b5d6-4cf4-a1cc-120e2feecc71"},"vehicle_type_id":"4","last_reported":1740154258,"current_range_meters":20400,"station_id":"ce4bhg12rcd13ifvqf70","pricing_plan_id":"cebpf4jnsgd1na2vs0mg"},{"bike_id":"0ea8161a-3a08-4ec8-8d7f-c5b0b1b56e74","system_id":"levelo_inurba_marseille","lat":43.3026,"lon":5.40088,"is_reserved":false,"is_disabled":false,"rental_uris":{"android":"levelo://app?vid=0ea8161a-3a08-4ec8-8d7f-c5b0b1b56e74","ios":"levelo://app?vid=0ea8161a-3a08-4ec8-8d7f-c5b0b1b56e74"},"vehicle_type_id":"4","last_reported":1740154258,"current_range_meters":20400,"station_id":"ce4bgvh2rcd13ifvqcs0","pricing_plan_id":"cebpf4jnsgd1na2vs0mg"},{"bike_id":"a6ccba7e-9308-4ed2-a835-3bedb780d755","system_id":"levelo_inurba_marseille","lat":43.24649,"lon":5.38897,"is_reserved":false,"is_disabled":false,"rental_uris":{"android":"levelo://app?vid=a6ccba7e-9308-4ed2-a835-3bedb780d755","ios":"levelo://app?vid=a6ccba7e-9308-4ed2-a835-3bedb780d755"},"vehicle_type_id":"4","last_reported":1740154258,"current_range_meters":20400,"station_id":"ce4bhg12rcd13ifvqf60","pricing_plan_id":"cebpf4jnsgd1na2vs0mg"},{"bike_id":"e74d5072-7eb6-4bd2-9ad7-0c67c05eee64","system_id":"levelo_inurba_marseille","lat":43.2656,"lon":5.39028,"is_reserved":false,"is_disabled":false,"rental_uris":{"android":"levelo://app?vid=e74d5072-7eb6-4bd2-9ad7-0c67c05eee64","ios":"levelo://app?vid=e74d5072-7eb6-4bd2-9ad7-0c67c05eee64"},"vehicle_type_id":"4","last_reported":1740154258,"current_range_meters":20800,"station_id":"ce4bhe12rcd13ifvqf30","pricing_plan_id":"cebpf4jnsgd1na2vs0mg"},{"bike_id":"105ea8ad-0d16-4875-9fde-e085311250f4","system_id":"levelo_inurba_marseille","lat":43.23199,"lon":5.35564,"is_reserved":false,"is_disabled":false,"rental_uris":{"android":"levelo://app?vid=105ea8ad-0d16-4875-9fde-e085311250f4","ios":"levelo://app?vid=105ea8ad-0d16-4875-9fde-e085311250f4"},"vehicle_type_id":"4","last_reported":1740154258,"current_range_meters":20800,"station_id":"ce4bhu92rcd13ifvqi70","pricing_plan_id":"cebpf4jnsgd1na2vs0mg"},{"bike_id":"21489318-d43e-4c5d-be7b-1f50adcb5eae","system_id":"levelo_inurba_marseille","lat":43.2749,"lon":5.42455,"is_reserved":false,"is_disabled":false,"rental_uris":{"android":"levelo://app?vid=21489318-d43e-4c5d-be7b-1f50adcb5eae","ios":"levelo://app?vid=21489318-d43e-4c5d-be7b-1f50adcb5eae"},"vehicle_type_id":"4","last_reported":1740154258,"current_range_meters":20800,"station_id":"ce4bhn92rcd13ifvqgrg","pricing_plan_id":"cebpf4jnsgd1na2vs0mg"},{"bike_id":"fcb4de08-c373-4c5d-a0d2-88032e74db12","system_id":"levelo_inurba_marseille","lat":43.25852,"lon":5.39915,"is_reserved":false,"is_disabled":false,"rental_uris":{"android":"levelo://app?vid=fcb4de08-c373-4c5d-a0d2-88032e74db12","ios":"levelo://app?vid=fcb4de08-c373-4c5d-a0d2-88032e74db12"},"vehicle_type_id":"4","last_reported":1740154258,"current_range_meters":20800,"station_id":"ce4bhl92rcd13ifvqghg","pricing_plan_id":"cebpf4jnsgd1na2vs0mg"},{"bike_id":"58c5c094-8fe1-45c6-906b-6644755e1b83","system_id":"levelo_inurba_marseille","lat":43.27181,"lon":5.40985,"is_reserved":false,"is_disabled":false,"rental_uris":{"android":"levelo://app?vid=58c5c094-8fe1-45c6-906b-6644755e1b83","ios":"levelo://app?vid=58c5c094-8fe1-45c6-906b-6644755e1b83"},"vehicle_type_id":"4","last_reported":1740154258,"current_range_meters":22000,"station_id":"ce4bhl12rcd13ifvqgf0","pricing_plan_id":"cebpf4jnsgd1na2vs0mg"},{"bike_id":"073518a5-4dc0-447e-9477-a67f73b2a5a2","system_id":"levelo_inurba_marseille","lat":43.32308,"lon":5.36668,"is_reserved":false,"is_disabled":false,"rental_uris":{"android":"levelo://app?vid=073518a5-4dc0-447e-9477-a67f73b2a5a2","ios":"levelo://app?vid=073518a5-4dc0-447e-9477-a67f73b2a5a2"},"vehicle_type_id":"4","last_reported":1740154258,"current_range_meters":20800,"station_id":"ce4bhsh2rcd13ifvqi2g","pricing_plan_id":"cebpf4jnsgd1na2vs0mg"},{"bike_id":"760b2e1b-a5df-4b5d-8051-47bb37bfa549","system_id":"levelo_inurba_marseille","lat":43.3233,"lon":5.36707,"is_reserved":false,"is_disabled":false,"rental_uris":{"android":"levelo://app?vid=760b2e1b-a5df-4b5d-8051-47bb37bfa549","ios":"levelo://app?vid=760b2e1b-a5df-4b5d-8051-47bb37bfa549"},"vehicle_type_id":"4","last_reported":1740154258,"current_range_meters":20800,"station_id":"ce4bhsh2rcd13ifvqi2g","pricing_plan_id":"cebpf4jnsgd1na2vs0mg"},{"bike_id":"620b8c9d-6568-45dd-8d61-8cf21a79ab46","system_id":"levelo_inurba_marseille","lat":43.321068,"lon":5.367776,"is_reserved":false,"is_disabled":false,"rental_uris":{"android":"levelo://app?vid=620b8c9d-6568-45dd-8d61-8cf21a79ab46","ios":"levelo://app?vid=620b8c9d-6568-45dd-8d61-8cf21a79ab46"},"vehicle_type_id":"4","last_reported":1740154258,"current_range_meters":20800,"station_id":"ce4bhrh2rcd13ifvqhug","pricing_plan_id":"cebpf4jnsgd1na2vs0mg"},{"bike_id":"3d50af08-957a-480b-aae3-b6d156b486c5","system_id":"levelo_inurba_marseille","lat":43.26569,"lon":5.39008,"is_reserved":false,"is_disabled":false,"rental_uris":{"android":"levelo://app?vid=3d50af08-957a-480b-aae3-b6d156b486c5","ios":"levelo://app?vid=3d50af08-957a-480b-aae3-b6d156b486c5"},"vehicle_type_id":"4","last_reported":1740154258,"current_range_meters":21600,"station_id":"ce4bhe12rcd13ifvqf30","pricing_plan_id":"cebpf4jnsgd1na2vs0mg"},{"bike_id":"37473efb-a5b8-4a40-88c3-9d530a119ecb","system_id":"levelo_inurba_marseille","lat":43.27171,"lon":5.40999,"is_reserved":false,"is_disabled":false,"rental_uris":{"android":"levelo://app?vid=37473efb-a5b8-4a40-88c3-9d530a119ecb","ios":"levelo://app?vid=37473efb-a5b8-4a40-88c3-9d530a119ecb"},"vehicle_type_id":"4","last_reported":1740154258,"current_range_meters":20000,"station_id":"ce4bhl12rcd13ifvqgf0","pricing_plan_id":"cebpf4jnsgd1na2vs0mg"},{"bike_id":"ecdd6133-8e52-47d9-b6c2-72144ad85ea3","system_id":"levelo_inurba_marseille","lat":43.26777,"lon":5.39422,"is_reserved":false,"is_disabled":false,"rental_uris":{"android":"levelo://app?vid=ecdd6133-8e52-47d9-b6c2-72144ad85ea3","ios":"levelo://app?vid=ecdd6133-8e52-47d9-b6c2-72144ad85ea3"},"vehicle_type_id":"4","last_reported":1740154258,"current_range_meters":22000,"station_id":"ce4bhh12rcd13ifvqfg0","pricing_plan_id":"cebpf4jnsgd1na2vs0mg"},{"bike_id":"fcfccb31-9a5b-4608-9581-aea3b1aa17f2","system_id":"levelo_inurba_marseille","lat":43.31366,"lon":5.37129,"is_reserved":false,"is_disabled":false,"rental_uris":{"android":"levelo://app?vid=fcfccb31-9a5b-4608-9581-aea3b1aa17f2","ios":"levelo://app?vid=fcfccb31-9a5b-4608-9581-aea3b1aa17f2"},"vehicle_type_id":"4","last_reported":1740154258,"current_range_meters":22000,"station_id":"","pricing_plan_id":"cebpf4jnsgd1na2vs0mg"},{"bike_id":"d35d2ebc-a0ea-4d8f-b32a-7f76662f5255","system_id":"levelo_inurba_marseille","lat":43.23962,"lon":5.36642,"is_reserved":false,"is_disabled":false,"rental_uris":{"android":"levelo://app?vid=d35d2ebc-a0ea-4d8f-b32a-7f76662f5255","ios":"levelo://app?vid=d35d2ebc-a0ea-4d8f-b32a-7f76662f5255"},"vehicle_type_id":"4","last_reported":1740154258,"current_range_meters":22000,"station_id":"ce4bhi12rcd13ifvqfp0","pricing_plan_id":"cebpf4jnsgd1na2vs0mg"},{"bike_id":"c4eb02bc-b3ce-4b5b-8fd3-50e6b547e2a0","system_id":"levelo_inurba_marseille","lat":43.27516,"lon":5.39578,"is_reserved":false,"is_disabled":false,"rental_uris":{"android":"levelo://app?vid=c4eb02bc-b3ce-4b5b-8fd3-50e6b547e2a0","ios":"levelo://app?vid=c4eb02bc-b3ce-4b5b-8fd3-50e6b547e2a0"},"vehicle_type_id":"4","last_reported":1740154258,"current_range_meters":22000,"station_id":"","pricing_plan_id":"cebpf4jnsgd1na2vs0mg"},{"bike_id":"a61f17fb-8b0f-4c36-85ad-d16151d94212","system_id":"levelo_inurba_marseille","lat":43.26029,"lon":5.37546,"is_reserved":false,"is_disabled":false,"rental_uris":{"android":"levelo://app?vid=a61f17fb-8b0f-4c36-85ad-d16151d94212","ios":"levelo://app?vid=a61f17fb-8b0f-4c36-85ad-d16151d94212"},"vehicle_type_id":"4","last_reported":1740154258,"current_range_meters":22000,"station_id":"ce4bhgh2rcd13ifvqfa0","pricing_plan_id":"cebpf4jnsgd1na2vs0mg"},{"bike_id":"33cc0fcb-f6e1-44bc-9328-d3f75a5791c5","system_id":"levelo_inurba_marseille","lat":43.23193,"lon":5.35553,"is_reserved":false,"is_disabled":false,"rental_uris":{"android":"levelo://app?vid=33cc0fcb-f6e1-44bc-9328-d3f75a5791c5","ios":"levelo://app?vid=33cc0fcb-f6e1-44bc-9328-d3f75a5791c5"},"vehicle_type_id":"4","last_reported":1740154258,"current_range_meters":22000,"station_id":"ce4bhu92rcd13ifvqi70","pricing_plan_id":"cebpf4jnsgd1na2vs0mg"},{"bike_id":"2f9febd6-faac-49ff-86cd-ed890f00c992","system_id":"levelo_inurba_marseille","lat":43.28466,"lon":5.3588,"is_reserved":false,"is_disabled":false,"rental_uris":{"android":"levelo://app?vid=2f9febd6-faac-49ff-86cd-ed890f00c992","ios":"levelo://app?vid=2f9febd6-faac-49ff-86cd-ed890f00c992"},"vehicle_type_id":"4","last_reported":1740154258,"current_range_meters":22000,"station_id":"ce4bhah2rcd13ifvqei0","pricing_plan_id":"cebpf4jnsgd1na2vs0mg"},{"bike_id":"f7c85ab8-55d5-4b98-bce4-eac5705e6e8c","system_id":"levelo_inurba_marseille","lat":43.29538,"lon":5.39032,"is_reserved":false,"is_disabled":false,"rental_uris":{"android":"levelo://app?vid=f7c85ab8-55d5-4b98-bce4-eac5705e6e8c","ios":"levelo://app?vid=f7c85ab8-55d5-4b98-bce4-eac5705e6e8c"},"vehicle_type_id":"4","last_reported":1740154258,"current_range_meters":22000,"station_id":"ce4bh3p2rcd13ifvqdp0","pricing_plan_id":"cebpf4jnsgd1na2vs0mg"},{"bike_id":"5ec8b478-a38a-4ac6-8488-7221a89bd8e7","system_id":"levelo_inurba_marseille","lat":43.2559,"lon":5.38243,"is_reserved":false,"is_disabled":false,"rental_uris":{"android":"levelo://app?vid=5ec8b478-a38a-4ac6-8488-7221a89bd8e7","ios":"levelo://app?vid=5ec8b478-a38a-4ac6-8488-7221a89bd8e7"},"vehicle_type_id":"4","last_reported":1740154258,"current_range_meters":22000,"station_id":"ce4bhih2rcd13ifvqfs0","pricing_plan_id":"cebpf4jnsgd1na2vs0mg"},{"bike_id":"58954c88-42ab-4c60-8844-f5e8ec59bc2c","system_id":"levelo_inurba_marseille","lat":43.24063,"lon":5.37753,"is_reserved":false,"is_disabled":false,"rental_uris":{"android":"levelo://app?vid=58954c88-42ab-4c60-8844-f5e8ec59bc2c","ios":"levelo://app?vid=58954c88-42ab-4c60-8844-f5e8ec59bc2c"},"vehicle_type_id":"4","last_reported":1740154258,"current_range_meters":22000,"station_id":"ce4bhnp2rcd13ifvqgvg","pricing_plan_id":"cebpf4jnsgd1na2vs0mg"},{"bike_id":"27a9adaf-acf8-4ae1-ad50-51346ba2eaf9","system_id":"levelo_inurba_marseille","lat":43.3013,"lon":5.37421,"is_reserved":false,"is_disabled":false,"rental_uris":{"android":"levelo://app?vid=27a9adaf-acf8-4ae1-ad50-51346ba2eaf9","ios":"levelo://app?vid=27a9adaf-acf8-4ae1-ad50-51346ba2eaf9"},"vehicle_type_id":"4","last_reported":1740154258,"current_range_meters":22000,"station_id":"ce4bgs92rcd13ifvqcc0","pricing_plan_id":"cebpf4jnsgd1na2vs0mg"},{"bike_id":"401bb8cf-8af8-4eaf-abf3-0e019b552fcb","system_id":"levelo_inurba_marseille","lat":43.27496,"lon":5.42457,"is_reserved":false,"is_disabled":false,"rental_uris":{"android":"levelo://app?vid=401bb8cf-8af8-4eaf-abf3-0e019b552fcb","ios":"levelo://app?vid=401bb8cf-8af8-4eaf-abf3-0e019b552fcb"},