{"last_updated":1737745583,"ttl":60,"version":"2.2","data":{"bikes":[{"bike_id":"71025e83-daff-40eb-8f70-b8e1fc9300fb","system_id":"levelo_inurba_marseille","lat":43.22934,"lon":5.35371,"is_reserved":false,"is_disabled":false,"rental_uris":{"android":"levelo://app?vid=71025e83-daff-40eb-8f70-b8e1fc9300fb","ios":"levelo://app?vid=71025e83-daff-40eb-8f70-b8e1fc9300fb"},"vehicle_type_id":"4","last_reported":1737745583,"current_range_meters":38800,"station_id":"cpo3532slgdg3j2ikp40","pricing_plan_id":"cebpf4jnsgd1na2vs0mg"},{"bike_id":"7bfef4e6-0cab-4775-bc5f-9c0ca03bd18f","system_id":"levelo_inurba_marseille","lat":43.291,"lon":5.3807,"is_reserved":false,"is_disabled":true,"rental_uris":{"android":"levelo://app?vid=7bfef4e6-0cab-4775-bc5f-9c0ca03bd18f","ios":"levelo://app?vid=7bfef4e6-0cab-4775-bc5f-9c0ca03bd18f"},"vehicle_type_id":"4","last_reported":1737745583,"current_range_meters":1200,"station_id":"ce4bh4p2rcd13ifvqe1g","pricing_plan_id":"cebpf4jnsgd1na2vs0mg"},{"bike_id":"83300955-a5d2-4afa-81d7-e3e697fa28cf","system_id":"levelo_inurba_marseille","lat":43.29566,"lon":5.37489,"is_reserved":false,"is_disabled":false,"rental_uris":{"android":"levelo://app?vid=83300955-a5d2-4afa-81d7-e3e697fa28cf","ios":"levelo://app?vid=83300955-a5d2-4afa-81d7-e3e697fa28cf"},"vehicle_type_id":"4","last_reported":1737745583,"current_range_meters":38000,"station_id":"ce4bgh92rcd13ifvqb50","pricing_plan_id":"cebpf4jnsgd1na2vs0mg"},{"bike_id":"22fdda07-29f7-4097-aa7c-457566d3caba","system_id":"levelo_inurba_marseille","lat":43.25081,"lon":5.3954,"is_reserved":false,"is_disabled":false,"rental_uris":{"android":"levelo://app?vid=22fdda07-29f7-4097-aa7c-457566d3caba","ios":"levelo://app?vid=22fdda07-29f7-4097-aa7c-457566d3caba"},"vehicle_type_id":"4","last_reported":1737745583,"current_range_meters":30400,"station_id":"ce4bhm12rcd13ifvqgkg","pricing_plan_id":"cebpf4jnsgd1na2vs0mg"},{"bike_id":"b8616eb9-d9e4-460f-807e-1357c1bfc7f2","system_id":"levelo_inurba_marseille","lat":43.24391,"lon":5.37041,"is_reserved":false,"is_disabled":false,"rental_uris":{"android":"levelo://app?vid=b8616eb9-d9e4-460f-807e-1357c1bfc7f2","ios":"levelo://app?vid=b8616eb9-d9e4-460f-807e-1357c1bfc7f2"},"vehicle_type_id":"4","last_reported":1737745583,"current_range_meters":39200,"station_id":"ce4bhhh2rcd13ifvqfk0","pricing_plan_id":"cebpf4jnsgd1na2vs0mg"},{"bike_id":"de1552f3-ec22-48bc-ae5c-8997b03c69f8","system_id":"levelo_inurba_marseille","lat":43.31886,"lon":5.407377,"is_reserved":false,"is_disabled":false,"rental_uris":{"android":"levelo://app?vid=de1552f3-ec22-48bc-ae5c-8997b03c69f8","ios":"levelo://app?vid=de1552f3-ec22-48bc-ae5c-8997b03c69f8"},"vehicle_type_id":"4","last_reported":1737745583,"current_range_meters":30400,"station_id":"ce4bhq12rcd13ifvqhig","pricing_plan_id":"cebpf4jnsgd1na2vs0mg"},{"bike_id":"58d9e3df-28a3-4560-b2cd-4d33fefbd544","system_id":"levelo_inurba_marseille","lat":43.28366,"lon":5.38116,"is_reserved":false,"is_disabled":false,"rental_uris":{"android":"levelo://app?vid=58d9e3df-28a3-4560-b2cd-4d33fefbd544","ios":"levelo://app?vid=58d9e3df-28a3-4560-b2cd-4d33fefbd544"},"vehicle_type_id":"4","last_reported":1737745583,"current_range_meters":25600,"station_id":"ce4bh412rcd13ifvqdr0","pricing_plan_id":"cebpf4jnsgd1na2vs0mg"},{"bike_id":"0793f05d-0029-4d54-a0fe-9c0436426db5","system_id":"levelo_inurba_marseille","lat":43.23204,"lon":5.35543,"is_reserved":false,"is_disabled":false,"rental_uris":{"android":"levelo://app?vid=0793f05d-0029-4d54-a0fe-9c0436426db5","ios":"levelo://app?vid=0793f05d-0029-4d54-a0fe-9c0436426db5"},"vehicle_type_id":"4","last_reported":1737745583,"current_range_meters":35200,"station_id":"ce4bhu92rcd13ifvqi70","pricing_plan_id":"cebpf4jnsgd1na2vs0mg"},{"bike_id":"2e69219e-a32a-45dd-bfbe-a39a3389fa1c","system_id":"levelo_inurba_marseille","lat":43.25072,"lon":5.39523,"is_reserved":false,"is_disabled":false,"rental_uris":{"android":"levelo://app?vid=2e69219e-a32a-45dd-bfbe-a39a3389fa1c","ios":"levelo://app?vid=2e69219e-a32a-45dd-bfbe-a39a3389fa1c"},"vehicle_type_id":"4","last_reported":1737745583,"current_range_meters":8000,"station_id":"ce4bhm12rcd13ifvqgkg","pricing_plan_id":"cebpf4jnsgd1na2vs0mg"},{"bike_id":"4914872c-162c-4b5d-a9af-cff65f389580","system_id":"levelo_inurba_marseille","lat":43.296,"lon":5.38089,"is_reserved":false,"is_disabled":true,"rental_uris":{"android":"levelo://app?vid=4914872c-162c-4b5d-a9af-cff65f389580","ios":"levelo://app?vid=4914872c-162c-4b5d-a9af-cff65f389580"},"vehicle_type_id":"4","last_reported":1737745583,"current_range_meters":3600,"station_id":"ce4bgl12rcd13ifvqbo0","pricing_plan_id":"cebpf4jnsgd1na2vs0mg"},{"bike_id":"7dd594b9-acaa-45af-9e39-39c548a96df9","system_id":"levelo_inurba_marseille","lat":43.28472,"lon":5.38531,"is_reserved":false,"is_disabled":false,"rental_uris":{"android":"levelo://app?vid=7dd594b9-acaa-45af-9e39-39c548a96df9","ios":"levelo://app?vid=7dd594b9-acaa-45af-9e39-39c548a96df9"},"vehicle_type_id":"4","last_reported":1737745583,"current_range_meters":20800,"station_id":"ce4bh8p2rcd13ifvqeb0","pricing_plan_id":"cebpf4jnsgd1na2vs0mg"},{"bike_id":"78f1bcbe-297f-4d89-be9d-ff7c664d65b5","system_id":"levelo_inurba_marseille","lat":43.27193,"lon":5.40973,"is_reserved":false,"is_disabled":false,"rental_uris":{"android":"levelo://app?vid=78f1bcbe-297f-4d89-be9d-ff7c664d65b5","ios":"levelo://app?vid=78f1bcbe-297f-4d89-be9d-ff7c664d65b5"},"vehicle_type_id":"4","last_reported":1737745583,"current_range_meters":12000,"station_id":"ce4bhl12rcd13ifvqgf0","pricing_plan_id":"cebpf4jnsgd1na2vs0mg"},{"bike_id":"8404d416-0cdd-42b3-b1d9-4024b2770bb7","system_id":"levelo_inurba_marseille","lat":43.26223,"lon":5.37462,"is_reserved":false,"is_disabled":false,"rental_uris":{"android":"levelo://app?vid=8404d416-0cdd-42b3-b1d9-4024b2770bb7","ios":"levelo://app?vid=8404d416-0cdd-42b3-b1d9-4024b2770bb7"},"vehicle_type_id":"4","last_reported":1737745583,"current_range_meters":38800,"station_id":"ce4bhgp2rcd13ifvqfc0","pricing_plan_id":"cebpf4jnsgd1na2vs0mg"},{"bike_id":"b99bdc17-8767-4fef-8051-a47f3a3049f5","system_id":"levelo_inurba_marseille","lat":43.28726,"lon":5.37938,"is_reserved":false,"is_disabled":false,"rental_uris":{"android":"levelo://app?vid=b99bdc17-8767-4fef-8051-a47f3a3049f5","ios":"levelo://app?vid=b99bdc17-8767-4fef-8051-a47f3a3049f5"},"vehicle_type_id":"4","last_reported":1737745583,"current_range_meters":20000,"station_id":"ce4bh9p2rcd13ifvqec0","pricing_plan_id":"cebpf4jnsgd1na2vs0mg"},{"bike_id":"eadecfe8-1294-4c6c-a688-c77357028c6c","system_id":"levelo_inurba_marseille","lat":43.28415,"lon":5.37507,"is_reserved":false,"is_disabled":false,"rental_uris":{"android":"levelo://app?vid=eadecfe8-1294-4c6c-a688-c77357028c6c","ios":"levelo://app?vid=eadecfe8-1294-4c6c-a688-c77357028c6c"},"vehicle_type_id":"4","last_reported":1737745583,"current_range_meters":36800,"station_id":"ce4bh412rcd13ifvqds0","pricing_plan_id":"cebpf4jnsgd1na2vs0mg"},{"bike_id":"6e0e02f5-b0ae-450f-ad77-51511a2e44cf","system_id":"levelo_inurba_marseille","lat":43.30935,"lon":5.4014,"is_reserved":false,"is_disabled":true,"rental_uris":{"android":"levelo://app?vid=6e0e02f5-b0ae-450f-ad77-51511a2e44cf","ios":"levelo://app?vid=6e0e02f5-b0ae-450f-ad77-51511a2e44cf"},"vehicle_type_id":"4","last_reported":1737745583,"current_range_meters":24000,"station_id":"ce4bgvp2rcd13ifvqct0","pricing_plan_id":"cebpf4jnsgd1na2vs0mg"},{"bike_id":"8227bacd-f17c-49e3-930a-14ebf762a81a","system_id":"levelo_inurba_marseille","lat":43.29106,"lon":5.37127,"is_reserved":false,"is_disabled":false,"rental_uris":{"android":"levelo://app?vid=8227bacd-f17c-49e3-930a-14ebf762a81a","ios":"levelo://app?vid=8227bacd-f17c-49e3-930a-14ebf762a81a"},"vehicle_type_id":"4","last_reported":1737745583,"current_range_meters":36400,"station_id":"ce4bh5p2rcd13ifvqe4g","pricing_plan_id":"cebpf4jnsgd1na2vs0mg"},{"bike_id":"59484627-97e0-4b2b-b7b6-2023bd4dd456","system_id":"levelo_inurba_marseille","lat":43.2941,"lon":5.38627,"is_reserved":false,"is_disabled":false,"rental_uris":{"android":"levelo://app?vid=59484627-97e0-4b2b-b7b6-2023bd4dd456","ios":"levelo://app?vid=59484627-97e0-4b2b-b7b6-2023bd4dd456"},"vehicle_type_id":"4","last_reported":1737745583,"current_range_meters":38800,"station_id":"ce4bh2h2rcd13ifvqdh0","pricing_plan_id":"cebpf4jnsgd1na2vs0mg"},{"bike_id":"2ca5ee94-b27e-4927-be40-fa8b2704e89c","system_id":"levelo_inurba_marseille","lat":43.29162,"lon":5.37152,"is_reserved":false,"is_disabled":false,"rental_uris":{"android":"levelo://app?vid=2ca5ee94-b27e-4927-be40-fa8b2704e89c","ios":"levelo://app?vid=2ca5ee94-b27e-4927-be40-fa8b2704e89c"},"vehicle_type_id":"4","last_reported":1737745583,"current_range_meters":10800,"station_id":"ce4bha92rcd13ifvqeh0","pricing_plan_id":"cebpf4jnsgd1na2vs0mg"},{"bike_id":"6df7f438-e9a2-4488-b4c5-ad9c2cc83bb9","system_id":"levelo_inurba_marseille","lat":43.260332,"lon":5.375542,"is_reserved":false,"is_disabled":false,"rental_uris":{"android":"levelo://app?vid=6df7f438-e9a2-4488-b4c5-ad9c2cc83bb9","ios":"levelo://app?vid=6df7f438-e9a2-4488-b4c5-ad9c2cc83bb9"},"vehicle_type_id":"4","last_reported":1737745583,"current_range_meters":38000,"station_id":"ce4bhgh2rcd13ifvqfa0","pricing_plan_id":"cebpf4jnsgd1na2vs0mg"},{"bike_id":"4cb57964-d39e-4dee-99a7-ea97ba59afc3","system_id":"levelo_inurba_marseille","lat":43.29169,"lon":5.37142,"is_reserved":false,"is_disabled":false,"rental_uris":{"android":"levelo://app?vid=4cb57964-d39e-4dee-99a7-ea97ba59afc3","ios":"levelo://app?vid=4cb57964-d39e-4dee-99a7-ea97ba59afc3"},"vehicle_type_id":"4","last_reported":1737745583,"current_range_meters":6800,"station_id":"ce4bha92rcd13ifvqeh0","pricing_plan_id":"cebpf4jnsgd1na2vs0mg"},{"bike_id":"c6921d81-33e1-4a54-b7ba-8498e86638d0","system_id":"levelo_inurba_marseille","lat":43.29633,"lon":5.4059,"is_reserved":false,"is_disabled":false,"rental_uris":{"android":"levelo://app?vid=c6921d81-33e1-4a54-b7ba-8498e86638d0","ios":"levelo://app?vid=c6921d81-33e1-4a54-b7ba-8498e86638d0"},"vehicle_type_id":"4","last_reported":1737745583,"current_range_meters":36000,"station_id":"ce4bh0h2rcd13ifvqd60","pricing_plan_id":"cebpf4jnsgd1na2vs0mg"},{"bike_id":"2cbab7d8-015e-4f7d-8d2b-a9d568bc9fde","system_id":"levelo_inurba_marseille","lat":43.29302,"lon":5.37461,"is_reserved":false,"is_disabled":false,"rental_uris":{"android":"levelo://app?vid=2cbab7d8-015e-4f7d-8d2b-a9d568bc9fde","ios":"levelo://app?vid=2cbab7d8-015e-4f7d-8d2b-a9d568bc9fde"},"vehicle_type_id":"4","last_reported":1737745583,"current_range_meters":27200,"station_id":"ce4bgi12rcd13ifvqb70","pricing_plan_id":"cebpf4jnsgd1na2vs0mg"},{"bike_id":"a0d0c51c-c6b2-4319-a9ec-fc53968ce78a","system_id":"levelo_inurba_marseille","lat":43.29298,"lon":5.37458,"is_reserved":false,"is_disabled":false,"rental_uris":{"android":"levelo://app?vid=a0d0c51c-c6b2-4319-a9ec-fc53968ce78a","ios":"levelo://app?vid=a0d0c51c-c6b2-4319-a9ec-fc53968ce78a"},"vehicle_type_id":"4","last_reported":1737745583,"current_range_meters":30400,"station_id":"ce4bgi12rcd13ifvqb70","pricing_plan_id":"cebpf4jnsgd1na2vs0mg"},{"bike_id":"6a930423-4652-4376-b46a-4ab8ca54efc0","system_id":"levelo_inurba_marseille","lat":43.27808,"lon":5.40705,"is_reserved":false,"is_disabled":false,"rental_uris":{"android":"levelo://app?vid=6a930423-4652-4376-b46a-4ab8ca54efc0","ios":"levelo://app?vid=6a930423-4652-4376-b46a-4ab8ca54efc0"},"vehicle_type_id":"4","last_reported":1737745583,"current_range_meters":8400,"station_id":"ce4bhnh2rcd13ifvqgtg","pricing_plan_id":"cebpf4jnsgd1na2vs0mg"},{"bike_id":"dcb62368-e3a3-4495-87b6-534b490cd130","system_id":"levelo_inurba_marseille","lat":43.31496,"lon":5.37311,"is_reserved":false,"is_disabled":false,"rental_uris":{"android":"levelo://app?vid=dcb62368-e3a3-4495-87b6-534b490cd130","ios":"levelo://app?vid=dcb62368-e3a3-4495-87b6-534b490cd130"},"vehicle_type_id":"4","last_reported":1737745583,"current_range_meters":19200,"station_id":"ce4bgt12rcd13ifvqcd0","pricing_plan_id":"cebpf4jnsgd1na2vs0mg"},{"bike_id":"92c5c293-a29e-4dc5-9b3d-720e29155faf","system_id":"levelo_inurba_marseille","lat":43.32548,"lon":5.41437,"is_reserved":false,"is_disabled":false,"rental_uris":{"android":"levelo://app?vid=92c5c293-a29e-4dc5-9b3d-720e29155faf","ios":"levelo://app?vid=92c5c293-a29e-4dc5-9b3d-720e29155faf"},"vehicle_type_id":"4","last_reported":1737745583,"current_range_meters":27600,"station_id":"ce4bhq12rcd13ifvqhhg","pricing_plan_id":"cebpf4jnsgd1na2vs0mg"},{"bike_id":"0df706ce-41ac-4767-b5b2-4c6f523c8dd1","system_id":"levelo_inurba_marseille","lat":43.29622,"lon":5.37151,"is_reserved":false,"is_disabled":false,"rental_uris":{"android":"levelo://app?vid=0df706ce-41ac-4767-b5b2-4c6f523c8dd1","ios":"levelo://app?vid=0df706ce-41ac-4767-b5b2-4c6f523c8dd1"},"vehicle_type_id":"4","last_reported":1737745583,"current_range_meters":12400,"station_id":"ce4bgnh2rcd13ifvqc0g","pricing_plan_id":"cebpf4jnsgd1na2vs0mg"},{"bike_id":"7ff41bb0-58bb-4e7a-856f-2a2aba66f15e","system_id":"levelo_inurba_marseille","lat":43.31713,"lon":5.43701,"is_reserved":false,"is_disabled":false,"rental_uris":{"android":"levelo://app?vid=7ff41bb0-58bb-4e7a-856f-2a2aba66f15e","ios":"levelo://app?vid=7ff41bb0-58bb-4e7a-856f-2a2aba66f15e"},"vehicle_type_id":"4","last_reported":1737745583,"current_range_meters":39200,"station_id":"ce4bhp92rcd13ifvqhcg","pricing_plan_id":"cebpf4jnsgd1na2vs0mg"},{"bike_id":"799818e8-263b-4acc-a4c0-b732b7fa92e7","system_id":"levelo_inurba_marseille","lat":43.32289,"lon":5.38257,"is_reserved":false,"is_disabled":false,"rental_uris":{"android":"levelo://app?vid=799818e8-263b-4acc-a4c0-b732b7fa92e7","ios":"levelo://app?vid=799818e8-263b-4acc-a4c0-b732b7fa92e7"},"vehicle_type_id":"4","last_reported":1737745583,"current_range_meters":39200,"station_id":"ce4bhr12rcd13ifvqhqg","pricing_plan_id":"cebpf4jnsgd1na2vs0mg"},{"bike_id":"33212428-1cba-42fb-a50c-8ed30d148dcd","system_id":"levelo_inurba_marseille","lat":43.2925,"lon":5.4092,"is_reserved":false,"is_disabled":false,"rental_uris":{"android":"levelo://app?vid=33212428-1cba-42fb-a50c-8ed30d148dcd","ios":"levelo://app?vid=33212428-1cba-42fb-a50c-8ed30d148dcd"},"vehicle_type_id":"4","last_reported":1737745583,"current_range_meters":36400,"station_id":"ce4bh192rcd13ifvqdc0","pricing_plan_id":"cebpf4jnsgd1na2vs0mg"},{"bike_id":"279ff178-689e-45a0-a76a-a6380ff903e0","system_id":"levelo_inurba_marseille","lat":43.29188,"lon":5.39311,"is_reserved":false,"is_disabled":false,"rental_uris":{"android":"levelo://app?vid=279ff178-689e-45a0-a76a-a6380ff903e0","ios":"levelo://app?vid=279ff178-689e-45a0-a76a-a6380ff903e0"},"vehicle_type_id":"4","last_reported":1737745583,"current_range_meters":22800,"station_id":"ce4bh192rcd13ifvqdd0","pricing_plan_id":"cebpf4jnsgd1na2vs0mg"},{"bike_id":"9c68c8bf-62ec-4237-9001-9a4a58d8d4bb","system_id":"levelo_inurba_marseille","lat":43.26196,"lon":5.37445,"is_reserved":false,"is_disabled":false,"rental_uris":{"android":"levelo://app?vid=9c68c8bf-62ec-4237-9001-9a4a58d8d4bb","ios":"levelo://app?vid=9c68c8bf-62ec-4237-9001-9a4a58d8d4bb"},"vehicle_type_id":"4","last_reported":1737745583,"current_range_meters":14800,"station_id":"ce4bhgp2rcd13ifvqfc0","pricing_plan_id":"cebpf4jnsgd1na2vs0mg"},{"bike_id":"8661fa71-f537-4d5c-9336-0782f8f3e344","system_id":"levelo_inurba_marseille","lat":43.29303,"lon":5.37454,"is_reserved":false,"is_disabled":false,"rental_uris":{"android":"levelo://app?vid=8661fa71-f537-4d5c-9336-0782f8f3e344","ios":"levelo://app?vid=8661fa71-f537-4d5c-9336-0782f8f3e344"},"vehicle_type_id":"4","last_reported":1737745583,"current_range_meters":38400,"station_id":"ce4bgi12rcd13ifvqb70","pricing_plan_id":"cebpf4jnsgd1na2vs0mg"},{"bike_id":"e6b213b4-805d-4e7f-8a4e-139a0766bb8a","system_id":"levelo_inurba_marseille","lat":43.29258,"lon":5.38447,"is_reserved":false,"is_disabled":false,"rental_uris":{"android":"levelo://app?vid=e6b213b4-805d-4e7f-8a4e-139a0766bb8a","ios":"levelo://app?vid=e6b213b4-805d-4e7f-8a4e-139a0766bb8a"},"vehicle_type_id":"4","last_reported":1737745583,"current_range_meters":35600,"station_id":"ce4bh692rcd13ifvqea0","pricing_plan_id":"cebpf4jnsgd1na2vs0mg"},{"bike_id":"d83d411c-7712-4fb8-9244-dfd06a094d9d","system_id":"levelo_inurba_marseille","lat":43.30309,"lon":5.36867,"is_reserved":false,"is_disabled":false,"rental_uris":{"android":"levelo://app?vid=d83d411c-7712-4fb8-9244-dfd06a094d9d","ios":"levelo://app?vid=d83d411c-7712-4fb8-9244-dfd06a094d9d"},"vehicle_type_id":"4","last_reported":1737745583,"current_range_meters":17600,"station_id":"ce4bgqh2rcd13ifvqc5g","pricing_plan_id":"cebpf4jnsgd1na2vs0mg"},{"bike_id":"afa1791a-153b-461d-be69-7b28da55753e","system_id":"levelo_inurba_marseille","lat":43.29267,"lon":5.38438,"is_reserved":false,"is_disabled":false,"rental_uris":{"android":"levelo://app?vid=afa1791a-153b-461d-be69-7b28da55753e","ios":"levelo://app?vid=afa1791a-153b-461d-be69-7b28da55753e"},"vehicle_type_id":"4","last_reported":1737745583,"current_range_meters":32000,"station_id":"ce4bh692rcd13ifvqea0","pricing_plan_id":"cebpf4jnsgd1na2vs0mg"},{"bike_id":"89ce678c-efc7-4c2c-b392-207545cf1143","system_id":"levelo_inurba_marseille","lat":43.29713,"lon":5.36617,"is_reserved":false,"is_disabled":false,"rental_uris":{"android":"levelo://app?vid=89ce678c-efc7-4c2c-b392-207545cf1143","ios":"levelo://app?vid=89ce678c-efc7-4c2c-b392-207545cf1143"},"vehicle_type_id":"4","last_reported":1737745583,"current_range_meters":20000,"station_id":"ce4bgn12rcd13ifvqbt0","pricing_plan_id":"cebpf4jnsgd1na2vs0mg"},{"bike_id":"eb424cc0-2179-4809-b0f1-219aad9fa9bf","system_id":"levelo_inurba_marseille","lat":43.32267,"lon":5.36782,"is_reserved":false,"is_disabled":false,"rental_uris":{"android":"levelo://app?vid=eb424cc0-2179-4809-b0f1-219aad9fa9bf","ios":"levelo://app?vid=eb424cc0-2179-4809-b0f1-219aad9fa9bf"},"vehicle_type_id":"4","last_reported":1737745583,"current_range_meters":27200,"station_id":"ce4bhsh2rcd13ifvqi2g","pricing_plan_id":"cebpf4jnsgd1na2vs0mg"},{"bike_id":"637a0bb2-a55a-416c-9508-60b818c41dbe","system_id":"levelo_inurba_marseille","lat":43.24996,"lon":5.38925,"is_reserved":false,"is_disabled":false,"rental_uris":{"android":"levelo://app?vid=637a0bb2-a55a-416c-9508-60b818c41dbe","ios":"levelo://app?vid=637a0bb2-a55a-416c-9508-60b818c41dbe"},"vehicle_type_id":"4","last_reported":1737745583,"current_range_meters":38800,"station_id":"ce4bhgp2rcd13ifvqfd0","pricing_plan_id":"cebpf4jnsgd1na2vs0mg"},{"bike_id":"26272cfd-3678-439f-89d5-8bce65c24a79","system_id":"levelo_inurba_marseille","lat":43.26812,"lon":5.40261,"is_reserved":false,"is_disabled":true,"rental_uris":{"android":"levelo://app?vid=26272cfd-3678-439f-89d5-8bce65c24a79","ios":"levelo://app?vid=26272cfd-3678-439f-89d5-8bce65c24a79"},"vehicle_type_id":"4","last_reported":1737745583,"current_range_meters":0,"station_id":"ce501612rcd8frsf0b60","pricing_plan_id":"cebpf4jnsgd1na2vs0mg"},{"bike_id":"767ff992-8d59-4bfd-9992-d22c3517f31f","system_id":"levelo_inurba_marseille","lat":43.29258,"lon":5.38455,"is_reserved":false,"is_disabled":false,"rental_uris":{"android":"levelo://app?vid=767ff992-8d59-4bfd-9992-d22c3517f31f","ios":"levelo://app?vid=767ff992-8d59-4bfd-9992-d22c3517f31f"},"vehicle_type_id":"4","last_reported":1737745583,"current_range_meters":8000,"station_id":"ce4bh692rcd13ifvqea0","pricing_plan_id":"cebpf4jnsgd1na2vs0mg"},{"bike_id":"c491b9d7-9629-4215-bdb7-4fec9c846c78","system_id":"levelo_inurba_marseille","lat":43.31757,"lon":5.39035,"is_reserved":false,"is_disabled":false,"rental_uris":{"android":"levelo://app?vid=c491b9d7-9629-4215-bdb7-4fec9c846c78","ios":"levelo://app?vid=c491b9d7-9629-4215-bdb7-4fec9c846c78"},"vehicle_type_id":"4","last_reported":1737745583,"current_range_meters":36000,"station_id":"ce4bhqp2rcd13ifvqhng","pricing_plan_id":"cebpf4jnsgd1na2vs0mg"},{"bike_id":"3608a3cf-49c3-46d4-b709-f8e9629a9213","system_id":"levelo_inurba_marseille","lat":43.24654,"lon":5.3891,"is_reserved":false,"is_disabled":false,"rental_uris":{"android":"levelo://app?vid=3608a3cf-49c3-46d4-b709-f8e9629a9213","ios":"levelo://app?vid=3608a3cf-49c3-46d4-b709-f8e9629a9213"},"vehicle_type_id":"4","last_reported":1737745583,"current_range_meters":8000,"station_id":"ce4bhg12rcd13ifvqf60","pricing_plan_id":"cebpf4jnsgd1na2vs0mg"},{"bike_id":"19ba425c-824b-4731-b310-b504a9ef75cd","system_id":"levelo_inurba_marseille","lat":43.29864,"lon":5.39745,"is_reserved":false,"is_disabled":false,"rental_uris":{"android":"levelo://app?vid=19ba425c-824b-4731-b310-b504a9ef75cd","ios":"levelo://app?vid=19ba425c-824b-4731-b310-b504a9ef75cd"},"vehicle_type_id":"4","last_reported":1737745583,"current_range_meters":37600,"station_id":"ce4bh0h2rcd13ifvqd50","pricing_plan_id":"cebpf4jnsgd1na2vs0mg"},{"bike_id":"e91204e9-d4fe-4e30-81a6-71464f86006e","system_id":"levelo_inurba_marseille","lat":43.29917,"lon":5.38115,"is_reserved":false,"is_disabled":true,"rental_uris":{"android":"levelo://app?vid=e91204e9-d4fe-4e30-81a6-71464f86006e","ios":"levelo://app?vid=e91204e9-d4fe-4e30-81a6-71464f86006e"},"vehicle_type_id":"4","last_reported":1737745583,"current_range_meters":38400,"station_id":"ce4bgj12rcd13ifvqbc0","pricing_plan_id":"cebpf4jnsgd1na2vs0mg"},{"bike_id":"483bf811-6a94-4fe7-9f0d-cb4db9722c49","system_id":"levelo_inurba_marseille","lat":43.291673,"lon":5.371653,"is_reserved":false,"is_disabled":false,"rental_uris":{"android":"levelo://app?vid=483bf811-6a94-4fe7-9f0d-cb4db9722c49","ios":"levelo://app?vid=483bf811-6a94-4fe7-9f0d-cb4db9722c49"},"vehicle_type_id":"4","last_reported":1737745583,"current_range_meters":38800,"station_id":"ce4bha92rcd13ifvqeh0","pricing_plan_id":"cebpf4jnsgd1na2vs0mg"},{"bike_id":"aec4a798-b961-43bd-98ea-314126dd9676","system_id":"levelo_inurba_marseille","lat":43.29881,"lon":5.39746,"is_reserved":false,"is_disabled":false,"rental_uris":{"android":"levelo://app?vid=aec4a798-b961-43bd-98ea-314126dd9676","ios":"levelo://app?vid=aec4a798-b961-43bd-98ea-314126dd9676"},"vehicle_type_id":"4","last_reported":1737745583,"current_range_meters":36800,"station_id":"ce4bh0h2rcd13ifvqd50","pricing_plan_id":"cebpf4jnsgd1na2vs0mg"},{"bike_id":"1ceb8c63-17a1-4dc2-90e1-9ee2c3d9f714","system_id":"levelo_inurba_marseille","lat":43.26863,"lon":5.40288,"is_reserved":false,"is_disabled":false,"rental_uris":{"android":"levelo://app?vid=1ceb8c63-17a1-4dc2-90e1-9ee2c3d9f714","ios":"levelo://app?vid=1ceb8c63-17a1-4dc2-90e1-9ee2c3d9f714"},"vehicle_type_id":"4","last_reported":1737745583,"current_range_meters":38800,"station_id":"cjm6bp8fraef2m0cb0m0","pricing_plan_id":"cebpf4jnsgd1na2vs0mg"},{"bike_id":"80351458-c000-4359-99a8-e482078e6471","system_id":"levelo_inurba_marseille","lat":43.29568,"lon":5.39909,"is_reserved":false,"is_disabled":false,"rental_uris":{"android":"levelo://app?vid=80351458-c000-4359-99a8-e482078e6471","ios":"levelo://app?vid=80351458-c000-4359-99a8-e482078e6471"},"vehicle_type_id":"4","last_reported":1737745583,"current_range_meters":28800,"station_id":"ce4bh312rcd13ifvqdj0","pricing_plan_id":"cebpf4jnsgd1na2vs0mg"},{"bike_id":"e934106f-df69-4f7a-abb1-bbdf8c1ccda4","system_id":"levelo_inurba_marseille","lat":43.29533,"lon":5.38543,"is_reserved":false,"is_disabled":false,"rental_uris":{"android":"levelo://app?vid=e934106f-df69-4f7a-abb1-bbdf8c1ccda4","ios":"levelo://app?vid=e934106f-df69-4f7a-abb1-bbdf8c1ccda4"},"vehicle_type_id":"4","last_reported":1737745583,"current_range_meters":14400,"station_id":"ce4bgih2rcd13ifvqba0","pricing_plan_id":"cebpf4jnsgd1na2vs0mg"},{"bike_id":"6d1c7757-cbfa-452f-8195-daacd34f212b","system_id":"levelo_inurba_marseille","lat":43.23069,"lon":5.35491,"is_reserved":false,"is_disabled":false,"rental_uris":{"android":"levelo://app?vid=6d1c7757-cbfa-452f-8195-daacd34f212b","ios":"levelo://app?vid=6d1c7757-cbfa-452f-8195-daacd34f212b"},"vehicle_type_id":"4","last_reported":1737745583,"current_range_meters":38800,"station_id":"cpo3342slgdg3j2ifvpg","pricing_plan_id":"cebpf4jnsgd1na2vs0mg"},{"bike_id":"db1620fc-2e5a-411f-b7de-f4bb2f0c5bc9","system_id":"levelo_inurba_marseille","lat":43.29972,"lon":5.38489,"is_reserved":false,"is_disabled":false,"rental_uris":{"android":"levelo://app?vid=db1620fc-2e5a-411f-b7de-f4bb2f0c5bc9","ios":"levelo://app?vid=db1620fc-2e5a-411f-b7de-f4bb2f0c5bc9"},"vehicle_type_id":"4","last_reported":1737745583,"current_range_meters":6400,"station_id":"ce4bgj92rcd13ifvqbd0","pricing_plan_id":"cebpf4jnsgd1na2vs0mg"},{"bike_id":"34aa6db6-d08c-4f6b-ad5e-1bad446eaa72","system_id":"levelo_inurba_marseille","lat":43.23181,"lon":5.39988,"is_reserved":false,"is_disabled":false,"rental_uris":{"android":"levelo://app?vid=34aa6db6-d08c-4f6b-ad5e-1bad446eaa72","ios":"levelo://app?vid=34aa6db6-d08c-4f6b-ad5e-1bad446eaa72"},"vehicle_type_id":"4","last_reported":1737745583,"current_range_meters":5600,"station_id":"ce4bhn12rcd13ifvqgqg","pricing_plan_id":"cebpf4jnsgd1na2vs0mg"},{"bike_id":"230b9530-8756-4893-91c9-417d4f8f1ad3","system_id":"levelo_inurba_marseille","lat":43.26501,"lon":5.39532,"is_reserved":false,"is_disabled":true,"rental_uris":{"android":"levelo://app?vid=230b9530-8756-4893-91c9-417d4f8f1ad3","ios":"levelo://app?vid=230b9530-8756-4893-91c9-417d4f8f1ad3"},"vehicle_type_id":"4","last_reported":1737745583,"current_range_meters":0,"station_id":"ce4bhi12rcd13ifvqfq0","pricing_plan_id":"cebpf4jnsgd1na2vs0mg"},{"bike_id":"f253fc82-7ca1-4c38-a41a-566478bb536e","system_id":"levelo_inurba_marseille","lat":43.28036,"lon":5.36945,"is_reserved":false,"is_disabled":false,"rental_uris":{"android":"levelo://app?vid=f253fc82-7ca1-4c38-a41a-566478bb536e","ios":"levelo://app?vid=f253fc82-7ca1-4c38-a41a-566478bb536e"},"vehicle_type_id":"4","last_reported":1737745583,"current_range_meters":38800,"station_id":"ce4bha12rcd13ifvqef0","pricing_plan_id":"cebpf4jnsgd1na2vs0mg"},{"bike_id":"c287a3ed-5ab1-4fe0-a917-cf5ecb40f512","system_id":"levelo_inurba_marseille","lat":43.29269,"lon":5.38437,"is_reserved":false,"is_disabled":true,"rental_uris":{"android":"levelo://app?vid=c287a3ed-5ab1-4fe0-a917-cf5ecb40f512","ios":"levelo://app?vid=c287a3ed-5ab1-4fe0-a917-cf5ecb40f512"},"vehicle_type_id":"4","last_reported":1737745583,"current_range_meters":20800,"station_id":"ce4bh692rcd13ifvqea0","pricing_plan_id":"cebpf4jnsgd1na2vs0mg"},{"bike_id":"9838cc78-2b53-49d3-ae13-82df62c4fd64","system_id":"levelo_inurba_marseille","lat":43.28419,"lon":5.40935,"is_reserved":false,"is_disabled":true,"rental_uris":{"android":"levelo://app?vid=9838cc78-2b53-49d3-ae13-82df62c4fd64","ios":"levelo://app?vid=9838cc78-2b53-49d3-ae13-82df62c4fd64"},"vehicle_type_id":"4","last_reported":1737745583,"current_range_meters":0,"station_id":"","pricing_plan_id":"cebpf4jnsgd1na2vs0mg"},{"bike_id":"b5ad4b99-a6c6-4678-b05b-95f501767eee","system_id":"levelo_inurba_marseille","lat":43.30258,"lon":5.40072,"is_reserved":false,"is_disabled":false,"rental_uris":{"android":"levelo://app?vid=b5ad4b99-a6c6-4678-b05b-95f501767eee","ios":"levelo://app?vid=b5ad4b99-a6c6-4678-b05b-95f501767eee"},"vehicle_type_id":"4","last_reported":1737745583,"current_range_meters":38800,"station_id":"ce4bgvh2rcd13ifvqcs0","pricing_plan_id":"cebpf4jnsgd1na2vs0mg"},{"bike_id":"d6db8360-7a7b-4a5e-8c3e-ee74b2a817ee","system_id":"levelo_inurba_marseille","lat":43.31718,"lon":5.37745,"is_reserved":false,"is_disabled":false,"rental_uris":{"android":"levelo://app?vid=d6db8360-7a7b-4a5e-8c3e-ee74b2a817ee","ios":"levelo://app?vid=d6db8360-7a7b-4a5e-8c3e-ee74b2a817ee"},"vehicle_type_id":"4","last_reported":1737745583,"current_range_meters":13600,"station_id":"ce4bgth2rcd13ifvqch0","pricing_plan_id":"cebpf4jnsgd1na2vs0mg"},{"bike_id":"de1a3014-e75b-478f-bdd7-4e4e47dea1ca","system_id":"levelo_inurba_marseille","lat":43.31364,"lon":5.38493,"is_reserved":false,"is_disabled":false,"rental_uris":{"android":"levelo://app?vid=de1a3014-e75b-478f-bdd7-4e4e47dea1ca","ios":"levelo://app?vid=de1a3014-e75b-478f-bdd7-4e4e47dea1ca"},"vehicle_type_id":"4","last_reported":1737745583,"current_range_meters":10800,"station_id":"ce4bgt92rcd13ifvqcf0","pricing_plan_id":"cebpf4jnsgd1na2vs0mg"},{"bike_id":"bf096a89-ee72-4f37-85bd-7b3cf9f0cb41","system_id":"levelo_inurba_marseille","lat":43.31942,"lon":5.37903,"is_reserved":false,"is_disabled":false,"rental_uris":{"android":"levelo://app?vid=bf096a89-ee72-4f37-85bd-7b3cf9f0cb41","ios":"levelo://app?vid=bf096a89-ee72-4f37-85bd-7b3cf9f0cb41"},"vehicle_type_id":"4","last_reported":1737745583,"current_range_meters":34000,"station_id":"","pricing_plan_id":"cebpf4jnsgd1na2vs0mg"},{"bike_id":"772abf9e-1f57-4ab2-95f9-bc070d170237","system_id":"levelo_inurba_marseille","lat":43.29259,"lon":5.38451,"is_reserved":false,"is_disabled":false,"rental_uris":{"android":"levelo://app?vid=772abf9e-1f57-4ab2-95f9-bc070d170237","ios":"levelo://app?vid=772abf9e-1f57-4ab2-95f9-bc070d170237"},"vehicle_type_id":"4","last_reported":1737745583,"current_range_meters":21600,"station_id":"ce4bh692rcd13ifvqea0","pricing_plan_id":"cebpf4jnsgd1na2vs0mg"},{"bike_id":"b1a31b37-3c6a-43de-ac18-6b6b299e2d44","system_id":"levelo_inurba_marseille","lat":43.25526,"lon":5.37604,"is_reserved":false,"is_disabled":false,"rental_uris":{"android":"levelo://app?vid=b1a31b37-3c6a-43de-ac18-6b6b299e2d44","ios":"levelo://app?vid=b1a31b37-3c6a-43de-ac18-6b6b299e2d44"},"vehicle_type_id":"4","last_reported":1737745583,"current_range_meters":7200,"station_id":"ce4bhh12rcd13ifvqff0","pricing_plan_id":"cebpf4jnsgd1na2vs0mg"},{"bike_id":"64443c9b-44b1-4ed6-97a6-2ab04b1d758a","system_id":"levelo_inurba_marseille","lat":43.26556,"lon":5.37277,"is_reserved":false,"is_disabled":false,"rental_uris":{"android":"levelo://app?vid=64443c9b-44b1-4ed6-97a6-2ab04b1d758a","ios":"levelo://app?vid=64443c9b-44b1-4ed6-97a6-2ab04b1d758a"},"vehicle_type_id":"4","last_reported":1737745583,"current_range_meters":38800,"station_id":"ce4bhg12rcd13ifvqf70","pricing_plan_id":"cebpf4jnsgd1na2vs0mg"},{"bike_id":"28147011-c67e-40a5-ada1-04f84de86554","system_id":"levelo_inurba_marseille","lat":43.31377,"lon":5.38499,"is_reserved":false,"is_disabled":true,"rental_uris":{"android":"levelo://app?vid=28147011-c67e-40a5-ada1-04f84de86554","ios":"levelo://app?vid=28147011-c67e-40a5-ada1-04f84de86554"},"vehicle_type_id":"4","last_reported":1737745583,"current_range_meters":800,"station_id":"ce4bgt92rcd13ifvqcf0","pricing_plan_id":"cebpf4jnsgd1na2vs0mg"},{"bike_id":"1caf7243-b0f0-4484-919a-c8dcf048623a","system_id":"levelo_inurba_marseille","lat":43.2319,"lon":5.3998,"is_reserved":false,"is_disabled":false,"rental_uris":{"android":"levelo://app?vid=1caf7243-b0f0-4484-919a-c8dcf048623a","ios":"levelo://app?vid=1caf7243-b0f0-4484-919a-c8dcf048623a"},"vehicle_type_id":"4","last_reported":1737745583,"current_range_meters":13600,"station_id":"ce4bhn12rcd13ifvqgqg","pricing_plan_id":"cebpf4jnsgd1na2vs0mg"},{"bike_id":"8fd07e85-a454-4c1f-a811-21f58b09ae7d","system_id":"levelo_inurba_marseille","lat":43.2835,"lon":5.38112,"is_reserved":false,"is_disabled":true,"rental_uris":{"android":"levelo://app?vid=8fd07e85-a454-4c1f-a811-21f58b09ae7d","ios":"levelo://app?vid=8fd07e85-a454-4c1f-a811-21f58b09ae7d"},"vehicle_type_id":"4","last_reported":1737745583,"current_range_meters":800,"station_id":"ce4bh412rcd13ifvqdr0","pricing_plan_id":"cebpf4jnsgd1na2vs0mg"},{"bike_id":"945d2846-ce9a-4a15-96cb-8e436d89526e","system_id":"levelo_inurba_marseille","lat":43.23962,"lon":5.3663,"is_reserved":false,"is_disabled":false,"rental_uris":{"android":"levelo://app?vid=945d2846-ce9a-4a15-96cb-8e436d89526e","ios":"levelo://app?vid=945d2846-ce9a-4a15-96cb-8e436d89526e"},"vehicle_type_id":"4","last_reported":1737745583,"current_range_meters":36000,"station_id":"ce4bhi12rcd13ifvqfp0","pricing_plan_id":"cebpf4jnsgd1na2vs0mg"},{"bike_id":"ca966ae9-f949-40c4-8627-735aed604528","system_id":"levelo_inurba_marseille","lat":43.25582,"lon":5.38226,"is_reserved":false,"is_disabled":false,"rental_uris":{"android":"levelo://app?vid=ca966ae9-f949-40c4-8627-735aed604528","ios":"levelo://app?vid=ca966ae9-f949-40c4-8627-735aed604528"},"vehicle_type_id":"4","last_reported":1737745583,"current_range_meters":38800,"station_id":"ce4bhih2rcd13ifvqfs0","pricing_plan_id":"cebpf4jnsgd1na2vs0mg"},{"bike_id":"d97b035b-cd76-4be6-9920-ca5e793c898b","system_id":"levelo_inurba_marseille","lat":43.25871,"lon":5.39893,"is_reserved":false,"is_disabled":false,"rental_uris":{"android":"levelo://app?vid=d97b035b-cd76-4be6-9920-ca5e793c898b","ios":"levelo://app?vid=d97b035b-cd76-4be6-9920-ca5e793c898b"},"vehicle_type_id":"4","last_reported":1737745583,"current_range_meters":22800,"station_id":"ce4bhl92rcd13ifvqghg","pricing_plan_id":"cebpf4jnsgd1na2vs0mg"},{"bike_id":"e6fed224-e420-4150-9f76-4b1a14407d3e","system_id":"levelo_inurba_marseille","lat":43.24168,"lon":5.36385,"is_reserved":false,"is_disabled":false,"rental_uris":{"android":"levelo://app?vid=e6fed224-e420-4150-9f76-4b1a14407d3e","ios":"levelo://app?vid=e6fed224-e420-4150-9f76-4b1a14407d3e"},"vehicle_type_id":"4","last_reported":1737745583,"current_range_meters":6000,"station_id":"cpo36qri1sfpv3e86is0","pricing_plan_id":"cebpf4jnsgd1na2vs0mg"},{"bike_id":"c276da85-c857-4b0d-8792-c2826228a14c","system_id":"levelo_inurba_marseille","lat":43.2397,"lon":5.366147,"is_reserved":false,"is_disabled":false,"rental_uris":{"android":"levelo://app?vid=c276da85-c857-4b0d-8792-c2826228a14c","ios":"levelo://app?vid=c276da85-c857-4b0d-8792-c2826228a14c"},"vehicle_type_id":"4","last_reported":1737745583,"current_range_meters":28800,"station_id":"ce4bhi12rcd13ifvqfp0","pricing_plan_id":"cebpf4jnsgd1na2vs0mg"},{"bike_id":"2068ce80-1659-42b4-945e-19e0e5710b37","system_id":"levelo_inurba_marseille","lat":43.29697,"lon":5.36593,"is_reserved":false,"is_disabled":true,"rental_uris":{"android":"levelo://app?vid=2068ce80-1659-42b4-945e-19e0e5710b37","ios":"levelo://app?vid=2068ce80-1659-42b4-945e-19e0e5710b37"},"vehicle_type_id":"4","last_reported":1737745583,"current_range_meters":36800,"station_id":"ce4bgn12rcd13ifvqbt0","pricing_plan_id":"cebpf4jnsgd1na2vs0mg"},{"bike_id":"867d41e1-ec2e-4484-a31e-d471983f0ab7","system_id":"levelo_inurba_marseille","lat":43.33372,"lon":5.40054,"is_reserved":false,"is_disabled":false,"rental_uris":{"android":"levelo://app?vid=867d41e1-ec2e-4484-a31e-d471983f0ab7","ios":"levelo://app?vid=867d41e1-ec2e-4484-a31e-d471983f0ab7"},"vehicle_type_id":"4","last_reported":1737745583,"current_range_meters":17600,"station_id":"","pricing_plan_id":"cebpf4jnsgd1na2vs0mg"},{"bike_id":"fff19e26-a2a6-44c9-8f14-548535ea8344","system_id":"levelo_inurba_marseille","lat":43.29795,"lon":5.40382,"is_reserved":false,"is_disabled":false,"rental_uris":{"android":"levelo://app?vid=fff19e26-a2a6-44c9-8f14-548535ea8344","ios":"levelo://app?vid=fff19e26-a2a6-44c9-8f14-548535ea8344"},"vehicle_type_id":"4","last_reported":1737745583,"current_range_meters":36400,"station_id":"ce4bh112rcd13ifvqd90","pricing_plan_id":"cebpf4jnsgd1na2vs0mg"},{"bike_id":"c2bc794a-e1ca-4f94-862d-4cbbd10a2d55","system_id":"levelo_inurba_marseille","lat":43.29004,"lon":5.35605,"is_reserved":false,"is_disabled":false,"rental_uris":{"android":"levelo://app?vid=c2bc794a-e1ca-4f94-862d-4cbbd10a2d55","ios":"levelo://app?vid=c2bc794a-e1ca-4f94-862d-4cbbd10a2d55"},"vehicle_type_id":"4","last_reported":1737745583,"current_range_meters":8000,"station_id":"ce4bhb92rcd13ifvqen0","pricing_plan_id":"cebpf4jnsgd1na2vs0mg"},{"bike_id":"25550bba-d80a-41d4-a2b9-d23dea26a22e","system_id":"levelo_inurba_marseille","lat":43.33,"lon":5.39016,"is_reserved":false,"is_disabled":false,"rental_uris":{"android":"levelo://app?vid=25550bba-d80a-41d4-a2b9-d23dea26a22e","ios":"levelo://app?vid=25550bba-d80a-41d4-a2b9-d23dea26a22e"},"vehicle_type_id":"4","last_reported":1737745583,"current_range_meters":38800,"station_id":"ce4bhr92rcd13ifvqhrg","pricing_plan_id":"cebpf4jnsgd1na2vs0mg"},{"bike_id":"5f051731-48c9-4289-a0fa-e19a22e6eee4","system_id":"levelo_inurba_marseille","lat":43.29256,"lon":5.384455,"is_reserved":false,"is_disabled":false,"rental_uris":{"android":"levelo://app?vid=5f051731-48c9-4289-a0fa-e19a22e6eee4","ios":"levelo://app?vid=5f051731-48c9-4289-a0fa-e19a22e6eee4"},"vehicle_type_id":"4","last_reported":1737745583,"current_range_meters":39200,"station_id":"ce4bh692rcd13ifvqea0","pricing_plan_id":"cebpf4jnsgd1na2vs0mg"},{"bike_id":"358abbba-bcda-4dcf-ac9a-0dd24d997ac8","system_id":"levelo_inurba_marseille","lat":43.29437,"lon":5.39753,"is_reserved":false,"is_disabled":false,"rental_uris":{"android":"levelo://app?vid=358abbba-bcda-4dcf-ac9a-0dd24d997ac8","ios":"levelo://app?vid=358abbba-bcda-4dcf-ac9a-0dd24d997ac8"},"vehicle_type_id":"4","last_reported":1737745583,"current_range_meters":38800,"station_id":"ce4bh3h2rcd13ifvqdo0","pricing_plan_id":"cebpf4jnsgd1na2vs0mg"},{"bike_id":"676324bc-b6c7-4df5-9632-143694e2a23e","system_id":"levelo_inurba_marseille","lat":43.32289,"lon":5.38268,"is_reserved":false,"is_disabled":false,"rental_uris":{"android":"levelo://app?vid=676324bc-b6c7-4df5-9632-143694e2a23e","ios":"levelo://app?vid=676324bc-b6c7-4df5-9632-143694e2a23e"},"vehicle_type_id":"4","last_reported":1737745583,"current_range_meters":16400,"station_id":"ce4bhr12rcd13ifvqhqg","pricing_plan_id":"cebpf4jnsgd1na2vs0mg"},{"bike_id":"93f4f4e4-86dd-44c9-bedb-dcbdace9162d","system_id":"levelo_inurba_marseille","lat":43.23183,"lon":5.39992,"is_reserved":false,"is_disabled":false,"rental_uris":{"android":"levelo://app?vid=93f4f4e4-86dd-44c9-bedb-dcbdace9162d","ios":"levelo://app?vid=93f4f4e4-86dd-44c9-bedb-dcbdace9162d"},"vehicle_type_id":"4","last_reported":1737745583,"current_range_meters":32000,"station_id":"ce4bhn12rcd13ifvqgqg","pricing_plan_id":"cebpf4jnsgd1na2vs0mg"},{"bike_id":"347dd29e-9a9e-4a37-8ddd-6e2050aaff03","system_id":"levelo_inurba_marseille","lat":43.337351,"lon":5.391996,"is_reserved":false,"is_disabled":false,"rental_uris":{"android":"levelo://app?vid=347dd29e-9a9e-4a37-8ddd-6e2050aaff03","ios":"levelo://app?vid=347dd29e-9a9e-4a37-8ddd-6e2050aaff03"},"vehicle_type_id":"4","last_reported":1737745583,"current_range_meters":37600,"station_id":"ce4bhr92rcd13ifvqhsg","pricing_plan_id":"cebpf4jnsgd1na2vs0mg"},{"bike_id":"badee5fd-b7b4-423c-a117-af12b0d774ca","system_id":"levelo_inurba_marseille","lat":43.317277,"lon":5.423995,"is_reserved":false,"is_disabled":false,"rental_uris":{"android":"levelo://app?vid=badee5fd-b7b4-423c-a117-af12b0d774ca","ios":"levelo://app?vid=badee5fd-b7b4-423c-a117-af12b0d774ca"},"vehicle_type_id":"4","last_reported":1737745583,"current_range_meters":38400,"station_id":"ce4bhp92rcd13ifvqhbg","pricing_plan_id":"cebpf4jnsgd1na2vs0mg"},{"bike_id":"f8ea2046-cba1-432a-b3c5-e15c802e7278","system_id":"levelo_inurba_marseille","lat":43.23973,"lon":5.3667,"is_reserved":false,"is_disabled":false,"rental_uris":{"android":"levelo://app?vid=f8ea2046-cba1-432a-b3c5-e15c802e7278","ios":"levelo://app?vid=f8ea2046-cba1-432a-b3c5-e15c802e7278"},"vehicle_type_id":"4","last_reported":1737745583,"current_range_meters":33600,"station_id":"ce4bhi12rcd13ifvqfp0","pricing_plan_id":"cebpf4jnsgd1na2vs0mg"},{"bike_id":"90b8a1b1-ad54-458d-9362-f5197bbdf048","system_id":"levelo_inurba_marseille","lat":43.22932,"lon":5.35371,"is_reserved":false,"is_disabled":false,"rental_uris":{"android":"levelo://app?vid=90b8a1b1-ad54-458d-9362-f5197bbdf048","ios":"levelo://app?vid=90b8a1b1-ad54-458d-9362-f5197bbdf048"},"vehicle_type_id":"4","last_reported":1737745583,"current_range_meters":38400,"station_id":"cpo3532slgdg3j2ikp40","pricing_plan_id":"cebpf4jnsgd1na2vs0mg"},{"bike_id":"93a7dc37-0d28-4341-92b3-f3435e0f89a6","system_id":"levelo_inurba_marseille","lat":43.29592,"lon":5.36726,"is_reserved":false,"is_disabled":false,"rental_uris":{"android":"levelo://app?vid=93a7dc37-0d28-4341-92b3-f3435e0f89a6","ios":"levelo://app?vid=93a7dc37-0d28-4341-92b3-f3435e0f89a6"},"vehicle_type_id":"4","last_reported":1737745583,"current_range_meters":35600,"station_id":"ce4bgph2rcd13ifvqc2g","pricing_plan_id":"cebpf4jnsgd1na2vs0mg"},{"bike_id":"ee9fcbc3-0aaf-40e2-a7a6-0571656a64e2","system_id":"levelo_inurba_marseille","lat":43.27571,"lon":5.38405,"is_reserved":false,"is_disabled":true,"rental_uris":{"android":"levelo://app?vid=ee9fcbc3-0aaf-40e2-a7a6-0571656a64e2","ios":"levelo://app?vid=ee9fcbc3-0aaf-40e2-a7a6-0571656a64e2"},"vehicle_type_id":"4","last_reported":1737745583,"current_range_meters":1200,"station_id":"ce4bhh92rcd13ifvqfi0","pricing_plan_id":"cebpf4jnsgd1na2vs0mg"},{"bike_id":"31bef50f-e464-4b71-8639-fa847ee5d165","system_id":"levelo_inurba_marseille","lat":43.27808,"lon":5.40715,"is_reserved":false,"is_disabled":false,"rental_uris":{"android":"levelo://app?vid=31bef50f-e464-4b71-8639-fa847ee5d165","ios":"levelo://app?vid=31bef50f-e464-4b71-8639-fa847ee5d165"},"vehicle_type_id":"4","last_reported":1737745583,"current_range_meters":18800,"station_id":"ce4bhnh2rcd13ifvqgtg","pricing_plan_id":"cebpf4jnsgd1na2vs0mg"},{"bike_id":"17e306a9-20ff-47dc-8c6c-1b0f1e0bda0e","system_id":"levelo_inurba_marseille","lat":43.2926,"lon":5.38438,"is_reserved":false,"is_disabled":false,"rental_uris":{"android":"levelo://app?vid=17e306a9-20ff-47dc-8c6c-1b0f1e0bda0e","ios":"levelo://app?vid=17e306a9-20ff-47dc-8c6c-1b0f1e0bda0e"},"vehicle_type_id":"4","last_reported":1737745583,"current_range_meters":35200,"station_id":"ce4bh692rcd13ifvqea0","pricing_plan_id":"cebpf4jnsgd1na2vs0mg"},{"bike_id":"1d5fe2a1-8f18-45b9-ab13-ba8003954446","system_id":"levelo_inurba_marseille","lat":43.29526,"lon":5.39054,"is_reserved":false,"is_disabled":false,"rental_uris":{"android":"levelo://app?vid=1d5fe2a1-8f18-45b9-ab13-ba8003954446","ios":"levelo://app?vid=1d5fe2a1-8f18-45b9-ab13-ba8003954446"},"vehicle_type_id":"4","last_reported":1737745583,"current_range_meters":16400,"station_id":"ce4bh3p2rcd13ifvqdp0","pricing_plan_id":"cebpf4jnsgd1na2vs0mg"},{"bike_id":"936598d5-fabc-4369-b267-72ae089e3caf","system_id":"levelo_inurba_marseille","lat":43.23967,"lon":5.36623,"is_reserved":false,"is_disabled":false,"rental_uris":{"android":"levelo://app?vid=936598d5-fabc-4369-b267-72ae089e3caf","ios":"levelo://app?vid=936598d5-fabc-4369-b267-72ae089e3caf"},"vehicle_type_id":"4","last_reported":1737745583,"current_range_meters":9200,"station_id":"ce4bhi12rcd13ifvqfp0","pricing_plan_id":"cebpf4jnsgd1na2vs0mg"},{"bike_id":"d6acf396-9fdf-49bd-91c6-d42f7f1e351c","system_id":"levelo_inurba_marseille","lat":43.29279,"lon":5.36845,"is_reserved":false,"is_disabled":false,"rental_uris":{"android":"levelo://app?vid=d6acf396-9fdf-49bd-91c6-d42f7f1e351c","ios":"levelo://app?vid=d6acf396-9fdf-49bd-91c6-d42f7f1e351c"},"vehicle_type_id":"4","last_reported":1737745583,"current_range_meters":30800,"station_id":"ce4bhbp2rcd13ifvqesg","pricing_plan_id":"cebpf4jnsgd1na2vs0mg"},{"bike_id":"2379a823-fdeb-40da-be6e-d8af4799bc36","system_id":"levelo_inurba_marseille","lat":43.30317,"lon":5.40439,"is_reserved":false,"is_disabled":false,"rental_uris":{"android":"levelo://app?vid=2379a823-fdeb-40da-be6e-d8af4799bc36","ios":"levelo://app?vid=2379a823-fdeb-40da-be6e-d8af4799bc36"},"vehicle_type_id":"4","last_reported":1737745583,"current_range_meters":38400,"station_id":"ce4bh012rcd13ifvqd10","pricing_plan_id":"cebpf4jnsgd1na2vs0mg"},{"bike_id":"cd2a4c81-944c-45cd-ad92-4381608c75f0","system_id":"levelo_inurba_marseille","lat":43.23195,"lon":5.35551,"is_reserved":false,"is_disabled":false,"rental_uris":{"android":"levelo://app?vid=cd2a4c81-944c-45cd-ad92-4381608c75f0","ios":"levelo://app?vid=cd2a4c81-944c-45cd-ad92-4381608c75f0"},"vehicle_type_id":"4","last_reported":1737745583,"current_range_meters":9600,"station_id":"ce4bhu92rcd13ifvqi70","pricing_plan_id":"cebpf4jnsgd1na2vs0mg"},{"bike_id":"511d1395-9b6a-4365-982c-ba6fd9ed2253","system_id":"levelo_inurba_marseille","lat":43.2915,"lon":5.38163,"is_reserved":false,"is_disabled":false,"rental_uris":{"android":"levelo://app?vid=511d1395-9b6a-4365-982c-ba6fd9ed2253","ios":"levelo://app?vid=511d1395-9b6a-4365-982c-ba6fd9ed2253"},"vehicle_type_id":"4","last_reported":1737745583,"current_range_meters":25200,"station_id":"","pricing_plan_id":"cebpf4jnsgd1na2vs0mg"},{"bike_id":"8d0bf438-6f14-42dc-8a42-ea54115c1c21","system_id":"levelo_inurba_marseille","lat":43.29524,"lon":5.38534,"is_reserved":false,"is_disabled":false,"rental_uris":{"android":"levelo://app?vid=8d0bf438-6f14-42dc-8a42-ea54115c1c21","ios":"levelo://app?vid=8d0bf438-6f14-42dc-8a42-ea54115c1c21"},"vehicle_type_id":"4","last_reported":1737745583,"current_range_meters":38800,"station_id":"ce4bgih2rcd13ifvqba0","pricing_plan_id":"cebpf4jnsgd1na2vs0mg"},{"bike_id":"93434538-df06-4ff5-ad75-b30c9966e4ec","system_id":"levelo_inurba_marseille","lat":43.29968,"lon":5.38491,"is_reserved":false,"is_disabled":false,"rental_uris":{"android":"levelo://app?vid=93434538-df06-4ff5-ad75-b30c9966e4ec","ios":"levelo://app?vid=93434538-df06-4ff5-ad75-b30c9966e4ec"},"vehicle_type_id":"4","last_reported":1737745583,"current_range_meters":24000,"station_id":"ce4bgj92rcd13ifvqbd0","pricing_plan_id":"cebpf4jnsgd1na2vs0mg"},{"bike_id":"8609669b-68c7-4651-8463-8b069e6b3840","system_id":"levelo_inurba_marseille","lat":43.31994,"lon":5.3813,"is_reserved":false,"is_disabled":false,"rental_uris":{"android":"levelo://app?vid=8609669b-68c7-4651-8463-8b069e6b3840","ios":"levelo://app?vid=8609669b-68c7-4651-8463-8b069e6b3840"},"vehicle_type_id":"4","last_reported":1737745583,"current_range_meters":38400,"station_id":"ce4bhr12rcd13ifvqhpg","pricing_plan_id":"cebpf4jnsgd1na2vs0mg"},{"bike_id":"787678f9-4fc1-4202-9edc-26f722986fd5","system_id":"levelo_inurba_marseille","lat":43.26196,"lon":5.37448,"is_reserved":false,"is_disabled":true,"rental_uris":{"android":"levelo://app?vid=787678f9-4fc1-4202-9edc-26f722986fd5","ios":"levelo://app?vid=787678f9-4fc1-4202-9edc-26f722986fd5"},"vehicle_type_id":"4","last_reported":1737745583,"current_range_meters":0,"station_id":"ce4bhgp2rcd13ifvqfc0","pricing_plan_id":"cebpf4jnsgd1na2vs0mg"},{"bike_id":"e04d6439-d3f0-49e1-ae5b-7959ba70aeaa","system_id":"levelo_inurba_marseille","lat":43.28006,"lon":5.36911,"is_reserved":false,"is_disabled":false,"rental_uris":{"android":"levelo://app?vid=e04d6439-d3f0-49e1-ae5b-7959ba70aeaa","ios":"levelo://app?vid=e04d6439-d3f0-49e1-ae5b-7959ba70aeaa"},"vehicle_type_id":"4","last_reported":1737745583,"current_range_meters":22400,"station_id":"ce4bha12rcd13ifvqef0","pricing_plan_id":"cebpf4jnsgd1na2vs0mg"},{"bike_id":"cef0fc8f-580c-434e-934c-d5b782b934ce","system_id":"levelo_inurba_marseille","lat":43.29537,"lon":5.38551,"is_reserved":false,"is_disabled":false,"rental_uris":{"android":"levelo://app?vid=cef0fc8f-580c-434e-934c-d5b782b934ce","ios":"levelo://app?vid=cef0fc8f-580c-434e-934c-d5b782b934ce"},"vehicle_type_id":"4","last_reported":1737745583,"current_range_meters":7200,"station_id":"ce4bgih2rcd13ifvqba0","pricing_plan_id":"cebpf4jnsgd1na2vs0mg"},{"bike_id":"956dd59f-42d4-40b8-b339-619cf41968d1","system_id":"levelo_inurba_marseille","lat":43.309018,"lon":5.368301,"is_reserved":false,"is_disabled":false,"rental_uris":{"android":"levelo://app?vid=956dd59f-42d4-40b8-b339-619cf41968d1","ios":"levelo://app?vid=956dd59f-42d4-40b8-b339-619cf41968d1"},"vehicle_type_id":"4","last_reported":1737745583,"current_range_meters":31200,"station_id":"ce4bgn92rcd13ifvqbvg","pricing_plan_id":"cebpf4jnsgd1na2vs0mg"},{"bike_id":"e00195d8-6cc4-4f8e-aab6-589cb9da0b0f","system_id":"levelo_inurba_marseille","lat":43.29169,"lon":5.3716,"is_reserved":false,"is_disabled":false,"rental_uris":{"android":"levelo://app?vid=e00195d8-6cc4-4f8e-aab6-589cb9da0b0f","ios":"levelo://app?vid=e00195d8-6cc4-4f8e-aab6-589cb9da0b0f"},"vehicle_type_id":"4","last_reported":1737745583,"current_range_meters":38800,"station_id":"ce4bha92rcd13ifvqeh0","pricing_plan_id":"cebpf4jnsgd1na2vs0mg"},{"bike_id":"30ace491-4e76-4d5e-88e8-6db7fecc7f09","system_id":"levelo_inurba_marseille","lat":43.30211,"lon":5.3946,"is_reserved":false,"is_disabled":false,"rental_uris":{"android":"levelo://app?vid=30ace491-4e76-4d5e-88e8-6db7fecc7f09","ios":"levelo://app?vid=30ace491-4e76-4d5e-88e8-6db7fecc7f09"},"vehicle_type_id":"4","last_reported":1737745583,"current_range_meters":32800,"station_id":"ce4bh0p2rcd13ifvqd70","pricing_plan_id":"cebpf4jnsgd1na2vs0mg"},{"bike_id":"e88c7789-5cc6-4131-a7fc-96bce56a7f6d","system_id":"levelo_inurba_marseille","lat":43.293,"lon":5.3746,"is_reserved":false,"is_disabled":false,"rental_uris":{"android":"levelo://app?vid=e88c7789-5cc6-4131-a7fc-96bce56a7f6d","ios":"levelo://app?vid=e88c7789-5cc6-4131-a7fc-96bce56a7f6d"},"vehicle_type_id":"4","last_reported":1737745583,"current_range_meters":27200,"station_id":"ce4bgi12rcd13ifvqb70","pricing_plan_id":"cebpf4jnsgd1na2vs0mg"},{"bike_id":"c09107c0-8eff-4397-b16d-299aabecf68c","system_id":"levelo_inurba_marseille","lat":43.29532,"lon":5.3854,"is_reserved":false,"is_disabled":false,"rental_uris":{"android":"levelo://app?vid=c09107c0-8eff-4397-b16d-299aabecf68c","ios":"levelo://app?vid=c09107c0-8eff-4397-b16d-299aabecf68c"},"vehicle_type_id":"4","last_reported":1737745583,"current_range_meters":38400,"station_id":"ce4bgih2rcd13ifvqba0","pricing_plan_id":"cebpf4jnsgd1na2vs0mg"},{"bike_id":"9fa07e24-ca3f-4af3-9650-202e7c5077d3","system_id":"levelo_inurba_marseille","lat":43.26217,"lon":5.37442,"is_reserved":false,"is_disabled":false,"rental_uris":{"android":"levelo://app?vid=9fa07e24-ca3f-4af3-9650-202e7c5077d3","ios":"levelo://app?vid=9fa07e24-ca3f-4af3-9650-202e7c5077d3"},"vehicle_type_id":"4","last_reported":1737745583,"current_range_meters":8400,"station_id":"ce4bhgp2rcd13ifvqfc0","pricing_plan_id":"cebpf4jnsgd1na2vs0mg"},{"bike_id":"c425264b-f06d-4006-8cf2-8dc867d9adfd","system_id":"levelo_inurba_marseille","lat":43.31605,"lon":5.38742,"is_reserved":false,"is_disabled":false,"rental_uris":{"android":"levelo://app?vid=c425264b-f06d-4006-8cf2-8dc867d9adfd","ios":"levelo://app?vid=c425264b-f06d-4006-8cf2-8dc867d9adfd"},"vehicle_type_id":"4","last_reported":1737745583,"current_range_meters":10000,"station_id":"","pricing_plan_id":"cebpf4jnsgd1na2vs0mg"},{"bike_id":"bce09769-02dc-489a-bcd7-84421f3b354f","system_id":"levelo_inurba_marseille","lat":43.32367,"lon":5.38884,"is_reserved":false,"is_disabled":false,"rental_uris":{"android":"levelo://app?vid=bce09769-02dc-489a-bcd7-84421f3b354f","ios":"levelo://app?vid=bce09769-02dc-489a-bcd7-84421f3b354f"},"vehicle_type_id":"4","last_reported":1737745583,"current_range_meters":21600,"station_id":"ce4bhqp2rcd13ifvqhog","pricing_plan_id":"cebpf4jnsgd1na2vs0mg"},{"bike_id":"4e8892d8-e825-4899-903c-ecc6520e5d8b","system_id":"levelo_inurba_marseille","lat":43.26215,"lon":5.37439,"is_reserved":false,"is_disabled":false,"rental_uris":{"android":"levelo://app?vid=4e8892d8-e825-4899-903c-ecc6520e5d8b","ios":"levelo://app?vid=4e8892d8-e825-4899-903c-ecc6520e5d8b"},"vehicle_type_id":"4","last_reported":1737745583,"current_range_meters":11600,"station_id":"ce4bhgp2rcd13ifvqfc0","pricing_plan_id":"cebpf4jnsgd1na2vs0mg"},{"bike_id":"f181fedd-120e-42d3-9789-466696aecf81","system_id":"levelo_inurba_marseille","lat":43.31478,"lon":5.37304,"is_reserved":false,"is_disabled":false,"rental_uris":{"android":"levelo://app?vid=f181fedd-120e-42d3-9789-466696aecf81","ios":"levelo://app?vid=f181fedd-120e-42d3-9789-466696aecf81"},"vehicle_type_id":"4","last_reported":1737745583,"current_range_meters":34000,"station_id":"ce4bgt12rcd13ifvqcd0","pricing_plan_id":"cebpf4jnsgd1na2vs0mg"},{"bike_id":"85c4b304-0a15-4fc1-b75d-cfc16b5afe60","system_id":"levelo_inurba_marseille","lat":43.22931,"lon":5.35371,"is_reserved":false,"is_disabled":false,"rental_uris":{"android":"levelo://app?vid=85c4b304-0a15-4fc1-b75d-cfc16b5afe60","ios":"levelo://app?vid=85c4b304-0a15-4fc1-b75d-cfc16b5afe60"},"vehicle_type_id":"4","last_reported":1737745583,"current_range_meters":38800,"station_id":"cpo3532slgdg3j2ikp40","pricing_plan_id":"cebpf4jnsgd1na2vs0mg"},{"bike_id":"d06e4858-1735-4dcf-9f21-bf859f4d029b","system_id":"levelo_inurba_marseille","lat":43.28154,"lon":5.42623,"is_reserved":false,"is_disabled":false,"rental_uris":{"android":"levelo://app?vid=d06e4858-1735-4dcf-9f21-bf859f4d029b","ios":"levelo://app?vid=d06e4858-1735-4dcf-9f21-bf859f4d029b"},"vehicle_type_id":"4","last_reported":1737745583,"current_range_meters":38800,"station_id":"ce4bhnh2rcd13ifvqgug","pricing_plan_id":"cebpf4jnsgd1na2vs0mg"},{"bike_id":"4d0f5f2a-f13f-4c4a-b8b5-8662c81757a7","system_id":"levelo_inurba_marseille","lat":43.29531,"lon":5.39044,"is_reserved":false,"is_disabled":false,"rental_uris":{"android":"levelo://app?vid=4d0f5f2a-f13f-4c4a-b8b5-8662c81757a7","ios":"levelo://app?vid=4d0f5f2a-f13f-4c4a-b8b5-8662c81757a7"},"vehicle_type_id":"4","last_reported":1737745583,"current_range_meters":39200,"station_id":"ce4bh3p2rcd13ifvqdp0","pricing_plan_id":"cebpf4jnsgd1na2vs0mg"},{"bike_id":"7f95d492-e5fe-47a9-9496-ce67e4d5c2e7","system_id":"levelo_inurba_marseille","lat":43.31764,"lon":5.39008,"is_reserved":false,"is_disabled":false,"rental_uris":{"android":"levelo://app?vid=7f95d492-e5fe-47a9-9496-ce67e4d5c2e7","ios":"levelo://app?vid=7f95d492-e5fe-47a9-9496-ce67e4d5c2e7"},"vehicle_type_id":"4","last_reported":1737745583,"current_range_meters":39200,"station_id":"ce4bhqp2rcd13ifvqhng","pricing_plan_id":"cebpf4jnsgd1na2vs0mg"},{"bike_id":"f94f367d-5dfd-446c-9c2d-fc5ce6d08ea1","system_id":"levelo_inurba_marseille","lat":43.29971,"lon":5.3717,"is_reserved":false,"is_disabled":false,"rental_uris":{"android":"levelo://app?vid=f94f367d-5dfd-446c-9c2d-fc5ce6d08ea1","ios":"levelo://app?vid=f94f367d-5dfd-446c-9c2d-fc5ce6d08ea1"},"vehicle_type_id":"4","last_reported":1737745583,"current_range_meters":10800,"station_id":"ce4bgr92rcd13ifvqc7g","pricing_plan_id":"cebpf4jnsgd1na2vs0mg"},{"bike_id":"5ff9677a-a22b-4acf-a942-02adaefbc5a3","system_id":"levelo_inurba_marseille","lat":43.28493,"lon":5.38419,"is_reserved":false,"is_disabled":false,"rental_uris":{"android":"levelo://app?vid=5ff9677a-a22b-4acf-a942-02adaefbc5a3","ios":"levelo://app?vid=5ff9677a-a22b-4acf-a942-02adaefbc5a3"},"vehicle_type_id":"4","last_reported":1737745583,"current_range_meters":24000,"station_id":"ce4bh512rcd13ifvqe3g","pricing_plan_id":"cebpf4jnsgd1na2vs0mg"},{"bike_id":"354a0ed3-542c-4648-b29a-783f2de4680e","system_id":"levelo_inurba_marseille","lat":43.27673,"lon":5.38889,"is_reserved":false,"is_disabled":true,"rental_uris":{"android":"levelo://app?vid=354a0ed3-542c-4648-b29a-783f2de4680e","ios":"levelo://app?vid=354a0ed3-542c-4648-b29a-783f2de4680e"},"vehicle_type_id":"4","last_reported":1737745583,"current_range_meters":36400,"station_id":"ce4bhi12rcd13ifvqfo0","pricing_plan_id":"cebpf4jnsgd1na2vs0mg"},{"bike_id":"2a5bcd00-b034-49cb-a2cf-bc894e4bfe17","system_id":"levelo_inurba_marseille","lat":43.29252,"lon":5.38434,"is_reserved":false,"is_disabled":false,"rental_uris":{"android":"levelo://app?vid=2a5bcd00-b034-49cb-a2cf-bc894e4bfe17","ios":"levelo://app?vid=2a5bcd00-b034-49cb-a2cf-bc894e4bfe17"},"vehicle_type_id":"4","last_reported":1737745583,"current_range_meters":37600,"station_id":"ce4bh692rcd13ifvqea0","pricing_plan_id":"cebpf4jnsgd1na2vs0mg"},{"bike_id":"b32c2077-9430-40f6-824f-4ba9582cefdc","system_id":"levelo_inurba_marseille","lat":43.29879,"lon":5.3891,"is_reserved":false,"is_disabled":false,"rental_uris":{"android":"levelo://app?vid=b32c2077-9430-40f6-824f-4ba9582cefdc","ios":"levelo://app?vid=b32c2077-9430-40f6-824f-4ba9582cefdc"},"vehicle_type_id":"4","last_reported":1737745583,"current_range_meters":38000,"station_id":"ce4bh392rcd13ifvqdl0","pricing_plan_id":"cebpf4jnsgd1na2vs0mg"},{"bike_id":"13ffeea6-4e88-4273-a218-3c5d61ae6af5","system_id":"levelo_inurba_marseille","lat":43.32108,"lon":5.36774,"is_reserved":false,"is_disabled":false,"rental_uris":{"android":"levelo://app?vid=13ffeea6-4e88-4273-a218-3c5d61ae6af5","ios":"levelo://app?vid=13ffeea6-4e88-4273-a218-3c5d61ae6af5"},"vehicle_type_id":"4","last_reported":1737745583,"current_range_meters":36400,"station_id":"ce4bhrh2rcd13ifvqhug","pricing_plan_id":"cebpf4jnsgd1na2vs0mg"},{"bike_id":"183d99f3-c5aa-4abb-b8da-46143af25668","system_id":"levelo_inurba_marseille","lat":43.2927,"lon":5.36834,"is_reserved":false,"is_disabled":false,"rental_uris":{"android":"levelo://app?vid=183d99f3-c5aa-4abb-b8da-46143af25668","ios":"levelo://app?vid=183d99f3-c5aa-4abb-b8da-46143af25668"},"vehicle_type_id":"4","last_reported":1737745583,"current_range_meters":30800,"station_id":"ce4bhbp2rcd13ifvqesg","pricing_plan_id":"cebpf4jnsgd1na2vs0mg"},{"bike_id":"200a4bf1-05ee-4a72-ad3d-ba9dee551928","system_id":"levelo_inurba_marseille","lat":43.2927,"lon":5.36835,"is_reserved":false,"is_disabled":false,"rental_uris":{"android":"levelo://app?vid=200a4bf1-05ee-4a72-ad3d-ba9dee551928","ios":"levelo://app?vid=200a4bf1-05ee-4a72-ad3d-ba9dee551928"},"vehicle_type_id":"4","last_reported":1737745583,"current_range_meters":36800,"station_id":"ce4bhbp2rcd13ifvqesg","pricing_plan_id":"cebpf4jnsgd1na2vs0mg"},{"bike_id":"980c02c2-9503-4369-8686-9bce9678a308","system_id":"levelo_inurba_marseille","lat":43.295617,"lon":5.386321,"is_reserved":false,"is_disabled":false,"rental_uris":{"android":"levelo://app?vid=980c02c2-9503-4369-8686-9bce9678a308","ios":"levelo://app?vid=980c02c2-9503-4369-8686-9bce9678a308"},"vehicle_type_id":"4","last_reported":1737745583,"current_range_meters":16000,"station_id":"ce4bgih2rcd13ifvqba0","pricing_plan_id":"cebpf4jnsgd1na2vs0mg"},{"bike_id":"88c64f3a-a6f9-40d1-bd5d-db3d4661ed45","system_id":"levelo_inurba_marseille","lat":43.31528,"lon":5.38047,"is_reserved":false,"is_disabled":false,"rental_uris":{"android":"levelo://app?vid=88c64f3a-a6f9-40d1-bd5d-db3d4661ed45","ios":"levelo://app?vid=88c64f3a-a6f9-40d1-bd5d-db3d4661ed45"},"vehicle_type_id":"4","last_reported":1737745583,"current_range_meters":30400,"station_id":"ce4bhsp2rcd13ifvqi50","pricing_plan_id":"cebpf4jnsgd1na2vs0mg"},{"bike_id":"be1f4eea-0bc9-4de0-85db-4bad8d444154","system_id":"levelo_inurba_marseille","lat":43.29297,"lon":5.37457,"is_reserved":false,"is_disabled":false,"rental_uris":{"android":"levelo://app?vid=be1f4eea-0bc9-4de0-85db-4bad8d444154","ios":"levelo://app?vid=be1f4eea-0bc9-4de0-85db-4bad8d444154"},"vehicle_type_id":"4","last_reported":1737745583,"current_range_meters":28000,"station_id":"ce4bgi12rcd13ifvqb70","pricing_plan_id":"cebpf4jnsgd1na2vs0mg"},{"bike_id":"5d0ced69-255e-410b-9398-708d471fa8b7","system_id":"levelo_inurba_marseille","lat":43.30304,"lon":5.39202,"is_reserved":false,"is_disabled":true,"rental_uris":{"android":"levelo://app?vid=5d0ced69-255e-410b-9398-708d471fa8b7","ios":"levelo://app?vid=5d0ced69-255e-410b-9398-708d471fa8b7"},"vehicle_type_id":"4","last_reported":1737745583,"current_range_meters":34800,"station_id":"ce4bgkh2rcd13ifvqbk0","pricing_plan_id":"cebpf4jnsgd1na2vs0mg"},{"bike_id":"35614ed7-a0df-4792-bca2-a1978fcd9fab","system_id":"levelo_inurba_marseille","lat":43.30798,"lon":5.4352,"is_reserved":false,"is_disabled":false,"rental_uris":{"android":"levelo://app?vid=35614ed7-a0df-4792-bca2-a1978fcd9fab","ios":"levelo://app?vid=35614ed7-a0df-4792-bca2-a1978fcd9fab"},"vehicle_type_id":"4","last_reported":1737745583,"current_range_meters":37600,"station_id":"ce4bhph2rcd13ifvqheg","pricing_plan_id":"cebpf4jnsgd1na2vs0mg"},{"bike_id":"0c91349d-f6f5-43a9-8559-bb394809bd96","system_id":"levelo_inurba_marseille","lat":43.3361,"lon":5.41023,"is_reserved":false,"is_disabled":false,"rental_uris":{"android":"levelo://app?vid=0c91349d-f6f5-43a9-8559-bb394809bd96","ios":"levelo://app?vid=0c91349d-f6f5-43a9-8559-bb394809bd96"},"vehicle_type_id":"4","last_reported":1737745583,"current_range_meters":38400,"station_id":"ce4bhqh2rcd13ifvqhmg","pricing_plan_id":"cebpf4jnsgd1na2vs0mg"},{"bike_id":"69fb9843-f1d0-4615-98b9-187227199384","system_id":"levelo_inurba_marseille","lat":43.3064,"lon":5.40091,"is_reserved":false,"is_disabled":false,"rental_uris":{"android":"levelo://app?vid=69fb9843-f1d0-4615-98b9-187227199384","ios":"levelo://app?vid=69fb9843-f1d0-4615-98b9-187227199384"},"vehicle_type_id":"4","last_reported":1737745583,"current_range_meters":21600,"station_id":"ce4bh112rcd13ifvqda0","pricing_plan_id":"cebpf4jnsgd1na2vs0mg"},{"bike_id":"7cea5488-2002-4229-bc99-836914b94071","system_id":"levelo_inurba_marseille","lat":43.29572,"lon":5.3997,"is_reserved":false,"is_disabled":false,"rental_uris":{"android":"levelo://app?vid=7cea5488-2002-4229-bc99-836914b94071","ios":"levelo://app?vid=7cea5488-2002-4229-bc99-836914b94071"},"vehicle_type_id":"4","last_reported":1737745583,"current_range_meters":27600,"station_id":"ce4bh312rcd13ifvqdj0","pricing_plan_id":"cebpf4jnsgd1na2vs0mg"},{"bike_id":"d2cb21d3-cc32-48d3-b773-800826051dd6","system_id":"levelo_inurba_marseille","lat":43.33025,"lon":5.39044,"is_reserved":false,"is_disabled":false,"rental_uris":{"android":"levelo://app?vid=d2cb21d3-cc32-48d3-b773-800826051dd6","ios":"levelo://app?vid=d2cb21d3-cc32-48d3-b773-800826051dd6"},"vehicle_type_id":"4","last_reported":1737745583,"current_range_meters":38800,"station_id":"ce4bhr92rcd13ifvqhrg","pricing_plan_id":"cebpf4jnsgd1na2vs0mg"},{"bike_id":"614069de-aa6c-4682-bdb4-b697111c134b","system_id":"levelo_inurba_marseille","lat":43.32293,"lon":5.38273,"is_reserved":false,"is_disabled":false,"rental_uris":{"android":"levelo://app?vid=614069de-aa6c-4682-bdb4-b697111c134b","ios":"levelo://app?vid=614069de-aa6c-4682-bdb4-b697111c134b"},"vehicle_type_id":"4","last_reported":1737745583,"current_range_meters":17200,"station_id":"ce4bhr12rcd13ifvqhqg","pricing_plan_id":"cebpf4jnsgd1na2vs0mg"},{"bike_id":"9c8ee4e3-10d6-4ebf-9ab4-99eb5ef8f62c","system_id":"levelo_inurba_marseille","lat":43.29975,"lon":5.38489,"is_reserved":false,"is_disabled":false,"rental_uris":{"android":"levelo://app?vid=9c8ee4e3-10d6-4ebf-9ab4-99eb5ef8f62c","ios":"levelo://app?vid=9c8ee4e3-10d6-4ebf-9ab4-99eb5ef8f62c"},"vehicle_type_id":"4","last_reported":1737745583,"current_range_meters":29600,"station_id":"ce4bgj92rcd13ifvqbd0","pricing_plan_id":"cebpf4jnsgd1na2vs0mg"},{"bike_id":"1751fce2-cf09-42c4-909f-331d932110c8","system_id":"levelo_inurba_marseille","lat":43.30886,"lon":5.396303,"is_reserved":false,"is_disabled":true,"rental_uris":{"android":"levelo://app?vid=1751fce2-cf09-42c4-909f-331d932110c8","ios":"levelo://app?vid=1751fce2-cf09-42c4-909f-331d932110c8"},"vehicle_type_id":"4","last_reported":1737745583,"current_range_meters":22800,"station_id":"ce4bh012rcd13ifvqcv0","pricing_plan_id":"cebpf4jnsgd1na2vs0mg"},{"bike_id":"f556f1d2-7ef7-4abe-98f2-b40b708ce230","system_id":"levelo_inurba_marseille","lat":43.288558,"lon":5.358534,"is_reserved":false,"is_disabled":false,"rental_uris":{"android":"levelo://app?vid=f556f1d2-7ef7-4abe-98f2-b40b708ce230","ios":"levelo://app?vid=f556f1d2-7ef7-4abe-98f2-b40b708ce230"},"vehicle_type_id":"4","last_reported":1737745583,"current_range_meters":20000,"station_id":"ce4bhb12rcd13ifvqem0","pricing_plan_id":"cebpf4jnsgd1na2vs0mg"},{"bike_id":"9338641b-a8d4-42f9-8e4d-1cdd8c9b5fa2","system_id":"levelo_inurba_marseille","lat":43.29424,"lon":5.38612,"is_reserved":false,"is_disabled":false,"rental_uris":{"android":"levelo://app?vid=9338641b-a8d4-42f9-8e4d-1cdd8c9b5fa2","ios":"levelo://app?vid=9338641b-a8d4-42f9-8e4d-1cdd8c9b5fa2"},"vehicle_type_id":"4","last_reported":1737745583,"current_range_meters":19600,"station_id":"ce4bh2h2rcd13ifvqdh0","pricing_plan_id":"cebpf4jnsgd1na2vs0mg"},{"bike_id":"04bfc48a-3aab-4203-8e43-de213ee1a32a","system_id":"levelo_inurba_marseille","lat":43.3133,"lon":5.3969,"is_reserved":false,"is_disabled":false,"rental_uris":{"android":"levelo://app?vid=04bfc48a-3aab-4203-8e43-de213ee1a32a","ios":"levelo://app?vid=04bfc48a-3aab-4203-8e43-de213ee1a32a"},"vehicle_type_id":"4","last_reported":1737745583,"current_range_meters":26000,"station_id":"ce4bgvp2rcd13ifvqcu0","pricing_plan_id":"cebpf4jnsgd1na2vs0mg"},{"bike_id":"99a00521-7f3a-4f29-9ec7-38d6b39cc644","system_id":"levelo_inurba_marseille","lat":43.28451,"lon":5.35881,"is_reserved":false,"is_disabled":false,"rental_uris":{"android":"levelo://app?vid=99a00521-7f3a-4f29-9ec7-38d6b39cc644","ios":"levelo://app?vid=99a00521-7f3a-4f29-9ec7-38d6b39cc644"},"vehicle_type_id":"4","last_reported":1737745583,"current_range_meters":38400,"station_id":"ce4bhah2rcd13ifvqei0","pricing_plan_id":"cebpf4jnsgd1na2vs0mg"},{"bike_id":"f4f3e7ac-0023-4912-b256-31f60c64f2c8","system_id":"levelo_inurba_marseille","lat":43.31282,"lon":5.4015,"is_reserved":false,"is_disabled":false,"rental_uris":{"android":"levelo://app?vid=f4f3e7ac-0023-4912-b256-31f60c64f2c8","ios":"levelo://app?vid=f4f3e7ac-0023-4912-b256-31f60c64f2c8"},"vehicle_type_id":"4","last_reported":1737745583,"current_range_meters":38400,"station_id":"ce4bh092rcd13ifvqd30","pricing_plan_id":"cebpf4jnsgd1na2vs0mg"},{"bike_id":"333030b4-fde2-45c6-902a-434ebde1bc44","system_id":"levelo_inurba_marseille","lat":43.29687,"lon":5.37312,"is_reserved":false,"is_disabled":false,"rental_uris":{"android":"levelo://app?vid=333030b4-fde2-45c6-902a-434ebde1bc44","ios":"levelo://app?vid=333030b4-fde2-45c6-902a-434ebde1bc44"},"vehicle_type_id":"4","last_reported":1737745583,"current_range_meters":32800,"station_id":"ce4bgk12rcd13ifvqbj0","pricing_plan_id":"cebpf4jnsgd1na2vs0mg"},{"bike_id":"e7c6bf3d-e34b-4f9f-a800-8d4462a29621","system_id":"levelo_inurba_marseille","lat":43.29902,"lon":5.43665,"is_reserved":false,"is_disabled":false,"rental_uris":{"android":"levelo://app?vid=e7c6bf3d-e34b-4f9f-a800-8d4462a29621","ios":"levelo://app?vid=e7c6bf3d-e34b-4f9f-a800-8d4462a29621"},"vehicle_type_id":"4","last_reported":1737745583,"current_range_meters":32800,"station_id":"ce4bhpp2rcd13ifvqhfg","pricing_plan_id":"cebpf4jnsgd1na2vs0mg"},{"bike_id":"9863b7f9-4316-4322-9f6c-3cc66b0448e2","system_id":"levelo_inurba_marseille","lat":43.279439,"lon":5.389008,"is_reserved":false,"is_disabled":true,"rental_uris":{"android":"levelo://app?vid=9863b7f9-4316-4322-9f6c-3cc66b0448e2","ios":"levelo://app?vid=9863b7f9-4316-4322-9f6c-3cc66b0448e2"},"vehicle_type_id":"4","last_reported":1737745583,"current_range_meters":19200,"station_id":"","pricing_plan_id":"cebpf4jnsgd1na2vs0mg"},{"bike_id":"dbb0cf90-4bc7-4e31-838b-cf58b2cfa68f","system_id":"levelo_inurba_marseille","lat":43.26563,"lon":5.39011,"is_reserved":false,"is_disabled":false,"rental_uris":{"android":"levelo://app?vid=dbb0cf90-4bc7-4e31-838b-cf58b2cfa68f","ios":"levelo://app?vid=dbb0cf90-4bc7-4e31-838b-cf58b2cfa68f"},"vehicle_type_id":"4","last_reported":1737745583,"current_range_meters":36000,"station_id":"ce4bhe12rcd13ifvqf30","pricing_plan_id":"cebpf4jnsgd1na2vs0mg"},{"bike_id":"38a7ae1e-ae22-4512-b1f7-7a16c731feb4","system_id":"levelo_inurba_marseille","lat":43.29091,"lon":5.38111,"is_reserved":false,"is_disabled":false,"rental_uris":{"android":"levelo://app?vid=38a7ae1e-ae22-4512-b1f7-7a16c731feb4","ios":"levelo://app?vid=38a7ae1e-ae22-4512-b1f7-7a16c731feb4"},"vehicle_type_id":"4","last_reported":1737745583,"current_range_meters":10000,"station_id":"ce4bh512rcd13ifvqe2g","pricing_plan_id":"cebpf4jnsgd1na2vs0mg"},{"bike_id":"3c667cff-1f8c-412c-8a74-c058da75112b","system_id":"levelo_inurba_marseille","lat":43.26494,"lon":5.39543,"is_reserved":false,"is_disabled":false,"rental_uris":{"android":"levelo://app?vid=3c667cff-1f8c-412c-8a74-c058da75112b","ios":"levelo://app?vid=3c667cff-1f8c-412c-8a74-c058da75112b"},"vehicle_type_id":"4","last_reported":1737745583,"current_range_meters":37600,"station_id":"ce4bhi12rcd13ifvqfq0","pricing_plan_id":"cebpf4jnsgd1na2vs0mg"},{"bike_id":"032ba90f-3729-49bb-a6a4-660f7d773ed3","system_id":"levelo_inurba_marseille","lat":43.298,"lon":5.38085,"is_reserved":false,"is_disabled":false,"rental_uris":{"android":"levelo://app?vid=032ba90f-3729-49bb-a6a4-660f7d773ed3","ios":"levelo://app?vid=032ba90f-3729-49bb-a6a4-660f7d773ed3"},"vehicle_type_id":"4","last_reported":1737745583,"current_range_meters":33200,"station_id":"ce4bgip2rcd13ifvqbb0","pricing_plan_id":"cebpf4jnsgd1na2vs0mg"},{"bike_id":"47fb93bc-9361-47b9-b715-3f410aa37369","system_id":"levelo_inurba_marseille","lat":43.29306,"lon":5.3718,"is_reserved":false,"is_disabled":false,"rental_uris":{"android":"levelo://app?vid=47fb93bc-9361-47b9-b715-3f410aa37369","ios":"levelo://app?vid=47fb93bc-9361-47b9-b715-3f410aa37369"},"vehicle_type_id":"4","last_reported":1737745583,"current_range_meters":8800,"station_id":"ce4bgh92rcd13ifvqb40","pricing_plan_id":"cebpf4jnsgd1na2vs0mg"},{"bike_id":"8c01e3ba-5fa9-41cd-b7a1-d423fb01facf","system_id":"levelo_inurba_marseille","lat":43.30261,"lon":5.40066,"is_reserved":false,"is_disabled":false,"rental_uris":{"android":"levelo://app?vid=8c01e3ba-5fa9-41cd-b7a1-d423fb01facf","ios":"levelo://app?vid=8c01e3ba-5fa9-41cd-b7a1-d423fb01facf"},"vehicle_type_id":"4","last_reported":1737745583,"current_range_meters":21600,"station_id":"ce4bgvh2rcd13ifvqcs0","pricing_plan_id":"cebpf4jnsgd1na2vs0mg"},{"bike_id":"a4f05d23-5453-47d8-bccb-077c729b02d8","system_id":"levelo_inurba_marseille","lat":43.28925,"lon":5.38395,"is_reserved":false,"is_disabled":false,"rental_uris":{"android":"levelo://app?vid=a4f05d23-5453-47d8-bccb-077c729b02d8","ios":"levelo://app?vid=a4f05d23-5453-47d8-bccb-077c729b02d8"},"vehicle_type_id":"4","last_reported":1737745583,"current_range_meters":38800,"station_id":"ce4bh612rcd13ifvqe6g","pricing_plan_id":"cebpf4jnsgd1na2vs0mg"},{"bike_id":"0c74d10e-a58c-4bb5-9e45-2477fdee641b","system_id":"levelo_inurba_marseille","lat":43.32343,"lon":5.40612,"is_reserved":false,"is_disabled":false,"rental_uris":{"android":"levelo://app?vid=0c74d10e-a58c-4bb5-9e45-2477fdee641b","ios":"levelo://app?vid=0c74d10e-a58c-4bb5-9e45-2477fdee641b"},"vehicle_type_id":"4","last_reported":1737745583,"current_range_meters":20800,"station_id":"ce4bhq92rcd13ifvqhjg","pricing_plan_id":"cebpf4jnsgd1na2vs0mg"},{"bike_id":"65c529b6-86e6-4f09-a4d9-4a93b7bca28e","system_id":"levelo_inurba_marseille","lat":43.28861,"lon":5.39297,"is_reserved":false,"is_disabled":false,"rental_uris":{"android":"levelo://app?vid=65c529b6-86e6-4f09-a4d9-4a93b7bca28e","ios":"levelo://app?vid=65c529b6-86e6-4f09-a4d9-4a93b7bca28e"},"vehicle_type_id":"4","last_reported":1737745583,"current_range_meters":20000,"station_id":"ce4bh2p2rcd13ifvqdi0","pricing_plan_id":"cebpf4jnsgd1na2vs0mg"},{"bike_id":"cc42220d-f5b3-47d4-86ad-4ebe5f6b67ce","system_id":"levelo_inurba_marseille","lat":43.30607,"lon":5.37232,"is_reserved":false,"is_disabled":false,"rental_uris":{"android":"levelo://app?vid=cc42220d-f5b3-47d4-86ad-4ebe5f6b67ce","ios":"levelo://app?vid=cc42220d-f5b3-47d4-86ad-4ebe5f6b67ce"},"vehicle_type_id":"4","last_reported":1737745583,"current_range_meters":14800,"station_id":"ce4bgqh2rcd13ifvqc4g","pricing_plan_id":"cebpf4jnsgd1na2vs0mg"},{"bike_id":"4856d81c-63d5-4018-bf83-1c4f94601ec2","system_id":"levelo_inurba_marseille","lat":43.26214,"lon":5.37457,"is_reserved":false,"is_disabled":false,"rental_uris":{"android":"levelo://app?vid=4856d81c-63d5-4018-bf83-1c4f94601ec2","ios":"levelo://app?vid=4856d81c-63d5-4018-bf83-1c4f94601ec2"},"vehicle_type_id":"4","last_reported":1737745583,"current_range_meters":26800,"station_id":"ce4bhgp2rcd13ifvqfc0","pricing_plan_id":"cebpf4jnsgd1na2vs0mg"},{"bike_id":"4723f589-9fed-4aac-8b16-e4ad75305347","system_id":"levelo_inurba_marseille","lat":43.28038,"lon":5.36946,"is_reserved":false,"is_disabled":false,"rental_uris":{"android":"levelo://app?vid=4723f589-9fed-4aac-8b16-e4ad75305347","ios":"levelo://app?vid=4723f589-9fed-4aac-8b16-e4ad75305347"},"vehicle_type_id":"4","last_reported":1737745583,"current_range_meters":32800,"station_id":"ce4bha12rcd13ifvqef0","pricing_plan_id":"cebpf4jnsgd1na2vs0mg"},{"bike_id":"004f282f-8a04-4075-9810-9d2c3ed6228b","system_id":"levelo_inurba_marseille","lat":43.29041,"lon":5.3996,"is_reserved":false,"is_disabled":false,"rental_uris":{"android":"levelo://app?vid=004f282f-8a04-4075-9810-9d2c3ed6228b","ios":"levelo://app?vid=004f282f-8a04-4075-9810-9d2c3ed6228b"},"vehicle_type_id":"4","last_reported":1737745583,"current_range_meters":17200,"station_id":"ce4bh392rcd13ifvqdm0","pricing_plan_id":"cebpf4jnsgd1na2vs0mg"},{"bike_id":"1f799511-0072-480c-8ffa-3c23a23b7cd4","system_id":"levelo_inurba_marseille","lat":43.29031,"lon":5.38634,"is_reserved":false,"is_disabled":false,"rental_uris":{"android":"levelo://app?vid=1f799511-0072-480c-8ffa-3c23a23b7cd4","ios":"levelo://app?vid=1f799511-0072-480c-8ffa-3c23a23b7cd4"},"vehicle_type_id":"4","last_reported":1737745583,"current_range_meters":27600,"station_id":"ce4bh4p2rcd13ifvqe0g","pricing_plan_id":"cebpf4jnsgd1na2vs0mg"},{"bike_id":"c40014d2-0c73-4081-88cf-7519588bb182","system_id":"levelo_inurba_marseille","lat":43.29089,"lon":5.3812,"is_reserved":false,"is_disabled":true,"rental_uris":{"android":"levelo://app?vid=c40014d2-0c73-4081-88cf-7519588bb182","ios":"levelo://app?vid=c40014d2-0c73-4081-88cf-7519588bb182"},"vehicle_type_id":"4","last_reported":1737745583,"current_range_meters":0,"station_id":"ce4bh512rcd13ifvqe2g","pricing_plan_id":"cebpf4jnsgd1na2vs0mg"},{"bike_id":"6f0e28ce-024f-4cd7-923a-80deb29961a7","system_id":"levelo_inurba_marseille","lat":43.33024,"lon":5.39035,"is_reserved":false,"is_disabled":false,"rental_uris":{"android":"levelo://app?vid=6f0e28ce-024f-4cd7-923a-80deb29961a7","ios":"levelo://app?vid=6f0e28ce-024f-4cd7-923a-80deb29961a7"},"vehicle_type_id":"4","last_reported":1737745583,"current_range_meters":39200,"station_id":"ce4bhr92rcd13ifvqhrg","pricing_plan_id":"cebpf4jnsgd1na2vs0mg"},{"bike_id":"6765b80f-109b-4245-a4de-d489673b4413","system_id":"levelo_inurba_marseille","lat":43.26951,"lon":5.40235,"is_reserved":false,"is_disabled":false,"rental_uris":{"android":"levelo://app?vid=6765b80f-109b-4245-a4de-d489673b4413","ios":"levelo://app?vid=6765b80f-109b-4245-a4de-d489673b4413"},"vehicle_type_id":"4","last_reported":1737745583,"current_range_meters":35600,"station_id":"cjm6bp8fraef2m0cb0m0","pricing_plan_id":"cebpf4jnsgd1na2vs0mg"},{"bike_id":"b096132d-6312-4d20-908e-70319d90adef","system_id":"levelo_inurba_marseille","lat":43.28844,"lon":5.39293,"is_reserved":false,"is_disabled":false,"rental_uris":{"android":"levelo://app?vid=b096132d-6312-4d20-908e-70319d90adef","ios":"levelo://app?vid=b096132d-6312-4d20-908e-70319d90adef"},"vehicle_type_id":"4","last_reported":1737745583,"current_range_meters":34800,"station_id":"ce4bh2p2rcd13ifvqdi0","pricing_plan_id":"cebpf4jnsgd1na2vs0mg"},{"bike_id":"7c78a755-c7f5-4f07-a96b-621451d47948","system_id":"levelo_inurba_marseille","lat":43.29895,"lon":5.4366,"is_reserved":false,"is_disabled":false,"rental_uris":{"android":"levelo://app?vid=7c78a755-c7f5-4f07-a96b-621451d47948","ios":"levelo://app?vid=7c78a755-c7f5-4f07-a96b-621451d47948"},"vehicle_type_id":"4","last_reported":1737745583,"current_range_meters":38400,"station_id":"ce4bhpp2rcd13ifvqhfg","pricing_plan_id":"cebpf4jnsgd1na2vs0mg"},{"bike_id":"b4ae8cab-286a-4fcd-bbb7-82e8e9fcd7f7","system_id":"levelo_inurba_marseille","lat":43.30947,"lon":5.39032,"is_reserved":false,"is_disabled":false,"rental_uris":{"android":"levelo://app?vid=b4ae8cab-286a-4fcd-bbb7-82e8e9fcd7f7","ios":"levelo://app?vid=b4ae8cab-286a-4fcd-bbb7-82e8e9fcd7f7"},"vehicle_type_id":"4","last_reported":1737745583,"current_range_meters":36800,"station_id":"ce4bgup2rcd13ifvqco0","pricing_plan_id":"cebpf4jnsgd1na2vs0mg"},{"bike_id":"e21ae435-d26a-4cb5-adce-dbb968db551d","system_id":"levelo_inurba_marseille","lat":43.29425,"lon":5.3862,"is_reserved":false,"is_disabled":false,"rental_uris":{"android":"levelo://app?vid=e21ae435-d26a-4cb5-adce-dbb968db551d","ios":"levelo://app?vid=e21ae435-d26a-4cb5-adce-dbb968db551d"},"vehicle_type_id":"4","last_reported":1737745583,"current_range_meters":8000,"station_id":"ce4bh2h2rcd13ifvqdh0","pricing_plan_id":"cebpf4jnsgd1na2vs0mg"},{"bike_id":"e6c14213-fa2b-405e-a49a-704e5147d088","system_id":"levelo_inurba_marseille","lat":43.29097,"lon":5.38148,"is_reserved":false,"is_disabled":false,"rental_uris":{"android":"levelo://app?vid=e6c14213-fa2b-405e-a49a-704e5147d088","ios":"levelo://app?vid=e6c14213-fa2b-405e-a49a-704e5147d088"},"vehicle_type_id":"4","last_reported":1737745583,"current_range_meters":38800,"station_id":"ce4bh512rcd13ifvqe2g","pricing_plan_id":"cebpf4jnsgd1na2vs0mg"},{"bike_id":"b11414a5-86e5-4af6-af22-fa55543d352b","system_id":"levelo_inurba_marseille","lat":43.24807,"lon":5.37447,"is_reserved":false,"is_disabled":false,"rental_uris":{"android":"levelo://app?vid=b11414a5-86e5-4af6-af22-fa55543d352b","ios":"levelo://app?vid=b11414a5-86e5-4af6-af22-fa55543d352b"},"vehicle_type_id":"4","last_reported":1737745583,"current_range_meters":27200,"station_id":"ce4bhgh2rcd13ifvqfb0","pricing_plan_id":"cebpf4jnsgd1na2vs0mg"},{"bike_id":"8c7b633c-ae31-4c3f-ab0a-d9a2df6c0b45","system_id":"levelo_inurba_marseille","lat":43.28485,"lon":5.38555,"is_reserved":false,"is_disabled":false,"rental_uris":{"android":"levelo://app?vid=8c7b633c-ae31-4c3f-ab0a-d9a2df6c0b45","ios":"levelo://app?vid=8c7b633c-ae31-4c3f-ab0a-d9a2df6c0b45"},"vehicle_type_id":"4","last_reported":1737745583,"current_range_meters":17200,"station_id":"ce4bh8p2rcd13ifvqeb0","pricing_plan_id":"cebpf4jnsgd1na2vs0mg"},{"bike_id":"e190cdb3-1a86-4262-ae70-c24b3a950364","system_id":"levelo_inurba_marseille","lat":43.27741,"lon":5.38364,"is_reserved":false,"is_disabled":false,"rental_uris":{"android":"levelo://app?vid=e190cdb3-1a86-4262-ae70-c24b3a950364","ios":"levelo://app?vid=e190cdb3-1a86-4262-ae70-c24b3a950364"},"vehicle_type_id":"4","last_reported":1737745583,"current_range_meters":38800,"station_id":"ce4bhh92rcd13ifvqfi0","pricing_plan_id":"cebpf4jnsgd1na2vs0mg"},{"bike_id":"a3f43fbb-d9b6-4642-860d-f85693466f12","system_id":"levelo_inurba_marseille","lat":43.23182,"lon":5.39991,"is_reserved":false,"is_disabled":false,"rental_uris":{"android":"levelo://app?vid=a3f43fbb-d9b6-4642-860d-f85693466f12","ios":"levelo://app?vid=a3f43fbb-d9b6-4642-860d-f85693466f12"},"vehicle_type_id":"4","last_reported":1737745583,"current_range_meters":39200,"station_id":"ce4bhn12rcd13ifvqgqg","pricing_plan_id":"cebpf4jnsgd1na2vs0mg"},{"bike_id":"4270a961-cd88-4b3f-8137-0b1f366b088b","system_id":"levelo_inurba_marseille","lat":43.27981,"lon":5.38745,"is_reserved":false,"is_disabled":false,"rental_uris":{"android":"levelo://app?vid=4270a961-cd88-4b3f-8137-0b1f366b088b","ios":"levelo://app?vid=4270a961-cd88-4b3f-8137-0b1f366b088b"},"vehicle_type_id":"4","last_reported":1737745583,"current_range_meters":38400,"station_id":"ce4bhg12rcd13ifvqf80","pricing_plan_id":"cebpf4jnsgd1na2vs0mg"},{"bike_id":"f1d114f7-39f7-43c5-9039-caca20aad4ce","system_id":"levelo_inurba_marseille","lat":43.31763,"lon":5.39014,"is_reserved":false,"is_disabled":false,"rental_uris":{"android":"levelo://app?vid=f1d114f7-39f7-43c5-9039-caca20aad4ce","ios":"levelo://app?vid=f1d114f7-39f7-43c5-9039-caca20aad4ce"},"vehicle_type_id":"4","last_reported":1737745583,"current_range_meters":19200,"station_id":"ce4bhqp2rcd13ifvqhng","pricing_plan_id":"cebpf4jnsgd1na2vs0mg"},{"bike_id":"f147bf4f-7cb4-4977-9cf9-688e0d525a71","system_id":"levelo_inurba_marseille","lat":43.29224,"lon":5.36065,"is_reserved":false,"is_disabled":false,"rental_uris":{"android":"levelo://app?vid=f147bf4f-7cb4-4977-9cf9-688e0d525a71","ios":"levelo://app?vid=f147bf4f-7cb4-4977-9cf9-688e0d525a71"},"vehicle_type_id":"4","last_reported":1737745583,"current_range_meters":28400,"station_id":"ce4bhbh2rcd13ifvqeqg","pricing_plan_id":"cebpf4jnsgd1na2vs0mg"},{"bike_id":"41ce0354-614b-4920-9b22-00a98f3163cc","system_id":"levelo_inurba_marseille","lat":43.3176,"lon":5.39009,"is_reserved":false,"is_disabled":false,"rental_uris":{"android":"levelo://app?vid=41ce0354-614b-4920-9b22-00a98f3163cc","ios":"levelo://app?vid=41ce0354-614b-4920-9b22-00a98f3163cc"},"vehicle_type_id":"4","last_reported":1737745583,"current_range_meters":35600,"station_id":"ce4bhqp2rcd13ifvqhng","pricing_plan_id":"cebpf4jnsgd1na2vs0mg"},{"bike_id":"653e3ec4-e192-4faa-8d58-021ff0aa5785","system_id":"levelo_inurba_marseille","lat":43.29278,"lon":5.36841,"is_reserved":false,"is_disabled":false,"rental_uris":{"android":"levelo://app?vid=653e3ec4-e192-4faa-8d58-021ff0aa5785","ios":"levelo://app?vid=653e3ec4-e192-4faa-8d58-021ff0aa5785"},"vehicle_type_id":"4","last_reported":1737745583,"current_range_meters":28800,"station_id":"ce4bhbp2rcd13ifvqesg","pricing_plan_id":"cebpf4jnsgd1na2vs0mg"},{"bike_id":"9c7b1e6c-f6a7-4443-915b-f81466fe1ec7","system_id":"levelo_inurba_marseille","lat":43.29532,"lon":5.38537,"is_reserved":false,"is_disabled":false,"rental_uris":{"android":"levelo://app?vid=9c7b1e6c-f6a7-4443-915b-f81466fe1ec7","ios":"levelo://app?vid=9c7b1e6c-f6a7-4443-915b-f81466fe1ec7"},"vehicle_type_id":"4","last_reported":1737745583,"current_range_meters":30000,"station_id":"","pricing_plan_id":"cebpf4jnsgd1na2vs0mg"},{"bike_id":"9e35e062-68ce-415d-b4b2-b4ea9deeb06e","system_id":"levelo_inurba_marseille","lat":43.323,"lon":5.38273,"is_reserved":false,"is_disabled":false,"rental_uris":{"android":"levelo://app?vid=9e35e062-68ce-415d-b4b2-b4ea9deeb06e","ios":"levelo://app?vid=9e35e062-68ce-415d-b4b2-b4ea9deeb06e"},"vehicle_type_id":"4","last_reported":1737745583,"current_range_meters":28400,"station_id":"ce4bhr12rcd13ifvqhqg","pricing_plan_id":"cebpf4jnsgd1na2vs0mg"},{"bike_id":"fe3679b4-09f6-4e41-9aae-9d00892cb93e","system_id":"levelo_inurba_marseille","lat":43.23194,"lon":5.35544,"is_reserved":false,"is_disabled":false,"rental_uris":{"android":"levelo://app?vid=fe3679b4-09f6-4e41-9aae-9d00892cb93e","ios":"levelo://app?vid=fe3679b4-09f6-4e41-9aae-9d00892cb93e"},"vehicle_type_id":"4","last_reported":1737745583,"current_range_meters":16800,"station_id":"ce4bhu92rcd13ifvqi70","pricing_plan_id":"cebpf4jnsgd1na2vs0mg"},{"bike_id":"0bcdf693-2b96-4ed8-983d-0d59ed7a47aa","system_id":"levelo_inurba_marseille","lat":43.28465,"lon":5.358915,"is_reserved":false,"is_disabled":false,"rental_uris":{"android":"levelo://app?vid=0bcdf693-2b96-4ed8-983d-0d59ed7a47aa","ios":"levelo://app?vid=0bcdf693-2b96-4ed8-983d-0d59ed7a47aa"},"vehicle_type_id":"4","last_reported":1737745583,"current_range_meters":39200,"station_id":"ce4bhah2rcd13ifvqei0","pricing_plan_id":"cebpf4jnsgd1na2vs0mg"},{"bike_id":"bb59c75c-b10e-4c5c-b6ea-6be79d6de009","system_id":"levelo_inurba_marseille","lat":43.29267,"lon":5.38445,"is_reserved":false,"is_disabled":false,"rental_uris":{"android":"levelo://app?vid=bb59c75c-b10e-4c5c-b6ea-6be79d6de009","ios":"levelo://app?vid=bb59c75c-b10e-4c5c-b6ea-6be79d6de009"},"vehicle_type_id":"4","last_reported":1737745583,"current_range_meters":38400,"station_id":"ce4bh692rcd13ifvqea0","pricing_plan_id":"cebpf4jnsgd1na2vs0mg"},{"bike_id":"4d0cbbe3-b26f-4fd2-bc51-a23a6e9d4901","system_id":"levelo_inurba_marseille","lat":43.31499,"lon":5.37305,"is_reserved":false,"is_disabled":false,"rental_uris":{"android":"levelo://app?vid=4d0cbbe3-b26f-4fd2-bc51-a23a6e9d4901","ios":"levelo://app?vid=4d0cbbe3-b26f-4fd2-bc51-a23a6e9d4901"},"vehicle_type_id":"4","last_reported":1737745583,"current_range_meters":31200,"station_id":"ce4bgt12rcd13ifvqcd0","pricing_plan_id":"cebpf4jnsgd1na2vs0mg"},{"bike_id":"1fa3ed75-21f9-4b4a-a2ad-a96d5bf08b88","system_id":"levelo_inurba_marseille","lat":43.29415,"lon":5.38614,"is_reserved":false,"is_disabled":true,"rental_uris":{"android":"levelo://app?vid=1fa3ed75-21f9-4b4a-a2ad-a96d5bf08b88","ios":"levelo://app?vid=1fa3ed75-21f9-4b4a-a2ad-a96d5bf08b88"},"vehicle_type_id":"4","last_reported":1737745583,"current_range_meters":0,"station_id":"ce4bh2h2rcd13ifvqdh0","pricing_plan_id":"cebpf4jnsgd1na2vs0mg"},{"bike_id":"f1306753-0741-4054-bb1e-176ba35f7013","system_id":"levelo_inurba_marseille","lat":43.24819,"lon":5.37443,"is_reserved":false,"is_disabled":false,"rental_uris":{"android":"levelo://app?vid=f1306753-0741-4054-bb1e-176ba35f7013","ios":"levelo://app?vid=f1306753-0741-4054-bb1e-176ba35f7013"},"vehicle_type_id":"4","last_reported":1737745583,"current_range_meters":10000,"station_id":"ce4bhgh2rcd13ifvqfb0","pricing_plan_id":"cebpf4jnsgd1na2vs0mg"},{"bike_id":"ebd62006-9f8e-4cff-90aa-b0d7252cc261","system_id":"levelo_inurba_marseille","lat":43.31706,"lon":5.37742,"is_reserved":false,"is_disabled":false,"rental_uris":{"android":"levelo://app?vid=ebd62006-9f8e-4cff-90aa-b0d7252cc261","ios":"levelo://app?vid=ebd62006-9f8e-4cff-90aa-b0d7252cc261"},"vehicle_type_id":"4","last_reported":1737745583,"current_range_meters":38800,"station_id":"ce4bgth2rcd13ifvqch0","pricing_plan_id":"cebpf4jnsgd1na2vs0mg"},{"bike_id":"52992c76-e8f1-43a9-8a4e-0d88bd811a27","system_id":"levelo_inurba_marseille","lat":43.29625,"lon":5.37167,"is_reserved":false,"is_disabled":false,"rental_uris":{"android":"levelo://app?vid=52992c76-e8f1-43a9-8a4e-0d88bd811a27","ios":"levelo://app?vid=52992c76-e8f1-43a9-8a4e-0d88bd811a27"},"vehicle_type_id":"4","last_reported":1737745583,"current_range_meters":27600,"station_id":"ce4bgnh2rcd13ifvqc0g","pricing_plan_id":"cebpf4jnsgd1na2vs0mg"},{"bike_id":"16cba4e1-cb10-44ef-b1a1-eca95385335f","system_id":"levelo_inurba_marseille","lat":43.28419,"lon":5.34986,"is_reserved":false,"is_disabled":true,"rental_uris":{"android":"levelo://app?vid=16cba4e1-cb10-44ef-b1a1-eca95385335f","ios":"levelo://app?vid=16cba4e1-cb10-44ef-b1a1-eca95385335f"},"vehicle_type_id":"4","last_reported":1737745583,"current_range_meters":20400,"station_id":"ce4bhbh2rcd13ifvqepg","pricing_plan_id":"cebpf4jnsgd1na2vs0mg"},{"bike_id":"9ee3d3c0-2553-4861-bc97-42b6c5069bb3","system_id":"levelo_inurba_marseille","lat":43.28492,"lon":5.4227,"is_reserved":false,"is_disabled":false,"rental_uris":{"android":"levelo://app?vid=9ee3d3c0-2553-4861-bc97-42b6c5069bb3","ios":"levelo://app?vid=9ee3d3c0-2553-4861-bc97-42b6c5069bb3"},"vehicle_type_id":"4","last_reported":1737745583,"current_range_meters":24400,"station_id":"","pricing_plan_id":"cebpf4jnsgd1na2vs0mg"},{"bike_id":"f28ba890-238b-4b5f-bd7e-486eac4f3d1b","system_id":"levelo_inurba_marseille","lat":43.29263,"lon":5.38438,"is_reserved":false,"is_disabled":false,"rental_uris":{"android":"levelo://app?vid=f28ba890-238b-4b5f-bd7e-486eac4f3d1b","ios":"levelo://app?vid=f28ba890-238b-4b5f-bd7e-486eac4f3d1b"},"vehicle_type_id":"4","last_reported":1737745583,"current_range_meters":9200,"station_id":"ce4bh692rcd13ifvqea0","pricing_plan_id":"cebpf4jnsgd1na2vs0mg"},{"bike_id":"1627e98a-ace6-44d9-9f71-287f420a447c","system_id":"levelo_inurba_marseille","lat":43.29303,"lon":5.37459,"is_reserved":false,"is_disabled":false,"rental_uris":{"android":"levelo://app?vid=1627e98a-ace6-44d9-9f71-287f420a447c","ios":"levelo://app?vid=1627e98a-ace6-44d9-9f71-287f420a447c"},"vehicle_type_id":"4","last_reported":1737745583,"current_range_meters":27200,"station_id":"ce4bgi12rcd13ifvqb70","pricing_plan_id":"cebpf4jnsgd1na2vs0mg"},{"bike_id":"300ca8ab-ccdc-48a2-97a2-89d2d556e8dc","system_id":"levelo_inurba_marseille","lat":43.29418,"lon":5.38628,"is_reserved":false,"is_disabled":false,"rental_uris":{"android":"levelo://app?vid=300ca8ab-ccdc-48a2-97a2-89d2d556e8dc","ios":"levelo://app?vid=300ca8ab-ccdc-48a2-97a2-89d2d556e8dc"},"vehicle_type_id":"4","last_reported":1737745583,"current_range_meters":34000,"station_id":"ce4bh2h2rcd13ifvqdh0","pricing_plan_id":"cebpf4jnsgd1na2vs0mg"},{"bike_id":"6fa0d9c9-44ab-4b64-bb91-291c08691d77","system_id":"levelo_inurba_marseille","lat":43.33025,"lon":5.39043,"is_reserved":false,"is_disabled":false,"rental_uris":{"android":"levelo://app?vid=6fa0d9c9-44ab-4b64-bb91-291c08691d77","ios":"levelo://app?vid=6fa0d9c9-44ab-4b64-bb91-291c08691d77"},"vehicle_type_id":"4","last_reported":1737745583,"current_range_meters":38800,"station_id":"ce4bhr92rcd13ifvqhrg","pricing_plan_id":"cebpf4jnsgd1na2vs0mg"},{"bike_id":"cfdcc5c9-ec26-4c34-a85a-37bad3b3a8f0","system_id":"levelo_inurba_marseille","lat":43.29981,"lon":5.38479,"is_reserved":false,"is_disabled":false,"rental_uris":{"android":"levelo://app?vid=cfdcc5c9-ec26-4c34-a85a-37bad3b3a8f0","ios":"levelo://app?vid=cfdcc5c9-ec26-4c34-a85a-37bad3b3a8f0"},"vehicle_type_id":"4","last_reported":1737745583,"current_range_meters":11600,"station_id":"ce4bgj92rcd13ifvqbd0","pricing_plan_id":"cebpf4jnsgd1na2vs0mg"},{"bike_id":"209a1569-01ac-4fff-97a7-34a29e8a68c2","system_id":"levelo_inurba_marseille","lat":43.322888,"lon":5.382666,"is_reserved":false,"is_disabled":false,"rental_uris":{"android":"levelo://app?vid=209a1569-01ac-4fff-97a7-34a29e8a68c2","ios":"levelo://app?vid=209a1569-01ac-4fff-97a7-34a29e8a68c2"},"vehicle_type_id":"4","last_reported":1737745583,"current_range_meters":39200,"station_id":"ce4bhr12rcd13ifvqhqg","pricing_plan_id":"cebpf4jnsgd1na2vs0mg"},{"bike_id":"c7cc5289-5e74-4eeb-a4be-1042ece43e7c","system_id":"levelo_inurba_marseille","lat":43.31712,"lon":5.37751,"is_reserved":false,"is_disabled":false,"rental_uris":{"android":"levelo://app?vid=c7cc5289-5e74-4eeb-a4be-1042ece43e7c","ios":"levelo://app?vid=c7cc5289-5e74-4eeb-a4be-1042ece43e7c"},"vehicle_type_id":"4","last_reported":1737745583,"current_range_meters":17600,"station_id":"ce4bgth2rcd13ifvqch0","pricing_plan_id":"cebpf4jnsgd1na2vs0mg"},{"bike_id":"4901c944-e476-4e76-9afa-1ec647b7a87a","system_id":"levelo_inurba_marseille","lat":43.28687,"lon":5.37396,"is_reserved":false,"is_disabled":false,"rental_uris":{"android":"levelo://app?vid=4901c944-e476-4e76-9afa-1ec647b7a87a","ios":"levelo://app?vid=4901c944-e476-4e76-9afa-1ec647b7a87a"},"vehicle_type_id":"4","last_reported":1737745583,"current_range_meters":28800,"station_id":"ce4bh3p2rcd13ifvqdq0","pricing_plan_id":"cebpf4jnsgd1na2vs0mg"},{"bike_id":"45b366a6-6abc-4401-bb9e-1aee69db2cae","system_id":"levelo_inurba_marseille","lat":43.28101,"lon":5.39653,"is_reserved":false,"is_disabled":false,"rental_uris":{"android":"levelo://app?vid=45b366a6-6abc-4401-bb9e-1aee69db2cae","ios":"levelo://app?vid=45b366a6-6abc-4401-bb9e-1aee69db2cae"},"vehicle_type_id":"4","last_reported":1737745583,"current_range_meters":30800,"station_id":"ce4bho12rcd13ifvqh2g","pricing_plan_id":"cebpf4jnsgd1na2vs0mg"},{"bike_id":"682ab748-832e-4e98-a239-e9e0e5db4b2b","system_id":"levelo_inurba_marseille","lat":43.24556,"lon":5.39542,"is_reserved":false,"is_disabled":false,"rental_uris":{"android":"levelo://app?vid=682ab748-832e-4e98-a239-e9e0e5db4b2b","ios":"levelo://app?vid=682ab748-832e-4e98-a239-e9e0e5db4b2b"},"vehicle_type_id":"4","last_reported":1737745583,"current_range_meters":22800,"station_id":"ce4bhlp2rcd13ifvqgjg","pricing_plan_id":"cebpf4jnsgd1na2vs0mg"},{"bike_id":"7586a65f-ee64-442e-a391-360fe89add68","system_id":"levelo_inurba_marseille","lat":43.29098,"lon":5.38112,"is_reserved":false,"is_disabled":false,"rental_uris":{"android":"levelo://app?vid=7586a65f-ee64-442e-a391-360fe89add68","ios":"levelo://app?vid=7586a65f-ee64-442e-a391-360fe89add68"},"vehicle_type_id":"4","last_reported":1737745583,"current_range_meters":28400,"station_id":"ce4bh512rcd13ifvqe2g","pricing_plan_id":"cebpf4jnsgd1na2vs0mg"},{"bike_id":"9b9cba85-f00b-4086-b933-8440fd4e14b7","system_id":"levelo_inurba_marseille","lat":43.33027,"lon":5.39043,"is_reserved":false,"is_disabled":false,"rental_uris":{"android":"levelo://app?vid=9b9cba85-f00b-4086-b933-8440fd4e14b7","ios":"levelo://app?vid=9b9cba85-f00b-4086-b933-8440fd4e14b7"},"vehicle_type_id":"4","last_reported":1737745583,"current_range_meters":29600,"station_id":"ce4bhr92rcd13ifvqhrg","pricing_plan_id":"cebpf4jnsgd1na2vs0mg"},{"bike_id":"f4a67fd7-7ba0-462e-b321-724410a83bc3","system_id":"levelo_inurba_marseille","lat":43.28618,"lon":5.35101,"is_reserved":false,"is_disabled":true,"rental_uris":{"android":"levelo://app?vid=f4a67fd7-7ba0-462e-b321-724410a83bc3","ios":"levelo://app?vid=f4a67fd7-7ba0-462e-b321-724410a83bc3"},"vehicle_type_id":"4","last_reported":1737745583,"current_range_meters":20400,"station_id":"ce4bhch2rcd13ifvqeug","pricing_plan_id":"cebpf4jnsgd1na2vs0mg"},{"bike_id":"841a1767-078e-4378-8ef2-78843610d635","system_id":"levelo_inurba_marseille","lat":43.231958,"lon":5.355515,"is_reserved":false,"is_disabled":false,"rental_uris":{"android":"levelo://app?vid=841a1767-078e-4378-8ef2-78843610d635","ios":"levelo://app?vid=841a1767-078e-4378-8ef2-78843610d635"},"vehicle_type_id":"4","last_reported":1737745583,"current_range_meters":10000,"station_id":"ce4bhu92rcd13ifvqi70","pricing_plan_id":"cebpf4jnsgd1na2vs0mg"},{"bike_id":"d531adb9-2312-4b34-a321-08be0fda69cf","system_id":"levelo_inurba_marseille","lat":43.29556,"lon":5.40035,"is_reserved":false,"is_disabled":true,"rental_uris":{"android":"levelo://app?vid=d531adb9-2312-4b34-a321-08be0fda69cf","ios":"levelo://app?vid=d531adb9-2312-4b34-a321-08be0fda69cf"},"vehicle_type_id":"4","last_reported":1737745583,"current_range_meters":0,"station_id":"","pricing_plan_id":"cebpf4jnsgd1na2vs0mg"},{"bike_id":"9834e6e6-3f7d-42a4-b7db-1b6a1cc90ef9","system_id":"levelo_inurba_marseille","lat":43.3081,"lon":5.43515,"is_reserved":false,"is_disabled":false,"rental_uris":{"android":"levelo://app?vid=9834e6e6-3f7d-42a4-b7db-1b6a1cc90ef9","ios":"levelo://app?vid=9834e6e6-3f7d-42a4-b7db-1b6a1cc90ef9"},"vehicle_type_id":"4","last_reported":1737745583,"current_range_meters":38000,"station_id":"ce4bhph2rcd13ifvqheg","pricing_plan_id":"cebpf4jnsgd1na2vs0mg"},{"bike_id":"5fb18942-60c7-4c76-b45a-09d569596110","system_id":"levelo_inurba_marseille","lat":43.3091,"lon":5.36858,"is_reserved":false,"is_disabled":false,"rental_uris":{"android":"levelo://app?vid=5fb18942-60c7-4c76-b45a-09d569596110","ios":"levelo://app?vid=5fb18942-60c7-4c76-b45a-09d569596110"},"vehicle_type_id":"4","last_reported":1737745583,"current_range_meters":38800,"station_id":"ce4bgn92rcd13ifvqbvg","pricing_plan_id":"cebpf4jnsgd1na2vs0mg"},{"bike_id":"a12ae140-7d40-4453-aee3-1f900eeb57d0","system_id":"levelo_inurba_marseille","lat":43.31727,"lon":5.42385,"is_reserved":false,"is_disabled":false,"rental_uris":{"android":"levelo://app?vid=a12ae140-7d40-4453-aee3-1f900eeb57d0","ios":"levelo://app?vid=a12ae140-7d40-4453-aee3-1f900eeb57d0"},"vehicle_type_id":"4","last_reported":1737745583,"current_range_meters":38800,"station_id":"ce4bhp92rcd13ifvqhbg","pricing_plan_id":"cebpf4jnsgd1na2vs0mg"},{"bike_id":"afd53ee7-c48e-4c7a-9b64-51b0a9bab2be","system_id":"levelo_inurba_marseille","lat":43.29889,"lon":5.36424,"is_reserved":false,"is_disabled":false,"rental_uris":{"android":"levelo://app?vid=afd53ee7-c48e-4c7a-9b64-51b0a9bab2be","ios":"levelo://app?vid=afd53ee7-c48e-4c7a-9b64-51b0a9bab2be"},"vehicle_type_id":"4","last_reported":1737745583,"current_range_meters":28400,"station_id":"","pricing_plan_id":"cebpf4jnsgd1na2vs0mg"},{"bike_id":"ded2d05b-e81b-4a4d-ab49-7509141b4876","system_id":"levelo_inurba_marseille","lat":43.29201,"lon":5.35803,"is_reserved":false,"is_disabled":false,"rental_uris":{"android":"levelo://app?vid=ded2d05b-e81b-4a4d-ab49-7509141b4876","ios":"levelo://app?vid=ded2d05b-e81b-4a4d-ab49-7509141b4876"},"vehicle_type_id":"4","last_reported":1737745583,"current_range_meters":26000,"station_id":"ce4bhb12rcd13ifvqel0","pricing_plan_id":"cebpf4jnsgd1na2vs0mg"},{"bike_id":"5071b6e5-a03f-4c06-b24f-3125783d1d07","system_id":"levelo_inurba_marseille","lat":43.31284,"lon":5.40158,"is_reserved":false,"is_disabled":false,"rental_uris":{"android":"levelo://app?vid=5071b6e5-a03f-4c06-b24f-3125783d1d07","ios":"levelo://app?vid=5071b6e5-a03f-4c06-b24f-3125783d1d07"},"vehicle_type_id":"4","last_reported":1737745583,"current_range_meters":9200,"station_id":"ce4bh092rcd13ifvqd30","pricing_plan_id":"cebpf4jnsgd1na2vs0mg"},{"bike_id":"0683b8fa-bf66-4a85-b23f-305b1ef8e2c5","system_id":"levelo_inurba_marseille","lat":43.299,"lon":5.43675,"is_reserved":false,"is_disabled":true,"rental_uris":{"android":"levelo://app?vid=0683b8fa-bf66-4a85-b23f-305b1ef8e2c5","ios":"levelo://app?vid=0683b8fa-bf66-4a85-b23f-305b1ef8e2c5"},"vehicle_type_id":"4","last_reported":1737745583,"current_range_meters":0,"station_id":"ce4bhpp2rcd13ifvqhfg","pricing_plan_id":"cebpf4jnsgd1na2vs0mg"},{"bike_id":"2aa23534-386f-4382-b436-0dfe0e834ca6","system_id":"levelo_inurba_marseille","lat":43.28152,"lon":5.42633,"is_reserved":false,"is_disabled":false,"rental_uris":{"android":"levelo://app?vid=2aa23534-386f-4382-b436-0dfe0e834ca6","ios":"levelo://app?vid=2aa23534-386f-4382-b436-0dfe0e834ca6"},"vehicle_type_id":"4","last_reported":1737745583,"current_range_meters":39200,"station_id":"ce4bhnh2rcd13ifvqgug","pricing_plan_id":"cebpf4jnsgd1na2vs0mg"},{"bike_id":"5e149fc2-4444-4c96-8065-93c564baf4bb","system_id":"levelo_inurba_marseille","lat":43.28618,"lon":5.35109,"is_reserved":false,"is_disabled":false,"rental_uris":{"android":"levelo://app?vid=5e149fc2-4444-4c96-8065-93c564baf4bb","ios":"levelo://app?vid=5e149fc2-4444-4c96-8065-93c564baf4bb"},"vehicle_type_id":"4","last_reported":1737745583,"current_range_meters":8800,"station_id":"ce4bhch2rcd13ifvqeug","pricing_plan_id":"cebpf4jnsgd1na2vs0mg"},{"bike_id":"2eb10679-749a-4703-acb4-50cb9c8d6a8a","system_id":"levelo_inurba_marseille","lat":43.30101,"lon":5.39092,"is_reserved":false,"is_disabled":false,"rental_uris":{"android":"levelo://app?vid=2eb10679-749a-4703-acb4-50cb9c8d6a8a","ios":"levelo://app?vid=2eb10679-749a-4703-acb4-50cb9c8d6a8a"},"vehicle_type_id":"4","last_reported":1737745583,"current_range_meters":12400,"station_id":"ce4bh192rcd13ifvqdb0","pricing_plan_id":"cebpf4jnsgd1na2vs0mg"},{"bike_id":"496a3fa6-8c35-4cf0-b295-eee3a6616198","system_id":"levelo_inurba_marseille","lat":43.30795,"lon":5.38168,"is_reserved":false,"is_disabled":false,"rental_uris":{"android":"levelo://app?vid=496a3fa6-8c35-4cf0-b295-eee3a6616198","ios":"levelo://app?vid=496a3fa6-8c35-4cf0-b295-eee3a6616198"},"vehicle_type_id":"4","last_reported":1737745583,"current_range_meters":26000,"station_id":"ce4bgt12rcd13ifvqce0","pricing_plan_id":"cebpf4jnsgd1na2vs0mg"},{"bike_id":"fb756daf-f3dd-461f-b588-a69ed6e40503","system_id":"levelo_inurba_marseille","lat":43.26786,"lon":5.39411,"is_reserved":false,"is_disabled":false,"rental_uris":{"android":"levelo://app?vid=fb756daf-f3dd-461f-b588-a69ed6e40503","ios":"levelo://app?vid=fb756daf-f3dd-461f-b588-a69ed6e40503"},"vehicle_type_id":"4","last_reported":1737745583,"current_range_meters":8400,"station_id":"ce4bhh12rcd13ifvqfg0","pricing_plan_id":"cebpf4jnsgd1na2vs0mg"},{"bike_id":"c477d7e6-eb29-4ea7-a8c5-dbab25deb077","system_id":"levelo_inurba_marseille","lat":43.31532,"lon":5.38026,"is_reserved":false,"is_disabled":false,"rental_uris":{"android":"levelo://app?vid=c477d7e6-eb29-4ea7-a8c5-dbab25deb077","ios":"levelo://app?vid=c477d7e6-eb29-4ea7-a8c5-dbab25deb077"},"vehicle_type_id":"4","last_reported":1737745583,"current_range_meters":25200,"station_id":"ce4bhsp2rcd13ifvqi50","pricing_plan_id":"cebpf4jnsgd1na2vs0mg"},{"bike_id":"295ddb7c-62e1-4cd7-b3cb-77a252d9fe38","system_id":"levelo_inurba_marseille","lat":43.30465,"lon":5.37913,"is_reserved":false,"is_disabled":false,"rental_uris":{"android":"levelo://app?vid=295ddb7c-62e1-4cd7-b3cb-77a252d9fe38","ios":"levelo://app?vid=295ddb7c-62e1-4cd7-b3cb-77a252d9fe38"},"vehicle_type_id":"4","last_reported":1737745583,"current_range_meters":39200,"station_id":"ce4bgup2rcd13ifvqcn0","pricing_plan_id":"cebpf4jnsgd1na2vs0mg"},{"bike_id":"0da05c91-b4db-4424-93fa-80e05b294f90","system_id":"levelo_inurba_marseille","lat":43.33022,"lon":5.39038,"is_reserved":false,"is_disabled":false,"rental_uris":{"android":"levelo://app?vid=0da05c91-b4db-4424-93fa-80e05b294f90","ios":"levelo://app?vid=0da05c91-b4db-4424-93fa-80e05b294f90"},"vehicle_type_id":"4","last_reported":1737745583,"current_range_meters":38800,"station_id":"ce4bhr92rcd13ifvqhrg","pricing_plan_id":"cebpf4jnsgd1na2vs0mg"},{"bike_id":"99b536bf-e710-43f2-81c3-f177a34269f9","system_id":"levelo_inurba_marseille","lat":43.294367,"lon":5.385664,"is_reserved":false,"is_disabled":false,"rental_uris":{"android":"levelo://app?vid=99b536bf-e710-43f2-81c3-f177a34269f9","ios":"levelo://app?vid=99b536bf-e710-43f2-81c3-f177a34269f9"},"vehicle_type_id":"4","last_reported":1737745583,"current_range_meters":6400,"station_id":"","pricing_plan_id":"cebpf4jnsgd1na2vs0mg"},{"bike_id":"d8a7a4b1-bd49-482f-bc8f-8b950b83f171","system_id":"levelo_inurba_marseille","lat":43.29172,"lon":5.37152,"is_reserved":false,"is_disabled":false,"rental_uris":{"android":"levelo://app?vid=d8a7a4b1-bd49-482f-bc8f-8b950b83f171","ios":"levelo://app?vid=d8a7a4b1-bd49-482f-bc8f-8b950b83f171"},"vehicle_type_id":"4","last_reported":1737745583,"current_range_meters":6800,"station_id":"ce4bha92rcd13ifvqeh0","pricing_plan_id":"cebpf4jnsgd1na2vs0mg"},