{"last_updated":1774014788,"ttl":60,"version":"2.2","data":{"bikes":[{"bike_id":"77293498-2b31-4ec7-946d-3712c3478332","system_id":"levelo_inurba_marseille","lat":43.26554,"lon":5.37287,"is_reserved":false,"is_disabled":false,"rental_uris":{"android":"levelo://app?vid=77293498-2b31-4ec7-946d-3712c3478332","ios":"levelo://app?vid=77293498-2b31-4ec7-946d-3712c3478332"},"vehicle_type_id":"4","last_reported":1774014789,"current_range_meters":2800,"station_id":"ce4bhg12rcd13ifvqf70","pricing_plan_id":"cebpf4jnsgd1na2vs0mg"},{"bike_id":"f8002e32-7d40-48f8-99b3-a631b985eba5","system_id":"levelo_inurba_marseille","lat":43.337566,"lon":5.374557,"is_reserved":false,"is_disabled":false,"rental_uris":{"android":"levelo://app?vid=f8002e32-7d40-48f8-99b3-a631b985eba5","ios":"levelo://app?vid=f8002e32-7d40-48f8-99b3-a631b985eba5"},"vehicle_type_id":"4","last_reported":1774014789,"current_range_meters":2800,"station_id":"","pricing_plan_id":"cebpf4jnsgd1na2vs0mg"},{"bike_id":"8c29270d-5d11-446e-a3f0-f5c56ae9c816","system_id":"levelo_inurba_marseille","lat":43.27565,"lon":5.4329,"is_reserved":false,"is_disabled":false,"rental_uris":{"android":"levelo://app?vid=8c29270d-5d11-446e-a3f0-f5c56ae9c816","ios":"levelo://app?vid=8c29270d-5d11-446e-a3f0-f5c56ae9c816"},"vehicle_type_id":"4","last_reported":1774014789,"current_range_meters":2800,"station_id":"","pricing_plan_id":"cebpf4jnsgd1na2vs0mg"},{"bike_id":"653417a1-4b3e-4d39-9c57-a85e662a0357","system_id":"levelo_inurba_marseille","lat":43.32104,"lon":5.36792,"is_reserved":false,"is_disabled":false,"rental_uris":{"android":"levelo://app?vid=653417a1-4b3e-4d39-9c57-a85e662a0357","ios":"levelo://app?vid=653417a1-4b3e-4d39-9c57-a85e662a0357"},"vehicle_type_id":"4","last_reported":1774014789,"current_range_meters":2800,"station_id":"ce4bhrh2rcd13ifvqhug","pricing_plan_id":"cebpf4jnsgd1na2vs0mg"},{"bike_id":"f63489a6-bb5b-48dc-bbd4-48eed208bbd1","system_id":"levelo_inurba_marseille","lat":43.30933,"lon":5.40144,"is_reserved":false,"is_disabled":false,"rental_uris":{"android":"levelo://app?vid=f63489a6-bb5b-48dc-bbd4-48eed208bbd1","ios":"levelo://app?vid=f63489a6-bb5b-48dc-bbd4-48eed208bbd1"},"vehicle_type_id":"4","last_reported":1774014789,"current_range_meters":2800,"station_id":"ce4bgvp2rcd13ifvqct0","pricing_plan_id":"cebpf4jnsgd1na2vs0mg"},{"bike_id":"b0741341-2417-49ec-b602-523a9ebb6768","system_id":"levelo_inurba_marseille","lat":43.23203,"lon":5.35555,"is_reserved":false,"is_disabled":false,"rental_uris":{"android":"levelo://app?vid=b0741341-2417-49ec-b602-523a9ebb6768","ios":"levelo://app?vid=b0741341-2417-49ec-b602-523a9ebb6768"},"vehicle_type_id":"4","last_reported":1774014789,"current_range_meters":2800,"station_id":"ce4bhu92rcd13ifvqi70","pricing_plan_id":"cebpf4jnsgd1na2vs0mg"},{"bike_id":"c26b6ea3-9541-4332-a876-6cac97c00dc1","system_id":"levelo_inurba_marseille","lat":43.21761,"lon":5.34602,"is_reserved":false,"is_disabled":false,"rental_uris":{"android":"levelo://app?vid=c26b6ea3-9541-4332-a876-6cac97c00dc1","ios":"levelo://app?vid=c26b6ea3-9541-4332-a876-6cac97c00dc1"},"vehicle_type_id":"4","last_reported":1774014789,"current_range_meters":2800,"station_id":"st_cvj6r9ubvosntc0bgbag","pricing_plan_id":"cebpf4jnsgd1na2vs0mg"},{"bike_id":"0ea2008e-8105-4b7d-88af-3195b832f9f2","system_id":"levelo_inurba_marseille","lat":43.23153,"lon":5.43703,"is_reserved":false,"is_disabled":false,"rental_uris":{"android":"levelo://app?vid=0ea2008e-8105-4b7d-88af-3195b832f9f2","ios":"levelo://app?vid=0ea2008e-8105-4b7d-88af-3195b832f9f2"},"vehicle_type_id":"4","last_reported":1774014789,"current_range_meters":2800,"station_id":"ce4bhmp2rcd13ifvqgog","pricing_plan_id":"cebpf4jnsgd1na2vs0mg"},{"bike_id":"e1fcda96-10f8-4416-a2de-b3c0381d6f12","system_id":"levelo_inurba_marseille","lat":43.27371,"lon":5.36247,"is_reserved":false,"is_disabled":true,"rental_uris":{"android":"levelo://app?vid=e1fcda96-10f8-4416-a2de-b3c0381d6f12","ios":"levelo://app?vid=e1fcda96-10f8-4416-a2de-b3c0381d6f12"},"vehicle_type_id":"4","last_reported":1774014789,"current_range_meters":2800,"station_id":"ce4bhbh2rcd13ifvqeo0","pricing_plan_id":"cebpf4jnsgd1na2vs0mg"},{"bike_id":"ac454419-7857-42db-9cec-3a60b0be5b74","system_id":"levelo_inurba_marseille","lat":43.28526,"lon":5.35027,"is_reserved":false,"is_disabled":false,"rental_uris":{"android":"levelo://app?vid=ac454419-7857-42db-9cec-3a60b0be5b74","ios":"levelo://app?vid=ac454419-7857-42db-9cec-3a60b0be5b74"},"vehicle_type_id":"4","last_reported":1774014789,"current_range_meters":2800,"station_id":"ce4bhbh2rcd13ifvqepg","pricing_plan_id":"cebpf4jnsgd1na2vs0mg"},{"bike_id":"cf21a704-d1d6-45ac-b508-b7d48f023c9f","system_id":"levelo_inurba_marseille","lat":43.32097,"lon":5.36802,"is_reserved":false,"is_disabled":false,"rental_uris":{"android":"levelo://app?vid=cf21a704-d1d6-45ac-b508-b7d48f023c9f","ios":"levelo://app?vid=cf21a704-d1d6-45ac-b508-b7d48f023c9f"},"vehicle_type_id":"4","last_reported":1774014789,"current_range_meters":3200,"station_id":"ce4bhrh2rcd13ifvqhug","pricing_plan_id":"cebpf4jnsgd1na2vs0mg"},{"bike_id":"bd60a6ec-18d4-4476-ab1b-f354043c4b72","system_id":"levelo_inurba_marseille","lat":43.2978,"lon":5.42594,"is_reserved":false,"is_disabled":false,"rental_uris":{"android":"levelo://app?vid=bd60a6ec-18d4-4476-ab1b-f354043c4b72","ios":"levelo://app?vid=bd60a6ec-18d4-4476-ab1b-f354043c4b72"},"vehicle_type_id":"4","last_reported":1774014789,"current_range_meters":3200,"station_id":"","pricing_plan_id":"cebpf4jnsgd1na2vs0mg"},{"bike_id":"7cc5dd3b-6353-467a-8a3e-fcee0d22f523","system_id":"levelo_inurba_marseille","lat":43.28272,"lon":5.35061,"is_reserved":false,"is_disabled":false,"rental_uris":{"android":"levelo://app?vid=7cc5dd3b-6353-467a-8a3e-fcee0d22f523","ios":"levelo://app?vid=7cc5dd3b-6353-467a-8a3e-fcee0d22f523"},"vehicle_type_id":"4","last_reported":1774014789,"current_range_meters":3200,"station_id":"ce4bhbp2rcd13ifvqerg","pricing_plan_id":"cebpf4jnsgd1na2vs0mg"},{"bike_id":"a9fd9c3d-9bce-4d89-9773-4100b4efc7d0","system_id":"levelo_inurba_marseille","lat":43.24664,"lon":5.38155,"is_reserved":false,"is_disabled":false,"rental_uris":{"android":"levelo://app?vid=a9fd9c3d-9bce-4d89-9773-4100b4efc7d0","ios":"levelo://app?vid=a9fd9c3d-9bce-4d89-9773-4100b4efc7d0"},"vehicle_type_id":"4","last_reported":1774014789,"current_range_meters":3200,"station_id":"ce4bhih2rcd13ifvqfr0","pricing_plan_id":"cebpf4jnsgd1na2vs0mg"},{"bike_id":"a2858752-113b-4571-b0d9-f5de0d1f5974","system_id":"levelo_inurba_marseille","lat":43.24392,"lon":5.37073,"is_reserved":false,"is_disabled":false,"rental_uris":{"android":"levelo://app?vid=a2858752-113b-4571-b0d9-f5de0d1f5974","ios":"levelo://app?vid=a2858752-113b-4571-b0d9-f5de0d1f5974"},"vehicle_type_id":"4","last_reported":1774014789,"current_range_meters":3200,"station_id":"ce4bhhh2rcd13ifvqfk0","pricing_plan_id":"cebpf4jnsgd1na2vs0mg"},{"bike_id":"45a93e4c-2163-4549-8269-16dc17febfbb","system_id":"levelo_inurba_marseille","lat":43.265712,"lon":5.390002,"is_reserved":false,"is_disabled":false,"rental_uris":{"android":"levelo://app?vid=45a93e4c-2163-4549-8269-16dc17febfbb","ios":"levelo://app?vid=45a93e4c-2163-4549-8269-16dc17febfbb"},"vehicle_type_id":"4","last_reported":1774014789,"current_range_meters":3200,"station_id":"ce4bhe12rcd13ifvqf30","pricing_plan_id":"cebpf4jnsgd1na2vs0mg"},{"bike_id":"13243d3c-36f1-423c-9b1a-5632aef121d8","system_id":"levelo_inurba_marseille","lat":43.337444,"lon":5.374475,"is_reserved":false,"is_disabled":false,"rental_uris":{"android":"levelo://app?vid=13243d3c-36f1-423c-9b1a-5632aef121d8","ios":"levelo://app?vid=13243d3c-36f1-423c-9b1a-5632aef121d8"},"vehicle_type_id":"4","last_reported":1774014789,"current_range_meters":3200,"station_id":"","pricing_plan_id":"cebpf4jnsgd1na2vs0mg"},{"bike_id":"24dc1ce5-2db6-421b-869a-69d6f082b300","system_id":"levelo_inurba_marseille","lat":43.298,"lon":5.36251,"is_reserved":false,"is_disabled":false,"rental_uris":{"android":"levelo://app?vid=24dc1ce5-2db6-421b-869a-69d6f082b300","ios":"levelo://app?vid=24dc1ce5-2db6-421b-869a-69d6f082b300"},"vehicle_type_id":"4","last_reported":1774014789,"current_range_meters":3600,"station_id":"","pricing_plan_id":"cebpf4jnsgd1na2vs0mg"},{"bike_id":"4daa3a2a-45f8-4745-8206-924b951caa53","system_id":"levelo_inurba_marseille","lat":43.30273,"lon":5.37718,"is_reserved":false,"is_disabled":false,"rental_uris":{"android":"levelo://app?vid=4daa3a2a-45f8-4745-8206-924b951caa53","ios":"levelo://app?vid=4daa3a2a-45f8-4745-8206-924b951caa53"},"vehicle_type_id":"4","last_reported":1774014789,"current_range_meters":3600,"station_id":"ce4bguh2rcd13ifvqcj0","pricing_plan_id":"cebpf4jnsgd1na2vs0mg"},{"bike_id":"24e5aaae-71e3-454a-bd47-710c7611192d","system_id":"levelo_inurba_marseille","lat":43.23888,"lon":5.37449,"is_reserved":false,"is_disabled":false,"rental_uris":{"android":"levelo://app?vid=24e5aaae-71e3-454a-bd47-710c7611192d","ios":"levelo://app?vid=24e5aaae-71e3-454a-bd47-710c7611192d"},"vehicle_type_id":"4","last_reported":1774014789,"current_range_meters":3600,"station_id":"st_d6sm7csbq4hs73f8fpjg","pricing_plan_id":"cebpf4jnsgd1na2vs0mg"},{"bike_id":"868e32ef-041c-4da6-9818-4d2e0ec63d82","system_id":"levelo_inurba_marseille","lat":43.30963,"lon":5.39047,"is_reserved":false,"is_disabled":false,"rental_uris":{"android":"levelo://app?vid=868e32ef-041c-4da6-9818-4d2e0ec63d82","ios":"levelo://app?vid=868e32ef-041c-4da6-9818-4d2e0ec63d82"},"vehicle_type_id":"4","last_reported":1774014789,"current_range_meters":3600,"station_id":"ce4bgup2rcd13ifvqco0","pricing_plan_id":"cebpf4jnsgd1na2vs0mg"},{"bike_id":"e2940739-bf49-4418-a567-5e4fbb56547f","system_id":"levelo_inurba_marseille","lat":43.293623,"lon":5.378549,"is_reserved":false,"is_disabled":false,"rental_uris":{"android":"levelo://app?vid=e2940739-bf49-4418-a567-5e4fbb56547f","ios":"levelo://app?vid=e2940739-bf49-4418-a567-5e4fbb56547f"},"vehicle_type_id":"4","last_reported":1774014789,"current_range_meters":3600,"station_id":"ce4bgjh2rcd13ifvqbf0","pricing_plan_id":"cebpf4jnsgd1na2vs0mg"},{"bike_id":"dd10efc5-28b9-436a-be78-8011941e89fc","system_id":"levelo_inurba_marseille","lat":43.28479,"lon":5.48406,"is_reserved":false,"is_disabled":false,"rental_uris":{"android":"levelo://app?vid=dd10efc5-28b9-436a-be78-8011941e89fc","ios":"levelo://app?vid=dd10efc5-28b9-436a-be78-8011941e89fc"},"vehicle_type_id":"4","last_reported":1774014789,"current_range_meters":3600,"station_id":"st_d3svhcjqgbts73a3dn0g","pricing_plan_id":"cebpf4jnsgd1na2vs0mg"},{"bike_id":"a7589a93-7e92-46e3-9adb-33c382fc7b2d","system_id":"levelo_inurba_marseille","lat":43.2396,"lon":5.36625,"is_reserved":false,"is_disabled":false,"rental_uris":{"android":"levelo://app?vid=a7589a93-7e92-46e3-9adb-33c382fc7b2d","ios":"levelo://app?vid=a7589a93-7e92-46e3-9adb-33c382fc7b2d"},"vehicle_type_id":"4","last_reported":1774014789,"current_range_meters":3600,"station_id":"ce4bhi12rcd13ifvqfp0","pricing_plan_id":"cebpf4jnsgd1na2vs0mg"},{"bike_id":"299e519b-3b2c-4aa3-9af1-362f343fe8f8","system_id":"levelo_inurba_marseille","lat":43.23783,"lon":5.36627,"is_reserved":false,"is_disabled":false,"rental_uris":{"android":"levelo://app?vid=299e519b-3b2c-4aa3-9af1-362f343fe8f8","ios":"levelo://app?vid=299e519b-3b2c-4aa3-9af1-362f343fe8f8"},"vehicle_type_id":"4","last_reported":1774014789,"current_range_meters":3600,"station_id":"st_d3nk18o9ro0c73en2l3g","pricing_plan_id":"cebpf4jnsgd1na2vs0mg"},{"bike_id":"0cbe5d65-8750-47dc-8602-e36aefc95967","system_id":"levelo_inurba_marseille","lat":43.24169,"lon":5.36384,"is_reserved":false,"is_disabled":false,"rental_uris":{"android":"levelo://app?vid=0cbe5d65-8750-47dc-8602-e36aefc95967","ios":"levelo://app?vid=0cbe5d65-8750-47dc-8602-e36aefc95967"},"vehicle_type_id":"4","last_reported":1774014789,"current_range_meters":3600,"station_id":"cpo36qri1sfpv3e86is0","pricing_plan_id":"cebpf4jnsgd1na2vs0mg"},{"bike_id":"5ab2600a-040b-4995-bfc6-9e44799ea303","system_id":"levelo_inurba_marseille","lat":43.30956,"lon":5.39013,"is_reserved":false,"is_disabled":false,"rental_uris":{"android":"levelo://app?vid=5ab2600a-040b-4995-bfc6-9e44799ea303","ios":"levelo://app?vid=5ab2600a-040b-4995-bfc6-9e44799ea303"},"vehicle_type_id":"4","last_reported":1774014789,"current_range_meters":3600,"station_id":"ce4bgup2rcd13ifvqco0","pricing_plan_id":"cebpf4jnsgd1na2vs0mg"},{"bike_id":"021b4422-a979-4d22-ab5d-fd5599da234e","system_id":"levelo_inurba_marseille","lat":43.26793,"lon":5.39412,"is_reserved":false,"is_disabled":false,"rental_uris":{"android":"levelo://app?vid=021b4422-a979-4d22-ab5d-fd5599da234e","ios":"levelo://app?vid=021b4422-a979-4d22-ab5d-fd5599da234e"},"vehicle_type_id":"4","last_reported":1774014789,"current_range_meters":3600,"station_id":"ce4bhh12rcd13ifvqfg0","pricing_plan_id":"cebpf4jnsgd1na2vs0mg"},{"bike_id":"ec327ac2-9680-48a1-8584-22f43bc41c50","system_id":"levelo_inurba_marseille","lat":43.29267,"lon":5.37623,"is_reserved":false,"is_disabled":true,"rental_uris":{"android":"levelo://app?vid=ec327ac2-9680-48a1-8584-22f43bc41c50","ios":"levelo://app?vid=ec327ac2-9680-48a1-8584-22f43bc41c50"},"vehicle_type_id":"4","last_reported":1774014789,"current_range_meters":3600,"station_id":"ce4bgi12rcd13ifvqb80","pricing_plan_id":"cebpf4jnsgd1na2vs0mg"},{"bike_id":"0359e2a2-57b1-4a86-8584-167a77b4cf9f","system_id":"levelo_inurba_marseille","lat":43.29067,"lon":5.3994,"is_reserved":false,"is_disabled":false,"rental_uris":{"android":"levelo://app?vid=0359e2a2-57b1-4a86-8584-167a77b4cf9f","ios":"levelo://app?vid=0359e2a2-57b1-4a86-8584-167a77b4cf9f"},"vehicle_type_id":"4","last_reported":1774014789,"current_range_meters":4000,"station_id":"ce4bh392rcd13ifvqdm0","pricing_plan_id":"cebpf4jnsgd1na2vs0mg"},{"bike_id":"3f9fb310-6fac-4137-b487-279ff0e33710","system_id":"levelo_inurba_marseille","lat":43.26047,"lon":5.37553,"is_reserved":false,"is_disabled":false,"rental_uris":{"android":"levelo://app?vid=3f9fb310-6fac-4137-b487-279ff0e33710","ios":"levelo://app?vid=3f9fb310-6fac-4137-b487-279ff0e33710"},"vehicle_type_id":"4","last_reported":1774014789,"current_range_meters":4000,"station_id":"ce4bhgh2rcd13ifvqfa0","pricing_plan_id":"cebpf4jnsgd1na2vs0mg"},{"bike_id":"ae3653ee-4b50-4f8a-971b-1802190756aa","system_id":"levelo_inurba_marseille","lat":43.28408,"lon":5.34958,"is_reserved":false,"is_disabled":false,"rental_uris":{"android":"levelo://app?vid=ae3653ee-4b50-4f8a-971b-1802190756aa","ios":"levelo://app?vid=ae3653ee-4b50-4f8a-971b-1802190756aa"},"vehicle_type_id":"4","last_reported":1774014789,"current_range_meters":4000,"station_id":"ce4bhbh2rcd13ifvqepg","pricing_plan_id":"cebpf4jnsgd1na2vs0mg"},{"bike_id":"24e02049-7d35-48ad-9eee-757709960f87","system_id":"levelo_inurba_marseille","lat":43.26035,"lon":5.37551,"is_reserved":false,"is_disabled":false,"rental_uris":{"android":"levelo://app?vid=24e02049-7d35-48ad-9eee-757709960f87","ios":"levelo://app?vid=24e02049-7d35-48ad-9eee-757709960f87"},"vehicle_type_id":"4","last_reported":1774014789,"current_range_meters":4000,"station_id":"ce4bhgh2rcd13ifvqfa0","pricing_plan_id":"cebpf4jnsgd1na2vs0mg"},{"bike_id":"a2cfb655-b16d-4eca-9168-160be8d2b3a0","system_id":"levelo_inurba_marseille","lat":43.28408,"lon":5.34988,"is_reserved":false,"is_disabled":false,"rental_uris":{"android":"levelo://app?vid=a2cfb655-b16d-4eca-9168-160be8d2b3a0","ios":"levelo://app?vid=a2cfb655-b16d-4eca-9168-160be8d2b3a0"},"vehicle_type_id":"4","last_reported":1774014789,"current_range_meters":4000,"station_id":"ce4bhbh2rcd13ifvqepg","pricing_plan_id":"cebpf4jnsgd1na2vs0mg"},{"bike_id":"cbc8599d-0f53-4276-b29f-85b323d36cb9","system_id":"levelo_inurba_marseille","lat":43.25466,"lon":5.37657,"is_reserved":false,"is_disabled":false,"rental_uris":{"android":"levelo://app?vid=cbc8599d-0f53-4276-b29f-85b323d36cb9","ios":"levelo://app?vid=cbc8599d-0f53-4276-b29f-85b323d36cb9"},"vehicle_type_id":"4","last_reported":1774014789,"current_range_meters":4000,"station_id":"ce4bhh12rcd13ifvqff0","pricing_plan_id":"cebpf4jnsgd1na2vs0mg"},{"bike_id":"e6d92005-7f93-4deb-bbf0-deedbf9a510d","system_id":"levelo_inurba_marseille","lat":43.28925,"lon":5.36635,"is_reserved":false,"is_disabled":false,"rental_uris":{"android":"levelo://app?vid=e6d92005-7f93-4deb-bbf0-deedbf9a510d","ios":"levelo://app?vid=e6d92005-7f93-4deb-bbf0-deedbf9a510d"},"vehicle_type_id":"4","last_reported":1774014789,"current_range_meters":4000,"station_id":"ce4bhap2rcd13ifvqek0","pricing_plan_id":"cebpf4jnsgd1na2vs0mg"},{"bike_id":"d5f7f0bf-c4f5-45e1-bf7d-f4959ca7505e","system_id":"levelo_inurba_marseille","lat":43.2439,"lon":5.37072,"is_reserved":false,"is_disabled":false,"rental_uris":{"android":"levelo://app?vid=d5f7f0bf-c4f5-45e1-bf7d-f4959ca7505e","ios":"levelo://app?vid=d5f7f0bf-c4f5-45e1-bf7d-f4959ca7505e"},"vehicle_type_id":"4","last_reported":1774014789,"current_range_meters":4000,"station_id":"ce4bhhh2rcd13ifvqfk0","pricing_plan_id":"cebpf4jnsgd1na2vs0mg"},{"bike_id":"d870c031-9d59-454d-95d3-c308a0ee650a","system_id":"levelo_inurba_marseille","lat":43.28411,"lon":5.34995,"is_reserved":false,"is_disabled":false,"rental_uris":{"android":"levelo://app?vid=d870c031-9d59-454d-95d3-c308a0ee650a","ios":"levelo://app?vid=d870c031-9d59-454d-95d3-c308a0ee650a"},"vehicle_type_id":"4","last_reported":1774014789,"current_range_meters":4000,"station_id":"ce4bhbh2rcd13ifvqepg","pricing_plan_id":"cebpf4jnsgd1na2vs0mg"},{"bike_id":"3174c810-8dab-4aca-86b3-462a3e49b6f5","system_id":"levelo_inurba_marseille","lat":43.27371,"lon":5.36254,"is_reserved":false,"is_disabled":false,"rental_uris":{"android":"levelo://app?vid=3174c810-8dab-4aca-86b3-462a3e49b6f5","ios":"levelo://app?vid=3174c810-8dab-4aca-86b3-462a3e49b6f5"},"vehicle_type_id":"4","last_reported":1774014789,"current_range_meters":4000,"station_id":"","pricing_plan_id":"cebpf4jnsgd1na2vs0mg"},{"bike_id":"06ce4f90-d2c1-4cdf-8e92-af4e6c83cb49","system_id":"levelo_inurba_marseille","lat":43.28997,"lon":5.35611,"is_reserved":false,"is_disabled":true,"rental_uris":{"android":"levelo://app?vid=06ce4f90-d2c1-4cdf-8e92-af4e6c83cb49","ios":"levelo://app?vid=06ce4f90-d2c1-4cdf-8e92-af4e6c83cb49"},"vehicle_type_id":"4","last_reported":1774014789,"current_range_meters":4000,"station_id":"ce4bhb92rcd13ifvqen0","pricing_plan_id":"cebpf4jnsgd1na2vs0mg"},{"bike_id":"1e79f2ff-4081-45ff-b647-90b12c596965","system_id":"levelo_inurba_marseille","lat":43.30733,"lon":5.42439,"is_reserved":false,"is_disabled":false,"rental_uris":{"android":"levelo://app?vid=1e79f2ff-4081-45ff-b647-90b12c596965","ios":"levelo://app?vid=1e79f2ff-4081-45ff-b647-90b12c596965"},"vehicle_type_id":"4","last_reported":1774014789,"current_range_meters":4000,"station_id":"st_cvj6ca6bvosntc0bfgr0","pricing_plan_id":"cebpf4jnsgd1na2vs0mg"},{"bike_id":"bebae7b0-c2c6-4b1d-8855-8b06d4443a00","system_id":"levelo_inurba_marseille","lat":43.28477,"lon":5.48395,"is_reserved":false,"is_disabled":false,"rental_uris":{"android":"levelo://app?vid=bebae7b0-c2c6-4b1d-8855-8b06d4443a00","ios":"levelo://app?vid=bebae7b0-c2c6-4b1d-8855-8b06d4443a00"},"vehicle_type_id":"4","last_reported":1774014789,"current_range_meters":4000,"station_id":"st_d3svhcjqgbts73a3dn0g","pricing_plan_id":"cebpf4jnsgd1na2vs0mg"},{"bike_id":"15750178-4f9b-426f-bafa-493e04eb7e36","system_id":"levelo_inurba_marseille","lat":43.3081,"lon":5.40668,"is_reserved":false,"is_disabled":false,"rental_uris":{"android":"levelo://app?vid=15750178-4f9b-426f-bafa-493e04eb7e36","ios":"levelo://app?vid=15750178-4f9b-426f-bafa-493e04eb7e36"},"vehicle_type_id":"4","last_reported":1774014789,"current_range_meters":4000,"station_id":"","pricing_plan_id":"cebpf4jnsgd1na2vs0mg"},{"bike_id":"27cfd7f2-48c6-4fe4-9d82-e5b76120df75","system_id":"levelo_inurba_marseille","lat":43.29849,"lon":5.44088,"is_reserved":false,"is_disabled":false,"rental_uris":{"android":"levelo://app?vid=27cfd7f2-48c6-4fe4-9d82-e5b76120df75","ios":"levelo://app?vid=27cfd7f2-48c6-4fe4-9d82-e5b76120df75"},"vehicle_type_id":"4","last_reported":1774014789,"current_range_meters":4400,"station_id":"st_d3jp68qikq2c7381ktn0","pricing_plan_id":"cebpf4jnsgd1na2vs0mg"},{"bike_id":"88f62a4c-1dd5-4d07-a59a-902271acdb70","system_id":"levelo_inurba_marseille","lat":43.28154,"lon":5.42638,"is_reserved":false,"is_disabled":false,"rental_uris":{"android":"levelo://app?vid=88f62a4c-1dd5-4d07-a59a-902271acdb70","ios":"levelo://app?vid=88f62a4c-1dd5-4d07-a59a-902271acdb70"},"vehicle_type_id":"4","last_reported":1774014789,"current_range_meters":4400,"station_id":"ce4bhnh2rcd13ifvqgug","pricing_plan_id":"cebpf4jnsgd1na2vs0mg"},{"bike_id":"d29d19fb-df47-43e1-b8ba-4b75a2dd77f3","system_id":"levelo_inurba_marseille","lat":43.28136,"lon":5.42639,"is_reserved":false,"is_disabled":false,"rental_uris":{"android":"levelo://app?vid=d29d19fb-df47-43e1-b8ba-4b75a2dd77f3","ios":"levelo://app?vid=d29d19fb-df47-43e1-b8ba-4b75a2dd77f3"},"vehicle_type_id":"4","last_reported":1774014789,"current_range_meters":4400,"station_id":"ce4bhnh2rcd13ifvqgug","pricing_plan_id":"cebpf4jnsgd1na2vs0mg"},{"bike_id":"9fbfdc7a-8398-40b5-b97f-ba1104c7c96f","system_id":"levelo_inurba_marseille","lat":43.23181,"lon":5.35553,"is_reserved":false,"is_disabled":false,"rental_uris":{"android":"levelo://app?vid=9fbfdc7a-8398-40b5-b97f-ba1104c7c96f","ios":"levelo://app?vid=9fbfdc7a-8398-40b5-b97f-ba1104c7c96f"},"vehicle_type_id":"4","last_reported":1774014789,"current_range_meters":4400,"station_id":"ce4bhu92rcd13ifvqi70","pricing_plan_id":"cebpf4jnsgd1na2vs0mg"},{"bike_id":"f8893fa6-770a-49c5-86cd-177ca8ecd695","system_id":"levelo_inurba_marseille","lat":43.30541,"lon":5.36545,"is_reserved":false,"is_disabled":false,"rental_uris":{"android":"levelo://app?vid=f8893fa6-770a-49c5-86cd-177ca8ecd695","ios":"levelo://app?vid=f8893fa6-770a-49c5-86cd-177ca8ecd695"},"vehicle_type_id":"4","last_reported":1774014789,"current_range_meters":4400,"station_id":"ce4bgs12rcd13ifvqcag","pricing_plan_id":"cebpf4jnsgd1na2vs0mg"},{"bike_id":"5236fe4d-e250-44b5-8013-3f83419cddd7","system_id":"levelo_inurba_marseille","lat":43.31528,"lon":5.38026,"is_reserved":false,"is_disabled":false,"rental_uris":{"android":"levelo://app?vid=5236fe4d-e250-44b5-8013-3f83419cddd7","ios":"levelo://app?vid=5236fe4d-e250-44b5-8013-3f83419cddd7"},"vehicle_type_id":"4","last_reported":1774014789,"current_range_meters":4400,"station_id":"ce4bhsp2rcd13ifvqi50","pricing_plan_id":"cebpf4jnsgd1na2vs0mg"},{"bike_id":"d9edc7ce-8a45-4ef6-a9f4-6c9903df8259","system_id":"levelo_inurba_marseille","lat":43.2929,"lon":5.3743,"is_reserved":false,"is_disabled":false,"rental_uris":{"android":"levelo://app?vid=d9edc7ce-8a45-4ef6-a9f4-6c9903df8259","ios":"levelo://app?vid=d9edc7ce-8a45-4ef6-a9f4-6c9903df8259"},"vehicle_type_id":"4","last_reported":1774014789,"current_range_meters":4400,"station_id":"ce4bgi12rcd13ifvqb70","pricing_plan_id":"cebpf4jnsgd1na2vs0mg"},{"bike_id":"f5fa439e-11aa-4f8c-b2ed-eb0b456ee1b5","system_id":"levelo_inurba_marseille","lat":43.30928,"lon":5.36843,"is_reserved":false,"is_disabled":false,"rental_uris":{"android":"levelo://app?vid=f5fa439e-11aa-4f8c-b2ed-eb0b456ee1b5","ios":"levelo://app?vid=f5fa439e-11aa-4f8c-b2ed-eb0b456ee1b5"},"vehicle_type_id":"4","last_reported":1774014789,"current_range_meters":4400,"station_id":"ce4bgn92rcd13ifvqbvg","pricing_plan_id":"cebpf4jnsgd1na2vs0mg"},{"bike_id":"4c6a4d6a-2427-4c2c-bc2d-a0973ca4e7b9","system_id":"levelo_inurba_marseille","lat":43.27994,"lon":5.41669,"is_reserved":false,"is_disabled":false,"rental_uris":{"android":"levelo://app?vid=4c6a4d6a-2427-4c2c-bc2d-a0973ca4e7b9","ios":"levelo://app?vid=4c6a4d6a-2427-4c2c-bc2d-a0973ca4e7b9"},"vehicle_type_id":"4","last_reported":1774014789,"current_range_meters":4400,"station_id":"ce4bho12rcd13ifvqh1g","pricing_plan_id":"cebpf4jnsgd1na2vs0mg"},{"bike_id":"dcad5231-779f-4393-a8a0-f8cbff56c550","system_id":"levelo_inurba_marseille","lat":43.2948,"lon":5.386,"is_reserved":false,"is_disabled":false,"rental_uris":{"android":"levelo://app?vid=dcad5231-779f-4393-a8a0-f8cbff56c550","ios":"levelo://app?vid=dcad5231-779f-4393-a8a0-f8cbff56c550"},"vehicle_type_id":"4","last_reported":1774014789,"current_range_meters":4400,"station_id":"ce4bgih2rcd13ifvqba0","pricing_plan_id":"cebpf4jnsgd1na2vs0mg"},{"bike_id":"047ba141-be1a-459b-b4e4-3f69e624e803","system_id":"levelo_inurba_marseille","lat":43.27374,"lon":5.36259,"is_reserved":false,"is_disabled":false,"rental_uris":{"android":"levelo://app?vid=047ba141-be1a-459b-b4e4-3f69e624e803","ios":"levelo://app?vid=047ba141-be1a-459b-b4e4-3f69e624e803"},"vehicle_type_id":"4","last_reported":1774014789,"current_range_meters":4800,"station_id":"ce4bhbh2rcd13ifvqeo0","pricing_plan_id":"cebpf4jnsgd1na2vs0mg"},{"bike_id":"e4236fcc-5b7c-44c0-8cd6-c086ebd7362b","system_id":"levelo_inurba_marseille","lat":43.27507,"lon":5.41594,"is_reserved":false,"is_disabled":false,"rental_uris":{"android":"levelo://app?vid=e4236fcc-5b7c-44c0-8cd6-c086ebd7362b","ios":"levelo://app?vid=e4236fcc-5b7c-44c0-8cd6-c086ebd7362b"},"vehicle_type_id":"4","last_reported":1774014789,"current_range_meters":4800,"station_id":"st_d6im8g6chgec73a5pndg","pricing_plan_id":"cebpf4jnsgd1na2vs0mg"},{"bike_id":"52f6a6b9-7af9-4956-b458-baf5061e66bf","system_id":"levelo_inurba_marseille","lat":43.23335,"lon":5.44467,"is_reserved":false,"is_disabled":false,"rental_uris":{"android":"levelo://app?vid=52f6a6b9-7af9-4956-b458-baf5061e66bf","ios":"levelo://app?vid=52f6a6b9-7af9-4956-b458-baf5061e66bf"},"vehicle_type_id":"4","last_reported":1774014789,"current_range_meters":4800,"station_id":"","pricing_plan_id":"cebpf4jnsgd1na2vs0mg"},{"bike_id":"347a0133-45d3-4213-ae48-606f4453bbf3","system_id":"levelo_inurba_marseille","lat":43.23052,"lon":5.35493,"is_reserved":false,"is_disabled":false,"rental_uris":{"android":"levelo://app?vid=347a0133-45d3-4213-ae48-606f4453bbf3","ios":"levelo://app?vid=347a0133-45d3-4213-ae48-606f4453bbf3"},"vehicle_type_id":"4","last_reported":1774014789,"current_range_meters":4800,"station_id":"cpo3342slgdg3j2ifvpg","pricing_plan_id":"cebpf4jnsgd1na2vs0mg"},{"bike_id":"a20545a1-7a8e-4ee6-a14b-08d5c5e954ce","system_id":"levelo_inurba_marseille","lat":43.27314,"lon":5.39081,"is_reserved":false,"is_disabled":false,"rental_uris":{"android":"levelo://app?vid=a20545a1-7a8e-4ee6-a14b-08d5c5e954ce","ios":"levelo://app?vid=a20545a1-7a8e-4ee6-a14b-08d5c5e954ce"},"vehicle_type_id":"4","last_reported":1774014789,"current_range_meters":4800,"station_id":"ce4bhgp2rcd13ifvqfe0","pricing_plan_id":"cebpf4jnsgd1na2vs0mg"},{"bike_id":"63886c6e-65f5-486c-8403-dc801c09a3a8","system_id":"levelo_inurba_marseille","lat":43.303031,"lon":5.392106,"is_reserved":false,"is_disabled":false,"rental_uris":{"android":"levelo://app?vid=63886c6e-65f5-486c-8403-dc801c09a3a8","ios":"levelo://app?vid=63886c6e-65f5-486c-8403-dc801c09a3a8"},"vehicle_type_id":"4","last_reported":1774014789,"current_range_meters":4800,"station_id":"ce4bgkh2rcd13ifvqbk0","pricing_plan_id":"cebpf4jnsgd1na2vs0mg"},{"bike_id":"5cc8e3ed-b06f-4543-8afd-114d51b9bc0e","system_id":"levelo_inurba_marseille","lat":43.28404,"lon":5.34982,"is_reserved":false,"is_disabled":false,"rental_uris":{"android":"levelo://app?vid=5cc8e3ed-b06f-4543-8afd-114d51b9bc0e","ios":"levelo://app?vid=5cc8e3ed-b06f-4543-8afd-114d51b9bc0e"},"vehicle_type_id":"4","last_reported":1774014789,"current_range_meters":4800,"station_id":"ce4bhbh2rcd13ifvqepg","pricing_plan_id":"cebpf4jnsgd1na2vs0mg"},{"bike_id":"7f47543c-33ce-43ce-a36d-a35439ad098d","system_id":"levelo_inurba_marseille","lat":43.30127,"lon":5.37423,"is_reserved":false,"is_disabled":false,"rental_uris":{"android":"levelo://app?vid=7f47543c-33ce-43ce-a36d-a35439ad098d","ios":"levelo://app?vid=7f47543c-33ce-43ce-a36d-a35439ad098d"},"vehicle_type_id":"4","last_reported":1774014789,"current_range_meters":4800,"station_id":"ce4bgs92rcd13ifvqcc0","pricing_plan_id":"cebpf4jnsgd1na2vs0mg"},{"bike_id":"f5c2b59b-d5a6-4b1b-b27f-51beb91e4447","system_id":"levelo_inurba_marseille","lat":43.23894,"lon":5.3745,"is_reserved":false,"is_disabled":false,"rental_uris":{"android":"levelo://app?vid=f5c2b59b-d5a6-4b1b-b27f-51beb91e4447","ios":"levelo://app?vid=f5c2b59b-d5a6-4b1b-b27f-51beb91e4447"},"vehicle_type_id":"4","last_reported":1774014789,"current_range_meters":4800,"station_id":"st_d6sm7csbq4hs73f8fpjg","pricing_plan_id":"cebpf4jnsgd1na2vs0mg"},{"bike_id":"7d1cbb8f-bd18-4a1a-94bf-34f416e749e3","system_id":"levelo_inurba_marseille","lat":43.30128,"lon":5.39838,"is_reserved":false,"is_disabled":false,"rental_uris":{"android":"levelo://app?vid=7d1cbb8f-bd18-4a1a-94bf-34f416e749e3","ios":"levelo://app?vid=7d1cbb8f-bd18-4a1a-94bf-34f416e749e3"},"vehicle_type_id":"4","last_reported":1774014789,"current_range_meters":4800,"station_id":"ce4bh0h2rcd13ifvqd40","pricing_plan_id":"cebpf4jnsgd1na2vs0mg"},{"bike_id":"b3c6ee7e-839e-47ca-8bd1-12618e78dd87","system_id":"levelo_inurba_marseille","lat":43.23949,"lon":5.3664,"is_reserved":false,"is_disabled":false,"rental_uris":{"android":"levelo://app?vid=b3c6ee7e-839e-47ca-8bd1-12618e78dd87","ios":"levelo://app?vid=b3c6ee7e-839e-47ca-8bd1-12618e78dd87"},"vehicle_type_id":"4","last_reported":1774014789,"current_range_meters":4800,"station_id":"ce4bhi12rcd13ifvqfp0","pricing_plan_id":"cebpf4jnsgd1na2vs0mg"},{"bike_id":"6443900c-da0c-4905-bee6-0bb1b84d34d9","system_id":"levelo_inurba_marseille","lat":43.24546,"lon":5.39522,"is_reserved":false,"is_disabled":false,"rental_uris":{"android":"levelo://app?vid=6443900c-da0c-4905-bee6-0bb1b84d34d9","ios":"levelo://app?vid=6443900c-da0c-4905-bee6-0bb1b84d34d9"},"vehicle_type_id":"4","last_reported":1774014789,"current_range_meters":4800,"station_id":"ce4bhlp2rcd13ifvqgjg","pricing_plan_id":"cebpf4jnsgd1na2vs0mg"},{"bike_id":"addd9e53-bfde-4c2f-8c89-4a891b6a7add","system_id":"levelo_inurba_marseille","lat":43.31342,"lon":5.3792,"is_reserved":false,"is_disabled":false,"rental_uris":{"android":"levelo://app?vid=addd9e53-bfde-4c2f-8c89-4a891b6a7add","ios":"levelo://app?vid=addd9e53-bfde-4c2f-8c89-4a891b6a7add"},"vehicle_type_id":"4","last_reported":1774014789,"current_range_meters":5600,"station_id":"","pricing_plan_id":"cebpf4jnsgd1na2vs0mg"},{"bike_id":"a7dd1c2f-1863-4db6-9064-755a90a3283b","system_id":"levelo_inurba_marseille","lat":43.29713,"lon":5.42609,"is_reserved":false,"is_disabled":false,"rental_uris":{"android":"levelo://app?vid=a7dd1c2f-1863-4db6-9064-755a90a3283b","ios":"levelo://app?vid=a7dd1c2f-1863-4db6-9064-755a90a3283b"},"vehicle_type_id":"4","last_reported":1774014789,"current_range_meters":5600,"station_id":"","pricing_plan_id":"cebpf4jnsgd1na2vs0mg"},{"bike_id":"81cf3a80-d27c-41a5-bba2-090b787936bd","system_id":"levelo_inurba_marseille","lat":43.32452,"lon":5.38288,"is_reserved":false,"is_disabled":false,"rental_uris":{"android":"levelo://app?vid=81cf3a80-d27c-41a5-bba2-090b787936bd","ios":"levelo://app?vid=81cf3a80-d27c-41a5-bba2-090b787936bd"},"vehicle_type_id":"4","last_reported":1774014789,"current_range_meters":5600,"station_id":"st_d4asgbiv49dc73anf9m0","pricing_plan_id":"cebpf4jnsgd1na2vs0mg"},{"bike_id":"6e50a54a-c657-4ef5-9339-4c225154dc0d","system_id":"levelo_inurba_marseille","lat":43.27924,"lon":5.42227,"is_reserved":false,"is_disabled":false,"rental_uris":{"android":"levelo://app?vid=6e50a54a-c657-4ef5-9339-4c225154dc0d","ios":"levelo://app?vid=6e50a54a-c657-4ef5-9339-4c225154dc0d"},"vehicle_type_id":"4","last_reported":1774014789,"current_range_meters":5600,"station_id":"","pricing_plan_id":"cebpf4jnsgd1na2vs0mg"},{"bike_id":"744826ba-753a-4ecc-8e5c-e31c07526efd","system_id":"levelo_inurba_marseille","lat":43.27976,"lon":5.41652,"is_reserved":false,"is_disabled":false,"rental_uris":{"android":"levelo://app?vid=744826ba-753a-4ecc-8e5c-e31c07526efd","ios":"levelo://app?vid=744826ba-753a-4ecc-8e5c-e31c07526efd"},"vehicle_type_id":"4","last_reported":1774014789,"current_range_meters":5600,"station_id":"ce4bho12rcd13ifvqh1g","pricing_plan_id":"cebpf4jnsgd1na2vs0mg"},{"bike_id":"503d1342-2683-48a9-bd4a-8ce095f8e7c7","system_id":"levelo_inurba_marseille","lat":43.27632,"lon":5.36086,"is_reserved":false,"is_disabled":false,"rental_uris":{"android":"levelo://app?vid=503d1342-2683-48a9-bd4a-8ce095f8e7c7","ios":"levelo://app?vid=503d1342-2683-48a9-bd4a-8ce095f8e7c7"},"vehicle_type_id":"4","last_reported":1774014789,"current_range_meters":5600,"station_id":"ce4bgj92rcd13ifvqbe0","pricing_plan_id":"cebpf4jnsgd1na2vs0mg"},{"bike_id":"1fc87fed-6040-40bc-99c6-6f694d257aa1","system_id":"levelo_inurba_marseille","lat":43.30925,"lon":5.40855,"is_reserved":false,"is_disabled":false,"rental_uris":{"android":"levelo://app?vid=1fc87fed-6040-40bc-99c6-6f694d257aa1","ios":"levelo://app?vid=1fc87fed-6040-40bc-99c6-6f694d257aa1"},"vehicle_type_id":"4","last_reported":1774014789,"current_range_meters":5600,"station_id":"","pricing_plan_id":"cebpf4jnsgd1na2vs0mg"},{"bike_id":"b343f5f8-c1bb-4ce3-a7a6-a6599510fd8f","system_id":"levelo_inurba_marseille","lat":43.28408,"lon":5.34997,"is_reserved":false,"is_disabled":false,"rental_uris":{"android":"levelo://app?vid=b343f5f8-c1bb-4ce3-a7a6-a6599510fd8f","ios":"levelo://app?vid=b343f5f8-c1bb-4ce3-a7a6-a6599510fd8f"},"vehicle_type_id":"4","last_reported":1774014789,"current_range_meters":6000,"station_id":"ce4bhbh2rcd13ifvqepg","pricing_plan_id":"cebpf4jnsgd1na2vs0mg"},{"bike_id":"cfc8ae9d-11d4-40f9-846e-1eff624ddef7","system_id":"levelo_inurba_marseille","lat":43.31836,"lon":5.37386,"is_reserved":false,"is_disabled":false,"rental_uris":{"android":"levelo://app?vid=cfc8ae9d-11d4-40f9-846e-1eff624ddef7","ios":"levelo://app?vid=cfc8ae9d-11d4-40f9-846e-1eff624ddef7"},"vehicle_type_id":"4","last_reported":1774014789,"current_range_meters":6000,"station_id":"","pricing_plan_id":"cebpf4jnsgd1na2vs0mg"},{"bike_id":"0a9897ee-e97b-42bb-8c02-2969ac027935","system_id":"levelo_inurba_marseille","lat":43.30128,"lon":5.37414,"is_reserved":false,"is_disabled":false,"rental_uris":{"android":"levelo://app?vid=0a9897ee-e97b-42bb-8c02-2969ac027935","ios":"levelo://app?vid=0a9897ee-e97b-42bb-8c02-2969ac027935"},"vehicle_type_id":"4","last_reported":1774014789,"current_range_meters":6000,"station_id":"ce4bgs92rcd13ifvqcc0","pricing_plan_id":"cebpf4jnsgd1na2vs0mg"},{"bike_id":"10ced8a1-0004-454c-a343-b116c3880ed6","system_id":"levelo_inurba_marseille","lat":43.32114,"lon":5.36758,"is_reserved":false,"is_disabled":false,"rental_uris":{"android":"levelo://app?vid=10ced8a1-0004-454c-a343-b116c3880ed6","ios":"levelo://app?vid=10ced8a1-0004-454c-a343-b116c3880ed6"},"vehicle_type_id":"4","last_reported":1774014789,"current_range_meters":6000,"station_id":"ce4bhrh2rcd13ifvqhug","pricing_plan_id":"cebpf4jnsgd1na2vs0mg"},{"bike_id":"33e015f6-34a2-44b9-a37e-fd5fd3630f6d","system_id":"levelo_inurba_marseille","lat":43.24168,"lon":5.36411,"is_reserved":false,"is_disabled":false,"rental_uris":{"android":"levelo://app?vid=33e015f6-34a2-44b9-a37e-fd5fd3630f6d","ios":"levelo://app?vid=33e015f6-34a2-44b9-a37e-fd5fd3630f6d"},"vehicle_type_id":"4","last_reported":1774014789,"current_range_meters":6000,"station_id":"cpo36qri1sfpv3e86is0","pricing_plan_id":"cebpf4jnsgd1na2vs0mg"},{"bike_id":"4fee1015-86c1-4813-90b3-f6a9670b7ac8","system_id":"levelo_inurba_marseille","lat":43.28875,"lon":5.3929,"is_reserved":false,"is_disabled":false,"rental_uris":{"android":"levelo://app?vid=4fee1015-86c1-4813-90b3-f6a9670b7ac8","ios":"levelo://app?vid=4fee1015-86c1-4813-90b3-f6a9670b7ac8"},"vehicle_type_id":"4","last_reported":1774014789,"current_range_meters":6000,"station_id":"ce4bh2p2rcd13ifvqdi0","pricing_plan_id":"cebpf4jnsgd1na2vs0mg"},{"bike_id":"e08d225b-8f4a-4ce0-895d-d9f7f842408c","system_id":"levelo_inurba_marseille","lat":43.24176,"lon":5.36402,"is_reserved":false,"is_disabled":false,"rental_uris":{"android":"levelo://app?vid=e08d225b-8f4a-4ce0-895d-d9f7f842408c","ios":"levelo://app?vid=e08d225b-8f4a-4ce0-895d-d9f7f842408c"},"vehicle_type_id":"4","last_reported":1774014789,"current_range_meters":6000,"station_id":"cpo36qri1sfpv3e86is0","pricing_plan_id":"cebpf4jnsgd1na2vs0mg"},{"bike_id":"938f5b2b-699a-47ff-8381-c70adbd93b65","system_id":"levelo_inurba_marseille","lat":43.29783,"lon":5.37108,"is_reserved":false,"is_disabled":true,"rental_uris":{"android":"levelo://app?vid=938f5b2b-699a-47ff-8381-c70adbd93b65","ios":"levelo://app?vid=938f5b2b-699a-47ff-8381-c70adbd93b65"},"vehicle_type_id":"4","last_reported":1774014789,"current_range_meters":6000,"station_id":"ce4bgop2rcd13ifvqc1g","pricing_plan_id":"cebpf4jnsgd1na2vs0mg"},{"bike_id":"5290db71-45f5-42e4-b592-312b6a66ffa2","system_id":"levelo_inurba_marseille","lat":43.26544,"lon":5.37292,"is_reserved":false,"is_disabled":false,"rental_uris":{"android":"levelo://app?vid=5290db71-45f5-42e4-b592-312b6a66ffa2","ios":"levelo://app?vid=5290db71-45f5-42e4-b592-312b6a66ffa2"},"vehicle_type_id":"4","last_reported":1774014789,"current_range_meters":6000,"station_id":"ce4bhg12rcd13ifvqf70","pricing_plan_id":"cebpf4jnsgd1na2vs0mg"},{"bike_id":"8439d0fb-bacc-4dd2-aab9-bd162f1fc6b9","system_id":"levelo_inurba_marseille","lat":43.27053,"lon":5.40259,"is_reserved":false,"is_disabled":false,"rental_uris":{"android":"levelo://app?vid=8439d0fb-bacc-4dd2-aab9-bd162f1fc6b9","ios":"levelo://app?vid=8439d0fb-bacc-4dd2-aab9-bd162f1fc6b9"},"vehicle_type_id":"4","last_reported":1774014789,"current_range_meters":6000,"station_id":"ce4bhk92rcd13ifvqgc0","pricing_plan_id":"cebpf4jnsgd1na2vs0mg"},{"bike_id":"08201ed2-95ac-4bdf-90f9-7b398c7d7cb6","system_id":"levelo_inurba_marseille","lat":43.22559,"lon":5.4163,"is_reserved":false,"is_disabled":false,"rental_uris":{"android":"levelo://app?vid=08201ed2-95ac-4bdf-90f9-7b398c7d7cb6","ios":"levelo://app?vid=08201ed2-95ac-4bdf-90f9-7b398c7d7cb6"},"vehicle_type_id":"4","last_reported":1774014789,"current_range_meters":6000,"station_id":"st_d2o4gvlbi1j2169b742g","pricing_plan_id":"cebpf4jnsgd1na2vs0mg"},{"bike_id":"3bcd3f37-7909-4e8a-be03-a9562a2c0e45","system_id":"levelo_inurba_marseille","lat":43.28485,"lon":5.48403,"is_reserved":false,"is_disabled":false,"rental_uris":{"android":"levelo://app?vid=3bcd3f37-7909-4e8a-be03-a9562a2c0e45","ios":"levelo://app?vid=3bcd3f37-7909-4e8a-be03-a9562a2c0e45"},"vehicle_type_id":"4","last_reported":1774014789,"current_range_meters":6400,"station_id":"","pricing_plan_id":"cebpf4jnsgd1na2vs0mg"},{"bike_id":"856fe66d-4acf-4111-b537-8a0bb0fdb356","system_id":"levelo_inurba_marseille","lat":43.29909,"lon":5.38459,"is_reserved":false,"is_disabled":false,"rental_uris":{"android":"levelo://app?vid=856fe66d-4acf-4111-b537-8a0bb0fdb356","ios":"levelo://app?vid=856fe66d-4acf-4111-b537-8a0bb0fdb356"},"vehicle_type_id":"4","last_reported":1774014789,"current_range_meters":6400,"station_id":"","pricing_plan_id":"cebpf4jnsgd1na2vs0mg"},{"bike_id":"e4f2f0b0-a87c-4dc2-80b7-a9fb5703d035","system_id":"levelo_inurba_marseille","lat":43.33726,"lon":5.39194,"is_reserved":false,"is_disabled":false,"rental_uris":{"android":"levelo://app?vid=e4f2f0b0-a87c-4dc2-80b7-a9fb5703d035","ios":"levelo://app?vid=e4f2f0b0-a87c-4dc2-80b7-a9fb5703d035"},"vehicle_type_id":"4","last_reported":1774014789,"current_range_meters":6400,"station_id":"ce4bhr92rcd13ifvqhsg","pricing_plan_id":"cebpf4jnsgd1na2vs0mg"},{"bike_id":"69067704-4b9d-4067-8ddd-5b71f4ef1a8a","system_id":"levelo_inurba_marseille","lat":43.25907,"lon":5.40868,"is_reserved":false,"is_disabled":true,"rental_uris":{"android":"levelo://app?vid=69067704-4b9d-4067-8ddd-5b71f4ef1a8a","ios":"levelo://app?vid=69067704-4b9d-4067-8ddd-5b71f4ef1a8a"},"vehicle_type_id":"4","last_reported":1774014789,"current_range_meters":6400,"station_id":"ce4bhm92rcd13ifvqglg","pricing_plan_id":"cebpf4jnsgd1na2vs0mg"},{"bike_id":"b9b052e4-5765-496c-8905-f31272226f5e","system_id":"levelo_inurba_marseille","lat":43.30103,"lon":5.37438,"is_reserved":false,"is_disabled":false,"rental_uris":{"android":"levelo://app?vid=b9b052e4-5765-496c-8905-f31272226f5e","ios":"levelo://app?vid=b9b052e4-5765-496c-8905-f31272226f5e"},"vehicle_type_id":"4","last_reported":1774014789,"current_range_meters":6400,"station_id":"ce4bgs92rcd13ifvqcc0","pricing_plan_id":"cebpf4jnsgd1na2vs0mg"},{"bike_id":"a58b14be-ade4-498e-ab67-6c2572ad511a","system_id":"levelo_inurba_marseille","lat":43.30918,"lon":5.36843,"is_reserved":false,"is_disabled":false,"rental_uris":{"android":"levelo://app?vid=a58b14be-ade4-498e-ab67-6c2572ad511a","ios":"levelo://app?vid=a58b14be-ade4-498e-ab67-6c2572ad511a"},"vehicle_type_id":"4","last_reported":1774014789,"current_range_meters":6400,"station_id":"ce4bgn92rcd13ifvqbvg","pricing_plan_id":"cebpf4jnsgd1na2vs0mg"},{"bike_id":"39d0ac36-2a2d-4d4f-8549-6b222f83cd9f","system_id":"levelo_inurba_marseille","lat":43.30951,"lon":5.3905,"is_reserved":false,"is_disabled":false,"rental_uris":{"android":"levelo://app?vid=39d0ac36-2a2d-4d4f-8549-6b222f83cd9f","ios":"levelo://app?vid=39d0ac36-2a2d-4d4f-8549-6b222f83cd9f"},"vehicle_type_id":"4","last_reported":1774014789,"current_range_meters":6400,"station_id":"ce4bgup2rcd13ifvqco0","pricing_plan_id":"cebpf4jnsgd1na2vs0mg"},{"bike_id":"d184ff85-1f1b-40e3-a821-a62e9141d237","system_id":"levelo_inurba_marseille","lat":43.28715,"lon":5.36124,"is_reserved":false,"is_disabled":false,"rental_uris":{"android":"levelo://app?vid=d184ff85-1f1b-40e3-a821-a62e9141d237","ios":"levelo://app?vid=d184ff85-1f1b-40e3-a821-a62e9141d237"},"vehicle_type_id":"4","last_reported":1774014789,"current_range_meters":6400,"station_id":"cki0cbj6b192h4jlfktg","pricing_plan_id":"cebpf4jnsgd1na2vs0mg"},{"bike_id":"bab3fc79-e0c2-432c-9cfa-8df953159e2f","system_id":"levelo_inurba_marseille","lat":43.2511,"lon":5.4033,"is_reserved":false,"is_disabled":false,"rental_uris":{"android":"levelo://app?vid=bab3fc79-e0c2-432c-9cfa-8df953159e2f","ios":"levelo://app?vid=bab3fc79-e0c2-432c-9cfa-8df953159e2f"},"vehicle_type_id":"4","last_reported":1774014789,"current_range_meters":6400,"station_id":"ce4bhlh2rcd13ifvqgig","pricing_plan_id":"cebpf4jnsgd1na2vs0mg"},{"bike_id":"4ebc5a1c-fa8c-44d8-a7fc-38229c55eb9d","system_id":"levelo_inurba_marseille","lat":43.24646,"lon":5.38893,"is_reserved":false,"is_disabled":false,"rental_uris":{"android":"levelo://app?vid=4ebc5a1c-fa8c-44d8-a7fc-38229c55eb9d","ios":"levelo://app?vid=4ebc5a1c-fa8c-44d8-a7fc-38229c55eb9d"},"vehicle_type_id":"4","last_reported":1774014789,"current_range_meters":6400,"station_id":"ce4bhg12rcd13ifvqf60","pricing_plan_id":"cebpf4jnsgd1na2vs0mg"},{"bike_id":"5d093622-4e87-4d50-9da4-eab65f5eb92c","system_id":"levelo_inurba_marseille","lat":43.26361,"lon":5.41073,"is_reserved":false,"is_disabled":false,"rental_uris":{"android":"levelo://app?vid=5d093622-4e87-4d50-9da4-eab65f5eb92c","ios":"levelo://app?vid=5d093622-4e87-4d50-9da4-eab65f5eb92c"},"vehicle_type_id":"4","last_reported":1774014789,"current_range_meters":6400,"station_id":"st_d4e5ca6na9uc73bfl5fg","pricing_plan_id":"cebpf4jnsgd1na2vs0mg"},{"bike_id":"12118d88-8157-4d76-ad00-12ce3bc20921","system_id":"levelo_inurba_marseille","lat":43.30902,"lon":5.37118,"is_reserved":false,"is_disabled":false,"rental_uris":{"android":"levelo://app?vid=12118d88-8157-4d76-ad00-12ce3bc20921","ios":"levelo://app?vid=12118d88-8157-4d76-ad00-12ce3bc20921"},"vehicle_type_id":"4","last_reported":1774014789,"current_range_meters":6800,"station_id":"ce4bguh2rcd13ifvqckg","pricing_plan_id":"cebpf4jnsgd1na2vs0mg"},{"bike_id":"ad01608b-0d85-4403-b3b5-96c2345de9a8","system_id":"levelo_inurba_marseille","lat":43.29013,"lon":5.35607,"is_reserved":false,"is_disabled":false,"rental_uris":{"android":"levelo://app?vid=ad01608b-0d85-4403-b3b5-96c2345de9a8","ios":"levelo://app?vid=ad01608b-0d85-4403-b3b5-96c2345de9a8"},"vehicle_type_id":"4","last_reported":1774014789,"current_range_meters":6800,"station_id":"ce4bhb92rcd13ifvqen0","pricing_plan_id":"cebpf4jnsgd1na2vs0mg"},{"bike_id":"b5076d1f-3eaa-4ea2-84a9-828ed3f4695b","system_id":"levelo_inurba_marseille","lat":43.25588,"lon":5.38225,"is_reserved":false,"is_disabled":false,"rental_uris":{"android":"levelo://app?vid=b5076d1f-3eaa-4ea2-84a9-828ed3f4695b","ios":"levelo://app?vid=b5076d1f-3eaa-4ea2-84a9-828ed3f4695b"},"vehicle_type_id":"4","last_reported":1774014789,"current_range_meters":6800,"station_id":"ce4bhih2rcd13ifvqfs0","pricing_plan_id":"cebpf4jnsgd1na2vs0mg"},{"bike_id":"0264288d-82fa-4432-8751-6c08c0e54bb7","system_id":"levelo_inurba_marseille","lat":43.30298,"lon":5.42473,"is_reserved":false,"is_disabled":false,"rental_uris":{"android":"levelo://app?vid=0264288d-82fa-4432-8751-6c08c0e54bb7","ios":"levelo://app?vid=0264288d-82fa-4432-8751-6c08c0e54bb7"},"vehicle_type_id":"4","last_reported":1774014789,"current_range_meters":6800,"station_id":"","pricing_plan_id":"cebpf4jnsgd1na2vs0mg"},{"bike_id":"6f650ec9-622f-49d0-8ecf-09497682df64","system_id":"levelo_inurba_marseille","lat":43.2846,"lon":5.35885,"is_reserved":false,"is_disabled":false,"rental_uris":{"android":"levelo://app?vid=6f650ec9-622f-49d0-8ecf-09497682df64","ios":"levelo://app?vid=6f650ec9-622f-49d0-8ecf-09497682df64"},"vehicle_type_id":"4","last_reported":1774014789,"current_range_meters":6800,"station_id":"ce4bhah2rcd13ifvqei0","pricing_plan_id":"cebpf4jnsgd1na2vs0mg"},{"bike_id":"be9b4f06-9d1a-41ee-b10b-9de4e628d9db","system_id":"levelo_inurba_marseille","lat":43.256,"lon":5.38218,"is_reserved":false,"is_disabled":false,"rental_uris":{"android":"levelo://app?vid=be9b4f06-9d1a-41ee-b10b-9de4e628d9db","ios":"levelo://app?vid=be9b4f06-9d1a-41ee-b10b-9de4e628d9db"},"vehicle_type_id":"4","last_reported":1774014789,"current_range_meters":6800,"station_id":"ce4bhih2rcd13ifvqfs0","pricing_plan_id":"cebpf4jnsgd1na2vs0mg"},{"bike_id":"97f89870-e3a2-4acc-b807-3b7fdbf7b741","system_id":"levelo_inurba_marseille","lat":43.26551,"lon":5.37293,"is_reserved":false,"is_disabled":false,"rental_uris":{"android":"levelo://app?vid=97f89870-e3a2-4acc-b807-3b7fdbf7b741","ios":"levelo://app?vid=97f89870-e3a2-4acc-b807-3b7fdbf7b741"},"vehicle_type_id":"4","last_reported":1774014789,"current_range_meters":6800,"station_id":"ce4bhg12rcd13ifvqf70","pricing_plan_id":"cebpf4jnsgd1na2vs0mg"},{"bike_id":"685ea90c-093a-4f05-927f-d1f9fbfccdf1","system_id":"levelo_inurba_marseille","lat":43.21749,"lon":5.34599,"is_reserved":false,"is_disabled":false,"rental_uris":{"android":"levelo://app?vid=685ea90c-093a-4f05-927f-d1f9fbfccdf1","ios":"levelo://app?vid=685ea90c-093a-4f05-927f-d1f9fbfccdf1"},"vehicle_type_id":"4","last_reported":1774014789,"current_range_meters":6800,"station_id":"st_cvj6r9ubvosntc0bgbag","pricing_plan_id":"cebpf4jnsgd1na2vs0mg"},{"bike_id":"e65b4135-a3e1-41d8-8ffa-7d0c39e46cfe","system_id":"levelo_inurba_marseille","lat":43.28268,"lon":5.35057,"is_reserved":false,"is_disabled":false,"rental_uris":{"android":"levelo://app?vid=e65b4135-a3e1-41d8-8ffa-7d0c39e46cfe","ios":"levelo://app?vid=e65b4135-a3e1-41d8-8ffa-7d0c39e46cfe"},"vehicle_type_id":"4","last_reported":1774014789,"current_range_meters":6800,"station_id":"ce4bhbp2rcd13ifvqerg","pricing_plan_id":"cebpf4jnsgd1na2vs0mg"},{"bike_id":"0e654315-d6a5-4499-8029-ae7d8c8cbca3","system_id":"levelo_inurba_marseille","lat":43.27375,"lon":5.36242,"is_reserved":false,"is_disabled":false,"rental_uris":{"android":"levelo://app?vid=0e654315-d6a5-4499-8029-ae7d8c8cbca3","ios":"levelo://app?vid=0e654315-d6a5-4499-8029-ae7d8c8cbca3"},"vehicle_type_id":"4","last_reported":1774014789,"current_range_meters":6800,"station_id":"ce4bhbh2rcd13ifvqeo0","pricing_plan_id":"cebpf4jnsgd1na2vs0mg"},{"bike_id":"29705345-7a8e-4bdd-8b65-5ba8856c877f","system_id":"levelo_inurba_marseille","lat":43.30291,"lon":5.44949,"is_reserved":false,"is_disabled":false,"rental_uris":{"android":"levelo://app?vid=29705345-7a8e-4bdd-8b65-5ba8856c877f","ios":"levelo://app?vid=29705345-7a8e-4bdd-8b65-5ba8856c877f"},"vehicle_type_id":"4","last_reported":1774014789,"current_range_meters":6800,"station_id":"","pricing_plan_id":"cebpf4jnsgd1na2vs0mg"},{"bike_id":"2a0517bc-acba-451e-bf62-7bba934d6b71","system_id":"levelo_inurba_marseille","lat":43.26519,"lon":5.39537,"is_reserved":false,"is_disabled":false,"rental_uris":{"android":"levelo://app?vid=2a0517bc-acba-451e-bf62-7bba934d6b71","ios":"levelo://app?vid=2a0517bc-acba-451e-bf62-7bba934d6b71"},"vehicle_type_id":"4","last_reported":1774014789,"current_range_meters":6800,"station_id":"ce4bhi12rcd13ifvqfq0","pricing_plan_id":"cebpf4jnsgd1na2vs0mg"},{"bike_id":"c48440d7-f4d5-4be3-a842-7dc1a317748e","system_id":"levelo_inurba_marseille","lat":43.33963,"lon":5.35696,"is_reserved":false,"is_disabled":false,"rental_uris":{"android":"levelo://app?vid=c48440d7-f4d5-4be3-a842-7dc1a317748e","ios":"levelo://app?vid=c48440d7-f4d5-4be3-a842-7dc1a317748e"},"vehicle_type_id":"4","last_reported":1774014789,"current_range_meters":6800,"station_id":"","pricing_plan_id":"cebpf4jnsgd1na2vs0mg"},{"bike_id":"ab09d209-60f6-4303-8d09-86dc43261279","system_id":"levelo_inurba_marseille","lat":43.21188,"lon":5.35071,"is_reserved":false,"is_disabled":false,"rental_uris":{"android":"levelo://app?vid=ab09d209-60f6-4303-8d09-86dc43261279","ios":"levelo://app?vid=ab09d209-60f6-4303-8d09-86dc43261279"},"vehicle_type_id":"4","last_reported":1774014789,"current_range_meters":6800,"station_id":"st_cvj6sg6p6f1abm77japg","pricing_plan_id":"cebpf4jnsgd1na2vs0mg"},{"bike_id":"341326fe-99d4-48c2-8fdb-bbe78a22eabd","system_id":"levelo_inurba_marseille","lat":43.308944,"lon":5.396585,"is_reserved":false,"is_disabled":false,"rental_uris":{"android":"levelo://app?vid=341326fe-99d4-48c2-8fdb-bbe78a22eabd","ios":"levelo://app?vid=341326fe-99d4-48c2-8fdb-bbe78a22eabd"},"vehicle_type_id":"4","last_reported":1774014789,"current_range_meters":7200,"station_id":"ce4bh012rcd13ifvqcv0","pricing_plan_id":"cebpf4jnsgd1na2vs0mg"},{"bike_id":"a775511c-9985-4a58-8c4c-775aad7f3e36","system_id":"levelo_inurba_marseille","lat":43.2988,"lon":5.43634,"is_reserved":false,"is_disabled":false,"rental_uris":{"android":"levelo://app?vid=a775511c-9985-4a58-8c4c-775aad7f3e36","ios":"levelo://app?vid=a775511c-9985-4a58-8c4c-775aad7f3e36"},"vehicle_type_id":"4","last_reported":1774014789,"current_range_meters":7200,"station_id":"ce4bhpp2rcd13ifvqhfg","pricing_plan_id":"cebpf4jnsgd1na2vs0mg"},{"bike_id":"ac4ca0f2-f5c2-4c9c-81db-9f7b20e89d0c","system_id":"levelo_inurba_marseille","lat":43.28507,"lon":5.44116,"is_reserved":false,"is_disabled":true,"rental_uris":{"android":"levelo://app?vid=ac4ca0f2-f5c2-4c9c-81db-9f7b20e89d0c","ios":"levelo://app?vid=ac4ca0f2-f5c2-4c9c-81db-9f7b20e89d0c"},"vehicle_type_id":"4","last_reported":1774014789,"current_range_meters":7200,"station_id":"st_d3j3df2ikq2c7380ej80","pricing_plan_id":"cebpf4jnsgd1na2vs0mg"},{"bike_id":"c6b20400-3641-48f3-b609-b110a5527d07","system_id":"levelo_inurba_marseille","lat":43.2257,"lon":5.41629,"is_reserved":false,"is_disabled":false,"rental_uris":{"android":"levelo://app?vid=c6b20400-3641-48f3-b609-b110a5527d07","ios":"levelo://app?vid=c6b20400-3641-48f3-b609-b110a5527d07"},"vehicle_type_id":"4","last_reported":1774014789,"current_range_meters":7200,"station_id":"st_d2o4gvlbi1j2169b742g","pricing_plan_id":"cebpf4jnsgd1na2vs0mg"},{"bike_id":"dd74091b-705a-4531-bc39-afff2195d9a1","system_id":"levelo_inurba_marseille","lat":43.24852,"lon":5.37442,"is_reserved":false,"is_disabled":false,"rental_uris":{"android":"levelo://app?vid=dd74091b-705a-4531-bc39-afff2195d9a1","ios":"levelo://app?vid=dd74091b-705a-4531-bc39-afff2195d9a1"},"vehicle_type_id":"4","last_reported":1774014789,"current_range_meters":7200,"station_id":"","pricing_plan_id":"cebpf4jnsgd1na2vs0mg"},{"bike_id":"39eab5fd-2ecc-45b4-9a7e-632f77c83ae6","system_id":"levelo_inurba_marseille","lat":43.28265,"lon":5.35063,"is_reserved":false,"is_disabled":false,"rental_uris":{"android":"levelo://app?vid=39eab5fd-2ecc-45b4-9a7e-632f77c83ae6","ios":"levelo://app?vid=39eab5fd-2ecc-45b4-9a7e-632f77c83ae6"},"vehicle_type_id":"4","last_reported":1774014789,"current_range_meters":7200,"station_id":"ce4bhbp2rcd13ifvqerg","pricing_plan_id":"cebpf4jnsgd1na2vs0mg"},{"bike_id":"29ceb06a-4df8-4e2a-9dd9-b070e185b37f","system_id":"levelo_inurba_marseille","lat":43.28464,"lon":5.48417,"is_reserved":false,"is_disabled":false,"rental_uris":{"android":"levelo://app?vid=29ceb06a-4df8-4e2a-9dd9-b070e185b37f","ios":"levelo://app?vid=29ceb06a-4df8-4e2a-9dd9-b070e185b37f"},"vehicle_type_id":"4","last_reported":1774014789,"current_range_meters":7200,"station_id":"st_d3svhcjqgbts73a3dn0g","pricing_plan_id":"cebpf4jnsgd1na2vs0mg"},{"bike_id":"c142af26-b83c-4aa3-ab8b-699576493d34","system_id":"levelo_inurba_marseille","lat":43.21197,"lon":5.3506,"is_reserved":false,"is_disabled":true,"rental_uris":{"android":"levelo://app?vid=c142af26-b83c-4aa3-ab8b-699576493d34","ios":"levelo://app?vid=c142af26-b83c-4aa3-ab8b-699576493d34"},"vehicle_type_id":"4","last_reported":1774014789,"current_range_meters":7200,"station_id":"st_cvj6sg6p6f1abm77japg","pricing_plan_id":"cebpf4jnsgd1na2vs0mg"},{"bike_id":"31c5eefa-9363-4d95-bae8-0f04c7312c90","system_id":"levelo_inurba_marseille","lat":43.28918,"lon":5.38401,"is_reserved":false,"is_disabled":false,"rental_uris":{"android":"levelo://app?vid=31c5eefa-9363-4d95-bae8-0f04c7312c90","ios":"levelo://app?vid=31c5eefa-9363-4d95-bae8-0f04c7312c90"},"vehicle_type_id":"4","last_reported":1774014789,"current_range_meters":7200,"station_id":"ce4bh612rcd13ifvqe6g","pricing_plan_id":"cebpf4jnsgd1na2vs0mg"},{"bike_id":"e5eba928-e3a4-441b-9540-937747ee47b9","system_id":"levelo_inurba_marseille","lat":43.22567,"lon":5.41622,"is_reserved":false,"is_disabled":false,"rental_uris":{"android":"levelo://app?vid=e5eba928-e3a4-441b-9540-937747ee47b9","ios":"levelo://app?vid=e5eba928-e3a4-441b-9540-937747ee47b9"},"vehicle_type_id":"4","last_reported":1774014789,"current_range_meters":7200,"station_id":"st_d2o4gvlbi1j2169b742g","pricing_plan_id":"cebpf4jnsgd1na2vs0mg"},{"bike_id":"f208b9a2-535c-4e2f-844f-0b9e8c292c0b","system_id":"levelo_inurba_marseille","lat":43.31261,"lon":5.40151,"is_reserved":false,"is_disabled":false,"rental_uris":{"android":"levelo://app?vid=f208b9a2-535c-4e2f-844f-0b9e8c292c0b","ios":"levelo://app?vid=f208b9a2-535c-4e2f-844f-0b9e8c292c0b"},"vehicle_type_id":"4","last_reported":1774014789,"current_range_meters":7200,"station_id":"ce4bh092rcd13ifvqd30","pricing_plan_id":"cebpf4jnsgd1na2vs0mg"},{"bike_id":"646c7015-5400-49b6-9ecb-1fc782efa767","system_id":"levelo_inurba_marseille","lat":43.21747,"lon":5.34592,"is_reserved":false,"is_disabled":false,"rental_uris":{"android":"levelo://app?vid=646c7015-5400-49b6-9ecb-1fc782efa767","ios":"levelo://app?vid=646c7015-5400-49b6-9ecb-1fc782efa767"},"vehicle_type_id":"4","last_reported":1774014789,"current_range_meters":7200,"station_id":"st_cvj6r9ubvosntc0bgbag","pricing_plan_id":"cebpf4jnsgd1na2vs0mg"},{"bike_id":"f01b4df9-fc95-4036-85d9-64b6fff578fe","system_id":"levelo_inurba_marseille","lat":43.30468,"lon":5.37897,"is_reserved":false,"is_disabled":false,"rental_uris":{"android":"levelo://app?vid=f01b4df9-fc95-4036-85d9-64b6fff578fe","ios":"levelo://app?vid=f01b4df9-fc95-4036-85d9-64b6fff578fe"},"vehicle_type_id":"4","last_reported":1774014789,"current_range_meters":7200,"station_id":"ce4bgup2rcd13ifvqcn0","pricing_plan_id":"cebpf4jnsgd1na2vs0mg"},{"bike_id":"0c9023de-8137-451b-9298-40f5a0b20516","system_id":"levelo_inurba_marseille","lat":43.29928,"lon":5.36552,"is_reserved":false,"is_disabled":false,"rental_uris":{"android":"levelo://app?vid=0c9023de-8137-451b-9298-40f5a0b20516","ios":"levelo://app?vid=0c9023de-8137-451b-9298-40f5a0b20516"},"vehicle_type_id":"4","last_reported":1774014789,"current_range_meters":7200,"station_id":"ce4bgm92rcd13ifvqbr0","pricing_plan_id":"cebpf4jnsgd1na2vs0mg"},{"bike_id":"f328e3b6-a38c-49fe-80e0-c552630893a5","system_id":"levelo_inurba_marseille","lat":43.22923,"lon":5.35375,"is_reserved":false,"is_disabled":false,"rental_uris":{"android":"levelo://app?vid=f328e3b6-a38c-49fe-80e0-c552630893a5","ios":"levelo://app?vid=f328e3b6-a38c-49fe-80e0-c552630893a5"},"vehicle_type_id":"4","last_reported":1774014789,"current_range_meters":8000,"station_id":"cpo3532slgdg3j2ikp40","pricing_plan_id":"cebpf4jnsgd1na2vs0mg"},{"bike_id":"5c37a49c-ab60-4c11-8a61-6592ff444186","system_id":"levelo_inurba_marseille","lat":43.27908,"lon":5.39175,"is_reserved":false,"is_disabled":false,"rental_uris":{"android":"levelo://app?vid=5c37a49c-ab60-4c11-8a61-6592ff444186","ios":"levelo://app?vid=5c37a49c-ab60-4c11-8a61-6592ff444186"},"vehicle_type_id":"4","last_reported":1774014789,"current_range_meters":8000,"station_id":"","pricing_plan_id":"cebpf4jnsgd1na2vs0mg"},{"bike_id":"efaeaac2-37d1-487c-ade3-c1d910c99c2d","system_id":"levelo_inurba_marseille","lat":43.298,"lon":5.37115,"is_reserved":false,"is_disabled":false,"rental_uris":{"android":"levelo://app?vid=efaeaac2-37d1-487c-ade3-c1d910c99c2d","ios":"levelo://app?vid=efaeaac2-37d1-487c-ade3-c1d910c99c2d"},"vehicle_type_id":"4","last_reported":1774014789,"current_range_meters":8000,"station_id":"ce4bgop2rcd13ifvqc1g","pricing_plan_id":"cebpf4jnsgd1na2vs0mg"},{"bike_id":"89ad46cf-ad84-4e5e-be57-87ac2cebe69c","system_id":"levelo_inurba_marseille","lat":43.28478,"lon":5.48395,"is_reserved":false,"is_disabled":false,"rental_uris":{"android":"levelo://app?vid=89ad46cf-ad84-4e5e-be57-87ac2cebe69c","ios":"levelo://app?vid=89ad46cf-ad84-4e5e-be57-87ac2cebe69c"},"vehicle_type_id":"4","last_reported":1774014789,"current_range_meters":8000,"station_id":"st_d3svhcjqgbts73a3dn0g","pricing_plan_id":"cebpf4jnsgd1na2vs0mg"},{"bike_id":"ca2f863b-9600-4183-8ae7-a2eeb58658b3","system_id":"levelo_inurba_marseille","lat":43.28934,"lon":5.36616,"is_reserved":false,"is_disabled":false,"rental_uris":{"android":"levelo://app?vid=ca2f863b-9600-4183-8ae7-a2eeb58658b3","ios":"levelo://app?vid=ca2f863b-9600-4183-8ae7-a2eeb58658b3"},"vehicle_type_id":"4","last_reported":1774014789,"current_range_meters":8000,"station_id":"ce4bhap2rcd13ifvqek0","pricing_plan_id":"cebpf4jnsgd1na2vs0mg"},{"bike_id":"5342632d-4011-4b05-9d04-a8a5e13aae28","system_id":"levelo_inurba_marseille","lat":43.28076,"lon":5.39659,"is_reserved":false,"is_disabled":false,"rental_uris":{"android":"levelo://app?vid=5342632d-4011-4b05-9d04-a8a5e13aae28","ios":"levelo://app?vid=5342632d-4011-4b05-9d04-a8a5e13aae28"},"vehicle_type_id":"4","last_reported":1774014789,"current_range_meters":8000,"station_id":"ce4bho12rcd13ifvqh2g","pricing_plan_id":"cebpf4jnsgd1na2vs0mg"},{"bike_id":"0f77ab19-02c3-4b4a-be9a-c8801aa3d4b5","system_id":"levelo_inurba_marseille","lat":43.33159,"lon":5.37688,"is_reserved":false,"is_disabled":false,"rental_uris":{"android":"levelo://app?vid=0f77ab19-02c3-4b4a-be9a-c8801aa3d4b5","ios":"levelo://app?vid=0f77ab19-02c3-4b4a-be9a-c8801aa3d4b5"},"vehicle_type_id":"4","last_reported":1774014789,"current_range_meters":8000,"station_id":"st_d46cu089ee8s73dldbu0","pricing_plan_id":"cebpf4jnsgd1na2vs0mg"},{"bike_id":"524d4f4d-9481-4c69-a364-dc591d52f94a","system_id":"levelo_inurba_marseille","lat":43.30964,"lon":5.39034,"is_reserved":false,"is_disabled":false,"rental_uris":{"android":"levelo://app?vid=524d4f4d-9481-4c69-a364-dc591d52f94a","ios":"levelo://app?vid=524d4f4d-9481-4c69-a364-dc591d52f94a"},"vehicle_type_id":"4","last_reported":1774014789,"current_range_meters":8000,"station_id":"ce4bgup2rcd13ifvqco0","pricing_plan_id":"cebpf4jnsgd1na2vs0mg"},{"bike_id":"a545c754-e350-45a1-864b-ec76871d3bf7","system_id":"levelo_inurba_marseille","lat":43.21763,"lon":5.34611,"is_reserved":false,"is_disabled":false,"rental_uris":{"android":"levelo://app?vid=a545c754-e350-45a1-864b-ec76871d3bf7","ios":"levelo://app?vid=a545c754-e350-45a1-864b-ec76871d3bf7"},"vehicle_type_id":"4","last_reported":1774014789,"current_range_meters":8000,"station_id":"","pricing_plan_id":"cebpf4jnsgd1na2vs0mg"},{"bike_id":"9ec1942c-b173-4801-9f27-3e6493805e2b","system_id":"levelo_inurba_marseille","lat":43.24672,"lon":5.38841,"is_reserved":false,"is_disabled":false,"rental_uris":{"android":"levelo://app?vid=9ec1942c-b173-4801-9f27-3e6493805e2b","ios":"levelo://app?vid=9ec1942c-b173-4801-9f27-3e6493805e2b"},"vehicle_type_id":"4","last_reported":1774014789,"current_range_meters":8400,"station_id":"","pricing_plan_id":"cebpf4jnsgd1na2vs0mg"},{"bike_id":"4151a6db-a3d8-42c6-8eb7-aa8d73460cb4","system_id":"levelo_inurba_marseille","lat":43.30879,"lon":5.3719,"is_reserved":false,"is_disabled":false,"rental_uris":{"android":"levelo://app?vid=4151a6db-a3d8-42c6-8eb7-aa8d73460cb4","ios":"levelo://app?vid=4151a6db-a3d8-42c6-8eb7-aa8d73460cb4"},"vehicle_type_id":"4","last_reported":1774014789,"current_range_meters":8400,"station_id":"ce4bguh2rcd13ifvqckg","pricing_plan_id":"cebpf4jnsgd1na2vs0mg"},{"bike_id":"53f48266-4564-420b-96ab-d243233055dc","system_id":"levelo_inurba_marseille","lat":43.28471,"lon":5.48393,"is_reserved":false,"is_disabled":false,"rental_uris":{"android":"levelo://app?vid=53f48266-4564-420b-96ab-d243233055dc","ios":"levelo://app?vid=53f48266-4564-420b-96ab-d243233055dc"},"vehicle_type_id":"4","last_reported":1774014789,"current_range_meters":8400,"station_id":"","pricing_plan_id":"cebpf4jnsgd1na2vs0mg"},{"bike_id":"4a0e609e-6c21-48e8-8aeb-8e3d0c22ce4c","system_id":"levelo_inurba_marseille","lat":43.26549,"lon":5.37282,"is_reserved":false,"is_disabled":false,"rental_uris":{"android":"levelo://app?vid=4a0e609e-6c21-48e8-8aeb-8e3d0c22ce4c","ios":"levelo://app?vid=4a0e609e-6c21-48e8-8aeb-8e3d0c22ce4c"},"vehicle_type_id":"4","last_reported":1774014789,"current_range_meters":8400,"station_id":"ce4bhg12rcd13ifvqf70","pricing_plan_id":"cebpf4jnsgd1na2vs0mg"},{"bike_id":"32114caa-ea8a-4fd4-b51a-deb7db1d0588","system_id":"levelo_inurba_marseille","lat":43.27077,"lon":5.3888,"is_reserved":false,"is_disabled":false,"rental_uris":{"android":"levelo://app?vid=32114caa-ea8a-4fd4-b51a-deb7db1d0588","ios":"levelo://app?vid=32114caa-ea8a-4fd4-b51a-deb7db1d0588"},"vehicle_type_id":"4","last_reported":1774014789,"current_range_meters":8400,"station_id":"","pricing_plan_id":"cebpf4jnsgd1na2vs0mg"},{"bike_id":"852edb8f-03b3-4226-903c-a16dd695fd8b","system_id":"levelo_inurba_marseille","lat":43.28624,"lon":5.35108,"is_reserved":false,"is_disabled":false,"rental_uris":{"android":"levelo://app?vid=852edb8f-03b3-4226-903c-a16dd695fd8b","ios":"levelo://app?vid=852edb8f-03b3-4226-903c-a16dd695fd8b"},"vehicle_type_id":"4","last_reported":1774014789,"current_range_meters":8400,"station_id":"ce4bhch2rcd13ifvqeug","pricing_plan_id":"cebpf4jnsgd1na2vs0mg"},{"bike_id":"8371e047-e454-4e55-8525-9ba493833633","system_id":"levelo_inurba_marseille","lat":43.29049,"lon":5.3591,"is_reserved":false,"is_disabled":false,"rental_uris":{"android":"levelo://app?vid=8371e047-e454-4e55-8525-9ba493833633","ios":"levelo://app?vid=8371e047-e454-4e55-8525-9ba493833633"},"vehicle_type_id":"4","last_reported":1774014789,"current_range_meters":8400,"station_id":"ce4bha92rcd13ifvqeg0","pricing_plan_id":"cebpf4jnsgd1na2vs0mg"},{"bike_id":"123457c9-5700-48ac-8911-f0b5ec11b442","system_id":"levelo_inurba_marseille","lat":43.29229,"lon":5.36066,"is_reserved":false,"is_disabled":false,"rental_uris":{"android":"levelo://app?vid=123457c9-5700-48ac-8911-f0b5ec11b442","ios":"levelo://app?vid=123457c9-5700-48ac-8911-f0b5ec11b442"},"vehicle_type_id":"4","last_reported":1774014789,"current_range_meters":8400,"station_id":"ce4bhbh2rcd13ifvqeqg","pricing_plan_id":"cebpf4jnsgd1na2vs0mg"},{"bike_id":"9abc2129-6d00-4075-ac9a-62e38d632983","system_id":"levelo_inurba_marseille","lat":43.23894,"lon":5.37443,"is_reserved":false,"is_disabled":false,"rental_uris":{"android":"levelo://app?vid=9abc2129-6d00-4075-ac9a-62e38d632983","ios":"levelo://app?vid=9abc2129-6d00-4075-ac9a-62e38d632983"},"vehicle_type_id":"4","last_reported":1774014789,"current_range_meters":8400,"station_id":"st_d6sm7csbq4hs73f8fpjg","pricing_plan_id":"cebpf4jnsgd1na2vs0mg"},{"bike_id":"133a98ec-3441-4895-a838-147877c4426d","system_id":"levelo_inurba_marseille","lat":43.28476,"lon":5.3841,"is_reserved":false,"is_disabled":false,"rental_uris":{"android":"levelo://app?vid=133a98ec-3441-4895-a838-147877c4426d","ios":"levelo://app?vid=133a98ec-3441-4895-a838-147877c4426d"},"vehicle_type_id":"4","last_reported":1774014789,"current_range_meters":8400,"station_id":"ce4bh512rcd13ifvqe3g","pricing_plan_id":"cebpf4jnsgd1na2vs0mg"},{"bike_id":"7fa64d84-cd92-4f02-a79d-c348b129b15f","system_id":"levelo_inurba_marseille","lat":43.24174,"lon":5.36381,"is_reserved":false,"is_disabled":false,"rental_uris":{"android":"levelo://app?vid=7fa64d84-cd92-4f02-a79d-c348b129b15f","ios":"levelo://app?vid=7fa64d84-cd92-4f02-a79d-c348b129b15f"},"vehicle_type_id":"4","last_reported":1774014789,"current_range_meters":8400,"station_id":"cpo36qri1sfpv3e86is0","pricing_plan_id":"cebpf4jnsgd1na2vs0mg"},{"bike_id":"c311bb97-a28c-427b-a9e3-316251031a80","system_id":"levelo_inurba_marseille","lat":43.27376,"lon":5.3625,"is_reserved":false,"is_disabled":false,"rental_uris":{"android":"levelo://app?vid=c311bb97-a28c-427b-a9e3-316251031a80","ios":"levelo://app?vid=c311bb97-a28c-427b-a9e3-316251031a80"},"vehicle_type_id":"4","last_reported":1774014789,"current_range_meters":8400,"station_id":"","pricing_plan_id":"cebpf4jnsgd1na2vs0mg"},{"bike_id":"59519d06-fa25-433d-b5e1-f87e1698bdaf","system_id":"levelo_inurba_marseille","lat":43.26565,"lon":5.39004,"is_reserved":false,"is_disabled":false,"rental_uris":{"android":"levelo://app?vid=59519d06-fa25-433d-b5e1-f87e1698bdaf","ios":"levelo://app?vid=59519d06-fa25-433d-b5e1-f87e1698bdaf"},"vehicle_type_id":"4","last_reported":1774014789,"current_range_meters":8400,"station_id":"ce4bhe12rcd13ifvqf30","pricing_plan_id":"cebpf4jnsgd1na2vs0mg"},{"bike_id":"912e5f30-2e0b-48a9-85db-a984611241c9","system_id":"levelo_inurba_marseille","lat":43.29804,"lon":5.4407,"is_reserved":false,"is_disabled":false,"rental_uris":{"android":"levelo://app?vid=912e5f30-2e0b-48a9-85db-a984611241c9","ios":"levelo://app?vid=912e5f30-2e0b-48a9-85db-a984611241c9"},"vehicle_type_id":"4","last_reported":1774014789,"current_range_meters":8800,"station_id":"st_d3jp68qikq2c7381ktn0","pricing_plan_id":"cebpf4jnsgd1na2vs0mg"},{"bike_id":"d98676a3-493e-49af-8b89-e7d7e5b495a4","system_id":"levelo_inurba_marseille","lat":43.30549,"lon":5.36701,"is_reserved":false,"is_disabled":false,"rental_uris":{"android":"levelo://app?vid=d98676a3-493e-49af-8b89-e7d7e5b495a4","ios":"levelo://app?vid=d98676a3-493e-49af-8b89-e7d7e5b495a4"},"vehicle_type_id":"4","last_reported":1774014789,"current_range_meters":8800,"station_id":"ce4bgrp2rcd13ifvqc9g","pricing_plan_id":"cebpf4jnsgd1na2vs0mg"},{"bike_id":"e2420c11-4646-4145-aa2e-baedb91a43dc","system_id":"levelo_inurba_marseille","lat":43.32076,"lon":5.37066,"is_reserved":false,"is_disabled":false,"rental_uris":{"android":"levelo://app?vid=e2420c11-4646-4145-aa2e-baedb91a43dc","ios":"levelo://app?vid=e2420c11-4646-4145-aa2e-baedb91a43dc"},"vehicle_type_id":"4","last_reported":1774014789,"current_range_meters":8800,"station_id":"","pricing_plan_id":"cebpf4jnsgd1na2vs0mg"},{"bike_id":"47786148-3158-4346-a285-e47a9280a644","system_id":"levelo_inurba_marseille","lat":43.26585,"lon":5.39063,"is_reserved":false,"is_disabled":false,"rental_uris":{"android":"levelo://app?vid=47786148-3158-4346-a285-e47a9280a644","ios":"levelo://app?vid=47786148-3158-4346-a285-e47a9280a644"},"vehicle_type_id":"4","last_reported":1774014789,"current_range_meters":8800,"station_id":"ce4bhe12rcd13ifvqf30","pricing_plan_id":"cebpf4jnsgd1na2vs0mg"},{"bike_id":"8648ff3d-a49d-4491-be6c-bab3f9812603","system_id":"levelo_inurba_marseille","lat":43.28297,"lon":5.43822,"is_reserved":false,"is_disabled":false,"rental_uris":{"android":"levelo://app?vid=8648ff3d-a49d-4491-be6c-bab3f9812603","ios":"levelo://app?vid=8648ff3d-a49d-4491-be6c-bab3f9812603"},"vehicle_type_id":"4","last_reported":1774014789,"current_range_meters":8800,"station_id":"","pricing_plan_id":"cebpf4jnsgd1na2vs0mg"},{"bike_id":"83628d9f-ab99-4f78-bb17-dda09443ece9","system_id":"levelo_inurba_marseille","lat":43.29,"lon":5.35606,"is_reserved":false,"is_disabled":false,"rental_uris":{"android":"levelo://app?vid=83628d9f-ab99-4f78-bb17-dda09443ece9","ios":"levelo://app?vid=83628d9f-ab99-4f78-bb17-dda09443ece9"},"vehicle_type_id":"4","last_reported":1774014789,"current_range_meters":8800,"station_id":"ce4bhb92rcd13ifvqen0","pricing_plan_id":"cebpf4jnsgd1na2vs0mg"},{"bike_id":"cfeb2b4b-87b8-4ea5-94b0-8c6d4267a79d","system_id":"levelo_inurba_marseille","lat":43.28284,"lon":5.35063,"is_reserved":false,"is_disabled":false,"rental_uris":{"android":"levelo://app?vid=cfeb2b4b-87b8-4ea5-94b0-8c6d4267a79d","ios":"levelo://app?vid=cfeb2b4b-87b8-4ea5-94b0-8c6d4267a79d"},"vehicle_type_id":"4","last_reported":1774014789,"current_range_meters":8800,"station_id":"ce4bhbp2rcd13ifvqerg","pricing_plan_id":"cebpf4jnsgd1na2vs0mg"},{"bike_id":"4a6713e2-ad73-4a92-a9d7-39c7b60868b0","system_id":"levelo_inurba_marseille","lat":43.30297,"lon":5.39211,"is_reserved":false,"is_disabled":false,"rental_uris":{"android":"levelo://app?vid=4a6713e2-ad73-4a92-a9d7-39c7b60868b0","ios":"levelo://app?vid=4a6713e2-ad73-4a92-a9d7-39c7b60868b0"},"vehicle_type_id":"4","last_reported":1774014789,"current_range_meters":8800,"station_id":"ce4bgkh2rcd13ifvqbk0","pricing_plan_id":"cebpf4jnsgd1na2vs0mg"},{"bike_id":"a8c8307b-e1e9-4950-a785-578e1a82f805","system_id":"levelo_inurba_marseille","lat":43.31293,"lon":5.3778,"is_reserved":false,"is_disabled":false,"rental_uris":{"android":"levelo://app?vid=a8c8307b-e1e9-4950-a785-578e1a82f805","ios":"levelo://app?vid=a8c8307b-e1e9-4950-a785-578e1a82f805"},"vehicle_type_id":"4","last_reported":1774014789,"current_range_meters":8800,"station_id":"","pricing_plan_id":"cebpf4jnsgd1na2vs0mg"},{"bike_id":"962e3e51-db50-4f61-a079-9b1c6a103eb5","system_id":"levelo_inurba_marseille","lat":43.30963,"lon":5.36814,"is_reserved":false,"is_disabled":false,"rental_uris":{"android":"levelo://app?vid=962e3e51-db50-4f61-a079-9b1c6a103eb5","ios":"levelo://app?vid=962e3e51-db50-4f61-a079-9b1c6a103eb5"},"vehicle_type_id":"4","last_reported":1774014789,"current_range_meters":8800,"station_id":"","pricing_plan_id":"cebpf4jnsgd1na2vs0mg"},{"bike_id":"7f166c91-9eb1-4dc8-a940-85d8139ad9d9","system_id":"levelo_inurba_marseille","lat":43.23988,"lon":5.36581,"is_reserved":false,"is_disabled":false,"rental_uris":{"android":"levelo://app?vid=7f166c91-9eb1-4dc8-a940-85d8139ad9d9","ios":"levelo://app?vid=7f166c91-9eb1-4dc8-a940-85d8139ad9d9"},"vehicle_type_id":"4","last_reported":1774014789,"current_range_meters":8800,"station_id":"ce4bhi12rcd13ifvqfp0","pricing_plan_id":"cebpf4jnsgd1na2vs0mg"},{"bike_id":"d83d86a0-48a4-442a-9465-a11cff966d5c","system_id":"levelo_inurba_marseille","lat":43.30472,"lon":5.37898,"is_reserved":false,"is_disabled":false,"rental_uris":{"android":"levelo://app?vid=d83d86a0-48a4-442a-9465-a11cff966d5c","ios":"levelo://app?vid=d83d86a0-48a4-442a-9465-a11cff966d5c"},"vehicle_type_id":"4","last_reported":1774014789,"current_range_meters":8800,"station_id":"","pricing_plan_id":"cebpf4jnsgd1na2vs0mg"},{"bike_id":"2d9e4754-9b17-40b5-bbeb-5b1c9c5bbe64","system_id":"levelo_inurba_marseille","lat":43.30133,"lon":5.38786,"is_reserved":false,"is_disabled":true,"rental_uris":{"android":"levelo://app?vid=2d9e4754-9b17-40b5-bbeb-5b1c9c5bbe64","ios":"levelo://app?vid=2d9e4754-9b17-40b5-bbeb-5b1c9c5bbe64"},"vehicle_type_id":"4","last_reported":1774014789,"current_range_meters":8800,"station_id":"ce4bghh2rcd13ifvqb60","pricing_plan_id":"cebpf4jnsgd1na2vs0mg"},{"bike_id":"a21c66aa-3c00-4df5-8e6f-91b2549e46d1","system_id":"levelo_inurba_marseille","lat":43.27971,"lon":5.43613,"is_reserved":false,"is_disabled":false,"rental_uris":{"android":"levelo://app?vid=a21c66aa-3c00-4df5-8e6f-91b2549e46d1","ios":"levelo://app?vid=a21c66aa-3c00-4df5-8e6f-91b2549e46d1"},"vehicle_type_id":"4","last_reported":1774014789,"current_range_meters":8800,"station_id":"","pricing_plan_id":"cebpf4jnsgd1na2vs0mg"},{"bike_id":"20855773-52f1-41b4-b870-ba6c3fc908d4","system_id":"levelo_inurba_marseille","lat":43.30314,"lon":5.36884,"is_reserved":false,"is_disabled":false,"rental_uris":{"android":"levelo://app?vid=20855773-52f1-41b4-b870-ba6c3fc908d4","ios":"levelo://app?vid=20855773-52f1-41b4-b870-ba6c3fc908d4"},"vehicle_type_id":"4","last_reported":1774014789,"current_range_meters":8800,"station_id":"ce4bgqh2rcd13ifvqc5g","pricing_plan_id":"cebpf4jnsgd1na2vs0mg"},{"bike_id":"2b86208f-8086-4e01-8e6f-3bdaebe5cd81","system_id":"levelo_inurba_marseille","lat":43.3097,"lon":5.39055,"is_reserved":false,"is_disabled":false,"rental_uris":{"android":"levelo://app?vid=2b86208f-8086-4e01-8e6f-3bdaebe5cd81","ios":"levelo://app?vid=2b86208f-8086-4e01-8e6f-3bdaebe5cd81"},"vehicle_type_id":"4","last_reported":1774014789,"current_range_meters":8800,"station_id":"ce4bgup2rcd13ifvqco0","pricing_plan_id":"cebpf4jnsgd1na2vs0mg"},{"bike_id":"1376a9e6-82f2-4044-9646-2a6072ea4527","system_id":"levelo_inurba_marseille","lat":43.23777,"lon":5.36643,"is_reserved":false,"is_disabled":false,"rental_uris":{"android":"levelo://app?vid=1376a9e6-82f2-4044-9646-2a6072ea4527","ios":"levelo://app?vid=1376a9e6-82f2-4044-9646-2a6072ea4527"},"vehicle_type_id":"4","last_reported":1774014789,"current_range_meters":8800,"station_id":"st_d3nk18o9ro0c73en2l3g","pricing_plan_id":"cebpf4jnsgd1na2vs0mg"},{"bike_id":"53b946dd-95d5-4b28-99be-96aded8e4b44","system_id":"levelo_inurba_marseille","lat":43.28701,"lon":5.39984,"is_reserved":false,"is_disabled":false,"rental_uris":{"android":"levelo://app?vid=53b946dd-95d5-4b28-99be-96aded8e4b44","ios":"levelo://app?vid=53b946dd-95d5-4b28-99be-96aded8e4b44"},"vehicle_type_id":"4","last_reported":1774014789,"current_range_meters":8800,"station_id":"ce4bho92rcd13ifvqh3g","pricing_plan_id":"cebpf4jnsgd1na2vs0mg"},{"bike_id":"cf644b4a-b00b-4198-9a69-695c69bc416b","system_id":"levelo_inurba_marseille","lat":43.23072,"lon":5.35503,"is_reserved":false,"is_disabled":false,"rental_uris":{"android":"levelo://app?vid=cf644b4a-b00b-4198-9a69-695c69bc416b","ios":"levelo://app?vid=cf644b4a-b00b-4198-9a69-695c69bc416b"},"vehicle_type_id":"4","last_reported":1774014789,"current_range_meters":8800,"station_id":"cpo3342slgdg3j2ifvpg","pricing_plan_id":"cebpf4jnsgd1na2vs0mg"},{"bike_id":"2c2bc86c-c116-4001-acc9-ccf716bfa824","system_id":"levelo_inurba_marseille","lat":43.2972,"lon":5.38253,"is_reserved":false,"is_disabled":false,"rental_uris":{"android":"levelo://app?vid=2c2bc86c-c116-4001-acc9-ccf716bfa824","ios":"levelo://app?vid=2c2bc86c-c116-4001-acc9-ccf716bfa824"},"vehicle_type_id":"4","last_reported":1774014789,"current_range_meters":8800,"station_id":"","pricing_plan_id":"cebpf4jnsgd1na2vs0mg"},{"bike_id":"cc2707fc-166f-4be0-b7a2-b0b01a84f5e0","system_id":"levelo_inurba_marseille","lat":43.27918,"lon":5.38683,"is_reserved":false,"is_disabled":false,"rental_uris":{"android":"levelo://app?vid=cc2707fc-166f-4be0-b7a2-b0b01a84f5e0","ios":"levelo://app?vid=cc2707fc-166f-4be0-b7a2-b0b01a84f5e0"},"vehicle_type_id":"4","last_reported":1774014789,"current_range_meters":8800,"station_id":"","pricing_plan_id":"cebpf4jnsgd1na2vs0mg"},{"bike_id":"164ef4bd-d279-4e43-b18f-276ca93b0ec8","system_id":"levelo_inurba_marseille","lat":43.26688,"lon":5.38265,"is_reserved":false,"is_disabled":false,"rental_uris":{"android":"levelo://app?vid=164ef4bd-d279-4e43-b18f-276ca93b0ec8","ios":"levelo://app?vid=164ef4bd-d279-4e43-b18f-276ca93b0ec8"},"vehicle_type_id":"4","last_reported":1774014789,"current_range_meters":8800,"station_id":"ce4bhg92rcd13ifvqf90","pricing_plan_id":"cebpf4jnsgd1na2vs0mg"},{"bike_id":"b87d7938-28e4-46e7-994e-fdebd5392225","system_id":"levelo_inurba_marseille","lat":43.32105,"lon":5.36771,"is_reserved":false,"is_disabled":false,"rental_uris":{"android":"levelo://app?vid=b87d7938-28e4-46e7-994e-fdebd5392225","ios":"levelo://app?vid=b87d7938-28e4-46e7-994e-fdebd5392225"},"vehicle_type_id":"4","last_reported":1774014789,"current_range_meters":8800,"station_id":"ce4bhrh2rcd13ifvqhug","pricing_plan_id":"cebpf4jnsgd1na2vs0mg"},{"bike_id":"3f3cf967-0fb6-4287-84c5-2511dcc631bd","system_id":"levelo_inurba_marseille","lat":43.27325,"lon":5.39089,"is_reserved":false,"is_disabled":false,"rental_uris":{"android":"levelo://app?vid=3f3cf967-0fb6-4287-84c5-2511dcc631bd","ios":"levelo://app?vid=3f3cf967-0fb6-4287-84c5-2511dcc631bd"},"vehicle_type_id":"4","last_reported":1774014789,"current_range_meters":9200,"station_id":"ce4bhgp2rcd13ifvqfe0","pricing_plan_id":"cebpf4jnsgd1na2vs0mg"},{"bike_id":"b63e28c4-e4db-4a92-a9ce-06fc27566f70","system_id":"levelo_inurba_marseille","lat":43.254928,"lon":5.376482,"is_reserved":false,"is_disabled":true,"rental_uris":{"android":"levelo://app?vid=b63e28c4-e4db-4a92-a9ce-06fc27566f70","ios":"levelo://app?vid=b63e28c4-e4db-4a92-a9ce-06fc27566f70"},"vehicle_type_id":"4","last_reported":1774014789,"current_range_meters":9200,"station_id":"ce4bhh12rcd13ifvqff0","pricing_plan_id":"cebpf4jnsgd1na2vs0mg"},{"bike_id":"d4c6f501-fff5-4202-ab66-c28212c8a314","system_id":"levelo_inurba_marseille","lat":43.23202,"lon":5.39977,"is_reserved":false,"is_disabled":false,"rental_uris":{"android":"levelo://app?vid=d4c6f501-fff5-4202-ab66-c28212c8a314","ios":"levelo://app?vid=d4c6f501-fff5-4202-ab66-c28212c8a314"},"vehicle_type_id":"4","last_reported":1774014789,"current_range_meters":9200,"station_id":"ce4bhn12rcd13ifvqgqg","pricing_plan_id":"cebpf4jnsgd1na2vs0mg"},{"bike_id":"d00ce6b1-d263-4644-9ac8-801c3d34ac19","system_id":"levelo_inurba_marseille","lat":43.22567,"lon":5.41618,"is_reserved":false,"is_disabled":false,"rental_uris":{"android":"levelo://app?vid=d00ce6b1-d263-4644-9ac8-801c3d34ac19","ios":"levelo://app?vid=d00ce6b1-d263-4644-9ac8-801c3d34ac19"},"vehicle_type_id":"4","last_reported":1774014789,"current_range_meters":9200,"station_id":"st_d2o4gvlbi1j2169b742g","pricing_plan_id":"cebpf4jnsgd1na2vs0mg"},{"bike_id":"f3414e99-2d7c-4b03-96db-df8c1c6d3f2b","system_id":"levelo_inurba_marseille","lat":43.28477,"lon":5.48399,"is_reserved":false,"is_disabled":false,"rental_uris":{"android":"levelo://app?vid=f3414e99-2d7c-4b03-96db-df8c1c6d3f2b","ios":"levelo://app?vid=f3414e99-2d7c-4b03-96db-df8c1c6d3f2b"},"vehicle_type_id":"4","last_reported":1774014789,"current_range_meters":9200,"station_id":"","pricing_plan_id":"cebpf4jnsgd1na2vs0mg"},{"bike_id":"ab77a418-345e-453b-bca3-3815a5ee3842","system_id":"levelo_inurba_marseille","lat":43.23195,"lon":5.35546,"is_reserved":false,"is_disabled":false,"rental_uris":{"android":"levelo://app?vid=ab77a418-345e-453b-bca3-3815a5ee3842","ios":"levelo://app?vid=ab77a418-345e-453b-bca3-3815a5ee3842"},"vehicle_type_id":"4","last_reported":1774014789,"current_range_meters":9200,"station_id":"ce4bhu92rcd13ifvqi70","pricing_plan_id":"cebpf4jnsgd1na2vs0mg"},{"bike_id":"bfa999de-7a32-454a-b31e-f99ace51a3fc","system_id":"levelo_inurba_marseille","lat":43.285,"lon":5.4837,"is_reserved":false,"is_disabled":false,"rental_uris":{"android":"levelo://app?vid=bfa999de-7a32-454a-b31e-f99ace51a3fc","ios":"levelo://app?vid=bfa999de-7a32-454a-b31e-f99ace51a3fc"},"vehicle_type_id":"4","last_reported":1774014789,"current_range_meters":9200,"station_id":"","pricing_plan_id":"cebpf4jnsgd1na2vs0mg"},{"bike_id":"b3b3bb0b-fb2d-4490-a557-6f80b344e03f","system_id":"levelo_inurba_marseille","lat":43.2897,"lon":5.396,"is_reserved":false,"is_disabled":true,"rental_uris":{"android":"levelo://app?vid=b3b3bb0b-fb2d-4490-a557-6f80b344e03f","ios":"levelo://app?vid=b3b3bb0b-fb2d-4490-a557-6f80b344e03f"},"vehicle_type_id":"4","last_reported":1774014789,"current_range_meters":9200,"station_id":"ce4bh3h2rcd13ifvqdn0","pricing_plan_id":"cebpf4jnsgd1na2vs0mg"},{"bike_id":"78ad46cf-de7a-41d7-8841-32a0d8094a80","system_id":"levelo_inurba_marseille","lat":43.28469,"lon":5.35873,"is_reserved":false,"is_disabled":false,"rental_uris":{"android":"levelo://app?vid=78ad46cf-de7a-41d7-8841-32a0d8094a80","ios":"levelo://app?vid=78ad46cf-de7a-41d7-8841-32a0d8094a80"},"vehicle_type_id":"4","last_reported":1774014789,"current_range_meters":9200,"station_id":"ce4bhah2rcd13ifvqei0","pricing_plan_id":"cebpf4jnsgd1na2vs0mg"},{"bike_id":"fdae7500-0e16-48fd-9bb0-ff4977c0f34b","system_id":"levelo_inurba_marseille","lat":43.26568,"lon":5.39008,"is_reserved":false,"is_disabled":false,"rental_uris":{"android":"levelo://app?vid=fdae7500-0e16-48fd-9bb0-ff4977c0f34b","ios":"levelo://app?vid=fdae7500-0e16-48fd-9bb0-ff4977c0f34b"},"vehicle_type_id":"4","last_reported":1774014789,"current_range_meters":9200,"station_id":"ce4bhe12rcd13ifvqf30","pricing_plan_id":"cebpf4jnsgd1na2vs0mg"},{"bike_id":"cf84cd5c-c5f4-4544-ac0c-5794a9f3bf5f","system_id":"levelo_inurba_marseille","lat":43.28624,"lon":5.39447,"is_reserved":false,"is_disabled":false,"rental_uris":{"android":"levelo://app?vid=cf84cd5c-c5f4-4544-ac0c-5794a9f3bf5f","ios":"levelo://app?vid=cf84cd5c-c5f4-4544-ac0c-5794a9f3bf5f"},"vehicle_type_id":"4","last_reported":1774014789,"current_range_meters":9200,"station_id":"","pricing_plan_id":"cebpf4jnsgd1na2vs0mg"},{"bike_id":"ffee91b4-e1f4-4cfe-bfbf-9ca7434cffe2","system_id":"levelo_inurba_marseille","lat":43.27412,"lon":5.39399,"is_reserved":false,"is_disabled":true,"rental_uris":{"android":"levelo://app?vid=ffee91b4-e1f4-4cfe-bfbf-9ca7434cffe2","ios":"levelo://app?vid=ffee91b4-e1f4-4cfe-bfbf-9ca7434cffe2"},"vehicle_type_id":"4","last_reported":1774014789,"current_range_meters":9200,"station_id":"ce4bhdp2rcd13ifvqf20","pricing_plan_id":"cebpf4jnsgd1na2vs0mg"},{"bike_id":"4e139d31-3909-4b78-ab67-7f385228a9f1","system_id":"levelo_inurba_marseille","lat":43.26547,"lon":5.373,"is_reserved":false,"is_disabled":false,"rental_uris":{"android":"levelo://app?vid=4e139d31-3909-4b78-ab67-7f385228a9f1","ios":"levelo://app?vid=4e139d31-3909-4b78-ab67-7f385228a9f1"},"vehicle_type_id":"4","last_reported":1774014789,"current_range_meters":9200,"station_id":"ce4bhg12rcd13ifvqf70","pricing_plan_id":"cebpf4jnsgd1na2vs0mg"},{"bike_id":"570e30b9-8ff8-41bf-8662-4a5c2a72ee00","system_id":"levelo_inurba_marseille","lat":43.27355,"lon":5.36245,"is_reserved":false,"is_disabled":false,"rental_uris":{"android":"levelo://app?vid=570e30b9-8ff8-41bf-8662-4a5c2a72ee00","ios":"levelo://app?vid=570e30b9-8ff8-41bf-8662-4a5c2a72ee00"},"vehicle_type_id":"4","last_reported":1774014789,"current_range_meters":9200,"station_id":"ce4bhbh2rcd13ifvqeo0","pricing_plan_id":"cebpf4jnsgd1na2vs0mg"},{"bike_id":"774652c9-2523-4e26-93d6-f9dffa7681c1","system_id":"levelo_inurba_marseille","lat":43.28404,"lon":5.37507,"is_reserved":false,"is_disabled":false,"rental_uris":{"android":"levelo://app?vid=774652c9-2523-4e26-93d6-f9dffa7681c1","ios":"levelo://app?vid=774652c9-2523-4e26-93d6-f9dffa7681c1"},"vehicle_type_id":"4","last_reported":1774014789,"current_range_meters":9200,"station_id":"ce4bh412rcd13ifvqds0","pricing_plan_id":"cebpf4jnsgd1na2vs0mg"},{"bike_id":"60486ec5-7a5d-49ff-8f77-ca4378e8a5d7","system_id":"levelo_inurba_marseille","lat":43.29592,"lon":5.38111,"is_reserved":false,"is_disabled":false,"rental_uris":{"android":"levelo://app?vid=60486ec5-7a5d-49ff-8f77-ca4378e8a5d7","ios":"levelo://app?vid=60486ec5-7a5d-49ff-8f77-ca4378e8a5d7"},"vehicle_type_id":"4","last_reported":1774014789,"current_range_meters":9200,"station_id":"ce4bgl12rcd13ifvqbo0","pricing_plan_id":"cebpf4jnsgd1na2vs0mg"},{"bike_id":"5505d09c-7cd3-48d8-b161-92a835062079","system_id":"levelo_inurba_marseille","lat":43.27303,"lon":5.39097,"is_reserved":false,"is_disabled":false,"rental_uris":{"android":"levelo://app?vid=5505d09c-7cd3-48d8-b161-92a835062079","ios":"levelo://app?vid=5505d09c-7cd3-48d8-b161-92a835062079"},"vehicle_type_id":"4","last_reported":1774014789,"current_range_meters":9200,"station_id":"ce4bhgp2rcd13ifvqfe0","pricing_plan_id":"cebpf4jnsgd1na2vs0mg"},{"bike_id":"aef78bd0-ea9a-490e-b29e-79fe1986976a","system_id":"levelo_inurba_marseille","lat":43.24648,"lon":5.38894,"is_reserved":false,"is_disabled":false,"rental_uris":{"android":"levelo://app?vid=aef78bd0-ea9a-490e-b29e-79fe1986976a","ios":"levelo://app?vid=aef78bd0-ea9a-490e-b29e-79fe1986976a"},"vehicle_type_id":"4","last_reported":1774014789,"current_range_meters":9200,"station_id":"ce4bhg12rcd13ifvqf60","pricing_plan_id":"cebpf4jnsgd1na2vs0mg"},{"bike_id":"64230c20-bfea-4fc5-9860-4a93e1ab7bcc","system_id":"levelo_inurba_marseille","lat":43.29196,"lon":5.35803,"is_reserved":false,"is_disabled":false,"rental_uris":{"android":"levelo://app?vid=64230c20-bfea-4fc5-9860-4a93e1ab7bcc","ios":"levelo://app?vid=64230c20-bfea-4fc5-9860-4a93e1ab7bcc"},"vehicle_type_id":"4","last_reported":1774014789,"current_range_meters":9200,"station_id":"ce4bhb12rcd13ifvqel0","pricing_plan_id":"cebpf4jnsgd1na2vs0mg"},{"bike_id":"79676942-3051-4c8d-9ec5-fa7181a0eac0","system_id":"levelo_inurba_marseille","lat":43.25117,"lon":5.40338,"is_reserved":false,"is_disabled":false,"rental_uris":{"android":"levelo://app?vid=79676942-3051-4c8d-9ec5-fa7181a0eac0","ios":"levelo://app?vid=79676942-3051-4c8d-9ec5-fa7181a0eac0"},"vehicle_type_id":"4","last_reported":1774014789,"current_range_meters":9600,"station_id":"ce4bhlh2rcd13ifvqgig","pricing_plan_id":"cebpf4jnsgd1na2vs0mg"},{"bike_id":"7f69ea73-8aff-462b-a819-a0809de4b8a2","system_id":"levelo_inurba_marseille","lat":43.3055,"lon":5.36517,"is_reserved":false,"is_disabled":false,"rental_uris":{"android":"levelo://app?vid=7f69ea73-8aff-462b-a819-a0809de4b8a2","ios":"levelo://app?vid=7f69ea73-8aff-462b-a819-a0809de4b8a2"},"vehicle_type_id":"4","last_reported":1774014789,"current_range_meters":9600,"station_id":"ce4bgs12rcd13ifvqcag","pricing_plan_id":"cebpf4jnsgd1na2vs0mg"},{"bike_id":"cc777a7e-f3d4-4026-819d-66c6f1a5d2b6","system_id":"levelo_inurba_marseille","lat":43.29233,"lon":5.42602,"is_reserved":false,"is_disabled":false,"rental_uris":{"android":"levelo://app?vid=cc777a7e-f3d4-4026-819d-66c6f1a5d2b6","ios":"levelo://app?vid=cc777a7e-f3d4-4026-819d-66c6f1a5d2b6"},"vehicle_type_id":"4","last_reported":1774014789,"current_range_meters":9600,"station_id":"","pricing_plan_id":"cebpf4jnsgd1na2vs0mg"},{"bike_id":"92f32112-8a58-4a2d-8380-c50aa46da344","system_id":"levelo_inurba_marseille","lat":43.2406,"lon":5.36359,"is_reserved":false,"is_disabled":false,"rental_uris":{"android":"levelo://app?vid=92f32112-8a58-4a2d-8380-c50aa46da344","ios":"levelo://app?vid=92f32112-8a58-4a2d-8380-c50aa46da344"},"vehicle_type_id":"4","last_reported":1774014789,"current_range_meters":9600,"station_id":"","pricing_plan_id":"cebpf4jnsgd1na2vs0mg"},{"bike_id":"3676a395-9d4a-4d07-81c5-7b1d4a0acb38","system_id":"levelo_inurba_marseille","lat":43.31537,"lon":5.37282,"is_reserved":false,"is_disabled":false,"rental_uris":{"android":"levelo://app?vid=3676a395-9d4a-4d07-81c5-7b1d4a0acb38","ios":"levelo://app?vid=3676a395-9d4a-4d07-81c5-7b1d4a0acb38"},"vehicle_type_id":"4","last_reported":1774014789,"current_range_meters":9600,"station_id":"","pricing_plan_id":"cebpf4jnsgd1na2vs0mg"},{"bike_id":"0cc34331-bc55-4882-baff-fd6e2b8d99bc","system_id":"levelo_inurba_marseille","lat":43.31712,"lon":5.43708,"is_reserved":false,"is_disabled":false,"rental_uris":{"android":"levelo://app?vid=0cc34331-bc55-4882-baff-fd6e2b8d99bc","ios":"levelo://app?vid=0cc34331-bc55-4882-baff-fd6e2b8d99bc"},"vehicle_type_id":"4","last_reported":1774014789,"current_range_meters":9600,"station_id":"ce4bhp92rcd13ifvqhcg","pricing_plan_id":"cebpf4jnsgd1na2vs0mg"},{"bike_id":"f80242bd-cda9-4de1-a643-4d63093f953c","system_id":"levelo_inurba_marseille","lat":43.29754,"lon":5.42771,"is_reserved":false,"is_disabled":false,"rental_uris":{"android":"levelo://app?vid=f80242bd-cda9-4de1-a643-4d63093f953c","ios":"levelo://app?vid=f80242bd-cda9-4de1-a643-4d63093f953c"},"vehicle_type_id":"4","last_reported":1774014789,"current_range_meters":9600,"station_id":"st_d3md5207bmas73dh9klg","pricing_plan_id":"cebpf4jnsgd1na2vs0mg"},{"bike_id":"81cc8c13-f16d-4756-8935-16578225be55","system_id":"levelo_inurba_marseille","lat":43.2733,"lon":5.39097,"is_reserved":false,"is_disabled":false,"rental_uris":{"android":"levelo://app?vid=81cc8c13-f16d-4756-8935-16578225be55","ios":"levelo://app?vid=81cc8c13-f16d-4756-8935-16578225be55"},"vehicle_type_id":"4","last_reported":1774014789,"current_range_meters":9600,"station_id":"ce4bhgp2rcd13ifvqfe0","pricing_plan_id":"cebpf4jnsgd1na2vs0mg"},{"bike_id":"579f6a9e-3f10-40f4-a2b5-bec337898fde","system_id":"levelo_inurba_marseille","lat":43.29925,"lon":5.375,"is_reserved":false,"is_disabled":false,"rental_uris":{"android":"levelo://app?vid=579f6a9e-3f10-40f4-a2b5-bec337898fde","ios":"levelo://app?vid=579f6a9e-3f10-40f4-a2b5-bec337898fde"},"vehicle_type_id":"4","last_reported":1774014789,"current_range_meters":9600,"station_id":"ce4bgjh2rcd13ifvqbg0","pricing_plan_id":"cebpf4jnsgd1na2vs0mg"},{"bike_id":"0b2c6a9b-2915-41f7-aea8-701c94865c1f","system_id":"levelo_inurba_marseille","lat":43.2815,"lon":5.42637,"is_reserved":false,"is_disabled":false,"rental_uris":{"android":"levelo://app?vid=0b2c6a9b-2915-41f7-aea8-701c94865c1f","ios":"levelo://app?vid=0b2c6a9b-2915-41f7-aea8-701c94865c1f"},"vehicle_type_id":"4","last_reported":1774014789,"current_range_meters":9600,"station_id":"ce4bhnh2rcd13ifvqgug","pricing_plan_id":"cebpf4jnsgd1na2vs0mg"},{"bike_id":"de9f5593-7ec3-4397-9c54-5d1447d591ac","system_id":"levelo_inurba_marseille","lat":43.27321,"lon":5.39074,"is_reserved":false,"is_disabled":false,"rental_uris":{"android":"levelo://app?vid=de9f5593-7ec3-4397-9c54-5d1447d591ac","ios":"levelo://app?vid=de9f5593-7ec3-4397-9c54-5d1447d591ac"},"vehicle_type_id":"4","last_reported":1774014789,"current_range_meters":9600,"station_id":"ce4bhgp2rcd13ifvqfe0","pricing_plan_id":"cebpf4jnsgd1na2vs0mg"},{"bike_id":"94d7ff09-819e-489a-bb88-56ef8c2bc4bf","system_id":"levelo_inurba_marseille","lat":43.28413,"lon":5.35006,"is_reserved":false,"is_disabled":false,"rental_uris":{"android":"levelo://app?vid=94d7ff09-819e-489a-bb88-56ef8c2bc4bf","ios":"levelo://app?vid=94d7ff09-819e-489a-bb88-56ef8c2bc4bf"},"vehicle_type_id":"4","last_reported":1774014789,"current_range_meters":9600,"station_id":"ce4bhbh2rcd13ifvqepg","pricing_plan_id":"cebpf4jnsgd1na2vs0mg"},{"bike_id":"d40401c9-b144-433d-a892-f776fc6e8d5d","system_id":"levelo_inurba_marseille","lat":43.2756,"lon":5.38419,"is_reserved":false,"is_disabled":false,"rental_uris":{"android":"levelo://app?vid=d40401c9-b144-433d-a892-f776fc6e8d5d","ios":"levelo://app?vid=d40401c9-b144-433d-a892-f776fc6e8d5d"},"vehicle_type_id":"4","last_reported":1774014789,"current_range_meters":9600,"station_id":"ce4bhh92rcd13ifvqfi0","pricing_plan_id":"cebpf4jnsgd1na2vs0mg"},{"bike_id":"49393f3b-f329-4d01-9fb1-6c63b6508bf0","system_id":"levelo_inurba_marseille","lat":43.28858,"lon":5.35828,"is_reserved":false,"is_disabled":false,"rental_uris":{"android":"levelo://app?vid=49393f3b-f329-4d01-9fb1-6c63b6508bf0","ios":"levelo://app?vid=49393f3b-f329-4d01-9fb1-6c63b6508bf0"},"vehicle_type_id":"4","last_reported":1774014789,"current_range_meters":9600,"station_id":"ce4bhb12rcd13ifvqem0","pricing_plan_id":"cebpf4jnsgd1na2vs0mg"},{"bike_id":"9ea6727b-deda-4b52-bd96-450462560efa","system_id":"levelo_inurba_marseille","lat":43.30144,"lon":5.38087,"is_reserved":false,"is_disabled":false,"rental_uris":{"android":"levelo://app?vid=9ea6727b-deda-4b52-bd96-450462560efa","ios":"levelo://app?vid=9ea6727b-deda-4b52-bd96-450462560efa"},"vehicle_type_id":"4","last_reported":1774014789,"current_range_meters":9600,"station_id":"ce4bgjp2rcd13ifvqbh0","pricing_plan_id":"cebpf4jnsgd1na2vs0mg"},{"bike_id":"c9b3c56d-e58a-4122-ac1f-e329bf8c6d22","system_id":"levelo_inurba_marseille","lat":43.26687,"lon":5.38258,"is_reserved":false,"is_disabled":false,"rental_uris":{"android":"levelo://app?vid=c9b3c56d-e58a-4122-ac1f-e329bf8c6d22","ios":"levelo://app?vid=c9b3c56d-e58a-4122-ac1f-e329bf8c6d22"},"vehicle_type_id":"4","last_reported":1774014789,"current_range_meters":9600,"station_id":"ce4bhg92rcd13ifvqf90","pricing_plan_id":"cebpf4jnsgd1na2vs0mg"},{"bike_id":"98fd4811-f5fe-471b-acec-fa220e91fa77","system_id":"levelo_inurba_marseille","lat":43.30315,"lon":5.36892,"is_reserved":false,"is_disabled":false,"rental_uris":{"android":"levelo://app?vid=98fd4811-f5fe-471b-acec-fa220e91fa77","ios":"levelo://app?vid=98fd4811-f5fe-471b-acec-fa220e91fa77"},"vehicle_type_id":"4","last_reported":1774014789,"current_range_meters":10000,"station_id":"ce4bgqh2rcd13ifvqc5g","pricing_plan_id":"cebpf4jnsgd1na2vs0mg"},{"bike_id":"360fd481-1b79-4851-bf35-4750a475ff1d","system_id":"levelo_inurba_marseille","lat":43.28618,"lon":5.35111,"is_reserved":false,"is_disabled":false,"rental_uris":{"android":"levelo://app?vid=360fd481-1b79-4851-bf35-4750a475ff1d","ios":"levelo://app?vid=360fd481-1b79-4851-bf35-4750a475ff1d"},"vehicle_type_id":"4","last_reported":1774014789,"current_range_meters":10000,"station_id":"ce4bhch2rcd13ifvqeug","pricing_plan_id":"cebpf4jnsgd1na2vs0mg"},{"bike_id":"aad41c9c-7917-4dd3-8f26-9f95ada6e6d2","system_id":"levelo_inurba_marseille","lat":43.29919,"lon":5.37475,"is_reserved":false,"is_disabled":false,"rental_uris":{"android":"levelo://app?vid=aad41c9c-7917-4dd3-8f26-9f95ada6e6d2","ios":"levelo://app?vid=aad41c9c-7917-4dd3-8f26-9f95ada6e6d2"},"vehicle_type_id":"4","last_reported":1774014789,"current_range_meters":10000,"station_id":"ce4bgjh2rcd13ifvqbg0","pricing_plan_id":"cebpf4jnsgd1na2vs0mg"},{"bike_id":"fc6823dc-1afa-4683-9cef-bb1e63bb7180","system_id":"levelo_inurba_marseille","lat":43.26496,"lon":5.39557,"is_reserved":false,"is_disabled":false,"rental_uris":{"android":"levelo://app?vid=fc6823dc-1afa-4683-9cef-bb1e63bb7180","ios":"levelo://app?vid=fc6823dc-1afa-4683-9cef-bb1e63bb7180"},"vehicle_type_id":"4","last_reported":1774014789,"current_range_meters":10000,"station_id":"ce4bhi12rcd13ifvqfq0","pricing_plan_id":"cebpf4jnsgd1na2vs0mg"},{"bike_id":"5823234a-ebe5-4f73-a6ca-e22e8e37fb65","system_id":"levelo_inurba_marseille","lat":43.30739,"lon":5.37704,"is_reserved":false,"is_disabled":true,"rental_uris":{"android":"levelo://app?vid=5823234a-ebe5-4f73-a6ca-e22e8e37fb65","ios":"levelo://app?vid=5823234a-ebe5-4f73-a6ca-e22e8e37fb65"},"vehicle_type_id":"4","last_reported":1774014789,"current_range_meters":10000,"station_id":"","pricing_plan_id":"cebpf4jnsgd1na2vs0mg"},{"bike_id":"c5f5c14d-d55b-43e6-adcb-ba2f8d8de248","system_id":"levelo_inurba_marseille","lat":43.28579,"lon":5.39503,"is_reserved":false,"is_disabled":false,"rental_uris":{"android":"levelo://app?vid=c5f5c14d-d55b-43e6-adcb-ba2f8d8de248","ios":"levelo://app?vid=c5f5c14d-d55b-43e6-adcb-ba2f8d8de248"},"vehicle_type_id":"4","last_reported":1774014789,"current_range_meters":10000,"station_id":"ce4bh292rcd13ifvqdg0","pricing_plan_id":"cebpf4jnsgd1na2vs0mg"},{"bike_id":"f679e1f0-7274-496e-9bfd-1e40b7ada538","system_id":"levelo_inurba_marseille","lat":43.270692,"lon":5.422856,"is_reserved":false,"is_disabled":false,"rental_uris":{"android":"levelo://app?vid=f679e1f0-7274-496e-9bfd-1e40b7ada538","ios":"levelo://app?vid=f679e1f0-7274-496e-9bfd-1e40b7ada538"},"vehicle_type_id":"4","last_reported":1774014789,"current_range_meters":10000,"station_id":"ce4bhk92rcd13ifvqgb0","pricing_plan_id":"cebpf4jnsgd1na2vs0mg"},{"bike_id":"d9a2340f-4dc0-456b-89f0-454af4d93a65","system_id":"levelo_inurba_marseille","lat":43.28506,"lon":5.3511,"is_reserved":false,"is_disabled":false,"rental_uris":{"android":"levelo://app?vid=d9a2340f-4dc0-456b-89f0-454af4d93a65","ios":"levelo://app?vid=d9a2340f-4dc0-456b-89f0-454af4d93a65"},"vehicle_type_id":"4","last_reported":1774014789,"current_range_meters":10000,"station_id":"","pricing_plan_id":"cebpf4jnsgd1na2vs0mg"},{"bike_id":"b8001939-03a0-4af5-b74f-2f5b14d46d83","system_id":"levelo_inurba_marseille","lat":43.27358,"lon":5.36238,"is_reserved":false,"is_disabled":false,"rental_uris":{"android":"levelo://app?vid=b8001939-03a0-4af5-b74f-2f5b14d46d83","ios":"levelo://app?vid=b8001939-03a0-4af5-b74f-2f5b14d46d83"},"vehicle_type_id":"4","last_reported":1774014789,"current_range_meters":10000,"station_id":"ce4bhbh2rcd13ifvqeo0","pricing_plan_id":"cebpf4jnsgd1na2vs0mg"},{"bike_id":"bb64248e-0e5d-4ee1-9d8f-d48a0dd77d66","system_id":"levelo_inurba_marseille","lat":43.21633,"lon":5.3446,"is_reserved":false,"is_disabled":false,"rental_uris":{"android":"levelo://app?vid=bb64248e-0e5d-4ee1-9d8f-d48a0dd77d66","ios":"levelo://app?vid=bb64248e-0e5d-4ee1-9d8f-d48a0dd77d66"},"vehicle_type_id":"4","last_reported":1774014789,"current_range_meters":10000,"station_id":"","pricing_plan_id":"cebpf4jnsgd1na2vs0mg"},{"bike_id":"420f82c5-ff93-45c1-9f1a-4270c5955f6f","system_id":"levelo_inurba_marseille","lat":43.26225,"lon":5.40453,"is_reserved":false,"is_disabled":false,"rental_uris":{"android":"levelo://app?vid=420f82c5-ff93-45c1-9f1a-4270c5955f6f","ios":"levelo://app?vid=420f82c5-ff93-45c1-9f1a-4270c5955f6f"},"vehicle_type_id":"4","last_reported":1774014789,"current_range_meters":10000,"station_id":"ce4bhmh2rcd13ifvqgmg","pricing_plan_id":"cebpf4jnsgd1na2vs0mg"},{"bike_id":"7a5cb2e0-741a-45bf-ba7a-0d07903eb418","system_id":"levelo_inurba_marseille","lat":43.28468,"lon":5.38421,"is_reserved":false,"is_disabled":false,"rental_uris":{"android":"levelo://app?vid=7a5cb2e0-741a-45bf-ba7a-0d07903eb418","ios":"levelo://app?vid=7a5cb2e0-741a-45bf-ba7a-0d07903eb418"},"vehicle_type_id":"4","last_reported":1774014789,"current_range_meters":10000,"station_id":"ce4bh512rcd13ifvqe3g","pricing_plan_id":"cebpf4jnsgd1na2vs0mg"},{"bike_id":"f44e27c5-d3c1-470f-b047-cface7316b82","system_id":"levelo_inurba_marseille","lat":43.31223,"lon":5.36861,"is_reserved":false,"is_disabled":false,"rental_uris":{"android":"levelo://app?vid=f44e27c5-d3c1-470f-b047-cface7316b82","ios":"levelo://app?vid=f44e27c5-d3c1-470f-b047-cface7316b82"},"vehicle_type_id":"4","last_reported":1774014789,"current_range_meters":10000,"station_id":"ce4bgl92rcd13ifvqbq0","pricing_plan_id":"cebpf4jnsgd1na2vs0mg"},{"bike_id":"2f189acb-1cb2-4268-b56d-7e9348446549","system_id":"levelo_inurba_marseille","lat":43.28464,"lon":5.3588,"is_reserved":false,"is_disabled":false,"rental_uris":{"android":"levelo://app?vid=2f189acb-1cb2-4268-b56d-7e9348446549","ios":"levelo://app?vid=2f189acb-1cb2-4268-b56d-7e9348446549"},"vehicle_type_id":"4","last_reported":1774014789,"current_range_meters":10000,"station_id":"ce4bhah2rcd13ifvqei0","pricing_plan_id":"cebpf4jnsgd1na2vs0mg"},{"bike_id":"64ff2a86-cd79-4d47-be3c-9a731e159a65","system_id":"levelo_inurba_marseille","lat":43.30796,"lon":5.38144,"is_reserved":false,"is_disabled":false,"rental_uris":{"android":"levelo://app?vid=64ff2a86-cd79-4d47-be3c-9a731e159a65","ios":"levelo://app?vid=64ff2a86-cd79-4d47-be3c-9a731e159a65"},"vehicle_type_id":"4","last_reported":1774014789,"current_range_meters":10000,"station_id":"ce4bgt12rcd13ifvqce0","pricing_plan_id":"cebpf4jnsgd1na2vs0mg"},{"bike_id":"383536d7-4576-45c9-8ba0-0246348934c0","system_id":"levelo_inurba_marseille","lat":43.29936,"lon":5.3654,"is_reserved":false,"is_disabled":false,"rental_uris":{"android":"levelo://app?vid=383536d7-4576-45c9-8ba0-0246348934c0","ios":"levelo://app?vid=383536d7-4576-45c9-8ba0-0246348934c0"},"vehicle_type_id":"4","last_reported":1774014789,"current_range_meters":10800,"station_id":"ce4bgm92rcd13ifvqbr0","pricing_plan_id":"cebpf4jnsgd1na2vs0mg"},{"bike_id":"36750a5a-e715-404b-ab4e-4dfa557014c3","system_id":"levelo_inurba_marseille","lat":43.24462,"lon":5.42547,"is_reserved":false,"is_disabled":false,"rental_uris":{"android":"levelo://app?vid=36750a5a-e715-404b-ab4e-4dfa557014c3","ios":"levelo://app?vid=36750a5a-e715-404b-ab4e-4dfa557014c3"},"vehicle_type_id":"4","last_reported":1774014789,"current_range_meters":10800,"station_id":"st_d4a3vfp97mjs738cd8kg","pricing_plan_id":"cebpf4jnsgd1na2vs0mg"},{"bike_id":"4140578d-a1f5-4f9a-9bc0-255922328e78","system_id":"levelo_inurba_marseille","lat":43.30279,"lon":5.3771,"is_reserved":false,"is_disabled":false,"rental_uris":{"android":"levelo://app?vid=4140578d-a1f5-4f9a-9bc0-255922328e78","ios":"levelo://app?vid=4140578d-a1f5-4f9a-9bc0-255922328e78"},"vehicle_type_id":"4","last_reported":1774014789,"current_range_meters":10800,"station_id":"ce4bguh2rcd13ifvqcj0","pricing_plan_id":"cebpf4jnsgd1na2vs0mg"},{"bike_id":"9fc3100e-4d82-48d6-89bc-f6f291702956","system_id":"levelo_inurba_marseille","lat":43.31767,"lon":5.39002,"is_reserved":false,"is_disabled":false,"rental_uris":{"android":"levelo://app?vid=9fc3100e-4d82-48d6-89bc-f6f291702956","ios":"levelo://app?vid=9fc3100e-4d82-48d6-89bc-f6f291702956"},