{"last_updated":1750187283,"ttl":60,"version":"2.2","data":{"bikes":[{"bike_id":"3da29fb8-fc97-44c6-b9ac-31dd456b2fd4","system_id":"levelo_inurba_marseille","lat":43.33771,"lon":5.37424,"is_reserved":false,"is_disabled":true,"rental_uris":{"android":"levelo://app?vid=3da29fb8-fc97-44c6-b9ac-31dd456b2fd4","ios":"levelo://app?vid=3da29fb8-fc97-44c6-b9ac-31dd456b2fd4"},"vehicle_type_id":"4","last_reported":1750187283,"current_range_meters":0,"station_id":"","pricing_plan_id":"cebpf4jnsgd1na2vs0mg"},{"bike_id":"01861ad8-a8d7-4be6-816e-651927c87584","system_id":"levelo_inurba_marseille","lat":43.33751,"lon":5.37456,"is_reserved":false,"is_disabled":true,"rental_uris":{"android":"levelo://app?vid=01861ad8-a8d7-4be6-816e-651927c87584","ios":"levelo://app?vid=01861ad8-a8d7-4be6-816e-651927c87584"},"vehicle_type_id":"4","last_reported":1750187283,"current_range_meters":0,"station_id":"","pricing_plan_id":"cebpf4jnsgd1na2vs0mg"},{"bike_id":"dbfce7a3-3423-4296-b193-a177dea644ac","system_id":"levelo_inurba_marseille","lat":43.27291,"lon":5.41621,"is_reserved":false,"is_disabled":true,"rental_uris":{"android":"levelo://app?vid=dbfce7a3-3423-4296-b193-a177dea644ac","ios":"levelo://app?vid=dbfce7a3-3423-4296-b193-a177dea644ac"},"vehicle_type_id":"4","last_reported":1750187283,"current_range_meters":0,"station_id":"","pricing_plan_id":"cebpf4jnsgd1na2vs0mg"},{"bike_id":"b81ba2bd-624d-43c3-b702-6c0cdad38ab2","system_id":"levelo_inurba_marseille","lat":43.31168,"lon":5.39315,"is_reserved":false,"is_disabled":true,"rental_uris":{"android":"levelo://app?vid=b81ba2bd-624d-43c3-b702-6c0cdad38ab2","ios":"levelo://app?vid=b81ba2bd-624d-43c3-b702-6c0cdad38ab2"},"vehicle_type_id":"4","last_reported":1750187283,"current_range_meters":0,"station_id":"","pricing_plan_id":"cebpf4jnsgd1na2vs0mg"},{"bike_id":"d2bd57c8-6b64-48db-ad24-5398eb3fd9d6","system_id":"levelo_inurba_marseille","lat":43.337444,"lon":5.374475,"is_reserved":false,"is_disabled":true,"rental_uris":{"android":"levelo://app?vid=d2bd57c8-6b64-48db-ad24-5398eb3fd9d6","ios":"levelo://app?vid=d2bd57c8-6b64-48db-ad24-5398eb3fd9d6"},"vehicle_type_id":"4","last_reported":1750187283,"current_range_meters":0,"station_id":"","pricing_plan_id":"cebpf4jnsgd1na2vs0mg"},{"bike_id":"62a493c7-4534-4419-ad43-0582de34a72a","system_id":"levelo_inurba_marseille","lat":43.21366,"lon":5.355183,"is_reserved":false,"is_disabled":true,"rental_uris":{"android":"levelo://app?vid=62a493c7-4534-4419-ad43-0582de34a72a","ios":"levelo://app?vid=62a493c7-4534-4419-ad43-0582de34a72a"},"vehicle_type_id":"4","last_reported":1750187283,"current_range_meters":0,"station_id":"","pricing_plan_id":"cebpf4jnsgd1na2vs0mg"},{"bike_id":"8ad9234e-001a-4549-8bba-9baf2ef98804","system_id":"levelo_inurba_marseille","lat":43.27457,"lon":5.3982,"is_reserved":false,"is_disabled":true,"rental_uris":{"android":"levelo://app?vid=8ad9234e-001a-4549-8bba-9baf2ef98804","ios":"levelo://app?vid=8ad9234e-001a-4549-8bba-9baf2ef98804"},"vehicle_type_id":"4","last_reported":1750187283,"current_range_meters":0,"station_id":"","pricing_plan_id":"cebpf4jnsgd1na2vs0mg"},{"bike_id":"c2c58667-20a8-4e79-8951-55b79040f988","system_id":"levelo_inurba_marseille","lat":43.31243,"lon":5.38707,"is_reserved":false,"is_disabled":true,"rental_uris":{"android":"levelo://app?vid=c2c58667-20a8-4e79-8951-55b79040f988","ios":"levelo://app?vid=c2c58667-20a8-4e79-8951-55b79040f988"},"vehicle_type_id":"4","last_reported":1750187283,"current_range_meters":0,"station_id":"","pricing_plan_id":"cebpf4jnsgd1na2vs0mg"},{"bike_id":"93af304b-67b5-47b8-a3fd-e0775f7cde8c","system_id":"levelo_inurba_marseille","lat":43.21543,"lon":5.34729,"is_reserved":false,"is_disabled":true,"rental_uris":{"android":"levelo://app?vid=93af304b-67b5-47b8-a3fd-e0775f7cde8c","ios":"levelo://app?vid=93af304b-67b5-47b8-a3fd-e0775f7cde8c"},"vehicle_type_id":"4","last_reported":1750187283,"current_range_meters":0,"station_id":"","pricing_plan_id":"cebpf4jnsgd1na2vs0mg"},{"bike_id":"d6609b4f-333b-43c1-9ebe-8726f5e76e88","system_id":"levelo_inurba_marseille","lat":43.337444,"lon":5.374475,"is_reserved":false,"is_disabled":true,"rental_uris":{"android":"levelo://app?vid=d6609b4f-333b-43c1-9ebe-8726f5e76e88","ios":"levelo://app?vid=d6609b4f-333b-43c1-9ebe-8726f5e76e88"},"vehicle_type_id":"4","last_reported":1750187283,"current_range_meters":0,"station_id":"","pricing_plan_id":"cebpf4jnsgd1na2vs0mg"},{"bike_id":"57c83ce1-960e-466a-b6c5-d93bc130c53a","system_id":"levelo_inurba_marseille","lat":43.24878,"lon":5.38905,"is_reserved":false,"is_disabled":true,"rental_uris":{"android":"levelo://app?vid=57c83ce1-960e-466a-b6c5-d93bc130c53a","ios":"levelo://app?vid=57c83ce1-960e-466a-b6c5-d93bc130c53a"},"vehicle_type_id":"4","last_reported":1750187283,"current_range_meters":0,"station_id":"","pricing_plan_id":"cebpf4jnsgd1na2vs0mg"},{"bike_id":"b7a09a0a-320d-4ff5-9bde-6ae37f57770e","system_id":"levelo_inurba_marseille","lat":43.29787,"lon":5.38096,"is_reserved":false,"is_disabled":true,"rental_uris":{"android":"levelo://app?vid=b7a09a0a-320d-4ff5-9bde-6ae37f57770e","ios":"levelo://app?vid=b7a09a0a-320d-4ff5-9bde-6ae37f57770e"},"vehicle_type_id":"4","last_reported":1750187283,"current_range_meters":0,"station_id":"ce4bgip2rcd13ifvqbb0","pricing_plan_id":"cebpf4jnsgd1na2vs0mg"},{"bike_id":"e8da75f0-ab33-4eb0-bb27-4e3f6f854859","system_id":"levelo_inurba_marseille","lat":43.24794,"lon":5.37448,"is_reserved":false,"is_disabled":true,"rental_uris":{"android":"levelo://app?vid=e8da75f0-ab33-4eb0-bb27-4e3f6f854859","ios":"levelo://app?vid=e8da75f0-ab33-4eb0-bb27-4e3f6f854859"},"vehicle_type_id":"4","last_reported":1750187283,"current_range_meters":0,"station_id":"ce4bhgh2rcd13ifvqfb0","pricing_plan_id":"cebpf4jnsgd1na2vs0mg"},{"bike_id":"8255648d-c73a-4e10-8eaf-cee8c78e226a","system_id":"levelo_inurba_marseille","lat":43.27068,"lon":5.42283,"is_reserved":false,"is_disabled":true,"rental_uris":{"android":"levelo://app?vid=8255648d-c73a-4e10-8eaf-cee8c78e226a","ios":"levelo://app?vid=8255648d-c73a-4e10-8eaf-cee8c78e226a"},"vehicle_type_id":"4","last_reported":1750187283,"current_range_meters":0,"station_id":"ce4bhk92rcd13ifvqgb0","pricing_plan_id":"cebpf4jnsgd1na2vs0mg"},{"bike_id":"e884db7f-7bd3-4f07-aaba-023f42ed92f3","system_id":"levelo_inurba_marseille","lat":43.25111,"lon":5.40318,"is_reserved":false,"is_disabled":true,"rental_uris":{"android":"levelo://app?vid=e884db7f-7bd3-4f07-aaba-023f42ed92f3","ios":"levelo://app?vid=e884db7f-7bd3-4f07-aaba-023f42ed92f3"},"vehicle_type_id":"4","last_reported":1750187283,"current_range_meters":0,"station_id":"ce4bhlh2rcd13ifvqgig","pricing_plan_id":"cebpf4jnsgd1na2vs0mg"},{"bike_id":"474c23ee-6701-431d-9692-43c59c9044a1","system_id":"levelo_inurba_marseille","lat":43.26813,"lon":5.4025,"is_reserved":false,"is_disabled":true,"rental_uris":{"android":"levelo://app?vid=474c23ee-6701-431d-9692-43c59c9044a1","ios":"levelo://app?vid=474c23ee-6701-431d-9692-43c59c9044a1"},"vehicle_type_id":"4","last_reported":1750187283,"current_range_meters":0,"station_id":"ce501612rcd8frsf0b60","pricing_plan_id":"cebpf4jnsgd1na2vs0mg"},{"bike_id":"d3067771-41a7-4d5e-bccd-c4cb941129d9","system_id":"levelo_inurba_marseille","lat":43.29602,"lon":5.38107,"is_reserved":false,"is_disabled":true,"rental_uris":{"android":"levelo://app?vid=d3067771-41a7-4d5e-bccd-c4cb941129d9","ios":"levelo://app?vid=d3067771-41a7-4d5e-bccd-c4cb941129d9"},"vehicle_type_id":"4","last_reported":1750187283,"current_range_meters":800,"station_id":"ce4bgl12rcd13ifvqbo0","pricing_plan_id":"cebpf4jnsgd1na2vs0mg"},{"bike_id":"b9e37238-9abe-4b8b-b932-edaee33a7e59","system_id":"levelo_inurba_marseille","lat":43.27527,"lon":5.38968,"is_reserved":false,"is_disabled":true,"rental_uris":{"android":"levelo://app?vid=b9e37238-9abe-4b8b-b932-edaee33a7e59","ios":"levelo://app?vid=b9e37238-9abe-4b8b-b932-edaee33a7e59"},"vehicle_type_id":"4","last_reported":1750187283,"current_range_meters":1200,"station_id":"","pricing_plan_id":"cebpf4jnsgd1na2vs0mg"},{"bike_id":"d33772aa-48c0-4890-8963-d825b2c16520","system_id":"levelo_inurba_marseille","lat":43.31487,"lon":5.37307,"is_reserved":false,"is_disabled":true,"rental_uris":{"android":"levelo://app?vid=d33772aa-48c0-4890-8963-d825b2c16520","ios":"levelo://app?vid=d33772aa-48c0-4890-8963-d825b2c16520"},"vehicle_type_id":"4","last_reported":1750187283,"current_range_meters":1200,"station_id":"ce4bgt12rcd13ifvqcd0","pricing_plan_id":"cebpf4jnsgd1na2vs0mg"},{"bike_id":"cabcd404-a9fd-47e9-935b-34ff5741c821","system_id":"levelo_inurba_marseille","lat":43.29006,"lon":5.35599,"is_reserved":false,"is_disabled":true,"rental_uris":{"android":"levelo://app?vid=cabcd404-a9fd-47e9-935b-34ff5741c821","ios":"levelo://app?vid=cabcd404-a9fd-47e9-935b-34ff5741c821"},"vehicle_type_id":"4","last_reported":1750187283,"current_range_meters":1200,"station_id":"ce4bhb92rcd13ifvqen0","pricing_plan_id":"cebpf4jnsgd1na2vs0mg"},{"bike_id":"2f31acd0-55d3-4cd8-ac9a-4c999391994b","system_id":"levelo_inurba_marseille","lat":43.29005,"lon":5.35597,"is_reserved":false,"is_disabled":true,"rental_uris":{"android":"levelo://app?vid=2f31acd0-55d3-4cd8-ac9a-4c999391994b","ios":"levelo://app?vid=2f31acd0-55d3-4cd8-ac9a-4c999391994b"},"vehicle_type_id":"4","last_reported":1750187283,"current_range_meters":1200,"station_id":"ce4bhb92rcd13ifvqen0","pricing_plan_id":"cebpf4jnsgd1na2vs0mg"},{"bike_id":"74e0e01b-aa49-485e-865c-5129ce9a487b","system_id":"levelo_inurba_marseille","lat":43.242512,"lon":5.366707,"is_reserved":false,"is_disabled":true,"rental_uris":{"android":"levelo://app?vid=74e0e01b-aa49-485e-865c-5129ce9a487b","ios":"levelo://app?vid=74e0e01b-aa49-485e-865c-5129ce9a487b"},"vehicle_type_id":"4","last_reported":1750187283,"current_range_meters":1200,"station_id":"cpo36qri1sfpv3e86is0","pricing_plan_id":"cebpf4jnsgd1na2vs0mg"},{"bike_id":"68e17dfb-e23f-43a1-86f4-eba9ea2401b9","system_id":"levelo_inurba_marseille","lat":43.284098,"lon":5.375,"is_reserved":false,"is_disabled":true,"rental_uris":{"android":"levelo://app?vid=68e17dfb-e23f-43a1-86f4-eba9ea2401b9","ios":"levelo://app?vid=68e17dfb-e23f-43a1-86f4-eba9ea2401b9"},"vehicle_type_id":"4","last_reported":1750187283,"current_range_meters":1600,"station_id":"ce4bh412rcd13ifvqds0","pricing_plan_id":"cebpf4jnsgd1na2vs0mg"},{"bike_id":"f2908202-0aba-4b74-a50e-de4ce3472dec","system_id":"levelo_inurba_marseille","lat":43.27323,"lon":5.39092,"is_reserved":false,"is_disabled":true,"rental_uris":{"android":"levelo://app?vid=f2908202-0aba-4b74-a50e-de4ce3472dec","ios":"levelo://app?vid=f2908202-0aba-4b74-a50e-de4ce3472dec"},"vehicle_type_id":"4","last_reported":1750187283,"current_range_meters":1600,"station_id":"ce4bhgp2rcd13ifvqfe0","pricing_plan_id":"cebpf4jnsgd1na2vs0mg"},{"bike_id":"8d297b38-f666-4a46-9dee-0132f800019c","system_id":"levelo_inurba_marseille","lat":43.32194,"lon":5.38564,"is_reserved":false,"is_disabled":true,"rental_uris":{"android":"levelo://app?vid=8d297b38-f666-4a46-9dee-0132f800019c","ios":"levelo://app?vid=8d297b38-f666-4a46-9dee-0132f800019c"},"vehicle_type_id":"4","last_reported":1750187283,"current_range_meters":2000,"station_id":"","pricing_plan_id":"cebpf4jnsgd1na2vs0mg"},{"bike_id":"5a22c73b-5335-49b9-a1a9-31c08ad7f1af","system_id":"levelo_inurba_marseille","lat":43.2949,"lon":5.38694,"is_reserved":false,"is_disabled":true,"rental_uris":{"android":"levelo://app?vid=5a22c73b-5335-49b9-a1a9-31c08ad7f1af","ios":"levelo://app?vid=5a22c73b-5335-49b9-a1a9-31c08ad7f1af"},"vehicle_type_id":"4","last_reported":1750187283,"current_range_meters":2000,"station_id":"","pricing_plan_id":"cebpf4jnsgd1na2vs0mg"},{"bike_id":"3d144edc-6943-4ea6-a7a9-30c6f82bb96b","system_id":"levelo_inurba_marseille","lat":43.295362,"lon":5.385482,"is_reserved":false,"is_disabled":true,"rental_uris":{"android":"levelo://app?vid=3d144edc-6943-4ea6-a7a9-30c6f82bb96b","ios":"levelo://app?vid=3d144edc-6943-4ea6-a7a9-30c6f82bb96b"},"vehicle_type_id":"4","last_reported":1750187283,"current_range_meters":2000,"station_id":"ce4bgih2rcd13ifvqba0","pricing_plan_id":"cebpf4jnsgd1na2vs0mg"},{"bike_id":"ec467c90-0c8f-4418-a998-8f8de74f27cf","system_id":"levelo_inurba_marseille","lat":43.28936,"lon":5.3663,"is_reserved":false,"is_disabled":false,"rental_uris":{"android":"levelo://app?vid=ec467c90-0c8f-4418-a998-8f8de74f27cf","ios":"levelo://app?vid=ec467c90-0c8f-4418-a998-8f8de74f27cf"},"vehicle_type_id":"4","last_reported":1750187283,"current_range_meters":2800,"station_id":"ce4bhap2rcd13ifvqek0","pricing_plan_id":"cebpf4jnsgd1na2vs0mg"},{"bike_id":"69af7404-5ec1-4810-9e8f-2b24aa559381","system_id":"levelo_inurba_marseille","lat":43.293497,"lon":5.383856,"is_reserved":false,"is_disabled":false,"rental_uris":{"android":"levelo://app?vid=69af7404-5ec1-4810-9e8f-2b24aa559381","ios":"levelo://app?vid=69af7404-5ec1-4810-9e8f-2b24aa559381"},"vehicle_type_id":"4","last_reported":1750187283,"current_range_meters":3200,"station_id":"","pricing_plan_id":"cebpf4jnsgd1na2vs0mg"},{"bike_id":"4c4e7568-40c2-4793-83a1-8da4a77a2598","system_id":"levelo_inurba_marseille","lat":43.24074,"lon":5.37729,"is_reserved":false,"is_disabled":false,"rental_uris":{"android":"levelo://app?vid=4c4e7568-40c2-4793-83a1-8da4a77a2598","ios":"levelo://app?vid=4c4e7568-40c2-4793-83a1-8da4a77a2598"},"vehicle_type_id":"4","last_reported":1750187283,"current_range_meters":3200,"station_id":"ce4bhnp2rcd13ifvqgvg","pricing_plan_id":"cebpf4jnsgd1na2vs0mg"},{"bike_id":"94ba6b15-01ad-4234-a647-dbaa7e66cafb","system_id":"levelo_inurba_marseille","lat":43.29514,"lon":5.39403,"is_reserved":false,"is_disabled":false,"rental_uris":{"android":"levelo://app?vid=94ba6b15-01ad-4234-a647-dbaa7e66cafb","ios":"levelo://app?vid=94ba6b15-01ad-4234-a647-dbaa7e66cafb"},"vehicle_type_id":"4","last_reported":1750187283,"current_range_meters":3600,"station_id":"ce4bh292rcd13ifvqdf0","pricing_plan_id":"cebpf4jnsgd1na2vs0mg"},{"bike_id":"ba30d978-07df-4fd9-a902-2b4816184c67","system_id":"levelo_inurba_marseille","lat":43.25717,"lon":5.41113,"is_reserved":false,"is_disabled":false,"rental_uris":{"android":"levelo://app?vid=ba30d978-07df-4fd9-a902-2b4816184c67","ios":"levelo://app?vid=ba30d978-07df-4fd9-a902-2b4816184c67"},"vehicle_type_id":"4","last_reported":1750187283,"current_range_meters":3600,"station_id":"ce4bhkp2rcd13ifvqgd0","pricing_plan_id":"cebpf4jnsgd1na2vs0mg"},{"bike_id":"5e0478fe-12a6-40d6-b6cd-98c4764079c2","system_id":"levelo_inurba_marseille","lat":43.28846,"lon":5.39305,"is_reserved":false,"is_disabled":false,"rental_uris":{"android":"levelo://app?vid=5e0478fe-12a6-40d6-b6cd-98c4764079c2","ios":"levelo://app?vid=5e0478fe-12a6-40d6-b6cd-98c4764079c2"},"vehicle_type_id":"4","last_reported":1750187283,"current_range_meters":4000,"station_id":"ce4bh2p2rcd13ifvqdi0","pricing_plan_id":"cebpf4jnsgd1na2vs0mg"},{"bike_id":"c0c76d8c-289f-4f03-aced-dfb867450877","system_id":"levelo_inurba_marseille","lat":43.318194,"lon":5.379321,"is_reserved":false,"is_disabled":false,"rental_uris":{"android":"levelo://app?vid=c0c76d8c-289f-4f03-aced-dfb867450877","ios":"levelo://app?vid=c0c76d8c-289f-4f03-aced-dfb867450877"},"vehicle_type_id":"4","last_reported":1750187283,"current_range_meters":4000,"station_id":"ce4bhr12rcd13ifvqhpg","pricing_plan_id":"cebpf4jnsgd1na2vs0mg"},{"bike_id":"f2ec4c27-661d-4c12-b15f-7f127341201d","system_id":"levelo_inurba_marseille","lat":43.32,"lon":5.38166,"is_reserved":false,"is_disabled":false,"rental_uris":{"android":"levelo://app?vid=f2ec4c27-661d-4c12-b15f-7f127341201d","ios":"levelo://app?vid=f2ec4c27-661d-4c12-b15f-7f127341201d"},"vehicle_type_id":"4","last_reported":1750187283,"current_range_meters":4000,"station_id":"ce4bhr12rcd13ifvqhpg","pricing_plan_id":"cebpf4jnsgd1na2vs0mg"},{"bike_id":"cd636b84-fad8-4d21-b088-9638bd444090","system_id":"levelo_inurba_marseille","lat":43.28462,"lon":5.35887,"is_reserved":false,"is_disabled":false,"rental_uris":{"android":"levelo://app?vid=cd636b84-fad8-4d21-b088-9638bd444090","ios":"levelo://app?vid=cd636b84-fad8-4d21-b088-9638bd444090"},"vehicle_type_id":"4","last_reported":1750187283,"current_range_meters":4400,"station_id":"ce4bhah2rcd13ifvqei0","pricing_plan_id":"cebpf4jnsgd1na2vs0mg"},{"bike_id":"db405637-78ea-413d-ab92-17c67f77d8f9","system_id":"levelo_inurba_marseille","lat":43.29533,"lon":5.38539,"is_reserved":false,"is_disabled":false,"rental_uris":{"android":"levelo://app?vid=db405637-78ea-413d-ab92-17c67f77d8f9","ios":"levelo://app?vid=db405637-78ea-413d-ab92-17c67f77d8f9"},"vehicle_type_id":"4","last_reported":1750187283,"current_range_meters":4800,"station_id":"ce4bgih2rcd13ifvqba0","pricing_plan_id":"cebpf4jnsgd1na2vs0mg"},{"bike_id":"9b83a8d6-0327-478b-b8a6-d7c2a965d539","system_id":"levelo_inurba_marseille","lat":43.28705,"lon":5.37396,"is_reserved":false,"is_disabled":false,"rental_uris":{"android":"levelo://app?vid=9b83a8d6-0327-478b-b8a6-d7c2a965d539","ios":"levelo://app?vid=9b83a8d6-0327-478b-b8a6-d7c2a965d539"},"vehicle_type_id":"4","last_reported":1750187283,"current_range_meters":4800,"station_id":"ce4bh3p2rcd13ifvqdq0","pricing_plan_id":"cebpf4jnsgd1na2vs0mg"},{"bike_id":"425f0003-e7d8-4da8-97b2-ade3dc1e9aa8","system_id":"levelo_inurba_marseille","lat":43.28077,"lon":5.39655,"is_reserved":false,"is_disabled":false,"rental_uris":{"android":"levelo://app?vid=425f0003-e7d8-4da8-97b2-ade3dc1e9aa8","ios":"levelo://app?vid=425f0003-e7d8-4da8-97b2-ade3dc1e9aa8"},"vehicle_type_id":"4","last_reported":1750187283,"current_range_meters":4800,"station_id":"ce4bho12rcd13ifvqh2g","pricing_plan_id":"cebpf4jnsgd1na2vs0mg"},{"bike_id":"05ec4604-4fa1-4133-9109-1014582abedc","system_id":"levelo_inurba_marseille","lat":43.3175,"lon":5.3902,"is_reserved":false,"is_disabled":false,"rental_uris":{"android":"levelo://app?vid=05ec4604-4fa1-4133-9109-1014582abedc","ios":"levelo://app?vid=05ec4604-4fa1-4133-9109-1014582abedc"},"vehicle_type_id":"4","last_reported":1750187283,"current_range_meters":5600,"station_id":"ce4bhqp2rcd13ifvqhng","pricing_plan_id":"cebpf4jnsgd1na2vs0mg"},{"bike_id":"a8560958-7a33-4e37-bad9-c9a1e686fc43","system_id":"levelo_inurba_marseille","lat":43.29233,"lon":5.37484,"is_reserved":false,"is_disabled":false,"rental_uris":{"android":"levelo://app?vid=a8560958-7a33-4e37-bad9-c9a1e686fc43","ios":"levelo://app?vid=a8560958-7a33-4e37-bad9-c9a1e686fc43"},"vehicle_type_id":"4","last_reported":1750187283,"current_range_meters":6000,"station_id":"","pricing_plan_id":"cebpf4jnsgd1na2vs0mg"},{"bike_id":"fca9284e-e484-4f40-ba67-4681203ae0f2","system_id":"levelo_inurba_marseille","lat":43.29262,"lon":5.3843,"is_reserved":false,"is_disabled":false,"rental_uris":{"android":"levelo://app?vid=fca9284e-e484-4f40-ba67-4681203ae0f2","ios":"levelo://app?vid=fca9284e-e484-4f40-ba67-4681203ae0f2"},"vehicle_type_id":"4","last_reported":1750187283,"current_range_meters":6000,"station_id":"ce4bh692rcd13ifvqea0","pricing_plan_id":"cebpf4jnsgd1na2vs0mg"},{"bike_id":"bb9b603a-5a6d-428b-a35d-3495fd7c3814","system_id":"levelo_inurba_marseille","lat":43.3132,"lon":5.39692,"is_reserved":false,"is_disabled":false,"rental_uris":{"android":"levelo://app?vid=bb9b603a-5a6d-428b-a35d-3495fd7c3814","ios":"levelo://app?vid=bb9b603a-5a6d-428b-a35d-3495fd7c3814"},"vehicle_type_id":"4","last_reported":1750187283,"current_range_meters":6400,"station_id":"ce4bgvp2rcd13ifvqcu0","pricing_plan_id":"cebpf4jnsgd1na2vs0mg"},{"bike_id":"9a16dbc6-ebaf-4118-9922-ee05af967049","system_id":"levelo_inurba_marseille","lat":43.28458,"lon":5.35886,"is_reserved":false,"is_disabled":false,"rental_uris":{"android":"levelo://app?vid=9a16dbc6-ebaf-4118-9922-ee05af967049","ios":"levelo://app?vid=9a16dbc6-ebaf-4118-9922-ee05af967049"},"vehicle_type_id":"4","last_reported":1750187283,"current_range_meters":6400,"station_id":"ce4bhah2rcd13ifvqei0","pricing_plan_id":"cebpf4jnsgd1na2vs0mg"},{"bike_id":"178647ae-7879-4a58-9498-63b72c670276","system_id":"levelo_inurba_marseille","lat":43.33036,"lon":5.39023,"is_reserved":false,"is_disabled":false,"rental_uris":{"android":"levelo://app?vid=178647ae-7879-4a58-9498-63b72c670276","ios":"levelo://app?vid=178647ae-7879-4a58-9498-63b72c670276"},"vehicle_type_id":"4","last_reported":1750187283,"current_range_meters":6400,"station_id":"ce4bhr92rcd13ifvqhrg","pricing_plan_id":"cebpf4jnsgd1na2vs0mg"},{"bike_id":"2ff68f93-58f2-4a92-bc09-d577fd6a0696","system_id":"levelo_inurba_marseille","lat":43.28845,"lon":5.35859,"is_reserved":false,"is_disabled":false,"rental_uris":{"android":"levelo://app?vid=2ff68f93-58f2-4a92-bc09-d577fd6a0696","ios":"levelo://app?vid=2ff68f93-58f2-4a92-bc09-d577fd6a0696"},"vehicle_type_id":"4","last_reported":1750187283,"current_range_meters":6800,"station_id":"ce4bhb12rcd13ifvqem0","pricing_plan_id":"cebpf4jnsgd1na2vs0mg"},{"bike_id":"70aa1c30-7f45-4317-b0bc-01f77b8520f1","system_id":"levelo_inurba_marseille","lat":43.28615,"lon":5.37056,"is_reserved":false,"is_disabled":false,"rental_uris":{"android":"levelo://app?vid=70aa1c30-7f45-4317-b0bc-01f77b8520f1","ios":"levelo://app?vid=70aa1c30-7f45-4317-b0bc-01f77b8520f1"},"vehicle_type_id":"4","last_reported":1750187283,"current_range_meters":6800,"station_id":"ce4bht12rcd13ifvqi60","pricing_plan_id":"cebpf4jnsgd1na2vs0mg"},{"bike_id":"b9a3297f-2559-4244-a86b-d217016598ab","system_id":"levelo_inurba_marseille","lat":43.29779,"lon":5.38104,"is_reserved":false,"is_disabled":false,"rental_uris":{"android":"levelo://app?vid=b9a3297f-2559-4244-a86b-d217016598ab","ios":"levelo://app?vid=b9a3297f-2559-4244-a86b-d217016598ab"},"vehicle_type_id":"4","last_reported":1750187283,"current_range_meters":7200,"station_id":"ce4bgip2rcd13ifvqbb0","pricing_plan_id":"cebpf4jnsgd1na2vs0mg"},{"bike_id":"bfeb1c82-39cd-4cae-8cf0-117260c4a717","system_id":"levelo_inurba_marseille","lat":43.29208,"lon":5.39314,"is_reserved":false,"is_disabled":false,"rental_uris":{"android":"levelo://app?vid=bfeb1c82-39cd-4cae-8cf0-117260c4a717","ios":"levelo://app?vid=bfeb1c82-39cd-4cae-8cf0-117260c4a717"},"vehicle_type_id":"4","last_reported":1750187283,"current_range_meters":7200,"station_id":"ce4bh192rcd13ifvqdd0","pricing_plan_id":"cebpf4jnsgd1na2vs0mg"},{"bike_id":"e05b0843-5d18-4869-b7fa-89f86a4aa582","system_id":"levelo_inurba_marseille","lat":43.28702,"lon":5.39981,"is_reserved":false,"is_disabled":false,"rental_uris":{"android":"levelo://app?vid=e05b0843-5d18-4869-b7fa-89f86a4aa582","ios":"levelo://app?vid=e05b0843-5d18-4869-b7fa-89f86a4aa582"},"vehicle_type_id":"4","last_reported":1750187283,"current_range_meters":7200,"station_id":"ce4bho92rcd13ifvqh3g","pricing_plan_id":"cebpf4jnsgd1na2vs0mg"},{"bike_id":"fd3e9ee3-51e9-4a4b-93b2-7a1e6d4293a4","system_id":"levelo_inurba_marseille","lat":43.28612,"lon":5.37065,"is_reserved":false,"is_disabled":false,"rental_uris":{"android":"levelo://app?vid=fd3e9ee3-51e9-4a4b-93b2-7a1e6d4293a4","ios":"levelo://app?vid=fd3e9ee3-51e9-4a4b-93b2-7a1e6d4293a4"},"vehicle_type_id":"4","last_reported":1750187283,"current_range_meters":7200,"station_id":"ce4bht12rcd13ifvqi60","pricing_plan_id":"cebpf4jnsgd1na2vs0mg"},{"bike_id":"a72aae59-292b-4590-a0da-d6cb17607728","system_id":"levelo_inurba_marseille","lat":43.28511,"lon":5.38027,"is_reserved":false,"is_disabled":false,"rental_uris":{"android":"levelo://app?vid=a72aae59-292b-4590-a0da-d6cb17607728","ios":"levelo://app?vid=a72aae59-292b-4590-a0da-d6cb17607728"},"vehicle_type_id":"4","last_reported":1750187283,"current_range_meters":8000,"station_id":"","pricing_plan_id":"cebpf4jnsgd1na2vs0mg"},{"bike_id":"4ec8d1f9-c803-4eea-99b3-d082bdbc4675","system_id":"levelo_inurba_marseille","lat":43.30089,"lon":5.3907,"is_reserved":false,"is_disabled":false,"rental_uris":{"android":"levelo://app?vid=4ec8d1f9-c803-4eea-99b3-d082bdbc4675","ios":"levelo://app?vid=4ec8d1f9-c803-4eea-99b3-d082bdbc4675"},"vehicle_type_id":"4","last_reported":1750187283,"current_range_meters":8000,"station_id":"ce4bh192rcd13ifvqdb0","pricing_plan_id":"cebpf4jnsgd1na2vs0mg"},{"bike_id":"bc7f0cc8-5dfc-4b04-a8ce-bb6defb36685","system_id":"levelo_inurba_marseille","lat":43.28453,"lon":5.35867,"is_reserved":false,"is_disabled":false,"rental_uris":{"android":"levelo://app?vid=bc7f0cc8-5dfc-4b04-a8ce-bb6defb36685","ios":"levelo://app?vid=bc7f0cc8-5dfc-4b04-a8ce-bb6defb36685"},"vehicle_type_id":"4","last_reported":1750187283,"current_range_meters":8000,"station_id":"ce4bhah2rcd13ifvqei0","pricing_plan_id":"cebpf4jnsgd1na2vs0mg"},{"bike_id":"9ed64ba7-3af1-4181-a4e6-0f30e9c489c8","system_id":"levelo_inurba_marseille","lat":43.28412,"lon":5.34986,"is_reserved":false,"is_disabled":false,"rental_uris":{"android":"levelo://app?vid=9ed64ba7-3af1-4181-a4e6-0f30e9c489c8","ios":"levelo://app?vid=9ed64ba7-3af1-4181-a4e6-0f30e9c489c8"},"vehicle_type_id":"4","last_reported":1750187283,"current_range_meters":8000,"station_id":"ce4bhbh2rcd13ifvqepg","pricing_plan_id":"cebpf4jnsgd1na2vs0mg"},{"bike_id":"da3e1724-606c-4f9a-9130-d56dd48e22e0","system_id":"levelo_inurba_marseille","lat":43.32967,"lon":5.40608,"is_reserved":false,"is_disabled":false,"rental_uris":{"android":"levelo://app?vid=da3e1724-606c-4f9a-9130-d56dd48e22e0","ios":"levelo://app?vid=da3e1724-606c-4f9a-9130-d56dd48e22e0"},"vehicle_type_id":"4","last_reported":1750187283,"current_range_meters":8400,"station_id":"","pricing_plan_id":"cebpf4jnsgd1na2vs0mg"},{"bike_id":"ce563a32-c1e4-440d-be13-0dafb6b9d276","system_id":"levelo_inurba_marseille","lat":43.3169,"lon":5.40474,"is_reserved":false,"is_disabled":false,"rental_uris":{"android":"levelo://app?vid=ce563a32-c1e4-440d-be13-0dafb6b9d276","ios":"levelo://app?vid=ce563a32-c1e4-440d-be13-0dafb6b9d276"},"vehicle_type_id":"4","last_reported":1750187283,"current_range_meters":8400,"station_id":"ce4bh012rcd13ifvqd00","pricing_plan_id":"cebpf4jnsgd1na2vs0mg"},{"bike_id":"fd048dc4-eaf4-4abd-9322-636e7309c8e5","system_id":"levelo_inurba_marseille","lat":43.29632,"lon":5.40584,"is_reserved":false,"is_disabled":false,"rental_uris":{"android":"levelo://app?vid=fd048dc4-eaf4-4abd-9322-636e7309c8e5","ios":"levelo://app?vid=fd048dc4-eaf4-4abd-9322-636e7309c8e5"},"vehicle_type_id":"4","last_reported":1750187283,"current_range_meters":8400,"station_id":"ce4bh0h2rcd13ifvqd60","pricing_plan_id":"cebpf4jnsgd1na2vs0mg"},{"bike_id":"48a08f65-7dec-46fb-8400-bdcbefc7d8e8","system_id":"levelo_inurba_marseille","lat":43.29539,"lon":5.39421,"is_reserved":false,"is_disabled":false,"rental_uris":{"android":"levelo://app?vid=48a08f65-7dec-46fb-8400-bdcbefc7d8e8","ios":"levelo://app?vid=48a08f65-7dec-46fb-8400-bdcbefc7d8e8"},"vehicle_type_id":"4","last_reported":1750187283,"current_range_meters":8400,"station_id":"ce4bh292rcd13ifvqdf0","pricing_plan_id":"cebpf4jnsgd1na2vs0mg"},{"bike_id":"4959c47a-a3a4-40be-9a3d-fd21ad412211","system_id":"levelo_inurba_marseille","lat":43.28471,"lon":5.38418,"is_reserved":false,"is_disabled":false,"rental_uris":{"android":"levelo://app?vid=4959c47a-a3a4-40be-9a3d-fd21ad412211","ios":"levelo://app?vid=4959c47a-a3a4-40be-9a3d-fd21ad412211"},"vehicle_type_id":"4","last_reported":1750187283,"current_range_meters":8400,"station_id":"ce4bh512rcd13ifvqe3g","pricing_plan_id":"cebpf4jnsgd1na2vs0mg"},{"bike_id":"d6a4176b-b607-42ea-9931-a207a567b534","system_id":"levelo_inurba_marseille","lat":43.28405,"lon":5.34992,"is_reserved":false,"is_disabled":false,"rental_uris":{"android":"levelo://app?vid=d6a4176b-b607-42ea-9931-a207a567b534","ios":"levelo://app?vid=d6a4176b-b607-42ea-9931-a207a567b534"},"vehicle_type_id":"4","last_reported":1750187283,"current_range_meters":8400,"station_id":"ce4bhbh2rcd13ifvqepg","pricing_plan_id":"cebpf4jnsgd1na2vs0mg"},{"bike_id":"08da33b6-7c66-42c8-b87f-36bbf905e75c","system_id":"levelo_inurba_marseille","lat":43.32655,"lon":5.40995,"is_reserved":false,"is_disabled":false,"rental_uris":{"android":"levelo://app?vid=08da33b6-7c66-42c8-b87f-36bbf905e75c","ios":"levelo://app?vid=08da33b6-7c66-42c8-b87f-36bbf905e75c"},"vehicle_type_id":"4","last_reported":1750187283,"current_range_meters":8400,"station_id":"ce4bhpp2rcd13ifvqhgg","pricing_plan_id":"cebpf4jnsgd1na2vs0mg"},{"bike_id":"6ba80795-26da-43fa-ab60-6831760385ff","system_id":"levelo_inurba_marseille","lat":43.32597,"lon":5.41985,"is_reserved":false,"is_disabled":false,"rental_uris":{"android":"levelo://app?vid=6ba80795-26da-43fa-ab60-6831760385ff","ios":"levelo://app?vid=6ba80795-26da-43fa-ab60-6831760385ff"},"vehicle_type_id":"4","last_reported":1750187283,"current_range_meters":8800,"station_id":"","pricing_plan_id":"cebpf4jnsgd1na2vs0mg"},{"bike_id":"84b0c19d-3c6a-48c7-ae72-a22a51d91e69","system_id":"levelo_inurba_marseille","lat":43.286713,"lon":5.386625,"is_reserved":false,"is_disabled":false,"rental_uris":{"android":"levelo://app?vid=84b0c19d-3c6a-48c7-ae72-a22a51d91e69","ios":"levelo://app?vid=84b0c19d-3c6a-48c7-ae72-a22a51d91e69"},"vehicle_type_id":"4","last_reported":1750187283,"current_range_meters":8800,"station_id":"ce4bh492rcd13ifvqdug","pricing_plan_id":"cebpf4jnsgd1na2vs0mg"},{"bike_id":"c24e5aec-2f92-41ad-9879-b073f53b8058","system_id":"levelo_inurba_marseille","lat":43.29271,"lon":5.38414,"is_reserved":false,"is_disabled":false,"rental_uris":{"android":"levelo://app?vid=c24e5aec-2f92-41ad-9879-b073f53b8058","ios":"levelo://app?vid=c24e5aec-2f92-41ad-9879-b073f53b8058"},"vehicle_type_id":"4","last_reported":1750187283,"current_range_meters":8800,"station_id":"ce4bh692rcd13ifvqea0","pricing_plan_id":"cebpf4jnsgd1na2vs0mg"},{"bike_id":"21a700f8-a8b7-40fe-a442-d2e19630cd86","system_id":"levelo_inurba_marseille","lat":43.2418,"lon":5.39728,"is_reserved":false,"is_disabled":false,"rental_uris":{"android":"levelo://app?vid=21a700f8-a8b7-40fe-a442-d2e19630cd86","ios":"levelo://app?vid=21a700f8-a8b7-40fe-a442-d2e19630cd86"},"vehicle_type_id":"4","last_reported":1750187283,"current_range_meters":8800,"station_id":"ce4bhn12rcd13ifvqgpg","pricing_plan_id":"cebpf4jnsgd1na2vs0mg"},{"bike_id":"05cbd1de-7329-414d-adba-5a5cc1297c95","system_id":"levelo_inurba_marseille","lat":43.29615,"lon":5.37714,"is_reserved":false,"is_disabled":false,"rental_uris":{"android":"levelo://app?vid=05cbd1de-7329-414d-adba-5a5cc1297c95","ios":"levelo://app?vid=05cbd1de-7329-414d-adba-5a5cc1297c95"},"vehicle_type_id":"4","last_reported":1750187283,"current_range_meters":9200,"station_id":"ce4bgi92rcd13ifvqb90","pricing_plan_id":"cebpf4jnsgd1na2vs0mg"},{"bike_id":"da2b1be7-b47d-4595-8ac6-6aa6fe37b6ae","system_id":"levelo_inurba_marseille","lat":43.290192,"lon":5.386575,"is_reserved":false,"is_disabled":false,"rental_uris":{"android":"levelo://app?vid=da2b1be7-b47d-4595-8ac6-6aa6fe37b6ae","ios":"levelo://app?vid=da2b1be7-b47d-4595-8ac6-6aa6fe37b6ae"},"vehicle_type_id":"4","last_reported":1750187283,"current_range_meters":9200,"station_id":"ce4bh4p2rcd13ifvqe0g","pricing_plan_id":"cebpf4jnsgd1na2vs0mg"},{"bike_id":"4e2f2b4a-7b1a-47fd-9331-ce8ee7dbff83","system_id":"levelo_inurba_marseille","lat":43.28945,"lon":5.3663,"is_reserved":false,"is_disabled":false,"rental_uris":{"android":"levelo://app?vid=4e2f2b4a-7b1a-47fd-9331-ce8ee7dbff83","ios":"levelo://app?vid=4e2f2b4a-7b1a-47fd-9331-ce8ee7dbff83"},"vehicle_type_id":"4","last_reported":1750187283,"current_range_meters":9200,"station_id":"ce4bhap2rcd13ifvqek0","pricing_plan_id":"cebpf4jnsgd1na2vs0mg"},{"bike_id":"ae8524c6-7b10-43ef-8ed4-b8035f1213c1","system_id":"levelo_inurba_marseille","lat":43.33419,"lon":5.40073,"is_reserved":false,"is_disabled":false,"rental_uris":{"android":"levelo://app?vid=ae8524c6-7b10-43ef-8ed4-b8035f1213c1","ios":"levelo://app?vid=ae8524c6-7b10-43ef-8ed4-b8035f1213c1"},"vehicle_type_id":"4","last_reported":1750187283,"current_range_meters":9600,"station_id":"","pricing_plan_id":"cebpf4jnsgd1na2vs0mg"},{"bike_id":"3b136301-d892-4bf1-aa15-695ec30464ca","system_id":"levelo_inurba_marseille","lat":43.32192,"lon":5.36701,"is_reserved":false,"is_disabled":false,"rental_uris":{"android":"levelo://app?vid=3b136301-d892-4bf1-aa15-695ec30464ca","ios":"levelo://app?vid=3b136301-d892-4bf1-aa15-695ec30464ca"},"vehicle_type_id":"4","last_reported":1750187283,"current_range_meters":9600,"station_id":"","pricing_plan_id":"cebpf4jnsgd1na2vs0mg"},{"bike_id":"eba1d677-7c4b-4ca9-9f97-6ab9b621d739","system_id":"levelo_inurba_marseille","lat":43.29267,"lon":5.3845,"is_reserved":false,"is_disabled":false,"rental_uris":{"android":"levelo://app?vid=eba1d677-7c4b-4ca9-9f97-6ab9b621d739","ios":"levelo://app?vid=eba1d677-7c4b-4ca9-9f97-6ab9b621d739"},"vehicle_type_id":"4","last_reported":1750187283,"current_range_meters":9600,"station_id":"ce4bh692rcd13ifvqea0","pricing_plan_id":"cebpf4jnsgd1na2vs0mg"},{"bike_id":"253f2a11-c04f-4b16-80c8-a53e10c1b80f","system_id":"levelo_inurba_marseille","lat":43.25723,"lon":5.411,"is_reserved":false,"is_disabled":false,"rental_uris":{"android":"levelo://app?vid=253f2a11-c04f-4b16-80c8-a53e10c1b80f","ios":"levelo://app?vid=253f2a11-c04f-4b16-80c8-a53e10c1b80f"},"vehicle_type_id":"4","last_reported":1750187283,"current_range_meters":9600,"station_id":"ce4bhkp2rcd13ifvqgd0","pricing_plan_id":"cebpf4jnsgd1na2vs0mg"},{"bike_id":"452de6f5-dcc4-40e6-91d1-27952aacbf43","system_id":"levelo_inurba_marseille","lat":43.23186,"lon":5.39983,"is_reserved":false,"is_disabled":false,"rental_uris":{"android":"levelo://app?vid=452de6f5-dcc4-40e6-91d1-27952aacbf43","ios":"levelo://app?vid=452de6f5-dcc4-40e6-91d1-27952aacbf43"},"vehicle_type_id":"4","last_reported":1750187283,"current_range_meters":9600,"station_id":"ce4bhn12rcd13ifvqgqg","pricing_plan_id":"cebpf4jnsgd1na2vs0mg"},{"bike_id":"db116970-1837-4a35-90b3-39686794d325","system_id":"levelo_inurba_marseille","lat":43.28613,"lon":5.37052,"is_reserved":false,"is_disabled":false,"rental_uris":{"android":"levelo://app?vid=db116970-1837-4a35-90b3-39686794d325","ios":"levelo://app?vid=db116970-1837-4a35-90b3-39686794d325"},"vehicle_type_id":"4","last_reported":1750187283,"current_range_meters":9600,"station_id":"ce4bht12rcd13ifvqi60","pricing_plan_id":"cebpf4jnsgd1na2vs0mg"},{"bike_id":"95e0d29a-fdad-45eb-a9e3-07866f4eac6d","system_id":"levelo_inurba_marseille","lat":43.29652,"lon":5.36245,"is_reserved":false,"is_disabled":false,"rental_uris":{"android":"levelo://app?vid=95e0d29a-fdad-45eb-a9e3-07866f4eac6d","ios":"levelo://app?vid=95e0d29a-fdad-45eb-a9e3-07866f4eac6d"},"vehicle_type_id":"4","last_reported":1750187283,"current_range_meters":10000,"station_id":"","pricing_plan_id":"cebpf4jnsgd1na2vs0mg"},{"bike_id":"2ac3b144-9d05-4409-a837-cfcd5f5f8b93","system_id":"levelo_inurba_marseille","lat":43.29337,"lon":5.37158,"is_reserved":false,"is_disabled":false,"rental_uris":{"android":"levelo://app?vid=2ac3b144-9d05-4409-a837-cfcd5f5f8b93","ios":"levelo://app?vid=2ac3b144-9d05-4409-a837-cfcd5f5f8b93"},"vehicle_type_id":"4","last_reported":1750187283,"current_range_meters":10000,"station_id":"ce4bgh92rcd13ifvqb40","pricing_plan_id":"cebpf4jnsgd1na2vs0mg"},{"bike_id":"e500676f-fa38-4444-a401-47d223bad554","system_id":"levelo_inurba_marseille","lat":43.31713,"lon":5.43698,"is_reserved":false,"is_disabled":false,"rental_uris":{"android":"levelo://app?vid=e500676f-fa38-4444-a401-47d223bad554","ios":"levelo://app?vid=e500676f-fa38-4444-a401-47d223bad554"},"vehicle_type_id":"4","last_reported":1750187283,"current_range_meters":10000,"station_id":"ce4bhp92rcd13ifvqhcg","pricing_plan_id":"cebpf4jnsgd1na2vs0mg"},{"bike_id":"99cad508-6ecc-4a68-9c2f-388d966e9df1","system_id":"levelo_inurba_marseille","lat":43.30739,"lon":5.42436,"is_reserved":false,"is_disabled":false,"rental_uris":{"android":"levelo://app?vid=99cad508-6ecc-4a68-9c2f-388d966e9df1","ios":"levelo://app?vid=99cad508-6ecc-4a68-9c2f-388d966e9df1"},"vehicle_type_id":"4","last_reported":1750187283,"current_range_meters":10000,"station_id":"st_cvj6ca6bvosntc0bfgr0","pricing_plan_id":"cebpf4jnsgd1na2vs0mg"},{"bike_id":"76a83fca-07b3-4480-b79f-2a0c07dba84f","system_id":"levelo_inurba_marseille","lat":43.28417,"lon":5.34989,"is_reserved":false,"is_disabled":false,"rental_uris":{"android":"levelo://app?vid=76a83fca-07b3-4480-b79f-2a0c07dba84f","ios":"levelo://app?vid=76a83fca-07b3-4480-b79f-2a0c07dba84f"},"vehicle_type_id":"4","last_reported":1750187283,"current_range_meters":10800,"station_id":"ce4bhbh2rcd13ifvqepg","pricing_plan_id":"cebpf4jnsgd1na2vs0mg"},{"bike_id":"dbbc7403-7e64-4eee-8b48-29b3b9ec755d","system_id":"levelo_inurba_marseille","lat":43.28419,"lon":5.34994,"is_reserved":false,"is_disabled":false,"rental_uris":{"android":"levelo://app?vid=dbbc7403-7e64-4eee-8b48-29b3b9ec755d","ios":"levelo://app?vid=dbbc7403-7e64-4eee-8b48-29b3b9ec755d"},"vehicle_type_id":"4","last_reported":1750187283,"current_range_meters":10800,"station_id":"ce4bhbh2rcd13ifvqepg","pricing_plan_id":"cebpf4jnsgd1na2vs0mg"},{"bike_id":"5d837fc2-51ba-462a-b3b7-e4d83bf339db","system_id":"levelo_inurba_marseille","lat":43.24176,"lon":5.39706,"is_reserved":false,"is_disabled":false,"rental_uris":{"android":"levelo://app?vid=5d837fc2-51ba-462a-b3b7-e4d83bf339db","ios":"levelo://app?vid=5d837fc2-51ba-462a-b3b7-e4d83bf339db"},"vehicle_type_id":"4","last_reported":1750187283,"current_range_meters":10800,"station_id":"ce4bhn12rcd13ifvqgpg","pricing_plan_id":"cebpf4jnsgd1na2vs0mg"},{"bike_id":"1e373418-986e-4d3c-9ff7-c37dd7c7a214","system_id":"levelo_inurba_marseille","lat":43.29914,"lon":5.43655,"is_reserved":false,"is_disabled":false,"rental_uris":{"android":"levelo://app?vid=1e373418-986e-4d3c-9ff7-c37dd7c7a214","ios":"levelo://app?vid=1e373418-986e-4d3c-9ff7-c37dd7c7a214"},"vehicle_type_id":"4","last_reported":1750187283,"current_range_meters":10800,"station_id":"ce4bhpp2rcd13ifvqhfg","pricing_plan_id":"cebpf4jnsgd1na2vs0mg"},{"bike_id":"0e27dafc-21df-4fb1-bd36-2450a7866702","system_id":"levelo_inurba_marseille","lat":43.27162,"lon":5.3999,"is_reserved":false,"is_disabled":false,"rental_uris":{"android":"levelo://app?vid=0e27dafc-21df-4fb1-bd36-2450a7866702","ios":"levelo://app?vid=0e27dafc-21df-4fb1-bd36-2450a7866702"},"vehicle_type_id":"4","last_reported":1750187283,"current_range_meters":11200,"station_id":"","pricing_plan_id":"cebpf4jnsgd1na2vs0mg"},{"bike_id":"0015090e-3955-45b3-a58b-96ecabc842e5","system_id":"levelo_inurba_marseille","lat":43.29375,"lon":5.37828,"is_reserved":false,"is_disabled":false,"rental_uris":{"android":"levelo://app?vid=0015090e-3955-45b3-a58b-96ecabc842e5","ios":"levelo://app?vid=0015090e-3955-45b3-a58b-96ecabc842e5"},"vehicle_type_id":"4","last_reported":1750187283,"current_range_meters":11200,"station_id":"ce4bgjh2rcd13ifvqbf0","pricing_plan_id":"cebpf4jnsgd1na2vs0mg"},{"bike_id":"31b5a3e7-a9b9-488b-8dcd-59d989ca4ad1","system_id":"levelo_inurba_marseille","lat":43.28377,"lon":5.38622,"is_reserved":false,"is_disabled":false,"rental_uris":{"android":"levelo://app?vid=31b5a3e7-a9b9-488b-8dcd-59d989ca4ad1","ios":"levelo://app?vid=31b5a3e7-a9b9-488b-8dcd-59d989ca4ad1"},"vehicle_type_id":"4","last_reported":1750187283,"current_range_meters":11200,"station_id":"ce4bh492rcd13ifvqdvg","pricing_plan_id":"cebpf4jnsgd1na2vs0mg"},{"bike_id":"f2ef0063-0206-46d5-8f05-c1ad5f8537b8","system_id":"levelo_inurba_marseille","lat":43.28459,"lon":5.35876,"is_reserved":false,"is_disabled":false,"rental_uris":{"android":"levelo://app?vid=f2ef0063-0206-46d5-8f05-c1ad5f8537b8","ios":"levelo://app?vid=f2ef0063-0206-46d5-8f05-c1ad5f8537b8"},"vehicle_type_id":"4","last_reported":1750187283,"current_range_meters":11200,"station_id":"ce4bhah2rcd13ifvqei0","pricing_plan_id":"cebpf4jnsgd1na2vs0mg"},{"bike_id":"3730fca0-ac36-48b2-837d-d48e32046920","system_id":"levelo_inurba_marseille","lat":43.25119,"lon":5.40319,"is_reserved":false,"is_disabled":false,"rental_uris":{"android":"levelo://app?vid=3730fca0-ac36-48b2-837d-d48e32046920","ios":"levelo://app?vid=3730fca0-ac36-48b2-837d-d48e32046920"},"vehicle_type_id":"4","last_reported":1750187283,"current_range_meters":11200,"station_id":"ce4bhlh2rcd13ifvqgig","pricing_plan_id":"cebpf4jnsgd1na2vs0mg"},{"bike_id":"2f817a22-d96b-47a2-8695-4a4ca36d64c4","system_id":"levelo_inurba_marseille","lat":43.24181,"lon":5.3973,"is_reserved":false,"is_disabled":false,"rental_uris":{"android":"levelo://app?vid=2f817a22-d96b-47a2-8695-4a4ca36d64c4","ios":"levelo://app?vid=2f817a22-d96b-47a2-8695-4a4ca36d64c4"},"vehicle_type_id":"4","last_reported":1750187283,"current_range_meters":11200,"station_id":"ce4bhn12rcd13ifvqgpg","pricing_plan_id":"cebpf4jnsgd1na2vs0mg"},{"bike_id":"e4f05c94-e6c6-4799-9a5c-ac010d172297","system_id":"levelo_inurba_marseille","lat":43.24187,"lon":5.39721,"is_reserved":false,"is_disabled":false,"rental_uris":{"android":"levelo://app?vid=e4f05c94-e6c6-4799-9a5c-ac010d172297","ios":"levelo://app?vid=e4f05c94-e6c6-4799-9a5c-ac010d172297"},"vehicle_type_id":"4","last_reported":1750187283,"current_range_meters":11200,"station_id":"ce4bhn12rcd13ifvqgpg","pricing_plan_id":"cebpf4jnsgd1na2vs0mg"},{"bike_id":"109f7f1f-f14a-4c1f-ad60-a03503f4b19c","system_id":"levelo_inurba_marseille","lat":43.295737,"lon":5.393685,"is_reserved":false,"is_disabled":false,"rental_uris":{"android":"levelo://app?vid=109f7f1f-f14a-4c1f-ad60-a03503f4b19c","ios":"levelo://app?vid=109f7f1f-f14a-4c1f-ad60-a03503f4b19c"},"vehicle_type_id":"4","last_reported":1750187283,"current_range_meters":11200,"station_id":"chh1huq6cuj3fo74tm60","pricing_plan_id":"cebpf4jnsgd1na2vs0mg"},{"bike_id":"9c9192f3-fd9b-45c7-b05c-d549573d4b2e","system_id":"levelo_inurba_marseille","lat":43.26942,"lon":5.40256,"is_reserved":false,"is_disabled":false,"rental_uris":{"android":"levelo://app?vid=9c9192f3-fd9b-45c7-b05c-d549573d4b2e","ios":"levelo://app?vid=9c9192f3-fd9b-45c7-b05c-d549573d4b2e"},"vehicle_type_id":"4","last_reported":1750187283,"current_range_meters":11200,"station_id":"cjm6bp8fraef2m0cb0m0","pricing_plan_id":"cebpf4jnsgd1na2vs0mg"},{"bike_id":"69f7392b-e879-4417-a870-04a39f965a66","system_id":"levelo_inurba_marseille","lat":43.230628,"lon":5.354905,"is_reserved":false,"is_disabled":false,"rental_uris":{"android":"levelo://app?vid=69f7392b-e879-4417-a870-04a39f965a66","ios":"levelo://app?vid=69f7392b-e879-4417-a870-04a39f965a66"},"vehicle_type_id":"4","last_reported":1750187283,"current_range_meters":11200,"station_id":"cpo3342slgdg3j2ifvpg","pricing_plan_id":"cebpf4jnsgd1na2vs0mg"},{"bike_id":"b1582008-26be-4545-959a-57733a6dac71","system_id":"levelo_inurba_marseille","lat":43.29794,"lon":5.37103,"is_reserved":false,"is_disabled":false,"rental_uris":{"android":"levelo://app?vid=b1582008-26be-4545-959a-57733a6dac71","ios":"levelo://app?vid=b1582008-26be-4545-959a-57733a6dac71"},"vehicle_type_id":"4","last_reported":1750187283,"current_range_meters":11600,"station_id":"ce4bgop2rcd13ifvqc1g","pricing_plan_id":"cebpf4jnsgd1na2vs0mg"},{"bike_id":"ef6427e5-b1dc-4aa7-a9d3-8df37eab9dbd","system_id":"levelo_inurba_marseille","lat":43.24547,"lon":5.39525,"is_reserved":false,"is_disabled":false,"rental_uris":{"android":"levelo://app?vid=ef6427e5-b1dc-4aa7-a9d3-8df37eab9dbd","ios":"levelo://app?vid=ef6427e5-b1dc-4aa7-a9d3-8df37eab9dbd"},"vehicle_type_id":"4","last_reported":1750187283,"current_range_meters":11600,"station_id":"ce4bhlp2rcd13ifvqgjg","pricing_plan_id":"cebpf4jnsgd1na2vs0mg"},{"bike_id":"eca25bd6-1b44-4388-a7b0-074a85a4f502","system_id":"levelo_inurba_marseille","lat":43.310997,"lon":5.397396,"is_reserved":false,"is_disabled":false,"rental_uris":{"android":"levelo://app?vid=eca25bd6-1b44-4388-a7b0-074a85a4f502","ios":"levelo://app?vid=eca25bd6-1b44-4388-a7b0-074a85a4f502"},"vehicle_type_id":"4","last_reported":1750187283,"current_range_meters":12000,"station_id":"","pricing_plan_id":"cebpf4jnsgd1na2vs0mg"},{"bike_id":"abf13d04-489b-4b2d-a183-4bd3a7229a08","system_id":"levelo_inurba_marseille","lat":43.3033,"lon":5.40428,"is_reserved":false,"is_disabled":false,"rental_uris":{"android":"levelo://app?vid=abf13d04-489b-4b2d-a183-4bd3a7229a08","ios":"levelo://app?vid=abf13d04-489b-4b2d-a183-4bd3a7229a08"},"vehicle_type_id":"4","last_reported":1750187283,"current_range_meters":12000,"station_id":"ce4bh012rcd13ifvqd10","pricing_plan_id":"cebpf4jnsgd1na2vs0mg"},{"bike_id":"8ca0868d-bd81-4dab-baba-25ffb0391ee9","system_id":"levelo_inurba_marseille","lat":43.28408,"lon":5.34992,"is_reserved":false,"is_disabled":false,"rental_uris":{"android":"levelo://app?vid=8ca0868d-bd81-4dab-baba-25ffb0391ee9","ios":"levelo://app?vid=8ca0868d-bd81-4dab-baba-25ffb0391ee9"},"vehicle_type_id":"4","last_reported":1750187283,"current_range_meters":12000,"station_id":"ce4bhbh2rcd13ifvqepg","pricing_plan_id":"cebpf4jnsgd1na2vs0mg"},{"bike_id":"3e510fa8-f04c-48da-bb9a-ac8762f257c7","system_id":"levelo_inurba_marseille","lat":43.28411,"lon":5.34986,"is_reserved":false,"is_disabled":false,"rental_uris":{"android":"levelo://app?vid=3e510fa8-f04c-48da-bb9a-ac8762f257c7","ios":"levelo://app?vid=3e510fa8-f04c-48da-bb9a-ac8762f257c7"},"vehicle_type_id":"4","last_reported":1750187283,"current_range_meters":12000,"station_id":"ce4bhbh2rcd13ifvqepg","pricing_plan_id":"cebpf4jnsgd1na2vs0mg"},{"bike_id":"1b673025-71c9-404a-92fd-b7957018bdb3","system_id":"levelo_inurba_marseille","lat":43.3153,"lon":5.38035,"is_reserved":false,"is_disabled":false,"rental_uris":{"android":"levelo://app?vid=1b673025-71c9-404a-92fd-b7957018bdb3","ios":"levelo://app?vid=1b673025-71c9-404a-92fd-b7957018bdb3"},"vehicle_type_id":"4","last_reported":1750187283,"current_range_meters":12000,"station_id":"ce4bhsp2rcd13ifvqi50","pricing_plan_id":"cebpf4jnsgd1na2vs0mg"},{"bike_id":"94556628-72cd-4618-b5b6-25b5cfa4141b","system_id":"levelo_inurba_marseille","lat":43.21195,"lon":5.35073,"is_reserved":false,"is_disabled":false,"rental_uris":{"android":"levelo://app?vid=94556628-72cd-4618-b5b6-25b5cfa4141b","ios":"levelo://app?vid=94556628-72cd-4618-b5b6-25b5cfa4141b"},"vehicle_type_id":"4","last_reported":1750187283,"current_range_meters":12000,"station_id":"st_cvj6sg6p6f1abm77japg","pricing_plan_id":"cebpf4jnsgd1na2vs0mg"},{"bike_id":"369d9317-c728-442e-9c92-8c76ae1919e0","system_id":"levelo_inurba_marseille","lat":43.31218,"lon":5.36856,"is_reserved":false,"is_disabled":false,"rental_uris":{"android":"levelo://app?vid=369d9317-c728-442e-9c92-8c76ae1919e0","ios":"levelo://app?vid=369d9317-c728-442e-9c92-8c76ae1919e0"},"vehicle_type_id":"4","last_reported":1750187283,"current_range_meters":12400,"station_id":"ce4bgl92rcd13ifvqbq0","pricing_plan_id":"cebpf4jnsgd1na2vs0mg"},{"bike_id":"9e96fc42-e689-4712-80d4-a8723c4190c8","system_id":"levelo_inurba_marseille","lat":43.29718,"lon":5.36595,"is_reserved":false,"is_disabled":false,"rental_uris":{"android":"levelo://app?vid=9e96fc42-e689-4712-80d4-a8723c4190c8","ios":"levelo://app?vid=9e96fc42-e689-4712-80d4-a8723c4190c8"},"vehicle_type_id":"4","last_reported":1750187283,"current_range_meters":12400,"station_id":"ce4bgn12rcd13ifvqbt0","pricing_plan_id":"cebpf4jnsgd1na2vs0mg"},{"bike_id":"25e0984c-7bf4-49c5-b014-22a0b28baa41","system_id":"levelo_inurba_marseille","lat":43.29722,"lon":5.36627,"is_reserved":false,"is_disabled":false,"rental_uris":{"android":"levelo://app?vid=25e0984c-7bf4-49c5-b014-22a0b28baa41","ios":"levelo://app?vid=25e0984c-7bf4-49c5-b014-22a0b28baa41"},"vehicle_type_id":"4","last_reported":1750187283,"current_range_meters":12400,"station_id":"ce4bgn12rcd13ifvqbt0","pricing_plan_id":"cebpf4jnsgd1na2vs0mg"},{"bike_id":"cef0c399-5fa5-4965-a38e-894e987e8614","system_id":"levelo_inurba_marseille","lat":43.28423,"lon":5.34966,"is_reserved":false,"is_disabled":false,"rental_uris":{"android":"levelo://app?vid=cef0c399-5fa5-4965-a38e-894e987e8614","ios":"levelo://app?vid=cef0c399-5fa5-4965-a38e-894e987e8614"},"vehicle_type_id":"4","last_reported":1750187283,"current_range_meters":12400,"station_id":"ce4bhbh2rcd13ifvqepg","pricing_plan_id":"cebpf4jnsgd1na2vs0mg"},{"bike_id":"445df193-ec6b-4fdf-8e20-0b59e57e3553","system_id":"levelo_inurba_marseille","lat":43.28152,"lon":5.42627,"is_reserved":false,"is_disabled":false,"rental_uris":{"android":"levelo://app?vid=445df193-ec6b-4fdf-8e20-0b59e57e3553","ios":"levelo://app?vid=445df193-ec6b-4fdf-8e20-0b59e57e3553"},"vehicle_type_id":"4","last_reported":1750187283,"current_range_meters":12400,"station_id":"ce4bhnh2rcd13ifvqgug","pricing_plan_id":"cebpf4jnsgd1na2vs0mg"},{"bike_id":"0f2b961f-43b1-4060-abc6-68842964f8d3","system_id":"levelo_inurba_marseille","lat":43.24074,"lon":5.37748,"is_reserved":false,"is_disabled":false,"rental_uris":{"android":"levelo://app?vid=0f2b961f-43b1-4060-abc6-68842964f8d3","ios":"levelo://app?vid=0f2b961f-43b1-4060-abc6-68842964f8d3"},"vehicle_type_id":"4","last_reported":1750187283,"current_range_meters":12400,"station_id":"ce4bhnp2rcd13ifvqgvg","pricing_plan_id":"cebpf4jnsgd1na2vs0mg"},{"bike_id":"83cfee7d-980d-496a-98c8-745c7e44c68d","system_id":"levelo_inurba_marseille","lat":43.32878,"lon":5.39085,"is_reserved":false,"is_disabled":false,"rental_uris":{"android":"levelo://app?vid=83cfee7d-980d-496a-98c8-745c7e44c68d","ios":"levelo://app?vid=83cfee7d-980d-496a-98c8-745c7e44c68d"},"vehicle_type_id":"4","last_reported":1750187283,"current_range_meters":12800,"station_id":"","pricing_plan_id":"cebpf4jnsgd1na2vs0mg"},{"bike_id":"dac710ab-2f65-4b9e-ae52-c38634075f1b","system_id":"levelo_inurba_marseille","lat":43.28166,"lon":5.42652,"is_reserved":false,"is_disabled":false,"rental_uris":{"android":"levelo://app?vid=dac710ab-2f65-4b9e-ae52-c38634075f1b","ios":"levelo://app?vid=dac710ab-2f65-4b9e-ae52-c38634075f1b"},"vehicle_type_id":"4","last_reported":1750187283,"current_range_meters":12800,"station_id":"ce4bhnh2rcd13ifvqgug","pricing_plan_id":"cebpf4jnsgd1na2vs0mg"},{"bike_id":"1af39c83-947c-4b8b-a9a5-c32b8ade71f5","system_id":"levelo_inurba_marseille","lat":43.286455,"lon":5.370655,"is_reserved":false,"is_disabled":false,"rental_uris":{"android":"levelo://app?vid=1af39c83-947c-4b8b-a9a5-c32b8ade71f5","ios":"levelo://app?vid=1af39c83-947c-4b8b-a9a5-c32b8ade71f5"},"vehicle_type_id":"4","last_reported":1750187283,"current_range_meters":12800,"station_id":"ce4bht12rcd13ifvqi60","pricing_plan_id":"cebpf4jnsgd1na2vs0mg"},{"bike_id":"a04805ef-8639-4380-8696-9dc1bf53343c","system_id":"levelo_inurba_marseille","lat":43.29523,"lon":5.38534,"is_reserved":false,"is_disabled":false,"rental_uris":{"android":"levelo://app?vid=a04805ef-8639-4380-8696-9dc1bf53343c","ios":"levelo://app?vid=a04805ef-8639-4380-8696-9dc1bf53343c"},"vehicle_type_id":"4","last_reported":1750187283,"current_range_meters":13600,"station_id":"ce4bgih2rcd13ifvqba0","pricing_plan_id":"cebpf4jnsgd1na2vs0mg"},{"bike_id":"b343f8d6-2715-43d6-9fed-9b1457096131","system_id":"levelo_inurba_marseille","lat":43.309265,"lon":5.401687,"is_reserved":false,"is_disabled":false,"rental_uris":{"android":"levelo://app?vid=b343f8d6-2715-43d6-9fed-9b1457096131","ios":"levelo://app?vid=b343f8d6-2715-43d6-9fed-9b1457096131"},"vehicle_type_id":"4","last_reported":1750187283,"current_range_meters":13600,"station_id":"ce4bgvp2rcd13ifvqct0","pricing_plan_id":"cebpf4jnsgd1na2vs0mg"},{"bike_id":"93dcba2d-d386-44f6-ad85-b9e6cf410e58","system_id":"levelo_inurba_marseille","lat":43.2841,"lon":5.34992,"is_reserved":false,"is_disabled":false,"rental_uris":{"android":"levelo://app?vid=93dcba2d-d386-44f6-ad85-b9e6cf410e58","ios":"levelo://app?vid=93dcba2d-d386-44f6-ad85-b9e6cf410e58"},"vehicle_type_id":"4","last_reported":1750187283,"current_range_meters":13600,"station_id":"ce4bhbh2rcd13ifvqepg","pricing_plan_id":"cebpf4jnsgd1na2vs0mg"},{"bike_id":"91f78cd6-38a2-44e7-86aa-18811c270d91","system_id":"levelo_inurba_marseille","lat":43.24679,"lon":5.38173,"is_reserved":false,"is_disabled":false,"rental_uris":{"android":"levelo://app?vid=91f78cd6-38a2-44e7-86aa-18811c270d91","ios":"levelo://app?vid=91f78cd6-38a2-44e7-86aa-18811c270d91"},"vehicle_type_id":"4","last_reported":1750187283,"current_range_meters":13600,"station_id":"ce4bhih2rcd13ifvqfr0","pricing_plan_id":"cebpf4jnsgd1na2vs0mg"},{"bike_id":"bc0f80bb-70db-427a-8e9e-2e2a7c72e6d2","system_id":"levelo_inurba_marseille","lat":43.2983,"lon":5.36361,"is_reserved":false,"is_disabled":false,"rental_uris":{"android":"levelo://app?vid=bc0f80bb-70db-427a-8e9e-2e2a7c72e6d2","ios":"levelo://app?vid=bc0f80bb-70db-427a-8e9e-2e2a7c72e6d2"},"vehicle_type_id":"4","last_reported":1750187283,"current_range_meters":14000,"station_id":"","pricing_plan_id":"cebpf4jnsgd1na2vs0mg"},{"bike_id":"1e23c91f-c32e-4319-946e-073795ce2e5a","system_id":"levelo_inurba_marseille","lat":43.29355,"lon":5.37858,"is_reserved":false,"is_disabled":false,"rental_uris":{"android":"levelo://app?vid=1e23c91f-c32e-4319-946e-073795ce2e5a","ios":"levelo://app?vid=1e23c91f-c32e-4319-946e-073795ce2e5a"},"vehicle_type_id":"4","last_reported":1750187283,"current_range_meters":14000,"station_id":"ce4bgjh2rcd13ifvqbf0","pricing_plan_id":"cebpf4jnsgd1na2vs0mg"},{"bike_id":"ebc97335-bdb2-4e10-8ca2-a1ac0ce475e9","system_id":"levelo_inurba_marseille","lat":43.305807,"lon":5.399362,"is_reserved":false,"is_disabled":false,"rental_uris":{"android":"levelo://app?vid=ebc97335-bdb2-4e10-8ca2-a1ac0ce475e9","ios":"levelo://app?vid=ebc97335-bdb2-4e10-8ca2-a1ac0ce475e9"},"vehicle_type_id":"4","last_reported":1750187283,"current_range_meters":14000,"station_id":"ce4bh012rcd13ifvqd00","pricing_plan_id":"cebpf4jnsgd1na2vs0mg"},{"bike_id":"aaefd57e-ace9-48fb-aef8-6ebf64053e03","system_id":"levelo_inurba_marseille","lat":43.27373,"lon":5.36247,"is_reserved":false,"is_disabled":false,"rental_uris":{"android":"levelo://app?vid=aaefd57e-ace9-48fb-aef8-6ebf64053e03","ios":"levelo://app?vid=aaefd57e-ace9-48fb-aef8-6ebf64053e03"},"vehicle_type_id":"4","last_reported":1750187283,"current_range_meters":14000,"station_id":"ce4bhbh2rcd13ifvqeo0","pricing_plan_id":"cebpf4jnsgd1na2vs0mg"},{"bike_id":"967f6192-68b8-4aec-a674-d7b9b14e6279","system_id":"levelo_inurba_marseille","lat":43.25123,"lon":5.40317,"is_reserved":false,"is_disabled":false,"rental_uris":{"android":"levelo://app?vid=967f6192-68b8-4aec-a674-d7b9b14e6279","ios":"levelo://app?vid=967f6192-68b8-4aec-a674-d7b9b14e6279"},"vehicle_type_id":"4","last_reported":1750187283,"current_range_meters":14000,"station_id":"ce4bhlh2rcd13ifvqgig","pricing_plan_id":"cebpf4jnsgd1na2vs0mg"},{"bike_id":"3d71d4df-44d5-4a43-b95c-ebb9fbdb915f","system_id":"levelo_inurba_marseille","lat":43.27932,"lon":5.41047,"is_reserved":false,"is_disabled":false,"rental_uris":{"android":"levelo://app?vid=3d71d4df-44d5-4a43-b95c-ebb9fbdb915f","ios":"levelo://app?vid=3d71d4df-44d5-4a43-b95c-ebb9fbdb915f"},"vehicle_type_id":"4","last_reported":1750187283,"current_range_meters":14000,"station_id":"ce4bhnp2rcd13ifvqh0g","pricing_plan_id":"cebpf4jnsgd1na2vs0mg"},{"bike_id":"2090556a-ebe6-4fcd-b60b-df67d7c8e4f7","system_id":"levelo_inurba_marseille","lat":43.29908,"lon":5.4368,"is_reserved":false,"is_disabled":false,"rental_uris":{"android":"levelo://app?vid=2090556a-ebe6-4fcd-b60b-df67d7c8e4f7","ios":"levelo://app?vid=2090556a-ebe6-4fcd-b60b-df67d7c8e4f7"},"vehicle_type_id":"4","last_reported":1750187283,"current_range_meters":14000,"station_id":"ce4bhpp2rcd13ifvqhfg","pricing_plan_id":"cebpf4jnsgd1na2vs0mg"},{"bike_id":"53f8e605-85b9-4709-8513-35452c812a4a","system_id":"levelo_inurba_marseille","lat":43.29793,"lon":5.39338,"is_reserved":false,"is_disabled":false,"rental_uris":{"android":"levelo://app?vid=53f8e605-85b9-4709-8513-35452c812a4a","ios":"levelo://app?vid=53f8e605-85b9-4709-8513-35452c812a4a"},"vehicle_type_id":"4","last_reported":1750187283,"current_range_meters":14000,"station_id":"chh1huq6cuj3fo74tm60","pricing_plan_id":"cebpf4jnsgd1na2vs0mg"},{"bike_id":"fc12a0f3-12b8-440f-98ca-b7e16c7817d5","system_id":"levelo_inurba_marseille","lat":43.28415,"lon":5.34988,"is_reserved":false,"is_disabled":false,"rental_uris":{"android":"levelo://app?vid=fc12a0f3-12b8-440f-98ca-b7e16c7817d5","ios":"levelo://app?vid=fc12a0f3-12b8-440f-98ca-b7e16c7817d5"},"vehicle_type_id":"4","last_reported":1750187283,"current_range_meters":14400,"station_id":"ce4bhbh2rcd13ifvqepg","pricing_plan_id":"cebpf4jnsgd1na2vs0mg"},{"bike_id":"cde29c0e-f86c-4c6c-ac4f-5019f21213c4","system_id":"levelo_inurba_marseille","lat":43.28616,"lon":5.35109,"is_reserved":false,"is_disabled":false,"rental_uris":{"android":"levelo://app?vid=cde29c0e-f86c-4c6c-ac4f-5019f21213c4","ios":"levelo://app?vid=cde29c0e-f86c-4c6c-ac4f-5019f21213c4"},"vehicle_type_id":"4","last_reported":1750187283,"current_range_meters":14400,"station_id":"ce4bhch2rcd13ifvqeug","pricing_plan_id":"cebpf4jnsgd1na2vs0mg"},{"bike_id":"71e9c428-66da-4a79-816d-791c44b6f22b","system_id":"levelo_inurba_marseille","lat":43.2808,"lon":5.39665,"is_reserved":false,"is_disabled":false,"rental_uris":{"android":"levelo://app?vid=71e9c428-66da-4a79-816d-791c44b6f22b","ios":"levelo://app?vid=71e9c428-66da-4a79-816d-791c44b6f22b"},"vehicle_type_id":"4","last_reported":1750187283,"current_range_meters":14400,"station_id":"ce4bho12rcd13ifvqh2g","pricing_plan_id":"cebpf4jnsgd1na2vs0mg"},{"bike_id":"2696f42d-34f7-4c94-a7b4-c480656e1e0a","system_id":"levelo_inurba_marseille","lat":43.22932,"lon":5.35377,"is_reserved":false,"is_disabled":false,"rental_uris":{"android":"levelo://app?vid=2696f42d-34f7-4c94-a7b4-c480656e1e0a","ios":"levelo://app?vid=2696f42d-34f7-4c94-a7b4-c480656e1e0a"},"vehicle_type_id":"4","last_reported":1750187283,"current_range_meters":14400,"station_id":"cpo3532slgdg3j2ikp40","pricing_plan_id":"cebpf4jnsgd1na2vs0mg"},{"bike_id":"f14fb6a7-c7ed-4bd8-b01f-ce0d92635a12","system_id":"levelo_inurba_marseille","lat":43.29891,"lon":5.40096,"is_reserved":false,"is_disabled":false,"rental_uris":{"android":"levelo://app?vid=f14fb6a7-c7ed-4bd8-b01f-ce0d92635a12","ios":"levelo://app?vid=f14fb6a7-c7ed-4bd8-b01f-ce0d92635a12"},"vehicle_type_id":"4","last_reported":1750187283,"current_range_meters":14800,"station_id":"","pricing_plan_id":"cebpf4jnsgd1na2vs0mg"},{"bike_id":"a285257f-d820-430f-9ba3-8deca4e3cfc9","system_id":"levelo_inurba_marseille","lat":43.28837,"lon":5.39307,"is_reserved":false,"is_disabled":false,"rental_uris":{"android":"levelo://app?vid=a285257f-d820-430f-9ba3-8deca4e3cfc9","ios":"levelo://app?vid=a285257f-d820-430f-9ba3-8deca4e3cfc9"},"vehicle_type_id":"4","last_reported":1750187283,"current_range_meters":14800,"station_id":"ce4bh2p2rcd13ifvqdi0","pricing_plan_id":"cebpf4jnsgd1na2vs0mg"},{"bike_id":"ac107ec1-cbfd-47f0-9959-0ae95a2b66ea","system_id":"levelo_inurba_marseille","lat":43.28922,"lon":5.38384,"is_reserved":false,"is_disabled":false,"rental_uris":{"android":"levelo://app?vid=ac107ec1-cbfd-47f0-9959-0ae95a2b66ea","ios":"levelo://app?vid=ac107ec1-cbfd-47f0-9959-0ae95a2b66ea"},"vehicle_type_id":"4","last_reported":1750187283,"current_range_meters":14800,"station_id":"ce4bh612rcd13ifvqe6g","pricing_plan_id":"cebpf4jnsgd1na2vs0mg"},{"bike_id":"888561d2-8c8a-44d2-baec-44f6dfecf4b8","system_id":"levelo_inurba_marseille","lat":43.28413,"lon":5.34989,"is_reserved":false,"is_disabled":false,"rental_uris":{"android":"levelo://app?vid=888561d2-8c8a-44d2-baec-44f6dfecf4b8","ios":"levelo://app?vid=888561d2-8c8a-44d2-baec-44f6dfecf4b8"},"vehicle_type_id":"4","last_reported":1750187283,"current_range_meters":14800,"station_id":"ce4bhbh2rcd13ifvqepg","pricing_plan_id":"cebpf4jnsgd1na2vs0mg"},{"bike_id":"70619f56-22b5-45cd-977c-640790522f68","system_id":"levelo_inurba_marseille","lat":43.26584,"lon":5.3902,"is_reserved":false,"is_disabled":false,"rental_uris":{"android":"levelo://app?vid=70619f56-22b5-45cd-977c-640790522f68","ios":"levelo://app?vid=70619f56-22b5-45cd-977c-640790522f68"},"vehicle_type_id":"4","last_reported":1750187283,"current_range_meters":14800,"station_id":"ce4bhe12rcd13ifvqf30","pricing_plan_id":"cebpf4jnsgd1na2vs0mg"},{"bike_id":"4493dcac-d8e9-47b9-84f1-8e7a3934c676","system_id":"levelo_inurba_marseille","lat":43.24667,"lon":5.38159,"is_reserved":false,"is_disabled":false,"rental_uris":{"android":"levelo://app?vid=4493dcac-d8e9-47b9-84f1-8e7a3934c676","ios":"levelo://app?vid=4493dcac-d8e9-47b9-84f1-8e7a3934c676"},"vehicle_type_id":"4","last_reported":1750187283,"current_range_meters":14800,"station_id":"ce4bhih2rcd13ifvqfr0","pricing_plan_id":"cebpf4jnsgd1na2vs0mg"},{"bike_id":"038d3b8f-9b8c-44a3-a844-41f80f1a7614","system_id":"levelo_inurba_marseille","lat":43.2781,"lon":5.40701,"is_reserved":false,"is_disabled":false,"rental_uris":{"android":"levelo://app?vid=038d3b8f-9b8c-44a3-a844-41f80f1a7614","ios":"levelo://app?vid=038d3b8f-9b8c-44a3-a844-41f80f1a7614"},"vehicle_type_id":"4","last_reported":1750187283,"current_range_meters":14800,"station_id":"ce4bhnh2rcd13ifvqgtg","pricing_plan_id":"cebpf4jnsgd1na2vs0mg"},{"bike_id":"cc56521f-c346-4aac-b6de-66d3fed1feff","system_id":"levelo_inurba_marseille","lat":43.30803,"lon":5.43522,"is_reserved":false,"is_disabled":false,"rental_uris":{"android":"levelo://app?vid=cc56521f-c346-4aac-b6de-66d3fed1feff","ios":"levelo://app?vid=cc56521f-c346-4aac-b6de-66d3fed1feff"},"vehicle_type_id":"4","last_reported":1750187283,"current_range_meters":14800,"station_id":"ce4bhph2rcd13ifvqheg","pricing_plan_id":"cebpf4jnsgd1na2vs0mg"},{"bike_id":"ec791070-eafa-4c06-b970-7958cef6417d","system_id":"levelo_inurba_marseille","lat":43.23198,"lon":5.35547,"is_reserved":false,"is_disabled":false,"rental_uris":{"android":"levelo://app?vid=ec791070-eafa-4c06-b970-7958cef6417d","ios":"levelo://app?vid=ec791070-eafa-4c06-b970-7958cef6417d"},"vehicle_type_id":"4","last_reported":1750187283,"current_range_meters":14800,"station_id":"ce4bhu92rcd13ifvqi70","pricing_plan_id":"cebpf4jnsgd1na2vs0mg"},{"bike_id":"4d0d693c-e030-4e05-904f-2724f8120cf9","system_id":"levelo_inurba_marseille","lat":43.295288,"lon":5.385449,"is_reserved":false,"is_disabled":false,"rental_uris":{"android":"levelo://app?vid=4d0d693c-e030-4e05-904f-2724f8120cf9","ios":"levelo://app?vid=4d0d693c-e030-4e05-904f-2724f8120cf9"},"vehicle_type_id":"4","last_reported":1750187283,"current_range_meters":15200,"station_id":"ce4bgih2rcd13ifvqba0","pricing_plan_id":"cebpf4jnsgd1na2vs0mg"},{"bike_id":"1b12c646-b63f-42ff-a05d-e7c67b627dea","system_id":"levelo_inurba_marseille","lat":43.29603,"lon":5.38103,"is_reserved":false,"is_disabled":false,"rental_uris":{"android":"levelo://app?vid=1b12c646-b63f-42ff-a05d-e7c67b627dea","ios":"levelo://app?vid=1b12c646-b63f-42ff-a05d-e7c67b627dea"},"vehicle_type_id":"4","last_reported":1750187283,"current_range_meters":15200,"station_id":"ce4bgl12rcd13ifvqbo0","pricing_plan_id":"cebpf4jnsgd1na2vs0mg"},{"bike_id":"bce2b3f3-a1a7-4608-8d7d-e9f9bfcb9ab1","system_id":"levelo_inurba_marseille","lat":43.31217,"lon":5.36838,"is_reserved":false,"is_disabled":false,"rental_uris":{"android":"levelo://app?vid=bce2b3f3-a1a7-4608-8d7d-e9f9bfcb9ab1","ios":"levelo://app?vid=bce2b3f3-a1a7-4608-8d7d-e9f9bfcb9ab1"},"vehicle_type_id":"4","last_reported":1750187283,"current_range_meters":15200,"station_id":"ce4bgl92rcd13ifvqbq0","pricing_plan_id":"cebpf4jnsgd1na2vs0mg"},{"bike_id":"1277eb60-8e6a-4fdc-9e3b-da0d4801fedb","system_id":"levelo_inurba_marseille","lat":43.31321,"lon":5.39693,"is_reserved":false,"is_disabled":false,"rental_uris":{"android":"levelo://app?vid=1277eb60-8e6a-4fdc-9e3b-da0d4801fedb","ios":"levelo://app?vid=1277eb60-8e6a-4fdc-9e3b-da0d4801fedb"},"vehicle_type_id":"4","last_reported":1750187283,"current_range_meters":15200,"station_id":"ce4bgvp2rcd13ifvqcu0","pricing_plan_id":"cebpf4jnsgd1na2vs0mg"},{"bike_id":"f0f47d63-d452-44e1-b1f1-3e753404e545","system_id":"levelo_inurba_marseille","lat":43.28684,"lon":5.37404,"is_reserved":false,"is_disabled":false,"rental_uris":{"android":"levelo://app?vid=f0f47d63-d452-44e1-b1f1-3e753404e545","ios":"levelo://app?vid=f0f47d63-d452-44e1-b1f1-3e753404e545"},"vehicle_type_id":"4","last_reported":1750187283,"current_range_meters":15200,"station_id":"ce4bh3p2rcd13ifvqdq0","pricing_plan_id":"cebpf4jnsgd1na2vs0mg"},{"bike_id":"bddf84dd-8051-4aff-be45-3abc4010d286","system_id":"levelo_inurba_marseille","lat":43.28465,"lon":5.3589,"is_reserved":false,"is_disabled":false,"rental_uris":{"android":"levelo://app?vid=bddf84dd-8051-4aff-be45-3abc4010d286","ios":"levelo://app?vid=bddf84dd-8051-4aff-be45-3abc4010d286"},"vehicle_type_id":"4","last_reported":1750187283,"current_range_meters":15200,"station_id":"ce4bhah2rcd13ifvqei0","pricing_plan_id":"cebpf4jnsgd1na2vs0mg"},{"bike_id":"c13d2109-b7dd-4901-85e1-95e5a90f7920","system_id":"levelo_inurba_marseille","lat":43.28407,"lon":5.34989,"is_reserved":false,"is_disabled":false,"rental_uris":{"android":"levelo://app?vid=c13d2109-b7dd-4901-85e1-95e5a90f7920","ios":"levelo://app?vid=c13d2109-b7dd-4901-85e1-95e5a90f7920"},"vehicle_type_id":"4","last_reported":1750187283,"current_range_meters":15200,"station_id":"ce4bhbh2rcd13ifvqepg","pricing_plan_id":"cebpf4jnsgd1na2vs0mg"},{"bike_id":"3518210a-6d90-482f-a11b-11cb7c94acd1","system_id":"levelo_inurba_marseille","lat":43.264774,"lon":5.391896,"is_reserved":false,"is_disabled":false,"rental_uris":{"android":"levelo://app?vid=3518210a-6d90-482f-a11b-11cb7c94acd1","ios":"levelo://app?vid=3518210a-6d90-482f-a11b-11cb7c94acd1"},"vehicle_type_id":"4","last_reported":1750187283,"current_range_meters":16000,"station_id":"","pricing_plan_id":"cebpf4jnsgd1na2vs0mg"},{"bike_id":"de0f7c2b-5974-4035-a240-8ed367c0e3f3","system_id":"levelo_inurba_marseille","lat":43.319756,"lon":5.376174,"is_reserved":false,"is_disabled":false,"rental_uris":{"android":"levelo://app?vid=de0f7c2b-5974-4035-a240-8ed367c0e3f3","ios":"levelo://app?vid=de0f7c2b-5974-4035-a240-8ed367c0e3f3"},"vehicle_type_id":"4","last_reported":1750187283,"current_range_meters":16000,"station_id":"","pricing_plan_id":"cebpf4jnsgd1na2vs0mg"},{"bike_id":"c12bc5d5-510b-405a-8de5-015de6e573a8","system_id":"levelo_inurba_marseille","lat":43.295384,"lon":5.38543,"is_reserved":false,"is_disabled":false,"rental_uris":{"android":"levelo://app?vid=c12bc5d5-510b-405a-8de5-015de6e573a8","ios":"levelo://app?vid=c12bc5d5-510b-405a-8de5-015de6e573a8"},"vehicle_type_id":"4","last_reported":1750187283,"current_range_meters":16000,"station_id":"ce4bgih2rcd13ifvqba0","pricing_plan_id":"cebpf4jnsgd1na2vs0mg"},{"bike_id":"13c879f5-ff64-470c-ad46-d538b4c24ade","system_id":"levelo_inurba_marseille","lat":43.311185,"lon":5.377814,"is_reserved":false,"is_disabled":false,"rental_uris":{"android":"levelo://app?vid=13c879f5-ff64-470c-ad46-d538b4c24ade","ios":"levelo://app?vid=13c879f5-ff64-470c-ad46-d538b4c24ade"},"vehicle_type_id":"4","last_reported":1750187283,"current_range_meters":16000,"station_id":"ce4bgt92rcd13ifvqcg0","pricing_plan_id":"cebpf4jnsgd1na2vs0mg"},{"bike_id":"60633948-afee-458a-92f1-c76ceb0e796f","system_id":"levelo_inurba_marseille","lat":43.29035,"lon":5.39964,"is_reserved":false,"is_disabled":false,"rental_uris":{"android":"levelo://app?vid=60633948-afee-458a-92f1-c76ceb0e796f","ios":"levelo://app?vid=60633948-afee-458a-92f1-c76ceb0e796f"},"vehicle_type_id":"4","last_reported":1750187283,"current_range_meters":16000,"station_id":"ce4bh392rcd13ifvqdm0","pricing_plan_id":"cebpf4jnsgd1na2vs0mg"},{"bike_id":"aa95d82a-245b-4caf-8e37-93dc9566b5d5","system_id":"levelo_inurba_marseille","lat":43.27374,"lon":5.36238,"is_reserved":false,"is_disabled":false,"rental_uris":{"android":"levelo://app?vid=aa95d82a-245b-4caf-8e37-93dc9566b5d5","ios":"levelo://app?vid=aa95d82a-245b-4caf-8e37-93dc9566b5d5"},"vehicle_type_id":"4","last_reported":1750187283,"current_range_meters":16000,"station_id":"ce4bhbh2rcd13ifvqeo0","pricing_plan_id":"cebpf4jnsgd1na2vs0mg"},{"bike_id":"3e3e010e-8154-487f-b267-ec6ac92b9a0b","system_id":"levelo_inurba_marseille","lat":43.28427,"lon":5.34984,"is_reserved":false,"is_disabled":false,"rental_uris":{"android":"levelo://app?vid=3e3e010e-8154-487f-b267-ec6ac92b9a0b","ios":"levelo://app?vid=3e3e010e-8154-487f-b267-ec6ac92b9a0b"},"vehicle_type_id":"4","last_reported":1750187283,"current_range_meters":16000,"station_id":"ce4bhbh2rcd13ifvqepg","pricing_plan_id":"cebpf4jnsgd1na2vs0mg"},{"bike_id":"2f0f7865-53e4-4955-8eb9-1bb98bf95595","system_id":"levelo_inurba_marseille","lat":43.31767,"lon":5.37589,"is_reserved":false,"is_disabled":false,"rental_uris":{"android":"levelo://app?vid=2f0f7865-53e4-4955-8eb9-1bb98bf95595","ios":"levelo://app?vid=2f0f7865-53e4-4955-8eb9-1bb98bf95595"},"vehicle_type_id":"4","last_reported":1750187283,"current_range_meters":16400,"station_id":"","pricing_plan_id":"cebpf4jnsgd1na2vs0mg"},{"bike_id":"de0bda34-41a6-4231-8ed4-c93e07fc3176","system_id":"levelo_inurba_marseille","lat":43.32626,"lon":5.37489,"is_reserved":false,"is_disabled":false,"rental_uris":{"android":"levelo://app?vid=de0bda34-41a6-4231-8ed4-c93e07fc3176","ios":"levelo://app?vid=de0bda34-41a6-4231-8ed4-c93e07fc3176"},"vehicle_type_id":"4","last_reported":1750187283,"current_range_meters":16400,"station_id":"","pricing_plan_id":"cebpf4jnsgd1na2vs0mg"},{"bike_id":"4fdbb41e-3dc9-406d-99ec-cfc368158150","system_id":"levelo_inurba_marseille","lat":43.289453,"lon":5.355057,"is_reserved":false,"is_disabled":false,"rental_uris":{"android":"levelo://app?vid=4fdbb41e-3dc9-406d-99ec-cfc368158150","ios":"levelo://app?vid=4fdbb41e-3dc9-406d-99ec-cfc368158150"},"vehicle_type_id":"4","last_reported":1750187283,"current_range_meters":16400,"station_id":"ce4bgjh2rcd13ifvqbf0","pricing_plan_id":"cebpf4jnsgd1na2vs0mg"},{"bike_id":"b19277ab-840f-4b56-90f4-88c2d29e4a59","system_id":"levelo_inurba_marseille","lat":43.2871,"lon":5.38695,"is_reserved":false,"is_disabled":false,"rental_uris":{"android":"levelo://app?vid=b19277ab-840f-4b56-90f4-88c2d29e4a59","ios":"levelo://app?vid=b19277ab-840f-4b56-90f4-88c2d29e4a59"},"vehicle_type_id":"4","last_reported":1750187283,"current_range_meters":16400,"station_id":"ce4bh492rcd13ifvqdug","pricing_plan_id":"cebpf4jnsgd1na2vs0mg"},{"bike_id":"93b6fae0-a4cb-4f45-b3d1-17590935a1ef","system_id":"levelo_inurba_marseille","lat":43.29037,"lon":5.35929,"is_reserved":false,"is_disabled":false,"rental_uris":{"android":"levelo://app?vid=93b6fae0-a4cb-4f45-b3d1-17590935a1ef","ios":"levelo://app?vid=93b6fae0-a4cb-4f45-b3d1-17590935a1ef"},"vehicle_type_id":"4","last_reported":1750187283,"current_range_meters":16400,"station_id":"ce4bha92rcd13ifvqeg0","pricing_plan_id":"cebpf4jnsgd1na2vs0mg"},{"bike_id":"17fbf39f-265b-4e1d-9691-2685dbd60d6d","system_id":"levelo_inurba_marseille","lat":43.29226,"lon":5.36073,"is_reserved":false,"is_disabled":false,"rental_uris":{"android":"levelo://app?vid=17fbf39f-265b-4e1d-9691-2685dbd60d6d","ios":"levelo://app?vid=17fbf39f-265b-4e1d-9691-2685dbd60d6d"},"vehicle_type_id":"4","last_reported":1750187283,"current_range_meters":16400,"station_id":"ce4bhbh2rcd13ifvqeqg","pricing_plan_id":"cebpf4jnsgd1na2vs0mg"},{"bike_id":"0a7c86d1-06c7-4d5a-bb76-1ba5f082fc5e","system_id":"levelo_inurba_marseille","lat":43.25511,"lon":5.3765,"is_reserved":false,"is_disabled":false,"rental_uris":{"android":"levelo://app?vid=0a7c86d1-06c7-4d5a-bb76-1ba5f082fc5e","ios":"levelo://app?vid=0a7c86d1-06c7-4d5a-bb76-1ba5f082fc5e"},"vehicle_type_id":"4","last_reported":1750187283,"current_range_meters":16400,"station_id":"ce4bhh12rcd13ifvqff0","pricing_plan_id":"cebpf4jnsgd1na2vs0mg"},{"bike_id":"29793d7d-00d9-4bc4-8c45-cad1adde9dc9","system_id":"levelo_inurba_marseille","lat":43.25824,"lon":5.39438,"is_reserved":false,"is_disabled":false,"rental_uris":{"android":"levelo://app?vid=29793d7d-00d9-4bc4-8c45-cad1adde9dc9","ios":"levelo://app?vid=29793d7d-00d9-4bc4-8c45-cad1adde9dc9"},"vehicle_type_id":"4","last_reported":1750187283,"current_range_meters":16400,"station_id":"ce4bhip2rcd13ifvqft0","pricing_plan_id":"cebpf4jnsgd1na2vs0mg"},{"bike_id":"d6596571-2d47-4467-b9f1-c4fd4cb00dbe","system_id":"levelo_inurba_marseille","lat":43.23194,"lon":5.35551,"is_reserved":false,"is_disabled":false,"rental_uris":{"android":"levelo://app?vid=d6596571-2d47-4467-b9f1-c4fd4cb00dbe","ios":"levelo://app?vid=d6596571-2d47-4467-b9f1-c4fd4cb00dbe"},"vehicle_type_id":"4","last_reported":1750187283,"current_range_meters":16400,"station_id":"ce4bhu92rcd13ifvqi70","pricing_plan_id":"cebpf4jnsgd1na2vs0mg"},{"bike_id":"3e5f874f-1a11-463a-9767-0116584cff19","system_id":"levelo_inurba_marseille","lat":43.29613,"lon":5.3773,"is_reserved":false,"is_disabled":false,"rental_uris":{"android":"levelo://app?vid=3e5f874f-1a11-463a-9767-0116584cff19","ios":"levelo://app?vid=3e5f874f-1a11-463a-9767-0116584cff19"},"vehicle_type_id":"4","last_reported":1750187283,"current_range_meters":16800,"station_id":"ce4bgi92rcd13ifvqb90","pricing_plan_id":"cebpf4jnsgd1na2vs0mg"},{"bike_id":"2766c131-5287-4ec6-8f94-d41b3b5d9579","system_id":"levelo_inurba_marseille","lat":43.28408,"lon":5.3499,"is_reserved":false,"is_disabled":false,"rental_uris":{"android":"levelo://app?vid=2766c131-5287-4ec6-8f94-d41b3b5d9579","ios":"levelo://app?vid=2766c131-5287-4ec6-8f94-d41b3b5d9579"},"vehicle_type_id":"4","last_reported":1750187283,"current_range_meters":16800,"station_id":"ce4bhbh2rcd13ifvqepg","pricing_plan_id":"cebpf4jnsgd1na2vs0mg"},{"bike_id":"4cda9327-46c6-426e-87dd-c291d5dc5ff7","system_id":"levelo_inurba_marseille","lat":43.2119,"lon":5.35069,"is_reserved":false,"is_disabled":false,"rental_uris":{"android":"levelo://app?vid=4cda9327-46c6-426e-87dd-c291d5dc5ff7","ios":"levelo://app?vid=4cda9327-46c6-426e-87dd-c291d5dc5ff7"},"vehicle_type_id":"4","last_reported":1750187283,"current_range_meters":16800,"station_id":"st_cvj6sg6p6f1abm77japg","pricing_plan_id":"cebpf4jnsgd1na2vs0mg"},{"bike_id":"4b8da722-ee9e-48a4-a5e5-3a8a10364708","system_id":"levelo_inurba_marseille","lat":43.31232,"lon":5.3781,"is_reserved":false,"is_disabled":false,"rental_uris":{"android":"levelo://app?vid=4b8da722-ee9e-48a4-a5e5-3a8a10364708","ios":"levelo://app?vid=4b8da722-ee9e-48a4-a5e5-3a8a10364708"},"vehicle_type_id":"4","last_reported":1750187283,"current_range_meters":17200,"station_id":"","pricing_plan_id":"cebpf4jnsgd1na2vs0mg"},{"bike_id":"4ce5b165-f22d-40cf-abd3-1cb294861955","system_id":"levelo_inurba_marseille","lat":43.21182,"lon":5.35065,"is_reserved":false,"is_disabled":false,"rental_uris":{"android":"levelo://app?vid=4ce5b165-f22d-40cf-abd3-1cb294861955","ios":"levelo://app?vid=4ce5b165-f22d-40cf-abd3-1cb294861955"},"vehicle_type_id":"4","last_reported":1750187283,"current_range_meters":17200,"station_id":"","pricing_plan_id":"cebpf4jnsgd1na2vs0mg"},{"bike_id":"1bf29589-d74f-4149-a148-2ed86c60dd54","system_id":"levelo_inurba_marseille","lat":43.295319,"lon":5.385388,"is_reserved":false,"is_disabled":false,"rental_uris":{"android":"levelo://app?vid=1bf29589-d74f-4149-a148-2ed86c60dd54","ios":"levelo://app?vid=1bf29589-d74f-4149-a148-2ed86c60dd54"},"vehicle_type_id":"4","last_reported":1750187283,"current_range_meters":17200,"station_id":"ce4bgih2rcd13ifvqba0","pricing_plan_id":"cebpf4jnsgd1na2vs0mg"},{"bike_id":"11b5656b-8ffb-4df2-b8de-f0bc285f37b6","system_id":"levelo_inurba_marseille","lat":43.2955,"lon":5.38534,"is_reserved":false,"is_disabled":false,"rental_uris":{"android":"levelo://app?vid=11b5656b-8ffb-4df2-b8de-f0bc285f37b6","ios":"levelo://app?vid=11b5656b-8ffb-4df2-b8de-f0bc285f37b6"},"vehicle_type_id":"4","last_reported":1750187283,"current_range_meters":17200,"station_id":"ce4bgih2rcd13ifvqba0","pricing_plan_id":"cebpf4jnsgd1na2vs0mg"},{"bike_id":"00cf1355-f73c-4e44-91a0-89deb9380f9d","system_id":"levelo_inurba_marseille","lat":43.28428,"lon":5.34978,"is_reserved":false,"is_disabled":false,"rental_uris":{"android":"levelo://app?vid=00cf1355-f73c-4e44-91a0-89deb9380f9d","ios":"levelo://app?vid=00cf1355-f73c-4e44-91a0-89deb9380f9d"},"vehicle_type_id":"4","last_reported":1750187283,"current_range_meters":17200,"station_id":"ce4bhbh2rcd13ifvqepg","pricing_plan_id":"cebpf4jnsgd1na2vs0mg"},{"bike_id":"bd974aa7-8150-4a7a-8310-24b04975ef30","system_id":"levelo_inurba_marseille","lat":43.24078,"lon":5.37751,"is_reserved":false,"is_disabled":false,"rental_uris":{"android":"levelo://app?vid=bd974aa7-8150-4a7a-8310-24b04975ef30","ios":"levelo://app?vid=bd974aa7-8150-4a7a-8310-24b04975ef30"},"vehicle_type_id":"4","last_reported":1750187283,"current_range_meters":17200,"station_id":"ce4bhnp2rcd13ifvqgvg","pricing_plan_id":"cebpf4jnsgd1na2vs0mg"},{"bike_id":"5cbdd979-131e-4b0a-a5c9-96ef156802c9","system_id":"levelo_inurba_marseille","lat":43.284181,"lon":5.392288,"is_reserved":false,"is_disabled":false,"rental_uris":{"android":"levelo://app?vid=5cbdd979-131e-4b0a-a5c9-96ef156802c9","ios":"levelo://app?vid=5cbdd979-131e-4b0a-a5c9-96ef156802c9"},"vehicle_type_id":"4","last_reported":1750187283,"current_range_meters":17200,"station_id":"ce4bhoh2rcd13ifvqh5g","pricing_plan_id":"cebpf4jnsgd1na2vs0mg"},{"bike_id":"cc8086c3-023b-4662-b7ba-91199240f1a1","system_id":"levelo_inurba_marseille","lat":43.23055,"lon":5.35489,"is_reserved":false,"is_disabled":false,"rental_uris":{"android":"levelo://app?vid=cc8086c3-023b-4662-b7ba-91199240f1a1","ios":"levelo://app?vid=cc8086c3-023b-4662-b7ba-91199240f1a1"},"vehicle_type_id":"4","last_reported":1750187283,"current_range_meters":17200,"station_id":"cpo3342slgdg3j2ifvpg","pricing_plan_id":"cebpf4jnsgd1na2vs0mg"},{"bike_id":"653a05d9-205d-420f-b0c9-a638667f0917","system_id":"levelo_inurba_marseille","lat":43.21217,"lon":5.35076,"is_reserved":false,"is_disabled":false,"rental_uris":{"android":"levelo://app?vid=653a05d9-205d-420f-b0c9-a638667f0917","ios":"levelo://app?vid=653a05d9-205d-420f-b0c9-a638667f0917"},"vehicle_type_id":"4","last_reported":1750187283,"current_range_meters":17200,"station_id":"st_cvj6sg6p6f1abm77japg","pricing_plan_id":"cebpf4jnsgd1na2vs0mg"},{"bike_id":"55ae95b9-8c12-4064-a3c7-8091a91caa3f","system_id":"levelo_inurba_marseille","lat":43.28362,"lon":5.39653,"is_reserved":false,"is_disabled":false,"rental_uris":{"android":"levelo://app?vid=55ae95b9-8c12-4064-a3c7-8091a91caa3f","ios":"levelo://app?vid=55ae95b9-8c12-4064-a3c7-8091a91caa3f"},"vehicle_type_id":"4","last_reported":1750187283,"current_range_meters":17600,"station_id":"","pricing_plan_id":"cebpf4jnsgd1na2vs0mg"},{"bike_id":"b08eec09-f619-497f-bdc8-cdb4d82ff947","system_id":"levelo_inurba_marseille","lat":43.30293,"lon":5.36874,"is_reserved":false,"is_disabled":false,"rental_uris":{"android":"levelo://app?vid=b08eec09-f619-497f-bdc8-cdb4d82ff947","ios":"levelo://app?vid=b08eec09-f619-497f-bdc8-cdb4d82ff947"},"vehicle_type_id":"4","last_reported":1750187283,"current_range_meters":17600,"station_id":"ce4bgqh2rcd13ifvqc5g","pricing_plan_id":"cebpf4jnsgd1na2vs0mg"},{"bike_id":"faade479-00cd-43d7-afa5-1c4de86411bd","system_id":"levelo_inurba_marseille","lat":43.31723,"lon":5.423936,"is_reserved":false,"is_disabled":false,"rental_uris":{"android":"levelo://app?vid=faade479-00cd-43d7-afa5-1c4de86411bd","ios":"levelo://app?vid=faade479-00cd-43d7-afa5-1c4de86411bd"},"vehicle_type_id":"4","last_reported":1750187283,"current_range_meters":17600,"station_id":"ce4bhp92rcd13ifvqhbg","pricing_plan_id":"cebpf4jnsgd1na2vs0mg"},{"bike_id":"69391ca7-3f01-4e51-a628-257cf9ff7306","system_id":"levelo_inurba_marseille","lat":43.337721,"lon":5.374366,"is_reserved":false,"is_disabled":false,"rental_uris":{"android":"levelo://app?vid=69391ca7-3f01-4e51-a628-257cf9ff7306","ios":"levelo://app?vid=69391ca7-3f01-4e51-a628-257cf9ff7306"},"vehicle_type_id":"4","last_reported":1750187283,"current_range_meters":18000,"station_id":"","pricing_plan_id":"cebpf4jnsgd1na2vs0mg"},{"bike_id":"268aafb4-1331-426c-97bc-a7d6564caeb6","system_id":"levelo_inurba_marseille","lat":43.32952,"lon":5.37925,"is_reserved":false,"is_disabled":false,"rental_uris":{"android":"levelo://app?vid=268aafb4-1331-426c-97bc-a7d6564caeb6","ios":"levelo://app?vid=268aafb4-1331-426c-97bc-a7d6564caeb6"},"vehicle_type_id":"4","last_reported":1750187283,"current_range_meters":18000,"station_id":"","pricing_plan_id":"cebpf4jnsgd1na2vs0mg"},{"bike_id":"ebb6cb81-0d1a-4fb9-8148-a8adb2a7f4d9","system_id":"levelo_inurba_marseille","lat":43.30316,"lon":5.369,"is_reserved":false,"is_disabled":false,"rental_uris":{"android":"levelo://app?vid=ebb6cb81-0d1a-4fb9-8148-a8adb2a7f4d9","ios":"levelo://app?vid=ebb6cb81-0d1a-4fb9-8148-a8adb2a7f4d9"},"vehicle_type_id":"4","last_reported":1750187283,"current_range_meters":18000,"station_id":"ce4bgqh2rcd13ifvqc5g","pricing_plan_id":"cebpf4jnsgd1na2vs0mg"},{"bike_id":"47707426-b460-46b3-8343-5b718b62504e","system_id":"levelo_inurba_marseille","lat":43.29271,"lon":5.38449,"is_reserved":false,"is_disabled":false,"rental_uris":{"android":"levelo://app?vid=47707426-b460-46b3-8343-5b718b62504e","ios":"levelo://app?vid=47707426-b460-46b3-8343-5b718b62504e"},"vehicle_type_id":"4","last_reported":1750187283,"current_range_meters":18000,"station_id":"ce4bh692rcd13ifvqea0","pricing_plan_id":"cebpf4jnsgd1na2vs0mg"},{"bike_id":"353d311d-54a6-4151-a3bd-6f76a7c05120","system_id":"levelo_inurba_marseille","lat":43.27931,"lon":5.41045,"is_reserved":false,"is_disabled":false,"rental_uris":{"android":"levelo://app?vid=353d311d-54a6-4151-a3bd-6f76a7c05120","ios":"levelo://app?vid=353d311d-54a6-4151-a3bd-6f76a7c05120"},"vehicle_type_id":"4","last_reported":1750187283,"current_range_meters":18000,"station_id":"ce4bhnp2rcd13ifvqh0g","pricing_plan_id":"cebpf4jnsgd1na2vs0mg"},{"bike_id":"3151b431-ae3a-411c-8189-09c45ab38d79","system_id":"levelo_inurba_marseille","lat":43.30851,"lon":5.37193,"is_reserved":false,"is_disabled":false,"rental_uris":{"android":"levelo://app?vid=3151b431-ae3a-411c-8189-09c45ab38d79","ios":"levelo://app?vid=3151b431-ae3a-411c-8189-09c45ab38d79"},"vehicle_type_id":"4","last_reported":1750187283,"current_range_meters":18800,"station_id":"","pricing_plan_id":"cebpf4jnsgd1na2vs0mg"},{"bike_id":"e92bd4cd-e5c6-40c9-80e9-52bc96a037f0","system_id":"levelo_inurba_marseille","lat":43.25481,"lon":5.41739,"is_reserved":false,"is_disabled":false,"rental_uris":{"android":"levelo://app?vid=e92bd4cd-e5c6-40c9-80e9-52bc96a037f0","ios":"levelo://app?vid=e92bd4cd-e5c6-40c9-80e9-52bc96a037f0"},"vehicle_type_id":"4","last_reported":1750187283,"current_range_meters":18800,"station_id":"","pricing_plan_id":"cebpf4jnsgd1na2vs0mg"},{"bike_id":"d4dee77f-9265-4df0-bd48-87d581932209","system_id":"levelo_inurba_marseille","lat":43.29601,"lon":5.37715,"is_reserved":false,"is_disabled":false,"rental_uris":{"android":"levelo://app?vid=d4dee77f-9265-4df0-bd48-87d581932209","ios":"levelo://app?vid=d4dee77f-9265-4df0-bd48-87d581932209"},"vehicle_type_id":"4","last_reported":1750187283,"current_range_meters":18800,"station_id":"ce4bgi92rcd13ifvqb90","pricing_plan_id":"cebpf4jnsgd1na2vs0mg"},{"bike_id":"2add1516-f549-446f-8505-806c7e04f273","system_id":"levelo_inurba_marseille","lat":43.29528,"lon":5.38536,"is_reserved":false,"is_disabled":false,"rental_uris":{"android":"levelo://app?vid=2add1516-f549-446f-8505-806c7e04f273","ios":"levelo://app?vid=2add1516-f549-446f-8505-806c7e04f273"},"vehicle_type_id":"4","last_reported":1750187283,"current_range_meters":18800,"station_id":"ce4bgih2rcd13ifvqba0","pricing_plan_id":"cebpf4jnsgd1na2vs0mg"},{"bike_id":"89d04d83-c4a4-48bb-9d4d-bbddb93a35fe","system_id":"levelo_inurba_marseille","lat":43.27605,"lon":5.36107,"is_reserved":false,"is_disabled":false,"rental_uris":{"android":"levelo://app?vid=89d04d83-c4a4-48bb-9d4d-bbddb93a35fe","ios":"levelo://app?vid=89d04d83-c4a4-48bb-9d4d-bbddb93a35fe"},"vehicle_type_id":"4","last_reported":1750187283,"current_range_meters":18800,"station_id":"ce4bgj92rcd13ifvqbe0","pricing_plan_id":"cebpf4jnsgd1na2vs0mg"},{"bike_id":"fa833bbb-a07f-460c-9e73-006f1fc69690","system_id":"levelo_inurba_marseille","lat":43.27605,"lon":5.36116,"is_reserved":false,"is_disabled":false,"rental_uris":{"android":"levelo://app?vid=fa833bbb-a07f-460c-9e73-006f1fc69690","ios":"levelo://app?vid=fa833bbb-a07f-460c-9e73-006f1fc69690"},"vehicle_type_id":"4","last_reported":1750187283,"current_range_meters":18800,"station_id":"ce4bgj92rcd13ifvqbe0","pricing_plan_id":"cebpf4jnsgd1na2vs0mg"},{"bike_id":"b2916d08-9911-4aeb-8189-b4430ec7e795","system_id":"levelo_inurba_marseille","lat":43.29034,"lon":5.39968,"is_reserved":false,"is_disabled":false,"rental_uris":{"android":"levelo://app?vid=b2916d08-9911-4aeb-8189-b4430ec7e795","ios":"levelo://app?vid=b2916d08-9911-4aeb-8189-b4430ec7e795"},"vehicle_type_id":"4","last_reported":1750187283,"current_range_meters":18800,"station_id":"ce4bh392rcd13ifvqdm0","pricing_plan_id":"cebpf4jnsgd1na2vs0mg"},{"bike_id":"6f83a7ae-2d6b-499d-ac66-cad5eee0a015","system_id":"levelo_inurba_marseille","lat":43.2738,"lon":5.36255,"is_reserved":false,"is_disabled":false,"rental_uris":{"android":"levelo://app?vid=6f83a7ae-2d6b-499d-ac66-cad5eee0a015","ios":"levelo://app?vid=6f83a7ae-2d6b-499d-ac66-cad5eee0a015"},"vehicle_type_id":"4","last_reported":1750187283,"current_range_meters":18800,"station_id":"ce4bhbh2rcd13ifvqeo0","pricing_plan_id":"cebpf4jnsgd1na2vs0mg"},{"bike_id":"a6e0c645-b8fb-43cf-a604-072cc870798a","system_id":"levelo_inurba_marseille","lat":43.28445,"lon":5.34978,"is_reserved":false,"is_disabled":false,"rental_uris":{"android":"levelo://app?vid=a6e0c645-b8fb-43cf-a604-072cc870798a","ios":"levelo://app?vid=a6e0c645-b8fb-43cf-a604-072cc870798a"},"vehicle_type_id":"4","last_reported":1750187283,"current_range_meters":18800,"station_id":"ce4bhbh2rcd13ifvqepg","pricing_plan_id":"cebpf4jnsgd1na2vs0mg"},{"bike_id":"8b8e3452-c32b-408e-938b-44cc98f0f857","system_id":"levelo_inurba_marseille","lat":43.28443,"lon":5.34986,"is_reserved":false,"is_disabled":false,"rental_uris":{"android":"levelo://app?vid=8b8e3452-c32b-408e-938b-44cc98f0f857","ios":"levelo://app?vid=8b8e3452-c32b-408e-938b-44cc98f0f857"},"vehicle_type_id":"4","last_reported":1750187283,"current_range_meters":18800,"station_id":"ce4bhbh2rcd13ifvqepg","pricing_plan_id":"cebpf4jnsgd1na2vs0mg"},{"bike_id":"704614bd-2483-47f2-9c39-8f9ef1fa9ec5","system_id":"levelo_inurba_marseille","lat":43.243894,"lon":5.37061,"is_reserved":false,"is_disabled":false,"rental_uris":{"android":"levelo://app?vid=704614bd-2483-47f2-9c39-8f9ef1fa9ec5","ios":"levelo://app?vid=704614bd-2483-47f2-9c39-8f9ef1fa9ec5"},"vehicle_type_id":"4","last_reported":1750187283,"current_range_meters":18800,"station_id":"ce4bhhh2rcd13ifvqfk0","pricing_plan_id":"cebpf4jnsgd1na2vs0mg"},{"bike_id":"2eafd197-d54a-4114-9dd6-3265fb2aa236","system_id":"levelo_inurba_marseille","lat":43.28155,"lon":5.42647,"is_reserved":false,"is_disabled":false,"rental_uris":{"android":"levelo://app?vid=2eafd197-d54a-4114-9dd6-3265fb2aa236","ios":"levelo://app?vid=2eafd197-d54a-4114-9dd6-3265fb2aa236"},"vehicle_type_id":"4","last_reported":1750187283,"current_range_meters":18800,"station_id":"ce4bhnh2rcd13ifvqgug","pricing_plan_id":"cebpf4jnsgd1na2vs0mg"},{"bike_id":"744cf4fa-bb14-4576-929f-2f6effc633c9","system_id":"levelo_inurba_marseille","lat":43.295498,"lon":5.422879,"is_reserved":false,"is_disabled":false,"rental_uris":{"android":"levelo://app?vid=744cf4fa-bb14-4576-929f-2f6effc633c9","ios":"levelo://app?vid=744cf4fa-bb14-4576-929f-2f6effc633c9"},"vehicle_type_id":"4","last_reported":1750187283,"current_range_meters":18800,"station_id":"ce4bhph2rcd13ifvqhdg","pricing_plan_id":"cebpf4jnsgd1na2vs0mg"},{"bike_id":"28701354-04db-4ccd-965d-529bbc82fcd5","system_id":"levelo_inurba_marseille","lat":43.211911,"lon":5.350734,"is_reserved":false,"is_disabled":false,"rental_uris":{"android":"levelo://app?vid=28701354-04db-4ccd-965d-529bbc82fcd5","ios":"levelo://app?vid=28701354-04db-4ccd-965d-529bbc82fcd5"},"vehicle_type_id":"4","last_reported":1750187283,"current_range_meters":18800,"station_id":"st_cvj6sg6p6f1abm77japg","pricing_plan_id":"cebpf4jnsgd1na2vs0mg"},{"bike_id":"3a79c9a9-99b3-4d00-8dcc-f494ffeec57e","system_id":"levelo_inurba_marseille","lat":43.31057,"lon":5.40099,"is_reserved":false,"is_disabled":false,"rental_uris":{"android":"levelo://app?vid=3a79c9a9-99b3-4d00-8dcc-f494ffeec57e","ios":"levelo://app?vid=3a79c9a9-99b3-4d00-8dcc-f494ffeec57e"},"vehicle_type_id":"4","last_reported":1750187283,"current_range_meters":19200,"station_id":"","pricing_plan_id":"cebpf4jnsgd1na2vs0mg"},{"bike_id":"c6104073-d2d6-407e-8cc9-cb697547cba7","system_id":"levelo_inurba_marseille","lat":43.30311,"lon":5.36884,"is_reserved":false,"is_disabled":false,"rental_uris":{"android":"levelo://app?vid=c6104073-d2d6-407e-8cc9-cb697547cba7","ios":"levelo://app?vid=c6104073-d2d6-407e-8cc9-cb697547cba7"},"vehicle_type_id":"4","last_reported":1750187283,"current_range_meters":19200,"station_id":"ce4bgqh2rcd13ifvqc5g","pricing_plan_id":"cebpf4jnsgd1na2vs0mg"},{"bike_id":"3b00762c-74f4-4b8a-974d-468537d56142","system_id":"levelo_inurba_marseille","lat":43.28939,"lon":5.36627,"is_reserved":false,"is_disabled":false,"rental_uris":{"android":"levelo://app?vid=3b00762c-74f4-4b8a-974d-468537d56142","ios":"levelo://app?vid=3b00762c-74f4-4b8a-974d-468537d56142"},"vehicle_type_id":"4","last_reported":1750187283,"current_range_meters":19200,"station_id":"ce4bhap2rcd13ifvqek0","pricing_plan_id":"cebpf4jnsgd1na2vs0mg"},{"bike_id":"7d323fe3-a48f-41da-8026-436298dd6903","system_id":"levelo_inurba_marseille","lat":43.284136,"lon":5.34993,"is_reserved":false,"is_disabled":false,"rental_uris":{"android":"levelo://app?vid=7d323fe3-a48f-41da-8026-436298dd6903","ios":"levelo://app?vid=7d323fe3-a48f-41da-8026-436298dd6903"},"vehicle_type_id":"4","last_reported":1750187283,"current_range_meters":19200,"station_id":"ce4bhbh2rcd13ifvqepg","pricing_plan_id":"cebpf4jnsgd1na2vs0mg"},{"bike_id":"f6ea18f4-d77c-4843-ab66-bba6fb8a9a88","system_id":"levelo_inurba_marseille","lat":43.25115,"lon":5.40322,"is_reserved":false,"is_disabled":false,"rental_uris":{"android":"levelo://app?vid=f6ea18f4-d77c-4843-ab66-bba6fb8a9a88","ios":"levelo://app?vid=f6ea18f4-d77c-4843-ab66-bba6fb8a9a88"},"vehicle_type_id":"4","last_reported":1750187283,"current_range_meters":19200,"station_id":"ce4bhlh2rcd13ifvqgig","pricing_plan_id":"cebpf4jnsgd1na2vs0mg"},{"bike_id":"da127551-163d-4b08-aedc-f1eac469b5f3","system_id":"levelo_inurba_marseille","lat":43.28611,"lon":5.37057,"is_reserved":false,"is_disabled":false,"rental_uris":{"android":"levelo://app?vid=da127551-163d-4b08-aedc-f1eac469b5f3","ios":"levelo://app?vid=da127551-163d-4b08-aedc-f1eac469b5f3"},"vehicle_type_id":"4","last_reported":1750187283,"current_range_meters":19200,"station_id":"ce4bht12rcd13ifvqi60","pricing_plan_id":"cebpf4jnsgd1na2vs0mg"},{"bike_id":"65fe0c2e-fcc6-45c4-a172-8e2e81da84f7","system_id":"levelo_inurba_marseille","lat":43.33145,"lon":5.38172,"is_reserved":false,"is_disabled":false,"rental_uris":{"android":"levelo://app?vid=65fe0c2e-fcc6-45c4-a172-8e2e81da84f7","ios":"levelo://app?vid=65fe0c2e-fcc6-45c4-a172-8e2e81da84f7"},"vehicle_type_id":"4","last_reported":1750187283,"current_range_meters":19600,"station_id":"","pricing_plan_id":"cebpf4jnsgd1na2vs0mg"},{"bike_id":"f09db7c5-d596-4615-a8fb-8536a0c4a01c","system_id":"levelo_inurba_marseille","lat":43.29922,"lon":5.38144,"is_reserved":false,"is_disabled":false,"rental_uris":{"android":"levelo://app?vid=f09db7c5-d596-4615-a8fb-8536a0c4a01c","ios":"levelo://app?vid=f09db7c5-d596-4615-a8fb-8536a0c4a01c"},"vehicle_type_id":"4","last_reported":1750187283,"current_range_meters":19600,"station_id":"ce4bgj12rcd13ifvqbc0","pricing_plan_id":"cebpf4jnsgd1na2vs0mg"},{"bike_id":"e33faf14-ba9d-48d7-835c-f3836ff7c213","system_id":"levelo_inurba_marseille","lat":43.30149,"lon":5.3984,"is_reserved":false,"is_disabled":false,"rental_uris":{"android":"levelo://app?vid=e33faf14-ba9d-48d7-835c-f3836ff7c213","ios":"levelo://app?vid=e33faf14-ba9d-48d7-835c-f3836ff7c213"},"vehicle_type_id":"4","last_reported":1750187283,"current_range_meters":19600,"station_id":"ce4bh0h2rcd13ifvqd40","pricing_plan_id":"cebpf4jnsgd1na2vs0mg"},{"bike_id":"21e762b4-b606-4d0a-971e-2b575a788878","system_id":"levelo_inurba_marseille","lat":43.29418,"lon":5.38627,"is_reserved":false,"is_disabled":false,"rental_uris":{"android":"levelo://app?vid=21e762b4-b606-4d0a-971e-2b575a788878","ios":"levelo://app?vid=21e762b4-b606-4d0a-971e-2b575a788878"},"vehicle_type_id":"4","last_reported":1750187283,"current_range_meters":19600,"station_id":"ce4bh2h2rcd13ifvqdh0","pricing_plan_id":"cebpf4jnsgd1na2vs0mg"},{"bike_id":"c1f010d4-2315-444e-bea5-8917443da6cd","system_id":"levelo_inurba_marseille","lat":43.284205,"lon":5.349869,"is_reserved":false,"is_disabled":false,"rental_uris":{"android":"levelo://app?vid=c1f010d4-2315-444e-bea5-8917443da6cd","ios":"levelo://app?vid=c1f010d4-2315-444e-bea5-8917443da6cd"},"vehicle_type_id":"4","last_reported":1750187283,"current_range_meters":19600,"station_id":"ce4bhbh2rcd13ifvqepg","pricing_plan_id":"cebpf4jnsgd1na2vs0mg"},{"bike_id":"329fa638-5cae-4d80-84a0-f7375cb03d86","system_id":"levelo_inurba_marseille","lat":43.28415,"lon":5.34993,"is_reserved":false,"is_disabled":false,"rental_uris":{"android":"levelo://app?vid=329fa638-5cae-4d80-84a0-f7375cb03d86","ios":"levelo://app?vid=329fa638-5cae-4d80-84a0-f7375cb03d86"},"vehicle_type_id":"4","last_reported":1750187283,"current_range_meters":19600,"station_id":"ce4bhbh2rcd13ifvqepg","pricing_plan_id":"cebpf4jnsgd1na2vs0mg"},{"bike_id":"caad0222-a046-415c-97eb-638e226f2464","system_id":"levelo_inurba_marseille","lat":43.27998,"lon":5.40005,"is_reserved":false,"is_disabled":false,"rental_uris":{"android":"levelo://app?vid=caad0222-a046-415c-97eb-638e226f2464","ios":"levelo://app?vid=caad0222-a046-415c-97eb-638e226f2464"},"vehicle_type_id":"4","last_reported":1750187283,"current_range_meters":19600,"station_id":"ce4bho92rcd13ifvqh4g","pricing_plan_id":"cebpf4jnsgd1na2vs0mg"},{"bike_id":"978cb750-6847-4a7f-b5c4-8ec0fe512086","system_id":"levelo_inurba_marseille","lat":43.28615,"lon":5.37055,"is_reserved":false,"is_disabled":false,"rental_uris":{"android":"levelo://app?vid=978cb750-6847-4a7f-b5c4-8ec0fe512086","ios":"levelo://app?vid=978cb750-6847-4a7f-b5c4-8ec0fe512086"},"vehicle_type_id":"4","last_reported":1750187283,"current_range_meters":19600,"station_id":"ce4bht12rcd13ifvqi60","pricing_plan_id":"cebpf4jnsgd1na2vs0mg"},{"bike_id":"3fb32369-1f25-46d2-9052-c30b5af8c776","system_id":"levelo_inurba_marseille","lat":43.22935,"lon":5.35376,"is_reserved":false,"is_disabled":false,"rental_uris":{"android":"levelo://app?vid=3fb32369-1f25-46d2-9052-c30b5af8c776","ios":"levelo://app?vid=3fb32369-1f25-46d2-9052-c30b5af8c776"},"vehicle_type_id":"4","last_reported":1750187283,"current_range_meters":19600,"station_id":"cpo3532slgdg3j2ikp40","pricing_plan_id":"cebpf4jnsgd1na2vs0mg"},{"bike_id":"54cebbad-17db-4f40-8141-8eedac83be3f","system_id":"levelo_inurba_marseille","lat":43.3376,"lon":5.37414,"is_reserved":false,"is_disabled":false,"rental_uris":{"android":"levelo://app?vid=54cebbad-17db-4f40-8141-8eedac83be3f","ios":"levelo://app?vid=54cebbad-17db-4f40-8141-8eedac83be3f"},"vehicle_type_id":"4","last_reported":1750187283,"current_range_meters":20000,"station_id":"","pricing_plan_id":"cebpf4jnsgd1na2vs0mg"},{"bike_id":"4b6b2a2b-d3c4-4663-8ea1-de4eff39b7b2","system_id":"levelo_inurba_marseille","lat":43.2118,"lon":5.35097,"is_reserved":false,"is_disabled":false,"rental_uris":{"android":"levelo://app?vid=4b6b2a2b-d3c4-4663-8ea1-de4eff39b7b2","ios":"levelo://app?vid=4b6b2a2b-d3c4-4663-8ea1-de4eff39b7b2"},"vehicle_type_id":"4","last_reported":1750187283,"current_range_meters":20000,"station_id":"","pricing_plan_id":"cebpf4jnsgd1na2vs0mg"},{"bike_id":"0becc9fe-14ae-45f1-b1e9-0b3951dbc7a9","system_id":"levelo_inurba_marseille","lat":43.290297,"lon":5.386575,"is_reserved":false,"is_disabled":false,"rental_uris":{"android":"levelo://app?vid=0becc9fe-14ae-45f1-b1e9-0b3951dbc7a9","ios":"levelo://app?vid=0becc9fe-14ae-45f1-b1e9-0b3951dbc7a9"},"vehicle_type_id":"4","last_reported":1750187283,"current_range_meters":20000,"station_id":"ce4bh4p2rcd13ifvqe0g","pricing_plan_id":"cebpf4jnsgd1na2vs0mg"},{"bike_id":"b892e18a-1e13-43ef-9cbd-496a1805ec19","system_id":"levelo_inurba_marseille","lat":43.27932,"lon":5.40985,"is_reserved":false,"is_disabled":false,"rental_uris":{"android":"levelo://app?vid=b892e18a-1e13-43ef-9cbd-496a1805ec19","ios":"levelo://app?vid=b892e18a-1e13-43ef-9cbd-496a1805ec19"},"vehicle_type_id":"4","last_reported":1750187283,"current_range_meters":20000,"station_id":"ce4bhnp2rcd13ifvqh0g","pricing_plan_id":"cebpf4jnsgd1na2vs0mg"},{"bike_id":"4624f637-b94b-41e3-8be6-0e86128798bd","system_id":"levelo_inurba_marseille","lat":43.33025,"lon":5.39033,"is_reserved":false,"is_disabled":false,"rental_uris":{"android":"levelo://app?vid=4624f637-b94b-41e3-8be6-0e86128798bd","ios":"levelo://app?vid=4624f637-b94b-41e3-8be6-0e86128798bd"},"vehicle_type_id":"4","last_reported":1750187283,"current_range_meters":20000,"station_id":"ce4bhr92rcd13ifvqhrg","pricing_plan_id":"cebpf4jnsgd1na2vs0mg"},{"bike_id":"39122345-4e14-4fa4-ba7f-ef9dfcc9efd0","system_id":"levelo_inurba_marseille","lat":43.33007,"lon":5.39042,"is_reserved":false,"is_disabled":false,"rental_uris":{"android":"levelo://app?vid=39122345-4e14-4fa4-ba7f-ef9dfcc9efd0","ios":"levelo://app?vid=39122345-4e14-4fa4-ba7f-ef9dfcc9efd0"},"vehicle_type_id":"4","last_reported":1750187283,"current_range_meters":20000,"station_id":"ce4bhr92rcd13ifvqhrg","pricing_plan_id":"cebpf4jnsgd1na2vs0mg"},{"bike_id":"a85b2000-e3ea-4c9d-8512-f632fbae13d6","system_id":"levelo_inurba_marseille","lat":43.30162,"lon":5.40081,"is_reserved":false,"is_disabled":false,"rental_uris":{"android":"levelo://app?vid=a85b2000-e3ea-4c9d-8512-f632fbae13d6","ios":"levelo://app?vid=a85b2000-e3ea-4c9d-8512-f632fbae13d6"},"vehicle_type_id":"4","last_reported":1750187283,"current_range_meters":20400,"station_id":"","pricing_plan_id":"cebpf4jnsgd1na2vs0mg"},{"bike_id":"0a729932-711b-4919-8b2d-451f1ceb93fd","system_id":"levelo_inurba_marseille","lat":43.28458,"lon":5.35863,"is_reserved":false,"is_disabled":false,"rental_uris":{"android":"levelo://app?vid=0a729932-711b-4919-8b2d-451f1ceb93fd","ios":"levelo://app?vid=0a729932-711b-4919-8b2d-451f1ceb93fd"},"vehicle_type_id":"4","last_reported":1750187283,"current_range_meters":20400,"station_id":"ce4bhah2rcd13ifvqei0","pricing_plan_id":"cebpf4jnsgd1na2vs0mg"},{"bike_id":"e6de5e50-4873-4a56-8d3b-b8f3ded22ca3","system_id":"levelo_inurba_marseille","lat":43.28945,"lon":5.36639,"is_reserved":false,"is_disabled":false,"rental_uris":{"android":"levelo://app?vid=e6de5e50-4873-4a56-8d3b-b8f3ded22ca3","ios":"levelo://app?vid=e6de5e50-4873-4a56-8d3b-b8f3ded22ca3"},"vehicle_type_id":"4","last_reported":1750187283,"current_range_meters":20400,"station_id":"ce4bhap2rcd13ifvqek0","pricing_plan_id":"cebpf4jnsgd1na2vs0mg"},{"bike_id":"aa6b55ea-db14-45ec-82ce-278decdf827f","system_id":"levelo_inurba_marseille","lat":43.2407,"lon":5.37761,"is_reserved":false,"is_disabled":false,"rental_uris":{"android":"levelo://app?vid=aa6b55ea-db14-45ec-82ce-278decdf827f","ios":"levelo://app?vid=aa6b55ea-db14-45ec-82ce-278decdf827f"},"vehicle_type_id":"4","last_reported":1750187283,"current_range_meters":20400,"station_id":"ce4bhnp2rcd13ifvqgvg","pricing_plan_id":"cebpf4jnsgd1na2vs0mg"},{"bike_id":"b2372ff6-5571-42d5-b562-23ecdeb52de0","system_id":"levelo_inurba_marseille","lat":43.21207,"lon":5.3509,"is_reserved":false,"is_disabled":false,"rental_uris":{"android":"levelo://app?vid=b2372ff6-5571-42d5-b562-23ecdeb52de0","ios":"levelo://app?vid=b2372ff6-5571-42d5-b562-23ecdeb52de0"},"vehicle_type_id":"4","last_reported":1750187283,"current_range_meters":20400,"station_id":"st_cvj6sg6p6f1abm77japg","pricing_plan_id":"cebpf4jnsgd1na2vs0mg"},{"bike_id":"7dd4d121-ff7f-4dba-bf26-fdfa5cd92044","system_id":"levelo_inurba_marseille","lat":43.30204,"lon":5.45395,"is_reserved":false,"is_disabled":false,"rental_uris":{"android":"levelo://app?vid=7dd4d121-ff7f-4dba-bf26-fdfa5cd92044","ios":"levelo://app?vid=7dd4d121-ff7f-4dba-bf26-fdfa5cd92044"},"vehicle_type_id":"4","last_reported":1750187283,"current_range_meters":20800,"station_id":"","pricing_plan_id":"cebpf4jnsgd1na2vs0mg"},{"bike_id":"3a80373e-bd52-4e84-b575-745583f44f3c","system_id":"levelo_inurba_marseille","lat":43.295197,"lon":5.375035,"is_reserved":false,"is_disabled":false,"rental_uris":{"android":"levelo://app?vid=3a80373e-bd52-4e84-b575-745583f44f3c","ios":"levelo://app?vid=3a80373e-bd52-4e84-b575-745583f44f3c"},"vehicle_type_id":"4","last_reported":1750187283,"current_range_meters":20800,"station_id":"ce4bhb92rcd13ifvqen0","pricing_plan_id":"cebpf4jnsgd1na2vs0mg"},{"bike_id":"86d4aa42-ca5d-4b7b-9602-5acb9f3d211e","system_id":"levelo_inurba_marseille","lat":43.28465,"lon":5.34974,"is_reserved":false,"is_disabled":false,"rental_uris":{"android":"levelo://app?vid=86d4aa42-ca5d-4b7b-9602-5acb9f3d211e","ios":"levelo://app?vid=86d4aa42-ca5d-4b7b-9602-5acb9f3d211e"},