{"last_updated":1761225882,"ttl":60,"version":"2.2","data":{"bikes":[{"bike_id":"0987f624-06c9-475c-a644-1021e759ae9e","system_id":"levelo_inurba_marseille","lat":43.23147,"lon":5.43702,"is_reserved":false,"is_disabled":false,"rental_uris":{"android":"levelo://app?vid=0987f624-06c9-475c-a644-1021e759ae9e","ios":"levelo://app?vid=0987f624-06c9-475c-a644-1021e759ae9e"},"vehicle_type_id":"4","last_reported":1761225882,"current_range_meters":2800,"station_id":"ce4bhmp2rcd13ifvqgog","pricing_plan_id":"cebpf4jnsgd1na2vs0mg"},{"bike_id":"111849aa-4ca0-44f5-a745-a01b2147ed68","system_id":"levelo_inurba_marseille","lat":43.33785,"lon":5.37474,"is_reserved":false,"is_disabled":false,"rental_uris":{"android":"levelo://app?vid=111849aa-4ca0-44f5-a745-a01b2147ed68","ios":"levelo://app?vid=111849aa-4ca0-44f5-a745-a01b2147ed68"},"vehicle_type_id":"4","last_reported":1761225882,"current_range_meters":2800,"station_id":"","pricing_plan_id":"cebpf4jnsgd1na2vs0mg"},{"bike_id":"f93db9ce-31a4-4cdd-bceb-597b5616d4cf","system_id":"levelo_inurba_marseille","lat":43.30429,"lon":5.38899,"is_reserved":false,"is_disabled":false,"rental_uris":{"android":"levelo://app?vid=f93db9ce-31a4-4cdd-bceb-597b5616d4cf","ios":"levelo://app?vid=f93db9ce-31a4-4cdd-bceb-597b5616d4cf"},"vehicle_type_id":"4","last_reported":1761225882,"current_range_meters":2800,"station_id":"ce4bgk12rcd13ifvqbi0","pricing_plan_id":"cebpf4jnsgd1na2vs0mg"},{"bike_id":"178ce03e-deaf-4622-9ebe-e998778b4ea2","system_id":"levelo_inurba_marseille","lat":43.24072,"lon":5.3776,"is_reserved":false,"is_disabled":false,"rental_uris":{"android":"levelo://app?vid=178ce03e-deaf-4622-9ebe-e998778b4ea2","ios":"levelo://app?vid=178ce03e-deaf-4622-9ebe-e998778b4ea2"},"vehicle_type_id":"4","last_reported":1761225882,"current_range_meters":2800,"station_id":"ce4bhnp2rcd13ifvqgvg","pricing_plan_id":"cebpf4jnsgd1na2vs0mg"},{"bike_id":"3201e625-69d5-420e-838c-f4c3f44666ef","system_id":"levelo_inurba_marseille","lat":43.33789,"lon":5.37423,"is_reserved":false,"is_disabled":false,"rental_uris":{"android":"levelo://app?vid=3201e625-69d5-420e-838c-f4c3f44666ef","ios":"levelo://app?vid=3201e625-69d5-420e-838c-f4c3f44666ef"},"vehicle_type_id":"4","last_reported":1761225882,"current_range_meters":3200,"station_id":"","pricing_plan_id":"cebpf4jnsgd1na2vs0mg"},{"bike_id":"da3c5d5d-639d-4a11-88e1-f7b9c2ad220a","system_id":"levelo_inurba_marseille","lat":43.316889,"lon":5.377686,"is_reserved":false,"is_disabled":true,"rental_uris":{"android":"levelo://app?vid=da3c5d5d-639d-4a11-88e1-f7b9c2ad220a","ios":"levelo://app?vid=da3c5d5d-639d-4a11-88e1-f7b9c2ad220a"},"vehicle_type_id":"4","last_reported":1761225882,"current_range_meters":3200,"station_id":"ce4bgth2rcd13ifvqch0","pricing_plan_id":"cebpf4jnsgd1na2vs0mg"},{"bike_id":"259b44cd-ed5d-4ed6-a603-b73d5da3c16f","system_id":"levelo_inurba_marseille","lat":43.33605,"lon":5.41031,"is_reserved":false,"is_disabled":false,"rental_uris":{"android":"levelo://app?vid=259b44cd-ed5d-4ed6-a603-b73d5da3c16f","ios":"levelo://app?vid=259b44cd-ed5d-4ed6-a603-b73d5da3c16f"},"vehicle_type_id":"4","last_reported":1761225882,"current_range_meters":3200,"station_id":"ce4bhqh2rcd13ifvqhmg","pricing_plan_id":"cebpf4jnsgd1na2vs0mg"},{"bike_id":"82b41985-73a9-4385-b4b2-ae62462adae6","system_id":"levelo_inurba_marseille","lat":43.295318,"lon":5.3854,"is_reserved":false,"is_disabled":false,"rental_uris":{"android":"levelo://app?vid=82b41985-73a9-4385-b4b2-ae62462adae6","ios":"levelo://app?vid=82b41985-73a9-4385-b4b2-ae62462adae6"},"vehicle_type_id":"4","last_reported":1761225882,"current_range_meters":3200,"station_id":"ce4bgn92rcd13ifvqbvg","pricing_plan_id":"cebpf4jnsgd1na2vs0mg"},{"bike_id":"80f6aae4-96df-4213-90fb-f7479cd34156","system_id":"levelo_inurba_marseille","lat":43.295663,"lon":5.37523,"is_reserved":false,"is_disabled":false,"rental_uris":{"android":"levelo://app?vid=80f6aae4-96df-4213-90fb-f7479cd34156","ios":"levelo://app?vid=80f6aae4-96df-4213-90fb-f7479cd34156"},"vehicle_type_id":"4","last_reported":1761225882,"current_range_meters":3600,"station_id":"ce4bh292rcd13ifvqdf0","pricing_plan_id":"cebpf4jnsgd1na2vs0mg"},{"bike_id":"b7e41c34-cad5-468c-aadc-3ef8a1845b5a","system_id":"levelo_inurba_marseille","lat":43.281616,"lon":5.361195,"is_reserved":false,"is_disabled":false,"rental_uris":{"android":"levelo://app?vid=b7e41c34-cad5-468c-aadc-3ef8a1845b5a","ios":"levelo://app?vid=b7e41c34-cad5-468c-aadc-3ef8a1845b5a"},"vehicle_type_id":"4","last_reported":1761225882,"current_range_meters":4400,"station_id":"","pricing_plan_id":"cebpf4jnsgd1na2vs0mg"},{"bike_id":"44b458fc-d4de-412e-b954-f31868e7db02","system_id":"levelo_inurba_marseille","lat":43.32654,"lon":5.40999,"is_reserved":false,"is_disabled":false,"rental_uris":{"android":"levelo://app?vid=44b458fc-d4de-412e-b954-f31868e7db02","ios":"levelo://app?vid=44b458fc-d4de-412e-b954-f31868e7db02"},"vehicle_type_id":"4","last_reported":1761225882,"current_range_meters":4400,"station_id":"ce4bhpp2rcd13ifvqhgg","pricing_plan_id":"cebpf4jnsgd1na2vs0mg"},{"bike_id":"ac1df8dc-41e5-4954-977f-6f21ed12d11a","system_id":"levelo_inurba_marseille","lat":43.21759,"lon":5.34606,"is_reserved":false,"is_disabled":false,"rental_uris":{"android":"levelo://app?vid=ac1df8dc-41e5-4954-977f-6f21ed12d11a","ios":"levelo://app?vid=ac1df8dc-41e5-4954-977f-6f21ed12d11a"},"vehicle_type_id":"4","last_reported":1761225882,"current_range_meters":5600,"station_id":"st_cvj6r9ubvosntc0bgbag","pricing_plan_id":"cebpf4jnsgd1na2vs0mg"},{"bike_id":"6665c1e8-1f0f-402b-8f71-557b78104323","system_id":"levelo_inurba_marseille","lat":43.32043,"lon":5.415636,"is_reserved":false,"is_disabled":false,"rental_uris":{"android":"levelo://app?vid=6665c1e8-1f0f-402b-8f71-557b78104323","ios":"levelo://app?vid=6665c1e8-1f0f-402b-8f71-557b78104323"},"vehicle_type_id":"4","last_reported":1761225882,"current_range_meters":5600,"station_id":"ce4bhq92rcd13ifvqhkg","pricing_plan_id":"cebpf4jnsgd1na2vs0mg"},{"bike_id":"19932999-2934-4a42-9fd5-ce158b94f4a9","system_id":"levelo_inurba_marseille","lat":43.31171,"lon":5.38722,"is_reserved":false,"is_disabled":false,"rental_uris":{"android":"levelo://app?vid=19932999-2934-4a42-9fd5-ce158b94f4a9","ios":"levelo://app?vid=19932999-2934-4a42-9fd5-ce158b94f4a9"},"vehicle_type_id":"4","last_reported":1761225882,"current_range_meters":6000,"station_id":"ce4bgv12rcd13ifvqcp0","pricing_plan_id":"cebpf4jnsgd1na2vs0mg"},{"bike_id":"70fd0cf1-4662-4fb9-9be2-737fbf72a3d8","system_id":"levelo_inurba_marseille","lat":43.2732,"lon":5.391,"is_reserved":false,"is_disabled":false,"rental_uris":{"android":"levelo://app?vid=70fd0cf1-4662-4fb9-9be2-737fbf72a3d8","ios":"levelo://app?vid=70fd0cf1-4662-4fb9-9be2-737fbf72a3d8"},"vehicle_type_id":"4","last_reported":1761225882,"current_range_meters":6000,"station_id":"ce4bhgp2rcd13ifvqfe0","pricing_plan_id":"cebpf4jnsgd1na2vs0mg"},{"bike_id":"4e9d917d-40e2-401b-abe4-bd2e03a08129","system_id":"levelo_inurba_marseille","lat":43.30886,"lon":5.36871,"is_reserved":false,"is_disabled":false,"rental_uris":{"android":"levelo://app?vid=4e9d917d-40e2-401b-abe4-bd2e03a08129","ios":"levelo://app?vid=4e9d917d-40e2-401b-abe4-bd2e03a08129"},"vehicle_type_id":"4","last_reported":1761225882,"current_range_meters":6000,"station_id":"ce4bgn92rcd13ifvqbvg","pricing_plan_id":"cebpf4jnsgd1na2vs0mg"},{"bike_id":"02f7835e-8895-43db-bc46-dc0659a292d5","system_id":"levelo_inurba_marseille","lat":43.29331,"lon":5.3707,"is_reserved":false,"is_disabled":false,"rental_uris":{"android":"levelo://app?vid=02f7835e-8895-43db-bc46-dc0659a292d5","ios":"levelo://app?vid=02f7835e-8895-43db-bc46-dc0659a292d5"},"vehicle_type_id":"4","last_reported":1761225882,"current_range_meters":6000,"station_id":"","pricing_plan_id":"cebpf4jnsgd1na2vs0mg"},{"bike_id":"2fae44ad-a6cd-42bb-97ea-b8009622f300","system_id":"levelo_inurba_marseille","lat":43.30888,"lon":5.39638,"is_reserved":false,"is_disabled":false,"rental_uris":{"android":"levelo://app?vid=2fae44ad-a6cd-42bb-97ea-b8009622f300","ios":"levelo://app?vid=2fae44ad-a6cd-42bb-97ea-b8009622f300"},"vehicle_type_id":"4","last_reported":1761225882,"current_range_meters":6000,"station_id":"ce4bh012rcd13ifvqcv0","pricing_plan_id":"cebpf4jnsgd1na2vs0mg"},{"bike_id":"60f5a786-cf29-474c-bb36-b7455d074f3c","system_id":"levelo_inurba_marseille","lat":43.30605,"lon":5.37227,"is_reserved":false,"is_disabled":false,"rental_uris":{"android":"levelo://app?vid=60f5a786-cf29-474c-bb36-b7455d074f3c","ios":"levelo://app?vid=60f5a786-cf29-474c-bb36-b7455d074f3c"},"vehicle_type_id":"4","last_reported":1761225882,"current_range_meters":6000,"station_id":"ce4bgqh2rcd13ifvqc4g","pricing_plan_id":"cebpf4jnsgd1na2vs0mg"},{"bike_id":"e160c397-fee2-4a8b-b125-aac488c4b4fd","system_id":"levelo_inurba_marseille","lat":43.30375,"lon":5.42488,"is_reserved":false,"is_disabled":false,"rental_uris":{"android":"levelo://app?vid=e160c397-fee2-4a8b-b125-aac488c4b4fd","ios":"levelo://app?vid=e160c397-fee2-4a8b-b125-aac488c4b4fd"},"vehicle_type_id":"4","last_reported":1761225882,"current_range_meters":6400,"station_id":"ce4bhoh2rcd13ifvqh6g","pricing_plan_id":"cebpf4jnsgd1na2vs0mg"},{"bike_id":"70173d68-8d47-4d68-8d7f-f076f0b099c0","system_id":"levelo_inurba_marseille","lat":43.33008,"lon":5.39054,"is_reserved":false,"is_disabled":false,"rental_uris":{"android":"levelo://app?vid=70173d68-8d47-4d68-8d7f-f076f0b099c0","ios":"levelo://app?vid=70173d68-8d47-4d68-8d7f-f076f0b099c0"},"vehicle_type_id":"4","last_reported":1761225882,"current_range_meters":6400,"station_id":"ce4bhr92rcd13ifvqhrg","pricing_plan_id":"cebpf4jnsgd1na2vs0mg"},{"bike_id":"6d26ebab-fd3e-407a-8a62-6e0a133f0b38","system_id":"levelo_inurba_marseille","lat":43.24169,"lon":5.36396,"is_reserved":false,"is_disabled":false,"rental_uris":{"android":"levelo://app?vid=6d26ebab-fd3e-407a-8a62-6e0a133f0b38","ios":"levelo://app?vid=6d26ebab-fd3e-407a-8a62-6e0a133f0b38"},"vehicle_type_id":"4","last_reported":1761225882,"current_range_meters":6400,"station_id":"cpo36qri1sfpv3e86is0","pricing_plan_id":"cebpf4jnsgd1na2vs0mg"},{"bike_id":"4a51fc73-c070-49a7-b8d6-fee2b25eb6b4","system_id":"levelo_inurba_marseille","lat":43.293527,"lon":5.378365,"is_reserved":false,"is_disabled":false,"rental_uris":{"android":"levelo://app?vid=4a51fc73-c070-49a7-b8d6-fee2b25eb6b4","ios":"levelo://app?vid=4a51fc73-c070-49a7-b8d6-fee2b25eb6b4"},"vehicle_type_id":"4","last_reported":1761225882,"current_range_meters":6400,"station_id":"ce4bgjh2rcd13ifvqbf0","pricing_plan_id":"cebpf4jnsgd1na2vs0mg"},{"bike_id":"3de35322-0741-470d-b565-7d8eb37ff45d","system_id":"levelo_inurba_marseille","lat":43.22559,"lon":5.4163,"is_reserved":false,"is_disabled":false,"rental_uris":{"android":"levelo://app?vid=3de35322-0741-470d-b565-7d8eb37ff45d","ios":"levelo://app?vid=3de35322-0741-470d-b565-7d8eb37ff45d"},"vehicle_type_id":"4","last_reported":1761225882,"current_range_meters":6400,"station_id":"st_d2o4gvlbi1j2169b742g","pricing_plan_id":"cebpf4jnsgd1na2vs0mg"},{"bike_id":"d9a2a0a6-f03f-4ffa-a319-65e25dfdddff","system_id":"levelo_inurba_marseille","lat":43.30595,"lon":5.39369,"is_reserved":false,"is_disabled":false,"rental_uris":{"android":"levelo://app?vid=d9a2a0a6-f03f-4ffa-a319-65e25dfdddff","ios":"levelo://app?vid=d9a2a0a6-f03f-4ffa-a319-65e25dfdddff"},"vehicle_type_id":"4","last_reported":1761225882,"current_range_meters":6800,"station_id":"ce4bh0p2rcd13ifvqd80","pricing_plan_id":"cebpf4jnsgd1na2vs0mg"},{"bike_id":"aa5c39ca-5467-4d85-a1f8-b790dbb0979e","system_id":"levelo_inurba_marseille","lat":43.3069,"lon":5.37384,"is_reserved":false,"is_disabled":false,"rental_uris":{"android":"levelo://app?vid=aa5c39ca-5467-4d85-a1f8-b790dbb0979e","ios":"levelo://app?vid=aa5c39ca-5467-4d85-a1f8-b790dbb0979e"},"vehicle_type_id":"4","last_reported":1761225882,"current_range_meters":6800,"station_id":"","pricing_plan_id":"cebpf4jnsgd1na2vs0mg"},{"bike_id":"4118108f-b912-4733-b838-dfa82ed2e074","system_id":"levelo_inurba_marseille","lat":43.251078,"lon":5.403152,"is_reserved":false,"is_disabled":false,"rental_uris":{"android":"levelo://app?vid=4118108f-b912-4733-b838-dfa82ed2e074","ios":"levelo://app?vid=4118108f-b912-4733-b838-dfa82ed2e074"},"vehicle_type_id":"4","last_reported":1761225882,"current_range_meters":6800,"station_id":"ce4bhlh2rcd13ifvqgig","pricing_plan_id":"cebpf4jnsgd1na2vs0mg"},{"bike_id":"3996f6a4-99c7-4f82-8d0c-8948176aa6e1","system_id":"levelo_inurba_marseille","lat":43.30926,"lon":5.40141,"is_reserved":false,"is_disabled":false,"rental_uris":{"android":"levelo://app?vid=3996f6a4-99c7-4f82-8d0c-8948176aa6e1","ios":"levelo://app?vid=3996f6a4-99c7-4f82-8d0c-8948176aa6e1"},"vehicle_type_id":"4","last_reported":1761225882,"current_range_meters":6800,"station_id":"ce4bgvp2rcd13ifvqct0","pricing_plan_id":"cebpf4jnsgd1na2vs0mg"},{"bike_id":"e6f4e10e-6d72-487a-8252-3250c4b27f98","system_id":"levelo_inurba_marseille","lat":43.21192,"lon":5.35068,"is_reserved":false,"is_disabled":false,"rental_uris":{"android":"levelo://app?vid=e6f4e10e-6d72-487a-8252-3250c4b27f98","ios":"levelo://app?vid=e6f4e10e-6d72-487a-8252-3250c4b27f98"},"vehicle_type_id":"4","last_reported":1761225882,"current_range_meters":7200,"station_id":"st_cvj6sg6p6f1abm77japg","pricing_plan_id":"cebpf4jnsgd1na2vs0mg"},{"bike_id":"3e1fbb52-9d7c-457a-a18c-113cbc58722a","system_id":"levelo_inurba_marseille","lat":43.316074,"lon":5.381727,"is_reserved":false,"is_disabled":false,"rental_uris":{"android":"levelo://app?vid=3e1fbb52-9d7c-457a-a18c-113cbc58722a","ios":"levelo://app?vid=3e1fbb52-9d7c-457a-a18c-113cbc58722a"},"vehicle_type_id":"4","last_reported":1761225882,"current_range_meters":7200,"station_id":"","pricing_plan_id":"cebpf4jnsgd1na2vs0mg"},{"bike_id":"e959a3cc-6422-4768-8621-476c1fed3e61","system_id":"levelo_inurba_marseille","lat":43.29621,"lon":5.37164,"is_reserved":false,"is_disabled":false,"rental_uris":{"android":"levelo://app?vid=e959a3cc-6422-4768-8621-476c1fed3e61","ios":"levelo://app?vid=e959a3cc-6422-4768-8621-476c1fed3e61"},"vehicle_type_id":"4","last_reported":1761225882,"current_range_meters":7200,"station_id":"ce4bgnh2rcd13ifvqc0g","pricing_plan_id":"cebpf4jnsgd1na2vs0mg"},{"bike_id":"82576c51-8b9b-43eb-aa43-fc4a18c9ea5b","system_id":"levelo_inurba_marseille","lat":43.21749,"lon":5.34616,"is_reserved":false,"is_disabled":false,"rental_uris":{"android":"levelo://app?vid=82576c51-8b9b-43eb-aa43-fc4a18c9ea5b","ios":"levelo://app?vid=82576c51-8b9b-43eb-aa43-fc4a18c9ea5b"},"vehicle_type_id":"4","last_reported":1761225882,"current_range_meters":8000,"station_id":"st_cvj6r9ubvosntc0bgbag","pricing_plan_id":"cebpf4jnsgd1na2vs0mg"},{"bike_id":"3c8768f5-e238-4cb2-b57c-c445b9145711","system_id":"levelo_inurba_marseille","lat":43.32106,"lon":5.36766,"is_reserved":false,"is_disabled":false,"rental_uris":{"android":"levelo://app?vid=3c8768f5-e238-4cb2-b57c-c445b9145711","ios":"levelo://app?vid=3c8768f5-e238-4cb2-b57c-c445b9145711"},"vehicle_type_id":"4","last_reported":1761225882,"current_range_meters":8000,"station_id":"ce4bhrh2rcd13ifvqhug","pricing_plan_id":"cebpf4jnsgd1na2vs0mg"},{"bike_id":"ff3ba630-dc04-489c-b422-8721b9ddc862","system_id":"levelo_inurba_marseille","lat":43.29825,"lon":5.37788,"is_reserved":false,"is_disabled":false,"rental_uris":{"android":"levelo://app?vid=ff3ba630-dc04-489c-b422-8721b9ddc862","ios":"levelo://app?vid=ff3ba630-dc04-489c-b422-8721b9ddc862"},"vehicle_type_id":"4","last_reported":1761225882,"current_range_meters":8000,"station_id":"","pricing_plan_id":"cebpf4jnsgd1na2vs0mg"},{"bike_id":"16ea86f8-d34c-4222-9d2d-e608ddd6d62e","system_id":"levelo_inurba_marseille","lat":43.337444,"lon":5.374475,"is_reserved":false,"is_disabled":false,"rental_uris":{"android":"levelo://app?vid=16ea86f8-d34c-4222-9d2d-e608ddd6d62e","ios":"levelo://app?vid=16ea86f8-d34c-4222-9d2d-e608ddd6d62e"},"vehicle_type_id":"4","last_reported":1761225882,"current_range_meters":8400,"station_id":"","pricing_plan_id":"cebpf4jnsgd1na2vs0mg"},{"bike_id":"072ee276-7998-4e72-836c-ccccec1b3db1","system_id":"levelo_inurba_marseille","lat":43.284058,"lon":5.375028,"is_reserved":false,"is_disabled":false,"rental_uris":{"android":"levelo://app?vid=072ee276-7998-4e72-836c-ccccec1b3db1","ios":"levelo://app?vid=072ee276-7998-4e72-836c-ccccec1b3db1"},"vehicle_type_id":"4","last_reported":1761225882,"current_range_meters":8400,"station_id":"ce4bh412rcd13ifvqds0","pricing_plan_id":"cebpf4jnsgd1na2vs0mg"},{"bike_id":"f3efb067-32db-4fd5-a6c7-ed1c6ebbf69d","system_id":"levelo_inurba_marseille","lat":43.21191,"lon":5.35075,"is_reserved":false,"is_disabled":true,"rental_uris":{"android":"levelo://app?vid=f3efb067-32db-4fd5-a6c7-ed1c6ebbf69d","ios":"levelo://app?vid=f3efb067-32db-4fd5-a6c7-ed1c6ebbf69d"},"vehicle_type_id":"4","last_reported":1761225882,"current_range_meters":8400,"station_id":"st_cvj6sg6p6f1abm77japg","pricing_plan_id":"cebpf4jnsgd1na2vs0mg"},{"bike_id":"bde66b9e-c476-48cf-b033-4068551f0bfe","system_id":"levelo_inurba_marseille","lat":43.293162,"lon":5.371536,"is_reserved":false,"is_disabled":false,"rental_uris":{"android":"levelo://app?vid=bde66b9e-c476-48cf-b033-4068551f0bfe","ios":"levelo://app?vid=bde66b9e-c476-48cf-b033-4068551f0bfe"},"vehicle_type_id":"4","last_reported":1761225882,"current_range_meters":8400,"station_id":"","pricing_plan_id":"cebpf4jnsgd1na2vs0mg"},{"bike_id":"fd0dd5ea-e204-4cc3-ba99-3a46ab9cfa07","system_id":"levelo_inurba_marseille","lat":43.280642,"lon":5.352788,"is_reserved":false,"is_disabled":false,"rental_uris":{"android":"levelo://app?vid=fd0dd5ea-e204-4cc3-ba99-3a46ab9cfa07","ios":"levelo://app?vid=fd0dd5ea-e204-4cc3-ba99-3a46ab9cfa07"},"vehicle_type_id":"4","last_reported":1761225882,"current_range_meters":8400,"station_id":"","pricing_plan_id":"cebpf4jnsgd1na2vs0mg"},{"bike_id":"37d01fc8-4b4d-4652-a489-1254eb9d4c80","system_id":"levelo_inurba_marseille","lat":43.34076,"lon":5.40411,"is_reserved":false,"is_disabled":false,"rental_uris":{"android":"levelo://app?vid=37d01fc8-4b4d-4652-a489-1254eb9d4c80","ios":"levelo://app?vid=37d01fc8-4b4d-4652-a489-1254eb9d4c80"},"vehicle_type_id":"4","last_reported":1761225882,"current_range_meters":8400,"station_id":"","pricing_plan_id":"cebpf4jnsgd1na2vs0mg"},{"bike_id":"f2796e65-a463-47f0-9b45-1c330c8aa109","system_id":"levelo_inurba_marseille","lat":43.22556,"lon":5.41631,"is_reserved":false,"is_disabled":false,"rental_uris":{"android":"levelo://app?vid=f2796e65-a463-47f0-9b45-1c330c8aa109","ios":"levelo://app?vid=f2796e65-a463-47f0-9b45-1c330c8aa109"},"vehicle_type_id":"4","last_reported":1761225882,"current_range_meters":8400,"station_id":"st_d2o4gvlbi1j2169b742g","pricing_plan_id":"cebpf4jnsgd1na2vs0mg"},{"bike_id":"0236cf10-6016-4a1c-b592-7908c9ad9ffd","system_id":"levelo_inurba_marseille","lat":43.30906,"lon":5.36843,"is_reserved":false,"is_disabled":false,"rental_uris":{"android":"levelo://app?vid=0236cf10-6016-4a1c-b592-7908c9ad9ffd","ios":"levelo://app?vid=0236cf10-6016-4a1c-b592-7908c9ad9ffd"},"vehicle_type_id":"4","last_reported":1761225882,"current_range_meters":8800,"station_id":"ce4bgn92rcd13ifvqbvg","pricing_plan_id":"cebpf4jnsgd1na2vs0mg"},{"bike_id":"6cedbdd4-d4fa-45a0-a47a-6925bf95118c","system_id":"levelo_inurba_marseille","lat":43.22915,"lon":5.3538,"is_reserved":false,"is_disabled":false,"rental_uris":{"android":"levelo://app?vid=6cedbdd4-d4fa-45a0-a47a-6925bf95118c","ios":"levelo://app?vid=6cedbdd4-d4fa-45a0-a47a-6925bf95118c"},"vehicle_type_id":"4","last_reported":1761225882,"current_range_meters":8800,"station_id":"cpo3532slgdg3j2ikp40","pricing_plan_id":"cebpf4jnsgd1na2vs0mg"},{"bike_id":"674dc45f-4362-478e-9cf5-ebdacc18bb9f","system_id":"levelo_inurba_marseille","lat":43.317563,"lon":5.390223,"is_reserved":false,"is_disabled":false,"rental_uris":{"android":"levelo://app?vid=674dc45f-4362-478e-9cf5-ebdacc18bb9f","ios":"levelo://app?vid=674dc45f-4362-478e-9cf5-ebdacc18bb9f"},"vehicle_type_id":"4","last_reported":1761225882,"current_range_meters":8800,"station_id":"ce4bhqp2rcd13ifvqhng","pricing_plan_id":"cebpf4jnsgd1na2vs0mg"},{"bike_id":"9880e93c-d19c-40b1-b34a-e56695334737","system_id":"levelo_inurba_marseille","lat":43.30723,"lon":5.42455,"is_reserved":false,"is_disabled":false,"rental_uris":{"android":"levelo://app?vid=9880e93c-d19c-40b1-b34a-e56695334737","ios":"levelo://app?vid=9880e93c-d19c-40b1-b34a-e56695334737"},"vehicle_type_id":"4","last_reported":1761225882,"current_range_meters":8800,"station_id":"st_cvj6ca6bvosntc0bfgr0","pricing_plan_id":"cebpf4jnsgd1na2vs0mg"},{"bike_id":"bcb92d0e-60a8-4a2c-9c9f-5f875a39b8a9","system_id":"levelo_inurba_marseille","lat":43.29906,"lon":5.374756,"is_reserved":false,"is_disabled":false,"rental_uris":{"android":"levelo://app?vid=bcb92d0e-60a8-4a2c-9c9f-5f875a39b8a9","ios":"levelo://app?vid=bcb92d0e-60a8-4a2c-9c9f-5f875a39b8a9"},"vehicle_type_id":"4","last_reported":1761225882,"current_range_meters":9200,"station_id":"ce4bgjh2rcd13ifvqbg0","pricing_plan_id":"cebpf4jnsgd1na2vs0mg"},{"bike_id":"6a662624-d03e-45d5-964b-74ea5f67d032","system_id":"levelo_inurba_marseille","lat":43.31119,"lon":5.37769,"is_reserved":false,"is_disabled":false,"rental_uris":{"android":"levelo://app?vid=6a662624-d03e-45d5-964b-74ea5f67d032","ios":"levelo://app?vid=6a662624-d03e-45d5-964b-74ea5f67d032"},"vehicle_type_id":"4","last_reported":1761225882,"current_range_meters":9200,"station_id":"ce4bgt92rcd13ifvqcg0","pricing_plan_id":"cebpf4jnsgd1na2vs0mg"},{"bike_id":"3aa8c3e6-230d-4538-ac39-2b944611f536","system_id":"levelo_inurba_marseille","lat":43.31353,"lon":5.36727,"is_reserved":false,"is_disabled":true,"rental_uris":{"android":"levelo://app?vid=3aa8c3e6-230d-4538-ac39-2b944611f536","ios":"levelo://app?vid=3aa8c3e6-230d-4538-ac39-2b944611f536"},"vehicle_type_id":"4","last_reported":1761225882,"current_range_meters":9200,"station_id":"ce4bgr92rcd13ifvqc6g","pricing_plan_id":"cebpf4jnsgd1na2vs0mg"},{"bike_id":"79823909-5d44-4b1b-8746-6df2484eafb4","system_id":"levelo_inurba_marseille","lat":43.21189,"lon":5.350767,"is_reserved":false,"is_disabled":false,"rental_uris":{"android":"levelo://app?vid=79823909-5d44-4b1b-8746-6df2484eafb4","ios":"levelo://app?vid=79823909-5d44-4b1b-8746-6df2484eafb4"},"vehicle_type_id":"4","last_reported":1761225882,"current_range_meters":9600,"station_id":"","pricing_plan_id":"cebpf4jnsgd1na2vs0mg"},{"bike_id":"6fca8536-ed10-4afd-b9cd-9adfe94f9ff3","system_id":"levelo_inurba_marseille","lat":43.289995,"lon":5.4258,"is_reserved":false,"is_disabled":false,"rental_uris":{"android":"levelo://app?vid=6fca8536-ed10-4afd-b9cd-9adfe94f9ff3","ios":"levelo://app?vid=6fca8536-ed10-4afd-b9cd-9adfe94f9ff3"},"vehicle_type_id":"4","last_reported":1761225882,"current_range_meters":9600,"station_id":"","pricing_plan_id":"cebpf4jnsgd1na2vs0mg"},{"bike_id":"639400a2-47b9-43a2-b48e-228f9af8942e","system_id":"levelo_inurba_marseille","lat":43.29602,"lon":5.38107,"is_reserved":false,"is_disabled":false,"rental_uris":{"android":"levelo://app?vid=639400a2-47b9-43a2-b48e-228f9af8942e","ios":"levelo://app?vid=639400a2-47b9-43a2-b48e-228f9af8942e"},"vehicle_type_id":"4","last_reported":1761225882,"current_range_meters":9600,"station_id":"ce4bgl12rcd13ifvqbo0","pricing_plan_id":"cebpf4jnsgd1na2vs0mg"},{"bike_id":"1656396b-ce0e-470e-9f40-d432e00c8827","system_id":"levelo_inurba_marseille","lat":43.29607,"lon":5.40498,"is_reserved":false,"is_disabled":false,"rental_uris":{"android":"levelo://app?vid=1656396b-ce0e-470e-9f40-d432e00c8827","ios":"levelo://app?vid=1656396b-ce0e-470e-9f40-d432e00c8827"},"vehicle_type_id":"4","last_reported":1761225882,"current_range_meters":10000,"station_id":"","pricing_plan_id":"cebpf4jnsgd1na2vs0mg"},{"bike_id":"9870a68d-ae62-4bec-82c3-a7443a850bdc","system_id":"levelo_inurba_marseille","lat":43.31293,"lon":5.37766,"is_reserved":false,"is_disabled":false,"rental_uris":{"android":"levelo://app?vid=9870a68d-ae62-4bec-82c3-a7443a850bdc","ios":"levelo://app?vid=9870a68d-ae62-4bec-82c3-a7443a850bdc"},"vehicle_type_id":"4","last_reported":1761225882,"current_range_meters":10000,"station_id":"","pricing_plan_id":"cebpf4jnsgd1na2vs0mg"},{"bike_id":"30a1d500-aca8-4c5e-acd0-b63557fd5007","system_id":"levelo_inurba_marseille","lat":43.29797,"lon":5.40398,"is_reserved":false,"is_disabled":false,"rental_uris":{"android":"levelo://app?vid=30a1d500-aca8-4c5e-acd0-b63557fd5007","ios":"levelo://app?vid=30a1d500-aca8-4c5e-acd0-b63557fd5007"},"vehicle_type_id":"4","last_reported":1761225882,"current_range_meters":10000,"station_id":"ce4bh112rcd13ifvqd90","pricing_plan_id":"cebpf4jnsgd1na2vs0mg"},{"bike_id":"01e2ce94-a83a-490b-b0ad-377ad874c529","system_id":"levelo_inurba_marseille","lat":43.29594,"lon":5.38106,"is_reserved":false,"is_disabled":false,"rental_uris":{"android":"levelo://app?vid=01e2ce94-a83a-490b-b0ad-377ad874c529","ios":"levelo://app?vid=01e2ce94-a83a-490b-b0ad-377ad874c529"},"vehicle_type_id":"4","last_reported":1761225882,"current_range_meters":10000,"station_id":"ce4bgl12rcd13ifvqbo0","pricing_plan_id":"cebpf4jnsgd1na2vs0mg"},{"bike_id":"a59d1231-e47a-4dfa-9065-4acedf359f8f","system_id":"levelo_inurba_marseille","lat":43.21743,"lon":5.34613,"is_reserved":false,"is_disabled":false,"rental_uris":{"android":"levelo://app?vid=a59d1231-e47a-4dfa-9065-4acedf359f8f","ios":"levelo://app?vid=a59d1231-e47a-4dfa-9065-4acedf359f8f"},"vehicle_type_id":"4","last_reported":1761225882,"current_range_meters":10000,"station_id":"","pricing_plan_id":"cebpf4jnsgd1na2vs0mg"},{"bike_id":"3cf342c5-4ffa-4d01-bb4e-27e4d6a0daf3","system_id":"levelo_inurba_marseille","lat":43.30884,"lon":5.39655,"is_reserved":false,"is_disabled":false,"rental_uris":{"android":"levelo://app?vid=3cf342c5-4ffa-4d01-bb4e-27e4d6a0daf3","ios":"levelo://app?vid=3cf342c5-4ffa-4d01-bb4e-27e4d6a0daf3"},"vehicle_type_id":"4","last_reported":1761225882,"current_range_meters":10000,"station_id":"ce4bh012rcd13ifvqcv0","pricing_plan_id":"cebpf4jnsgd1na2vs0mg"},{"bike_id":"07e992db-48e1-481b-a50e-3b491cfc1455","system_id":"levelo_inurba_marseille","lat":43.31991,"lon":5.41291,"is_reserved":false,"is_disabled":false,"rental_uris":{"android":"levelo://app?vid=07e992db-48e1-481b-a50e-3b491cfc1455","ios":"levelo://app?vid=07e992db-48e1-481b-a50e-3b491cfc1455"},"vehicle_type_id":"4","last_reported":1761225882,"current_range_meters":10000,"station_id":"","pricing_plan_id":"cebpf4jnsgd1na2vs0mg"},{"bike_id":"4eae2ec4-8862-466e-a3d9-395cca4276d0","system_id":"levelo_inurba_marseille","lat":43.30386,"lon":5.37577,"is_reserved":false,"is_disabled":false,"rental_uris":{"android":"levelo://app?vid=4eae2ec4-8862-466e-a3d9-395cca4276d0","ios":"levelo://app?vid=4eae2ec4-8862-466e-a3d9-395cca4276d0"},"vehicle_type_id":"4","last_reported":1761225882,"current_range_meters":10000,"station_id":"","pricing_plan_id":"cebpf4jnsgd1na2vs0mg"},{"bike_id":"7dc3a787-7b14-4505-8e32-0b28349ba8b9","system_id":"levelo_inurba_marseille","lat":43.287063,"lon":5.362525,"is_reserved":false,"is_disabled":false,"rental_uris":{"android":"levelo://app?vid=7dc3a787-7b14-4505-8e32-0b28349ba8b9","ios":"levelo://app?vid=7dc3a787-7b14-4505-8e32-0b28349ba8b9"},"vehicle_type_id":"4","last_reported":1761225882,"current_range_meters":10800,"station_id":"","pricing_plan_id":"cebpf4jnsgd1na2vs0mg"},{"bike_id":"41043def-8b44-47d2-b6b5-58f8bebf94bf","system_id":"levelo_inurba_marseille","lat":43.2953,"lon":5.38541,"is_reserved":false,"is_disabled":false,"rental_uris":{"android":"levelo://app?vid=41043def-8b44-47d2-b6b5-58f8bebf94bf","ios":"levelo://app?vid=41043def-8b44-47d2-b6b5-58f8bebf94bf"},"vehicle_type_id":"4","last_reported":1761225882,"current_range_meters":10800,"station_id":"ce4bgih2rcd13ifvqba0","pricing_plan_id":"cebpf4jnsgd1na2vs0mg"},{"bike_id":"81577a15-49bb-41f7-993a-e8281d8d28d1","system_id":"levelo_inurba_marseille","lat":43.30303,"lon":5.36896,"is_reserved":false,"is_disabled":false,"rental_uris":{"android":"levelo://app?vid=81577a15-49bb-41f7-993a-e8281d8d28d1","ios":"levelo://app?vid=81577a15-49bb-41f7-993a-e8281d8d28d1"},"vehicle_type_id":"4","last_reported":1761225882,"current_range_meters":10800,"station_id":"ce4bgqh2rcd13ifvqc5g","pricing_plan_id":"cebpf4jnsgd1na2vs0mg"},{"bike_id":"4b1e4573-b069-454e-ae34-7bec0cfb0500","system_id":"levelo_inurba_marseille","lat":43.30302,"lon":5.36912,"is_reserved":false,"is_disabled":false,"rental_uris":{"android":"levelo://app?vid=4b1e4573-b069-454e-ae34-7bec0cfb0500","ios":"levelo://app?vid=4b1e4573-b069-454e-ae34-7bec0cfb0500"},"vehicle_type_id":"4","last_reported":1761225882,"current_range_meters":10800,"station_id":"ce4bgqh2rcd13ifvqc5g","pricing_plan_id":"cebpf4jnsgd1na2vs0mg"},{"bike_id":"c8c0fa58-a519-4343-9887-b0c694f93aef","system_id":"levelo_inurba_marseille","lat":43.288619,"lon":5.425115,"is_reserved":false,"is_disabled":false,"rental_uris":{"android":"levelo://app?vid=c8c0fa58-a519-4343-9887-b0c694f93aef","ios":"levelo://app?vid=c8c0fa58-a519-4343-9887-b0c694f93aef"},"vehicle_type_id":"4","last_reported":1761225882,"current_range_meters":11200,"station_id":"st_d3b462108ojc7389ooeg","pricing_plan_id":"cebpf4jnsgd1na2vs0mg"},{"bike_id":"3268f781-dd32-4603-9120-2d79ee63810d","system_id":"levelo_inurba_marseille","lat":43.2329,"lon":5.43602,"is_reserved":false,"is_disabled":false,"rental_uris":{"android":"levelo://app?vid=3268f781-dd32-4603-9120-2d79ee63810d","ios":"levelo://app?vid=3268f781-dd32-4603-9120-2d79ee63810d"},"vehicle_type_id":"4","last_reported":1761225882,"current_range_meters":11200,"station_id":"","pricing_plan_id":"cebpf4jnsgd1na2vs0mg"},{"bike_id":"9c849e39-a6fd-4835-a369-b2263148b810","system_id":"levelo_inurba_marseille","lat":43.27565,"lon":5.38424,"is_reserved":false,"is_disabled":false,"rental_uris":{"android":"levelo://app?vid=9c849e39-a6fd-4835-a369-b2263148b810","ios":"levelo://app?vid=9c849e39-a6fd-4835-a369-b2263148b810"},"vehicle_type_id":"4","last_reported":1761225882,"current_range_meters":11200,"station_id":"ce4bhh92rcd13ifvqfi0","pricing_plan_id":"cebpf4jnsgd1na2vs0mg"},{"bike_id":"61525fe3-26d4-4c5c-a075-e59599c296c4","system_id":"levelo_inurba_marseille","lat":43.31439,"lon":5.39295,"is_reserved":false,"is_disabled":false,"rental_uris":{"android":"levelo://app?vid=61525fe3-26d4-4c5c-a075-e59599c296c4","ios":"levelo://app?vid=61525fe3-26d4-4c5c-a075-e59599c296c4"},"vehicle_type_id":"4","last_reported":1761225882,"current_range_meters":11600,"station_id":"","pricing_plan_id":"cebpf4jnsgd1na2vs0mg"},{"bike_id":"0657eab5-8b3b-4389-aff4-ca7eb44108d7","system_id":"levelo_inurba_marseille","lat":43.30132,"lon":5.37421,"is_reserved":false,"is_disabled":false,"rental_uris":{"android":"levelo://app?vid=0657eab5-8b3b-4389-aff4-ca7eb44108d7","ios":"levelo://app?vid=0657eab5-8b3b-4389-aff4-ca7eb44108d7"},"vehicle_type_id":"4","last_reported":1761225882,"current_range_meters":11600,"station_id":"ce4bgs92rcd13ifvqcc0","pricing_plan_id":"cebpf4jnsgd1na2vs0mg"},{"bike_id":"1a1bbb55-8abe-4688-9206-5fcccd1f49f0","system_id":"levelo_inurba_marseille","lat":43.24385,"lon":5.3706,"is_reserved":false,"is_disabled":false,"rental_uris":{"android":"levelo://app?vid=1a1bbb55-8abe-4688-9206-5fcccd1f49f0","ios":"levelo://app?vid=1a1bbb55-8abe-4688-9206-5fcccd1f49f0"},"vehicle_type_id":"4","last_reported":1761225882,"current_range_meters":11600,"station_id":"ce4bhhh2rcd13ifvqfk0","pricing_plan_id":"cebpf4jnsgd1na2vs0mg"},{"bike_id":"32e7919e-26d8-4f7d-b229-086147816fa4","system_id":"levelo_inurba_marseille","lat":43.301286,"lon":5.38775,"is_reserved":false,"is_disabled":false,"rental_uris":{"android":"levelo://app?vid=32e7919e-26d8-4f7d-b229-086147816fa4","ios":"levelo://app?vid=32e7919e-26d8-4f7d-b229-086147816fa4"},"vehicle_type_id":"4","last_reported":1761225882,"current_range_meters":12000,"station_id":"","pricing_plan_id":"cebpf4jnsgd1na2vs0mg"},{"bike_id":"b47656b5-24c6-4cdc-ad67-1d843e8edbeb","system_id":"levelo_inurba_marseille","lat":43.30715,"lon":5.42436,"is_reserved":false,"is_disabled":false,"rental_uris":{"android":"levelo://app?vid=b47656b5-24c6-4cdc-ad67-1d843e8edbeb","ios":"levelo://app?vid=b47656b5-24c6-4cdc-ad67-1d843e8edbeb"},"vehicle_type_id":"4","last_reported":1761225882,"current_range_meters":12000,"station_id":"st_cvj6ca6bvosntc0bfgr0","pricing_plan_id":"cebpf4jnsgd1na2vs0mg"},{"bike_id":"d7532202-9394-466d-a567-8c735584011c","system_id":"levelo_inurba_marseille","lat":43.31264,"lon":5.40178,"is_reserved":false,"is_disabled":false,"rental_uris":{"android":"levelo://app?vid=d7532202-9394-466d-a567-8c735584011c","ios":"levelo://app?vid=d7532202-9394-466d-a567-8c735584011c"},"vehicle_type_id":"4","last_reported":1761225882,"current_range_meters":12000,"station_id":"ce4bh092rcd13ifvqd30","pricing_plan_id":"cebpf4jnsgd1na2vs0mg"},{"bike_id":"56880329-4c76-4c4e-84a7-3c605e225585","system_id":"levelo_inurba_marseille","lat":43.33711,"lon":5.39204,"is_reserved":false,"is_disabled":false,"rental_uris":{"android":"levelo://app?vid=56880329-4c76-4c4e-84a7-3c605e225585","ios":"levelo://app?vid=56880329-4c76-4c4e-84a7-3c605e225585"},"vehicle_type_id":"4","last_reported":1761225882,"current_range_meters":12400,"station_id":"ce4bhr92rcd13ifvqhsg","pricing_plan_id":"cebpf4jnsgd1na2vs0mg"},{"bike_id":"e1310119-084d-44e2-8ac3-cacd41cd03ec","system_id":"levelo_inurba_marseille","lat":43.30145,"lon":5.37411,"is_reserved":false,"is_disabled":false,"rental_uris":{"android":"levelo://app?vid=e1310119-084d-44e2-8ac3-cacd41cd03ec","ios":"levelo://app?vid=e1310119-084d-44e2-8ac3-cacd41cd03ec"},"vehicle_type_id":"4","last_reported":1761225882,"current_range_meters":12400,"station_id":"ce4bgs92rcd13ifvqcc0","pricing_plan_id":"cebpf4jnsgd1na2vs0mg"},{"bike_id":"55c89a62-3c46-4a12-8013-c48006e4bafb","system_id":"levelo_inurba_marseille","lat":43.24949,"lon":5.40485,"is_reserved":false,"is_disabled":false,"rental_uris":{"android":"levelo://app?vid=55c89a62-3c46-4a12-8013-c48006e4bafb","ios":"levelo://app?vid=55c89a62-3c46-4a12-8013-c48006e4bafb"},"vehicle_type_id":"4","last_reported":1761225882,"current_range_meters":12400,"station_id":"st_d2ngiaodas8pm72gd1h0","pricing_plan_id":"cebpf4jnsgd1na2vs0mg"},{"bike_id":"29988c49-ca4f-4331-8f7b-108f15dfacdc","system_id":"levelo_inurba_marseille","lat":43.30547,"lon":5.36708,"is_reserved":false,"is_disabled":false,"rental_uris":{"android":"levelo://app?vid=29988c49-ca4f-4331-8f7b-108f15dfacdc","ios":"levelo://app?vid=29988c49-ca4f-4331-8f7b-108f15dfacdc"},"vehicle_type_id":"4","last_reported":1761225882,"current_range_meters":12400,"station_id":"ce4bgrp2rcd13ifvqc9g","pricing_plan_id":"cebpf4jnsgd1na2vs0mg"},{"bike_id":"1aaa028d-93d8-4a20-8355-7a4b17d8620a","system_id":"levelo_inurba_marseille","lat":43.27634,"lon":5.39213,"is_reserved":false,"is_disabled":false,"rental_uris":{"android":"levelo://app?vid=1aaa028d-93d8-4a20-8355-7a4b17d8620a","ios":"levelo://app?vid=1aaa028d-93d8-4a20-8355-7a4b17d8620a"},"vehicle_type_id":"4","last_reported":1761225882,"current_range_meters":12400,"station_id":"","pricing_plan_id":"cebpf4jnsgd1na2vs0mg"},{"bike_id":"44664348-f252-4c82-9b26-effddc407988","system_id":"levelo_inurba_marseille","lat":43.305176,"lon":5.391192,"is_reserved":false,"is_disabled":false,"rental_uris":{"android":"levelo://app?vid=44664348-f252-4c82-9b26-effddc407988","ios":"levelo://app?vid=44664348-f252-4c82-9b26-effddc407988"},"vehicle_type_id":"4","last_reported":1761225882,"current_range_meters":12400,"station_id":"ce4bgk12rcd13ifvqbi0","pricing_plan_id":"cebpf4jnsgd1na2vs0mg"},{"bike_id":"171d14e6-186c-464c-b27a-21d0a8106450","system_id":"levelo_inurba_marseille","lat":43.30938,"lon":5.40144,"is_reserved":false,"is_disabled":false,"rental_uris":{"android":"levelo://app?vid=171d14e6-186c-464c-b27a-21d0a8106450","ios":"levelo://app?vid=171d14e6-186c-464c-b27a-21d0a8106450"},"vehicle_type_id":"4","last_reported":1761225882,"current_range_meters":12400,"station_id":"ce4bgvp2rcd13ifvqct0","pricing_plan_id":"cebpf4jnsgd1na2vs0mg"},{"bike_id":"ea886e01-8738-4e9f-8316-33a3ef2f4c84","system_id":"levelo_inurba_marseille","lat":43.26782,"lon":5.39432,"is_reserved":false,"is_disabled":false,"rental_uris":{"android":"levelo://app?vid=ea886e01-8738-4e9f-8316-33a3ef2f4c84","ios":"levelo://app?vid=ea886e01-8738-4e9f-8316-33a3ef2f4c84"},"vehicle_type_id":"4","last_reported":1761225882,"current_range_meters":12800,"station_id":"ce4bhh12rcd13ifvqfg0","pricing_plan_id":"cebpf4jnsgd1na2vs0mg"},{"bike_id":"0198280f-05b0-401c-b9f2-7586dff77353","system_id":"levelo_inurba_marseille","lat":43.288966,"lon":5.377963,"is_reserved":false,"is_disabled":false,"rental_uris":{"android":"levelo://app?vid=0198280f-05b0-401c-b9f2-7586dff77353","ios":"levelo://app?vid=0198280f-05b0-401c-b9f2-7586dff77353"},"vehicle_type_id":"4","last_reported":1761225882,"current_range_meters":12800,"station_id":"","pricing_plan_id":"cebpf4jnsgd1na2vs0mg"},{"bike_id":"2a22829e-2bd6-41ec-a3e5-ef826e7425d3","system_id":"levelo_inurba_marseille","lat":43.32185,"lon":5.367,"is_reserved":false,"is_disabled":false,"rental_uris":{"android":"levelo://app?vid=2a22829e-2bd6-41ec-a3e5-ef826e7425d3","ios":"levelo://app?vid=2a22829e-2bd6-41ec-a3e5-ef826e7425d3"},"vehicle_type_id":"4","last_reported":1761225882,"current_range_meters":12800,"station_id":"ce4bhrh2rcd13ifvqhug","pricing_plan_id":"cebpf4jnsgd1na2vs0mg"},{"bike_id":"d819051f-2277-4d13-a29b-1adbd6fc934e","system_id":"levelo_inurba_marseille","lat":43.33024,"lon":5.39042,"is_reserved":false,"is_disabled":false,"rental_uris":{"android":"levelo://app?vid=d819051f-2277-4d13-a29b-1adbd6fc934e","ios":"levelo://app?vid=d819051f-2277-4d13-a29b-1adbd6fc934e"},"vehicle_type_id":"4","last_reported":1761225882,"current_range_meters":12800,"station_id":"ce4bhr92rcd13ifvqhrg","pricing_plan_id":"cebpf4jnsgd1na2vs0mg"},{"bike_id":"4d5effe9-a17d-4657-b20f-ef3810eac033","system_id":"levelo_inurba_marseille","lat":43.30311,"lon":5.369064,"is_reserved":false,"is_disabled":false,"rental_uris":{"android":"levelo://app?vid=4d5effe9-a17d-4657-b20f-ef3810eac033","ios":"levelo://app?vid=4d5effe9-a17d-4657-b20f-ef3810eac033"},"vehicle_type_id":"4","last_reported":1761225882,"current_range_meters":12800,"station_id":"ce4bgqh2rcd13ifvqc5g","pricing_plan_id":"cebpf4jnsgd1na2vs0mg"},{"bike_id":"1d346b77-da9f-42f8-a3a8-135d8b3f85bb","system_id":"levelo_inurba_marseille","lat":43.295943,"lon":5.374093,"is_reserved":false,"is_disabled":false,"rental_uris":{"android":"levelo://app?vid=1d346b77-da9f-42f8-a3a8-135d8b3f85bb","ios":"levelo://app?vid=1d346b77-da9f-42f8-a3a8-135d8b3f85bb"},"vehicle_type_id":"4","last_reported":1761225882,"current_range_meters":12800,"station_id":"ce4bgkp2rcd13ifvqbmg","pricing_plan_id":"cebpf4jnsgd1na2vs0mg"},{"bike_id":"0322ca22-3727-41b5-86cb-6682292c28c8","system_id":"levelo_inurba_marseille","lat":43.30531,"lon":5.36705,"is_reserved":false,"is_disabled":false,"rental_uris":{"android":"levelo://app?vid=0322ca22-3727-41b5-86cb-6682292c28c8","ios":"levelo://app?vid=0322ca22-3727-41b5-86cb-6682292c28c8"},"vehicle_type_id":"4","last_reported":1761225882,"current_range_meters":13600,"station_id":"ce4bgrp2rcd13ifvqc9g","pricing_plan_id":"cebpf4jnsgd1na2vs0mg"},{"bike_id":"4b1dc27e-158e-4387-ac73-0bce646bc1a6","system_id":"levelo_inurba_marseille","lat":43.30996,"lon":5.39133,"is_reserved":false,"is_disabled":false,"rental_uris":{"android":"levelo://app?vid=4b1dc27e-158e-4387-ac73-0bce646bc1a6","ios":"levelo://app?vid=4b1dc27e-158e-4387-ac73-0bce646bc1a6"},"vehicle_type_id":"4","last_reported":1761225882,"current_range_meters":13600,"station_id":"ce4bgup2rcd13ifvqco0","pricing_plan_id":"cebpf4jnsgd1na2vs0mg"},{"bike_id":"24258377-e284-4bfe-a874-5b9fb2f2106a","system_id":"levelo_inurba_marseille","lat":43.29677,"lon":5.37285,"is_reserved":false,"is_disabled":false,"rental_uris":{"android":"levelo://app?vid=24258377-e284-4bfe-a874-5b9fb2f2106a","ios":"levelo://app?vid=24258377-e284-4bfe-a874-5b9fb2f2106a"},"vehicle_type_id":"4","last_reported":1761225882,"current_range_meters":13600,"station_id":"ce4bgk12rcd13ifvqbj0","pricing_plan_id":"cebpf4jnsgd1na2vs0mg"},{"bike_id":"bda3ed1a-3199-4eb8-8229-577855d09dbb","system_id":"levelo_inurba_marseille","lat":43.3163,"lon":5.37876,"is_reserved":false,"is_disabled":false,"rental_uris":{"android":"levelo://app?vid=bda3ed1a-3199-4eb8-8229-577855d09dbb","ios":"levelo://app?vid=bda3ed1a-3199-4eb8-8229-577855d09dbb"},"vehicle_type_id":"4","last_reported":1761225882,"current_range_meters":13600,"station_id":"","pricing_plan_id":"cebpf4jnsgd1na2vs0mg"},{"bike_id":"13ffca06-ecc4-46ee-aa82-6818647126c8","system_id":"levelo_inurba_marseille","lat":43.299,"lon":5.43684,"is_reserved":false,"is_disabled":false,"rental_uris":{"android":"levelo://app?vid=13ffca06-ecc4-46ee-aa82-6818647126c8","ios":"levelo://app?vid=13ffca06-ecc4-46ee-aa82-6818647126c8"},"vehicle_type_id":"4","last_reported":1761225882,"current_range_meters":13600,"station_id":"ce4bhpp2rcd13ifvqhfg","pricing_plan_id":"cebpf4jnsgd1na2vs0mg"},{"bike_id":"67ba687f-aa08-473d-bbec-1d803763ef79","system_id":"levelo_inurba_marseille","lat":43.30138,"lon":5.37429,"is_reserved":false,"is_disabled":false,"rental_uris":{"android":"levelo://app?vid=67ba687f-aa08-473d-bbec-1d803763ef79","ios":"levelo://app?vid=67ba687f-aa08-473d-bbec-1d803763ef79"},"vehicle_type_id":"4","last_reported":1761225882,"current_range_meters":13600,"station_id":"ce4bgs92rcd13ifvqcc0","pricing_plan_id":"cebpf4jnsgd1na2vs0mg"},{"bike_id":"f30d474c-592d-470d-816b-bf7526dcf767","system_id":"levelo_inurba_marseille","lat":43.30825,"lon":5.3812,"is_reserved":false,"is_disabled":false,"rental_uris":{"android":"levelo://app?vid=f30d474c-592d-470d-816b-bf7526dcf767","ios":"levelo://app?vid=f30d474c-592d-470d-816b-bf7526dcf767"},"vehicle_type_id":"4","last_reported":1761225882,"current_range_meters":14000,"station_id":"ce4bgt12rcd13ifvqce0","pricing_plan_id":"cebpf4jnsgd1na2vs0mg"},{"bike_id":"ccab4340-2062-416a-a942-7048c2ef9e13","system_id":"levelo_inurba_marseille","lat":43.297317,"lon":5.377015,"is_reserved":false,"is_disabled":false,"rental_uris":{"android":"levelo://app?vid=ccab4340-2062-416a-a942-7048c2ef9e13","ios":"levelo://app?vid=ccab4340-2062-416a-a942-7048c2ef9e13"},"vehicle_type_id":"4","last_reported":1761225882,"current_range_meters":14400,"station_id":"ce4bgkh2rcd13ifvqbl0","pricing_plan_id":"cebpf4jnsgd1na2vs0mg"},{"bike_id":"6b37a1b8-5eb3-475e-b683-fd0eb1dbf02a","system_id":"levelo_inurba_marseille","lat":43.24793,"lon":5.3746,"is_reserved":false,"is_disabled":false,"rental_uris":{"android":"levelo://app?vid=6b37a1b8-5eb3-475e-b683-fd0eb1dbf02a","ios":"levelo://app?vid=6b37a1b8-5eb3-475e-b683-fd0eb1dbf02a"},"vehicle_type_id":"4","last_reported":1761225882,"current_range_meters":14400,"station_id":"ce4bhgh2rcd13ifvqfb0","pricing_plan_id":"cebpf4jnsgd1na2vs0mg"},{"bike_id":"463555eb-c8ba-468d-9691-693d43753470","system_id":"levelo_inurba_marseille","lat":43.30503,"lon":5.3669,"is_reserved":false,"is_disabled":false,"rental_uris":{"android":"levelo://app?vid=463555eb-c8ba-468d-9691-693d43753470","ios":"levelo://app?vid=463555eb-c8ba-468d-9691-693d43753470"},"vehicle_type_id":"4","last_reported":1761225882,"current_range_meters":14400,"station_id":"","pricing_plan_id":"cebpf4jnsgd1na2vs0mg"},{"bike_id":"304f2ec7-1ddf-49bb-9b18-dedac26b37a4","system_id":"levelo_inurba_marseille","lat":43.29609,"lon":5.37732,"is_reserved":false,"is_disabled":false,"rental_uris":{"android":"levelo://app?vid=304f2ec7-1ddf-49bb-9b18-dedac26b37a4","ios":"levelo://app?vid=304f2ec7-1ddf-49bb-9b18-dedac26b37a4"},"vehicle_type_id":"4","last_reported":1761225882,"current_range_meters":14400,"station_id":"ce4bgi92rcd13ifvqb90","pricing_plan_id":"cebpf4jnsgd1na2vs0mg"},{"bike_id":"12f3f073-c041-4658-a7f4-1022f577aab2","system_id":"levelo_inurba_marseille","lat":43.305406,"lon":5.367065,"is_reserved":false,"is_disabled":false,"rental_uris":{"android":"levelo://app?vid=12f3f073-c041-4658-a7f4-1022f577aab2","ios":"levelo://app?vid=12f3f073-c041-4658-a7f4-1022f577aab2"},"vehicle_type_id":"4","last_reported":1761225882,"current_range_meters":14800,"station_id":"ce4bh3h2rcd13ifvqdn0","pricing_plan_id":"cebpf4jnsgd1na2vs0mg"},{"bike_id":"c38360e4-ef70-4662-9937-2c3cd00ac91f","system_id":"levelo_inurba_marseille","lat":43.308891,"lon":5.396507,"is_reserved":false,"is_disabled":false,"rental_uris":{"android":"levelo://app?vid=c38360e4-ef70-4662-9937-2c3cd00ac91f","ios":"levelo://app?vid=c38360e4-ef70-4662-9937-2c3cd00ac91f"},"vehicle_type_id":"4","last_reported":1761225882,"current_range_meters":14800,"station_id":"ce4bh012rcd13ifvqcv0","pricing_plan_id":"cebpf4jnsgd1na2vs0mg"},{"bike_id":"24a11c21-7b10-418d-bff0-9d96ea02cfae","system_id":"levelo_inurba_marseille","lat":43.30783,"lon":5.37646,"is_reserved":false,"is_disabled":true,"rental_uris":{"android":"levelo://app?vid=24a11c21-7b10-418d-bff0-9d96ea02cfae","ios":"levelo://app?vid=24a11c21-7b10-418d-bff0-9d96ea02cfae"},"vehicle_type_id":"4","last_reported":1761225882,"current_range_meters":14800,"station_id":"ce4bgv92rcd13ifvqcq0","pricing_plan_id":"cebpf4jnsgd1na2vs0mg"},{"bike_id":"8408400b-d3c5-4b6c-a35e-62f3d01f19bb","system_id":"levelo_inurba_marseille","lat":43.30591,"lon":5.3936,"is_reserved":false,"is_disabled":false,"rental_uris":{"android":"levelo://app?vid=8408400b-d3c5-4b6c-a35e-62f3d01f19bb","ios":"levelo://app?vid=8408400b-d3c5-4b6c-a35e-62f3d01f19bb"},"vehicle_type_id":"4","last_reported":1761225882,"current_range_meters":14800,"station_id":"ce4bh0p2rcd13ifvqd80","pricing_plan_id":"cebpf4jnsgd1na2vs0mg"},{"bike_id":"8bcacd78-80de-4026-af75-b37ebe3030fe","system_id":"levelo_inurba_marseille","lat":43.334756,"lon":5.404255,"is_reserved":false,"is_disabled":false,"rental_uris":{"android":"levelo://app?vid=8bcacd78-80de-4026-af75-b37ebe3030fe","ios":"levelo://app?vid=8bcacd78-80de-4026-af75-b37ebe3030fe"},"vehicle_type_id":"4","last_reported":1761225882,"current_range_meters":15200,"station_id":"","pricing_plan_id":"cebpf4jnsgd1na2vs0mg"},{"bike_id":"b284a5b8-145b-4b18-970a-f541b5c0ebef","system_id":"levelo_inurba_marseille","lat":43.285521,"lon":5.394305,"is_reserved":false,"is_disabled":false,"rental_uris":{"android":"levelo://app?vid=b284a5b8-145b-4b18-970a-f541b5c0ebef","ios":"levelo://app?vid=b284a5b8-145b-4b18-970a-f541b5c0ebef"},"vehicle_type_id":"4","last_reported":1761225882,"current_range_meters":15200,"station_id":"","pricing_plan_id":"cebpf4jnsgd1na2vs0mg"},{"bike_id":"e0c02829-f31e-4937-a68d-3e595f948e1a","system_id":"levelo_inurba_marseille","lat":43.29617,"lon":5.37721,"is_reserved":false,"is_disabled":false,"rental_uris":{"android":"levelo://app?vid=e0c02829-f31e-4937-a68d-3e595f948e1a","ios":"levelo://app?vid=e0c02829-f31e-4937-a68d-3e595f948e1a"},"vehicle_type_id":"4","last_reported":1761225882,"current_range_meters":15200,"station_id":"ce4bgi92rcd13ifvqb90","pricing_plan_id":"cebpf4jnsgd1na2vs0mg"},{"bike_id":"7dd4584b-3f01-4bbc-80e1-7645d693be1d","system_id":"levelo_inurba_marseille","lat":43.34137,"lon":5.40897,"is_reserved":false,"is_disabled":false,"rental_uris":{"android":"levelo://app?vid=7dd4584b-3f01-4bbc-80e1-7645d693be1d","ios":"levelo://app?vid=7dd4584b-3f01-4bbc-80e1-7645d693be1d"},"vehicle_type_id":"4","last_reported":1761225882,"current_range_meters":15200,"station_id":"ce4bhqh2rcd13ifvqhlg","pricing_plan_id":"cebpf4jnsgd1na2vs0mg"},{"bike_id":"e769906a-6115-425c-84a0-aab1fda48d3f","system_id":"levelo_inurba_marseille","lat":43.29656,"lon":5.37588,"is_reserved":false,"is_disabled":false,"rental_uris":{"android":"levelo://app?vid=e769906a-6115-425c-84a0-aab1fda48d3f","ios":"levelo://app?vid=e769906a-6115-425c-84a0-aab1fda48d3f"},"vehicle_type_id":"4","last_reported":1761225882,"current_range_meters":16000,"station_id":"","pricing_plan_id":"cebpf4jnsgd1na2vs0mg"},{"bike_id":"cb488cbf-7edd-42a4-95b7-bed13e3c2dc4","system_id":"levelo_inurba_marseille","lat":43.31116,"lon":5.37759,"is_reserved":false,"is_disabled":false,"rental_uris":{"android":"levelo://app?vid=cb488cbf-7edd-42a4-95b7-bed13e3c2dc4","ios":"levelo://app?vid=cb488cbf-7edd-42a4-95b7-bed13e3c2dc4"},"vehicle_type_id":"4","last_reported":1761225882,"current_range_meters":16000,"station_id":"ce4bgt92rcd13ifvqcg0","pricing_plan_id":"cebpf4jnsgd1na2vs0mg"},{"bike_id":"b9764ed2-f91a-421e-b54e-d7527bd8af22","system_id":"levelo_inurba_marseille","lat":43.29811,"lon":5.36588,"is_reserved":false,"is_disabled":false,"rental_uris":{"android":"levelo://app?vid=b9764ed2-f91a-421e-b54e-d7527bd8af22","ios":"levelo://app?vid=b9764ed2-f91a-421e-b54e-d7527bd8af22"},"vehicle_type_id":"4","last_reported":1761225882,"current_range_meters":16000,"station_id":"","pricing_plan_id":"cebpf4jnsgd1na2vs0mg"},{"bike_id":"b07fbe52-3285-4a47-a46c-2703fcf0b9f1","system_id":"levelo_inurba_marseille","lat":43.28024,"lon":5.36952,"is_reserved":false,"is_disabled":false,"rental_uris":{"android":"levelo://app?vid=b07fbe52-3285-4a47-a46c-2703fcf0b9f1","ios":"levelo://app?vid=b07fbe52-3285-4a47-a46c-2703fcf0b9f1"},"vehicle_type_id":"4","last_reported":1761225882,"current_range_meters":16000,"station_id":"ce4bha12rcd13ifvqef0","pricing_plan_id":"cebpf4jnsgd1na2vs0mg"},{"bike_id":"37505258-1093-41de-8a20-3e36ecdaebef","system_id":"levelo_inurba_marseille","lat":43.29267,"lon":5.36846,"is_reserved":false,"is_disabled":false,"rental_uris":{"android":"levelo://app?vid=37505258-1093-41de-8a20-3e36ecdaebef","ios":"levelo://app?vid=37505258-1093-41de-8a20-3e36ecdaebef"},"vehicle_type_id":"4","last_reported":1761225882,"current_range_meters":16400,"station_id":"ce4bhbp2rcd13ifvqesg","pricing_plan_id":"cebpf4jnsgd1na2vs0mg"},{"bike_id":"b4e2875b-25b8-4267-9bc2-ba9894cf86b0","system_id":"levelo_inurba_marseille","lat":43.28221,"lon":5.39075,"is_reserved":false,"is_disabled":false,"rental_uris":{"android":"levelo://app?vid=b4e2875b-25b8-4267-9bc2-ba9894cf86b0","ios":"levelo://app?vid=b4e2875b-25b8-4267-9bc2-ba9894cf86b0"},"vehicle_type_id":"4","last_reported":1761225882,"current_range_meters":16400,"station_id":"ce4bhn92rcd13ifvqgsg","pricing_plan_id":"cebpf4jnsgd1na2vs0mg"},{"bike_id":"a68a710e-50a9-4c86-b346-9ac86f174983","system_id":"levelo_inurba_marseille","lat":43.30284,"lon":5.37699,"is_reserved":false,"is_disabled":false,"rental_uris":{"android":"levelo://app?vid=a68a710e-50a9-4c86-b346-9ac86f174983","ios":"levelo://app?vid=a68a710e-50a9-4c86-b346-9ac86f174983"},"vehicle_type_id":"4","last_reported":1761225882,"current_range_meters":16400,"station_id":"ce4bguh2rcd13ifvqcj0","pricing_plan_id":"cebpf4jnsgd1na2vs0mg"},{"bike_id":"52c8ff87-f1d4-4a2d-aaab-a6fa5ba72454","system_id":"levelo_inurba_marseille","lat":43.307316,"lon":5.424445,"is_reserved":false,"is_disabled":false,"rental_uris":{"android":"levelo://app?vid=52c8ff87-f1d4-4a2d-aaab-a6fa5ba72454","ios":"levelo://app?vid=52c8ff87-f1d4-4a2d-aaab-a6fa5ba72454"},"vehicle_type_id":"4","last_reported":1761225882,"current_range_meters":16400,"station_id":"st_cvj6ca6bvosntc0bfgr0","pricing_plan_id":"cebpf4jnsgd1na2vs0mg"},{"bike_id":"3c473905-25d9-4b81-b6e9-f094d3554e55","system_id":"levelo_inurba_marseille","lat":43.22937,"lon":5.353766,"is_reserved":false,"is_disabled":false,"rental_uris":{"android":"levelo://app?vid=3c473905-25d9-4b81-b6e9-f094d3554e55","ios":"levelo://app?vid=3c473905-25d9-4b81-b6e9-f094d3554e55"},"vehicle_type_id":"4","last_reported":1761225882,"current_range_meters":16400,"station_id":"cpo3532slgdg3j2ikp40","pricing_plan_id":"cebpf4jnsgd1na2vs0mg"},{"bike_id":"ab142d5b-a631-4b39-9d0a-6a841897b389","system_id":"levelo_inurba_marseille","lat":43.26772,"lon":5.39422,"is_reserved":false,"is_disabled":false,"rental_uris":{"android":"levelo://app?vid=ab142d5b-a631-4b39-9d0a-6a841897b389","ios":"levelo://app?vid=ab142d5b-a631-4b39-9d0a-6a841897b389"},"vehicle_type_id":"4","last_reported":1761225882,"current_range_meters":16800,"station_id":"ce4bhh12rcd13ifvqfg0","pricing_plan_id":"cebpf4jnsgd1na2vs0mg"},{"bike_id":"96939117-35ce-41f0-9af0-fcff4726b36a","system_id":"levelo_inurba_marseille","lat":43.30376,"lon":5.42486,"is_reserved":false,"is_disabled":false,"rental_uris":{"android":"levelo://app?vid=96939117-35ce-41f0-9af0-fcff4726b36a","ios":"levelo://app?vid=96939117-35ce-41f0-9af0-fcff4726b36a"},"vehicle_type_id":"4","last_reported":1761225882,"current_range_meters":16800,"station_id":"ce4bhoh2rcd13ifvqh6g","pricing_plan_id":"cebpf4jnsgd1na2vs0mg"},{"bike_id":"2172ef7f-240b-4c72-bf8d-26c79cc1f73d","system_id":"levelo_inurba_marseille","lat":43.299027,"lon":5.436668,"is_reserved":false,"is_disabled":false,"rental_uris":{"android":"levelo://app?vid=2172ef7f-240b-4c72-bf8d-26c79cc1f73d","ios":"levelo://app?vid=2172ef7f-240b-4c72-bf8d-26c79cc1f73d"},"vehicle_type_id":"4","last_reported":1761225882,"current_range_meters":16800,"station_id":"ce4bhpp2rcd13ifvqhfg","pricing_plan_id":"cebpf4jnsgd1na2vs0mg"},{"bike_id":"3e4783b6-28d8-4737-a4ef-6a1b0da02476","system_id":"levelo_inurba_marseille","lat":43.294482,"lon":5.407193,"is_reserved":false,"is_disabled":false,"rental_uris":{"android":"levelo://app?vid=3e4783b6-28d8-4737-a4ef-6a1b0da02476","ios":"levelo://app?vid=3e4783b6-28d8-4737-a4ef-6a1b0da02476"},"vehicle_type_id":"4","last_reported":1761225882,"current_range_meters":16800,"station_id":"","pricing_plan_id":"cebpf4jnsgd1na2vs0mg"},{"bike_id":"a5e10cb3-d280-4b4c-8176-279276f1fb2a","system_id":"levelo_inurba_marseille","lat":43.2511,"lon":5.40325,"is_reserved":false,"is_disabled":false,"rental_uris":{"android":"levelo://app?vid=a5e10cb3-d280-4b4c-8176-279276f1fb2a","ios":"levelo://app?vid=a5e10cb3-d280-4b4c-8176-279276f1fb2a"},"vehicle_type_id":"4","last_reported":1761225882,"current_range_meters":16800,"station_id":"ce4bhlh2rcd13ifvqgig","pricing_plan_id":"cebpf4jnsgd1na2vs0mg"},{"bike_id":"bbfccf26-f19d-4fce-a80e-bccbd607c5e6","system_id":"levelo_inurba_marseille","lat":43.27689,"lon":5.388729,"is_reserved":false,"is_disabled":false,"rental_uris":{"android":"levelo://app?vid=bbfccf26-f19d-4fce-a80e-bccbd607c5e6","ios":"levelo://app?vid=bbfccf26-f19d-4fce-a80e-bccbd607c5e6"},"vehicle_type_id":"4","last_reported":1761225882,"current_range_meters":16800,"station_id":"ce4bhi12rcd13ifvqfo0","pricing_plan_id":"cebpf4jnsgd1na2vs0mg"},{"bike_id":"7877ff7b-2c57-444b-afd5-738313840c1f","system_id":"levelo_inurba_marseille","lat":43.301393,"lon":5.3742,"is_reserved":false,"is_disabled":false,"rental_uris":{"android":"levelo://app?vid=7877ff7b-2c57-444b-afd5-738313840c1f","ios":"levelo://app?vid=7877ff7b-2c57-444b-afd5-738313840c1f"},"vehicle_type_id":"4","last_reported":1761225882,"current_range_meters":16800,"station_id":"ce4bgs92rcd13ifvqcc0","pricing_plan_id":"cebpf4jnsgd1na2vs0mg"},{"bike_id":"ff3fcf70-c183-4046-b310-5c316a40bd51","system_id":"levelo_inurba_marseille","lat":43.307419,"lon":5.424409,"is_reserved":false,"is_disabled":false,"rental_uris":{"android":"levelo://app?vid=ff3fcf70-c183-4046-b310-5c316a40bd51","ios":"levelo://app?vid=ff3fcf70-c183-4046-b310-5c316a40bd51"},"vehicle_type_id":"4","last_reported":1761225882,"current_range_meters":16800,"station_id":"st_cvj6ca6bvosntc0bfgr0","pricing_plan_id":"cebpf4jnsgd1na2vs0mg"},{"bike_id":"edb95b7b-4a2d-4e6f-84c8-fcecc9027905","system_id":"levelo_inurba_marseille","lat":43.27218,"lon":5.39176,"is_reserved":false,"is_disabled":false,"rental_uris":{"android":"levelo://app?vid=edb95b7b-4a2d-4e6f-84c8-fcecc9027905","ios":"levelo://app?vid=edb95b7b-4a2d-4e6f-84c8-fcecc9027905"},"vehicle_type_id":"4","last_reported":1761225882,"current_range_meters":16800,"station_id":"ce4bhhp2rcd13ifvqfm0","pricing_plan_id":"cebpf4jnsgd1na2vs0mg"},{"bike_id":"4bffd92c-8adc-413c-b1b7-bc117f003100","system_id":"levelo_inurba_marseille","lat":43.29438,"lon":5.3975,"is_reserved":false,"is_disabled":false,"rental_uris":{"android":"levelo://app?vid=4bffd92c-8adc-413c-b1b7-bc117f003100","ios":"levelo://app?vid=4bffd92c-8adc-413c-b1b7-bc117f003100"},"vehicle_type_id":"4","last_reported":1761225882,"current_range_meters":17200,"station_id":"ce4bh3h2rcd13ifvqdo0","pricing_plan_id":"cebpf4jnsgd1na2vs0mg"},{"bike_id":"2aa0f0e4-2289-4f30-b71b-9814de5f3b76","system_id":"levelo_inurba_marseille","lat":43.301473,"lon":5.380738,"is_reserved":false,"is_disabled":false,"rental_uris":{"android":"levelo://app?vid=2aa0f0e4-2289-4f30-b71b-9814de5f3b76","ios":"levelo://app?vid=2aa0f0e4-2289-4f30-b71b-9814de5f3b76"},"vehicle_type_id":"4","last_reported":1761225882,"current_range_meters":17200,"station_id":"ce4bh412rcd13ifvqds0","pricing_plan_id":"cebpf4jnsgd1na2vs0mg"},{"bike_id":"cc2847a4-ee79-48ce-a865-c436ced7b968","system_id":"levelo_inurba_marseille","lat":43.25142,"lon":5.40349,"is_reserved":false,"is_disabled":false,"rental_uris":{"android":"levelo://app?vid=cc2847a4-ee79-48ce-a865-c436ced7b968","ios":"levelo://app?vid=cc2847a4-ee79-48ce-a865-c436ced7b968"},"vehicle_type_id":"4","last_reported":1761225882,"current_range_meters":17200,"station_id":"ce4bhlh2rcd13ifvqgig","pricing_plan_id":"cebpf4jnsgd1na2vs0mg"},{"bike_id":"e986eb56-ca00-4dbf-ada0-578bc3d8f529","system_id":"levelo_inurba_marseille","lat":43.27324,"lon":5.41438,"is_reserved":false,"is_disabled":false,"rental_uris":{"android":"levelo://app?vid=e986eb56-ca00-4dbf-ada0-578bc3d8f529","ios":"levelo://app?vid=e986eb56-ca00-4dbf-ada0-578bc3d8f529"},"vehicle_type_id":"4","last_reported":1761225882,"current_range_meters":17200,"station_id":"","pricing_plan_id":"cebpf4jnsgd1na2vs0mg"},{"bike_id":"bee9ad2f-aaea-4607-9ffa-be6bd0213b89","system_id":"levelo_inurba_marseille","lat":43.33703,"lon":5.39198,"is_reserved":false,"is_disabled":false,"rental_uris":{"android":"levelo://app?vid=bee9ad2f-aaea-4607-9ffa-be6bd0213b89","ios":"levelo://app?vid=bee9ad2f-aaea-4607-9ffa-be6bd0213b89"},"vehicle_type_id":"4","last_reported":1761225882,"current_range_meters":17200,"station_id":"ce4bhr92rcd13ifvqhsg","pricing_plan_id":"cebpf4jnsgd1na2vs0mg"},{"bike_id":"700ba852-502b-4548-93e2-c530c2b9889c","system_id":"levelo_inurba_marseille","lat":43.30541,"lon":5.36518,"is_reserved":false,"is_disabled":false,"rental_uris":{"android":"levelo://app?vid=700ba852-502b-4548-93e2-c530c2b9889c","ios":"levelo://app?vid=700ba852-502b-4548-93e2-c530c2b9889c"},"vehicle_type_id":"4","last_reported":1761225882,"current_range_meters":17200,"station_id":"ce4bgs12rcd13ifvqcag","pricing_plan_id":"cebpf4jnsgd1na2vs0mg"},{"bike_id":"9ae5d977-a6f2-4cfe-b2fa-f8a95af9fe0d","system_id":"levelo_inurba_marseille","lat":43.30963,"lon":5.39132,"is_reserved":false,"is_disabled":false,"rental_uris":{"android":"levelo://app?vid=9ae5d977-a6f2-4cfe-b2fa-f8a95af9fe0d","ios":"levelo://app?vid=9ae5d977-a6f2-4cfe-b2fa-f8a95af9fe0d"},"vehicle_type_id":"4","last_reported":1761225882,"current_range_meters":17200,"station_id":"","pricing_plan_id":"cebpf4jnsgd1na2vs0mg"},{"bike_id":"d816882d-6868-4d3b-97b0-3ffcaa5f187a","system_id":"levelo_inurba_marseille","lat":43.31718,"lon":5.42401,"is_reserved":false,"is_disabled":false,"rental_uris":{"android":"levelo://app?vid=d816882d-6868-4d3b-97b0-3ffcaa5f187a","ios":"levelo://app?vid=d816882d-6868-4d3b-97b0-3ffcaa5f187a"},"vehicle_type_id":"4","last_reported":1761225882,"current_range_meters":17200,"station_id":"ce4bhp92rcd13ifvqhbg","pricing_plan_id":"cebpf4jnsgd1na2vs0mg"},{"bike_id":"2c339237-450a-424b-adb4-194def883004","system_id":"levelo_inurba_marseille","lat":43.299,"lon":5.43673,"is_reserved":false,"is_disabled":false,"rental_uris":{"android":"levelo://app?vid=2c339237-450a-424b-adb4-194def883004","ios":"levelo://app?vid=2c339237-450a-424b-adb4-194def883004"},"vehicle_type_id":"4","last_reported":1761225882,"current_range_meters":17200,"station_id":"ce4bhpp2rcd13ifvqhfg","pricing_plan_id":"cebpf4jnsgd1na2vs0mg"},{"bike_id":"b21b6ff6-0929-4acd-a3b0-3f248e63c66d","system_id":"levelo_inurba_marseille","lat":43.321107,"lon":5.367746,"is_reserved":false,"is_disabled":false,"rental_uris":{"android":"levelo://app?vid=b21b6ff6-0929-4acd-a3b0-3f248e63c66d","ios":"levelo://app?vid=b21b6ff6-0929-4acd-a3b0-3f248e63c66d"},"vehicle_type_id":"4","last_reported":1761225882,"current_range_meters":17600,"station_id":"ce4bhrh2rcd13ifvqhug","pricing_plan_id":"cebpf4jnsgd1na2vs0mg"},{"bike_id":"c12a786b-d447-4373-876a-58fc20f19148","system_id":"levelo_inurba_marseille","lat":43.29895,"lon":5.43678,"is_reserved":false,"is_disabled":false,"rental_uris":{"android":"levelo://app?vid=c12a786b-d447-4373-876a-58fc20f19148","ios":"levelo://app?vid=c12a786b-d447-4373-876a-58fc20f19148"},"vehicle_type_id":"4","last_reported":1761225882,"current_range_meters":17600,"station_id":"ce4bhpp2rcd13ifvqhfg","pricing_plan_id":"cebpf4jnsgd1na2vs0mg"},{"bike_id":"b6c79639-c191-40a2-bf39-9167f7b4b7d8","system_id":"levelo_inurba_marseille","lat":43.3093,"lon":5.40142,"is_reserved":false,"is_disabled":false,"rental_uris":{"android":"levelo://app?vid=b6c79639-c191-40a2-bf39-9167f7b4b7d8","ios":"levelo://app?vid=b6c79639-c191-40a2-bf39-9167f7b4b7d8"},"vehicle_type_id":"4","last_reported":1761225882,"current_range_meters":17600,"station_id":"ce4bgvp2rcd13ifvqct0","pricing_plan_id":"cebpf4jnsgd1na2vs0mg"},{"bike_id":"d9ecb998-ceaa-4a39-8aba-9f0e44069447","system_id":"levelo_inurba_marseille","lat":43.32147,"lon":5.38731,"is_reserved":false,"is_disabled":false,"rental_uris":{"android":"levelo://app?vid=d9ecb998-ceaa-4a39-8aba-9f0e44069447","ios":"levelo://app?vid=d9ecb998-ceaa-4a39-8aba-9f0e44069447"},"vehicle_type_id":"4","last_reported":1761225882,"current_range_meters":17600,"station_id":"","pricing_plan_id":"cebpf4jnsgd1na2vs0mg"},{"bike_id":"0dc13c16-1fae-45a3-81b4-9f6386fa33c9","system_id":"levelo_inurba_marseille","lat":43.31755,"lon":5.39023,"is_reserved":false,"is_disabled":false,"rental_uris":{"android":"levelo://app?vid=0dc13c16-1fae-45a3-81b4-9f6386fa33c9","ios":"levelo://app?vid=0dc13c16-1fae-45a3-81b4-9f6386fa33c9"},"vehicle_type_id":"4","last_reported":1761225882,"current_range_meters":18000,"station_id":"ce4bhqp2rcd13ifvqhng","pricing_plan_id":"cebpf4jnsgd1na2vs0mg"},{"bike_id":"6250ac27-ee37-41d1-bc0f-a615c7912f4a","system_id":"levelo_inurba_marseille","lat":43.32325,"lon":5.36781,"is_reserved":false,"is_disabled":false,"rental_uris":{"android":"levelo://app?vid=6250ac27-ee37-41d1-bc0f-a615c7912f4a","ios":"levelo://app?vid=6250ac27-ee37-41d1-bc0f-a615c7912f4a"},"vehicle_type_id":"4","last_reported":1761225882,"current_range_meters":18000,"station_id":"ce4bhsh2rcd13ifvqi2g","pricing_plan_id":"cebpf4jnsgd1na2vs0mg"},{"bike_id":"6552118e-9997-496d-8ae3-3aae82824535","system_id":"levelo_inurba_marseille","lat":43.32246,"lon":5.38357,"is_reserved":false,"is_disabled":false,"rental_uris":{"android":"levelo://app?vid=6552118e-9997-496d-8ae3-3aae82824535","ios":"levelo://app?vid=6552118e-9997-496d-8ae3-3aae82824535"},"vehicle_type_id":"4","last_reported":1761225882,"current_range_meters":18000,"station_id":"","pricing_plan_id":"cebpf4jnsgd1na2vs0mg"},{"bike_id":"b5cbee6e-024a-4e35-b20c-bff433fca7cc","system_id":"levelo_inurba_marseille","lat":43.225653,"lon":5.416198,"is_reserved":false,"is_disabled":false,"rental_uris":{"android":"levelo://app?vid=b5cbee6e-024a-4e35-b20c-bff433fca7cc","ios":"levelo://app?vid=b5cbee6e-024a-4e35-b20c-bff433fca7cc"},"vehicle_type_id":"4","last_reported":1761225882,"current_range_meters":18000,"station_id":"st_d2o4gvlbi1j2169b742g","pricing_plan_id":"cebpf4jnsgd1na2vs0mg"},{"bike_id":"5db0d44d-18b4-422a-9766-a3218057e91c","system_id":"levelo_inurba_marseille","lat":43.22932,"lon":5.35382,"is_reserved":false,"is_disabled":false,"rental_uris":{"android":"levelo://app?vid=5db0d44d-18b4-422a-9766-a3218057e91c","ios":"levelo://app?vid=5db0d44d-18b4-422a-9766-a3218057e91c"},"vehicle_type_id":"4","last_reported":1761225882,"current_range_meters":18000,"station_id":"cpo3532slgdg3j2ikp40","pricing_plan_id":"cebpf4jnsgd1na2vs0mg"},{"bike_id":"6e165c5f-d62c-40ea-ba48-b62e278fb512","system_id":"levelo_inurba_marseille","lat":43.25577,"lon":5.38248,"is_reserved":false,"is_disabled":false,"rental_uris":{"android":"levelo://app?vid=6e165c5f-d62c-40ea-ba48-b62e278fb512","ios":"levelo://app?vid=6e165c5f-d62c-40ea-ba48-b62e278fb512"},"vehicle_type_id":"4","last_reported":1761225882,"current_range_meters":18000,"station_id":"ce4bhih2rcd13ifvqfs0","pricing_plan_id":"cebpf4jnsgd1na2vs0mg"},{"bike_id":"2e516aa3-da3f-4cd4-8d7a-1dc8bf5d8ddd","system_id":"levelo_inurba_marseille","lat":43.32105,"lon":5.36766,"is_reserved":false,"is_disabled":false,"rental_uris":{"android":"levelo://app?vid=2e516aa3-da3f-4cd4-8d7a-1dc8bf5d8ddd","ios":"levelo://app?vid=2e516aa3-da3f-4cd4-8d7a-1dc8bf5d8ddd"},"vehicle_type_id":"4","last_reported":1761225882,"current_range_meters":18000,"station_id":"ce4bhrh2rcd13ifvqhug","pricing_plan_id":"cebpf4jnsgd1na2vs0mg"},{"bike_id":"f8c755d7-1bb8-4fcd-bb3f-74aeb49951cc","system_id":"levelo_inurba_marseille","lat":43.313796,"lon":5.378999,"is_reserved":false,"is_disabled":false,"rental_uris":{"android":"levelo://app?vid=f8c755d7-1bb8-4fcd-bb3f-74aeb49951cc","ios":"levelo://app?vid=f8c755d7-1bb8-4fcd-bb3f-74aeb49951cc"},"vehicle_type_id":"4","last_reported":1761225882,"current_range_meters":18800,"station_id":"","pricing_plan_id":"cebpf4jnsgd1na2vs0mg"},{"bike_id":"a32c67dc-e83a-41ac-996f-c4c734971699","system_id":"levelo_inurba_marseille","lat":43.23779,"lon":5.36626,"is_reserved":false,"is_disabled":false,"rental_uris":{"android":"levelo://app?vid=a32c67dc-e83a-41ac-996f-c4c734971699","ios":"levelo://app?vid=a32c67dc-e83a-41ac-996f-c4c734971699"},"vehicle_type_id":"4","last_reported":1761225882,"current_range_meters":18800,"station_id":"st_d3nk18o9ro0c73en2l3g","pricing_plan_id":"cebpf4jnsgd1na2vs0mg"},{"bike_id":"82a6ac02-8c08-4f93-844a-981cd0f715d0","system_id":"levelo_inurba_marseille","lat":43.255,"lon":5.3766,"is_reserved":false,"is_disabled":false,"rental_uris":{"android":"levelo://app?vid=82a6ac02-8c08-4f93-844a-981cd0f715d0","ios":"levelo://app?vid=82a6ac02-8c08-4f93-844a-981cd0f715d0"},"vehicle_type_id":"4","last_reported":1761225882,"current_range_meters":18800,"station_id":"ce4bhh12rcd13ifvqff0","pricing_plan_id":"cebpf4jnsgd1na2vs0mg"},{"bike_id":"27d2104d-1b8f-4689-8074-7a744a934c06","system_id":"levelo_inurba_marseille","lat":43.241806,"lon":5.397214,"is_reserved":false,"is_disabled":false,"rental_uris":{"android":"levelo://app?vid=27d2104d-1b8f-4689-8074-7a744a934c06","ios":"levelo://app?vid=27d2104d-1b8f-4689-8074-7a744a934c06"},"vehicle_type_id":"4","last_reported":1761225882,"current_range_meters":18800,"station_id":"ce4bhn12rcd13ifvqgpg","pricing_plan_id":"cebpf4jnsgd1na2vs0mg"},{"bike_id":"21fe0c7e-81cc-409a-afc7-a770f99a45ba","system_id":"levelo_inurba_marseille","lat":43.297964,"lon":5.40401,"is_reserved":false,"is_disabled":false,"rental_uris":{"android":"levelo://app?vid=21fe0c7e-81cc-409a-afc7-a770f99a45ba","ios":"levelo://app?vid=21fe0c7e-81cc-409a-afc7-a770f99a45ba"},"vehicle_type_id":"4","last_reported":1761225882,"current_range_meters":18800,"station_id":"ce4bh112rcd13ifvqd90","pricing_plan_id":"cebpf4jnsgd1na2vs0mg"},{"bike_id":"2a1310fc-04d6-4849-9074-48c2d6c5109e","system_id":"levelo_inurba_marseille","lat":43.28358,"lon":5.38107,"is_reserved":false,"is_disabled":false,"rental_uris":{"android":"levelo://app?vid=2a1310fc-04d6-4849-9074-48c2d6c5109e","ios":"levelo://app?vid=2a1310fc-04d6-4849-9074-48c2d6c5109e"},"vehicle_type_id":"4","last_reported":1761225882,"current_range_meters":18800,"station_id":"ce4bh412rcd13ifvqdr0","pricing_plan_id":"cebpf4jnsgd1na2vs0mg"},{"bike_id":"8539269a-67a2-4a25-ad39-b9c4bd2a7320","system_id":"levelo_inurba_marseille","lat":43.30536,"lon":5.38426,"is_reserved":false,"is_disabled":false,"rental_uris":{"android":"levelo://app?vid=8539269a-67a2-4a25-ad39-b9c4bd2a7320","ios":"levelo://app?vid=8539269a-67a2-4a25-ad39-b9c4bd2a7320"},"vehicle_type_id":"4","last_reported":1761225882,"current_range_meters":18800,"station_id":"ce4bgg92rcd13ifvqb30","pricing_plan_id":"cebpf4jnsgd1na2vs0mg"},{"bike_id":"5b6218ef-8f1a-49c7-8448-1cda129d117e","system_id":"levelo_inurba_marseille","lat":43.30139,"lon":5.37408,"is_reserved":false,"is_disabled":false,"rental_uris":{"android":"levelo://app?vid=5b6218ef-8f1a-49c7-8448-1cda129d117e","ios":"levelo://app?vid=5b6218ef-8f1a-49c7-8448-1cda129d117e"},"vehicle_type_id":"4","last_reported":1761225882,"current_range_meters":19200,"station_id":"ce4bgs92rcd13ifvqcc0","pricing_plan_id":"cebpf4jnsgd1na2vs0mg"},{"bike_id":"75552eb5-38a2-43ca-9291-cacb859b6f73","system_id":"levelo_inurba_marseille","lat":43.284215,"lon":5.349847,"is_reserved":false,"is_disabled":false,"rental_uris":{"android":"levelo://app?vid=75552eb5-38a2-43ca-9291-cacb859b6f73","ios":"levelo://app?vid=75552eb5-38a2-43ca-9291-cacb859b6f73"},"vehicle_type_id":"4","last_reported":1761225882,"current_range_meters":19200,"station_id":"","pricing_plan_id":"cebpf4jnsgd1na2vs0mg"},{"bike_id":"7e3f0c29-c7cf-4648-8c63-90f647962dab","system_id":"levelo_inurba_marseille","lat":43.29894,"lon":5.43665,"is_reserved":false,"is_disabled":false,"rental_uris":{"android":"levelo://app?vid=7e3f0c29-c7cf-4648-8c63-90f647962dab","ios":"levelo://app?vid=7e3f0c29-c7cf-4648-8c63-90f647962dab"},"vehicle_type_id":"4","last_reported":1761225882,"current_range_meters":19200,"station_id":"ce4bhpp2rcd13ifvqhfg","pricing_plan_id":"cebpf4jnsgd1na2vs0mg"},{"bike_id":"0c216ec5-2d75-4ee4-a223-b0d23bee74b5","system_id":"levelo_inurba_marseille","lat":43.24652,"lon":5.38903,"is_reserved":false,"is_disabled":false,"rental_uris":{"android":"levelo://app?vid=0c216ec5-2d75-4ee4-a223-b0d23bee74b5","ios":"levelo://app?vid=0c216ec5-2d75-4ee4-a223-b0d23bee74b5"},"vehicle_type_id":"4","last_reported":1761225882,"current_range_meters":19200,"station_id":"ce4bhg12rcd13ifvqf60","pricing_plan_id":"cebpf4jnsgd1na2vs0mg"},{"bike_id":"52a04b7c-586f-491c-aded-7c538741c912","system_id":"levelo_inurba_marseille","lat":43.30319,"lon":5.36895,"is_reserved":false,"is_disabled":false,"rental_uris":{"android":"levelo://app?vid=52a04b7c-586f-491c-aded-7c538741c912","ios":"levelo://app?vid=52a04b7c-586f-491c-aded-7c538741c912"},"vehicle_type_id":"4","last_reported":1761225882,"current_range_meters":19200,"station_id":"ce4bgqh2rcd13ifvqc5g","pricing_plan_id":"cebpf4jnsgd1na2vs0mg"},{"bike_id":"e79dee5d-ae56-49fc-b711-bf074bb53f4d","system_id":"levelo_inurba_marseille","lat":43.28561,"lon":5.37098,"is_reserved":false,"is_disabled":false,"rental_uris":{"android":"levelo://app?vid=e79dee5d-ae56-49fc-b711-bf074bb53f4d","ios":"levelo://app?vid=e79dee5d-ae56-49fc-b711-bf074bb53f4d"},"vehicle_type_id":"4","last_reported":1761225882,"current_range_meters":19600,"station_id":"","pricing_plan_id":"cebpf4jnsgd1na2vs0mg"},{"bike_id":"cc28a956-4893-4d1a-a467-4289f4569614","system_id":"levelo_inurba_marseille","lat":43.29003,"lon":5.35617,"is_reserved":false,"is_disabled":false,"rental_uris":{"android":"levelo://app?vid=cc28a956-4893-4d1a-a467-4289f4569614","ios":"levelo://app?vid=cc28a956-4893-4d1a-a467-4289f4569614"},"vehicle_type_id":"4","last_reported":1761225882,"current_range_meters":19600,"station_id":"ce4bhb92rcd13ifvqen0","pricing_plan_id":"cebpf4jnsgd1na2vs0mg"},{"bike_id":"476a52cd-daaf-4588-b3c0-04fca3f546f8","system_id":"levelo_inurba_marseille","lat":43.301425,"lon":5.374262,"is_reserved":false,"is_disabled":false,"rental_uris":{"android":"levelo://app?vid=476a52cd-daaf-4588-b3c0-04fca3f546f8","ios":"levelo://app?vid=476a52cd-daaf-4588-b3c0-04fca3f546f8"},"vehicle_type_id":"4","last_reported":1761225882,"current_range_meters":19600,"station_id":"ce4bgs92rcd13ifvqcc0","pricing_plan_id":"cebpf4jnsgd1na2vs0mg"},{"bike_id":"11e3ade2-ccb2-4c9b-8f2d-bd016a12103e","system_id":"levelo_inurba_marseille","lat":43.26674,"lon":5.38278,"is_reserved":false,"is_disabled":false,"rental_uris":{"android":"levelo://app?vid=11e3ade2-ccb2-4c9b-8f2d-bd016a12103e","ios":"levelo://app?vid=11e3ade2-ccb2-4c9b-8f2d-bd016a12103e"},"vehicle_type_id":"4","last_reported":1761225882,"current_range_meters":19600,"station_id":"ce4bhg92rcd13ifvqf90","pricing_plan_id":"cebpf4jnsgd1na2vs0mg"},{"bike_id":"a0a3e2e6-f6d9-4e27-a510-a2aa84830e78","system_id":"levelo_inurba_marseille","lat":43.308681,"lon":5.378532,"is_reserved":false,"is_disabled":false,"rental_uris":{"android":"levelo://app?vid=a0a3e2e6-f6d9-4e27-a510-a2aa84830e78","ios":"levelo://app?vid=a0a3e2e6-f6d9-4e27-a510-a2aa84830e78"},"vehicle_type_id":"4","last_reported":1761225882,"current_range_meters":19600,"station_id":"","pricing_plan_id":"cebpf4jnsgd1na2vs0mg"},{"bike_id":"24561831-c894-4176-a7ee-ff2d801b6bee","system_id":"levelo_inurba_marseille","lat":43.27993,"lon":5.40009,"is_reserved":false,"is_disabled":false,"rental_uris":{"android":"levelo://app?vid=24561831-c894-4176-a7ee-ff2d801b6bee","ios":"levelo://app?vid=24561831-c894-4176-a7ee-ff2d801b6bee"},"vehicle_type_id":"4","last_reported":1761225882,"current_range_meters":19600,"station_id":"ce4bho92rcd13ifvqh4g","pricing_plan_id":"cebpf4jnsgd1na2vs0mg"},{"bike_id":"47f09c0c-92a9-44eb-a23c-69934b3ff134","system_id":"levelo_inurba_marseille","lat":43.30117,"lon":5.43123,"is_reserved":false,"is_disabled":false,"rental_uris":{"android":"levelo://app?vid=47f09c0c-92a9-44eb-a23c-69934b3ff134","ios":"levelo://app?vid=47f09c0c-92a9-44eb-a23c-69934b3ff134"},"vehicle_type_id":"4","last_reported":1761225882,"current_range_meters":19600,"station_id":"st_d3js3co5814s73ftftug","pricing_plan_id":"cebpf4jnsgd1na2vs0mg"},{"bike_id":"77124793-d73a-43ea-8840-1a1b5476fa23","system_id":"levelo_inurba_marseille","lat":43.31053,"lon":5.38088,"is_reserved":false,"is_disabled":false,"rental_uris":{"android":"levelo://app?vid=77124793-d73a-43ea-8840-1a1b5476fa23","ios":"levelo://app?vid=77124793-d73a-43ea-8840-1a1b5476fa23"},"vehicle_type_id":"4","last_reported":1761225882,"current_range_meters":19600,"station_id":"","pricing_plan_id":"cebpf4jnsgd1na2vs0mg"},{"bike_id":"df76a65d-68a6-4111-9413-af1547686a59","system_id":"levelo_inurba_marseille","lat":43.305592,"lon":5.365701,"is_reserved":false,"is_disabled":false,"rental_uris":{"android":"levelo://app?vid=df76a65d-68a6-4111-9413-af1547686a59","ios":"levelo://app?vid=df76a65d-68a6-4111-9413-af1547686a59"},"vehicle_type_id":"4","last_reported":1761225882,"current_range_meters":20000,"station_id":"ce4bgs12rcd13ifvqcag","pricing_plan_id":"cebpf4jnsgd1na2vs0mg"},{"bike_id":"ebd13387-5d7b-4cae-a0fc-14085b73b88b","system_id":"levelo_inurba_marseille","lat":43.30272,"lon":5.37713,"is_reserved":false,"is_disabled":false,"rental_uris":{"android":"levelo://app?vid=ebd13387-5d7b-4cae-a0fc-14085b73b88b","ios":"levelo://app?vid=ebd13387-5d7b-4cae-a0fc-14085b73b88b"},"vehicle_type_id":"4","last_reported":1761225882,"current_range_meters":20000,"station_id":"ce4bguh2rcd13ifvqcj0","pricing_plan_id":"cebpf4jnsgd1na2vs0mg"},{"bike_id":"e7faadf5-af52-401c-bd93-4e858245ca30","system_id":"levelo_inurba_marseille","lat":43.28284,"lon":5.35071,"is_reserved":false,"is_disabled":false,"rental_uris":{"android":"levelo://app?vid=e7faadf5-af52-401c-bd93-4e858245ca30","ios":"levelo://app?vid=e7faadf5-af52-401c-bd93-4e858245ca30"},"vehicle_type_id":"4","last_reported":1761225882,"current_range_meters":20000,"station_id":"ce4bhnh2rcd13ifvqgug","pricing_plan_id":"cebpf4jnsgd1na2vs0mg"},{"bike_id":"e935773b-1494-4fd0-b054-70148e7e81b6","system_id":"levelo_inurba_marseille","lat":43.33597,"lon":5.41047,"is_reserved":false,"is_disabled":false,"rental_uris":{"android":"levelo://app?vid=e935773b-1494-4fd0-b054-70148e7e81b6","ios":"levelo://app?vid=e935773b-1494-4fd0-b054-70148e7e81b6"},"vehicle_type_id":"4","last_reported":1761225882,"current_range_meters":20000,"station_id":"ce4bhqh2rcd13ifvqhmg","pricing_plan_id":"cebpf4jnsgd1na2vs0mg"},{"bike_id":"3c897e7a-ca67-4c02-b1ad-be4bdeb2680f","system_id":"levelo_inurba_marseille","lat":43.23121,"lon":5.43721,"is_reserved":false,"is_disabled":false,"rental_uris":{"android":"levelo://app?vid=3c897e7a-ca67-4c02-b1ad-be4bdeb2680f","ios":"levelo://app?vid=3c897e7a-ca67-4c02-b1ad-be4bdeb2680f"},"vehicle_type_id":"4","last_reported":1761225882,"current_range_meters":20400,"station_id":"ce4bhmp2rcd13ifvqgog","pricing_plan_id":"cebpf4jnsgd1na2vs0mg"},{"bike_id":"5eacce4e-6948-43bf-8f9a-babf1fce6525","system_id":"levelo_inurba_marseille","lat":43.24165,"lon":5.36396,"is_reserved":false,"is_disabled":false,"rental_uris":{"android":"levelo://app?vid=5eacce4e-6948-43bf-8f9a-babf1fce6525","ios":"levelo://app?vid=5eacce4e-6948-43bf-8f9a-babf1fce6525"},"vehicle_type_id":"4","last_reported":1761225882,"current_range_meters":20400,"station_id":"cpo36qri1sfpv3e86is0","pricing_plan_id":"cebpf4jnsgd1na2vs0mg"},{"bike_id":"f9ec5f3b-ed4c-40cd-8116-ef5667a3fc94","system_id":"levelo_inurba_marseille","lat":43.305293,"lon":5.384193,"is_reserved":false,"is_disabled":false,"rental_uris":{"android":"levelo://app?vid=f9ec5f3b-ed4c-40cd-8116-ef5667a3fc94","ios":"levelo://app?vid=f9ec5f3b-ed4c-40cd-8116-ef5667a3fc94"},"vehicle_type_id":"4","last_reported":1761225882,"current_range_meters":20400,"station_id":"ce4bgg92rcd13ifvqb30","pricing_plan_id":"cebpf4jnsgd1na2vs0mg"},{"bike_id":"41b38381-46a8-4be3-b68d-7af582a927d9","system_id":"levelo_inurba_marseille","lat":43.304875,"lon":5.379152,"is_reserved":false,"is_disabled":false,"rental_uris":{"android":"levelo://app?vid=41b38381-46a8-4be3-b68d-7af582a927d9","ios":"levelo://app?vid=41b38381-46a8-4be3-b68d-7af582a927d9"},"vehicle_type_id":"4","last_reported":1761225882,"current_range_meters":20400,"station_id":"ce4bgup2rcd13ifvqcn0","pricing_plan_id":"cebpf4jnsgd1na2vs0mg"},{"bike_id":"2218a639-ff60-46d1-a353-239f7aea6a1b","system_id":"levelo_inurba_marseille","lat":43.26934,"lon":5.389243,"is_reserved":false,"is_disabled":false,"rental_uris":{"android":"levelo://app?vid=2218a639-ff60-46d1-a353-239f7aea6a1b","ios":"levelo://app?vid=2218a639-ff60-46d1-a353-239f7aea6a1b"},"vehicle_type_id":"4","last_reported":1761225882,"current_range_meters":20400,"station_id":"ce4bhhh2rcd13ifvqfl0","pricing_plan_id":"cebpf4jnsgd1na2vs0mg"},{"bike_id":"3b22550e-05c3-472a-9a98-652dcfc2fc42","system_id":"levelo_inurba_marseille","lat":43.30155,"lon":5.37425,"is_reserved":false,"is_disabled":false,"rental_uris":{"android":"levelo://app?vid=3b22550e-05c3-472a-9a98-652dcfc2fc42","ios":"levelo://app?vid=3b22550e-05c3-472a-9a98-652dcfc2fc42"},"vehicle_type_id":"4","last_reported":1761225882,"current_range_meters":20400,"station_id":"ce4bgs92rcd13ifvqcc0","pricing_plan_id":"cebpf4jnsgd1na2vs0mg"},{"bike_id":"fefd11a0-8d8b-438b-9174-515a87c67f52","system_id":"levelo_inurba_marseille","lat":43.33602,"lon":5.41013,"is_reserved":false,"is_disabled":false,"rental_uris":{"android":"levelo://app?vid=fefd11a0-8d8b-438b-9174-515a87c67f52","ios":"levelo://app?vid=fefd11a0-8d8b-438b-9174-515a87c67f52"},"vehicle_type_id":"4","last_reported":1761225882,"current_range_meters":20400,"station_id":"ce4bhqh2rcd13ifvqhmg","pricing_plan_id":"cebpf4jnsgd1na2vs0mg"},{"bike_id":"ace3309e-9a2e-46b8-802d-e7cc0a911f9d","system_id":"levelo_inurba_marseille","lat":43.32358,"lon":5.36798,"is_reserved":false,"is_disabled":false,"rental_uris":{"android":"levelo://app?vid=ace3309e-9a2e-46b8-802d-e7cc0a911f9d","ios":"levelo://app?vid=ace3309e-9a2e-46b8-802d-e7cc0a911f9d"},"vehicle_type_id":"4","last_reported":1761225882,"current_range_meters":20400,"station_id":"ce4bhsh2rcd13ifvqi2g","pricing_plan_id":"cebpf4jnsgd1na2vs0mg"},{"bike_id":"e4d9d28d-de5d-4eba-b45f-0315c6967297","system_id":"levelo_inurba_marseille","lat":43.25086,"lon":5.39507,"is_reserved":false,"is_disabled":false,"rental_uris":{"android":"levelo://app?vid=e4d9d28d-de5d-4eba-b45f-0315c6967297","ios":"levelo://app?vid=e4d9d28d-de5d-4eba-b45f-0315c6967297"},"vehicle_type_id":"4","last_reported":1761225882,"current_range_meters":20400,"station_id":"ce4bhm12rcd13ifvqgkg","pricing_plan_id":"cebpf4jnsgd1na2vs0mg"},{"bike_id":"3cc5a6fe-6cb5-4ef4-aee9-8d3035bb1ce3","system_id":"levelo_inurba_marseille","lat":43.29581,"lon":5.37515,"is_reserved":false,"is_disabled":false,"rental_uris":{"android":"levelo://app?vid=3cc5a6fe-6cb5-4ef4-aee9-8d3035bb1ce3","ios":"levelo://app?vid=3cc5a6fe-6cb5-4ef4-aee9-8d3035bb1ce3"},"vehicle_type_id":"4","last_reported":1761225882,"current_range_meters":20400,"station_id":"ce4bgh92rcd13ifvqb50","pricing_plan_id":"cebpf4jnsgd1na2vs0mg"},{"bike_id":"d216f701-d039-416d-8464-d2169e2c53fe","system_id":"levelo_inurba_marseille","lat":43.229351,"lon":5.353729,"is_reserved":false,"is_disabled":false,"rental_uris":{"android":"levelo://app?vid=d216f701-d039-416d-8464-d2169e2c53fe","ios":"levelo://app?vid=d216f701-d039-416d-8464-d2169e2c53fe"},"vehicle_type_id":"4","last_reported":1761225882,"current_range_meters":20400,"station_id":"cpo3532slgdg3j2ikp40","pricing_plan_id":"cebpf4jnsgd1na2vs0mg"},{"bike_id":"da326c87-363c-47df-b64e-a81823a317f3","system_id":"levelo_inurba_marseille","lat":43.26058,"lon":5.39407,"is_reserved":false,"is_disabled":false,"rental_uris":{"android":"levelo://app?vid=da326c87-363c-47df-b64e-a81823a317f3","ios":"levelo://app?vid=da326c87-363c-47df-b64e-a81823a317f3"},"vehicle_type_id":"4","last_reported":1761225882,"current_range_meters":20400,"station_id":"ce4bhh92rcd13ifvqfj0","pricing_plan_id":"cebpf4jnsgd1na2vs0mg"},{"bike_id":"b90f050d-41f1-4969-9711-328a004a94a4","system_id":"levelo_inurba_marseille","lat":43.32105,"lon":5.36767,"is_reserved":false,"is_disabled":false,"rental_uris":{"android":"levelo://app?vid=b90f050d-41f1-4969-9711-328a004a94a4","ios":"levelo://app?vid=b90f050d-41f1-4969-9711-328a004a94a4"},"vehicle_type_id":"4","last_reported":1761225882,"current_range_meters":20800,"station_id":"ce4bhrh2rcd13ifvqhug","pricing_plan_id":"cebpf4jnsgd1na2vs0mg"},{"bike_id":"9f342bfe-280d-4a8d-bb77-7a005df6628c","system_id":"levelo_inurba_marseille","lat":43.28856,"lon":5.42544,"is_reserved":false,"is_disabled":false,"rental_uris":{"android":"levelo://app?vid=9f342bfe-280d-4a8d-bb77-7a005df6628c","ios":"levelo://app?vid=9f342bfe-280d-4a8d-bb77-7a005df6628c"},"vehicle_type_id":"4","last_reported":1761225882,"current_range_meters":20800,"station_id":"st_d3b462108ojc7389ooeg","pricing_plan_id":"cebpf4jnsgd1na2vs0mg"},{"bike_id":"3707ceb6-fcb4-4d03-acd0-52a7adb1ae1c","system_id":"levelo_inurba_marseille","lat":43.24659,"lon":5.38161,"is_reserved":false,"is_disabled":false,"rental_uris":{"android":"levelo://app?vid=3707ceb6-fcb4-4d03-acd0-52a7adb1ae1c","ios":"levelo://app?vid=3707ceb6-fcb4-4d03-acd0-52a7adb1ae1c"},"vehicle_type_id":"4","last_reported":1761225882,"current_range_meters":20800,"station_id":"ce4bhih2rcd13ifvqfr0","pricing_plan_id":"cebpf4jnsgd1na2vs0mg"},{"bike_id":"ac9b5b0f-8735-4757-8bf2-f97e3f542d3a","system_id":"levelo_inurba_marseille","lat":43.30514,"lon":5.36544,"is_reserved":false,"is_disabled":false,"rental_uris":{"android":"levelo://app?vid=ac9b5b0f-8735-4757-8bf2-f97e3f542d3a","ios":"levelo://app?vid=ac9b5b0f-8735-4757-8bf2-f97e3f542d3a"},"vehicle_type_id":"4","last_reported":1761225882,"current_range_meters":20800,"station_id":"","pricing_plan_id":"cebpf4jnsgd1na2vs0mg"},{"bike_id":"2bfe86be-a718-4651-a8e7-9a2bc3634288","system_id":"levelo_inurba_marseille","lat":43.2396,"lon":5.36621,"is_reserved":false,"is_disabled":false,"rental_uris":{"android":"levelo://app?vid=2bfe86be-a718-4651-a8e7-9a2bc3634288","ios":"levelo://app?vid=2bfe86be-a718-4651-a8e7-9a2bc3634288"},"vehicle_type_id":"4","last_reported":1761225882,"current_range_meters":20800,"station_id":"ce4bhi12rcd13ifvqfp0","pricing_plan_id":"cebpf4jnsgd1na2vs0mg"},{"bike_id":"913259d6-7dd1-4533-bf1c-6002e33758ab","system_id":"levelo_inurba_marseille","lat":43.30274,"lon":5.37723,"is_reserved":false,"is_disabled":false,"rental_uris":{"android":"levelo://app?vid=913259d6-7dd1-4533-bf1c-6002e33758ab","ios":"levelo://app?vid=913259d6-7dd1-4533-bf1c-6002e33758ab"},"vehicle_type_id":"4","last_reported":1761225882,"current_range_meters":20800,"station_id":"ce4bguh2rcd13ifvqcj0","pricing_plan_id":"cebpf4jnsgd1na2vs0mg"},{"bike_id":"4f5c5045-2f2c-4ab7-ad8b-eeba1d52fe66","system_id":"levelo_inurba_marseille","lat":43.32053,"lon":5.37177,"is_reserved":false,"is_disabled":false,"rental_uris":{"android":"levelo://app?vid=4f5c5045-2f2c-4ab7-ad8b-eeba1d52fe66","ios":"levelo://app?vid=4f5c5045-2f2c-4ab7-ad8b-eeba1d52fe66"},"vehicle_type_id":"4","last_reported":1761225882,"current_range_meters":20800,"station_id":"","pricing_plan_id":"cebpf4jnsgd1na2vs0mg"},{"bike_id":"fbd43c16-80c5-483d-b238-504e66d17f8d","system_id":"levelo_inurba_marseille","lat":43.2861,"lon":5.35137,"is_reserved":false,"is_disabled":false,"rental_uris":{"android":"levelo://app?vid=fbd43c16-80c5-483d-b238-504e66d17f8d","ios":"levelo://app?vid=fbd43c16-80c5-483d-b238-504e66d17f8d"},"vehicle_type_id":"4","last_reported":1761225882,"current_range_meters":20800,"station_id":"ce4bhch2rcd13ifvqeug","pricing_plan_id":"cebpf4jnsgd1na2vs0mg"},{"bike_id":"e8d601b0-a167-46e8-bdbe-6cab2d1d99e2","system_id":"levelo_inurba_marseille","lat":43.30136,"lon":5.37406,"is_reserved":false,"is_disabled":false,"rental_uris":{"android":"levelo://app?vid=e8d601b0-a167-46e8-bdbe-6cab2d1d99e2","ios":"levelo://app?vid=e8d601b0-a167-46e8-bdbe-6cab2d1d99e2"},"vehicle_type_id":"4","last_reported":1761225882,"current_range_meters":20800,"station_id":"ce4bgs92rcd13ifvqcc0","pricing_plan_id":"cebpf4jnsgd1na2vs0mg"},{"bike_id":"c4574ecd-db56-4d9d-965f-9b92dc7d5835","system_id":"levelo_inurba_marseille","lat":43.239497,"lon":5.366472,"is_reserved":false,"is_disabled":false,"rental_uris":{"android":"levelo://app?vid=c4574ecd-db56-4d9d-965f-9b92dc7d5835","ios":"levelo://app?vid=c4574ecd-db56-4d9d-965f-9b92dc7d5835"},"vehicle_type_id":"4","last_reported":1761225882,"current_range_meters":21600,"station_id":"ce4bhi12rcd13ifvqfp0","pricing_plan_id":"cebpf4jnsgd1na2vs0mg"},{"bike_id":"bdd952fc-87ca-42aa-b93b-8460cf0bb4a1","system_id":"levelo_inurba_marseille","lat":43.28152,"lon":5.42643,"is_reserved":false,"is_disabled":false,"rental_uris":{"android":"levelo://app?vid=bdd952fc-87ca-42aa-b93b-8460cf0bb4a1","ios":"levelo://app?vid=bdd952fc-87ca-42aa-b93b-8460cf0bb4a1"},"vehicle_type_id":"4","last_reported":1761225882,"current_range_meters":21600,"station_id":"ce4bhnh2rcd13ifvqgug","pricing_plan_id":"cebpf4jnsgd1na2vs0mg"},{"bike_id":"8b4cb801-c972-462d-87e3-3089b86ea404","system_id":"levelo_inurba_marseille","lat":43.299792,"lon":5.384868,"is_reserved":false,"is_disabled":false,"rental_uris":{"android":"levelo://app?vid=8b4cb801-c972-462d-87e3-3089b86ea404","ios":"levelo://app?vid=8b4cb801-c972-462d-87e3-3089b86ea404"},"vehicle_type_id":"4","last_reported":1761225882,"current_range_meters":21600,"station_id":"ce4bgj92rcd13ifvqbd0","pricing_plan_id":"cebpf4jnsgd1na2vs0mg"},{"bike_id":"17585014-36d0-4d96-ab97-1812e8c7fbe7","system_id":"levelo_inurba_marseille","lat":43.31667,"lon":5.38241,"is_reserved":false,"is_disabled":false,"rental_uris":{"android":"levelo://app?vid=17585014-36d0-4d96-ab97-1812e8c7fbe7","ios":"levelo://app?vid=17585014-36d0-4d96-ab97-1812e8c7fbe7"},"vehicle_type_id":"4","last_reported":1761225882,"current_range_meters":21600,"station_id":"","pricing_plan_id":"cebpf4jnsgd1na2vs0mg"},{"bike_id":"75eebb0f-2447-4bf8-b846-45b5b359059b","system_id":"levelo_inurba_marseille","lat":43.33769,"lon":5.37496,"is_reserved":false,"is_disabled":false,"rental_uris":{"android":"levelo://app?vid=75eebb0f-2447-4bf8-b846-45b5b359059b","ios":"levelo://app?vid=75eebb0f-2447-4bf8-b846-45b5b359059b"},"vehicle_type_id":"4","last_reported":1761225882,"current_range_meters":21600,"station_id":"","pricing_plan_id":"cebpf4jnsgd1na2vs0mg"},{"bike_id":"c22d217c-dd7f-4379-9e49-528ff73f0d34","system_id":"levelo_inurba_marseille","lat":43.28266,"lon":5.35078,"is_reserved":false,"is_disabled":false,"rental_uris":{"android":"levelo://app?vid=c22d217c-dd7f-4379-9e49-528ff73f0d34","ios":"levelo://app?vid=c22d217c-dd7f-4379-9e49-528ff73f0d34"},"vehicle_type_id":"4","last_reported":1761225882,"current_range_meters":21600,"station_id":"ce4bhbp2rcd13ifvqerg","pricing_plan_id":"cebpf4jnsgd1na2vs0mg"},{"bike_id":"9d964ec4-c537-4f1d-b21c-451d3f46b1bf","system_id":"levelo_inurba_marseille","lat":43.299027,"lon":5.378306,"is_reserved":false,"is_disabled":false,"rental_uris":{"android":"levelo://app?vid=9d964ec4-c537-4f1d-b21c-451d3f46b1bf","ios":"levelo://app?vid=9d964ec4-c537-4f1d-b21c-451d3f46b1bf"},"vehicle_type_id":"4","last_reported":1761225882,"current_range_meters":21600,"station_id":"","pricing_plan_id":"cebpf4jnsgd1na2vs0mg"},{"bike_id":"68a6c166-0eeb-4c09-a3a7-3f173dfb901b","system_id":"levelo_inurba_marseille","lat":43.2649,"lon":5.39551,"is_reserved":false,"is_disabled":false,"rental_uris":{"android":"levelo://app?vid=68a6c166-0eeb-4c09-a3a7-3f173dfb901b","ios":"levelo://app?vid=68a6c166-0eeb-4c09-a3a7-3f173dfb901b"},"vehicle_type_id":"4","last_reported":1761225882,"current_range_meters":21600,"station_id":"ce4bhi12rcd13ifvqfq0","pricing_plan_id":"cebpf4jnsgd1na2vs0mg"},{"bike_id":"d04e160f-5827-4950-868f-10f2ed25a9b1","system_id":"levelo_inurba_marseille","lat":43.266767,"lon":5.382665,"is_reserved":false,"is_disabled":false,"rental_uris":{"android":"levelo://app?vid=d04e160f-5827-4950-868f-10f2ed25a9b1","ios":"levelo://app?vid=d04e160f-5827-4950-868f-10f2ed25a9b1"},"vehicle_type_id":"4","last_reported":1761225882,"current_range_meters":22000,"station_id":"ce4bhg92rcd13ifvqf90","pricing_plan_id":"cebpf4jnsgd1na2vs0mg"},{"bike_id":"0943b00a-cc5a-4852-960d-49bde2940698","system_id":"levelo_inurba_marseille","lat":43.29717,"lon":5.37702,"is_reserved":false,"is_disabled":false,"rental_uris":{"android":"levelo://app?vid=0943b00a-cc5a-4852-960d-49bde2940698","ios":"levelo://app?vid=0943b00a-cc5a-4852-960d-49bde2940698"},"vehicle_type_id":"4","last_reported":1761225882,"current_range_meters":22000,"station_id":"ce4bgkh2rcd13ifvqbl0","pricing_plan_id":"cebpf4jnsgd1na2vs0mg"},{"bike_id":"f2e02df1-d0d6-4e71-a245-a7604e3f9858","system_id":"levelo_inurba_marseille","lat":43.281257,"lon":5.378427,"is_reserved":false,"is_disabled":false,"rental_uris":{"android":"levelo://app?vid=f2e02df1-d0d6-4e71-a245-a7604e3f9858","ios":"levelo://app?vid=f2e02df1-d0d6-4e71-a245-a7604e3f9858"},"vehicle_type_id":"4","last_reported":1761225882,"current_range_meters":22000,"station_id":"ce4bha12rcd13ifvqee0","pricing_plan_id":"cebpf4jnsgd1na2vs0mg"},{"bike_id":"9acc6c34-f87a-4f01-a5ed-e3e69b4f44a3","system_id":"levelo_inurba_marseille","lat":43.231531,"lon":5.437125,"is_reserved":false,"is_disabled":false,"rental_uris":{"android":"levelo://app?vid=9acc6c34-f87a-4f01-a5ed-e3e69b4f44a3","ios":"levelo://app?vid=9acc6c34-f87a-4f01-a5ed-e3e69b4f44a3"},"vehicle_type_id":"4","last_reported":1761225882,"current_range_meters":22000,"station_id":"ce4bhmp2rcd13ifvqgog","pricing_plan_id":"cebpf4jnsgd1na2vs0mg"},{"bike_id":"361742dd-7762-4723-9008-fcfc1728f0bb","system_id":"levelo_inurba_marseille","lat":43.336093,"lon":5.410349,"is_reserved":false,"is_disabled":false,"rental_uris":{"android":"levelo://app?vid=361742dd-7762-4723-9008-fcfc1728f0bb","ios":"levelo://app?vid=361742dd-7762-4723-9008-fcfc1728f0bb"},"vehicle_type_id":"4","last_reported":1761225882,"current_range_meters":22000,"station_id":"ce4bhqh2rcd13ifvqhmg","pricing_plan_id":"cebpf4jnsgd1na2vs0mg"},{"bike_id":"e37ba5f0-b558-40c4-9f90-609f4b12c14b","system_id":"levelo_inurba_marseille","lat":43.2657,"lon":5.39015,"is_reserved":false,"is_disabled":false,"rental_uris":{"android":"levelo://app?vid=e37ba5f0-b558-40c4-9f90-609f4b12c14b","ios":"levelo://app?vid=e37ba5f0-b558-40c4-9f90-609f4b12c14b"},"vehicle_type_id":"4","last_reported":1761225882,"current_range_meters":22000,"station_id":"ce4bhe12rcd13ifvqf30","pricing_plan_id":"cebpf4jnsgd1na2vs0mg"},{"bike_id":"1c0be2f6-97be-43cd-a9b9-b86f5dc95c26","system_id":"levelo_inurba_marseille","lat":43.27996,"lon":5.36966,"is_reserved":false,"is_disabled":false,"rental_uris":{"android":"levelo://app?vid=1c0be2f6-97be-43cd-a9b9-b86f5dc95c26","ios":"levelo://app?vid=1c0be2f6-97be-43cd-a9b9-b86f5dc95c26"},"vehicle_type_id":"4","last_reported":1761225882,"current_range_meters":22000,"station_id":"","pricing_plan_id":"cebpf4jnsgd1na2vs0mg"},{"bike_id":"34cab1f9-66cd-49e1-b2a4-30e23eb70f02","system_id":"levelo_inurba_marseille","lat":43.30517,"lon":5.36571,"is_reserved":false,"is_disabled":false,"rental_uris":{"android":"levelo://app?vid=34cab1f9-66cd-49e1-b2a4-30e23eb70f02","ios":"levelo://app?vid=34cab1f9-66cd-49e1-b2a4-30e23eb70f02"},"vehicle_type_id":"4","last_reported":1761225882,"current_range_meters":22000,"station_id":"","pricing_plan_id":"cebpf4jnsgd1na2vs0mg"},{"bike_id":"f8ed5907-138c-40de-b2c5-4b1ca0e5626c","system_id":"levelo_inurba_marseille","lat":43.33054,"lon":5.37652,"is_reserved":false,"is_disabled":false,"rental_uris":{"android":"levelo://app?vid=f8ed5907-138c-40de-b2c5-4b1ca0e5626c","ios":"levelo://app?vid=f8ed5907-138c-40de-b2c5-4b1ca0e5626c"},"vehicle_type_id":"4","last_reported":1761225882,"current_range_meters":22000,"station_id":"","pricing_plan_id":"cebpf4jnsgd1na2vs0mg"},{"bike_id":"4d8c2846-ead1-4425-a2c5-4396c678c4e2","system_id":"levelo_inurba_marseille","lat":43.29279,"lon":5.36847,"is_reserved":false,"is_disabled":false,"rental_uris":{"android":"levelo://app?vid=4d8c2846-ead1-4425-a2c5-4396c678c4e2","ios":"levelo://app?vid=4d8c2846-ead1-4425-a2c5-4396c678c4e2"},"vehicle_type_id":"4","last_reported":1761225882,"current_range_meters":22400,"station_id":"ce4bhbp2rcd13ifvqesg","pricing_plan_id":"cebpf4jnsgd1na2vs0mg"},{"bike_id":"86ba6db9-581f-4f0d-a848-83284862eebe","system_id":"levelo_inurba_marseille","lat":43.29255,"lon":5.40909,"is_reserved":false,"is_disabled":false,"rental_uris":{"android":"levelo://app?vid=86ba6db9-581f-4f0d-a848-83284862eebe","ios":"levelo://app?vid=86ba6db9-581f-4f0d-a848-83284862eebe"},"vehicle_type_id":"4","last_reported":1761225882,"current_range_meters":22400,"station_id":"ce4bh192rcd13ifvqdc0","pricing_plan_id":"cebpf4jnsgd1na2vs0mg"},{"bike_id":"be88eaa4-e674-44f9-9199-3901304dd644","system_id":"levelo_inurba_marseille","lat":43.21767,"lon":5.34609,"is_reserved":false,"is_disabled":false,"rental_uris":{"android":"levelo://app?vid=be88eaa4-e674-44f9-9199-3901304dd644","ios":"levelo://app?vid=be88eaa4-e674-44f9-9199-3901304dd644"},"vehicle_type_id":"4","last_reported":1761225882,"current_range_meters":22400,"station_id":"st_cvj6r9ubvosntc0bgbag","pricing_plan_id":"cebpf4jnsgd1na2vs0mg"},{"bike_id":"e5385e5c-8dfc-408f-a35e-7023476d5539","system_id":"levelo_inurba_marseille","lat":43.30284,"lon":5.37702,"is_reserved":false,"is_disabled":false,"rental_uris":{"android":"levelo://app?vid=e5385e5c-8dfc-408f-a35e-7023476d5539","ios":"levelo://app?vid=e5385e5c-8dfc-408f-a35e-7023476d5539"},"vehicle_type_id":"4","last_reported":1761225882,"current_range_meters":22400,"station_id":"ce4bguh2rcd13ifvqcj0","pricing_plan_id":"cebpf4jnsgd1na2vs0mg"},{"bike_id":"6bb9dc57-5792-4922-bf25-15b0e5cda6e8","system_id":"levelo_inurba_marseille","lat":43.24064,"lon":5.37767,"is_reserved":false,"is_disabled":false,"rental_uris":{"android":"levelo://app?vid=6bb9dc57-5792-4922-bf25-15b0e5cda6e8","ios":"levelo://app?vid=6bb9dc57-5792-4922-bf25-15b0e5cda6e8"},"vehicle_type_id":"4","last_reported":1761225882,"current_range_meters":22400,"station_id":"ce4bhnp2rcd13ifvqgvg","pricing_plan_id":"cebpf4jnsgd1na2vs0mg"},{"bike_id":"d5352b28-e991-46e5-886a-0714bdb8f488","system_id":"levelo_inurba_marseille","lat":43.23048,"lon":5.35495,"is_reserved":false,"is_disabled":false,"rental_uris":{"android":"levelo://app?vid=d5352b28-e991-46e5-886a-0714bdb8f488","ios":"levelo://app?vid=d5352b28-e991-46e5-886a-0714bdb8f488"},"vehicle_type_id":"4","last_reported":1761225882,"current_range_meters":22400,"station_id":"cpo3342slgdg3j2ifvpg","pricing_plan_id":"cebpf4jnsgd1na2vs0mg"},{"bike_id":"57b679af-c7e3-4aef-aaf7-dad7584c2820","system_id":"levelo_inurba_marseille","lat":43.25511,"lon":5.37654,"is_reserved":false,"is_disabled":false,"rental_uris":{"android":"levelo://app?vid=57b679af-c7e3-4aef-aaf7-dad7584c2820","ios":"levelo://app?vid=57b679af-c7e3-4aef-aaf7-dad7584c2820"},"vehicle_type_id":"4","last_reported":1761225882,"current_range_meters":22400,"station_id":"ce4bhh12rcd13ifvqff0","pricing_plan_id":"cebpf4jnsgd1na2vs0mg"},{"bike_id":"b8c97daa-9d25-46f3-82b1-f49b563fc2e4","system_id":"levelo_inurba_marseille","lat":43.24067,"lon":5.37758,"is_reserved":false,"is_disabled":false,"rental_uris":{"android":"levelo://app?vid=b8c97daa-9d25-46f3-82b1-f49b563fc2e4","ios":"levelo://app?vid=b8c97daa-9d25-46f3-82b1-f49b563fc2e4"},"vehicle_type_id":"4","last_reported":1761225882,"current_range_meters":22400,"station_id":"ce4bhnp2rcd13ifvqgvg","pricing_plan_id":"cebpf4jnsgd1na2vs0mg"},{"bike_id":"070c876e-5a11-4797-83e8-8561d9820e7c","system_id":"levelo_inurba_marseille","lat":43.26025,"lon":5.41731,"is_reserved":false,"is_disabled":false,"rental_uris":{"android":"levelo://app?vid=070c876e-5a11-4797-83e8-8561d9820e7c","ios":"levelo://app?vid=070c876e-5a11-4797-83e8-8561d9820e7c"},"vehicle_type_id":"4","last_reported":1761225882,"current_range_meters":22400,"station_id":"","pricing_plan_id":"cebpf4jnsgd1na2vs0mg"},{"bike_id":"12240916-8dd1-4cf0-8308-ac52b75d3470","system_id":"levelo_inurba_marseille","lat":43.3112,"lon":5.377714,"is_reserved":false,"is_disabled":false,"rental_uris":{"android":"levelo://app?vid=12240916-8dd1-4cf0-8308-ac52b75d3470","ios":"levelo://app?vid=12240916-8dd1-4cf0-8308-ac52b75d3470"},"vehicle_type_id":"4","last_reported":1761225882,"current_range_meters":22400,"station_id":"ce4bgt92rcd13ifvqcg0","pricing_plan_id":"cebpf4jnsgd1na2vs0mg"},{"bike_id":"5cf4395e-c249-4a7a-8170-3ad8e56ce424","system_id":"levelo_inurba_marseille","lat":43.30306,"lon":5.36897,"is_reserved":false,"is_disabled":false,"rental_uris":{"android":"levelo://app?vid=5cf4395e-c249-4a7a-8170-3ad8e56ce424","ios":"levelo://app?vid=5cf4395e-c249-4a7a-8170-3ad8e56ce424"},"vehicle_type_id":"4","last_reported":1761225882,"current_range_meters":22800,"station_id":"ce4bgqh2rcd13ifvqc5g","pricing_plan_id":"cebpf4jnsgd1na2vs0mg"},{"bike_id":"ffbc9390-6b87-4e50-81ac-ed003b00d72e","system_id":"levelo_inurba_marseille","lat":43.29532,"lon":5.38541,"is_reserved":false,"is_disabled":false,"rental_uris":{"android":"levelo://app?vid=ffbc9390-6b87-4e50-81ac-ed003b00d72e","ios":"levelo://app?vid=ffbc9390-6b87-4e50-81ac-ed003b00d72e"},"vehicle_type_id":"4","last_reported":1761225882,"current_range_meters":22800,"station_id":"ce4bgih2rcd13ifvqba0","pricing_plan_id":"cebpf4jnsgd1na2vs0mg"},{"bike_id":"d7489c97-e7bb-433d-bb95-20a341121d2d","system_id":"levelo_inurba_marseille","lat":43.29601,"lon":5.37754,"is_reserved":false,"is_disabled":false,"rental_uris":{"android":"levelo://app?vid=d7489c97-e7bb-433d-bb95-20a341121d2d","ios":"levelo://app?vid=d7489c97-e7bb-433d-bb95-20a341121d2d"},"vehicle_type_id":"4","last_reported":1761225882,"current_range_meters":22800,"station_id":"ce4bgi92rcd13ifvqb90","pricing_plan_id":"cebpf4jnsgd1na2vs0mg"},{"bike_id":"417d2345-c4c6-4ccd-bc5c-2eafc961607b","system_id":"levelo_inurba_marseille","lat":43.25482,"lon":5.3766,"is_reserved":false,"is_disabled":false,"rental_uris":{"android":"levelo://app?vid=417d2345-c4c6-4ccd-bc5c-2eafc961607b","ios":"levelo://app?vid=417d2345-c4c6-4ccd-bc5c-2eafc961607b"},"vehicle_type_id":"4","last_reported":1761225882,"current_range_meters":22800,"station_id":"ce4bhh12rcd13ifvqff0","pricing_plan_id":"cebpf4jnsgd1na2vs0mg"},{"bike_id":"b5641329-6254-484b-8916-95ed843300da","system_id":"levelo_inurba_marseille","lat":43.33612,"lon":5.40995,"is_reserved":false,"is_disabled":false,"rental_uris":{"android":"levelo://app?vid=b5641329-6254-484b-8916-95ed843300da","ios":"levelo://app?vid=b5641329-6254-484b-8916-95ed843300da"},"vehicle_type_id":"4","last_reported":1761225882,"current_range_meters":22800,"station_id":"ce4bhqh2rcd13ifvqhmg","pricing_plan_id":"cebpf4jnsgd1na2vs0mg"},{"bike_id":"4dee4a5f-b0fe-4a53-9dbd-e7c64ee7bc4f","system_id":"levelo_inurba_marseille","lat":43.27824,"lon":5.407,"is_reserved":false,"is_disabled":false,"rental_uris":{"android":"levelo://app?vid=4dee4a5f-b0fe-4a53-9dbd-e7c64ee7bc4f","ios":"levelo://app?vid=4dee4a5f-b0fe-4a53-9dbd-e7c64ee7bc4f"},"vehicle_type_id":"4","last_reported":1761225882,"current_range_meters":22800,"station_id":"ce4bhnh2rcd13ifvqgtg","pricing_plan_id":"cebpf4jnsgd1na2vs0mg"},{"bike_id":"ab1dc6bf-d651-4056-ad23-b67254daea0b","system_id":"levelo_inurba_marseille","lat":43.337509,"lon":5.375088,"is_reserved":false,"is_disabled":false,"rental_uris":{"android":"levelo://app?vid=ab1dc6bf-d651-4056-ad23-b67254daea0b","ios":"levelo://app?vid=ab1dc6bf-d651-4056-ad23-b67254daea0b"},