{"last_updated":1690499190,"ttl":30,"version":"2.2","data":{"bikes":[{"bike_id":"a59063fa-fb41-4b83-b29e-ce9c251369b4","system_id":"levelo_inurba_marseille","lat":43.31341,"lon":5.367098,"is_reserved":false,"is_disabled":false,"rental_uris":{"android":"levelo://app?vid=a59063fa-fb41-4b83-b29e-ce9c251369b4","ios":"levelo://app?vid=a59063fa-fb41-4b83-b29e-ce9c251369b4"},"vehicle_type_id":"4","last_reported":1690499190,"current_range_meters":30000,"station_id":"ce4bgr92rcd13ifvqc6g","pricing_plan_id":"free"},{"bike_id":"e526d4e2-849c-44ae-a0d7-5572a62df909","system_id":"levelo_inurba_marseille","lat":43.312239,"lon":5.368562,"is_reserved":false,"is_disabled":false,"rental_uris":{"android":"levelo://app?vid=e526d4e2-849c-44ae-a0d7-5572a62df909","ios":"levelo://app?vid=e526d4e2-849c-44ae-a0d7-5572a62df909"},"vehicle_type_id":"4","last_reported":1690499190,"current_range_meters":31200,"station_id":"ce4bgl92rcd13ifvqbq0","pricing_plan_id":"free"},{"bike_id":"f56ae1c4-29ef-4e22-9459-77ea82e027b7","system_id":"levelo_inurba_marseille","lat":43.31486,"lon":5.37303,"is_reserved":false,"is_disabled":false,"rental_uris":{"android":"levelo://app?vid=f56ae1c4-29ef-4e22-9459-77ea82e027b7","ios":"levelo://app?vid=f56ae1c4-29ef-4e22-9459-77ea82e027b7"},"vehicle_type_id":"4","last_reported":1690499190,"current_range_meters":24000,"station_id":"ce4bgt12rcd13ifvqcd0","pricing_plan_id":"free"},{"bike_id":"fbdeb8b3-5f5f-4c09-a262-1a0d8471e2a0","system_id":"levelo_inurba_marseille","lat":43.314811,"lon":5.373103,"is_reserved":false,"is_disabled":false,"rental_uris":{"android":"levelo://app?vid=fbdeb8b3-5f5f-4c09-a262-1a0d8471e2a0","ios":"levelo://app?vid=fbdeb8b3-5f5f-4c09-a262-1a0d8471e2a0"},"vehicle_type_id":"4","last_reported":1690499190,"current_range_meters":28400,"station_id":"ce4bgt12rcd13ifvqcd0","pricing_plan_id":"free"},{"bike_id":"5c613f3b-d9e6-4104-b114-4ba030561607","system_id":"levelo_inurba_marseille","lat":43.314811,"lon":5.373103,"is_reserved":false,"is_disabled":false,"rental_uris":{"android":"levelo://app?vid=5c613f3b-d9e6-4104-b114-4ba030561607","ios":"levelo://app?vid=5c613f3b-d9e6-4104-b114-4ba030561607"},"vehicle_type_id":"4","last_reported":1690499190,"current_range_meters":13200,"station_id":"ce4bgt12rcd13ifvqcd0","pricing_plan_id":"free"},{"bike_id":"3f8f07c8-640d-424b-8d5b-249c70e77a86","system_id":"levelo_inurba_marseille","lat":43.314811,"lon":5.373104,"is_reserved":false,"is_disabled":false,"rental_uris":{"android":"levelo://app?vid=3f8f07c8-640d-424b-8d5b-249c70e77a86","ios":"levelo://app?vid=3f8f07c8-640d-424b-8d5b-249c70e77a86"},"vehicle_type_id":"4","last_reported":1690499190,"current_range_meters":13200,"station_id":"ce4bgt12rcd13ifvqcd0","pricing_plan_id":"free"},{"bike_id":"209040d6-e4d4-4f9d-bc62-3012ef755918","system_id":"levelo_inurba_marseille","lat":43.30891,"lon":5.37194,"is_reserved":false,"is_disabled":false,"rental_uris":{"android":"levelo://app?vid=209040d6-e4d4-4f9d-bc62-3012ef755918","ios":"levelo://app?vid=209040d6-e4d4-4f9d-bc62-3012ef755918"},"vehicle_type_id":"4","last_reported":1690499190,"current_range_meters":22400,"station_id":"ce4bguh2rcd13ifvqckg","pricing_plan_id":"free"},{"bike_id":"29b195d0-6214-4365-93df-73fd4ff9bd5c","system_id":"levelo_inurba_marseille","lat":43.305989,"lon":5.37225,"is_reserved":false,"is_disabled":false,"rental_uris":{"android":"levelo://app?vid=29b195d0-6214-4365-93df-73fd4ff9bd5c","ios":"levelo://app?vid=29b195d0-6214-4365-93df-73fd4ff9bd5c"},"vehicle_type_id":"4","last_reported":1690499190,"current_range_meters":23600,"station_id":"ce4bgqh2rcd13ifvqc4g","pricing_plan_id":"free"},{"bike_id":"11fe9b86-cca7-4891-9677-867b9bfbd169","system_id":"levelo_inurba_marseille","lat":43.31122,"lon":5.37768,"is_reserved":false,"is_disabled":false,"rental_uris":{"android":"levelo://app?vid=11fe9b86-cca7-4891-9677-867b9bfbd169","ios":"levelo://app?vid=11fe9b86-cca7-4891-9677-867b9bfbd169"},"vehicle_type_id":"4","last_reported":1690499190,"current_range_meters":21600,"station_id":"ce4bgt92rcd13ifvqcg0","pricing_plan_id":"free"},{"bike_id":"596ca0e8-b901-4d06-934b-65e3767dcbd8","system_id":"levelo_inurba_marseille","lat":43.311125,"lon":5.377624,"is_reserved":false,"is_disabled":false,"rental_uris":{"android":"levelo://app?vid=596ca0e8-b901-4d06-934b-65e3767dcbd8","ios":"levelo://app?vid=596ca0e8-b901-4d06-934b-65e3767dcbd8"},"vehicle_type_id":"4","last_reported":1690499190,"current_range_meters":3600,"station_id":"ce4bgt92rcd13ifvqcg0","pricing_plan_id":"free"},{"bike_id":"fb3e5e85-f521-4e39-905b-4c0a482ce8fa","system_id":"levelo_inurba_marseille","lat":43.31114,"lon":5.37769,"is_reserved":false,"is_disabled":false,"rental_uris":{"android":"levelo://app?vid=fb3e5e85-f521-4e39-905b-4c0a482ce8fa","ios":"levelo://app?vid=fb3e5e85-f521-4e39-905b-4c0a482ce8fa"},"vehicle_type_id":"4","last_reported":1690499190,"current_range_meters":30400,"station_id":"ce4bgt92rcd13ifvqcg0","pricing_plan_id":"free"},{"bike_id":"c84ff639-f2ad-4d0b-90e4-74cda556e065","system_id":"levelo_inurba_marseille","lat":43.311125,"lon":5.377624,"is_reserved":false,"is_disabled":false,"rental_uris":{"android":"levelo://app?vid=c84ff639-f2ad-4d0b-90e4-74cda556e065","ios":"levelo://app?vid=c84ff639-f2ad-4d0b-90e4-74cda556e065"},"vehicle_type_id":"4","last_reported":1690499190,"current_range_meters":18800,"station_id":"ce4bgt92rcd13ifvqcg0","pricing_plan_id":"free"},{"bike_id":"697648bf-45ae-432a-b49f-2396155709dc","system_id":"levelo_inurba_marseille","lat":43.31114,"lon":5.37776,"is_reserved":false,"is_disabled":false,"rental_uris":{"android":"levelo://app?vid=697648bf-45ae-432a-b49f-2396155709dc","ios":"levelo://app?vid=697648bf-45ae-432a-b49f-2396155709dc"},"vehicle_type_id":"4","last_reported":1690499190,"current_range_meters":16000,"station_id":"ce4bgt92rcd13ifvqcg0","pricing_plan_id":"free"},{"bike_id":"3d5f858f-c0f1-45b8-928e-7c95b0462680","system_id":"levelo_inurba_marseille","lat":43.30793,"lon":5.37654,"is_reserved":false,"is_disabled":false,"rental_uris":{"android":"levelo://app?vid=3d5f858f-c0f1-45b8-928e-7c95b0462680","ios":"levelo://app?vid=3d5f858f-c0f1-45b8-928e-7c95b0462680"},"vehicle_type_id":"4","last_reported":1690499190,"current_range_meters":18800,"station_id":"ce4bgv92rcd13ifvqcq0","pricing_plan_id":"free"},{"bike_id":"8cb7bf8f-1d31-4a11-8ac3-79222e855adc","system_id":"levelo_inurba_marseille","lat":43.30784,"lon":5.37649,"is_reserved":false,"is_disabled":false,"rental_uris":{"android":"levelo://app?vid=8cb7bf8f-1d31-4a11-8ac3-79222e855adc","ios":"levelo://app?vid=8cb7bf8f-1d31-4a11-8ac3-79222e855adc"},"vehicle_type_id":"4","last_reported":1690499190,"current_range_meters":20400,"station_id":"ce4bgv92rcd13ifvqcq0","pricing_plan_id":"free"},{"bike_id":"588ffe3a-4953-45db-83ce-780f8f188322","system_id":"levelo_inurba_marseille","lat":43.307945,"lon":5.376487,"is_reserved":false,"is_disabled":false,"rental_uris":{"android":"levelo://app?vid=588ffe3a-4953-45db-83ce-780f8f188322","ios":"levelo://app?vid=588ffe3a-4953-45db-83ce-780f8f188322"},"vehicle_type_id":"4","last_reported":1690499190,"current_range_meters":4800,"station_id":"ce4bgv92rcd13ifvqcq0","pricing_plan_id":"free"},{"bike_id":"f21aa629-511c-479b-937e-447ded941140","system_id":"levelo_inurba_marseille","lat":43.30787,"lon":5.37659,"is_reserved":false,"is_disabled":false,"rental_uris":{"android":"levelo://app?vid=f21aa629-511c-479b-937e-447ded941140","ios":"levelo://app?vid=f21aa629-511c-479b-937e-447ded941140"},"vehicle_type_id":"4","last_reported":1690499190,"current_range_meters":14000,"station_id":"ce4bgv92rcd13ifvqcq0","pricing_plan_id":"free"},{"bike_id":"08d3e207-d93a-47b2-9fe6-7eaaf18a6fcc","system_id":"levelo_inurba_marseille","lat":43.30785,"lon":5.3766,"is_reserved":false,"is_disabled":false,"rental_uris":{"android":"levelo://app?vid=08d3e207-d93a-47b2-9fe6-7eaaf18a6fcc","ios":"levelo://app?vid=08d3e207-d93a-47b2-9fe6-7eaaf18a6fcc"},"vehicle_type_id":"4","last_reported":1690499190,"current_range_meters":14400,"station_id":"ce4bgv92rcd13ifvqcq0","pricing_plan_id":"free"},{"bike_id":"6dc623bb-07c2-4e0c-8c2d-3ec70d5c7a93","system_id":"levelo_inurba_marseille","lat":43.30778,"lon":5.37658,"is_reserved":false,"is_disabled":false,"rental_uris":{"android":"levelo://app?vid=6dc623bb-07c2-4e0c-8c2d-3ec70d5c7a93","ios":"levelo://app?vid=6dc623bb-07c2-4e0c-8c2d-3ec70d5c7a93"},"vehicle_type_id":"4","last_reported":1690499190,"current_range_meters":0,"station_id":"ce4bgv92rcd13ifvqcq0","pricing_plan_id":"free"},{"bike_id":"9cf8c145-dc41-4865-9c63-fca295955fbb","system_id":"levelo_inurba_marseille","lat":43.31531,"lon":5.38026,"is_reserved":false,"is_disabled":false,"rental_uris":{"android":"levelo://app?vid=9cf8c145-dc41-4865-9c63-fca295955fbb","ios":"levelo://app?vid=9cf8c145-dc41-4865-9c63-fca295955fbb"},"vehicle_type_id":"4","last_reported":1690499190,"current_range_meters":18000,"station_id":"ce4bhsp2rcd13ifvqi50","pricing_plan_id":"free"},{"bike_id":"20e7fff0-35cf-4dcf-9d9f-88c5b97a9fd3","system_id":"levelo_inurba_marseille","lat":43.315293,"lon":5.380349,"is_reserved":false,"is_disabled":false,"rental_uris":{"android":"levelo://app?vid=20e7fff0-35cf-4dcf-9d9f-88c5b97a9fd3","ios":"levelo://app?vid=20e7fff0-35cf-4dcf-9d9f-88c5b97a9fd3"},"vehicle_type_id":"4","last_reported":1690499190,"current_range_meters":25200,"station_id":"ce4bhsp2rcd13ifvqi50","pricing_plan_id":"free"},{"bike_id":"6c915228-638d-47e5-a5fe-ebafcc051acf","system_id":"levelo_inurba_marseille","lat":43.301939,"lon":5.366286,"is_reserved":false,"is_disabled":false,"rental_uris":{"android":"levelo://app?vid=6c915228-638d-47e5-a5fe-ebafcc051acf","ios":"levelo://app?vid=6c915228-638d-47e5-a5fe-ebafcc051acf"},"vehicle_type_id":"4","last_reported":1690499190,"current_range_meters":20000,"station_id":"ce4bgrh2rcd13ifvqc8g","pricing_plan_id":"free"},{"bike_id":"3e77ecd3-d055-4830-8e99-201391642392","system_id":"levelo_inurba_marseille","lat":43.301939,"lon":5.366286,"is_reserved":false,"is_disabled":false,"rental_uris":{"android":"levelo://app?vid=3e77ecd3-d055-4830-8e99-201391642392","ios":"levelo://app?vid=3e77ecd3-d055-4830-8e99-201391642392"},"vehicle_type_id":"4","last_reported":1690499190,"current_range_meters":18400,"station_id":"ce4bgrh2rcd13ifvqc8g","pricing_plan_id":"free"},{"bike_id":"b0e25b2f-6c61-47fe-9926-9965e07e41eb","system_id":"levelo_inurba_marseille","lat":43.30802,"lon":5.38141,"is_reserved":false,"is_disabled":false,"rental_uris":{"android":"levelo://app?vid=b0e25b2f-6c61-47fe-9926-9965e07e41eb","ios":"levelo://app?vid=b0e25b2f-6c61-47fe-9926-9965e07e41eb"},"vehicle_type_id":"4","last_reported":1690499190,"current_range_meters":26800,"station_id":"ce4bgt12rcd13ifvqce0","pricing_plan_id":"free"},{"bike_id":"ab748b19-d433-4c99-a5d1-92f4758237cc","system_id":"levelo_inurba_marseille","lat":43.30806,"lon":5.38154,"is_reserved":false,"is_disabled":false,"rental_uris":{"android":"levelo://app?vid=ab748b19-d433-4c99-a5d1-92f4758237cc","ios":"levelo://app?vid=ab748b19-d433-4c99-a5d1-92f4758237cc"},"vehicle_type_id":"4","last_reported":1690499190,"current_range_meters":29200,"station_id":"ce4bgt12rcd13ifvqce0","pricing_plan_id":"free"},{"bike_id":"43e10241-b906-4a2c-839a-bbd3cc81f7bb","system_id":"levelo_inurba_marseille","lat":43.30801,"lon":5.38155,"is_reserved":false,"is_disabled":false,"rental_uris":{"android":"levelo://app?vid=43e10241-b906-4a2c-839a-bbd3cc81f7bb","ios":"levelo://app?vid=43e10241-b906-4a2c-839a-bbd3cc81f7bb"},"vehicle_type_id":"4","last_reported":1690499190,"current_range_meters":31200,"station_id":"ce4bgt12rcd13ifvqce0","pricing_plan_id":"free"},{"bike_id":"746be919-55e6-4f58-9393-d140d8481e91","system_id":"levelo_inurba_marseille","lat":43.30805,"lon":5.38159,"is_reserved":false,"is_disabled":false,"rental_uris":{"android":"levelo://app?vid=746be919-55e6-4f58-9393-d140d8481e91","ios":"levelo://app?vid=746be919-55e6-4f58-9393-d140d8481e91"},"vehicle_type_id":"4","last_reported":1690499190,"current_range_meters":24000,"station_id":"ce4bgt12rcd13ifvqce0","pricing_plan_id":"free"},{"bike_id":"a5e1aacf-0056-482a-a2a7-7575aa2aeb8b","system_id":"levelo_inurba_marseille","lat":43.30797,"lon":5.38155,"is_reserved":false,"is_disabled":false,"rental_uris":{"android":"levelo://app?vid=a5e1aacf-0056-482a-a2a7-7575aa2aeb8b","ios":"levelo://app?vid=a5e1aacf-0056-482a-a2a7-7575aa2aeb8b"},"vehicle_type_id":"4","last_reported":1690499190,"current_range_meters":31200,"station_id":"ce4bgt12rcd13ifvqce0","pricing_plan_id":"free"},{"bike_id":"471110a0-81d6-41ce-aee3-511bf78c4266","system_id":"levelo_inurba_marseille","lat":43.30795,"lon":5.38159,"is_reserved":false,"is_disabled":false,"rental_uris":{"android":"levelo://app?vid=471110a0-81d6-41ce-aee3-511bf78c4266","ios":"levelo://app?vid=471110a0-81d6-41ce-aee3-511bf78c4266"},"vehicle_type_id":"4","last_reported":1690499190,"current_range_meters":12400,"station_id":"ce4bgt12rcd13ifvqce0","pricing_plan_id":"free"},{"bike_id":"65fafd5d-b974-4ea2-89bc-0ef0fae97206","system_id":"levelo_inurba_marseille","lat":43.304606,"lon":5.379026,"is_reserved":false,"is_disabled":false,"rental_uris":{"android":"levelo://app?vid=65fafd5d-b974-4ea2-89bc-0ef0fae97206","ios":"levelo://app?vid=65fafd5d-b974-4ea2-89bc-0ef0fae97206"},"vehicle_type_id":"4","last_reported":1690499190,"current_range_meters":24400,"station_id":"ce4bgup2rcd13ifvqcn0","pricing_plan_id":"free"},{"bike_id":"693865bd-98d1-4de2-8ea2-ca3313960ccd","system_id":"levelo_inurba_marseille","lat":43.3028,"lon":5.37709,"is_reserved":false,"is_disabled":false,"rental_uris":{"android":"levelo://app?vid=693865bd-98d1-4de2-8ea2-ca3313960ccd","ios":"levelo://app?vid=693865bd-98d1-4de2-8ea2-ca3313960ccd"},"vehicle_type_id":"4","last_reported":1690499190,"current_range_meters":19600,"station_id":"","pricing_plan_id":"free"},{"bike_id":"17481a40-a022-4598-84ca-ebed4b5d1b00","system_id":"levelo_inurba_marseille","lat":43.30142,"lon":5.37429,"is_reserved":false,"is_disabled":false,"rental_uris":{"android":"levelo://app?vid=17481a40-a022-4598-84ca-ebed4b5d1b00","ios":"levelo://app?vid=17481a40-a022-4598-84ca-ebed4b5d1b00"},"vehicle_type_id":"4","last_reported":1690499190,"current_range_meters":19600,"station_id":"ce4bgs92rcd13ifvqcc0","pricing_plan_id":"free"},{"bike_id":"dbf8fa17-e6a3-46c0-91f3-12c8ee24d085","system_id":"levelo_inurba_marseille","lat":43.31997,"lon":5.38159,"is_reserved":false,"is_disabled":false,"rental_uris":{"android":"levelo://app?vid=dbf8fa17-e6a3-46c0-91f3-12c8ee24d085","ios":"levelo://app?vid=dbf8fa17-e6a3-46c0-91f3-12c8ee24d085"},"vehicle_type_id":"4","last_reported":1690499190,"current_range_meters":6800,"station_id":"ce4bhr12rcd13ifvqhpg","pricing_plan_id":"free"},{"bike_id":"2f7c656a-1ed8-481f-89b6-5e19f5f3170e","system_id":"levelo_inurba_marseille","lat":43.319935,"lon":5.381699,"is_reserved":false,"is_disabled":false,"rental_uris":{"android":"levelo://app?vid=2f7c656a-1ed8-481f-89b6-5e19f5f3170e","ios":"levelo://app?vid=2f7c656a-1ed8-481f-89b6-5e19f5f3170e"},"vehicle_type_id":"4","last_reported":1690499190,"current_range_meters":0,"station_id":"ce4bhr12rcd13ifvqhpg","pricing_plan_id":"free"},{"bike_id":"d3e5c9e9-029d-4f12-87dd-0305bbdbb812","system_id":"levelo_inurba_marseille","lat":43.319935,"lon":5.381699,"is_reserved":false,"is_disabled":false,"rental_uris":{"android":"levelo://app?vid=d3e5c9e9-029d-4f12-87dd-0305bbdbb812","ios":"levelo://app?vid=d3e5c9e9-029d-4f12-87dd-0305bbdbb812"},"vehicle_type_id":"4","last_reported":1690499190,"current_range_meters":30000,"station_id":"ce4bhr12rcd13ifvqhpg","pricing_plan_id":"free"},{"bike_id":"fde0190f-4cea-4ab3-a7da-7ec9403606a9","system_id":"levelo_inurba_marseille","lat":43.32002,"lon":5.38159,"is_reserved":false,"is_disabled":false,"rental_uris":{"android":"levelo://app?vid=fde0190f-4cea-4ab3-a7da-7ec9403606a9","ios":"levelo://app?vid=fde0190f-4cea-4ab3-a7da-7ec9403606a9"},"vehicle_type_id":"4","last_reported":1690499190,"current_range_meters":21200,"station_id":"ce4bhr12rcd13ifvqhpg","pricing_plan_id":"free"},{"bike_id":"4e14723e-231f-4508-bace-393b52bca1c2","system_id":"levelo_inurba_marseille","lat":43.32006,"lon":5.38158,"is_reserved":false,"is_disabled":false,"rental_uris":{"android":"levelo://app?vid=4e14723e-231f-4508-bace-393b52bca1c2","ios":"levelo://app?vid=4e14723e-231f-4508-bace-393b52bca1c2"},"vehicle_type_id":"4","last_reported":1690499190,"current_range_meters":15600,"station_id":"ce4bhr12rcd13ifvqhpg","pricing_plan_id":"free"},{"bike_id":"0015a0cf-1d8d-4af3-9c75-9e9b9b81fc50","system_id":"levelo_inurba_marseille","lat":43.313571,"lon":5.384829,"is_reserved":false,"is_disabled":false,"rental_uris":{"android":"levelo://app?vid=0015a0cf-1d8d-4af3-9c75-9e9b9b81fc50","ios":"levelo://app?vid=0015a0cf-1d8d-4af3-9c75-9e9b9b81fc50"},"vehicle_type_id":"4","last_reported":1690499190,"current_range_meters":31200,"station_id":"ce4bgt92rcd13ifvqcf0","pricing_plan_id":"free"},{"bike_id":"bdb5bb98-6240-4ce7-9476-4d67b7799b70","system_id":"levelo_inurba_marseille","lat":43.313571,"lon":5.384829,"is_reserved":false,"is_disabled":false,"rental_uris":{"android":"levelo://app?vid=bdb5bb98-6240-4ce7-9476-4d67b7799b70","ios":"levelo://app?vid=bdb5bb98-6240-4ce7-9476-4d67b7799b70"},"vehicle_type_id":"4","last_reported":1690499190,"current_range_meters":28000,"station_id":"ce4bgt92rcd13ifvqcf0","pricing_plan_id":"free"},{"bike_id":"0dbecc1e-abba-4598-9372-33eba896913f","system_id":"levelo_inurba_marseille","lat":43.31364,"lon":5.38504,"is_reserved":false,"is_disabled":false,"rental_uris":{"android":"levelo://app?vid=0dbecc1e-abba-4598-9372-33eba896913f","ios":"levelo://app?vid=0dbecc1e-abba-4598-9372-33eba896913f"},"vehicle_type_id":"4","last_reported":1690499190,"current_range_meters":29600,"station_id":"ce4bgt92rcd13ifvqcf0","pricing_plan_id":"free"},{"bike_id":"0cf68edb-65e5-477c-b43a-8aba2f161c5c","system_id":"levelo_inurba_marseille","lat":43.313571,"lon":5.384829,"is_reserved":false,"is_disabled":false,"rental_uris":{"android":"levelo://app?vid=0cf68edb-65e5-477c-b43a-8aba2f161c5c","ios":"levelo://app?vid=0cf68edb-65e5-477c-b43a-8aba2f161c5c"},"vehicle_type_id":"4","last_reported":1690499190,"current_range_meters":30400,"station_id":"ce4bgt92rcd13ifvqcf0","pricing_plan_id":"free"},{"bike_id":"c489cd14-84f5-42f6-8475-4a7974bd17ea","system_id":"levelo_inurba_marseille","lat":43.2997,"lon":5.37178,"is_reserved":false,"is_disabled":false,"rental_uris":{"android":"levelo://app?vid=c489cd14-84f5-42f6-8475-4a7974bd17ea","ios":"levelo://app?vid=c489cd14-84f5-42f6-8475-4a7974bd17ea"},"vehicle_type_id":"4","last_reported":1690499190,"current_range_meters":18400,"station_id":"ce4bgr92rcd13ifvqc7g","pricing_plan_id":"free"},{"bike_id":"338f3eb8-0353-494a-8442-8cdc1a4d7873","system_id":"levelo_inurba_marseille","lat":43.30541,"lon":5.38429,"is_reserved":false,"is_disabled":false,"rental_uris":{"android":"levelo://app?vid=338f3eb8-0353-494a-8442-8cdc1a4d7873","ios":"levelo://app?vid=338f3eb8-0353-494a-8442-8cdc1a4d7873"},"vehicle_type_id":"4","last_reported":1690499190,"current_range_meters":31200,"station_id":"ce4bgg92rcd13ifvqb30","pricing_plan_id":"free"},{"bike_id":"fbe604fe-cee3-4c76-831a-20f91e43f0dd","system_id":"levelo_inurba_marseille","lat":43.305364,"lon":5.384119,"is_reserved":false,"is_disabled":false,"rental_uris":{"android":"levelo://app?vid=fbe604fe-cee3-4c76-831a-20f91e43f0dd","ios":"levelo://app?vid=fbe604fe-cee3-4c76-831a-20f91e43f0dd"},"vehicle_type_id":"4","last_reported":1690499190,"current_range_meters":18800,"station_id":"ce4bgg92rcd13ifvqb30","pricing_plan_id":"free"},{"bike_id":"76431be1-9f4a-4558-8094-43cfd2c84966","system_id":"levelo_inurba_marseille","lat":43.30533,"lon":5.38428,"is_reserved":false,"is_disabled":false,"rental_uris":{"android":"levelo://app?vid=76431be1-9f4a-4558-8094-43cfd2c84966","ios":"levelo://app?vid=76431be1-9f4a-4558-8094-43cfd2c84966"},"vehicle_type_id":"4","last_reported":1690499190,"current_range_meters":13200,"station_id":"ce4bgg92rcd13ifvqb30","pricing_plan_id":"free"},{"bike_id":"e7270bd2-1a70-4a29-875e-bc67764f33b3","system_id":"levelo_inurba_marseille","lat":43.305364,"lon":5.384119,"is_reserved":false,"is_disabled":false,"rental_uris":{"android":"levelo://app?vid=e7270bd2-1a70-4a29-875e-bc67764f33b3","ios":"levelo://app?vid=e7270bd2-1a70-4a29-875e-bc67764f33b3"},"vehicle_type_id":"4","last_reported":1690499190,"current_range_meters":30000,"station_id":"ce4bgg92rcd13ifvqb30","pricing_plan_id":"free"},{"bike_id":"df1384a4-67b4-435b-a929-4068895ae386","system_id":"levelo_inurba_marseille","lat":43.305364,"lon":5.384119,"is_reserved":false,"is_disabled":false,"rental_uris":{"android":"levelo://app?vid=df1384a4-67b4-435b-a929-4068895ae386","ios":"levelo://app?vid=df1384a4-67b4-435b-a929-4068895ae386"},"vehicle_type_id":"4","last_reported":1690499190,"current_range_meters":13200,"station_id":"ce4bgg92rcd13ifvqb30","pricing_plan_id":"free"},{"bike_id":"2b032ea7-4ff6-4862-be29-cab8774c3f66","system_id":"levelo_inurba_marseille","lat":43.30527,"lon":5.38434,"is_reserved":false,"is_disabled":false,"rental_uris":{"android":"levelo://app?vid=2b032ea7-4ff6-4862-be29-cab8774c3f66","ios":"levelo://app?vid=2b032ea7-4ff6-4862-be29-cab8774c3f66"},"vehicle_type_id":"4","last_reported":1690499190,"current_range_meters":26400,"station_id":"ce4bgg92rcd13ifvqb30","pricing_plan_id":"free"},{"bike_id":"9c177a11-e999-470a-96d0-84559c9028c0","system_id":"levelo_inurba_marseille","lat":43.31174,"lon":5.38717,"is_reserved":false,"is_disabled":false,"rental_uris":{"android":"levelo://app?vid=9c177a11-e999-470a-96d0-84559c9028c0","ios":"levelo://app?vid=9c177a11-e999-470a-96d0-84559c9028c0"},"vehicle_type_id":"4","last_reported":1690499190,"current_range_meters":27200,"station_id":"","pricing_plan_id":"free"},{"bike_id":"1a858029-da2d-46f2-8df9-ffc9c19eed37","system_id":"levelo_inurba_marseille","lat":43.29915,"lon":5.37487,"is_reserved":false,"is_disabled":false,"rental_uris":{"android":"levelo://app?vid=1a858029-da2d-46f2-8df9-ffc9c19eed37","ios":"levelo://app?vid=1a858029-da2d-46f2-8df9-ffc9c19eed37"},"vehicle_type_id":"4","last_reported":1690499190,"current_range_meters":28800,"station_id":"","pricing_plan_id":"free"},{"bike_id":"d7282c71-8b99-4fbb-9bd1-169ec1261026","system_id":"levelo_inurba_marseille","lat":43.311722,"lon":5.387247,"is_reserved":false,"is_disabled":false,"rental_uris":{"android":"levelo://app?vid=d7282c71-8b99-4fbb-9bd1-169ec1261026","ios":"levelo://app?vid=d7282c71-8b99-4fbb-9bd1-169ec1261026"},"vehicle_type_id":"4","last_reported":1690499190,"current_range_meters":24800,"station_id":"ce4bgv12rcd13ifvqcp0","pricing_plan_id":"free"},{"bike_id":"ab231d1c-0dc2-4b18-8210-dc1a3f849ecb","system_id":"levelo_inurba_marseille","lat":43.311722,"lon":5.387247,"is_reserved":false,"is_disabled":false,"rental_uris":{"android":"levelo://app?vid=ab231d1c-0dc2-4b18-8210-dc1a3f849ecb","ios":"levelo://app?vid=ab231d1c-0dc2-4b18-8210-dc1a3f849ecb"},"vehicle_type_id":"4","last_reported":1690499190,"current_range_meters":16400,"station_id":"ce4bgv12rcd13ifvqcp0","pricing_plan_id":"free"},{"bike_id":"4e763bfa-82d4-4899-bb05-f678bc5a55b1","system_id":"levelo_inurba_marseille","lat":43.311722,"lon":5.387247,"is_reserved":false,"is_disabled":false,"rental_uris":{"android":"levelo://app?vid=4e763bfa-82d4-4899-bb05-f678bc5a55b1","ios":"levelo://app?vid=4e763bfa-82d4-4899-bb05-f678bc5a55b1"},"vehicle_type_id":"4","last_reported":1690499190,"current_range_meters":31200,"station_id":"ce4bgv12rcd13ifvqcp0","pricing_plan_id":"free"},{"bike_id":"152f0722-bef8-4626-ae6f-5379c57293c2","system_id":"levelo_inurba_marseille","lat":43.32834,"lon":5.36682,"is_reserved":false,"is_disabled":false,"rental_uris":{"android":"levelo://app?vid=152f0722-bef8-4626-ae6f-5379c57293c2","ios":"levelo://app?vid=152f0722-bef8-4626-ae6f-5379c57293c2"},"vehicle_type_id":"4","last_reported":1690499190,"current_range_meters":12000,"station_id":"ce4bhs92rcd13ifvqi0g","pricing_plan_id":"free"},{"bike_id":"dd789220-e7b5-42c1-b9dc-dc4243148021","system_id":"levelo_inurba_marseille","lat":43.297163,"lon":5.365866,"is_reserved":false,"is_disabled":false,"rental_uris":{"android":"levelo://app?vid=dd789220-e7b5-42c1-b9dc-dc4243148021","ios":"levelo://app?vid=dd789220-e7b5-42c1-b9dc-dc4243148021"},"vehicle_type_id":"4","last_reported":1690499190,"current_range_meters":31200,"station_id":"ce4bgn12rcd13ifvqbt0","pricing_plan_id":"free"},{"bike_id":"71aeab70-24fc-4986-8033-8345ad4c7328","system_id":"levelo_inurba_marseille","lat":43.299028,"lon":5.381509,"is_reserved":false,"is_disabled":false,"rental_uris":{"android":"levelo://app?vid=71aeab70-24fc-4986-8033-8345ad4c7328","ios":"levelo://app?vid=71aeab70-24fc-4986-8033-8345ad4c7328"},"vehicle_type_id":"4","last_reported":1690499190,"current_range_meters":6400,"station_id":"ce4bgj12rcd13ifvqbc0","pricing_plan_id":"free"},{"bike_id":"80996baf-8597-4552-b66a-a0139bedf903","system_id":"levelo_inurba_marseille","lat":43.309502,"lon":5.390365,"is_reserved":false,"is_disabled":false,"rental_uris":{"android":"levelo://app?vid=80996baf-8597-4552-b66a-a0139bedf903","ios":"levelo://app?vid=80996baf-8597-4552-b66a-a0139bedf903"},"vehicle_type_id":"4","last_reported":1690499190,"current_range_meters":8400,"station_id":"","pricing_plan_id":"free"},{"bike_id":"f0b1921d-8fc5-42f6-8214-26455e772ce5","system_id":"levelo_inurba_marseille","lat":43.309589,"lon":5.390258,"is_reserved":false,"is_disabled":false,"rental_uris":{"android":"levelo://app?vid=f0b1921d-8fc5-42f6-8214-26455e772ce5","ios":"levelo://app?vid=f0b1921d-8fc5-42f6-8214-26455e772ce5"},"vehicle_type_id":"4","last_reported":1690499190,"current_range_meters":28800,"station_id":"ce4bgup2rcd13ifvqco0","pricing_plan_id":"free"},{"bike_id":"3dd0126d-8d90-4729-9afd-4fc94c8e8a59","system_id":"levelo_inurba_marseille","lat":43.309589,"lon":5.390258,"is_reserved":false,"is_disabled":false,"rental_uris":{"android":"levelo://app?vid=3dd0126d-8d90-4729-9afd-4fc94c8e8a59","ios":"levelo://app?vid=3dd0126d-8d90-4729-9afd-4fc94c8e8a59"},"vehicle_type_id":"4","last_reported":1690499190,"current_range_meters":26400,"station_id":"ce4bgup2rcd13ifvqco0","pricing_plan_id":"free"},{"bike_id":"d788fe55-84b2-4c2a-ac37-50ec5e12845f","system_id":"levelo_inurba_marseille","lat":43.309589,"lon":5.390258,"is_reserved":false,"is_disabled":false,"rental_uris":{"android":"levelo://app?vid=d788fe55-84b2-4c2a-ac37-50ec5e12845f","ios":"levelo://app?vid=d788fe55-84b2-4c2a-ac37-50ec5e12845f"},"vehicle_type_id":"4","last_reported":1690499190,"current_range_meters":30000,"station_id":"ce4bgup2rcd13ifvqco0","pricing_plan_id":"free"},{"bike_id":"3bc8ea69-3e4d-4de1-b469-5d06bd458a4d","system_id":"levelo_inurba_marseille","lat":43.317557,"lon":5.390173,"is_reserved":false,"is_disabled":false,"rental_uris":{"android":"levelo://app?vid=3bc8ea69-3e4d-4de1-b469-5d06bd458a4d","ios":"levelo://app?vid=3bc8ea69-3e4d-4de1-b469-5d06bd458a4d"},"vehicle_type_id":"4","last_reported":1690499190,"current_range_meters":19200,"station_id":"ce4bhqp2rcd13ifvqhng","pricing_plan_id":"free"},{"bike_id":"7f06cb20-6cf9-4206-8308-3819cdce3445","system_id":"levelo_inurba_marseille","lat":43.317557,"lon":5.390173,"is_reserved":false,"is_disabled":false,"rental_uris":{"android":"levelo://app?vid=7f06cb20-6cf9-4206-8308-3819cdce3445","ios":"levelo://app?vid=7f06cb20-6cf9-4206-8308-3819cdce3445"},"vehicle_type_id":"4","last_reported":1690499190,"current_range_meters":25600,"station_id":"ce4bhqp2rcd13ifvqhng","pricing_plan_id":"free"},{"bike_id":"6430fe36-93aa-43ea-a4b0-cb1af29647c1","system_id":"levelo_inurba_marseille","lat":43.317557,"lon":5.390173,"is_reserved":false,"is_disabled":false,"rental_uris":{"android":"levelo://app?vid=6430fe36-93aa-43ea-a4b0-cb1af29647c1","ios":"levelo://app?vid=6430fe36-93aa-43ea-a4b0-cb1af29647c1"},"vehicle_type_id":"4","last_reported":1690499190,"current_range_meters":28800,"station_id":"ce4bhqp2rcd13ifvqhng","pricing_plan_id":"free"},{"bike_id":"3acfc948-35eb-4026-940a-a95c80cf42c1","system_id":"levelo_inurba_marseille","lat":43.295748,"lon":5.37522,"is_reserved":false,"is_disabled":false,"rental_uris":{"android":"levelo://app?vid=3acfc948-35eb-4026-940a-a95c80cf42c1","ios":"levelo://app?vid=3acfc948-35eb-4026-940a-a95c80cf42c1"},"vehicle_type_id":"4","last_reported":1690499190,"current_range_meters":31200,"station_id":"ce4bgh92rcd13ifvqb50","pricing_plan_id":"free"},{"bike_id":"ac692378-dae5-4eff-b84e-270364ca7fe7","system_id":"levelo_inurba_marseille","lat":43.298037,"lon":5.381066,"is_reserved":false,"is_disabled":false,"rental_uris":{"android":"levelo://app?vid=ac692378-dae5-4eff-b84e-270364ca7fe7","ios":"levelo://app?vid=ac692378-dae5-4eff-b84e-270364ca7fe7"},"vehicle_type_id":"4","last_reported":1690499190,"current_range_meters":17200,"station_id":"ce4bgip2rcd13ifvqbb0","pricing_plan_id":"free"},{"bike_id":"64949850-5eb1-4dc8-aefe-5dde2d8a2628","system_id":"levelo_inurba_marseille","lat":43.30436,"lon":5.38898,"is_reserved":false,"is_disabled":false,"rental_uris":{"android":"levelo://app?vid=64949850-5eb1-4dc8-aefe-5dde2d8a2628","ios":"levelo://app?vid=64949850-5eb1-4dc8-aefe-5dde2d8a2628"},"vehicle_type_id":"4","last_reported":1690499190,"current_range_meters":31200,"station_id":"ce4bgk12rcd13ifvqbi0","pricing_plan_id":"free"},{"bike_id":"86d9aca5-dc74-4eec-93b4-7ef967281146","system_id":"levelo_inurba_marseille","lat":43.29966,"lon":5.38499,"is_reserved":false,"is_disabled":false,"rental_uris":{"android":"levelo://app?vid=86d9aca5-dc74-4eec-93b4-7ef967281146","ios":"levelo://app?vid=86d9aca5-dc74-4eec-93b4-7ef967281146"},"vehicle_type_id":"4","last_reported":1690499190,"current_range_meters":20000,"station_id":"ce4bgj92rcd13ifvqbd0","pricing_plan_id":"free"},{"bike_id":"75659f5a-a5cc-4d66-9008-17fe0612037b","system_id":"levelo_inurba_marseille","lat":43.299717,"lon":5.384845,"is_reserved":false,"is_disabled":false,"rental_uris":{"android":"levelo://app?vid=75659f5a-a5cc-4d66-9008-17fe0612037b","ios":"levelo://app?vid=75659f5a-a5cc-4d66-9008-17fe0612037b"},"vehicle_type_id":"4","last_reported":1690499190,"current_range_meters":22000,"station_id":"ce4bgj92rcd13ifvqbd0","pricing_plan_id":"free"},{"bike_id":"635fd200-a384-4579-b6f7-7a19bcb25cf0","system_id":"levelo_inurba_marseille","lat":43.32367,"lon":5.388836,"is_reserved":false,"is_disabled":false,"rental_uris":{"android":"levelo://app?vid=635fd200-a384-4579-b6f7-7a19bcb25cf0","ios":"levelo://app?vid=635fd200-a384-4579-b6f7-7a19bcb25cf0"},"vehicle_type_id":"4","last_reported":1690499190,"current_range_meters":10400,"station_id":"ce4bhqp2rcd13ifvqhog","pricing_plan_id":"free"},{"bike_id":"200abda1-a5b8-411d-a496-f9b86390b786","system_id":"levelo_inurba_marseille","lat":43.32368,"lon":5.38882,"is_reserved":false,"is_disabled":false,"rental_uris":{"android":"levelo://app?vid=200abda1-a5b8-411d-a496-f9b86390b786","ios":"levelo://app?vid=200abda1-a5b8-411d-a496-f9b86390b786"},"vehicle_type_id":"4","last_reported":1690499190,"current_range_meters":9200,"station_id":"ce4bhqp2rcd13ifvqhog","pricing_plan_id":"free"},{"bike_id":"891b7811-82bc-4d9d-86a0-8954d423b097","system_id":"levelo_inurba_marseille","lat":43.32371,"lon":5.38882,"is_reserved":false,"is_disabled":false,"rental_uris":{"android":"levelo://app?vid=891b7811-82bc-4d9d-86a0-8954d423b097","ios":"levelo://app?vid=891b7811-82bc-4d9d-86a0-8954d423b097"},"vehicle_type_id":"4","last_reported":1690499190,"current_range_meters":29200,"station_id":"ce4bhqp2rcd13ifvqhog","pricing_plan_id":"free"},{"bike_id":"a11c3915-0dcd-4fd8-a1cf-c0d020a74fad","system_id":"levelo_inurba_marseille","lat":43.32369,"lon":5.38885,"is_reserved":false,"is_disabled":false,"rental_uris":{"android":"levelo://app?vid=a11c3915-0dcd-4fd8-a1cf-c0d020a74fad","ios":"levelo://app?vid=a11c3915-0dcd-4fd8-a1cf-c0d020a74fad"},"vehicle_type_id":"4","last_reported":1690499190,"current_range_meters":24800,"station_id":"ce4bhqp2rcd13ifvqhog","pricing_plan_id":"free"},{"bike_id":"35271d95-c494-40dd-8da7-2203a22c9da1","system_id":"levelo_inurba_marseille","lat":43.32367,"lon":5.388836,"is_reserved":false,"is_disabled":false,"rental_uris":{"android":"levelo://app?vid=35271d95-c494-40dd-8da7-2203a22c9da1","ios":"levelo://app?vid=35271d95-c494-40dd-8da7-2203a22c9da1"},"vehicle_type_id":"4","last_reported":1690499190,"current_range_meters":27200,"station_id":"ce4bhqp2rcd13ifvqhog","pricing_plan_id":"free"},{"bike_id":"8cb10aff-5b12-4429-89af-bc8f5ed79456","system_id":"levelo_inurba_marseille","lat":43.32367,"lon":5.388836,"is_reserved":false,"is_disabled":false,"rental_uris":{"android":"levelo://app?vid=8cb10aff-5b12-4429-89af-bc8f5ed79456","ios":"levelo://app?vid=8cb10aff-5b12-4429-89af-bc8f5ed79456"},"vehicle_type_id":"4","last_reported":1690499190,"current_range_meters":25200,"station_id":"ce4bhqp2rcd13ifvqhog","pricing_plan_id":"free"},{"bike_id":"0875e566-651e-4c47-8cda-28386fe263ba","system_id":"levelo_inurba_marseille","lat":43.293249,"lon":5.371578,"is_reserved":false,"is_disabled":false,"rental_uris":{"android":"levelo://app?vid=0875e566-651e-4c47-8cda-28386fe263ba","ios":"levelo://app?vid=0875e566-651e-4c47-8cda-28386fe263ba"},"vehicle_type_id":"4","last_reported":1690499190,"current_range_meters":25600,"station_id":"ce4bgh92rcd13ifvqb40","pricing_plan_id":"free"},{"bike_id":"8f6fbd5d-6d88-4cbf-b0a4-19af73ee560c","system_id":"levelo_inurba_marseille","lat":43.305994,"lon":5.393687,"is_reserved":false,"is_disabled":false,"rental_uris":{"android":"levelo://app?vid=8f6fbd5d-6d88-4cbf-b0a4-19af73ee560c","ios":"levelo://app?vid=8f6fbd5d-6d88-4cbf-b0a4-19af73ee560c"},"vehicle_type_id":"4","last_reported":1690499190,"current_range_meters":21200,"station_id":"ce4bh0p2rcd13ifvqd80","pricing_plan_id":"free"},{"bike_id":"51e2efef-5e8f-4f00-8660-975c459196fe","system_id":"levelo_inurba_marseille","lat":43.305994,"lon":5.393687,"is_reserved":false,"is_disabled":false,"rental_uris":{"android":"levelo://app?vid=51e2efef-5e8f-4f00-8660-975c459196fe","ios":"levelo://app?vid=51e2efef-5e8f-4f00-8660-975c459196fe"},"vehicle_type_id":"4","last_reported":1690499190,"current_range_meters":30000,"station_id":"ce4bh0p2rcd13ifvqd80","pricing_plan_id":"free"},{"bike_id":"8019ac61-6a72-4c0a-9ca9-0bd3f1bfee21","system_id":"levelo_inurba_marseille","lat":43.30598,"lon":5.39364,"is_reserved":false,"is_disabled":false,"rental_uris":{"android":"levelo://app?vid=8019ac61-6a72-4c0a-9ca9-0bd3f1bfee21","ios":"levelo://app?vid=8019ac61-6a72-4c0a-9ca9-0bd3f1bfee21"},"vehicle_type_id":"4","last_reported":1690499190,"current_range_meters":11600,"station_id":"ce4bh012rcd13ifvqcv0","pricing_plan_id":"free"},{"bike_id":"c6315e9b-f0c9-4c40-93eb-807f9f25fb6b","system_id":"levelo_inurba_marseille","lat":43.2936,"lon":5.37835,"is_reserved":false,"is_disabled":false,"rental_uris":{"android":"levelo://app?vid=c6315e9b-f0c9-4c40-93eb-807f9f25fb6b","ios":"levelo://app?vid=c6315e9b-f0c9-4c40-93eb-807f9f25fb6b"},"vehicle_type_id":"4","last_reported":1690499190,"current_range_meters":12800,"station_id":"ce4bgjh2rcd13ifvqbf0","pricing_plan_id":"free"},{"bike_id":"a5bb5f11-2d0d-4d59-86b6-45ad3d56d0bd","system_id":"levelo_inurba_marseille","lat":43.29227,"lon":5.36065,"is_reserved":false,"is_disabled":false,"rental_uris":{"android":"levelo://app?vid=a5bb5f11-2d0d-4d59-86b6-45ad3d56d0bd","ios":"levelo://app?vid=a5bb5f11-2d0d-4d59-86b6-45ad3d56d0bd"},"vehicle_type_id":"4","last_reported":1690499190,"current_range_meters":17200,"station_id":"ce4bhbh2rcd13ifvqeqg","pricing_plan_id":"free"},{"bike_id":"78247da7-6c48-40c9-a1a7-a7711ed56384","system_id":"levelo_inurba_marseille","lat":43.30083,"lon":5.39079,"is_reserved":false,"is_disabled":false,"rental_uris":{"android":"levelo://app?vid=78247da7-6c48-40c9-a1a7-a7711ed56384","ios":"levelo://app?vid=78247da7-6c48-40c9-a1a7-a7711ed56384"},"vehicle_type_id":"4","last_reported":1690499190,"current_range_meters":17600,"station_id":"ce4bh192rcd13ifvqdb0","pricing_plan_id":"free"},{"bike_id":"04d17998-742a-4ee9-a533-d6ca21f834eb","system_id":"levelo_inurba_marseille","lat":43.29195,"lon":5.35804,"is_reserved":false,"is_disabled":false,"rental_uris":{"android":"levelo://app?vid=04d17998-742a-4ee9-a533-d6ca21f834eb","ios":"levelo://app?vid=04d17998-742a-4ee9-a533-d6ca21f834eb"},"vehicle_type_id":"4","last_reported":1690499190,"current_range_meters":31200,"station_id":"ce4bhb12rcd13ifvqel0","pricing_plan_id":"free"},{"bike_id":"1431f561-e841-43e2-9485-0f637a0174b4","system_id":"levelo_inurba_marseille","lat":43.29194,"lon":5.35806,"is_reserved":false,"is_disabled":false,"rental_uris":{"android":"levelo://app?vid=1431f561-e841-43e2-9485-0f637a0174b4","ios":"levelo://app?vid=1431f561-e841-43e2-9485-0f637a0174b4"},"vehicle_type_id":"4","last_reported":1690499190,"current_range_meters":24400,"station_id":"ce4bhb12rcd13ifvqel0","pricing_plan_id":"free"},{"bike_id":"67ab7728-485a-45b2-ac62-6187d93a3c06","system_id":"levelo_inurba_marseille","lat":43.29194,"lon":5.35803,"is_reserved":false,"is_disabled":false,"rental_uris":{"android":"levelo://app?vid=67ab7728-485a-45b2-ac62-6187d93a3c06","ios":"levelo://app?vid=67ab7728-485a-45b2-ac62-6187d93a3c06"},"vehicle_type_id":"4","last_reported":1690499190,"current_range_meters":31200,"station_id":"ce4bhb12rcd13ifvqel0","pricing_plan_id":"free"},{"bike_id":"d278db1b-5e16-463b-ab8d-b2bfdf7dbf9f","system_id":"levelo_inurba_marseille","lat":43.31323,"lon":5.39687,"is_reserved":false,"is_disabled":false,"rental_uris":{"android":"levelo://app?vid=d278db1b-5e16-463b-ab8d-b2bfdf7dbf9f","ios":"levelo://app?vid=d278db1b-5e16-463b-ab8d-b2bfdf7dbf9f"},"vehicle_type_id":"4","last_reported":1690499190,"current_range_meters":15200,"station_id":"ce4bgvp2rcd13ifvqcu0","pricing_plan_id":"free"},{"bike_id":"f1bd476a-4cce-4a8b-81a8-4a1aada8cf86","system_id":"levelo_inurba_marseille","lat":43.31326,"lon":5.39688,"is_reserved":false,"is_disabled":false,"rental_uris":{"android":"levelo://app?vid=f1bd476a-4cce-4a8b-81a8-4a1aada8cf86","ios":"levelo://app?vid=f1bd476a-4cce-4a8b-81a8-4a1aada8cf86"},"vehicle_type_id":"4","last_reported":1690499190,"current_range_meters":12000,"station_id":"ce4bgvp2rcd13ifvqcu0","pricing_plan_id":"free"},{"bike_id":"2bb76aa4-9c69-4db1-8fa8-fb1268fe09b1","system_id":"levelo_inurba_marseille","lat":43.31326,"lon":5.39688,"is_reserved":false,"is_disabled":false,"rental_uris":{"android":"levelo://app?vid=2bb76aa4-9c69-4db1-8fa8-fb1268fe09b1","ios":"levelo://app?vid=2bb76aa4-9c69-4db1-8fa8-fb1268fe09b1"},"vehicle_type_id":"4","last_reported":1690499190,"current_range_meters":0,"station_id":"ce4bgvp2rcd13ifvqcu0","pricing_plan_id":"free"},{"bike_id":"90497815-f5b8-4f39-9d81-96ede95b17ae","system_id":"levelo_inurba_marseille","lat":43.31331,"lon":5.39689,"is_reserved":false,"is_disabled":false,"rental_uris":{"android":"levelo://app?vid=90497815-f5b8-4f39-9d81-96ede95b17ae","ios":"levelo://app?vid=90497815-f5b8-4f39-9d81-96ede95b17ae"},"vehicle_type_id":"4","last_reported":1690499190,"current_range_meters":25200,"station_id":"ce4bgvp2rcd13ifvqcu0","pricing_plan_id":"free"},{"bike_id":"c5e290ca-a731-497f-a849-3874caca4d07","system_id":"levelo_inurba_marseille","lat":43.31326,"lon":5.3969,"is_reserved":false,"is_disabled":false,"rental_uris":{"android":"levelo://app?vid=c5e290ca-a731-497f-a849-3874caca4d07","ios":"levelo://app?vid=c5e290ca-a731-497f-a849-3874caca4d07"},"vehicle_type_id":"4","last_reported":1690499190,"current_range_meters":6400,"station_id":"ce4bgvp2rcd13ifvqcu0","pricing_plan_id":"free"},{"bike_id":"d68e3176-cd68-4913-acfe-05dbbec2442a","system_id":"levelo_inurba_marseille","lat":43.31327,"lon":5.3969,"is_reserved":false,"is_disabled":false,"rental_uris":{"android":"levelo://app?vid=d68e3176-cd68-4913-acfe-05dbbec2442a","ios":"levelo://app?vid=d68e3176-cd68-4913-acfe-05dbbec2442a"},"vehicle_type_id":"4","last_reported":1690499190,"current_range_meters":1200,"station_id":"ce4bgvp2rcd13ifvqcu0","pricing_plan_id":"free"},{"bike_id":"247510f0-3483-4852-baa9-55756c7fbd1c","system_id":"levelo_inurba_marseille","lat":43.30879,"lon":5.39644,"is_reserved":false,"is_disabled":false,"rental_uris":{"android":"levelo://app?vid=247510f0-3483-4852-baa9-55756c7fbd1c","ios":"levelo://app?vid=247510f0-3483-4852-baa9-55756c7fbd1c"},"vehicle_type_id":"4","last_reported":1690499190,"current_range_meters":13600,"station_id":"ce4bh012rcd13ifvqcv0","pricing_plan_id":"free"},{"bike_id":"9ceb21a1-b8ae-49a0-be9f-987b0877a25a","system_id":"levelo_inurba_marseille","lat":43.31333,"lon":5.39693,"is_reserved":false,"is_disabled":false,"rental_uris":{"android":"levelo://app?vid=9ceb21a1-b8ae-49a0-be9f-987b0877a25a","ios":"levelo://app?vid=9ceb21a1-b8ae-49a0-be9f-987b0877a25a"},"vehicle_type_id":"4","last_reported":1690499190,"current_range_meters":16000,"station_id":"ce4bgvp2rcd13ifvqcu0","pricing_plan_id":"free"},{"bike_id":"cdbaa7eb-a5ee-42d8-abc6-a5ca168a1a7d","system_id":"levelo_inurba_marseille","lat":43.3088,"lon":5.39646,"is_reserved":false,"is_disabled":false,"rental_uris":{"android":"levelo://app?vid=cdbaa7eb-a5ee-42d8-abc6-a5ca168a1a7d","ios":"levelo://app?vid=cdbaa7eb-a5ee-42d8-abc6-a5ca168a1a7d"},"vehicle_type_id":"4","last_reported":1690499190,"current_range_meters":0,"station_id":"ce4bh012rcd13ifvqcv0","pricing_plan_id":"free"},{"bike_id":"13588b15-4dcd-4a7e-82b6-b0937dc50ed5","system_id":"levelo_inurba_marseille","lat":43.30883,"lon":5.39647,"is_reserved":false,"is_disabled":false,"rental_uris":{"android":"levelo://app?vid=13588b15-4dcd-4a7e-82b6-b0937dc50ed5","ios":"levelo://app?vid=13588b15-4dcd-4a7e-82b6-b0937dc50ed5"},"vehicle_type_id":"4","last_reported":1690499190,"current_range_meters":4400,"station_id":"ce4bh012rcd13ifvqcv0","pricing_plan_id":"free"},{"bike_id":"a74f4022-e9b8-4712-97f9-2c57a45d6d11","system_id":"levelo_inurba_marseille","lat":43.313291,"lon":5.396838,"is_reserved":false,"is_disabled":false,"rental_uris":{"android":"levelo://app?vid=a74f4022-e9b8-4712-97f9-2c57a45d6d11","ios":"levelo://app?vid=a74f4022-e9b8-4712-97f9-2c57a45d6d11"},"vehicle_type_id":"4","last_reported":1690499190,"current_range_meters":7200,"station_id":"ce4bgvp2rcd13ifvqcu0","pricing_plan_id":"free"},{"bike_id":"201c1612-733f-47bf-99ae-1fa75cb722e5","system_id":"levelo_inurba_marseille","lat":43.30877,"lon":5.39647,"is_reserved":false,"is_disabled":false,"rental_uris":{"android":"levelo://app?vid=201c1612-733f-47bf-99ae-1fa75cb722e5","ios":"levelo://app?vid=201c1612-733f-47bf-99ae-1fa75cb722e5"},"vehicle_type_id":"4","last_reported":1690499190,"current_range_meters":20000,"station_id":"ce4bh012rcd13ifvqcv0","pricing_plan_id":"free"},{"bike_id":"13ae5afc-3665-4d6b-9706-d9d6a37b8266","system_id":"levelo_inurba_marseille","lat":43.309038,"lon":5.396546,"is_reserved":false,"is_disabled":false,"rental_uris":{"android":"levelo://app?vid=13ae5afc-3665-4d6b-9706-d9d6a37b8266","ios":"levelo://app?vid=13ae5afc-3665-4d6b-9706-d9d6a37b8266"},"vehicle_type_id":"4","last_reported":1690499190,"current_range_meters":27600,"station_id":"ce4bh012rcd13ifvqcv0","pricing_plan_id":"free"},{"bike_id":"eba932a3-72b1-4b78-b752-43546d827b02","system_id":"levelo_inurba_marseille","lat":43.309038,"lon":5.396546,"is_reserved":false,"is_disabled":false,"rental_uris":{"android":"levelo://app?vid=eba932a3-72b1-4b78-b752-43546d827b02","ios":"levelo://app?vid=eba932a3-72b1-4b78-b752-43546d827b02"},"vehicle_type_id":"4","last_reported":1690499190,"current_range_meters":4400,"station_id":"ce4bh012rcd13ifvqcv0","pricing_plan_id":"free"},{"bike_id":"96cd123a-a367-40ce-a96e-1605ecb78016","system_id":"levelo_inurba_marseille","lat":43.309038,"lon":5.396546,"is_reserved":false,"is_disabled":false,"rental_uris":{"android":"levelo://app?vid=96cd123a-a367-40ce-a96e-1605ecb78016","ios":"levelo://app?vid=96cd123a-a367-40ce-a96e-1605ecb78016"},"vehicle_type_id":"4","last_reported":1690499190,"current_range_meters":12400,"station_id":"ce4bh012rcd13ifvqcv0","pricing_plan_id":"free"},{"bike_id":"c9689053-9005-4a57-9280-7bbdca5eb31b","system_id":"levelo_inurba_marseille","lat":43.30888,"lon":5.39656,"is_reserved":false,"is_disabled":false,"rental_uris":{"android":"levelo://app?vid=c9689053-9005-4a57-9280-7bbdca5eb31b","ios":"levelo://app?vid=c9689053-9005-4a57-9280-7bbdca5eb31b"},"vehicle_type_id":"4","last_reported":1690499190,"current_range_meters":15200,"station_id":"ce4bh012rcd13ifvqcv0","pricing_plan_id":"free"},{"bike_id":"83c369a8-2b43-4eb5-8738-02145ec72c09","system_id":"levelo_inurba_marseille","lat":43.309038,"lon":5.396546,"is_reserved":false,"is_disabled":false,"rental_uris":{"android":"levelo://app?vid=83c369a8-2b43-4eb5-8738-02145ec72c09","ios":"levelo://app?vid=83c369a8-2b43-4eb5-8738-02145ec72c09"},"vehicle_type_id":"4","last_reported":1690499190,"current_range_meters":20000,"station_id":"ce4bh012rcd13ifvqcv0","pricing_plan_id":"free"},{"bike_id":"3a7187cd-e07a-4208-aadd-470370c8abb3","system_id":"levelo_inurba_marseille","lat":43.290779,"lon":5.371482,"is_reserved":false,"is_disabled":false,"rental_uris":{"android":"levelo://app?vid=3a7187cd-e07a-4208-aadd-470370c8abb3","ios":"levelo://app?vid=3a7187cd-e07a-4208-aadd-470370c8abb3"},"vehicle_type_id":"4","last_reported":1690499190,"current_range_meters":30400,"station_id":"ce4bh5p2rcd13ifvqe4g","pricing_plan_id":"free"},{"bike_id":"becef99a-c29a-49e2-8e7c-06e16f61a7c3","system_id":"levelo_inurba_marseille","lat":43.290631,"lon":5.359244,"is_reserved":false,"is_disabled":false,"rental_uris":{"android":"levelo://app?vid=becef99a-c29a-49e2-8e7c-06e16f61a7c3","ios":"levelo://app?vid=becef99a-c29a-49e2-8e7c-06e16f61a7c3"},"vehicle_type_id":"4","last_reported":1690499190,"current_range_meters":16800,"station_id":"ce4bha92rcd13ifvqeg0","pricing_plan_id":"free"},{"bike_id":"52e56b42-78df-4f14-b5bf-a43f0b8ef071","system_id":"levelo_inurba_marseille","lat":43.289184,"lon":5.366408,"is_reserved":false,"is_disabled":false,"rental_uris":{"android":"levelo://app?vid=52e56b42-78df-4f14-b5bf-a43f0b8ef071","ios":"levelo://app?vid=52e56b42-78df-4f14-b5bf-a43f0b8ef071"},"vehicle_type_id":"4","last_reported":1690499190,"current_range_meters":31200,"station_id":"ce4bhap2rcd13ifvqek0","pricing_plan_id":"free"},{"bike_id":"3ae5d837-a925-4559-b2d7-9880d9684600","system_id":"levelo_inurba_marseille","lat":43.289184,"lon":5.366408,"is_reserved":false,"is_disabled":false,"rental_uris":{"android":"levelo://app?vid=3ae5d837-a925-4559-b2d7-9880d9684600","ios":"levelo://app?vid=3ae5d837-a925-4559-b2d7-9880d9684600"},"vehicle_type_id":"4","last_reported":1690499190,"current_range_meters":17200,"station_id":"ce4bhap2rcd13ifvqek0","pricing_plan_id":"free"},{"bike_id":"b8f008bc-7be2-4f84-94ea-bd0b34852766","system_id":"levelo_inurba_marseille","lat":43.289468,"lon":5.363719,"is_reserved":false,"is_disabled":false,"rental_uris":{"android":"levelo://app?vid=b8f008bc-7be2-4f84-94ea-bd0b34852766","ios":"levelo://app?vid=b8f008bc-7be2-4f84-94ea-bd0b34852766"},"vehicle_type_id":"4","last_reported":1690499190,"current_range_meters":28000,"station_id":"ce4bhc92rcd13ifvqetg","pricing_plan_id":"free"},{"bike_id":"735a243a-264e-49ba-b1fc-837db43a74be","system_id":"levelo_inurba_marseille","lat":43.289184,"lon":5.366408,"is_reserved":false,"is_disabled":false,"rental_uris":{"android":"levelo://app?vid=735a243a-264e-49ba-b1fc-837db43a74be","ios":"levelo://app?vid=735a243a-264e-49ba-b1fc-837db43a74be"},"vehicle_type_id":"4","last_reported":1690499190,"current_range_meters":800,"station_id":"ce4bhap2rcd13ifvqek0","pricing_plan_id":"free"},{"bike_id":"7987f521-98e0-4e5e-90df-418400429533","system_id":"levelo_inurba_marseille","lat":43.289184,"lon":5.366408,"is_reserved":false,"is_disabled":false,"rental_uris":{"android":"levelo://app?vid=7987f521-98e0-4e5e-90df-418400429533","ios":"levelo://app?vid=7987f521-98e0-4e5e-90df-418400429533"},"vehicle_type_id":"4","last_reported":1690499190,"current_range_meters":8800,"station_id":"ce4bhap2rcd13ifvqek0","pricing_plan_id":"free"},{"bike_id":"1ac16db6-5408-4b33-9b96-857ead7374da","system_id":"levelo_inurba_marseille","lat":43.28939,"lon":5.36337,"is_reserved":false,"is_disabled":false,"rental_uris":{"android":"levelo://app?vid=1ac16db6-5408-4b33-9b96-857ead7374da","ios":"levelo://app?vid=1ac16db6-5408-4b33-9b96-857ead7374da"},"vehicle_type_id":"4","last_reported":1690499190,"current_range_meters":26800,"station_id":"ce4bhc92rcd13ifvqetg","pricing_plan_id":"free"},{"bike_id":"500d7d8d-07a5-4a64-b2eb-b89bc8c60065","system_id":"levelo_inurba_marseille","lat":43.289468,"lon":5.363719,"is_reserved":false,"is_disabled":false,"rental_uris":{"android":"levelo://app?vid=500d7d8d-07a5-4a64-b2eb-b89bc8c60065","ios":"levelo://app?vid=500d7d8d-07a5-4a64-b2eb-b89bc8c60065"},"vehicle_type_id":"4","last_reported":1690499190,"current_range_meters":22400,"station_id":"ce4bhc92rcd13ifvqetg","pricing_plan_id":"free"},{"bike_id":"6cc087e9-2b16-41c6-8f28-3416021dcf6a","system_id":"levelo_inurba_marseille","lat":43.289468,"lon":5.363719,"is_reserved":false,"is_disabled":false,"rental_uris":{"android":"levelo://app?vid=6cc087e9-2b16-41c6-8f28-3416021dcf6a","ios":"levelo://app?vid=6cc087e9-2b16-41c6-8f28-3416021dcf6a"},"vehicle_type_id":"4","last_reported":1690499190,"current_range_meters":22800,"station_id":"ce4bhc92rcd13ifvqetg","pricing_plan_id":"free"},{"bike_id":"06b72f14-6918-4e85-9711-10c773ba895b","system_id":"levelo_inurba_marseille","lat":43.304296,"lon":5.397513,"is_reserved":false,"is_disabled":false,"rental_uris":{"android":"levelo://app?vid=06b72f14-6918-4e85-9711-10c773ba895b","ios":"levelo://app?vid=06b72f14-6918-4e85-9711-10c773ba895b"},"vehicle_type_id":"4","last_reported":1690499190,"current_range_meters":10000,"station_id":"ce4bh092rcd13ifvqd20","pricing_plan_id":"free"},{"bike_id":"9b321fe5-887c-4e8b-8518-f0f9c7e0e34e","system_id":"levelo_inurba_marseille","lat":43.304296,"lon":5.397513,"is_reserved":false,"is_disabled":false,"rental_uris":{"android":"levelo://app?vid=9b321fe5-887c-4e8b-8518-f0f9c7e0e34e","ios":"levelo://app?vid=9b321fe5-887c-4e8b-8518-f0f9c7e0e34e"},"vehicle_type_id":"4","last_reported":1690499190,"current_range_meters":31200,"station_id":"ce4bh092rcd13ifvqd20","pricing_plan_id":"free"},{"bike_id":"b7ac3555-60c3-46da-9845-107a883c3a82","system_id":"levelo_inurba_marseille","lat":43.304296,"lon":5.397513,"is_reserved":false,"is_disabled":false,"rental_uris":{"android":"levelo://app?vid=b7ac3555-60c3-46da-9845-107a883c3a82","ios":"levelo://app?vid=b7ac3555-60c3-46da-9845-107a883c3a82"},"vehicle_type_id":"4","last_reported":1690499190,"current_range_meters":30400,"station_id":"ce4bh092rcd13ifvqd20","pricing_plan_id":"free"},{"bike_id":"31ba0b4b-6754-4bfa-b8fa-70b61037ae00","system_id":"levelo_inurba_marseille","lat":43.309038,"lon":5.396546,"is_reserved":false,"is_disabled":false,"rental_uris":{"android":"levelo://app?vid=31ba0b4b-6754-4bfa-b8fa-70b61037ae00","ios":"levelo://app?vid=31ba0b4b-6754-4bfa-b8fa-70b61037ae00"},"vehicle_type_id":"4","last_reported":1690499190,"current_range_meters":11200,"station_id":"ce4bh012rcd13ifvqcv0","pricing_plan_id":"free"},{"bike_id":"4934f80d-d726-4b46-8839-ae2c8dddf995","system_id":"levelo_inurba_marseille","lat":43.304296,"lon":5.397513,"is_reserved":false,"is_disabled":false,"rental_uris":{"android":"levelo://app?vid=4934f80d-d726-4b46-8839-ae2c8dddf995","ios":"levelo://app?vid=4934f80d-d726-4b46-8839-ae2c8dddf995"},"vehicle_type_id":"4","last_reported":1690499190,"current_range_meters":30000,"station_id":"ce4bh092rcd13ifvqd20","pricing_plan_id":"free"},{"bike_id":"a486f582-0fcf-49ff-bceb-1cf0ea41885e","system_id":"levelo_inurba_marseille","lat":43.304296,"lon":5.397513,"is_reserved":false,"is_disabled":false,"rental_uris":{"android":"levelo://app?vid=a486f582-0fcf-49ff-bceb-1cf0ea41885e","ios":"levelo://app?vid=a486f582-0fcf-49ff-bceb-1cf0ea41885e"},"vehicle_type_id":"4","last_reported":1690499190,"current_range_meters":18000,"station_id":"ce4bh092rcd13ifvqd20","pricing_plan_id":"free"},{"bike_id":"198a91cd-f90e-44b9-b124-d15f43d9259d","system_id":"levelo_inurba_marseille","lat":43.33035,"lon":5.38919,"is_reserved":false,"is_disabled":false,"rental_uris":{"android":"levelo://app?vid=198a91cd-f90e-44b9-b124-d15f43d9259d","ios":"levelo://app?vid=198a91cd-f90e-44b9-b124-d15f43d9259d"},"vehicle_type_id":"4","last_reported":1690499190,"current_range_meters":22000,"station_id":"ce4bhr92rcd13ifvqhrg","pricing_plan_id":"free"},{"bike_id":"f56db9a8-b4b7-4400-bf17-8a65adc21520","system_id":"levelo_inurba_marseille","lat":43.3304,"lon":5.3892,"is_reserved":false,"is_disabled":false,"rental_uris":{"android":"levelo://app?vid=f56db9a8-b4b7-4400-bf17-8a65adc21520","ios":"levelo://app?vid=f56db9a8-b4b7-4400-bf17-8a65adc21520"},"vehicle_type_id":"4","last_reported":1690499190,"current_range_meters":29600,"station_id":"ce4bhr92rcd13ifvqhrg","pricing_plan_id":"free"},{"bike_id":"766cd11b-923c-4640-ae67-2dfbbb18b931","system_id":"levelo_inurba_marseille","lat":43.330442,"lon":5.389148,"is_reserved":false,"is_disabled":false,"rental_uris":{"android":"levelo://app?vid=766cd11b-923c-4640-ae67-2dfbbb18b931","ios":"levelo://app?vid=766cd11b-923c-4640-ae67-2dfbbb18b931"},"vehicle_type_id":"4","last_reported":1690499190,"current_range_meters":18000,"station_id":"ce4bhr92rcd13ifvqhrg","pricing_plan_id":"free"},{"bike_id":"a3a42cf7-bd48-4cdc-b06d-04febd1ac94b","system_id":"levelo_inurba_marseille","lat":43.33042,"lon":5.38918,"is_reserved":false,"is_disabled":false,"rental_uris":{"android":"levelo://app?vid=a3a42cf7-bd48-4cdc-b06d-04febd1ac94b","ios":"levelo://app?vid=a3a42cf7-bd48-4cdc-b06d-04febd1ac94b"},"vehicle_type_id":"4","last_reported":1690499190,"current_range_meters":13200,"station_id":"ce4bhr92rcd13ifvqhrg","pricing_plan_id":"free"},{"bike_id":"457db14c-b998-40e2-a24f-1bbbf5a7f145","system_id":"levelo_inurba_marseille","lat":43.33043,"lon":5.38917,"is_reserved":false,"is_disabled":false,"rental_uris":{"android":"levelo://app?vid=457db14c-b998-40e2-a24f-1bbbf5a7f145","ios":"levelo://app?vid=457db14c-b998-40e2-a24f-1bbbf5a7f145"},"vehicle_type_id":"4","last_reported":1690499190,"current_range_meters":14000,"station_id":"ce4bhr92rcd13ifvqhrg","pricing_plan_id":"free"},{"bike_id":"9a3a5314-bc29-481b-880c-837383b0ba3f","system_id":"levelo_inurba_marseille","lat":43.330442,"lon":5.389155,"is_reserved":false,"is_disabled":false,"rental_uris":{"android":"levelo://app?vid=9a3a5314-bc29-481b-880c-837383b0ba3f","ios":"levelo://app?vid=9a3a5314-bc29-481b-880c-837383b0ba3f"},"vehicle_type_id":"4","last_reported":1690499190,"current_range_meters":31200,"station_id":"ce4bhr92rcd13ifvqhrg","pricing_plan_id":"free"},{"bike_id":"5a378b97-da55-48ac-b949-ccbbb3fc2124","system_id":"levelo_inurba_marseille","lat":43.330442,"lon":5.389148,"is_reserved":false,"is_disabled":false,"rental_uris":{"android":"levelo://app?vid=5a378b97-da55-48ac-b949-ccbbb3fc2124","ios":"levelo://app?vid=5a378b97-da55-48ac-b949-ccbbb3fc2124"},"vehicle_type_id":"4","last_reported":1690499190,"current_range_meters":17600,"station_id":"ce4bhr92rcd13ifvqhrg","pricing_plan_id":"free"},{"bike_id":"76146c10-622e-4567-8795-cad8552f4875","system_id":"levelo_inurba_marseille","lat":43.33042,"lon":5.38919,"is_reserved":false,"is_disabled":false,"rental_uris":{"android":"levelo://app?vid=76146c10-622e-4567-8795-cad8552f4875","ios":"levelo://app?vid=76146c10-622e-4567-8795-cad8552f4875"},"vehicle_type_id":"4","last_reported":1690499190,"current_range_meters":23600,"station_id":"ce4bhr92rcd13ifvqhrg","pricing_plan_id":"free"},{"bike_id":"91fec792-a5a5-4820-af7d-3c6be3109af2","system_id":"levelo_inurba_marseille","lat":43.290103,"lon":5.356114,"is_reserved":false,"is_disabled":false,"rental_uris":{"android":"levelo://app?vid=91fec792-a5a5-4820-af7d-3c6be3109af2","ios":"levelo://app?vid=91fec792-a5a5-4820-af7d-3c6be3109af2"},"vehicle_type_id":"4","last_reported":1690499190,"current_range_meters":31200,"station_id":"ce4bhb92rcd13ifvqen0","pricing_plan_id":"free"},{"bike_id":"5a361fbb-860b-41ba-b398-48ef228c09a4","system_id":"levelo_inurba_marseille","lat":43.330442,"lon":5.389148,"is_reserved":false,"is_disabled":false,"rental_uris":{"android":"levelo://app?vid=5a361fbb-860b-41ba-b398-48ef228c09a4","ios":"levelo://app?vid=5a361fbb-860b-41ba-b398-48ef228c09a4"},"vehicle_type_id":"4","last_reported":1690499190,"current_range_meters":11600,"station_id":"ce4bhr92rcd13ifvqhrg","pricing_plan_id":"free"},{"bike_id":"a846516f-cf51-4ac4-8674-44addcbde20b","system_id":"levelo_inurba_marseille","lat":43.330442,"lon":5.389148,"is_reserved":false,"is_disabled":false,"rental_uris":{"android":"levelo://app?vid=a846516f-cf51-4ac4-8674-44addcbde20b","ios":"levelo://app?vid=a846516f-cf51-4ac4-8674-44addcbde20b"},"vehicle_type_id":"4","last_reported":1690499190,"current_range_meters":30400,"station_id":"ce4bhr92rcd13ifvqhrg","pricing_plan_id":"free"},{"bike_id":"83a3118f-0dd9-4da3-b4b5-09470613f18a","system_id":"levelo_inurba_marseille","lat":43.33044,"lon":5.38918,"is_reserved":false,"is_disabled":false,"rental_uris":{"android":"levelo://app?vid=83a3118f-0dd9-4da3-b4b5-09470613f18a","ios":"levelo://app?vid=83a3118f-0dd9-4da3-b4b5-09470613f18a"},"vehicle_type_id":"4","last_reported":1690499190,"current_range_meters":12000,"station_id":"ce4bhr92rcd13ifvqhrg","pricing_plan_id":"free"},{"bike_id":"820e0ec6-46a3-4328-96db-5149378f7486","system_id":"levelo_inurba_marseille","lat":43.330442,"lon":5.389148,"is_reserved":false,"is_disabled":false,"rental_uris":{"android":"levelo://app?vid=820e0ec6-46a3-4328-96db-5149378f7486","ios":"levelo://app?vid=820e0ec6-46a3-4328-96db-5149378f7486"},"vehicle_type_id":"4","last_reported":1690499190,"current_range_meters":31200,"station_id":"ce4bhr92rcd13ifvqhrg","pricing_plan_id":"free"},{"bike_id":"936f3c3e-6cd5-4fe8-b5a8-fe94f7be6310","system_id":"levelo_inurba_marseille","lat":43.330442,"lon":5.389148,"is_reserved":false,"is_disabled":false,"rental_uris":{"android":"levelo://app?vid=936f3c3e-6cd5-4fe8-b5a8-fe94f7be6310","ios":"levelo://app?vid=936f3c3e-6cd5-4fe8-b5a8-fe94f7be6310"},"vehicle_type_id":"4","last_reported":1690499190,"current_range_meters":19600,"station_id":"ce4bhr92rcd13ifvqhrg","pricing_plan_id":"free"},{"bike_id":"91968ac7-8a8f-40b0-b07b-8508661b31de","system_id":"levelo_inurba_marseille","lat":43.33044,"lon":5.3892,"is_reserved":false,"is_disabled":false,"rental_uris":{"android":"levelo://app?vid=91968ac7-8a8f-40b0-b07b-8508661b31de","ios":"levelo://app?vid=91968ac7-8a8f-40b0-b07b-8508661b31de"},"vehicle_type_id":"4","last_reported":1690499190,"current_range_meters":24000,"station_id":"ce4bhr92rcd13ifvqhrg","pricing_plan_id":"free"},{"bike_id":"2c914af5-3f76-4c26-ae2e-a98cca55902c","system_id":"levelo_inurba_marseille","lat":43.33043,"lon":5.38924,"is_reserved":false,"is_disabled":false,"rental_uris":{"android":"levelo://app?vid=2c914af5-3f76-4c26-ae2e-a98cca55902c","ios":"levelo://app?vid=2c914af5-3f76-4c26-ae2e-a98cca55902c"},"vehicle_type_id":"4","last_reported":1690499190,"current_range_meters":15200,"station_id":"ce4bhr92rcd13ifvqhrg","pricing_plan_id":"free"},{"bike_id":"d32d566c-df9f-4a96-8d48-f2933f0f8d01","system_id":"levelo_inurba_marseille","lat":43.29792,"lon":5.39343,"is_reserved":false,"is_disabled":false,"rental_uris":{"android":"levelo://app?vid=d32d566c-df9f-4a96-8d48-f2933f0f8d01","ios":"levelo://app?vid=d32d566c-df9f-4a96-8d48-f2933f0f8d01"},"vehicle_type_id":"4","last_reported":1690499190,"current_range_meters":19200,"station_id":"chh1huq6cuj3fo74tm60","pricing_plan_id":"free"},{"bike_id":"8655104c-b901-44f8-80e8-e903a035c318","system_id":"levelo_inurba_marseille","lat":43.297815,"lon":5.393548,"is_reserved":false,"is_disabled":false,"rental_uris":{"android":"levelo://app?vid=8655104c-b901-44f8-80e8-e903a035c318","ios":"levelo://app?vid=8655104c-b901-44f8-80e8-e903a035c318"},"vehicle_type_id":"4","last_reported":1690499190,"current_range_meters":31200,"station_id":"chh1huq6cuj3fo74tm60","pricing_plan_id":"free"},{"bike_id":"1235fdb1-969b-4683-a574-932670771df3","system_id":"levelo_inurba_marseille","lat":43.297815,"lon":5.393548,"is_reserved":false,"is_disabled":false,"rental_uris":{"android":"levelo://app?vid=1235fdb1-969b-4683-a574-932670771df3","ios":"levelo://app?vid=1235fdb1-969b-4683-a574-932670771df3"},"vehicle_type_id":"4","last_reported":1690499190,"current_range_meters":19600,"station_id":"chh1huq6cuj3fo74tm60","pricing_plan_id":"free"},{"bike_id":"4174fe51-e153-458e-b93e-687eba8f25fe","system_id":"levelo_inurba_marseille","lat":43.297815,"lon":5.393548,"is_reserved":false,"is_disabled":false,"rental_uris":{"android":"levelo://app?vid=4174fe51-e153-458e-b93e-687eba8f25fe","ios":"levelo://app?vid=4174fe51-e153-458e-b93e-687eba8f25fe"},"vehicle_type_id":"4","last_reported":1690499190,"current_range_meters":30400,"station_id":"chh1huq6cuj3fo74tm60","pricing_plan_id":"free"},{"bike_id":"18a3c773-faa8-4cbb-832f-f1e92d417cdb","system_id":"levelo_inurba_marseille","lat":43.297815,"lon":5.393548,"is_reserved":false,"is_disabled":false,"rental_uris":{"android":"levelo://app?vid=18a3c773-faa8-4cbb-832f-f1e92d417cdb","ios":"levelo://app?vid=18a3c773-faa8-4cbb-832f-f1e92d417cdb"},"vehicle_type_id":"4","last_reported":1690499190,"current_range_meters":31200,"station_id":"chh1huq6cuj3fo74tm60","pricing_plan_id":"free"},{"bike_id":"6ccc73bc-a1f1-4885-88fa-7b7a3b680ef5","system_id":"levelo_inurba_marseille","lat":43.297815,"lon":5.393548,"is_reserved":false,"is_disabled":false,"rental_uris":{"android":"levelo://app?vid=6ccc73bc-a1f1-4885-88fa-7b7a3b680ef5","ios":"levelo://app?vid=6ccc73bc-a1f1-4885-88fa-7b7a3b680ef5"},"vehicle_type_id":"4","last_reported":1690499190,"current_range_meters":800,"station_id":"chh1huq6cuj3fo74tm60","pricing_plan_id":"free"},{"bike_id":"ecf0aa62-d780-4056-b8d0-0fa70b9fa91c","system_id":"levelo_inurba_marseille","lat":43.297815,"lon":5.393548,"is_reserved":false,"is_disabled":false,"rental_uris":{"android":"levelo://app?vid=ecf0aa62-d780-4056-b8d0-0fa70b9fa91c","ios":"levelo://app?vid=ecf0aa62-d780-4056-b8d0-0fa70b9fa91c"},"vehicle_type_id":"4","last_reported":1690499190,"current_range_meters":2400,"station_id":"chh1huq6cuj3fo74tm60","pricing_plan_id":"free"},{"bike_id":"49cb15ee-431b-46ca-a1d9-8a7d995ba6a1","system_id":"levelo_inurba_marseille","lat":43.286595,"lon":5.386795,"is_reserved":false,"is_disabled":false,"rental_uris":{"android":"levelo://app?vid=49cb15ee-431b-46ca-a1d9-8a7d995ba6a1","ios":"levelo://app?vid=49cb15ee-431b-46ca-a1d9-8a7d995ba6a1"},"vehicle_type_id":"4","last_reported":1690499190,"current_range_meters":19200,"station_id":"ce4bh492rcd13ifvqdug","pricing_plan_id":"free"},{"bike_id":"2804d8f9-6298-4ff7-8746-66b085eed9c6","system_id":"levelo_inurba_marseille","lat":43.28844,"lon":5.35846,"is_reserved":false,"is_disabled":false,"rental_uris":{"android":"levelo://app?vid=2804d8f9-6298-4ff7-8746-66b085eed9c6","ios":"levelo://app?vid=2804d8f9-6298-4ff7-8746-66b085eed9c6"},"vehicle_type_id":"4","last_reported":1690499190,"current_range_meters":21600,"station_id":"ce4bhb12rcd13ifvqem0","pricing_plan_id":"free"},{"bike_id":"34a3f349-77f6-41a7-b17c-3b6084967130","system_id":"levelo_inurba_marseille","lat":43.31266,"lon":5.40167,"is_reserved":false,"is_disabled":false,"rental_uris":{"android":"levelo://app?vid=34a3f349-77f6-41a7-b17c-3b6084967130","ios":"levelo://app?vid=34a3f349-77f6-41a7-b17c-3b6084967130"},"vehicle_type_id":"4","last_reported":1690499190,"current_range_meters":11600,"station_id":"ce4bh092rcd13ifvqd30","pricing_plan_id":"free"},{"bike_id":"76464730-23af-45d8-b3cb-bc55bf6520e7","system_id":"levelo_inurba_marseille","lat":43.31277,"lon":5.4017,"is_reserved":false,"is_disabled":false,"rental_uris":{"android":"levelo://app?vid=76464730-23af-45d8-b3cb-bc55bf6520e7","ios":"levelo://app?vid=76464730-23af-45d8-b3cb-bc55bf6520e7"},"vehicle_type_id":"4","last_reported":1690499190,"current_range_meters":15200,"station_id":"ce4bh092rcd13ifvqd30","pricing_plan_id":"free"},{"bike_id":"1afea447-c7d2-4ca6-8b2c-47b8aecc9987","system_id":"levelo_inurba_marseille","lat":43.31282,"lon":5.4017,"is_reserved":false,"is_disabled":false,"rental_uris":{"android":"levelo://app?vid=1afea447-c7d2-4ca6-8b2c-47b8aecc9987","ios":"levelo://app?vid=1afea447-c7d2-4ca6-8b2c-47b8aecc9987"},"vehicle_type_id":"4","last_reported":1690499190,"current_range_meters":0,"station_id":"ce4bh092rcd13ifvqd30","pricing_plan_id":"free"},{"bike_id":"d01026d9-0b24-4901-892b-d85f4f77c50b","system_id":"levelo_inurba_marseille","lat":43.31276,"lon":5.40171,"is_reserved":false,"is_disabled":false,"rental_uris":{"android":"levelo://app?vid=d01026d9-0b24-4901-892b-d85f4f77c50b","ios":"levelo://app?vid=d01026d9-0b24-4901-892b-d85f4f77c50b"},"vehicle_type_id":"4","last_reported":1690499190,"current_range_meters":10800,"station_id":"ce4bh092rcd13ifvqd30","pricing_plan_id":"free"},{"bike_id":"800fc388-57a1-42c9-81cd-46ad6a07518f","system_id":"levelo_inurba_marseille","lat":43.312609,"lon":5.401662,"is_reserved":false,"is_disabled":false,"rental_uris":{"android":"levelo://app?vid=800fc388-57a1-42c9-81cd-46ad6a07518f","ios":"levelo://app?vid=800fc388-57a1-42c9-81cd-46ad6a07518f"},"vehicle_type_id":"4","last_reported":1690499190,"current_range_meters":0,"station_id":"ce4bh092rcd13ifvqd30","pricing_plan_id":"free"},{"bike_id":"4066a9da-66ef-4099-bddd-5b6434614a05","system_id":"levelo_inurba_marseille","lat":43.31269,"lon":5.40173,"is_reserved":false,"is_disabled":false,"rental_uris":{"android":"levelo://app?vid=4066a9da-66ef-4099-bddd-5b6434614a05","ios":"levelo://app?vid=4066a9da-66ef-4099-bddd-5b6434614a05"},"vehicle_type_id":"4","last_reported":1690499190,"current_range_meters":25600,"station_id":"ce4bh092rcd13ifvqd30","pricing_plan_id":"free"},{"bike_id":"2c4b2ea3-a0e3-4889-92bb-8eb36e1a2e1f","system_id":"levelo_inurba_marseille","lat":43.31279,"lon":5.40175,"is_reserved":false,"is_disabled":false,"rental_uris":{"android":"levelo://app?vid=2c4b2ea3-a0e3-4889-92bb-8eb36e1a2e1f","ios":"levelo://app?vid=2c4b2ea3-a0e3-4889-92bb-8eb36e1a2e1f"},"vehicle_type_id":"4","last_reported":1690499190,"current_range_meters":22000,"station_id":"ce4bh092rcd13ifvqd30","pricing_plan_id":"free"},{"bike_id":"fc492bc9-3364-4340-9d98-40b1b3502dbd","system_id":"levelo_inurba_marseille","lat":43.31271,"lon":5.40176,"is_reserved":false,"is_disabled":false,"rental_uris":{"android":"levelo://app?vid=fc492bc9-3364-4340-9d98-40b1b3502dbd","ios":"levelo://app?vid=fc492bc9-3364-4340-9d98-40b1b3502dbd"},"vehicle_type_id":"4","last_reported":1690499190,"current_range_meters":22800,"station_id":"ce4bh092rcd13ifvqd30","pricing_plan_id":"free"},{"bike_id":"1a991c04-aa28-41c5-91d7-eb76606d27cf","system_id":"levelo_inurba_marseille","lat":43.30932,"lon":5.40146,"is_reserved":false,"is_disabled":false,"rental_uris":{"android":"levelo://app?vid=1a991c04-aa28-41c5-91d7-eb76606d27cf","ios":"levelo://app?vid=1a991c04-aa28-41c5-91d7-eb76606d27cf"},"vehicle_type_id":"4","last_reported":1690499190,"current_range_meters":0,"station_id":"ce4bgvp2rcd13ifvqct0","pricing_plan_id":"free"},{"bike_id":"bde1efc1-41b8-4ae2-8b92-703f2f563f98","system_id":"levelo_inurba_marseille","lat":43.30648,"lon":5.40072,"is_reserved":false,"is_disabled":false,"rental_uris":{"android":"levelo://app?vid=bde1efc1-41b8-4ae2-8b92-703f2f563f98","ios":"levelo://app?vid=bde1efc1-41b8-4ae2-8b92-703f2f563f98"},"vehicle_type_id":"4","last_reported":1690499190,"current_range_meters":22000,"station_id":"ce4bh112rcd13ifvqda0","pricing_plan_id":"free"},{"bike_id":"8e3df253-e70a-46de-a488-85659e16bddf","system_id":"levelo_inurba_marseille","lat":43.309371,"lon":5.401449,"is_reserved":false,"is_disabled":false,"rental_uris":{"android":"levelo://app?vid=8e3df253-e70a-46de-a488-85659e16bddf","ios":"levelo://app?vid=8e3df253-e70a-46de-a488-85659e16bddf"},"vehicle_type_id":"4","last_reported":1690499190,"current_range_meters":24000,"station_id":"ce4bgvp2rcd13ifvqct0","pricing_plan_id":"free"},{"bike_id":"4bc15078-9346-461e-b02a-50f61f892107","system_id":"levelo_inurba_marseille","lat":43.3375,"lon":5.37482,"is_reserved":false,"is_disabled":false,"rental_uris":{"android":"levelo://app?vid=4bc15078-9346-461e-b02a-50f61f892107","ios":"levelo://app?vid=4bc15078-9346-461e-b02a-50f61f892107"},"vehicle_type_id":"4","last_reported":1690499190,"current_range_meters":0,"station_id":"","pricing_plan_id":"free"},{"bike_id":"7884d8e8-ff24-42ed-b0f9-d62abd01540c","system_id":"levelo_inurba_marseille","lat":43.30931,"lon":5.40155,"is_reserved":false,"is_disabled":false,"rental_uris":{"android":"levelo://app?vid=7884d8e8-ff24-42ed-b0f9-d62abd01540c","ios":"levelo://app?vid=7884d8e8-ff24-42ed-b0f9-d62abd01540c"},"vehicle_type_id":"4","last_reported":1690499190,"current_range_meters":27200,"station_id":"ce4bgvp2rcd13ifvqct0","pricing_plan_id":"free"},{"bike_id":"2cc533f4-9e3c-4f6c-b8fc-73303ad256ea","system_id":"levelo_inurba_marseille","lat":43.30642,"lon":5.401031,"is_reserved":false,"is_disabled":false,"rental_uris":{"android":"levelo://app?vid=2cc533f4-9e3c-4f6c-b8fc-73303ad256ea","ios":"levelo://app?vid=2cc533f4-9e3c-4f6c-b8fc-73303ad256ea"},"vehicle_type_id":"4","last_reported":1690499190,"current_range_meters":24000,"station_id":"ce4bh112rcd13ifvqda0","pricing_plan_id":"free"},{"bike_id":"294168ea-bb8a-451e-bbeb-66fff56bc7fb","system_id":"levelo_inurba_marseille","lat":43.30642,"lon":5.40078,"is_reserved":false,"is_disabled":false,"rental_uris":{"android":"levelo://app?vid=294168ea-bb8a-451e-bbeb-66fff56bc7fb","ios":"levelo://app?vid=294168ea-bb8a-451e-bbeb-66fff56bc7fb"},"vehicle_type_id":"4","last_reported":1690499190,"current_range_meters":19600,"station_id":"ce4bh112rcd13ifvqda0","pricing_plan_id":"free"},{"bike_id":"17a45260-dd49-42dc-92e1-99316feba305","system_id":"levelo_inurba_marseille","lat":43.30639,"lon":5.40077,"is_reserved":false,"is_disabled":false,"rental_uris":{"android":"levelo://app?vid=17a45260-dd49-42dc-92e1-99316feba305","ios":"levelo://app?vid=17a45260-dd49-42dc-92e1-99316feba305"},"vehicle_type_id":"4","last_reported":1690499190,"current_range_meters":13600,"station_id":"ce4bh112rcd13ifvqda0","pricing_plan_id":"free"},{"bike_id":"fdac9a41-aaef-4793-a01a-2fcb0b70b796","system_id":"levelo_inurba_marseille","lat":43.33754,"lon":5.37475,"is_reserved":false,"is_disabled":false,"rental_uris":{"android":"levelo://app?vid=fdac9a41-aaef-4793-a01a-2fcb0b70b796","ios":"levelo://app?vid=fdac9a41-aaef-4793-a01a-2fcb0b70b796"},"vehicle_type_id":"4","last_reported":1690499190,"current_range_meters":30800,"station_id":"","pricing_plan_id":"free"},{"bike_id":"d1bfc538-947c-4e28-9e38-ffc916520042","system_id":"levelo_inurba_marseille","lat":43.33752,"lon":5.37489,"is_reserved":false,"is_disabled":false,"rental_uris":{"android":"levelo://app?vid=d1bfc538-947c-4e28-9e38-ffc916520042","ios":"levelo://app?vid=d1bfc538-947c-4e28-9e38-ffc916520042"},"vehicle_type_id":"4","last_reported":1690499190,"current_range_meters":31200,"station_id":"","pricing_plan_id":"free"},{"bike_id":"c67af148-2d3b-45ba-bb20-aae91077c824","system_id":"levelo_inurba_marseille","lat":43.30642,"lon":5.401031,"is_reserved":false,"is_disabled":false,"rental_uris":{"android":"levelo://app?vid=c67af148-2d3b-45ba-bb20-aae91077c824","ios":"levelo://app?vid=c67af148-2d3b-45ba-bb20-aae91077c824"},"vehicle_type_id":"4","last_reported":1690499190,"current_range_meters":8800,"station_id":"ce4bh112rcd13ifvqda0","pricing_plan_id":"free"},{"bike_id":"ce91ab0b-4a55-42d1-97e5-7a46a2f2fa78","system_id":"levelo_inurba_marseille","lat":43.30642,"lon":5.401031,"is_reserved":false,"is_disabled":false,"rental_uris":{"android":"levelo://app?vid=ce91ab0b-4a55-42d1-97e5-7a46a2f2fa78","ios":"levelo://app?vid=ce91ab0b-4a55-42d1-97e5-7a46a2f2fa78"},"vehicle_type_id":"4","last_reported":1690499190,"current_range_meters":0,"station_id":"ce4bh112rcd13ifvqda0","pricing_plan_id":"free"},{"bike_id":"eb6a362b-16a5-43c4-98c7-9efb9feec5de","system_id":"levelo_inurba_marseille","lat":43.30637,"lon":5.4008,"is_reserved":false,"is_disabled":false,"rental_uris":{"android":"levelo://app?vid=eb6a362b-16a5-43c4-98c7-9efb9feec5de","ios":"levelo://app?vid=eb6a362b-16a5-43c4-98c7-9efb9feec5de"},"vehicle_type_id":"4","last_reported":1690499190,"current_range_meters":28800,"station_id":"ce4bh112rcd13ifvqda0","pricing_plan_id":"free"},{"bike_id":"c5f3a2db-7c7e-415f-893f-675f11b5ecf3","system_id":"levelo_inurba_marseille","lat":43.33755,"lon":5.37489,"is_reserved":false,"is_disabled":false,"rental_uris":{"android":"levelo://app?vid=c5f3a2db-7c7e-415f-893f-675f11b5ecf3","ios":"levelo://app?vid=c5f3a2db-7c7e-415f-893f-675f11b5ecf3"},"vehicle_type_id":"4","last_reported":1690499190,"current_range_meters":27200,"station_id":"","pricing_plan_id":"free"},{"bike_id":"19f6848e-3661-42cf-94e7-7ca78a236eea","system_id":"levelo_inurba_marseille","lat":43.301117,"lon":5.398795,"is_reserved":false,"is_disabled":false,"rental_uris":{"android":"levelo://app?vid=19f6848e-3661-42cf-94e7-7ca78a236eea","ios":"levelo://app?vid=19f6848e-3661-42cf-94e7-7ca78a236eea"},"vehicle_type_id":"4","last_reported":1690499190,"current_range_meters":10800,"station_id":"ce4bh0h2rcd13ifvqd40","pricing_plan_id":"free"},{"bike_id":"8ebeacba-ae0e-4a11-a6a7-ef1499726274","system_id":"levelo_inurba_marseille","lat":43.30644,"lon":5.40091,"is_reserved":false,"is_disabled":false,"rental_uris":{"android":"levelo://app?vid=8ebeacba-ae0e-4a11-a6a7-ef1499726274","ios":"levelo://app?vid=8ebeacba-ae0e-4a11-a6a7-ef1499726274"},"vehicle_type_id":"4","last_reported":1690499190,"current_range_meters":14000,"station_id":"ce4bh112rcd13ifvqda0","pricing_plan_id":"free"},{"bike_id":"3290bffb-e3b2-4e30-8a42-48eb93d3fabb","system_id":"levelo_inurba_marseille","lat":43.3376,"lon":5.37488,"is_reserved":false,"is_disabled":false,"rental_uris":{"android":"levelo://app?vid=3290bffb-e3b2-4e30-8a42-48eb93d3fabb","ios":"levelo://app?vid=3290bffb-e3b2-4e30-8a42-48eb93d3fabb"},"vehicle_type_id":"4","last_reported":1690499190,"current_range_meters":28400,"station_id":"","pricing_plan_id":"free"},{"bike_id":"37c56477-e6f5-4fe4-88b7-53dbd54c0eec","system_id":"levelo_inurba_marseille","lat":43.30647,"lon":5.40093,"is_reserved":false,"is_disabled":false,"rental_uris":{"android":"levelo://app?vid=37c56477-e6f5-4fe4-88b7-53dbd54c0eec","ios":"levelo://app?vid=37c56477-e6f5-4fe4-88b7-53dbd54c0eec"},"vehicle_type_id":"4","last_reported":1690499190,"current_range_meters":14000,"station_id":"ce4bh112rcd13ifvqda0","pricing_plan_id":"free"},{"bike_id":"96b40664-94f0-4519-aeed-743abd6dcdc3","system_id":"levelo_inurba_marseille","lat":43.30637,"lon":5.40094,"is_reserved":false,"is_disabled":false,"rental_uris":{"android":"levelo://app?vid=96b40664-94f0-4519-aeed-743abd6dcdc3","ios":"levelo://app?vid=96b40664-94f0-4519-aeed-743abd6dcdc3"},"vehicle_type_id":"4","last_reported":1690499190,"current_range_meters":10400,"station_id":"ce4bh112rcd13ifvqda0","pricing_plan_id":"free"},{"bike_id":"13aba595-4d56-47ed-9702-eb7189b5f833","system_id":"levelo_inurba_marseille","lat":43.30646,"lon":5.401,"is_reserved":false,"is_disabled":false,"rental_uris":{"android":"levelo://app?vid=13aba595-4d56-47ed-9702-eb7189b5f833","ios":"levelo://app?vid=13aba595-4d56-47ed-9702-eb7189b5f833"},"vehicle_type_id":"4","last_reported":1690499190,"current_range_meters":20800,"station_id":"ce4bh112rcd13ifvqda0","pricing_plan_id":"free"},{"bike_id":"b5c31d9a-2ae1-44cf-b554-7862627b962e","system_id":"levelo_inurba_marseille","lat":43.30649,"lon":5.40103,"is_reserved":false,"is_disabled":false,"rental_uris":{"android":"levelo://app?vid=b5c31d9a-2ae1-44cf-b554-7862627b962e","ios":"levelo://app?vid=b5c31d9a-2ae1-44cf-b554-7862627b962e"},"vehicle_type_id":"4","last_reported":1690499190,"current_range_meters":27200,"station_id":"ce4bh112rcd13ifvqda0","pricing_plan_id":"free"},{"bike_id":"fc878861-0b99-485c-a3b2-71d17e02f88e","system_id":"levelo_inurba_marseille","lat":43.301117,"lon":5.398795,"is_reserved":false,"is_disabled":false,"rental_uris":{"android":"levelo://app?vid=fc878861-0b99-485c-a3b2-71d17e02f88e","ios":"levelo://app?vid=fc878861-0b99-485c-a3b2-71d17e02f88e"},"vehicle_type_id":"4","last_reported":1690499190,"current_range_meters":22400,"station_id":"ce4bh0h2rcd13ifvqd40","pricing_plan_id":"free"},{"bike_id":"3a7be895-2420-4de6-8a52-ed8414c33441","system_id":"levelo_inurba_marseille","lat":43.301117,"lon":5.398795,"is_reserved":false,"is_disabled":false,"rental_uris":{"android":"levelo://app?vid=3a7be895-2420-4de6-8a52-ed8414c33441","ios":"levelo://app?vid=3a7be895-2420-4de6-8a52-ed8414c33441"},"vehicle_type_id":"4","last_reported":1690499190,"current_range_meters":2800,"station_id":"ce4bh0h2rcd13ifvqd40","pricing_plan_id":"free"},{"bike_id":"e12cdc63-65e2-45e4-a83b-5f94577036f2","system_id":"levelo_inurba_marseille","lat":43.301117,"lon":5.398795,"is_reserved":false,"is_disabled":false,"rental_uris":{"android":"levelo://app?vid=e12cdc63-65e2-45e4-a83b-5f94577036f2","ios":"levelo://app?vid=e12cdc63-65e2-45e4-a83b-5f94577036f2"},"vehicle_type_id":"4","last_reported":1690499190,"current_range_meters":14800,"station_id":"ce4bh0h2rcd13ifvqd40","pricing_plan_id":"free"},{"bike_id":"fa66150b-c7ca-4522-adfd-3a09c95ce19d","system_id":"levelo_inurba_marseille","lat":43.286593,"lon":5.363346,"is_reserved":false,"is_disabled":false,"rental_uris":{"android":"levelo://app?vid=fa66150b-c7ca-4522-adfd-3a09c95ce19d","ios":"levelo://app?vid=fa66150b-c7ca-4522-adfd-3a09c95ce19d"},"vehicle_type_id":"4","last_reported":1690499190,"current_range_meters":29200,"station_id":"ce4bhah2rcd13ifvqej0","pricing_plan_id":"free"},{"bike_id":"fc46ab97-9e93-4892-9284-06472132ef97","system_id":"levelo_inurba_marseille","lat":43.2867,"lon":5.36353,"is_reserved":false,"is_disabled":false,"rental_uris":{"android":"levelo://app?vid=fc46ab97-9e93-4892-9284-06472132ef97","ios":"levelo://app?vid=fc46ab97-9e93-4892-9284-06472132ef97"},"vehicle_type_id":"4","last_reported":1690499190,"current_range_meters":28000,"station_id":"ce4bhah2rcd13ifvqej0","pricing_plan_id":"free"},{"bike_id":"585caa6b-efe4-42a5-8e3e-165babdf5ae5","system_id":"levelo_inurba_marseille","lat":43.298681,"lon":5.397225,"is_reserved":false,"is_disabled":false,"rental_uris":{"android":"levelo://app?vid=585caa6b-efe4-42a5-8e3e-165babdf5ae5","ios":"levelo://app?vid=585caa6b-efe4-42a5-8e3e-165babdf5ae5"},"vehicle_type_id":"4","last_reported":1690499190,"current_range_meters":30000,"station_id":"ce4bh0h2rcd13ifvqd50","pricing_plan_id":"free"},{"bike_id":"f27c1387-368b-44d4-b2b3-3a0a7bdec6a8","system_id":"levelo_inurba_marseille","lat":43.286961,"lon":5.373785,"is_reserved":false,"is_disabled":false,"rental_uris":{"android":"levelo://app?vid=f27c1387-368b-44d4-b2b3-3a0a7bdec6a8","ios":"levelo://app?vid=f27c1387-368b-44d4-b2b3-3a0a7bdec6a8"},"vehicle_type_id":"4","last_reported":1690499190,"current_range_meters":4000,"station_id":"ce4bh3p2rcd13ifvqdq0","pricing_plan_id":"free"},{"bike_id":"c640d663-b7df-4b69-a629-f14339c9237c","system_id":"levelo_inurba_marseille","lat":43.29879,"lon":5.39736,"is_reserved":false,"is_disabled":false,"rental_uris":{"android":"levelo://app?vid=c640d663-b7df-4b69-a629-f14339c9237c","ios":"levelo://app?vid=c640d663-b7df-4b69-a629-f14339c9237c"},"vehicle_type_id":"4","last_reported":1690499190,"current_range_meters":0,"station_id":"ce4bh0h2rcd13ifvqd50","pricing_plan_id":"free"},{"bike_id":"71c746b3-6626-4e44-b697-b709e473d90e","system_id":"levelo_inurba_marseille","lat":43.286591,"lon":5.363346,"is_reserved":false,"is_disabled":false,"rental_uris":{"android":"levelo://app?vid=71c746b3-6626-4e44-b697-b709e473d90e","ios":"levelo://app?vid=71c746b3-6626-4e44-b697-b709e473d90e"},"vehicle_type_id":"4","last_reported":1690499190,"current_range_meters":9600,"station_id":"ce4bhah2rcd13ifvqej0","pricing_plan_id":"free"},{"bike_id":"0eaede97-f9d3-4e82-b080-17daefdcde38","system_id":"levelo_inurba_marseille","lat":43.286961,"lon":5.373785,"is_reserved":false,"is_disabled":false,"rental_uris":{"android":"levelo://app?vid=0eaede97-f9d3-4e82-b080-17daefdcde38","ios":"levelo://app?vid=0eaede97-f9d3-4e82-b080-17daefdcde38"},"vehicle_type_id":"4","last_reported":1690499190,"current_range_meters":26400,"station_id":"ce4bh3p2rcd13ifvqdq0","pricing_plan_id":"free"},{"bike_id":"ca25ca78-544d-48d2-bcff-e4ed3f6df4c7","system_id":"levelo_inurba_marseille","lat":43.298681,"lon":5.397225,"is_reserved":false,"is_disabled":false,"rental_uris":{"android":"levelo://app?vid=ca25ca78-544d-48d2-bcff-e4ed3f6df4c7","ios":"levelo://app?vid=ca25ca78-544d-48d2-bcff-e4ed3f6df4c7"},"vehicle_type_id":"4","last_reported":1690499190,"current_range_meters":30400,"station_id":"ce4bh0h2rcd13ifvqd50","pricing_plan_id":"free"},{"bike_id":"75199276-b705-4ad7-b6a9-49aeaa84628a","system_id":"levelo_inurba_marseille","lat":43.286591,"lon":5.363346,"is_reserved":false,"is_disabled":false,"rental_uris":{"android":"levelo://app?vid=75199276-b705-4ad7-b6a9-49aeaa84628a","ios":"levelo://app?vid=75199276-b705-4ad7-b6a9-49aeaa84628a"},"vehicle_type_id":"4","last_reported":1690499190,"current_range_meters":31600,"station_id":"ce4bhah2rcd13ifvqej0","pricing_plan_id":"free"},{"bike_id":"2a1de212-3ea2-40de-868e-0474c85e3314","system_id":"levelo_inurba_marseille","lat":43.298681,"lon":5.397225,"is_reserved":false,"is_disabled":false,"rental_uris":{"android":"levelo://app?vid=2a1de212-3ea2-40de-868e-0474c85e3314","ios":"levelo://app?vid=2a1de212-3ea2-40de-868e-0474c85e3314"},"vehicle_type_id":"4","last_reported":1690499190,"current_range_meters":5200,"station_id":"ce4bh0h2rcd13ifvqd50","pricing_plan_id":"free"},{"bike_id":"475d4f62-0ef3-41b5-9443-cf00ee8a98fa","system_id":"levelo_inurba_marseille","lat":43.28704,"lon":5.37398,"is_reserved":false,"is_disabled":false,"rental_uris":{"android":"levelo://app?vid=475d4f62-0ef3-41b5-9443-cf00ee8a98fa","ios":"levelo://app?vid=475d4f62-0ef3-41b5-9443-cf00ee8a98fa"},"vehicle_type_id":"4","last_reported":1690499190,"current_range_meters":18800,"station_id":"ce4bh3p2rcd13ifvqdq0","pricing_plan_id":"free"},{"bike_id":"99660561-0490-4aef-94df-e43721c6dcad","system_id":"levelo_inurba_marseille","lat":43.28699,"lon":5.37383,"is_reserved":false,"is_disabled":false,"rental_uris":{"android":"levelo://app?vid=99660561-0490-4aef-94df-e43721c6dcad","ios":"levelo://app?vid=99660561-0490-4aef-94df-e43721c6dcad"},"vehicle_type_id":"4","last_reported":1690499190,"current_range_meters":30000,"station_id":"ce4bh3p2rcd13ifvqdq0","pricing_plan_id":"free"},{"bike_id":"1bd60f00-d523-4f18-9c58-b05837cf2d3e","system_id":"levelo_inurba_marseille","lat":43.286591,"lon":5.363346,"is_reserved":false,"is_disabled":false,"rental_uris":{"android":"levelo://app?vid=1bd60f00-d523-4f18-9c58-b05837cf2d3e","ios":"levelo://app?vid=1bd60f00-d523-4f18-9c58-b05837cf2d3e"},"vehicle_type_id":"4","last_reported":1690499190,"current_range_meters":8000,"station_id":"ce4bhah2rcd13ifvqej0","pricing_plan_id":"free"},{"bike_id":"c074d029-de29-4922-92b2-f9d2173aded4","system_id":"levelo_inurba_marseille","lat":43.28696,"lon":5.37385,"is_reserved":false,"is_disabled":false,"rental_uris":{"android":"levelo://app?vid=c074d029-de29-4922-92b2-f9d2173aded4","ios":"levelo://app?vid=c074d029-de29-4922-92b2-f9d2173aded4"},"vehicle_type_id":"4","last_reported":1690499190,"current_range_meters":22800,"station_id":"ce4bh3p2rcd13ifvqdq0","pricing_plan_id":"free"},{"bike_id":"2844c93d-afe8-41ea-9437-8bf5e740e155","system_id":"levelo_inurba_marseille","lat":43.28695,"lon":5.37392,"is_reserved":false,"is_disabled":false,"rental_uris":{"android":"levelo://app?vid=2844c93d-afe8-41ea-9437-8bf5e740e155","ios":"levelo://app?vid=2844c93d-afe8-41ea-9437-8bf5e740e155"},"vehicle_type_id":"4","last_reported":1690499190,"current_range_meters":20000,"station_id":"ce4bh3p2rcd13ifvqdq0","pricing_plan_id":"free"},{"bike_id":"9ee017bf-d11e-4719-9879-d03890715eb9","system_id":"levelo_inurba_marseille","lat":43.286961,"lon":5.373785,"is_reserved":false,"is_disabled":false,"rental_uris":{"android":"levelo://app?vid=9ee017bf-d11e-4719-9879-d03890715eb9","ios":"levelo://app?vid=9ee017bf-d11e-4719-9879-d03890715eb9"},"vehicle_type_id":"4","last_reported":1690499190,"current_range_meters":28400,"station_id":"ce4bh3p2rcd13ifvqdq0","pricing_plan_id":"free"},{"bike_id":"7e828bbd-03e3-4306-a928-9503d94a6c91","system_id":"levelo_inurba_marseille","lat":43.295196,"lon":5.39397,"is_reserved":false,"is_disabled":false,"rental_uris":{"android":"levelo://app?vid=7e828bbd-03e3-4306-a928-9503d94a6c91","ios":"levelo://app?vid=7e828bbd-03e3-4306-a928-9503d94a6c91"},"vehicle_type_id":"4","last_reported":1690499190,"current_range_meters":23200,"station_id":"ce4bh292rcd13ifvqdf0","pricing_plan_id":"free"},{"bike_id":"5ae9a7cd-624f-42f2-b2e5-5fc934bedf99","system_id":"levelo_inurba_marseille","lat":43.295196,"lon":5.39397,"is_reserved":false,"is_disabled":false,"rental_uris":{"android":"levelo://app?vid=5ae9a7cd-624f-42f2-b2e5-5fc934bedf99","ios":"levelo://app?vid=5ae9a7cd-624f-42f2-b2e5-5fc934bedf99"},"vehicle_type_id":"4","last_reported":1690499190,"current_range_meters":31200,"station_id":"ce4bh292rcd13ifvqdf0","pricing_plan_id":"free"},{"bike_id":"d35efd10-8a8a-4282-82df-43c7fdaeca97","system_id":"levelo_inurba_marseille","lat":43.302759,"lon":5.400793,"is_reserved":false,"is_disabled":false,"rental_uris":{"android":"levelo://app?vid=d35efd10-8a8a-4282-82df-43c7fdaeca97","ios":"levelo://app?vid=d35efd10-8a8a-4282-82df-43c7fdaeca97"},"vehicle_type_id":"4","last_reported":1690499190,"current_range_meters":22000,"station_id":"ce4bgvh2rcd13ifvqcs0","pricing_plan_id":"free"},{"bike_id":"63c70903-9d26-46a8-9ce0-c3397887b04d","system_id":"levelo_inurba_marseille","lat":43.302759,"lon":5.400793,"is_reserved":false,"is_disabled":false,"rental_uris":{"android":"levelo://app?vid=63c70903-9d26-46a8-9ce0-c3397887b04d","ios":"levelo://app?vid=63c70903-9d26-46a8-9ce0-c3397887b04d"},"vehicle_type_id":"4","last_reported":1690499190,"current_range_meters":23600,"station_id":"ce4bgvh2rcd13ifvqcs0","pricing_plan_id":"free"},{"bike_id":"f20b8ad7-cae5-4539-9fd8-61bbab876e8f","system_id":"levelo_inurba_marseille","lat":43.302759,"lon":5.400793,"is_reserved":false,"is_disabled":false,"rental_uris":{"android":"levelo://app?vid=f20b8ad7-cae5-4539-9fd8-61bbab876e8f","ios":"levelo://app?vid=f20b8ad7-cae5-4539-9fd8-61bbab876e8f"},"vehicle_type_id":"4","last_reported":1690499190,"current_range_meters":24400,"station_id":"ce4bgvh2rcd13ifvqcs0","pricing_plan_id":"free"},{"bike_id":"fc9cde5f-1783-4a70-8eab-d6ec11aa1039","system_id":"levelo_inurba_marseille","lat":43.30244,"lon":5.40075,"is_reserved":false,"is_disabled":false,"rental_uris":{"android":"levelo://app?vid=fc9cde5f-1783-4a70-8eab-d6ec11aa1039","ios":"levelo://app?vid=fc9cde5f-1783-4a70-8eab-d6ec11aa1039"},"vehicle_type_id":"4","last_reported":1690499190,"current_range_meters":25200,"station_id":"ce4bgvh2rcd13ifvqcs0","pricing_plan_id":"free"},{"bike_id":"30e750ab-3fea-4e5a-ada6-280875cb5175","system_id":"levelo_inurba_marseille","lat":43.302759,"lon":5.400793,"is_reserved":false,"is_disabled":false,"rental_uris":{"android":"levelo://app?vid=30e750ab-3fea-4e5a-ada6-280875cb5175","ios":"levelo://app?vid=30e750ab-3fea-4e5a-ada6-280875cb5175"},"vehicle_type_id":"4","last_reported":1690499190,"current_range_meters":31200,"station_id":"ce4bgvh2rcd13ifvqcs0","pricing_plan_id":"free"},{"bike_id":"13619205-9849-4bfd-b0a1-12910b5bd571","system_id":"levelo_inurba_marseille","lat":43.287184,"lon":5.37937,"is_reserved":false,"is_disabled":false,"rental_uris":{"android":"levelo://app?vid=13619205-9849-4bfd-b0a1-12910b5bd571","ios":"levelo://app?vid=13619205-9849-4bfd-b0a1-12910b5bd571"},"vehicle_type_id":"4","last_reported":1690499190,"current_range_meters":800,"station_id":"ce4bh9p2rcd13ifvqec0","pricing_plan_id":"free"},{"bike_id":"3174e60c-19f9-40c1-bf7f-fcdd381093ca","system_id":"levelo_inurba_marseille","lat":43.287184,"lon":5.37937,"is_reserved":false,"is_disabled":false,"rental_uris":{"android":"levelo://app?vid=3174e60c-19f9-40c1-bf7f-fcdd381093ca","ios":"levelo://app?vid=3174e60c-19f9-40c1-bf7f-fcdd381093ca"},"vehicle_type_id":"4","last_reported":1690499190,"current_range_meters":31200,"station_id":"ce4bh9p2rcd13ifvqec0","pricing_plan_id":"free"},{"bike_id":"2200cddd-3048-4c3e-b93c-8d7691842dc5","system_id":"levelo_inurba_marseille","lat":43.31645,"lon":5.40434,"is_reserved":false,"is_disabled":false,"rental_uris":{"android":"levelo://app?vid=2200cddd-3048-4c3e-b93c-8d7691842dc5","ios":"levelo://app?vid=2200cddd-3048-4c3e-b93c-8d7691842dc5"},"vehicle_type_id":"4","last_reported":1690499190,"current_range_meters":14800,"station_id":"ce4bh012rcd13ifvqd00","pricing_plan_id":"free"},{"bike_id":"a36bf82e-7207-4620-a4eb-7c0e40d6af92","system_id":"levelo_inurba_marseille","lat":43.31645,"lon":5.40434,"is_reserved":false,"is_disabled":false,"rental_uris":{"android":"levelo://app?vid=a36bf82e-7207-4620-a4eb-7c0e40d6af92","ios":"levelo://app?vid=a36bf82e-7207-4620-a4eb-7c0e40d6af92"},"vehicle_type_id":"4","last_reported":1690499190,"current_range_meters":21600,"station_id":"ce4bh012rcd13ifvqd00","pricing_plan_id":"free"},{"bike_id":"fb3c632a-8406-4251-80ba-b262380b3139","system_id":"levelo_inurba_marseille","lat":43.31641,"lon":5.40435,"is_reserved":false,"is_disabled":false,"rental_uris":{"android":"levelo://app?vid=fb3c632a-8406-4251-80ba-b262380b3139","ios":"levelo://app?vid=fb3c632a-8406-4251-80ba-b262380b3139"},"vehicle_type_id":"4","last_reported":1690499190,"current_range_meters":23600,"station_id":"ce4bh012rcd13ifvqd00","pricing_plan_id":"free"},{"bike_id":"c6894c5d-0f31-47cc-82d9-f203b76e455c","system_id":"levelo_inurba_marseille","lat":43.31643,"lon":5.40435,"is_reserved":false,"is_disabled":false,"rental_uris":{"android":"levelo://app?vid=c6894c5d-0f31-47cc-82d9-f203b76e455c","ios":"levelo://app?vid=c6894c5d-0f31-47cc-82d9-f203b76e455c"},"vehicle_type_id":"4","last_reported":1690499190,"current_range_meters":24800,"station_id":"ce4bh012rcd13ifvqd00","pricing_plan_id":"free"},{"bike_id":"4a7541f0-82a5-4da3-9c87-4027edbe2996","system_id":"levelo_inurba_marseille","lat":43.31649,"lon":5.40437,"is_reserved":false,"is_disabled":false,"rental_uris":{"android":"levelo://app?vid=4a7541f0-82a5-4da3-9c87-4027edbe2996","ios":"levelo://app?vid=4a7541f0-82a5-4da3-9c87-4027edbe2996"},"vehicle_type_id":"4","last_reported":1690499190,"current_range_meters":29600,"station_id":"ce4bh012rcd13ifvqd00","pricing_plan_id":"free"},{"bike_id":"71f38b5c-6e57-4f47-a80e-4585e320cfd7","system_id":"levelo_inurba_marseille","lat":43.31645,"lon":5.40439,"is_reserved":false,"is_disabled":false,"rental_uris":{"android":"levelo://app?vid=71f38b5c-6e57-4f47-a80e-4585e320cfd7","ios":"levelo://app?vid=71f38b5c-6e57-4f47-a80e-4585e320cfd7"},"vehicle_type_id":"4","last_reported":1690499190,"current_range_meters":12400,"station_id":"ce4bh012rcd13ifvqd00","pricing_plan_id":"free"},{"bike_id":"3b8da380-d7d6-487d-be44-d003232cfbc1","system_id":"levelo_inurba_marseille","lat":43.31645,"lon":5.4044,"is_reserved":false,"is_disabled":false,"rental_uris":{"android":"levelo://app?vid=3b8da380-d7d6-487d-be44-d003232cfbc1","ios":"levelo://app?vid=3b8da380-d7d6-487d-be44-d003232cfbc1"},"vehicle_type_id":"4","last_reported":1690499190,"current_range_meters":11600,"station_id":"ce4bh012rcd13ifvqd00","pricing_plan_id":"free"},{"bike_id":"9610917a-037d-4315-bce8-6b620707060a","system_id":"levelo_inurba_marseille","lat":43.31648,"lon":5.40443,"is_reserved":false,"is_disabled":false,"rental_uris":{"android":"levelo://app?vid=9610917a-037d-4315-bce8-6b620707060a","ios":"levelo://app?vid=9610917a-037d-4315-bce8-6b620707060a"},"vehicle_type_id":"4","last_reported":1690499190,"current_range_meters":26400,"station_id":"ce4bh012rcd13ifvqd00","pricing_plan_id":"free"},{"bike_id":"67a403e8-3f89-4ea3-8fe1-7a48cd194426","system_id":"levelo_inurba_marseille","lat":43.316517,"lon":5.404375,"is_reserved":false,"is_disabled":false,"rental_uris":{"android":"levelo://app?vid=67a403e8-3f89-4ea3-8fe1-7a48cd194426","ios":"levelo://app?vid=67a403e8-3f89-4ea3-8fe1-7a48cd194426"},"vehicle_type_id":"4","last_reported":1690499190,"current_range_meters":14000,"station_id":"ce4bh012rcd13ifvqd00","pricing_plan_id":"free"},{"bike_id":"e4a73700-dd23-4d9a-b25f-9b06d4bda241","system_id":"levelo_inurba_marseille","lat":43.30022,"lon":5.40104,"is_reserved":false,"is_disabled":false,"rental_uris":{"android":"levelo://app?vid=e4a73700-dd23-4d9a-b25f-9b06d4bda241","ios":"levelo://app?vid=e4a73700-dd23-4d9a-b25f-9b06d4bda241"},"vehicle_type_id":"4","last_reported":1690499190,"current_range_meters":17600,"station_id":"","pricing_plan_id":"free"},{"bike_id":"041fd31a-777c-4acd-8aba-2f44636fd4a7","system_id":"levelo_inurba_marseille","lat":43.29208,"lon":5.39333,"is_reserved":false,"is_disabled":false,"rental_uris":{"android":"levelo://app?vid=041fd31a-777c-4acd-8aba-2f44636fd4a7","ios":"levelo://app?vid=041fd31a-777c-4acd-8aba-2f44636fd4a7"},"vehicle_type_id":"4","last_reported":1690499190,"current_range_meters":22800,"station_id":"","pricing_plan_id":"free"},{"bike_id":"8936aaf1-f7c2-4e76-a350-db5029e1a0d2","system_id":"levelo_inurba_marseille","lat":43.29201,"lon":5.39327,"is_reserved":false,"is_disabled":false,"rental_uris":{"android":"levelo://app?vid=8936aaf1-f7c2-4e76-a350-db5029e1a0d2","ios":"levelo://app?vid=8936aaf1-f7c2-4e76-a350-db5029e1a0d2"},"vehicle_type_id":"4","last_reported":1690499190,"current_range_meters":5600,"station_id":"ce4bh192rcd13ifvqdd0","pricing_plan_id":"free"},{"bike_id":"6a94f042-deef-45d2-bc10-7aec75417704","system_id":"levelo_inurba_marseille","lat":43.29197,"lon":5.39324,"is_reserved":false,"is_disabled":false,"rental_uris":{"android":"levelo://app?vid=6a94f042-deef-45d2-bc10-7aec75417704","ios":"levelo://app?vid=6a94f042-deef-45d2-bc10-7aec75417704"},"vehicle_type_id":"4","last_reported":1690499190,"current_range_meters":29600,"station_id":"ce4bh192rcd13ifvqdd0","pricing_plan_id":"free"},{"bike_id":"564f8b98-6bb6-47f9-8da0-8d89a81997d6","system_id":"levelo_inurba_marseille","lat":43.291994,"lon":5.392907,"is_reserved":false,"is_disabled":false,"rental_uris":{"android":"levelo://app?vid=564f8b98-6bb6-47f9-8da0-8d89a81997d6","ios":"levelo://app?vid=564f8b98-6bb6-47f9-8da0-8d89a81997d6"},"vehicle_type_id":"4","last_reported":1690499190,"current_range_meters":31600,"station_id":"ce4bh192rcd13ifvqdd0","pricing_plan_id":"free"},{"bike_id":"7b4db651-cca4-467d-8056-73781374f440","system_id":"levelo_inurba_marseille","lat":43.291994,"lon":5.392907,"is_reserved":false,"is_disabled":false,"rental_uris":{"android":"levelo://app?vid=7b4db651-cca4-467d-8056-73781374f440","ios":"levelo://app?vid=7b4db651-cca4-467d-8056-73781374f440"},"vehicle_type_id":"4","last_reported":1690499190,"current_range_meters":30400,"station_id":"ce4bh192rcd13ifvqdd0","pricing_plan_id":"free"},{"bike_id":"c7890445-0975-4cea-9b79-9f1358e38804","system_id":"levelo_inurba_marseille","lat":43.291994,"lon":5.392907,"is_reserved":false,"is_disabled":false,"rental_uris":{"android":"levelo://app?vid=c7890445-0975-4cea-9b79-9f1358e38804","ios":"levelo://app?vid=c7890445-0975-4cea-9b79-9f1358e38804"},"vehicle_type_id":"4","last_reported":1690499190,"current_range_meters":31200,"station_id":"ce4bh192rcd13ifvqdd0","pricing_plan_id":"free"},{"bike_id":"dc6e5bfc-5c23-4554-8064-eb359fc7ec83","system_id":"levelo_inurba_marseille","lat":43.29198,"lon":5.39333,"is_reserved":false,"is_disabled":false,"rental_uris":{"android":"levelo://app?vid=dc6e5bfc-5c23-4554-8064-eb359fc7ec83","ios":"levelo://app?vid=dc6e5bfc-5c23-4554-8064-eb359fc7ec83"},"vehicle_type_id":"4","last_reported":1690499190,"current_range_meters":31200,"station_id":"ce4bh192rcd13ifvqdd0","pricing_plan_id":"free"},{"bike_id":"018b739b-441c-4677-aa7b-0024d627c576","system_id":"levelo_inurba_marseille","lat":43.284534,"lon":5.358662,"is_reserved":false,"is_disabled":false,"rental_uris":{"android":"levelo://app?vid=018b739b-441c-4677-aa7b-0024d627c576","ios":"levelo://app?vid=018b739b-441c-4677-aa7b-0024d627c576"},"vehicle_type_id":"4","last_reported":1690499190,"current_range_meters":16400,"station_id":"ce4bhah2rcd13ifvqei0","pricing_plan_id":"free"},{"bike_id":"7fdda102-67e1-497d-8552-a9ce2978e2b0","system_id":"levelo_inurba_marseille","lat":43.28467,"lon":5.35888,"is_reserved":false,"is_disabled":false,"rental_uris":{"android":"levelo://app?vid=7fdda102-67e1-497d-8552-a9ce2978e2b0","ios":"levelo://app?vid=7fdda102-67e1-497d-8552-a9ce2978e2b0"},"vehicle_type_id":"4","last_reported":1690499190,"current_range_meters":32000,"station_id":"","pricing_plan_id":"free"},{"bike_id":"a89edfa0-3e14-498d-859e-deccc12b31e3","system_id":"levelo_inurba_marseille","lat":43.28466,"lon":5.35893,"is_reserved":false,"is_disabled":false,"rental_uris":{"android":"levelo://app?vid=a89edfa0-3e14-498d-859e-deccc12b31e3","ios":"levelo://app?vid=a89edfa0-3e14-498d-859e-deccc12b31e3"},"vehicle_type_id":"4","last_reported":1690499190,"current_range_meters":22000,"station_id":"ce4bhah2rcd13ifvqei0","pricing_plan_id":"free"},{"bike_id":"fc9fc9c0-d8f9-4dca-9897-f6157bf03b26","system_id":"levelo_inurba_marseille","lat":43.284538,"lon":5.358657,"is_reserved":false,"is_disabled":false,"rental_uris":{"android":"levelo://app?vid=fc9fc9c0-d8f9-4dca-9897-f6157bf03b26","ios":"levelo://app?vid=fc9fc9c0-d8f9-4dca-9897-f6157bf03b26"},"vehicle_type_id":"4","last_reported":1690499190,"current_range_meters":12800,"station_id":"ce4bhah2rcd13ifvqei0","pricing_plan_id":"free"},{"bike_id":"329cc8c8-f206-4807-b96d-2b0a62fe591c","system_id":"levelo_inurba_marseille","lat":43.284538,"lon":5.358657,"is_reserved":false,"is_disabled":false,"rental_uris":{"android":"levelo://app?vid=329cc8c8-f206-4807-b96d-2b0a62fe591c","ios":"levelo://app?vid=329cc8c8-f206-4807-b96d-2b0a62fe591c"},"vehicle_type_id":"4","last_reported":1690499190,"current_range_meters":28800,"station_id":"ce4bhah2rcd13ifvqei0","pricing_plan_id":"free"},{"bike_id":"2e2080f4-03ab-4485-996c-e73dd06ac126","system_id":"levelo_inurba_marseille","lat":43.284538,"lon":5.358657,"is_reserved":false,"is_disabled":false,"rental_uris":{"android":"levelo://app?vid=2e2080f4-03ab-4485-996c-e73dd06ac126","ios":"levelo://app?vid=2e2080f4-03ab-4485-996c-e73dd06ac126"},"vehicle_type_id":"4","last_reported":1690499190,"current_range_meters":14400,"station_id":"ce4bhah2rcd13ifvqei0","pricing_plan_id":"free"},{"bike_id":"949be7c7-b831-4284-af26-717cc6b7218e","system_id":"levelo_inurba_marseille","lat":43.284538,"lon":5.358657,"is_reserved":false,"is_disabled":false,"rental_uris":{"android":"levelo://app?vid=949be7c7-b831-4284-af26-717cc6b7218e","ios":"levelo://app?vid=949be7c7-b831-4284-af26-717cc6b7218e"},"vehicle_type_id":"4","last_reported":1690499190,"current_range_meters":0,"station_id":"ce4bhah2rcd13ifvqei0","pricing_plan_id":"free"},{"bike_id":"3431f745-6f79-4175-945c-8367e98cea3d","system_id":"levelo_inurba_marseille","lat":43.284538,"lon":5.358657,"is_reserved":false,"is_disabled":false,"rental_uris":{"android":"levelo://app?vid=3431f745-6f79-4175-945c-8367e98cea3d","ios":"levelo://app?vid=3431f745-6f79-4175-945c-8367e98cea3d"},"vehicle_type_id":"4","last_reported":1690499190,"current_range_meters":27600,"station_id":"ce4bhah2rcd13ifvqei0","pricing_plan_id":"free"},{"bike_id":"8405189d-0618-42d0-bfaf-f6c0c4bc1fba","system_id":"levelo_inurba_marseille","lat":43.284534,"lon":5.358662,"is_reserved":false,"is_disabled":false,"rental_uris":{"android":"levelo://app?vid=8405189d-0618-42d0-bfaf-f6c0c4bc1fba","ios":"levelo://app?vid=8405189d-0618-42d0-bfaf-f6c0c4bc1fba"},"vehicle_type_id":"4","last_reported":1690499190,"current_range_meters":31600,"station_id":"ce4bhah2rcd13ifvqei0","pricing_plan_id":"free"},{"bike_id":"80c7808d-6c3b-4c48-acfc-1f59d8440cdf","system_id":"levelo_inurba_marseille","lat":43.28461,"lon":5.35896,"is_reserved":false,"is_disabled":false,"rental_uris":{"android":"levelo://app?vid=80c7808d-6c3b-4c48-acfc-1f59d8440cdf","ios":"levelo://app?vid=80c7808d-6c3b-4c48-acfc-1f59d8440cdf"},"vehicle_type_id":"4","last_reported":1690499190,"current_range_meters":5600,"station_id":"ce4bhah2rcd13ifvqei0","pricing_plan_id":"free"},{"bike_id":"1341bcdf-f797-4b39-a51a-6ee25ed385da","system_id":"levelo_inurba_marseille","lat":43.284538,"lon":5.358657,"is_reserved":false,"is_disabled":false,"rental_uris":{"android":"levelo://app?vid=1341bcdf-f797-4b39-a51a-6ee25ed385da","ios":"levelo://app?vid=1341bcdf-f797-4b39-a51a-6ee25ed385da"},