{"last_updated":1726769508,"ttl":30,"version":"2.2","data":{"bikes":[{"bike_id":"461e743b-06c2-49e4-97ae-9f334ad97d5f","system_id":"levelo_inurba_marseille","lat":43.28274,"lon":5.3506,"is_reserved":false,"is_disabled":false,"rental_uris":{"android":"levelo://app?vid=461e743b-06c2-49e4-97ae-9f334ad97d5f","ios":"levelo://app?vid=461e743b-06c2-49e4-97ae-9f334ad97d5f"},"vehicle_type_id":"4","last_reported":1726769508,"current_range_meters":33600,"station_id":"ce4bhbp2rcd13ifvqerg","pricing_plan_id":"cebpf4jnsgd1na2vs0mg"},{"bike_id":"eff80caa-ad27-410f-ae1b-bd64887d6ba2","system_id":"levelo_inurba_marseille","lat":43.27166,"lon":5.40994,"is_reserved":false,"is_disabled":false,"rental_uris":{"android":"levelo://app?vid=eff80caa-ad27-410f-ae1b-bd64887d6ba2","ios":"levelo://app?vid=eff80caa-ad27-410f-ae1b-bd64887d6ba2"},"vehicle_type_id":"4","last_reported":1726769508,"current_range_meters":22000,"station_id":"ce4bhl12rcd13ifvqgf0","pricing_plan_id":"cebpf4jnsgd1na2vs0mg"},{"bike_id":"051a64c7-9af5-4a0c-aa5b-cf724df48b00","system_id":"levelo_inurba_marseille","lat":43.28461,"lon":5.35887,"is_reserved":false,"is_disabled":false,"rental_uris":{"android":"levelo://app?vid=051a64c7-9af5-4a0c-aa5b-cf724df48b00","ios":"levelo://app?vid=051a64c7-9af5-4a0c-aa5b-cf724df48b00"},"vehicle_type_id":"4","last_reported":1726769508,"current_range_meters":11200,"station_id":"ce4bhah2rcd13ifvqei0","pricing_plan_id":"cebpf4jnsgd1na2vs0mg"},{"bike_id":"b441f240-3012-4aaf-8211-6508c4d449bc","system_id":"levelo_inurba_marseille","lat":43.27914,"lon":5.39579,"is_reserved":false,"is_disabled":false,"rental_uris":{"android":"levelo://app?vid=b441f240-3012-4aaf-8211-6508c4d449bc","ios":"levelo://app?vid=b441f240-3012-4aaf-8211-6508c4d449bc"},"vehicle_type_id":"4","last_reported":1726769508,"current_range_meters":16800,"station_id":"ce4bhf92rcd13ifvqf40","pricing_plan_id":"cebpf4jnsgd1na2vs0mg"},{"bike_id":"3f3549d7-536c-4e22-8d24-47609e5a9e2e","system_id":"levelo_inurba_marseille","lat":43.28698,"lon":5.37389,"is_reserved":false,"is_disabled":false,"rental_uris":{"android":"levelo://app?vid=3f3549d7-536c-4e22-8d24-47609e5a9e2e","ios":"levelo://app?vid=3f3549d7-536c-4e22-8d24-47609e5a9e2e"},"vehicle_type_id":"4","last_reported":1726769508,"current_range_meters":31200,"station_id":"ce4bh3p2rcd13ifvqdq0","pricing_plan_id":"cebpf4jnsgd1na2vs0mg"},{"bike_id":"a5ed4552-d0d2-4d14-bf49-8a55d4e2e324","system_id":"levelo_inurba_marseille","lat":43.30418,"lon":5.41292,"is_reserved":false,"is_disabled":false,"rental_uris":{"android":"levelo://app?vid=a5ed4552-d0d2-4d14-bf49-8a55d4e2e324","ios":"levelo://app?vid=a5ed4552-d0d2-4d14-bf49-8a55d4e2e324"},"vehicle_type_id":"4","last_reported":1726769508,"current_range_meters":34000,"station_id":"ce4bhop2rcd13ifvqh8g","pricing_plan_id":"cebpf4jnsgd1na2vs0mg"},{"bike_id":"bc0222d7-0272-41a4-ad12-a611a903cf7e","system_id":"levelo_inurba_marseille","lat":43.296356,"lon":5.375625,"is_reserved":false,"is_disabled":false,"rental_uris":{"android":"levelo://app?vid=bc0222d7-0272-41a4-ad12-a611a903cf7e","ios":"levelo://app?vid=bc0222d7-0272-41a4-ad12-a611a903cf7e"},"vehicle_type_id":"4","last_reported":1726769508,"current_range_meters":37600,"station_id":"ce4bgop2rcd13ifvqc1g","pricing_plan_id":"cebpf4jnsgd1na2vs0mg"},{"bike_id":"b25087f3-54c5-4ad8-9dc9-f2f4d4344a53","system_id":"levelo_inurba_marseille","lat":43.28939,"lon":5.38388,"is_reserved":false,"is_disabled":false,"rental_uris":{"android":"levelo://app?vid=b25087f3-54c5-4ad8-9dc9-f2f4d4344a53","ios":"levelo://app?vid=b25087f3-54c5-4ad8-9dc9-f2f4d4344a53"},"vehicle_type_id":"4","last_reported":1726769508,"current_range_meters":39200,"station_id":"ce4bh612rcd13ifvqe6g","pricing_plan_id":"cebpf4jnsgd1na2vs0mg"},{"bike_id":"a682fa95-7619-4a2e-aa0a-7d17d0f2bba4","system_id":"levelo_inurba_marseille","lat":43.31881,"lon":5.40737,"is_reserved":false,"is_disabled":false,"rental_uris":{"android":"levelo://app?vid=a682fa95-7619-4a2e-aa0a-7d17d0f2bba4","ios":"levelo://app?vid=a682fa95-7619-4a2e-aa0a-7d17d0f2bba4"},"vehicle_type_id":"4","last_reported":1726769508,"current_range_meters":8400,"station_id":"ce4bhq12rcd13ifvqhig","pricing_plan_id":"cebpf4jnsgd1na2vs0mg"},{"bike_id":"e532fd53-ad12-4848-82ea-70ac934c1c37","system_id":"levelo_inurba_marseille","lat":43.3375,"lon":5.37446,"is_reserved":false,"is_disabled":false,"rental_uris":{"android":"levelo://app?vid=e532fd53-ad12-4848-82ea-70ac934c1c37","ios":"levelo://app?vid=e532fd53-ad12-4848-82ea-70ac934c1c37"},"vehicle_type_id":"4","last_reported":1726769508,"current_range_meters":36400,"station_id":"","pricing_plan_id":"cebpf4jnsgd1na2vs0mg"},{"bike_id":"22351921-fd40-4fd5-a92a-81291e89b050","system_id":"levelo_inurba_marseille","lat":43.29029,"lon":5.3865,"is_reserved":false,"is_disabled":false,"rental_uris":{"android":"levelo://app?vid=22351921-fd40-4fd5-a92a-81291e89b050","ios":"levelo://app?vid=22351921-fd40-4fd5-a92a-81291e89b050"},"vehicle_type_id":"4","last_reported":1726769508,"current_range_meters":38800,"station_id":"ce4bh4p2rcd13ifvqe0g","pricing_plan_id":"cebpf4jnsgd1na2vs0mg"},{"bike_id":"8ceaecc8-718f-4488-8932-de6cb7c7ec9e","system_id":"levelo_inurba_marseille","lat":43.26809,"lon":5.40265,"is_reserved":false,"is_disabled":false,"rental_uris":{"android":"levelo://app?vid=8ceaecc8-718f-4488-8932-de6cb7c7ec9e","ios":"levelo://app?vid=8ceaecc8-718f-4488-8932-de6cb7c7ec9e"},"vehicle_type_id":"4","last_reported":1726769508,"current_range_meters":38000,"station_id":"ce501612rcd8frsf0b60","pricing_plan_id":"cebpf4jnsgd1na2vs0mg"},{"bike_id":"4383c59a-4e10-4641-85fb-165f0df74c6f","system_id":"levelo_inurba_marseille","lat":43.2797,"lon":5.38749,"is_reserved":false,"is_disabled":false,"rental_uris":{"android":"levelo://app?vid=4383c59a-4e10-4641-85fb-165f0df74c6f","ios":"levelo://app?vid=4383c59a-4e10-4641-85fb-165f0df74c6f"},"vehicle_type_id":"4","last_reported":1726769508,"current_range_meters":11200,"station_id":"ce4bhg12rcd13ifvqf80","pricing_plan_id":"cebpf4jnsgd1na2vs0mg"},{"bike_id":"4c234c08-0b65-41a3-a53d-ebecf586d96b","system_id":"levelo_inurba_marseille","lat":43.29015,"lon":5.35604,"is_reserved":false,"is_disabled":false,"rental_uris":{"android":"levelo://app?vid=4c234c08-0b65-41a3-a53d-ebecf586d96b","ios":"levelo://app?vid=4c234c08-0b65-41a3-a53d-ebecf586d96b"},"vehicle_type_id":"4","last_reported":1726769508,"current_range_meters":32000,"station_id":"ce4bhb92rcd13ifvqen0","pricing_plan_id":"cebpf4jnsgd1na2vs0mg"},{"bike_id":"eba669c2-dbe1-4f32-b6c5-931f9639d8d0","system_id":"levelo_inurba_marseille","lat":43.29945,"lon":5.38487,"is_reserved":false,"is_disabled":false,"rental_uris":{"android":"levelo://app?vid=eba669c2-dbe1-4f32-b6c5-931f9639d8d0","ios":"levelo://app?vid=eba669c2-dbe1-4f32-b6c5-931f9639d8d0"},"vehicle_type_id":"4","last_reported":1726769508,"current_range_meters":9600,"station_id":"ce4bgj92rcd13ifvqbd0","pricing_plan_id":"cebpf4jnsgd1na2vs0mg"},{"bike_id":"f9898cab-cb36-4e00-83b8-7f729aaf5652","system_id":"levelo_inurba_marseille","lat":43.32655,"lon":5.41,"is_reserved":false,"is_disabled":false,"rental_uris":{"android":"levelo://app?vid=f9898cab-cb36-4e00-83b8-7f729aaf5652","ios":"levelo://app?vid=f9898cab-cb36-4e00-83b8-7f729aaf5652"},"vehicle_type_id":"4","last_reported":1726769508,"current_range_meters":3200,"station_id":"ce4bhpp2rcd13ifvqhgg","pricing_plan_id":"cebpf4jnsgd1na2vs0mg"},{"bike_id":"7fded4d5-ebea-4615-baca-c592d267d8c0","system_id":"levelo_inurba_marseille","lat":43.28856,"lon":5.39322,"is_reserved":false,"is_disabled":false,"rental_uris":{"android":"levelo://app?vid=7fded4d5-ebea-4615-baca-c592d267d8c0","ios":"levelo://app?vid=7fded4d5-ebea-4615-baca-c592d267d8c0"},"vehicle_type_id":"4","last_reported":1726769508,"current_range_meters":17600,"station_id":"ce4bh2p2rcd13ifvqdi0","pricing_plan_id":"cebpf4jnsgd1na2vs0mg"},{"bike_id":"a04c8c90-5441-4e4d-bf4a-055d3840912c","system_id":"levelo_inurba_marseille","lat":43.2927,"lon":5.36854,"is_reserved":false,"is_disabled":false,"rental_uris":{"android":"levelo://app?vid=a04c8c90-5441-4e4d-bf4a-055d3840912c","ios":"levelo://app?vid=a04c8c90-5441-4e4d-bf4a-055d3840912c"},"vehicle_type_id":"4","last_reported":1726769508,"current_range_meters":16000,"station_id":"ce4bhbp2rcd13ifvqesg","pricing_plan_id":"cebpf4jnsgd1na2vs0mg"},{"bike_id":"5380c786-885c-4c39-9970-2cbce93122ea","system_id":"levelo_inurba_marseille","lat":43.27619,"lon":5.36107,"is_reserved":false,"is_disabled":false,"rental_uris":{"android":"levelo://app?vid=5380c786-885c-4c39-9970-2cbce93122ea","ios":"levelo://app?vid=5380c786-885c-4c39-9970-2cbce93122ea"},"vehicle_type_id":"4","last_reported":1726769508,"current_range_meters":12400,"station_id":"ce4bgj92rcd13ifvqbe0","pricing_plan_id":"cebpf4jnsgd1na2vs0mg"},{"bike_id":"125ed4a4-600d-46bc-8fd9-03b641b8ec47","system_id":"levelo_inurba_marseille","lat":43.30127,"lon":5.398619,"is_reserved":false,"is_disabled":false,"rental_uris":{"android":"levelo://app?vid=125ed4a4-600d-46bc-8fd9-03b641b8ec47","ios":"levelo://app?vid=125ed4a4-600d-46bc-8fd9-03b641b8ec47"},"vehicle_type_id":"4","last_reported":1726769508,"current_range_meters":10000,"station_id":"ce4bh0h2rcd13ifvqd40","pricing_plan_id":"cebpf4jnsgd1na2vs0mg"},{"bike_id":"20d7a041-0277-4d60-a6a8-f177107b3ca5","system_id":"levelo_inurba_marseille","lat":43.292633,"lon":5.392815,"is_reserved":false,"is_disabled":false,"rental_uris":{"android":"levelo://app?vid=20d7a041-0277-4d60-a6a8-f177107b3ca5","ios":"levelo://app?vid=20d7a041-0277-4d60-a6a8-f177107b3ca5"},"vehicle_type_id":"4","last_reported":1726769508,"current_range_meters":4800,"station_id":"ce4bh192rcd13ifvqdd0","pricing_plan_id":"cebpf4jnsgd1na2vs0mg"},{"bike_id":"152e4758-d0ed-4bc0-a395-992e9770d302","system_id":"levelo_inurba_marseille","lat":43.29626,"lon":5.40605,"is_reserved":false,"is_disabled":false,"rental_uris":{"android":"levelo://app?vid=152e4758-d0ed-4bc0-a395-992e9770d302","ios":"levelo://app?vid=152e4758-d0ed-4bc0-a395-992e9770d302"},"vehicle_type_id":"4","last_reported":1726769508,"current_range_meters":39200,"station_id":"ce4bh0h2rcd13ifvqd60","pricing_plan_id":"cebpf4jnsgd1na2vs0mg"},{"bike_id":"998833f8-1694-4a45-a617-634099067338","system_id":"levelo_inurba_marseille","lat":43.2848,"lon":5.38424,"is_reserved":false,"is_disabled":false,"rental_uris":{"android":"levelo://app?vid=998833f8-1694-4a45-a617-634099067338","ios":"levelo://app?vid=998833f8-1694-4a45-a617-634099067338"},"vehicle_type_id":"4","last_reported":1726769508,"current_range_meters":16000,"station_id":"ce4bh512rcd13ifvqe3g","pricing_plan_id":"cebpf4jnsgd1na2vs0mg"},{"bike_id":"1d669fcc-1fdc-4a47-bb39-513baf72b3d8","system_id":"levelo_inurba_marseille","lat":43.28103,"lon":5.37843,"is_reserved":false,"is_disabled":false,"rental_uris":{"android":"levelo://app?vid=1d669fcc-1fdc-4a47-bb39-513baf72b3d8","ios":"levelo://app?vid=1d669fcc-1fdc-4a47-bb39-513baf72b3d8"},"vehicle_type_id":"4","last_reported":1726769508,"current_range_meters":16400,"station_id":"ce4bha12rcd13ifvqee0","pricing_plan_id":"cebpf4jnsgd1na2vs0mg"},{"bike_id":"06eef320-c2b1-42ca-bda3-e896022e4f06","system_id":"levelo_inurba_marseille","lat":43.27072,"lon":5.42284,"is_reserved":false,"is_disabled":false,"rental_uris":{"android":"levelo://app?vid=06eef320-c2b1-42ca-bda3-e896022e4f06","ios":"levelo://app?vid=06eef320-c2b1-42ca-bda3-e896022e4f06"},"vehicle_type_id":"4","last_reported":1726769508,"current_range_meters":18800,"station_id":"ce4bhk92rcd13ifvqgb0","pricing_plan_id":"cebpf4jnsgd1na2vs0mg"},{"bike_id":"84764018-f787-462d-9f40-4a6bd418ff3c","system_id":"levelo_inurba_marseille","lat":43.30433,"lon":5.38891,"is_reserved":false,"is_disabled":false,"rental_uris":{"android":"levelo://app?vid=84764018-f787-462d-9f40-4a6bd418ff3c","ios":"levelo://app?vid=84764018-f787-462d-9f40-4a6bd418ff3c"},"vehicle_type_id":"4","last_reported":1726769508,"current_range_meters":10000,"station_id":"ce4bgk12rcd13ifvqbi0","pricing_plan_id":"cebpf4jnsgd1na2vs0mg"},{"bike_id":"c9d7a47c-46cc-4461-bd29-52715f352ecf","system_id":"levelo_inurba_marseille","lat":43.289275,"lon":5.384133,"is_reserved":false,"is_disabled":false,"rental_uris":{"android":"levelo://app?vid=c9d7a47c-46cc-4461-bd29-52715f352ecf","ios":"levelo://app?vid=c9d7a47c-46cc-4461-bd29-52715f352ecf"},"vehicle_type_id":"4","last_reported":1726769508,"current_range_meters":33600,"station_id":"ce4bh612rcd13ifvqe6g","pricing_plan_id":"cebpf4jnsgd1na2vs0mg"},{"bike_id":"99225314-09be-4ea5-95db-8cf185f956c8","system_id":"levelo_inurba_marseille","lat":43.33718,"lon":5.39183,"is_reserved":false,"is_disabled":false,"rental_uris":{"android":"levelo://app?vid=99225314-09be-4ea5-95db-8cf185f956c8","ios":"levelo://app?vid=99225314-09be-4ea5-95db-8cf185f956c8"},"vehicle_type_id":"4","last_reported":1726769508,"current_range_meters":17200,"station_id":"ce4bhr92rcd13ifvqhsg","pricing_plan_id":"cebpf4jnsgd1na2vs0mg"},{"bike_id":"105cb224-bda4-4597-bda2-a967630779e2","system_id":"levelo_inurba_marseille","lat":43.30585,"lon":5.39358,"is_reserved":false,"is_disabled":false,"rental_uris":{"android":"levelo://app?vid=105cb224-bda4-4597-bda2-a967630779e2","ios":"levelo://app?vid=105cb224-bda4-4597-bda2-a967630779e2"},"vehicle_type_id":"4","last_reported":1726769508,"current_range_meters":7200,"station_id":"ce4bh0p2rcd13ifvqd80","pricing_plan_id":"cebpf4jnsgd1na2vs0mg"},{"bike_id":"a244c4d4-d575-48e3-94b5-f5a8645dec63","system_id":"levelo_inurba_marseille","lat":43.3118,"lon":5.3871,"is_reserved":false,"is_disabled":false,"rental_uris":{"android":"levelo://app?vid=a244c4d4-d575-48e3-94b5-f5a8645dec63","ios":"levelo://app?vid=a244c4d4-d575-48e3-94b5-f5a8645dec63"},"vehicle_type_id":"4","last_reported":1726769508,"current_range_meters":4000,"station_id":"ce4bgv12rcd13ifvqcp0","pricing_plan_id":"cebpf4jnsgd1na2vs0mg"},{"bike_id":"3ddc290e-5a67-453f-a356-251b8cb031fe","system_id":"levelo_inurba_marseille","lat":43.32488,"lon":5.36579,"is_reserved":false,"is_disabled":false,"rental_uris":{"android":"levelo://app?vid=3ddc290e-5a67-453f-a356-251b8cb031fe","ios":"levelo://app?vid=3ddc290e-5a67-453f-a356-251b8cb031fe"},"vehicle_type_id":"4","last_reported":1726769508,"current_range_meters":4000,"station_id":"ce4bhs12rcd13ifvqhvg","pricing_plan_id":"cebpf4jnsgd1na2vs0mg"},{"bike_id":"1bcdb92b-8824-41cd-b6cf-d0ee92f5a1da","system_id":"levelo_inurba_marseille","lat":43.28035,"lon":5.3695,"is_reserved":false,"is_disabled":false,"rental_uris":{"android":"levelo://app?vid=1bcdb92b-8824-41cd-b6cf-d0ee92f5a1da","ios":"levelo://app?vid=1bcdb92b-8824-41cd-b6cf-d0ee92f5a1da"},"vehicle_type_id":"4","last_reported":1726769508,"current_range_meters":18800,"station_id":"ce4bha12rcd13ifvqef0","pricing_plan_id":"cebpf4jnsgd1na2vs0mg"},{"bike_id":"04394a73-34a5-4d88-bac1-80c0695aafe5","system_id":"levelo_inurba_marseille","lat":43.337444,"lon":5.374475,"is_reserved":false,"is_disabled":false,"rental_uris":{"android":"levelo://app?vid=04394a73-34a5-4d88-bac1-80c0695aafe5","ios":"levelo://app?vid=04394a73-34a5-4d88-bac1-80c0695aafe5"},"vehicle_type_id":"4","last_reported":1726769508,"current_range_meters":23200,"station_id":"","pricing_plan_id":"cebpf4jnsgd1na2vs0mg"},{"bike_id":"036ab25f-0c34-4c45-8e88-1fc9200da6fd","system_id":"levelo_inurba_marseille","lat":43.27181,"lon":5.42725,"is_reserved":false,"is_disabled":false,"rental_uris":{"android":"levelo://app?vid=036ab25f-0c34-4c45-8e88-1fc9200da6fd","ios":"levelo://app?vid=036ab25f-0c34-4c45-8e88-1fc9200da6fd"},"vehicle_type_id":"4","last_reported":1726769508,"current_range_meters":28800,"station_id":"","pricing_plan_id":"cebpf4jnsgd1na2vs0mg"},{"bike_id":"40e5b403-5590-4098-a474-822a4163b2a7","system_id":"levelo_inurba_marseille","lat":43.24082,"lon":5.3775,"is_reserved":false,"is_disabled":false,"rental_uris":{"android":"levelo://app?vid=40e5b403-5590-4098-a474-822a4163b2a7","ios":"levelo://app?vid=40e5b403-5590-4098-a474-822a4163b2a7"},"vehicle_type_id":"4","last_reported":1726769508,"current_range_meters":27600,"station_id":"ce4bhnp2rcd13ifvqgvg","pricing_plan_id":"cebpf4jnsgd1na2vs0mg"},{"bike_id":"298ac1dc-024a-45f9-bee5-67e6e0d001f8","system_id":"levelo_inurba_marseille","lat":43.32287,"lon":5.38272,"is_reserved":false,"is_disabled":false,"rental_uris":{"android":"levelo://app?vid=298ac1dc-024a-45f9-bee5-67e6e0d001f8","ios":"levelo://app?vid=298ac1dc-024a-45f9-bee5-67e6e0d001f8"},"vehicle_type_id":"4","last_reported":1726769508,"current_range_meters":31200,"station_id":"ce4bhr12rcd13ifvqhqg","pricing_plan_id":"cebpf4jnsgd1na2vs0mg"},{"bike_id":"5a89b11e-e8a0-46d3-8949-8ef91ad30d1b","system_id":"levelo_inurba_marseille","lat":43.283722,"lon":5.386305,"is_reserved":false,"is_disabled":false,"rental_uris":{"android":"levelo://app?vid=5a89b11e-e8a0-46d3-8949-8ef91ad30d1b","ios":"levelo://app?vid=5a89b11e-e8a0-46d3-8949-8ef91ad30d1b"},"vehicle_type_id":"4","last_reported":1726769508,"current_range_meters":28000,"station_id":"ce4bh492rcd13ifvqdvg","pricing_plan_id":"cebpf4jnsgd1na2vs0mg"},{"bike_id":"d9fb6196-79ca-44a9-a3dc-5010cf7e4c08","system_id":"levelo_inurba_marseille","lat":43.295715,"lon":5.399773,"is_reserved":false,"is_disabled":false,"rental_uris":{"android":"levelo://app?vid=d9fb6196-79ca-44a9-a3dc-5010cf7e4c08","ios":"levelo://app?vid=d9fb6196-79ca-44a9-a3dc-5010cf7e4c08"},"vehicle_type_id":"4","last_reported":1726769508,"current_range_meters":28800,"station_id":"ce4bh312rcd13ifvqdj0","pricing_plan_id":"cebpf4jnsgd1na2vs0mg"},{"bike_id":"33065ea5-4482-48ea-97a8-c913fa094e14","system_id":"levelo_inurba_marseille","lat":43.3136,"lon":5.38488,"is_reserved":false,"is_disabled":false,"rental_uris":{"android":"levelo://app?vid=33065ea5-4482-48ea-97a8-c913fa094e14","ios":"levelo://app?vid=33065ea5-4482-48ea-97a8-c913fa094e14"},"vehicle_type_id":"4","last_reported":1726769508,"current_range_meters":32800,"station_id":"ce4bgt92rcd13ifvqcf0","pricing_plan_id":"cebpf4jnsgd1na2vs0mg"},{"bike_id":"4e78cba5-c430-4a63-99ce-85df2a0cf3fd","system_id":"levelo_inurba_marseille","lat":43.27168,"lon":5.40994,"is_reserved":false,"is_disabled":false,"rental_uris":{"android":"levelo://app?vid=4e78cba5-c430-4a63-99ce-85df2a0cf3fd","ios":"levelo://app?vid=4e78cba5-c430-4a63-99ce-85df2a0cf3fd"},"vehicle_type_id":"4","last_reported":1726769508,"current_range_meters":38800,"station_id":"ce4bhl12rcd13ifvqgf0","pricing_plan_id":"cebpf4jnsgd1na2vs0mg"},{"bike_id":"c16e6444-e958-4269-8c3a-b9006a861340","system_id":"levelo_inurba_marseille","lat":43.304315,"lon":5.397362,"is_reserved":false,"is_disabled":false,"rental_uris":{"android":"levelo://app?vid=c16e6444-e958-4269-8c3a-b9006a861340","ios":"levelo://app?vid=c16e6444-e958-4269-8c3a-b9006a861340"},"vehicle_type_id":"4","last_reported":1726769508,"current_range_meters":28000,"station_id":"ce4bh092rcd13ifvqd20","pricing_plan_id":"cebpf4jnsgd1na2vs0mg"},{"bike_id":"e3edff7b-245a-4677-b07c-d84ccac0f9d7","system_id":"levelo_inurba_marseille","lat":43.29626,"lon":5.4059,"is_reserved":false,"is_disabled":false,"rental_uris":{"android":"levelo://app?vid=e3edff7b-245a-4677-b07c-d84ccac0f9d7","ios":"levelo://app?vid=e3edff7b-245a-4677-b07c-d84ccac0f9d7"},"vehicle_type_id":"4","last_reported":1726769508,"current_range_meters":16400,"station_id":"ce4bh0h2rcd13ifvqd60","pricing_plan_id":"cebpf4jnsgd1na2vs0mg"},{"bike_id":"53bae7c5-1b34-45d2-b215-b1b48b8d9579","system_id":"levelo_inurba_marseille","lat":43.29258,"lon":5.38433,"is_reserved":false,"is_disabled":false,"rental_uris":{"android":"levelo://app?vid=53bae7c5-1b34-45d2-b215-b1b48b8d9579","ios":"levelo://app?vid=53bae7c5-1b34-45d2-b215-b1b48b8d9579"},"vehicle_type_id":"4","last_reported":1726769508,"current_range_meters":30400,"station_id":"ce4bh692rcd13ifvqea0","pricing_plan_id":"cebpf4jnsgd1na2vs0mg"},{"bike_id":"b0d4a86b-19df-4486-9b5d-6625cacb6063","system_id":"levelo_inurba_marseille","lat":43.282642,"lon":5.35068,"is_reserved":false,"is_disabled":false,"rental_uris":{"android":"levelo://app?vid=b0d4a86b-19df-4486-9b5d-6625cacb6063","ios":"levelo://app?vid=b0d4a86b-19df-4486-9b5d-6625cacb6063"},"vehicle_type_id":"4","last_reported":1726769508,"current_range_meters":27600,"station_id":"ce4bhbp2rcd13ifvqerg","pricing_plan_id":"cebpf4jnsgd1na2vs0mg"},{"bike_id":"0bfb7660-fa51-44f0-9683-8aacfa991822","system_id":"levelo_inurba_marseille","lat":43.28854,"lon":5.35845,"is_reserved":false,"is_disabled":false,"rental_uris":{"android":"levelo://app?vid=0bfb7660-fa51-44f0-9683-8aacfa991822","ios":"levelo://app?vid=0bfb7660-fa51-44f0-9683-8aacfa991822"},"vehicle_type_id":"4","last_reported":1726769508,"current_range_meters":8000,"station_id":"ce4bhb12rcd13ifvqem0","pricing_plan_id":"cebpf4jnsgd1na2vs0mg"},{"bike_id":"c42d6b2f-7847-4248-848b-a4c3edc602d9","system_id":"levelo_inurba_marseille","lat":43.31994,"lon":5.38163,"is_reserved":false,"is_disabled":false,"rental_uris":{"android":"levelo://app?vid=c42d6b2f-7847-4248-848b-a4c3edc602d9","ios":"levelo://app?vid=c42d6b2f-7847-4248-848b-a4c3edc602d9"},"vehicle_type_id":"4","last_reported":1726769508,"current_range_meters":12400,"station_id":"ce4bhr12rcd13ifvqhpg","pricing_plan_id":"cebpf4jnsgd1na2vs0mg"},{"bike_id":"c18d7fca-3181-496a-87f2-c3824095eafd","system_id":"levelo_inurba_marseille","lat":43.32366,"lon":5.38889,"is_reserved":false,"is_disabled":false,"rental_uris":{"android":"levelo://app?vid=c18d7fca-3181-496a-87f2-c3824095eafd","ios":"levelo://app?vid=c18d7fca-3181-496a-87f2-c3824095eafd"},"vehicle_type_id":"4","last_reported":1726769508,"current_range_meters":9600,"station_id":"ce4bhqp2rcd13ifvqhog","pricing_plan_id":"cebpf4jnsgd1na2vs0mg"},{"bike_id":"3f84e45e-eda6-4453-8c51-79d05df784f5","system_id":"levelo_inurba_marseille","lat":43.31756,"lon":5.39016,"is_reserved":false,"is_disabled":false,"rental_uris":{"android":"levelo://app?vid=3f84e45e-eda6-4453-8c51-79d05df784f5","ios":"levelo://app?vid=3f84e45e-eda6-4453-8c51-79d05df784f5"},"vehicle_type_id":"4","last_reported":1726769508,"current_range_meters":20800,"station_id":"ce4bhqp2rcd13ifvqhng","pricing_plan_id":"cebpf4jnsgd1na2vs0mg"},{"bike_id":"1d4dce81-26c9-4e90-9512-73a77179f3d4","system_id":"levelo_inurba_marseille","lat":43.23188,"lon":5.3998,"is_reserved":false,"is_disabled":false,"rental_uris":{"android":"levelo://app?vid=1d4dce81-26c9-4e90-9512-73a77179f3d4","ios":"levelo://app?vid=1d4dce81-26c9-4e90-9512-73a77179f3d4"},"vehicle_type_id":"4","last_reported":1726769508,"current_range_meters":10800,"station_id":"ce4bhn12rcd13ifvqgqg","pricing_plan_id":"cebpf4jnsgd1na2vs0mg"},{"bike_id":"43356356-1ebf-41d4-a9de-4fa2973940ef","system_id":"levelo_inurba_marseille","lat":43.29963,"lon":5.41329,"is_reserved":false,"is_disabled":false,"rental_uris":{"android":"levelo://app?vid=43356356-1ebf-41d4-a9de-4fa2973940ef","ios":"levelo://app?vid=43356356-1ebf-41d4-a9de-4fa2973940ef"},"vehicle_type_id":"4","last_reported":1726769508,"current_range_meters":36000,"station_id":"ce4bhp12rcd13ifvqh9g","pricing_plan_id":"cebpf4jnsgd1na2vs0mg"},{"bike_id":"d783d3ab-f446-431a-9764-5a6477f0ac4f","system_id":"levelo_inurba_marseille","lat":43.2466,"lon":5.38164,"is_reserved":false,"is_disabled":false,"rental_uris":{"android":"levelo://app?vid=d783d3ab-f446-431a-9764-5a6477f0ac4f","ios":"levelo://app?vid=d783d3ab-f446-431a-9764-5a6477f0ac4f"},"vehicle_type_id":"4","last_reported":1726769508,"current_range_meters":16400,"station_id":"ce4bhih2rcd13ifvqfr0","pricing_plan_id":"cebpf4jnsgd1na2vs0mg"},{"bike_id":"586337a7-ea44-4a0c-a2e4-774a4f46c373","system_id":"levelo_inurba_marseille","lat":43.31326,"lon":5.39694,"is_reserved":false,"is_disabled":false,"rental_uris":{"android":"levelo://app?vid=586337a7-ea44-4a0c-a2e4-774a4f46c373","ios":"levelo://app?vid=586337a7-ea44-4a0c-a2e4-774a4f46c373"},"vehicle_type_id":"4","last_reported":1726769508,"current_range_meters":24000,"station_id":"ce4bgvp2rcd13ifvqcu0","pricing_plan_id":"cebpf4jnsgd1na2vs0mg"},{"bike_id":"7fe5f4ca-1f04-498f-9764-42f10637899f","system_id":"levelo_inurba_marseille","lat":43.25582,"lon":5.38243,"is_reserved":false,"is_disabled":false,"rental_uris":{"android":"levelo://app?vid=7fe5f4ca-1f04-498f-9764-42f10637899f","ios":"levelo://app?vid=7fe5f4ca-1f04-498f-9764-42f10637899f"},"vehicle_type_id":"4","last_reported":1726769508,"current_range_meters":28800,"station_id":"ce4bhih2rcd13ifvqfs0","pricing_plan_id":"cebpf4jnsgd1na2vs0mg"},{"bike_id":"f91d86b2-456a-48aa-bac9-b4717c616eb8","system_id":"levelo_inurba_marseille","lat":43.25724,"lon":5.4111,"is_reserved":false,"is_disabled":false,"rental_uris":{"android":"levelo://app?vid=f91d86b2-456a-48aa-bac9-b4717c616eb8","ios":"levelo://app?vid=f91d86b2-456a-48aa-bac9-b4717c616eb8"},"vehicle_type_id":"4","last_reported":1726769508,"current_range_meters":9200,"station_id":"ce4bhkp2rcd13ifvqgd0","pricing_plan_id":"cebpf4jnsgd1na2vs0mg"},{"bike_id":"4f5d3c13-6292-4d0d-84df-81079c09c2a5","system_id":"levelo_inurba_marseille","lat":43.25,"lon":5.38926,"is_reserved":false,"is_disabled":false,"rental_uris":{"android":"levelo://app?vid=4f5d3c13-6292-4d0d-84df-81079c09c2a5","ios":"levelo://app?vid=4f5d3c13-6292-4d0d-84df-81079c09c2a5"},"vehicle_type_id":"4","last_reported":1726769508,"current_range_meters":35600,"station_id":"ce4bhgp2rcd13ifvqfd0","pricing_plan_id":"cebpf4jnsgd1na2vs0mg"},{"bike_id":"4c9dad28-bab3-4c54-867f-101b77a30cda","system_id":"levelo_inurba_marseille","lat":43.28458,"lon":5.35892,"is_reserved":false,"is_disabled":false,"rental_uris":{"android":"levelo://app?vid=4c9dad28-bab3-4c54-867f-101b77a30cda","ios":"levelo://app?vid=4c9dad28-bab3-4c54-867f-101b77a30cda"},"vehicle_type_id":"4","last_reported":1726769508,"current_range_meters":26000,"station_id":"ce4bhah2rcd13ifvqei0","pricing_plan_id":"cebpf4jnsgd1na2vs0mg"},{"bike_id":"adc6fdf0-d3b6-4a55-89be-8ac9cf304c10","system_id":"levelo_inurba_marseille","lat":43.278333,"lon":5.39204,"is_reserved":false,"is_disabled":false,"rental_uris":{"android":"levelo://app?vid=adc6fdf0-d3b6-4a55-89be-8ac9cf304c10","ios":"levelo://app?vid=adc6fdf0-d3b6-4a55-89be-8ac9cf304c10"},"vehicle_type_id":"4","last_reported":1726769508,"current_range_meters":17200,"station_id":"","pricing_plan_id":"cebpf4jnsgd1na2vs0mg"},{"bike_id":"d5c07bc6-7f40-4b94-a6f7-ad7ea5159a64","system_id":"levelo_inurba_marseille","lat":43.317526,"lon":5.390213,"is_reserved":false,"is_disabled":false,"rental_uris":{"android":"levelo://app?vid=d5c07bc6-7f40-4b94-a6f7-ad7ea5159a64","ios":"levelo://app?vid=d5c07bc6-7f40-4b94-a6f7-ad7ea5159a64"},"vehicle_type_id":"4","last_reported":1726769508,"current_range_meters":16000,"station_id":"ce4bhqp2rcd13ifvqhng","pricing_plan_id":"cebpf4jnsgd1na2vs0mg"},{"bike_id":"8dd9e066-4cb3-414b-9f1b-fc4a16c13e96","system_id":"levelo_inurba_marseille","lat":43.2762,"lon":5.36119,"is_reserved":false,"is_disabled":false,"rental_uris":{"android":"levelo://app?vid=8dd9e066-4cb3-414b-9f1b-fc4a16c13e96","ios":"levelo://app?vid=8dd9e066-4cb3-414b-9f1b-fc4a16c13e96"},"vehicle_type_id":"4","last_reported":1726769508,"current_range_meters":25200,"station_id":"ce4bgj92rcd13ifvqbe0","pricing_plan_id":"cebpf4jnsgd1na2vs0mg"},{"bike_id":"ab180979-2163-43d0-b267-33004b099031","system_id":"levelo_inurba_marseille","lat":43.28404,"lon":5.37515,"is_reserved":false,"is_disabled":false,"rental_uris":{"android":"levelo://app?vid=ab180979-2163-43d0-b267-33004b099031","ios":"levelo://app?vid=ab180979-2163-43d0-b267-33004b099031"},"vehicle_type_id":"4","last_reported":1726769508,"current_range_meters":31200,"station_id":"ce4bh412rcd13ifvqds0","pricing_plan_id":"cebpf4jnsgd1na2vs0mg"},{"bike_id":"a50e80e2-2343-4453-9b2e-da0a1c2da72d","system_id":"levelo_inurba_marseille","lat":43.299259,"lon":5.365386,"is_reserved":false,"is_disabled":false,"rental_uris":{"android":"levelo://app?vid=a50e80e2-2343-4453-9b2e-da0a1c2da72d","ios":"levelo://app?vid=a50e80e2-2343-4453-9b2e-da0a1c2da72d"},"vehicle_type_id":"4","last_reported":1726769508,"current_range_meters":28400,"station_id":"ce4bgm92rcd13ifvqbr0","pricing_plan_id":"cebpf4jnsgd1na2vs0mg"},{"bike_id":"996d8b3a-81b0-4ec9-9d43-c0d4eb6a6f62","system_id":"levelo_inurba_marseille","lat":43.27612,"lon":5.36118,"is_reserved":false,"is_disabled":false,"rental_uris":{"android":"levelo://app?vid=996d8b3a-81b0-4ec9-9d43-c0d4eb6a6f62","ios":"levelo://app?vid=996d8b3a-81b0-4ec9-9d43-c0d4eb6a6f62"},"vehicle_type_id":"4","last_reported":1726769508,"current_range_meters":31200,"station_id":"ce4bgj92rcd13ifvqbe0","pricing_plan_id":"cebpf4jnsgd1na2vs0mg"},{"bike_id":"c5596e0e-6d65-4998-a0ed-ccac27c7ea7a","system_id":"levelo_inurba_marseille","lat":43.30328,"lon":5.40436,"is_reserved":false,"is_disabled":false,"rental_uris":{"android":"levelo://app?vid=c5596e0e-6d65-4998-a0ed-ccac27c7ea7a","ios":"levelo://app?vid=c5596e0e-6d65-4998-a0ed-ccac27c7ea7a"},"vehicle_type_id":"4","last_reported":1726769508,"current_range_meters":25600,"station_id":"ce4bh012rcd13ifvqd10","pricing_plan_id":"cebpf4jnsgd1na2vs0mg"},{"bike_id":"72afbc88-749c-4ec5-9ff0-ddd824e0a5ba","system_id":"levelo_inurba_marseille","lat":43.27183,"lon":5.40995,"is_reserved":false,"is_disabled":false,"rental_uris":{"android":"levelo://app?vid=72afbc88-749c-4ec5-9ff0-ddd824e0a5ba","ios":"levelo://app?vid=72afbc88-749c-4ec5-9ff0-ddd824e0a5ba"},"vehicle_type_id":"4","last_reported":1726769508,"current_range_meters":38800,"station_id":"ce4bhl12rcd13ifvqgf0","pricing_plan_id":"cebpf4jnsgd1na2vs0mg"},{"bike_id":"3f827a9d-a023-4990-a2fd-09648e59d156","system_id":"levelo_inurba_marseille","lat":43.305319,"lon":5.384221,"is_reserved":false,"is_disabled":false,"rental_uris":{"android":"levelo://app?vid=3f827a9d-a023-4990-a2fd-09648e59d156","ios":"levelo://app?vid=3f827a9d-a023-4990-a2fd-09648e59d156"},"vehicle_type_id":"4","last_reported":1726769508,"current_range_meters":23200,"station_id":"ce4bgg92rcd13ifvqb30","pricing_plan_id":"cebpf4jnsgd1na2vs0mg"},{"bike_id":"0d1e6591-b6bc-475b-b264-e465819adf21","system_id":"levelo_inurba_marseille","lat":43.27057,"lon":5.40264,"is_reserved":false,"is_disabled":false,"rental_uris":{"android":"levelo://app?vid=0d1e6591-b6bc-475b-b264-e465819adf21","ios":"levelo://app?vid=0d1e6591-b6bc-475b-b264-e465819adf21"},"vehicle_type_id":"4","last_reported":1726769508,"current_range_meters":25600,"station_id":"ce4bhk92rcd13ifvqgc0","pricing_plan_id":"cebpf4jnsgd1na2vs0mg"},{"bike_id":"e018e9b9-9b47-46fc-8d42-a513424b1bfe","system_id":"levelo_inurba_marseille","lat":43.32367,"lon":5.38886,"is_reserved":false,"is_disabled":false,"rental_uris":{"android":"levelo://app?vid=e018e9b9-9b47-46fc-8d42-a513424b1bfe","ios":"levelo://app?vid=e018e9b9-9b47-46fc-8d42-a513424b1bfe"},"vehicle_type_id":"4","last_reported":1726769508,"current_range_meters":18000,"station_id":"ce4bhqp2rcd13ifvqhog","pricing_plan_id":"cebpf4jnsgd1na2vs0mg"},{"bike_id":"38dadd8c-d3a2-4d23-ab13-29b99dc8b37a","system_id":"levelo_inurba_marseille","lat":43.33025,"lon":5.39043,"is_reserved":false,"is_disabled":false,"rental_uris":{"android":"levelo://app?vid=38dadd8c-d3a2-4d23-ab13-29b99dc8b37a","ios":"levelo://app?vid=38dadd8c-d3a2-4d23-ab13-29b99dc8b37a"},"vehicle_type_id":"4","last_reported":1726769508,"current_range_meters":17200,"station_id":"ce4bhr92rcd13ifvqhrg","pricing_plan_id":"cebpf4jnsgd1na2vs0mg"},{"bike_id":"2ef2946e-310e-4eda-8c60-9ace0f4442d9","system_id":"levelo_inurba_marseille","lat":43.29536,"lon":5.3855,"is_reserved":false,"is_disabled":false,"rental_uris":{"android":"levelo://app?vid=2ef2946e-310e-4eda-8c60-9ace0f4442d9","ios":"levelo://app?vid=2ef2946e-310e-4eda-8c60-9ace0f4442d9"},"vehicle_type_id":"4","last_reported":1726769508,"current_range_meters":38800,"station_id":"ce4bh0p2rcd13ifvqd70","pricing_plan_id":"cebpf4jnsgd1na2vs0mg"},{"bike_id":"fb24808e-3cb1-4168-bff7-af5400702ebb","system_id":"levelo_inurba_marseille","lat":43.27616,"lon":5.3612,"is_reserved":false,"is_disabled":false,"rental_uris":{"android":"levelo://app?vid=fb24808e-3cb1-4168-bff7-af5400702ebb","ios":"levelo://app?vid=fb24808e-3cb1-4168-bff7-af5400702ebb"},"vehicle_type_id":"4","last_reported":1726769508,"current_range_meters":38400,"station_id":"ce4bgj92rcd13ifvqbe0","pricing_plan_id":"cebpf4jnsgd1na2vs0mg"},{"bike_id":"62202d09-6c10-4704-b545-443357200c18","system_id":"levelo_inurba_marseille","lat":43.317596,"lon":5.390148,"is_reserved":false,"is_disabled":false,"rental_uris":{"android":"levelo://app?vid=62202d09-6c10-4704-b545-443357200c18","ios":"levelo://app?vid=62202d09-6c10-4704-b545-443357200c18"},"vehicle_type_id":"4","last_reported":1726769508,"current_range_meters":6000,"station_id":"ce4bhqp2rcd13ifvqhng","pricing_plan_id":"cebpf4jnsgd1na2vs0mg"},{"bike_id":"498149d4-acab-4fc8-b3b3-bda0da3e2eab","system_id":"levelo_inurba_marseille","lat":43.31758,"lon":5.39022,"is_reserved":false,"is_disabled":false,"rental_uris":{"android":"levelo://app?vid=498149d4-acab-4fc8-b3b3-bda0da3e2eab","ios":"levelo://app?vid=498149d4-acab-4fc8-b3b3-bda0da3e2eab"},"vehicle_type_id":"4","last_reported":1726769508,"current_range_meters":8000,"station_id":"ce4bhqp2rcd13ifvqhng","pricing_plan_id":"cebpf4jnsgd1na2vs0mg"},{"bike_id":"fadac423-1102-471d-b12e-f79a7c476377","system_id":"levelo_inurba_marseille","lat":43.27896,"lon":5.38009,"is_reserved":false,"is_disabled":false,"rental_uris":{"android":"levelo://app?vid=fadac423-1102-471d-b12e-f79a7c476377","ios":"levelo://app?vid=fadac423-1102-471d-b12e-f79a7c476377"},"vehicle_type_id":"4","last_reported":1726769508,"current_range_meters":22400,"station_id":"ce4bhf92rcd13ifvqf50","pricing_plan_id":"cebpf4jnsgd1na2vs0mg"},{"bike_id":"6ca09fa1-3a02-419f-bc79-a170b14925aa","system_id":"levelo_inurba_marseille","lat":43.28074,"lon":5.39653,"is_reserved":false,"is_disabled":false,"rental_uris":{"android":"levelo://app?vid=6ca09fa1-3a02-419f-bc79-a170b14925aa","ios":"levelo://app?vid=6ca09fa1-3a02-419f-bc79-a170b14925aa"},"vehicle_type_id":"4","last_reported":1726769508,"current_range_meters":39200,"station_id":"ce4bho12rcd13ifvqh2g","pricing_plan_id":"cebpf4jnsgd1na2vs0mg"},{"bike_id":"c9a944a8-15a2-4ee6-9284-3397fed1de4e","system_id":"levelo_inurba_marseille","lat":43.26572,"lon":5.39004,"is_reserved":false,"is_disabled":false,"rental_uris":{"android":"levelo://app?vid=c9a944a8-15a2-4ee6-9284-3397fed1de4e","ios":"levelo://app?vid=c9a944a8-15a2-4ee6-9284-3397fed1de4e"},"vehicle_type_id":"4","last_reported":1726769508,"current_range_meters":26800,"station_id":"ce4bhe12rcd13ifvqf30","pricing_plan_id":"cebpf4jnsgd1na2vs0mg"},{"bike_id":"0f99561d-c3b7-4d71-8f6c-402f09bcbad6","system_id":"levelo_inurba_marseille","lat":43.25871,"lon":5.39897,"is_reserved":false,"is_disabled":false,"rental_uris":{"android":"levelo://app?vid=0f99561d-c3b7-4d71-8f6c-402f09bcbad6","ios":"levelo://app?vid=0f99561d-c3b7-4d71-8f6c-402f09bcbad6"},"vehicle_type_id":"4","last_reported":1726769508,"current_range_meters":28000,"station_id":"ce4bhl92rcd13ifvqghg","pricing_plan_id":"cebpf4jnsgd1na2vs0mg"},{"bike_id":"2c96f4ad-2c2e-44b8-8e08-a57b6c1eb2e5","system_id":"levelo_inurba_marseille","lat":43.33024,"lon":5.3904,"is_reserved":false,"is_disabled":false,"rental_uris":{"android":"levelo://app?vid=2c96f4ad-2c2e-44b8-8e08-a57b6c1eb2e5","ios":"levelo://app?vid=2c96f4ad-2c2e-44b8-8e08-a57b6c1eb2e5"},"vehicle_type_id":"4","last_reported":1726769508,"current_range_meters":28800,"station_id":"ce4bhr92rcd13ifvqhrg","pricing_plan_id":"cebpf4jnsgd1na2vs0mg"},{"bike_id":"474015d9-94de-4756-b500-06ee347a774b","system_id":"levelo_inurba_marseille","lat":43.30593,"lon":5.39361,"is_reserved":false,"is_disabled":false,"rental_uris":{"android":"levelo://app?vid=474015d9-94de-4756-b500-06ee347a774b","ios":"levelo://app?vid=474015d9-94de-4756-b500-06ee347a774b"},"vehicle_type_id":"4","last_reported":1726769508,"current_range_meters":22400,"station_id":"ce4bh0p2rcd13ifvqd80","pricing_plan_id":"cebpf4jnsgd1na2vs0mg"},{"bike_id":"bbabc812-5d4f-4dde-ac4b-6c59e8a40a27","system_id":"levelo_inurba_marseille","lat":43.27497,"lon":5.42448,"is_reserved":false,"is_disabled":false,"rental_uris":{"android":"levelo://app?vid=bbabc812-5d4f-4dde-ac4b-6c59e8a40a27","ios":"levelo://app?vid=bbabc812-5d4f-4dde-ac4b-6c59e8a40a27"},"vehicle_type_id":"4","last_reported":1726769508,"current_range_meters":20400,"station_id":"ce4bhn92rcd13ifvqgrg","pricing_plan_id":"cebpf4jnsgd1na2vs0mg"},{"bike_id":"7e268458-e577-40f2-b7ba-ddefd2575d22","system_id":"levelo_inurba_marseille","lat":43.312195,"lon":5.368524,"is_reserved":false,"is_disabled":false,"rental_uris":{"android":"levelo://app?vid=7e268458-e577-40f2-b7ba-ddefd2575d22","ios":"levelo://app?vid=7e268458-e577-40f2-b7ba-ddefd2575d22"},"vehicle_type_id":"4","last_reported":1726769508,"current_range_meters":10000,"station_id":"ce4bgl92rcd13ifvqbq0","pricing_plan_id":"cebpf4jnsgd1na2vs0mg"},{"bike_id":"e19b25ae-f24a-4948-b662-4c7c14549d76","system_id":"levelo_inurba_marseille","lat":43.34148,"lon":5.40909,"is_reserved":false,"is_disabled":false,"rental_uris":{"android":"levelo://app?vid=e19b25ae-f24a-4948-b662-4c7c14549d76","ios":"levelo://app?vid=e19b25ae-f24a-4948-b662-4c7c14549d76"},"vehicle_type_id":"4","last_reported":1726769508,"current_range_meters":27600,"station_id":"ce4bhqh2rcd13ifvqhlg","pricing_plan_id":"cebpf4jnsgd1na2vs0mg"},{"bike_id":"cdc9519c-ef3f-4450-a247-dea0b9e55bab","system_id":"levelo_inurba_marseille","lat":43.296906,"lon":5.372867,"is_reserved":false,"is_disabled":false,"rental_uris":{"android":"levelo://app?vid=cdc9519c-ef3f-4450-a247-dea0b9e55bab","ios":"levelo://app?vid=cdc9519c-ef3f-4450-a247-dea0b9e55bab"},"vehicle_type_id":"4","last_reported":1726769508,"current_range_meters":24000,"station_id":"ce4bhm12rcd13ifvqgkg","pricing_plan_id":"cebpf4jnsgd1na2vs0mg"},{"bike_id":"da4bba1f-0573-4fe7-a6a4-36d1308d2875","system_id":"levelo_inurba_marseille","lat":43.2557,"lon":5.38254,"is_reserved":false,"is_disabled":false,"rental_uris":{"android":"levelo://app?vid=da4bba1f-0573-4fe7-a6a4-36d1308d2875","ios":"levelo://app?vid=da4bba1f-0573-4fe7-a6a4-36d1308d2875"},"vehicle_type_id":"4","last_reported":1726769508,"current_range_meters":2800,"station_id":"ce4bhih2rcd13ifvqfs0","pricing_plan_id":"cebpf4jnsgd1na2vs0mg"},{"bike_id":"a16a96d2-9680-4363-9086-902125a10750","system_id":"levelo_inurba_marseille","lat":43.30316,"lon":5.40445,"is_reserved":false,"is_disabled":false,"rental_uris":{"android":"levelo://app?vid=a16a96d2-9680-4363-9086-902125a10750","ios":"levelo://app?vid=a16a96d2-9680-4363-9086-902125a10750"},"vehicle_type_id":"4","last_reported":1726769508,"current_range_meters":8400,"station_id":"ce4bh012rcd13ifvqd10","pricing_plan_id":"cebpf4jnsgd1na2vs0mg"},{"bike_id":"a2eb1526-071c-462b-ae89-1cca26b21959","system_id":"levelo_inurba_marseille","lat":43.31359,"lon":5.385,"is_reserved":false,"is_disabled":false,"rental_uris":{"android":"levelo://app?vid=a2eb1526-071c-462b-ae89-1cca26b21959","ios":"levelo://app?vid=a2eb1526-071c-462b-ae89-1cca26b21959"},"vehicle_type_id":"4","last_reported":1726769508,"current_range_meters":12400,"station_id":"ce4bgt92rcd13ifvqcf0","pricing_plan_id":"cebpf4jnsgd1na2vs0mg"},{"bike_id":"e1355311-97f8-4fb5-bbb5-a3ab53885a96","system_id":"levelo_inurba_marseille","lat":43.2847,"lon":5.3843,"is_reserved":false,"is_disabled":false,"rental_uris":{"android":"levelo://app?vid=e1355311-97f8-4fb5-bbb5-a3ab53885a96","ios":"levelo://app?vid=e1355311-97f8-4fb5-bbb5-a3ab53885a96"},"vehicle_type_id":"4","last_reported":1726769508,"current_range_meters":13600,"station_id":"ce4bh512rcd13ifvqe3g","pricing_plan_id":"cebpf4jnsgd1na2vs0mg"},{"bike_id":"4fa0ca0d-342c-4cd6-990b-f5e4ae40db2b","system_id":"levelo_inurba_marseille","lat":43.29966,"lon":5.41332,"is_reserved":false,"is_disabled":false,"rental_uris":{"android":"levelo://app?vid=4fa0ca0d-342c-4cd6-990b-f5e4ae40db2b","ios":"levelo://app?vid=4fa0ca0d-342c-4cd6-990b-f5e4ae40db2b"},"vehicle_type_id":"4","last_reported":1726769508,"current_range_meters":38800,"station_id":"ce4bhp12rcd13ifvqh9g","pricing_plan_id":"cebpf4jnsgd1na2vs0mg"},{"bike_id":"1b297945-7c8a-4e0e-b2c4-bc43a6c00be3","system_id":"levelo_inurba_marseille","lat":43.24649,"lon":5.388916,"is_reserved":false,"is_disabled":false,"rental_uris":{"android":"levelo://app?vid=1b297945-7c8a-4e0e-b2c4-bc43a6c00be3","ios":"levelo://app?vid=1b297945-7c8a-4e0e-b2c4-bc43a6c00be3"},"vehicle_type_id":"4","last_reported":1726769508,"current_range_meters":12400,"station_id":"ce4bhg12rcd13ifvqf60","pricing_plan_id":"cebpf4jnsgd1na2vs0mg"},{"bike_id":"b6c07c6f-93bf-42d1-a3c2-f2d496c5cc39","system_id":"levelo_inurba_marseille","lat":43.26944,"lon":5.40252,"is_reserved":false,"is_disabled":false,"rental_uris":{"android":"levelo://app?vid=b6c07c6f-93bf-42d1-a3c2-f2d496c5cc39","ios":"levelo://app?vid=b6c07c6f-93bf-42d1-a3c2-f2d496c5cc39"},"vehicle_type_id":"4","last_reported":1726769508,"current_range_meters":8800,"station_id":"cjm6bp8fraef2m0cb0m0","pricing_plan_id":"cebpf4jnsgd1na2vs0mg"},{"bike_id":"8ddb8505-d52e-49ce-9975-e45c32ec5a49","system_id":"levelo_inurba_marseille","lat":43.292603,"lon":5.384353,"is_reserved":false,"is_disabled":false,"rental_uris":{"android":"levelo://app?vid=8ddb8505-d52e-49ce-9975-e45c32ec5a49","ios":"levelo://app?vid=8ddb8505-d52e-49ce-9975-e45c32ec5a49"},"vehicle_type_id":"4","last_reported":1726769508,"current_range_meters":25600,"station_id":"ce4bh5p2rcd13ifvqe4g","pricing_plan_id":"cebpf4jnsgd1na2vs0mg"},{"bike_id":"42a53ba1-3670-4516-addc-ffe001720501","system_id":"levelo_inurba_marseille","lat":43.26648,"lon":5.39479,"is_reserved":false,"is_disabled":false,"rental_uris":{"android":"levelo://app?vid=42a53ba1-3670-4516-addc-ffe001720501","ios":"levelo://app?vid=42a53ba1-3670-4516-addc-ffe001720501"},"vehicle_type_id":"4","last_reported":1726769508,"current_range_meters":22800,"station_id":"","pricing_plan_id":"cebpf4jnsgd1na2vs0mg"},{"bike_id":"8cec0694-5753-4a2d-b633-441d0154d25f","system_id":"levelo_inurba_marseille","lat":43.29257,"lon":5.38445,"is_reserved":false,"is_disabled":false,"rental_uris":{"android":"levelo://app?vid=8cec0694-5753-4a2d-b633-441d0154d25f","ios":"levelo://app?vid=8cec0694-5753-4a2d-b633-441d0154d25f"},"vehicle_type_id":"4","last_reported":1726769508,"current_range_meters":38800,"station_id":"ce4bh692rcd13ifvqea0","pricing_plan_id":"cebpf4jnsgd1na2vs0mg"},{"bike_id":"5705acbc-d503-4f36-a9f5-13b5f18aa34d","system_id":"levelo_inurba_marseille","lat":43.2396,"lon":5.36626,"is_reserved":false,"is_disabled":false,"rental_uris":{"android":"levelo://app?vid=5705acbc-d503-4f36-a9f5-13b5f18aa34d","ios":"levelo://app?vid=5705acbc-d503-4f36-a9f5-13b5f18aa34d"},"vehicle_type_id":"4","last_reported":1726769508,"current_range_meters":38000,"station_id":"ce4bhi12rcd13ifvqfp0","pricing_plan_id":"cebpf4jnsgd1na2vs0mg"},{"bike_id":"11ea1b4c-649d-496b-a1dc-5f8f2596e358","system_id":"levelo_inurba_marseille","lat":43.28479,"lon":5.38423,"is_reserved":false,"is_disabled":false,"rental_uris":{"android":"levelo://app?vid=11ea1b4c-649d-496b-a1dc-5f8f2596e358","ios":"levelo://app?vid=11ea1b4c-649d-496b-a1dc-5f8f2596e358"},"vehicle_type_id":"4","last_reported":1726769508,"current_range_meters":8000,"station_id":"ce4bh512rcd13ifvqe3g","pricing_plan_id":"cebpf4jnsgd1na2vs0mg"},{"bike_id":"8577012c-b5f6-4477-9dea-5f33306e0345","system_id":"levelo_inurba_marseille","lat":43.273743,"lon":5.362426,"is_reserved":false,"is_disabled":false,"rental_uris":{"android":"levelo://app?vid=8577012c-b5f6-4477-9dea-5f33306e0345","ios":"levelo://app?vid=8577012c-b5f6-4477-9dea-5f33306e0345"},"vehicle_type_id":"4","last_reported":1726769508,"current_range_meters":12400,"station_id":"ce4bhbh2rcd13ifvqeo0","pricing_plan_id":"cebpf4jnsgd1na2vs0mg"},{"bike_id":"7b9dd459-340b-4978-bfb0-6c163a5263e8","system_id":"levelo_inurba_marseille","lat":43.23198,"lon":5.35548,"is_reserved":false,"is_disabled":false,"rental_uris":{"android":"levelo://app?vid=7b9dd459-340b-4978-bfb0-6c163a5263e8","ios":"levelo://app?vid=7b9dd459-340b-4978-bfb0-6c163a5263e8"},"vehicle_type_id":"4","last_reported":1726769508,"current_range_meters":40000,"station_id":"ce4bhu92rcd13ifvqi70","pricing_plan_id":"cebpf4jnsgd1na2vs0mg"},{"bike_id":"1fc234a9-761d-40c6-aeb5-4f18e9fef688","system_id":"levelo_inurba_marseille","lat":43.25576,"lon":5.38238,"is_reserved":false,"is_disabled":false,"rental_uris":{"android":"levelo://app?vid=1fc234a9-761d-40c6-aeb5-4f18e9fef688","ios":"levelo://app?vid=1fc234a9-761d-40c6-aeb5-4f18e9fef688"},"vehicle_type_id":"4","last_reported":1726769508,"current_range_meters":16000,"station_id":"ce4bhih2rcd13ifvqfs0","pricing_plan_id":"cebpf4jnsgd1na2vs0mg"},{"bike_id":"e3d2cb34-c757-45ad-beac-0be6b9457278","system_id":"levelo_inurba_marseille","lat":43.30803,"lon":5.43523,"is_reserved":false,"is_disabled":false,"rental_uris":{"android":"levelo://app?vid=e3d2cb34-c757-45ad-beac-0be6b9457278","ios":"levelo://app?vid=e3d2cb34-c757-45ad-beac-0be6b9457278"},"vehicle_type_id":"4","last_reported":1726769508,"current_range_meters":38400,"station_id":"ce4bhph2rcd13ifvqheg","pricing_plan_id":"cebpf4jnsgd1na2vs0mg"},{"bike_id":"87440cd1-4d99-421b-9f62-83acc0dd5fa9","system_id":"levelo_inurba_marseille","lat":43.32365,"lon":5.38881,"is_reserved":false,"is_disabled":false,"rental_uris":{"android":"levelo://app?vid=87440cd1-4d99-421b-9f62-83acc0dd5fa9","ios":"levelo://app?vid=87440cd1-4d99-421b-9f62-83acc0dd5fa9"},"vehicle_type_id":"4","last_reported":1726769508,"current_range_meters":3600,"station_id":"ce4bhqp2rcd13ifvqhog","pricing_plan_id":"cebpf4jnsgd1na2vs0mg"},{"bike_id":"902df4e7-da01-4a15-b97a-f47818a10447","system_id":"levelo_inurba_marseille","lat":43.28401,"lon":5.34978,"is_reserved":false,"is_disabled":false,"rental_uris":{"android":"levelo://app?vid=902df4e7-da01-4a15-b97a-f47818a10447","ios":"levelo://app?vid=902df4e7-da01-4a15-b97a-f47818a10447"},"vehicle_type_id":"4","last_reported":1726769508,"current_range_meters":35200,"station_id":"ce4bhbh2rcd13ifvqepg","pricing_plan_id":"cebpf4jnsgd1na2vs0mg"},{"bike_id":"010d89de-6be0-4954-8660-15897686fb5a","system_id":"levelo_inurba_marseille","lat":43.31178,"lon":5.38726,"is_reserved":false,"is_disabled":false,"rental_uris":{"android":"levelo://app?vid=010d89de-6be0-4954-8660-15897686fb5a","ios":"levelo://app?vid=010d89de-6be0-4954-8660-15897686fb5a"},"vehicle_type_id":"4","last_reported":1726769508,"current_range_meters":7200,"station_id":"ce4bgv12rcd13ifvqcp0","pricing_plan_id":"cebpf4jnsgd1na2vs0mg"},{"bike_id":"daf5ecc7-c908-4464-b5d3-ef6f2feb1c95","system_id":"levelo_inurba_marseille","lat":43.29196,"lon":5.35801,"is_reserved":false,"is_disabled":false,"rental_uris":{"android":"levelo://app?vid=daf5ecc7-c908-4464-b5d3-ef6f2feb1c95","ios":"levelo://app?vid=daf5ecc7-c908-4464-b5d3-ef6f2feb1c95"},"vehicle_type_id":"4","last_reported":1726769508,"current_range_meters":9200,"station_id":"ce4bhb12rcd13ifvqel0","pricing_plan_id":"cebpf4jnsgd1na2vs0mg"},{"bike_id":"59526314-6814-428f-9df0-ead1cf1c2777","system_id":"levelo_inurba_marseille","lat":43.2593,"lon":5.40911,"is_reserved":false,"is_disabled":false,"rental_uris":{"android":"levelo://app?vid=59526314-6814-428f-9df0-ead1cf1c2777","ios":"levelo://app?vid=59526314-6814-428f-9df0-ead1cf1c2777"},"vehicle_type_id":"4","last_reported":1726769508,"current_range_meters":37600,"station_id":"ce4bhm92rcd13ifvqglg","pricing_plan_id":"cebpf4jnsgd1na2vs0mg"},{"bike_id":"e21960c0-c0d6-42a2-a4aa-be8af1e64445","system_id":"levelo_inurba_marseille","lat":43.2439,"lon":5.37072,"is_reserved":false,"is_disabled":false,"rental_uris":{"android":"levelo://app?vid=e21960c0-c0d6-42a2-a4aa-be8af1e64445","ios":"levelo://app?vid=e21960c0-c0d6-42a2-a4aa-be8af1e64445"},"vehicle_type_id":"4","last_reported":1726769508,"current_range_meters":36000,"station_id":"ce4bhhh2rcd13ifvqfk0","pricing_plan_id":"cebpf4jnsgd1na2vs0mg"},{"bike_id":"ce143dd8-0cd9-4934-ac0b-6fe09fae5359","system_id":"levelo_inurba_marseille","lat":43.25583,"lon":5.38241,"is_reserved":false,"is_disabled":false,"rental_uris":{"android":"levelo://app?vid=ce143dd8-0cd9-4934-ac0b-6fe09fae5359","ios":"levelo://app?vid=ce143dd8-0cd9-4934-ac0b-6fe09fae5359"},"vehicle_type_id":"4","last_reported":1726769508,"current_range_meters":32800,"station_id":"ce4bhih2rcd13ifvqfs0","pricing_plan_id":"cebpf4jnsgd1na2vs0mg"},{"bike_id":"d4b8e6ce-f731-47fd-a32b-d0cabcf3d873","system_id":"levelo_inurba_marseille","lat":43.29858,"lon":5.3974,"is_reserved":false,"is_disabled":false,"rental_uris":{"android":"levelo://app?vid=d4b8e6ce-f731-47fd-a32b-d0cabcf3d873","ios":"levelo://app?vid=d4b8e6ce-f731-47fd-a32b-d0cabcf3d873"},"vehicle_type_id":"4","last_reported":1726769508,"current_range_meters":25200,"station_id":"ce4bh0h2rcd13ifvqd50","pricing_plan_id":"cebpf4jnsgd1na2vs0mg"},{"bike_id":"3d2b2964-a2b4-4387-8242-f1deea2bb495","system_id":"levelo_inurba_marseille","lat":43.33024,"lon":5.39043,"is_reserved":false,"is_disabled":false,"rental_uris":{"android":"levelo://app?vid=3d2b2964-a2b4-4387-8242-f1deea2bb495","ios":"levelo://app?vid=3d2b2964-a2b4-4387-8242-f1deea2bb495"},"vehicle_type_id":"4","last_reported":1726769508,"current_range_meters":10800,"station_id":"ce4bhr92rcd13ifvqhrg","pricing_plan_id":"cebpf4jnsgd1na2vs0mg"},{"bike_id":"d28b7451-e74e-455d-898d-10e272314f3a","system_id":"levelo_inurba_marseille","lat":43.29256,"lon":5.3844,"is_reserved":false,"is_disabled":false,"rental_uris":{"android":"levelo://app?vid=d28b7451-e74e-455d-898d-10e272314f3a","ios":"levelo://app?vid=d28b7451-e74e-455d-898d-10e272314f3a"},"vehicle_type_id":"4","last_reported":1726769508,"current_range_meters":38800,"station_id":"ce4bh692rcd13ifvqea0","pricing_plan_id":"cebpf4jnsgd1na2vs0mg"},{"bike_id":"e8838fc0-3cd4-4213-84e3-c33f37fcda59","system_id":"levelo_inurba_marseille","lat":43.258395,"lon":5.394632,"is_reserved":false,"is_disabled":false,"rental_uris":{"android":"levelo://app?vid=e8838fc0-3cd4-4213-84e3-c33f37fcda59","ios":"levelo://app?vid=e8838fc0-3cd4-4213-84e3-c33f37fcda59"},"vehicle_type_id":"4","last_reported":1726769508,"current_range_meters":38400,"station_id":"ce4bhip2rcd13ifvqft0","pricing_plan_id":"cebpf4jnsgd1na2vs0mg"},{"bike_id":"b6d36420-b26c-42b4-a16a-ada2d6d760b7","system_id":"levelo_inurba_marseille","lat":43.23063,"lon":5.3549,"is_reserved":false,"is_disabled":false,"rental_uris":{"android":"levelo://app?vid=b6d36420-b26c-42b4-a16a-ada2d6d760b7","ios":"levelo://app?vid=b6d36420-b26c-42b4-a16a-ada2d6d760b7"},"vehicle_type_id":"4","last_reported":1726769508,"current_range_meters":37600,"station_id":"cpo3342slgdg3j2ifvpg","pricing_plan_id":"cebpf4jnsgd1na2vs0mg"},{"bike_id":"984abb64-5fe6-49cd-bc77-cc278fa51bce","system_id":"levelo_inurba_marseille","lat":43.2815,"lon":5.42643,"is_reserved":false,"is_disabled":false,"rental_uris":{"android":"levelo://app?vid=984abb64-5fe6-49cd-bc77-cc278fa51bce","ios":"levelo://app?vid=984abb64-5fe6-49cd-bc77-cc278fa51bce"},"vehicle_type_id":"4","last_reported":1726769508,"current_range_meters":3200,"station_id":"ce4bhnh2rcd13ifvqgug","pricing_plan_id":"cebpf4jnsgd1na2vs0mg"},{"bike_id":"23fd33ad-ac2a-4bfc-bd46-4a5b15e0006f","system_id":"levelo_inurba_marseille","lat":43.25937,"lon":5.40901,"is_reserved":false,"is_disabled":false,"rental_uris":{"android":"levelo://app?vid=23fd33ad-ac2a-4bfc-bd46-4a5b15e0006f","ios":"levelo://app?vid=23fd33ad-ac2a-4bfc-bd46-4a5b15e0006f"},"vehicle_type_id":"4","last_reported":1726769508,"current_range_meters":20400,"station_id":"ce4bhm92rcd13ifvqglg","pricing_plan_id":"cebpf4jnsgd1na2vs0mg"},{"bike_id":"b952ee6a-f825-4c48-a751-ff92ada0b788","system_id":"levelo_inurba_marseille","lat":43.30536,"lon":5.38425,"is_reserved":false,"is_disabled":false,"rental_uris":{"android":"levelo://app?vid=b952ee6a-f825-4c48-a751-ff92ada0b788","ios":"levelo://app?vid=b952ee6a-f825-4c48-a751-ff92ada0b788"},"vehicle_type_id":"4","last_reported":1726769508,"current_range_meters":8000,"station_id":"ce4bgg92rcd13ifvqb30","pricing_plan_id":"cebpf4jnsgd1na2vs0mg"},{"bike_id":"269e2d8f-56f1-4552-a5af-8650762cd747","system_id":"levelo_inurba_marseille","lat":43.27999,"lon":5.4001,"is_reserved":false,"is_disabled":false,"rental_uris":{"android":"levelo://app?vid=269e2d8f-56f1-4552-a5af-8650762cd747","ios":"levelo://app?vid=269e2d8f-56f1-4552-a5af-8650762cd747"},"vehicle_type_id":"4","last_reported":1726769508,"current_range_meters":16000,"station_id":"ce4bho92rcd13ifvqh4g","pricing_plan_id":"cebpf4jnsgd1na2vs0mg"},{"bike_id":"17242049-2bc9-4a04-8413-0b10bd1f1a27","system_id":"levelo_inurba_marseille","lat":43.29268,"lon":5.3844,"is_reserved":false,"is_disabled":false,"rental_uris":{"android":"levelo://app?vid=17242049-2bc9-4a04-8413-0b10bd1f1a27","ios":"levelo://app?vid=17242049-2bc9-4a04-8413-0b10bd1f1a27"},"vehicle_type_id":"4","last_reported":1726769508,"current_range_meters":29600,"station_id":"ce4bh692rcd13ifvqea0","pricing_plan_id":"cebpf4jnsgd1na2vs0mg"},{"bike_id":"f7aebc6b-02a9-43fc-92a0-146b84406652","system_id":"levelo_inurba_marseille","lat":43.31325,"lon":5.3969,"is_reserved":false,"is_disabled":false,"rental_uris":{"android":"levelo://app?vid=f7aebc6b-02a9-43fc-92a0-146b84406652","ios":"levelo://app?vid=f7aebc6b-02a9-43fc-92a0-146b84406652"},"vehicle_type_id":"4","last_reported":1726769508,"current_range_meters":29600,"station_id":"ce4bgvp2rcd13ifvqcu0","pricing_plan_id":"cebpf4jnsgd1na2vs0mg"},{"bike_id":"6ee79763-bf7e-45cb-8655-58b72eee8fb9","system_id":"levelo_inurba_marseille","lat":43.29798,"lon":5.40403,"is_reserved":false,"is_disabled":false,"rental_uris":{"android":"levelo://app?vid=6ee79763-bf7e-45cb-8655-58b72eee8fb9","ios":"levelo://app?vid=6ee79763-bf7e-45cb-8655-58b72eee8fb9"},"vehicle_type_id":"4","last_reported":1726769508,"current_range_meters":39200,"station_id":"ce4bh112rcd13ifvqd90","pricing_plan_id":"cebpf4jnsgd1na2vs0mg"},{"bike_id":"82ea35eb-356c-435a-af7e-f3943eee0033","system_id":"levelo_inurba_marseille","lat":43.31522,"lon":5.38045,"is_reserved":false,"is_disabled":false,"rental_uris":{"android":"levelo://app?vid=82ea35eb-356c-435a-af7e-f3943eee0033","ios":"levelo://app?vid=82ea35eb-356c-435a-af7e-f3943eee0033"},"vehicle_type_id":"4","last_reported":1726769508,"current_range_meters":38400,"station_id":"ce4bhsp2rcd13ifvqi50","pricing_plan_id":"cebpf4jnsgd1na2vs0mg"},{"bike_id":"da818a71-cc61-4cf5-8a72-b97cc5bff15b","system_id":"levelo_inurba_marseille","lat":43.292843,"lon":5.374982,"is_reserved":false,"is_disabled":false,"rental_uris":{"android":"levelo://app?vid=da818a71-cc61-4cf5-8a72-b97cc5bff15b","ios":"levelo://app?vid=da818a71-cc61-4cf5-8a72-b97cc5bff15b"},"vehicle_type_id":"4","last_reported":1726769508,"current_range_meters":6400,"station_id":"ce4bgi12rcd13ifvqb70","pricing_plan_id":"cebpf4jnsgd1na2vs0mg"},{"bike_id":"902190e7-1fe9-4270-9546-498dac581307","system_id":"levelo_inurba_marseille","lat":43.28009,"lon":5.40594,"is_reserved":false,"is_disabled":false,"rental_uris":{"android":"levelo://app?vid=902190e7-1fe9-4270-9546-498dac581307","ios":"levelo://app?vid=902190e7-1fe9-4270-9546-498dac581307"},"vehicle_type_id":"4","last_reported":1726769508,"current_range_meters":35200,"station_id":"","pricing_plan_id":"cebpf4jnsgd1na2vs0mg"},{"bike_id":"804b3646-259f-4a84-a03f-2f262500c2a5","system_id":"levelo_inurba_marseille","lat":43.31756,"lon":5.39014,"is_reserved":false,"is_disabled":false,"rental_uris":{"android":"levelo://app?vid=804b3646-259f-4a84-a03f-2f262500c2a5","ios":"levelo://app?vid=804b3646-259f-4a84-a03f-2f262500c2a5"},"vehicle_type_id":"4","last_reported":1726769508,"current_range_meters":40000,"station_id":"ce4bhqp2rcd13ifvqhng","pricing_plan_id":"cebpf4jnsgd1na2vs0mg"},{"bike_id":"5357f56d-8fda-4848-92ec-00c39d374ad6","system_id":"levelo_inurba_marseille","lat":43.28461,"lon":5.35889,"is_reserved":false,"is_disabled":false,"rental_uris":{"android":"levelo://app?vid=5357f56d-8fda-4848-92ec-00c39d374ad6","ios":"levelo://app?vid=5357f56d-8fda-4848-92ec-00c39d374ad6"},"vehicle_type_id":"4","last_reported":1726769508,"current_range_meters":24000,"station_id":"ce4bhah2rcd13ifvqei0","pricing_plan_id":"cebpf4jnsgd1na2vs0mg"},{"bike_id":"02ba1ef6-d305-4a15-ad1a-6db138f9d809","system_id":"levelo_inurba_marseille","lat":43.29183,"lon":5.35802,"is_reserved":false,"is_disabled":false,"rental_uris":{"android":"levelo://app?vid=02ba1ef6-d305-4a15-ad1a-6db138f9d809","ios":"levelo://app?vid=02ba1ef6-d305-4a15-ad1a-6db138f9d809"},"vehicle_type_id":"4","last_reported":1726769508,"current_range_meters":12800,"station_id":"ce4bhb12rcd13ifvqel0","pricing_plan_id":"cebpf4jnsgd1na2vs0mg"},{"bike_id":"b81ef138-ae3f-474a-b3d9-8d17ad7f9f75","system_id":"levelo_inurba_marseille","lat":43.24388,"lon":5.37059,"is_reserved":false,"is_disabled":false,"rental_uris":{"android":"levelo://app?vid=b81ef138-ae3f-474a-b3d9-8d17ad7f9f75","ios":"levelo://app?vid=b81ef138-ae3f-474a-b3d9-8d17ad7f9f75"},"vehicle_type_id":"4","last_reported":1726769508,"current_range_meters":22000,"station_id":"ce4bhhh2rcd13ifvqfk0","pricing_plan_id":"cebpf4jnsgd1na2vs0mg"},{"bike_id":"7c904801-7111-4d1d-a285-a9fb34472e47","system_id":"levelo_inurba_marseille","lat":43.29795,"lon":5.40404,"is_reserved":false,"is_disabled":false,"rental_uris":{"android":"levelo://app?vid=7c904801-7111-4d1d-a285-a9fb34472e47","ios":"levelo://app?vid=7c904801-7111-4d1d-a285-a9fb34472e47"},"vehicle_type_id":"4","last_reported":1726769508,"current_range_meters":6800,"station_id":"ce4bh112rcd13ifvqd90","pricing_plan_id":"cebpf4jnsgd1na2vs0mg"},{"bike_id":"db5bed51-afb9-4548-98e9-7b7ae226c501","system_id":"levelo_inurba_marseille","lat":43.33756,"lon":5.37453,"is_reserved":false,"is_disabled":false,"rental_uris":{"android":"levelo://app?vid=db5bed51-afb9-4548-98e9-7b7ae226c501","ios":"levelo://app?vid=db5bed51-afb9-4548-98e9-7b7ae226c501"},"vehicle_type_id":"4","last_reported":1726769508,"current_range_meters":20800,"station_id":"","pricing_plan_id":"cebpf4jnsgd1na2vs0mg"},{"bike_id":"7a34d43a-466e-43a0-bb66-c07047a3e85e","system_id":"levelo_inurba_marseille","lat":43.29255,"lon":5.40913,"is_reserved":false,"is_disabled":false,"rental_uris":{"android":"levelo://app?vid=7a34d43a-466e-43a0-bb66-c07047a3e85e","ios":"levelo://app?vid=7a34d43a-466e-43a0-bb66-c07047a3e85e"},"vehicle_type_id":"4","last_reported":1726769508,"current_range_meters":34000,"station_id":"ce4bh192rcd13ifvqdc0","pricing_plan_id":"cebpf4jnsgd1na2vs0mg"},{"bike_id":"460fd693-9be3-40b7-905f-ff157fad315e","system_id":"levelo_inurba_marseille","lat":43.30184,"lon":5.366178,"is_reserved":false,"is_disabled":false,"rental_uris":{"android":"levelo://app?vid=460fd693-9be3-40b7-905f-ff157fad315e","ios":"levelo://app?vid=460fd693-9be3-40b7-905f-ff157fad315e"},"vehicle_type_id":"4","last_reported":1726769508,"current_range_meters":3600,"station_id":"ce4bgrh2rcd13ifvqc8g","pricing_plan_id":"cebpf4jnsgd1na2vs0mg"},{"bike_id":"69399783-5eae-4af9-ae4b-1495b2d249b1","system_id":"levelo_inurba_marseille","lat":43.24167,"lon":5.36391,"is_reserved":false,"is_disabled":false,"rental_uris":{"android":"levelo://app?vid=69399783-5eae-4af9-ae4b-1495b2d249b1","ios":"levelo://app?vid=69399783-5eae-4af9-ae4b-1495b2d249b1"},"vehicle_type_id":"4","last_reported":1726769508,"current_range_meters":32000,"station_id":"cpo36qri1sfpv3e86is0","pricing_plan_id":"cebpf4jnsgd1na2vs0mg"},{"bike_id":"6d7ccc3e-55ed-493d-b5f4-73281a84bedb","system_id":"levelo_inurba_marseille","lat":43.2742,"lon":5.39417,"is_reserved":false,"is_disabled":false,"rental_uris":{"android":"levelo://app?vid=6d7ccc3e-55ed-493d-b5f4-73281a84bedb","ios":"levelo://app?vid=6d7ccc3e-55ed-493d-b5f4-73281a84bedb"},"vehicle_type_id":"4","last_reported":1726769508,"current_range_meters":18800,"station_id":"ce4bhdp2rcd13ifvqf20","pricing_plan_id":"cebpf4jnsgd1na2vs0mg"},{"bike_id":"210ea39d-3c28-475a-a470-0b30c62bce1b","system_id":"levelo_inurba_marseille","lat":43.29572,"lon":5.399708,"is_reserved":false,"is_disabled":false,"rental_uris":{"android":"levelo://app?vid=210ea39d-3c28-475a-a470-0b30c62bce1b","ios":"levelo://app?vid=210ea39d-3c28-475a-a470-0b30c62bce1b"},"vehicle_type_id":"4","last_reported":1726769508,"current_range_meters":7200,"station_id":"ce4bh0p2rcd13ifvqd80","pricing_plan_id":"cebpf4jnsgd1na2vs0mg"},{"bike_id":"e7e08280-277d-4f0a-a5d7-c445d5f3eda1","system_id":"levelo_inurba_marseille","lat":43.29621,"lon":5.3774,"is_reserved":false,"is_disabled":false,"rental_uris":{"android":"levelo://app?vid=e7e08280-277d-4f0a-a5d7-c445d5f3eda1","ios":"levelo://app?vid=e7e08280-277d-4f0a-a5d7-c445d5f3eda1"},"vehicle_type_id":"4","last_reported":1726769508,"current_range_meters":12000,"station_id":"ce4bgi92rcd13ifvqb90","pricing_plan_id":"cebpf4jnsgd1na2vs0mg"},{"bike_id":"d1ce861a-38c6-4e4f-b838-6d6094e18a65","system_id":"levelo_inurba_marseille","lat":43.3169,"lon":5.40472,"is_reserved":false,"is_disabled":false,"rental_uris":{"android":"levelo://app?vid=d1ce861a-38c6-4e4f-b838-6d6094e18a65","ios":"levelo://app?vid=d1ce861a-38c6-4e4f-b838-6d6094e18a65"},"vehicle_type_id":"4","last_reported":1726769508,"current_range_meters":15200,"station_id":"ce4bh012rcd13ifvqd00","pricing_plan_id":"cebpf4jnsgd1na2vs0mg"},{"bike_id":"76202b26-6322-4c1a-b786-84a41d059c9d","system_id":"levelo_inurba_marseille","lat":43.30352,"lon":5.41889,"is_reserved":false,"is_disabled":false,"rental_uris":{"android":"levelo://app?vid=76202b26-6322-4c1a-b786-84a41d059c9d","ios":"levelo://app?vid=76202b26-6322-4c1a-b786-84a41d059c9d"},"vehicle_type_id":"4","last_reported":1726769508,"current_range_meters":12800,"station_id":"ce4bhop2rcd13ifvqh7g","pricing_plan_id":"cebpf4jnsgd1na2vs0mg"},{"bike_id":"d8f0b5ed-65b7-42da-8474-b44b658a7fac","system_id":"levelo_inurba_marseille","lat":43.29257,"lon":5.38444,"is_reserved":false,"is_disabled":false,"rental_uris":{"android":"levelo://app?vid=d8f0b5ed-65b7-42da-8474-b44b658a7fac","ios":"levelo://app?vid=d8f0b5ed-65b7-42da-8474-b44b658a7fac"},"vehicle_type_id":"4","last_reported":1726769508,"current_range_meters":23200,"station_id":"ce4bh692rcd13ifvqea0","pricing_plan_id":"cebpf4jnsgd1na2vs0mg"},{"bike_id":"a8284d48-a892-46e8-8c2c-888e7dac6f25","system_id":"levelo_inurba_marseille","lat":43.25941,"lon":5.40903,"is_reserved":false,"is_disabled":false,"rental_uris":{"android":"levelo://app?vid=a8284d48-a892-46e8-8c2c-888e7dac6f25","ios":"levelo://app?vid=a8284d48-a892-46e8-8c2c-888e7dac6f25"},"vehicle_type_id":"4","last_reported":1726769508,"current_range_meters":29600,"station_id":"ce4bhm92rcd13ifvqglg","pricing_plan_id":"cebpf4jnsgd1na2vs0mg"},{"bike_id":"58014cc6-4f39-4119-a8a0-cdc0e2507820","system_id":"levelo_inurba_marseille","lat":43.32283,"lon":5.38281,"is_reserved":false,"is_disabled":false,"rental_uris":{"android":"levelo://app?vid=58014cc6-4f39-4119-a8a0-cdc0e2507820","ios":"levelo://app?vid=58014cc6-4f39-4119-a8a0-cdc0e2507820"},"vehicle_type_id":"4","last_reported":1726769508,"current_range_meters":40000,"station_id":"ce4bhr12rcd13ifvqhqg","pricing_plan_id":"cebpf4jnsgd1na2vs0mg"},{"bike_id":"77adac3b-c500-4162-8c4b-26e3b065e332","system_id":"levelo_inurba_marseille","lat":43.29265,"lon":5.36861,"is_reserved":false,"is_disabled":false,"rental_uris":{"android":"levelo://app?vid=77adac3b-c500-4162-8c4b-26e3b065e332","ios":"levelo://app?vid=77adac3b-c500-4162-8c4b-26e3b065e332"},"vehicle_type_id":"4","last_reported":1726769508,"current_range_meters":36000,"station_id":"ce4bhbp2rcd13ifvqesg","pricing_plan_id":"cebpf4jnsgd1na2vs0mg"},{"bike_id":"822b99da-62a2-4558-b11e-b2bd9fc65cfe","system_id":"levelo_inurba_marseille","lat":43.2901,"lon":5.35613,"is_reserved":false,"is_disabled":false,"rental_uris":{"android":"levelo://app?vid=822b99da-62a2-4558-b11e-b2bd9fc65cfe","ios":"levelo://app?vid=822b99da-62a2-4558-b11e-b2bd9fc65cfe"},"vehicle_type_id":"4","last_reported":1726769508,"current_range_meters":8400,"station_id":"ce4bhb92rcd13ifvqen0","pricing_plan_id":"cebpf4jnsgd1na2vs0mg"},{"bike_id":"ed9b6bc0-e296-40a0-8c36-55507c753986","system_id":"levelo_inurba_marseille","lat":43.30809,"lon":5.43524,"is_reserved":false,"is_disabled":false,"rental_uris":{"android":"levelo://app?vid=ed9b6bc0-e296-40a0-8c36-55507c753986","ios":"levelo://app?vid=ed9b6bc0-e296-40a0-8c36-55507c753986"},"vehicle_type_id":"4","last_reported":1726769508,"current_range_meters":32400,"station_id":"ce4bhph2rcd13ifvqheg","pricing_plan_id":"cebpf4jnsgd1na2vs0mg"},{"bike_id":"fcc85902-d8ff-44bb-a03d-fafa1f53c36a","system_id":"levelo_inurba_marseille","lat":43.27073,"lon":5.42278,"is_reserved":false,"is_disabled":false,"rental_uris":{"android":"levelo://app?vid=fcc85902-d8ff-44bb-a03d-fafa1f53c36a","ios":"levelo://app?vid=fcc85902-d8ff-44bb-a03d-fafa1f53c36a"},"vehicle_type_id":"4","last_reported":1726769508,"current_range_meters":18000,"station_id":"ce4bhk92rcd13ifvqgb0","pricing_plan_id":"cebpf4jnsgd1na2vs0mg"},{"bike_id":"04238de8-fc85-44b0-892f-8179216b8085","system_id":"levelo_inurba_marseille","lat":43.298997,"lon":5.384045,"is_reserved":false,"is_disabled":false,"rental_uris":{"android":"levelo://app?vid=04238de8-fc85-44b0-892f-8179216b8085","ios":"levelo://app?vid=04238de8-fc85-44b0-892f-8179216b8085"},"vehicle_type_id":"4","last_reported":1726769508,"current_range_meters":25600,"station_id":"","pricing_plan_id":"cebpf4jnsgd1na2vs0mg"},{"bike_id":"bce83964-771d-421d-a795-c2b376c5b9dc","system_id":"levelo_inurba_marseille","lat":43.2319,"lon":5.35546,"is_reserved":false,"is_disabled":false,"rental_uris":{"android":"levelo://app?vid=bce83964-771d-421d-a795-c2b376c5b9dc","ios":"levelo://app?vid=bce83964-771d-421d-a795-c2b376c5b9dc"},"vehicle_type_id":"4","last_reported":1726769508,"current_range_meters":19600,"station_id":"ce4bhu92rcd13ifvqi70","pricing_plan_id":"cebpf4jnsgd1na2vs0mg"},{"bike_id":"ee034c90-f1c8-4080-9442-42d92e6a7c2c","system_id":"levelo_inurba_marseille","lat":43.287903,"lon":5.352413,"is_reserved":false,"is_disabled":false,"rental_uris":{"android":"levelo://app?vid=ee034c90-f1c8-4080-9442-42d92e6a7c2c","ios":"levelo://app?vid=ee034c90-f1c8-4080-9442-42d92e6a7c2c"},"vehicle_type_id":"4","last_reported":1726769508,"current_range_meters":37600,"station_id":"ce4bhap2rcd13ifvqek0","pricing_plan_id":"cebpf4jnsgd1na2vs0mg"},{"bike_id":"38c4c0f7-a416-4c22-a211-61f844799950","system_id":"levelo_inurba_marseille","lat":43.30173,"lon":5.36606,"is_reserved":false,"is_disabled":false,"rental_uris":{"android":"levelo://app?vid=38c4c0f7-a416-4c22-a211-61f844799950","ios":"levelo://app?vid=38c4c0f7-a416-4c22-a211-61f844799950"},"vehicle_type_id":"4","last_reported":1726769508,"current_range_meters":3600,"station_id":"ce4bgrh2rcd13ifvqc8g","pricing_plan_id":"cebpf4jnsgd1na2vs0mg"},{"bike_id":"a522dbe7-cec0-4479-b119-911332786cfe","system_id":"levelo_inurba_marseille","lat":43.30906,"lon":5.36851,"is_reserved":false,"is_disabled":false,"rental_uris":{"android":"levelo://app?vid=a522dbe7-cec0-4479-b119-911332786cfe","ios":"levelo://app?vid=a522dbe7-cec0-4479-b119-911332786cfe"},"vehicle_type_id":"4","last_reported":1726769508,"current_range_meters":8400,"station_id":"ce4bgn92rcd13ifvqbvg","pricing_plan_id":"cebpf4jnsgd1na2vs0mg"},{"bike_id":"aff3f781-0b85-4632-b931-41379274a64a","system_id":"levelo_inurba_marseille","lat":43.28851,"lon":5.35855,"is_reserved":false,"is_disabled":false,"rental_uris":{"android":"levelo://app?vid=aff3f781-0b85-4632-b931-41379274a64a","ios":"levelo://app?vid=aff3f781-0b85-4632-b931-41379274a64a"},"vehicle_type_id":"4","last_reported":1726769508,"current_range_meters":39200,"station_id":"ce4bhb12rcd13ifvqem0","pricing_plan_id":"cebpf4jnsgd1na2vs0mg"},{"bike_id":"343bb299-5386-4d63-a029-118424df2016","system_id":"levelo_inurba_marseille","lat":43.28267,"lon":5.3507,"is_reserved":false,"is_disabled":false,"rental_uris":{"android":"levelo://app?vid=343bb299-5386-4d63-a029-118424df2016","ios":"levelo://app?vid=343bb299-5386-4d63-a029-118424df2016"},"vehicle_type_id":"4","last_reported":1726769508,"current_range_meters":29600,"station_id":"ce4bhbp2rcd13ifvqerg","pricing_plan_id":"cebpf4jnsgd1na2vs0mg"},{"bike_id":"5c643d73-df91-4773-be66-12c4b540fa63","system_id":"levelo_inurba_marseille","lat":43.32363,"lon":5.38884,"is_reserved":false,"is_disabled":false,"rental_uris":{"android":"levelo://app?vid=5c643d73-df91-4773-be66-12c4b540fa63","ios":"levelo://app?vid=5c643d73-df91-4773-be66-12c4b540fa63"},"vehicle_type_id":"4","last_reported":1726769508,"current_range_meters":32800,"station_id":"ce4bhqp2rcd13ifvqhog","pricing_plan_id":"cebpf4jnsgd1na2vs0mg"},{"bike_id":"3213f6df-4cc5-4765-9a0e-79b1ed3fd563","system_id":"levelo_inurba_marseille","lat":43.32364,"lon":5.38884,"is_reserved":false,"is_disabled":false,"rental_uris":{"android":"levelo://app?vid=3213f6df-4cc5-4765-9a0e-79b1ed3fd563","ios":"levelo://app?vid=3213f6df-4cc5-4765-9a0e-79b1ed3fd563"},"vehicle_type_id":"4","last_reported":1726769508,"current_range_meters":25200,"station_id":"ce4bhqp2rcd13ifvqhog","pricing_plan_id":"cebpf4jnsgd1na2vs0mg"},{"bike_id":"b1ab4565-119f-404e-ac17-99dfc9fc3b01","system_id":"levelo_inurba_marseille","lat":43.3388,"lon":5.39164,"is_reserved":false,"is_disabled":false,"rental_uris":{"android":"levelo://app?vid=b1ab4565-119f-404e-ac17-99dfc9fc3b01","ios":"levelo://app?vid=b1ab4565-119f-404e-ac17-99dfc9fc3b01"},"vehicle_type_id":"4","last_reported":1726769508,"current_range_meters":3200,"station_id":"","pricing_plan_id":"cebpf4jnsgd1na2vs0mg"},{"bike_id":"486cd400-e632-4ee8-8f0d-302e2930cd91","system_id":"levelo_inurba_marseille","lat":43.28932,"lon":5.36634,"is_reserved":false,"is_disabled":false,"rental_uris":{"android":"levelo://app?vid=486cd400-e632-4ee8-8f0d-302e2930cd91","ios":"levelo://app?vid=486cd400-e632-4ee8-8f0d-302e2930cd91"},"vehicle_type_id":"4","last_reported":1726769508,"current_range_meters":30800,"station_id":"ce4bhap2rcd13ifvqek0","pricing_plan_id":"cebpf4jnsgd1na2vs0mg"},{"bike_id":"f5d215f8-c8a8-44a0-9707-3b8bfed34716","system_id":"levelo_inurba_marseille","lat":43.29843,"lon":5.36271,"is_reserved":false,"is_disabled":false,"rental_uris":{"android":"levelo://app?vid=f5d215f8-c8a8-44a0-9707-3b8bfed34716","ios":"levelo://app?vid=f5d215f8-c8a8-44a0-9707-3b8bfed34716"},"vehicle_type_id":"4","last_reported":1726769508,"current_range_meters":23200,"station_id":"ce4bgpp2rcd13ifvqc3g","pricing_plan_id":"cebpf4jnsgd1na2vs0mg"},{"bike_id":"96b0f04b-84c7-447d-a951-9d3f6e0a0a28","system_id":"levelo_inurba_marseille","lat":43.29193,"lon":5.35806,"is_reserved":false,"is_disabled":false,"rental_uris":{"android":"levelo://app?vid=96b0f04b-84c7-447d-a951-9d3f6e0a0a28","ios":"levelo://app?vid=96b0f04b-84c7-447d-a951-9d3f6e0a0a28"},"vehicle_type_id":"4","last_reported":1726769508,"current_range_meters":26800,"station_id":"ce4bhb12rcd13ifvqel0","pricing_plan_id":"cebpf4jnsgd1na2vs0mg"},{"bike_id":"fa2e946d-01fe-4bb4-a2b0-55af60a0bcec","system_id":"levelo_inurba_marseille","lat":43.33717,"lon":5.39194,"is_reserved":false,"is_disabled":false,"rental_uris":{"android":"levelo://app?vid=fa2e946d-01fe-4bb4-a2b0-55af60a0bcec","ios":"levelo://app?vid=fa2e946d-01fe-4bb4-a2b0-55af60a0bcec"},"vehicle_type_id":"4","last_reported":1726769508,"current_range_meters":36800,"station_id":"ce4bhr92rcd13ifvqhsg","pricing_plan_id":"cebpf4jnsgd1na2vs0mg"},{"bike_id":"9ca298b8-395f-4950-bc15-ccc676d12a48","system_id":"levelo_inurba_marseille","lat":43.31756,"lon":5.39019,"is_reserved":false,"is_disabled":false,"rental_uris":{"android":"levelo://app?vid=9ca298b8-395f-4950-bc15-ccc676d12a48","ios":"levelo://app?vid=9ca298b8-395f-4950-bc15-ccc676d12a48"},"vehicle_type_id":"4","last_reported":1726769508,"current_range_meters":27200,"station_id":"ce4bhqp2rcd13ifvqhng","pricing_plan_id":"cebpf4jnsgd1na2vs0mg"},{"bike_id":"79c77a46-973d-4855-bc19-b32f362d2b9b","system_id":"levelo_inurba_marseille","lat":43.29631,"lon":5.40604,"is_reserved":false,"is_disabled":false,"rental_uris":{"android":"levelo://app?vid=79c77a46-973d-4855-bc19-b32f362d2b9b","ios":"levelo://app?vid=79c77a46-973d-4855-bc19-b32f362d2b9b"},"vehicle_type_id":"4","last_reported":1726769508,"current_range_meters":39200,"station_id":"ce4bh0h2rcd13ifvqd60","pricing_plan_id":"cebpf4jnsgd1na2vs0mg"},{"bike_id":"328d45f9-980e-4811-97c0-47d761861509","system_id":"levelo_inurba_marseille","lat":43.29847,"lon":5.37836,"is_reserved":false,"is_disabled":false,"rental_uris":{"android":"levelo://app?vid=328d45f9-980e-4811-97c0-47d761861509","ios":"levelo://app?vid=328d45f9-980e-4811-97c0-47d761861509"},"vehicle_type_id":"4","last_reported":1726769508,"current_range_meters":4800,"station_id":"","pricing_plan_id":"cebpf4jnsgd1na2vs0mg"},{"bike_id":"f675b1c8-b516-4c1e-aec8-a13b4f46a47f","system_id":"levelo_inurba_marseille","lat":43.291901,"lon":5.393197,"is_reserved":false,"is_disabled":false,"rental_uris":{"android":"levelo://app?vid=f675b1c8-b516-4c1e-aec8-a13b4f46a47f","ios":"levelo://app?vid=f675b1c8-b516-4c1e-aec8-a13b4f46a47f"},"vehicle_type_id":"4","last_reported":1726769508,"current_range_meters":36800,"station_id":"ce4bh192rcd13ifvqdd0","pricing_plan_id":"cebpf4jnsgd1na2vs0mg"},{"bike_id":"e0960760-eae3-4925-93d4-1b478dc4be56","system_id":"levelo_inurba_marseille","lat":43.32368,"lon":5.38897,"is_reserved":false,"is_disabled":false,"rental_uris":{"android":"levelo://app?vid=e0960760-eae3-4925-93d4-1b478dc4be56","ios":"levelo://app?vid=e0960760-eae3-4925-93d4-1b478dc4be56"},"vehicle_type_id":"4","last_reported":1726769508,"current_range_meters":38800,"station_id":"ce4bhqp2rcd13ifvqhog","pricing_plan_id":"cebpf4jnsgd1na2vs0mg"},{"bike_id":"e4f8fee0-d911-462c-acd5-5fc37e634679","system_id":"levelo_inurba_marseille","lat":43.24077,"lon":5.3776,"is_reserved":false,"is_disabled":false,"rental_uris":{"android":"levelo://app?vid=e4f8fee0-d911-462c-acd5-5fc37e634679","ios":"levelo://app?vid=e4f8fee0-d911-462c-acd5-5fc37e634679"},"vehicle_type_id":"4","last_reported":1726769508,"current_range_meters":11200,"station_id":"ce4bhnp2rcd13ifvqgvg","pricing_plan_id":"cebpf4jnsgd1na2vs0mg"},{"bike_id":"fa690805-233a-4a70-a9f3-33f1b67cdb1f","system_id":"levelo_inurba_marseille","lat":43.32277,"lon":5.38272,"is_reserved":false,"is_disabled":false,"rental_uris":{"android":"levelo://app?vid=fa690805-233a-4a70-a9f3-33f1b67cdb1f","ios":"levelo://app?vid=fa690805-233a-4a70-a9f3-33f1b67cdb1f"},"vehicle_type_id":"4","last_reported":1726769508,"current_range_meters":22800,"station_id":"ce4bhr12rcd13ifvqhqg","pricing_plan_id":"cebpf4jnsgd1na2vs0mg"},{"bike_id":"9e9ac5e4-01e3-4e9b-a6a8-57a1cf50c0e2","system_id":"levelo_inurba_marseille","lat":43.281753,"lon":5.426233,"is_reserved":false,"is_disabled":false,"rental_uris":{"android":"levelo://app?vid=9e9ac5e4-01e3-4e9b-a6a8-57a1cf50c0e2","ios":"levelo://app?vid=9e9ac5e4-01e3-4e9b-a6a8-57a1cf50c0e2"},"vehicle_type_id":"4","last_reported":1726769508,"current_range_meters":16000,"station_id":"ce4bhnh2rcd13ifvqgug","pricing_plan_id":"cebpf4jnsgd1na2vs0mg"},{"bike_id":"6b78d7ee-236d-4b0e-a5aa-3b9305633033","system_id":"levelo_inurba_marseille","lat":43.28459,"lon":5.35889,"is_reserved":false,"is_disabled":false,"rental_uris":{"android":"levelo://app?vid=6b78d7ee-236d-4b0e-a5aa-3b9305633033","ios":"levelo://app?vid=6b78d7ee-236d-4b0e-a5aa-3b9305633033"},"vehicle_type_id":"4","last_reported":1726769508,"current_range_meters":28000,"station_id":"ce4bhah2rcd13ifvqei0","pricing_plan_id":"cebpf4jnsgd1na2vs0mg"},{"bike_id":"b2763354-ec6c-4733-8de6-6c4493759ae9","system_id":"levelo_inurba_marseille","lat":43.29089,"lon":5.4017,"is_reserved":false,"is_disabled":false,"rental_uris":{"android":"levelo://app?vid=b2763354-ec6c-4733-8de6-6c4493759ae9","ios":"levelo://app?vid=b2763354-ec6c-4733-8de6-6c4493759ae9"},"vehicle_type_id":"4","last_reported":1726769508,"current_range_meters":25200,"station_id":"","pricing_plan_id":"cebpf4jnsgd1na2vs0mg"},{"bike_id":"d9087d12-f697-427b-9581-8e15a28fe7cf","system_id":"levelo_inurba_marseille","lat":43.28084,"lon":5.39648,"is_reserved":false,"is_disabled":false,"rental_uris":{"android":"levelo://app?vid=d9087d12-f697-427b-9581-8e15a28fe7cf","ios":"levelo://app?vid=d9087d12-f697-427b-9581-8e15a28fe7cf"},"vehicle_type_id":"4","last_reported":1726769508,"current_range_meters":39200,"station_id":"ce4bho12rcd13ifvqh2g","pricing_plan_id":"cebpf4jnsgd1na2vs0mg"},{"bike_id":"e091b79d-b4dd-4495-8b69-b79765ab19a2","system_id":"levelo_inurba_marseille","lat":43.28458,"lon":5.35885,"is_reserved":false,"is_disabled":false,"rental_uris":{"android":"levelo://app?vid=e091b79d-b4dd-4495-8b69-b79765ab19a2","ios":"levelo://app?vid=e091b79d-b4dd-4495-8b69-b79765ab19a2"},"vehicle_type_id":"4","last_reported":1726769508,"current_range_meters":10800,"station_id":"ce4bhah2rcd13ifvqei0","pricing_plan_id":"cebpf4jnsgd1na2vs0mg"},{"bike_id":"4f810e00-e65c-4f48-9267-fb2e7421fed3","system_id":"levelo_inurba_marseille","lat":43.294138,"lon":5.386288,"is_reserved":false,"is_disabled":false,"rental_uris":{"android":"levelo://app?vid=4f810e00-e65c-4f48-9267-fb2e7421fed3","ios":"levelo://app?vid=4f810e00-e65c-4f48-9267-fb2e7421fed3"},"vehicle_type_id":"4","last_reported":1726769508,"current_range_meters":12400,"station_id":"ce4bh2h2rcd13ifvqdh0","pricing_plan_id":"cebpf4jnsgd1na2vs0mg"},{"bike_id":"fe780c9c-7e13-4b38-81ce-ea43f071d76c","system_id":"levelo_inurba_marseille","lat":43.23063,"lon":5.35499,"is_reserved":false,"is_disabled":false,"rental_uris":{"android":"levelo://app?vid=fe780c9c-7e13-4b38-81ce-ea43f071d76c","ios":"levelo://app?vid=fe780c9c-7e13-4b38-81ce-ea43f071d76c"},"vehicle_type_id":"4","last_reported":1726769508,"current_range_meters":36000,"station_id":"cpo3342slgdg3j2ifvpg","pricing_plan_id":"cebpf4jnsgd1na2vs0mg"},{"bike_id":"fff22dbc-cd00-4e53-b7af-0e080e25248f","system_id":"levelo_inurba_marseille","lat":43.28931,"lon":5.36639,"is_reserved":false,"is_disabled":false,"rental_uris":{"android":"levelo://app?vid=fff22dbc-cd00-4e53-b7af-0e080e25248f","ios":"levelo://app?vid=fff22dbc-cd00-4e53-b7af-0e080e25248f"},"vehicle_type_id":"4","last_reported":1726769508,"current_range_meters":32000,"station_id":"ce4bhap2rcd13ifvqek0","pricing_plan_id":"cebpf4jnsgd1na2vs0mg"},{"bike_id":"19635c54-85cf-4e03-94f2-a5f165255834","system_id":"levelo_inurba_marseille","lat":43.27053,"lon":5.4026,"is_reserved":false,"is_disabled":false,"rental_uris":{"android":"levelo://app?vid=19635c54-85cf-4e03-94f2-a5f165255834","ios":"levelo://app?vid=19635c54-85cf-4e03-94f2-a5f165255834"},"vehicle_type_id":"4","last_reported":1726769508,"current_range_meters":8400,"station_id":"ce4bhk92rcd13ifvqgc0","pricing_plan_id":"cebpf4jnsgd1na2vs0mg"},{"bike_id":"42737279-ffa2-4fde-8abb-3fc7aa8ed902","system_id":"levelo_inurba_marseille","lat":43.29804,"lon":5.40397,"is_reserved":false,"is_disabled":false,"rental_uris":{"android":"levelo://app?vid=42737279-ffa2-4fde-8abb-3fc7aa8ed902","ios":"levelo://app?vid=42737279-ffa2-4fde-8abb-3fc7aa8ed902"},"vehicle_type_id":"4","last_reported":1726769508,"current_range_meters":16400,"station_id":"ce4bh112rcd13ifvqd90","pricing_plan_id":"cebpf4jnsgd1na2vs0mg"},{"bike_id":"ac1ab480-eb92-426b-ba9d-b2e950b769ae","system_id":"levelo_inurba_marseille","lat":43.308,"lon":5.4353,"is_reserved":false,"is_disabled":false,"rental_uris":{"android":"levelo://app?vid=ac1ab480-eb92-426b-ba9d-b2e950b769ae","ios":"levelo://app?vid=ac1ab480-eb92-426b-ba9d-b2e950b769ae"},"vehicle_type_id":"4","last_reported":1726769508,"current_range_meters":11200,"station_id":"ce4bhph2rcd13ifvqheg","pricing_plan_id":"cebpf4jnsgd1na2vs0mg"},{"bike_id":"865a2b05-2e90-44d4-a6c0-53b448fc6098","system_id":"levelo_inurba_marseille","lat":43.32364,"lon":5.38882,"is_reserved":false,"is_disabled":false,"rental_uris":{"android":"levelo://app?vid=865a2b05-2e90-44d4-a6c0-53b448fc6098","ios":"levelo://app?vid=865a2b05-2e90-44d4-a6c0-53b448fc6098"},"vehicle_type_id":"4","last_reported":1726769508,"current_range_meters":6800,"station_id":"ce4bhqp2rcd13ifvqhog","pricing_plan_id":"cebpf4jnsgd1na2vs0mg"},{"bike_id":"a9acd6bf-527a-4cbe-a539-3607cfea1624","system_id":"levelo_inurba_marseille","lat":43.27619,"lon":5.36114,"is_reserved":false,"is_disabled":false,"rental_uris":{"android":"levelo://app?vid=a9acd6bf-527a-4cbe-a539-3607cfea1624","ios":"levelo://app?vid=a9acd6bf-527a-4cbe-a539-3607cfea1624"},"vehicle_type_id":"4","last_reported":1726769508,"current_range_meters":27600,"station_id":"ce4bgj92rcd13ifvqbe0","pricing_plan_id":"cebpf4jnsgd1na2vs0mg"},{"bike_id":"3b5c402c-27d5-4010-ae48-42592c44e1cb","system_id":"levelo_inurba_marseille","lat":43.29201,"lon":5.3826,"is_reserved":false,"is_disabled":false,"rental_uris":{"android":"levelo://app?vid=3b5c402c-27d5-4010-ae48-42592c44e1cb","ios":"levelo://app?vid=3b5c402c-27d5-4010-ae48-42592c44e1cb"},"vehicle_type_id":"4","last_reported":1726769508,"current_range_meters":30800,"station_id":"","pricing_plan_id":"cebpf4jnsgd1na2vs0mg"},{"bike_id":"85c8641b-acb0-4bf3-81ad-edb9c4fca0a9","system_id":"levelo_inurba_marseille","lat":43.309929,"lon":5.390787,"is_reserved":false,"is_disabled":false,"rental_uris":{"android":"levelo://app?vid=85c8641b-acb0-4bf3-81ad-edb9c4fca0a9","ios":"levelo://app?vid=85c8641b-acb0-4bf3-81ad-edb9c4fca0a9"},"vehicle_type_id":"4","last_reported":1726769508,"current_range_meters":9200,"station_id":"ce4bgup2rcd13ifvqco0","pricing_plan_id":"cebpf4jnsgd1na2vs0mg"},{"bike_id":"841af237-4a7e-4b3a-91f6-8513767666c1","system_id":"levelo_inurba_marseille","lat":43.29269,"lon":5.38443,"is_reserved":false,"is_disabled":false,"rental_uris":{"android":"levelo://app?vid=841af237-4a7e-4b3a-91f6-8513767666c1","ios":"levelo://app?vid=841af237-4a7e-4b3a-91f6-8513767666c1"},"vehicle_type_id":"4","last_reported":1726769508,"current_range_meters":35600,"station_id":"ce4bh692rcd13ifvqea0","pricing_plan_id":"cebpf4jnsgd1na2vs0mg"},{"bike_id":"c2c9a555-6ec8-4b92-b33e-073571605c93","system_id":"levelo_inurba_marseille","lat":43.23193,"lon":5.35545,"is_reserved":false,"is_disabled":false,"rental_uris":{"android":"levelo://app?vid=c2c9a555-6ec8-4b92-b33e-073571605c93","ios":"levelo://app?vid=c2c9a555-6ec8-4b92-b33e-073571605c93"},"vehicle_type_id":"4","last_reported":1726769508,"current_range_meters":31200,"station_id":"ce4bhu92rcd13ifvqi70","pricing_plan_id":"cebpf4jnsgd1na2vs0mg"},{"bike_id":"787e322a-27b3-46ab-aebb-5b824e874f69","system_id":"levelo_inurba_marseille","lat":43.309418,"lon":5.390319,"is_reserved":false,"is_disabled":false,"rental_uris":{"android":"levelo://app?vid=787e322a-27b3-46ab-aebb-5b824e874f69","ios":"levelo://app?vid=787e322a-27b3-46ab-aebb-5b824e874f69"},"vehicle_type_id":"4","last_reported":1726769508,"current_range_meters":38400,"station_id":"ce4bgup2rcd13ifvqco0","pricing_plan_id":"cebpf4jnsgd1na2vs0mg"},{"bike_id":"62997862-0566-49dc-92c6-a8477c05ade8","system_id":"levelo_inurba_marseille","lat":43.27071,"lon":5.42284,"is_reserved":false,"is_disabled":false,"rental_uris":{"android":"levelo://app?vid=62997862-0566-49dc-92c6-a8477c05ade8","ios":"levelo://app?vid=62997862-0566-49dc-92c6-a8477c05ade8"},"vehicle_type_id":"4","last_reported":1726769508,"current_range_meters":38400,"station_id":"ce4bhk92rcd13ifvqgb0","pricing_plan_id":"cebpf4jnsgd1na2vs0mg"},{"bike_id":"2d7d34a6-1048-4ccf-89f3-6b16009eb326","system_id":"levelo_inurba_marseille","lat":43.28153,"lon":5.42647,"is_reserved":false,"is_disabled":false,"rental_uris":{"android":"levelo://app?vid=2d7d34a6-1048-4ccf-89f3-6b16009eb326","ios":"levelo://app?vid=2d7d34a6-1048-4ccf-89f3-6b16009eb326"},"vehicle_type_id":"4","last_reported":1726769508,"current_range_meters":21600,"station_id":"ce4bhnh2rcd13ifvqgug","pricing_plan_id":"cebpf4jnsgd1na2vs0mg"},{"bike_id":"3ea8f54f-9145-4e7d-b8dd-375864b1fadc","system_id":"levelo_inurba_marseille","lat":43.31991,"lon":5.37198,"is_reserved":false,"is_disabled":false,"rental_uris":{"android":"levelo://app?vid=3ea8f54f-9145-4e7d-b8dd-375864b1fadc","ios":"levelo://app?vid=3ea8f54f-9145-4e7d-b8dd-375864b1fadc"},"vehicle_type_id":"4","last_reported":1726769508,"current_range_meters":18000,"station_id":"","pricing_plan_id":"cebpf4jnsgd1na2vs0mg"},{"bike_id":"6d4d0304-21b3-4366-b1a2-90f55208d7e9","system_id":"levelo_inurba_marseille","lat":43.28934,"lon":5.36643,"is_reserved":false,"is_disabled":false,"rental_uris":{"android":"levelo://app?vid=6d4d0304-21b3-4366-b1a2-90f55208d7e9","ios":"levelo://app?vid=6d4d0304-21b3-4366-b1a2-90f55208d7e9"},"vehicle_type_id":"4","last_reported":1726769508,"current_range_meters":30400,"station_id":"ce4bhap2rcd13ifvqek0","pricing_plan_id":"cebpf4jnsgd1na2vs0mg"},{"bike_id":"768f7580-7c1f-4c4a-b9a5-c5bbe0d1c230","system_id":"levelo_inurba_marseille","lat":43.27068,"lon":5.42277,"is_reserved":false,"is_disabled":false,"rental_uris":{"android":"levelo://app?vid=768f7580-7c1f-4c4a-b9a5-c5bbe0d1c230","ios":"levelo://app?vid=768f7580-7c1f-4c4a-b9a5-c5bbe0d1c230"},"vehicle_type_id":"4","last_reported":1726769508,"current_range_meters":28800,"station_id":"ce4bhk92rcd13ifvqgb0","pricing_plan_id":"cebpf4jnsgd1na2vs0mg"},{"bike_id":"1120a87e-f56f-4309-a214-8069889a3cc3","system_id":"levelo_inurba_marseille","lat":43.26191,"lon":5.3745,"is_reserved":false,"is_disabled":false,"rental_uris":{"android":"levelo://app?vid=1120a87e-f56f-4309-a214-8069889a3cc3","ios":"levelo://app?vid=1120a87e-f56f-4309-a214-8069889a3cc3"},"vehicle_type_id":"4","last_reported":1726769508,"current_range_meters":38800,"station_id":"ce4bhgp2rcd13ifvqfc0","pricing_plan_id":"cebpf4jnsgd1na2vs0mg"},{"bike_id":"6e0c4b78-72a9-4f01-ba12-09948bd594b5","system_id":"levelo_inurba_marseille","lat":43.29005,"lon":5.35609,"is_reserved":false,"is_disabled":false,"rental_uris":{"android":"levelo://app?vid=6e0c4b78-72a9-4f01-ba12-09948bd594b5","ios":"levelo://app?vid=6e0c4b78-72a9-4f01-ba12-09948bd594b5"},"vehicle_type_id":"4","last_reported":1726769508,"current_range_meters":5600,"station_id":"ce4bhb92rcd13ifvqen0","pricing_plan_id":"cebpf4jnsgd1na2vs0mg"},{"bike_id":"383144d5-038f-477c-a9b0-5b42711f70e4","system_id":"levelo_inurba_marseille","lat":43.299246,"lon":5.374847,"is_reserved":false,"is_disabled":false,"rental_uris":{"android":"levelo://app?vid=383144d5-038f-477c-a9b0-5b42711f70e4","ios":"levelo://app?vid=383144d5-038f-477c-a9b0-5b42711f70e4"},"vehicle_type_id":"4","last_reported":1726769508,"current_range_meters":39200,"station_id":"ce4bgi12rcd13ifvqb70","pricing_plan_id":"cebpf4jnsgd1na2vs0mg"},{"bike_id":"ebebde7d-ccf0-4bfa-82c4-f36ea4a12bcd","system_id":"levelo_inurba_marseille","lat":43.28858,"lon":5.35858,"is_reserved":false,"is_disabled":false,"rental_uris":{"android":"levelo://app?vid=ebebde7d-ccf0-4bfa-82c4-f36ea4a12bcd","ios":"levelo://app?vid=ebebde7d-ccf0-4bfa-82c4-f36ea4a12bcd"},"vehicle_type_id":"4","last_reported":1726769508,"current_range_meters":6000,"station_id":"ce4bhb12rcd13ifvqem0","pricing_plan_id":"cebpf4jnsgd1na2vs0mg"},{"bike_id":"88068615-8377-4919-a422-c6e9bcaa3ab4","system_id":"levelo_inurba_marseille","lat":43.32285,"lon":5.38279,"is_reserved":false,"is_disabled":false,"rental_uris":{"android":"levelo://app?vid=88068615-8377-4919-a422-c6e9bcaa3ab4","ios":"levelo://app?vid=88068615-8377-4919-a422-c6e9bcaa3ab4"},"vehicle_type_id":"4","last_reported":1726769508,"current_range_meters":40000,"station_id":"ce4bhr12rcd13ifvqhqg","pricing_plan_id":"cebpf4jnsgd1na2vs0mg"},{"bike_id":"0c20ab6c-334d-49f2-88b1-a7741e392094","system_id":"levelo_inurba_marseille","lat":43.24562,"lon":5.39554,"is_reserved":false,"is_disabled":false,"rental_uris":{"android":"levelo://app?vid=0c20ab6c-334d-49f2-88b1-a7741e392094","ios":"levelo://app?vid=0c20ab6c-334d-49f2-88b1-a7741e392094"},"vehicle_type_id":"4","last_reported":1726769508,"current_range_meters":34000,"station_id":"ce4bhlp2rcd13ifvqgjg","pricing_plan_id":"cebpf4jnsgd1na2vs0mg"},{"bike_id":"4722ba9d-e474-4ce6-acc7-586090fe99fe","system_id":"levelo_inurba_marseille","lat":43.337444,"lon":5.374475,"is_reserved":false,"is_disabled":false,"rental_uris":{"android":"levelo://app?vid=4722ba9d-e474-4ce6-acc7-586090fe99fe","ios":"levelo://app?vid=4722ba9d-e474-4ce6-acc7-586090fe99fe"},"vehicle_type_id":"4","last_reported":1726769508,"current_range_meters":15200,"station_id":"","pricing_plan_id":"cebpf4jnsgd1na2vs0mg"},{"bike_id":"dcd94b94-e532-4d01-ab35-6e8e93019ecf","system_id":"levelo_inurba_marseille","lat":43.28406,"lon":5.37522,"is_reserved":false,"is_disabled":false,"rental_uris":{"android":"levelo://app?vid=dcd94b94-e532-4d01-ab35-6e8e93019ecf","ios":"levelo://app?vid=dcd94b94-e532-4d01-ab35-6e8e93019ecf"},"vehicle_type_id":"4","last_reported":1726769508,"current_range_meters":28400,"station_id":"ce4bh412rcd13ifvqds0","pricing_plan_id":"cebpf4jnsgd1na2vs0mg"},{"bike_id":"68159eba-e301-4077-943e-46befe1273f0","system_id":"levelo_inurba_marseille","lat":43.23189,"lon":5.35561,"is_reserved":false,"is_disabled":false,"rental_uris":{"android":"levelo://app?vid=68159eba-e301-4077-943e-46befe1273f0","ios":"levelo://app?vid=68159eba-e301-4077-943e-46befe1273f0"},"vehicle_type_id":"4","last_reported":1726769508,"current_range_meters":37600,"station_id":"ce4bhu92rcd13ifvqi70","pricing_plan_id":"cebpf4jnsgd1na2vs0mg"},{"bike_id":"9f9c7a18-2dfa-45ef-9387-32282c4e2a9b","system_id":"levelo_inurba_marseille","lat":43.295227,"lon":5.39393,"is_reserved":false,"is_disabled":false,"rental_uris":{"android":"levelo://app?vid=9f9c7a18-2dfa-45ef-9387-32282c4e2a9b","ios":"levelo://app?vid=9f9c7a18-2dfa-45ef-9387-32282c4e2a9b"},"vehicle_type_id":"4","last_reported":1726769508,"current_range_meters":11600,"station_id":"ce4bh292rcd13ifvqdf0","pricing_plan_id":"cebpf4jnsgd1na2vs0mg"},{"bike_id":"e2d2f7c3-fdab-4b2f-bca0-8f3fd4bbfe66","system_id":"levelo_inurba_marseille","lat":43.28096,"lon":5.37842,"is_reserved":false,"is_disabled":false,"rental_uris":{"android":"levelo://app?vid=e2d2f7c3-fdab-4b2f-bca0-8f3fd4bbfe66","ios":"levelo://app?vid=e2d2f7c3-fdab-4b2f-bca0-8f3fd4bbfe66"},"vehicle_type_id":"4","last_reported":1726769508,"current_range_meters":6000,"station_id":"ce4bha12rcd13ifvqee0","pricing_plan_id":"cebpf4jnsgd1na2vs0mg"},{"bike_id":"3ed508b5-fe27-43be-9221-1727ea8b8818","system_id":"levelo_inurba_marseille","lat":43.26197,"lon":5.37941,"is_reserved":false,"is_disabled":false,"rental_uris":{"android":"levelo://app?vid=3ed508b5-fe27-43be-9221-1727ea8b8818","ios":"levelo://app?vid=3ed508b5-fe27-43be-9221-1727ea8b8818"},"vehicle_type_id":"4","last_reported":1726769508,"current_range_meters":22400,"station_id":"ce4bhjp2rcd13ifvqg90","pricing_plan_id":"cebpf4jnsgd1na2vs0mg"},{"bike_id":"3018c9b4-87c8-4c4b-85a7-2b2ed3115b39","system_id":"levelo_inurba_marseille","lat":43.28149,"lon":5.42641,"is_reserved":false,"is_disabled":false,"rental_uris":{"android":"levelo://app?vid=3018c9b4-87c8-4c4b-85a7-2b2ed3115b39","ios":"levelo://app?vid=3018c9b4-87c8-4c4b-85a7-2b2ed3115b39"},"vehicle_type_id":"4","last_reported":1726769508,"current_range_meters":30800,"station_id":"ce4bhnh2rcd13ifvqgug","pricing_plan_id":"cebpf4jnsgd1na2vs0mg"},{"bike_id":"1ea06a42-c85c-494a-b001-30082421a0c8","system_id":"levelo_inurba_marseille","lat":43.32335,"lon":5.40619,"is_reserved":false,"is_disabled":false,"rental_uris":{"android":"levelo://app?vid=1ea06a42-c85c-494a-b001-30082421a0c8","ios":"levelo://app?vid=1ea06a42-c85c-494a-b001-30082421a0c8"},"vehicle_type_id":"4","last_reported":1726769508,"current_range_meters":34000,"station_id":"ce4bhq92rcd13ifvqhjg","pricing_plan_id":"cebpf4jnsgd1na2vs0mg"},{"bike_id":"0f9e353b-34be-4131-bc94-f528c8afe4b7","system_id":"levelo_inurba_marseille","lat":43.32489,"lon":5.3657,"is_reserved":false,"is_disabled":false,"rental_uris":{"android":"levelo://app?vid=0f9e353b-34be-4131-bc94-f528c8afe4b7","ios":"levelo://app?vid=0f9e353b-34be-4131-bc94-f528c8afe4b7"},"vehicle_type_id":"4","last_reported":1726769508,"current_range_meters":22800,"station_id":"ce4bhs12rcd13ifvqhvg","pricing_plan_id":"cebpf4jnsgd1na2vs0mg"},{"bike_id":"d6640223-e141-4f2f-b148-4fc3b583cfde","system_id":"levelo_inurba_marseille","lat":43.24317,"lon":5.39677,"is_reserved":false,"is_disabled":false,"rental_uris":{"android":"levelo://app?vid=d6640223-e141-4f2f-b148-4fc3b583cfde","ios":"levelo://app?vid=d6640223-e141-4f2f-b148-4fc3b583cfde"},"vehicle_type_id":"4","last_reported":1726769508,"current_range_meters":30400,"station_id":"","pricing_plan_id":"cebpf4jnsgd1na2vs0mg"},{"bike_id":"d3c8ad92-bd35-41a0-8141-d4a83a93c791","system_id":"levelo_inurba_marseille","lat":43.25829,"lon":5.39437,"is_reserved":false,"is_disabled":false,"rental_uris":{"android":"levelo://app?vid=d3c8ad92-bd35-41a0-8141-d4a83a93c791","ios":"levelo://app?vid=d3c8ad92-bd35-41a0-8141-d4a83a93c791"},"vehicle_type_id":"4","last_reported":1726769508,"current_range_meters":3600,"station_id":"ce4bhip2rcd13ifvqft0","pricing_plan_id":"cebpf4jnsgd1na2vs0mg"},{"bike_id":"72691a58-0937-4d4d-9ff3-20c937dac65a","system_id":"levelo_inurba_marseille","lat":43.31117,"lon":5.37773,"is_reserved":false,"is_disabled":false,"rental_uris":{"android":"levelo://app?vid=72691a58-0937-4d4d-9ff3-20c937dac65a","ios":"levelo://app?vid=72691a58-0937-4d4d-9ff3-20c937dac65a"},"vehicle_type_id":"4","last_reported":1726769508,"current_range_meters":38400,"station_id":"ce4bgt92rcd13ifvqcg0","pricing_plan_id":"cebpf4jnsgd1na2vs0mg"},{"bike_id":"eadd0503-9a38-4e10-8aac-24fa259bc20e","system_id":"levelo_inurba_marseille","lat":43.29098,"lon":5.38115,"is_reserved":false,"is_disabled":false,"rental_uris":{"android":"levelo://app?vid=eadd0503-9a38-4e10-8aac-24fa259bc20e","ios":"levelo://app?vid=eadd0503-9a38-4e10-8aac-24fa259bc20e"},"vehicle_type_id":"4","last_reported":1726769508,"current_range_meters":6800,"station_id":"ce4bh512rcd13ifvqe2g","pricing_plan_id":"cebpf4jnsgd1na2vs0mg"},{"bike_id":"acf44b62-d8c8-47a7-a8d1-9161d6244362","system_id":"levelo_inurba_marseille","lat":43.23195,"lon":5.35554,"is_reserved":false,"is_disabled":false,"rental_uris":{"android":"levelo://app?vid=acf44b62-d8c8-47a7-a8d1-9161d6244362","ios":"levelo://app?vid=acf44b62-d8c8-47a7-a8d1-9161d6244362"},"vehicle_type_id":"4","last_reported":1726769508,"current_range_meters":11600,"station_id":"ce4bhu92rcd13ifvqi70","pricing_plan_id":"cebpf4jnsgd1na2vs0mg"},{"bike_id":"f3b4d6f9-40fb-48ea-9adb-7605b63a0e31","system_id":"levelo_inurba_marseille","lat":43.30799,"lon":5.43521,"is_reserved":false,"is_disabled":false,"rental_uris":{"android":"levelo://app?vid=f3b4d6f9-40fb-48ea-9adb-7605b63a0e31","ios":"levelo://app?vid=f3b4d6f9-40fb-48ea-9adb-7605b63a0e31"},"vehicle_type_id":"4","last_reported":1726769508,"current_range_meters":26800,"station_id":"ce4bhph2rcd13ifvqheg","pricing_plan_id":"cebpf4jnsgd1na2vs0mg"},{"bike_id":"2fe6de79-8fea-4dbc-82be-936fa5ec2527","system_id":"levelo_inurba_marseille","lat":43.31358,"lon":5.38492,"is_reserved":false,"is_disabled":false,"rental_uris":{"android":"levelo://app?vid=2fe6de79-8fea-4dbc-82be-936fa5ec2527","ios":"levelo://app?vid=2fe6de79-8fea-4dbc-82be-936fa5ec2527"},"vehicle_type_id":"4","last_reported":1726769508,"current_range_meters":20000,"station_id":"ce4bgt92rcd13ifvqcf0","pricing_plan_id":"cebpf4jnsgd1na2vs0mg"},{"bike_id":"708bc6c9-8be0-4816-b984-72aa4f6d6e87","system_id":"levelo_inurba_marseille","lat":43.23963,"lon":5.36632,"is_reserved":false,"is_disabled":false,"rental_uris":{"android":"levelo://app?vid=708bc6c9-8be0-4816-b984-72aa4f6d6e87","ios":"levelo://app?vid=708bc6c9-8be0-4816-b984-72aa4f6d6e87"},"vehicle_type_id":"4","last_reported":1726769508,"current_range_meters":18800,"station_id":"ce4bhi12rcd13ifvqfp0","pricing_plan_id":"cebpf4jnsgd1na2vs0mg"},{"bike_id":"b339d26a-8aee-461f-876c-e9da567f603b","system_id":"levelo_inurba_marseille","lat":43.26808,"lon":5.40262,"is_reserved":false,"is_disabled":false,"rental_uris":{"android":"levelo://app?vid=b339d26a-8aee-461f-876c-e9da567f603b","ios":"levelo://app?vid=b339d26a-8aee-461f-876c-e9da567f603b"},"vehicle_type_id":"4","last_reported":1726769508,"current_range_meters":38800,"station_id":"ce501612rcd8frsf0b60","pricing_plan_id":"cebpf4jnsgd1na2vs0mg"},{"bike_id":"e2b38383-16c2-4b47-bc2f-0bcdac78c28e","system_id":"levelo_inurba_marseille","lat":43.25723,"lon":5.4111,"is_reserved":false,"is_disabled":false,"rental_uris":{"android":"levelo://app?vid=e2b38383-16c2-4b47-bc2f-0bcdac78c28e","ios":"levelo://app?vid=e2b38383-16c2-4b47-bc2f-0bcdac78c28e"},"vehicle_type_id":"4","last_reported":1726769508,"current_range_meters":24000,"station_id":"ce4bhkp2rcd13ifvqgd0","pricing_plan_id":"cebpf4jnsgd1na2vs0mg"},{"bike_id":"74c7f72d-d026-40bd-921a-8eecda34e033","system_id":"levelo_inurba_marseille","lat":43.25819,"lon":5.39431,"is_reserved":false,"is_disabled":false,"rental_uris":{"android":"levelo://app?vid=74c7f72d-d026-40bd-921a-8eecda34e033","ios":"levelo://app?vid=74c7f72d-d026-40bd-921a-8eecda34e033"},"vehicle_type_id":"4","last_reported":1726769508,"current_range_meters":39200,"station_id":"ce4bhip2rcd13ifvqft0","pricing_plan_id":"cebpf4jnsgd1na2vs0mg"},{"bike_id":"7df9edf0-e664-4b15-afac-2fe4496c6e22","system_id":"levelo_inurba_marseille","lat":43.29554,"lon":5.42285,"is_reserved":false,"is_disabled":false,"rental_uris":{"android":"levelo://app?vid=7df9edf0-e664-4b15-afac-2fe4496c6e22","ios":"levelo://app?vid=7df9edf0-e664-4b15-afac-2fe4496c6e22"},"vehicle_type_id":"4","last_reported":1726769508,"current_range_meters":38400,"station_id":"ce4bhph2rcd13ifvqhdg","pricing_plan_id":"cebpf4jnsgd1na2vs0mg"},{"bike_id":"19e113d2-14df-48a8-81d8-0596a20ecc50","system_id":"levelo_inurba_marseille","lat":43.28718,"lon":5.39999,"is_reserved":false,"is_disabled":false,"rental_uris":{"android":"levelo://app?vid=19e113d2-14df-48a8-81d8-0596a20ecc50","ios":"levelo://app?vid=19e113d2-14df-48a8-81d8-0596a20ecc50"},"vehicle_type_id":"4","last_reported":1726769508,"current_range_meters":28800,"station_id":"ce4bho92rcd13ifvqh3g","pricing_plan_id":"cebpf4jnsgd1na2vs0mg"},{"bike_id":"ecf5d7ce-58a9-409d-b0e2-5688f3553361","system_id":"levelo_inurba_marseille","lat":43.32286,"lon":5.38275,"is_reserved":false,"is_disabled":false,"rental_uris":{"android":"levelo://app?vid=ecf5d7ce-58a9-409d-b0e2-5688f3553361","ios":"levelo://app?vid=ecf5d7ce-58a9-409d-b0e2-5688f3553361"},"vehicle_type_id":"4","last_reported":1726769508,"current_range_meters":16000,"station_id":"ce4bhr12rcd13ifvqhqg","pricing_plan_id":"cebpf4jnsgd1na2vs0mg"},{"bike_id":"f0980dc9-6f83-4296-96b4-7150bb8f624f","system_id":"levelo_inurba_marseille","lat":43.30329,"lon":5.40443,"is_reserved":false,"is_disabled":false,"rental_uris":{"android":"levelo://app?vid=f0980dc9-6f83-4296-96b4-7150bb8f624f","ios":"levelo://app?vid=f0980dc9-6f83-4296-96b4-7150bb8f624f"},"vehicle_type_id":"4","last_reported":1726769508,"current_range_meters":38800,"station_id":"ce4bh012rcd13ifvqd10","pricing_plan_id":"cebpf4jnsgd1na2vs0mg"},{"bike_id":"10e040ee-89de-4113-8cb7-153038e0587d","system_id":"levelo_inurba_marseille","lat":43.27172,"lon":5.40992,"is_reserved":false,"is_disabled":false,"rental_uris":{"android":"levelo://app?vid=10e040ee-89de-4113-8cb7-153038e0587d","ios":"levelo://app?vid=10e040ee-89de-4113-8cb7-153038e0587d"},"vehicle_type_id":"4","last_reported":1726769508,"current_range_meters":38400,"station_id":"ce4bhl12rcd13ifvqgf0","pricing_plan_id":"cebpf4jnsgd1na2vs0mg"},{"bike_id":"ab0b1402-f739-41a1-8767-80bad80cff24","system_id":"levelo_inurba_marseille","lat":43.28014,"lon":5.35913,"is_reserved":false,"is_disabled":false,"rental_uris":{"android":"levelo://app?vid=ab0b1402-f739-41a1-8767-80bad80cff24","ios":"levelo://app?vid=ab0b1402-f739-41a1-8767-80bad80cff24"},"vehicle_type_id":"4","last_reported":1726769508,"current_range_meters":11200,"station_id":"","pricing_plan_id":"cebpf4jnsgd1na2vs0mg"},{"bike_id":"d575e060-fcb6-4467-ba5c-3d6174a272b5","system_id":"levelo_inurba_marseille","lat":43.28852,"lon":5.35859,"is_reserved":false,"is_disabled":false,"rental_uris":{"android":"levelo://app?vid=d575e060-fcb6-4467-ba5c-3d6174a272b5","ios":"levelo://app?vid=d575e060-fcb6-4467-ba5c-3d6174a272b5"},"vehicle_type_id":"4","last_reported":1726769508,"current_range_meters":36800,"station_id":"ce4bhb12rcd13ifvqem0","pricing_plan_id":"cebpf4jnsgd1na2vs0mg"},{"bike_id":"85dc13fa-21ac-4579-800c-df3c407bee4a","system_id":"levelo_inurba_marseille","lat":43.3095,"lon":5.39034,"is_reserved":false,"is_disabled":false,"rental_uris":{"android":"levelo://app?vid=85dc13fa-21ac-4579-800c-df3c407bee4a","ios":"levelo://app?vid=85dc13fa-21ac-4579-800c-df3c407bee4a"},"vehicle_type_id":"4","last_reported":1726769508,"current_range_meters":2000,"station_id":"ce4bgup2rcd13ifvqco0","pricing_plan_id":"cebpf4jnsgd1na2vs0mg"},