{"last_updated":1712081325,"ttl":30,"version":"2.2","data":{"bikes":[{"bike_id":"0396abb6-b31b-4229-94c0-51a13ea1a507","system_id":"levelo_inurba_marseille","lat":43.278128,"lon":5.407195,"is_reserved":false,"is_disabled":false,"rental_uris":{"android":"levelo://app?vid=0396abb6-b31b-4229-94c0-51a13ea1a507","ios":"levelo://app?vid=0396abb6-b31b-4229-94c0-51a13ea1a507"},"vehicle_type_id":"4","last_reported":1712081325,"current_range_meters":14000,"station_id":"ce4bhnh2rcd13ifvqgtg","pricing_plan_id":"cebpf4jnsgd1na2vs0mg"},{"bike_id":"d9ea2cf2-d5c1-471b-81db-a19287a2f844","system_id":"levelo_inurba_marseille","lat":43.30143,"lon":5.37413,"is_reserved":false,"is_disabled":false,"rental_uris":{"android":"levelo://app?vid=d9ea2cf2-d5c1-471b-81db-a19287a2f844","ios":"levelo://app?vid=d9ea2cf2-d5c1-471b-81db-a19287a2f844"},"vehicle_type_id":"4","last_reported":1712081325,"current_range_meters":1600,"station_id":"ce4bgs92rcd13ifvqcc0","pricing_plan_id":"cebpf4jnsgd1na2vs0mg"},{"bike_id":"51cfde09-d117-4fdc-bbdc-d1dbb336f5e4","system_id":"levelo_inurba_marseille","lat":43.311131,"lon":5.377651,"is_reserved":false,"is_disabled":false,"rental_uris":{"android":"levelo://app?vid=51cfde09-d117-4fdc-bbdc-d1dbb336f5e4","ios":"levelo://app?vid=51cfde09-d117-4fdc-bbdc-d1dbb336f5e4"},"vehicle_type_id":"4","last_reported":1712081325,"current_range_meters":0,"station_id":"ce4bgt92rcd13ifvqcg0","pricing_plan_id":"cebpf4jnsgd1na2vs0mg"},{"bike_id":"24d18f04-d23e-4550-9224-1259000c73e2","system_id":"levelo_inurba_marseille","lat":43.314811,"lon":5.373104,"is_reserved":false,"is_disabled":false,"rental_uris":{"android":"levelo://app?vid=24d18f04-d23e-4550-9224-1259000c73e2","ios":"levelo://app?vid=24d18f04-d23e-4550-9224-1259000c73e2"},"vehicle_type_id":"4","last_reported":1712081325,"current_range_meters":3600,"station_id":"ce4bgt12rcd13ifvqcd0","pricing_plan_id":"cebpf4jnsgd1na2vs0mg"},{"bike_id":"65df1c92-3628-488b-bae0-cd01e7848f67","system_id":"levelo_inurba_marseille","lat":43.315,"lon":5.37306,"is_reserved":false,"is_disabled":false,"rental_uris":{"android":"levelo://app?vid=65df1c92-3628-488b-bae0-cd01e7848f67","ios":"levelo://app?vid=65df1c92-3628-488b-bae0-cd01e7848f67"},"vehicle_type_id":"4","last_reported":1712081325,"current_range_meters":25200,"station_id":"ce4bgt12rcd13ifvqcd0","pricing_plan_id":"cebpf4jnsgd1na2vs0mg"},{"bike_id":"fdd3f016-3a81-48e3-920c-bfde3d8325eb","system_id":"levelo_inurba_marseille","lat":43.309039,"lon":5.371797,"is_reserved":false,"is_disabled":false,"rental_uris":{"android":"levelo://app?vid=fdd3f016-3a81-48e3-920c-bfde3d8325eb","ios":"levelo://app?vid=fdd3f016-3a81-48e3-920c-bfde3d8325eb"},"vehicle_type_id":"4","last_reported":1712081325,"current_range_meters":5200,"station_id":"ce4bguh2rcd13ifvqckg","pricing_plan_id":"cebpf4jnsgd1na2vs0mg"},{"bike_id":"ddd1b8bc-33fb-49f9-8d1f-3090210ee2be","system_id":"levelo_inurba_marseille","lat":43.299222,"lon":5.365554,"is_reserved":false,"is_disabled":false,"rental_uris":{"android":"levelo://app?vid=ddd1b8bc-33fb-49f9-8d1f-3090210ee2be","ios":"levelo://app?vid=ddd1b8bc-33fb-49f9-8d1f-3090210ee2be"},"vehicle_type_id":"4","last_reported":1712081325,"current_range_meters":800,"station_id":"ce4bgm92rcd13ifvqbr0","pricing_plan_id":"cebpf4jnsgd1na2vs0mg"},{"bike_id":"bf98bb5d-3f8f-4042-8f63-cd749589374a","system_id":"levelo_inurba_marseille","lat":43.309034,"lon":5.371783,"is_reserved":false,"is_disabled":false,"rental_uris":{"android":"levelo://app?vid=bf98bb5d-3f8f-4042-8f63-cd749589374a","ios":"levelo://app?vid=bf98bb5d-3f8f-4042-8f63-cd749589374a"},"vehicle_type_id":"4","last_reported":1712081325,"current_range_meters":15200,"station_id":"ce4bguh2rcd13ifvqckg","pricing_plan_id":"cebpf4jnsgd1na2vs0mg"},{"bike_id":"b789e98d-5889-49ca-85ef-d0cf9fb2e184","system_id":"levelo_inurba_marseille","lat":43.285742,"lon":5.395004,"is_reserved":false,"is_disabled":false,"rental_uris":{"android":"levelo://app?vid=b789e98d-5889-49ca-85ef-d0cf9fb2e184","ios":"levelo://app?vid=b789e98d-5889-49ca-85ef-d0cf9fb2e184"},"vehicle_type_id":"4","last_reported":1712081325,"current_range_meters":1200,"station_id":"ce4bh292rcd13ifvqdg0","pricing_plan_id":"cebpf4jnsgd1na2vs0mg"},{"bike_id":"86629358-de4d-4b2b-90dd-cbc3d2e77571","system_id":"levelo_inurba_marseille","lat":43.305712,"lon":5.365641,"is_reserved":false,"is_disabled":false,"rental_uris":{"android":"levelo://app?vid=86629358-de4d-4b2b-90dd-cbc3d2e77571","ios":"levelo://app?vid=86629358-de4d-4b2b-90dd-cbc3d2e77571"},"vehicle_type_id":"4","last_reported":1712081325,"current_range_meters":1600,"station_id":"ce4bgs12rcd13ifvqcag","pricing_plan_id":"cebpf4jnsgd1na2vs0mg"},{"bike_id":"04458a39-9c93-45a1-9455-fa60de9bd812","system_id":"levelo_inurba_marseille","lat":43.305989,"lon":5.37225,"is_reserved":false,"is_disabled":false,"rental_uris":{"android":"levelo://app?vid=04458a39-9c93-45a1-9455-fa60de9bd812","ios":"levelo://app?vid=04458a39-9c93-45a1-9455-fa60de9bd812"},"vehicle_type_id":"4","last_reported":1712081325,"current_range_meters":1200,"station_id":"ce4bgqh2rcd13ifvqc4g","pricing_plan_id":"cebpf4jnsgd1na2vs0mg"},{"bike_id":"dbac2c0a-fa07-41c8-93d3-c2b403b91e47","system_id":"levelo_inurba_marseille","lat":43.305989,"lon":5.37225,"is_reserved":false,"is_disabled":false,"rental_uris":{"android":"levelo://app?vid=dbac2c0a-fa07-41c8-93d3-c2b403b91e47","ios":"levelo://app?vid=dbac2c0a-fa07-41c8-93d3-c2b403b91e47"},"vehicle_type_id":"4","last_reported":1712081325,"current_range_meters":0,"station_id":"ce4bgqh2rcd13ifvqc4g","pricing_plan_id":"cebpf4jnsgd1na2vs0mg"},{"bike_id":"ce636e8f-ccd1-4f54-8055-2f5d3db65b75","system_id":"levelo_inurba_marseille","lat":43.311125,"lon":5.377624,"is_reserved":false,"is_disabled":false,"rental_uris":{"android":"levelo://app?vid=ce636e8f-ccd1-4f54-8055-2f5d3db65b75","ios":"levelo://app?vid=ce636e8f-ccd1-4f54-8055-2f5d3db65b75"},"vehicle_type_id":"4","last_reported":1712081325,"current_range_meters":6400,"station_id":"ce4bgt92rcd13ifvqcg0","pricing_plan_id":"cebpf4jnsgd1na2vs0mg"},{"bike_id":"ad157c98-4e9e-4b99-9f40-9aefd2b8b410","system_id":"levelo_inurba_marseille","lat":43.311131,"lon":5.377651,"is_reserved":false,"is_disabled":false,"rental_uris":{"android":"levelo://app?vid=ad157c98-4e9e-4b99-9f40-9aefd2b8b410","ios":"levelo://app?vid=ad157c98-4e9e-4b99-9f40-9aefd2b8b410"},"vehicle_type_id":"4","last_reported":1712081325,"current_range_meters":30800,"station_id":"ce4bgt92rcd13ifvqcg0","pricing_plan_id":"cebpf4jnsgd1na2vs0mg"},{"bike_id":"c996dc0b-bfa9-442a-b77e-cc8e3c2cfb23","system_id":"levelo_inurba_marseille","lat":43.311131,"lon":5.377651,"is_reserved":false,"is_disabled":false,"rental_uris":{"android":"levelo://app?vid=c996dc0b-bfa9-442a-b77e-cc8e3c2cfb23","ios":"levelo://app?vid=c996dc0b-bfa9-442a-b77e-cc8e3c2cfb23"},"vehicle_type_id":"4","last_reported":1712081325,"current_range_meters":14400,"station_id":"ce4bgt92rcd13ifvqcg0","pricing_plan_id":"cebpf4jnsgd1na2vs0mg"},{"bike_id":"d1de87f2-f3a1-4d38-b53e-922e520a8206","system_id":"levelo_inurba_marseille","lat":43.31122,"lon":5.37776,"is_reserved":false,"is_disabled":false,"rental_uris":{"android":"levelo://app?vid=d1de87f2-f3a1-4d38-b53e-922e520a8206","ios":"levelo://app?vid=d1de87f2-f3a1-4d38-b53e-922e520a8206"},"vehicle_type_id":"4","last_reported":1712081325,"current_range_meters":17200,"station_id":"ce4bgt92rcd13ifvqcg0","pricing_plan_id":"cebpf4jnsgd1na2vs0mg"},{"bike_id":"a14635c0-0eed-4f13-8820-8ec02d16b9f8","system_id":"levelo_inurba_marseille","lat":43.311131,"lon":5.377651,"is_reserved":false,"is_disabled":false,"rental_uris":{"android":"levelo://app?vid=a14635c0-0eed-4f13-8820-8ec02d16b9f8","ios":"levelo://app?vid=a14635c0-0eed-4f13-8820-8ec02d16b9f8"},"vehicle_type_id":"4","last_reported":1712081325,"current_range_meters":0,"station_id":"ce4bgt92rcd13ifvqcg0","pricing_plan_id":"cebpf4jnsgd1na2vs0mg"},{"bike_id":"41997431-d4b0-41d0-b04a-7ed9e861fe40","system_id":"levelo_inurba_marseille","lat":43.307945,"lon":5.376487,"is_reserved":false,"is_disabled":false,"rental_uris":{"android":"levelo://app?vid=41997431-d4b0-41d0-b04a-7ed9e861fe40","ios":"levelo://app?vid=41997431-d4b0-41d0-b04a-7ed9e861fe40"},"vehicle_type_id":"4","last_reported":1712081325,"current_range_meters":19200,"station_id":"ce4bgv92rcd13ifvqcq0","pricing_plan_id":"cebpf4jnsgd1na2vs0mg"},{"bike_id":"80b8472d-dc54-48d7-b104-1794564c178c","system_id":"levelo_inurba_marseille","lat":43.307945,"lon":5.376487,"is_reserved":false,"is_disabled":false,"rental_uris":{"android":"levelo://app?vid=80b8472d-dc54-48d7-b104-1794564c178c","ios":"levelo://app?vid=80b8472d-dc54-48d7-b104-1794564c178c"},"vehicle_type_id":"4","last_reported":1712081325,"current_range_meters":8800,"station_id":"ce4bgv92rcd13ifvqcq0","pricing_plan_id":"cebpf4jnsgd1na2vs0mg"},{"bike_id":"16c3fc23-aba5-4b08-81a5-88daf15cc5b6","system_id":"levelo_inurba_marseille","lat":43.30786,"lon":5.37653,"is_reserved":false,"is_disabled":false,"rental_uris":{"android":"levelo://app?vid=16c3fc23-aba5-4b08-81a5-88daf15cc5b6","ios":"levelo://app?vid=16c3fc23-aba5-4b08-81a5-88daf15cc5b6"},"vehicle_type_id":"4","last_reported":1712081325,"current_range_meters":0,"station_id":"ce4bgv92rcd13ifvqcq0","pricing_plan_id":"cebpf4jnsgd1na2vs0mg"},{"bike_id":"bbfed310-f5ca-41c8-bf3a-f83cd6959697","system_id":"levelo_inurba_marseille","lat":43.313254,"lon":5.37881,"is_reserved":false,"is_disabled":false,"rental_uris":{"android":"levelo://app?vid=bbfed310-f5ca-41c8-bf3a-f83cd6959697","ios":"levelo://app?vid=bbfed310-f5ca-41c8-bf3a-f83cd6959697"},"vehicle_type_id":"4","last_reported":1712081325,"current_range_meters":16000,"station_id":"","pricing_plan_id":"cebpf4jnsgd1na2vs0mg"},{"bike_id":"8ff4b42d-53bf-442f-96c1-2ebac7ea41b1","system_id":"levelo_inurba_marseille","lat":43.317079,"lon":5.377367,"is_reserved":false,"is_disabled":false,"rental_uris":{"android":"levelo://app?vid=8ff4b42d-53bf-442f-96c1-2ebac7ea41b1","ios":"levelo://app?vid=8ff4b42d-53bf-442f-96c1-2ebac7ea41b1"},"vehicle_type_id":"4","last_reported":1712081325,"current_range_meters":26400,"station_id":"","pricing_plan_id":"cebpf4jnsgd1na2vs0mg"},{"bike_id":"3012ebfe-3a14-49db-89e1-d603bb1805c8","system_id":"levelo_inurba_marseille","lat":43.317075,"lon":5.377367,"is_reserved":false,"is_disabled":false,"rental_uris":{"android":"levelo://app?vid=3012ebfe-3a14-49db-89e1-d603bb1805c8","ios":"levelo://app?vid=3012ebfe-3a14-49db-89e1-d603bb1805c8"},"vehicle_type_id":"4","last_reported":1712081325,"current_range_meters":10800,"station_id":"ce4bgth2rcd13ifvqch0","pricing_plan_id":"cebpf4jnsgd1na2vs0mg"},{"bike_id":"aa19af23-de95-4fbc-95fe-543a08b7d805","system_id":"levelo_inurba_marseille","lat":43.317075,"lon":5.377367,"is_reserved":false,"is_disabled":false,"rental_uris":{"android":"levelo://app?vid=aa19af23-de95-4fbc-95fe-543a08b7d805","ios":"levelo://app?vid=aa19af23-de95-4fbc-95fe-543a08b7d805"},"vehicle_type_id":"4","last_reported":1712081325,"current_range_meters":23600,"station_id":"ce4bgth2rcd13ifvqch0","pricing_plan_id":"cebpf4jnsgd1na2vs0mg"},{"bike_id":"5e535731-0a6f-4c91-abc2-62e98a03f81c","system_id":"levelo_inurba_marseille","lat":43.317075,"lon":5.377367,"is_reserved":false,"is_disabled":false,"rental_uris":{"android":"levelo://app?vid=5e535731-0a6f-4c91-abc2-62e98a03f81c","ios":"levelo://app?vid=5e535731-0a6f-4c91-abc2-62e98a03f81c"},"vehicle_type_id":"4","last_reported":1712081325,"current_range_meters":26800,"station_id":"ce4bgth2rcd13ifvqch0","pricing_plan_id":"cebpf4jnsgd1na2vs0mg"},{"bike_id":"b4c79772-15a7-4a86-a5de-b813496792e8","system_id":"levelo_inurba_marseille","lat":43.317075,"lon":5.377367,"is_reserved":false,"is_disabled":false,"rental_uris":{"android":"levelo://app?vid=b4c79772-15a7-4a86-a5de-b813496792e8","ios":"levelo://app?vid=b4c79772-15a7-4a86-a5de-b813496792e8"},"vehicle_type_id":"4","last_reported":1712081325,"current_range_meters":16400,"station_id":"ce4bgth2rcd13ifvqch0","pricing_plan_id":"cebpf4jnsgd1na2vs0mg"},{"bike_id":"c8a90013-c0b3-4983-a1bd-7b5d8981e5c9","system_id":"levelo_inurba_marseille","lat":43.30327,"lon":5.36903,"is_reserved":false,"is_disabled":false,"rental_uris":{"android":"levelo://app?vid=c8a90013-c0b3-4983-a1bd-7b5d8981e5c9","ios":"levelo://app?vid=c8a90013-c0b3-4983-a1bd-7b5d8981e5c9"},"vehicle_type_id":"4","last_reported":1712081325,"current_range_meters":0,"station_id":"ce4bgqh2rcd13ifvqc5g","pricing_plan_id":"cebpf4jnsgd1na2vs0mg"},{"bike_id":"b2565e2b-bf64-4d7e-be18-dd8c182a83d1","system_id":"levelo_inurba_marseille","lat":43.30317,"lon":5.36905,"is_reserved":false,"is_disabled":false,"rental_uris":{"android":"levelo://app?vid=b2565e2b-bf64-4d7e-be18-dd8c182a83d1","ios":"levelo://app?vid=b2565e2b-bf64-4d7e-be18-dd8c182a83d1"},"vehicle_type_id":"4","last_reported":1712081325,"current_range_meters":0,"station_id":"ce4bgqh2rcd13ifvqc5g","pricing_plan_id":"cebpf4jnsgd1na2vs0mg"},{"bike_id":"eb5d7f70-a8f7-4cd5-86bb-b25057c7aaac","system_id":"levelo_inurba_marseille","lat":43.31535,"lon":5.38026,"is_reserved":false,"is_disabled":false,"rental_uris":{"android":"levelo://app?vid=eb5d7f70-a8f7-4cd5-86bb-b25057c7aaac","ios":"levelo://app?vid=eb5d7f70-a8f7-4cd5-86bb-b25057c7aaac"},"vehicle_type_id":"4","last_reported":1712081325,"current_range_meters":0,"station_id":"ce4bhsp2rcd13ifvqi50","pricing_plan_id":"cebpf4jnsgd1na2vs0mg"},{"bike_id":"4ffd2813-d7d9-4c02-ad51-39ba4fdc14ec","system_id":"levelo_inurba_marseille","lat":43.303046,"lon":5.368981,"is_reserved":false,"is_disabled":false,"rental_uris":{"android":"levelo://app?vid=4ffd2813-d7d9-4c02-ad51-39ba4fdc14ec","ios":"levelo://app?vid=4ffd2813-d7d9-4c02-ad51-39ba4fdc14ec"},"vehicle_type_id":"4","last_reported":1712081325,"current_range_meters":24800,"station_id":"ce4bgqh2rcd13ifvqc5g","pricing_plan_id":"cebpf4jnsgd1na2vs0mg"},{"bike_id":"1179b424-e642-4cc9-8eef-6573e93ba9dd","system_id":"levelo_inurba_marseille","lat":43.302957,"lon":5.372327,"is_reserved":false,"is_disabled":false,"rental_uris":{"android":"levelo://app?vid=1179b424-e642-4cc9-8eef-6573e93ba9dd","ios":"levelo://app?vid=1179b424-e642-4cc9-8eef-6573e93ba9dd"},"vehicle_type_id":"4","last_reported":1712081325,"current_range_meters":10800,"station_id":"","pricing_plan_id":"cebpf4jnsgd1na2vs0mg"},{"bike_id":"ce5e4b9c-9850-47b7-9958-d84d142f59cf","system_id":"levelo_inurba_marseille","lat":43.32352,"lon":5.36528,"is_reserved":false,"is_disabled":false,"rental_uris":{"android":"levelo://app?vid=ce5e4b9c-9850-47b7-9958-d84d142f59cf","ios":"levelo://app?vid=ce5e4b9c-9850-47b7-9958-d84d142f59cf"},"vehicle_type_id":"4","last_reported":1712081325,"current_range_meters":0,"station_id":"","pricing_plan_id":"cebpf4jnsgd1na2vs0mg"},{"bike_id":"bcbb8011-75a8-4669-913e-297e59694985","system_id":"levelo_inurba_marseille","lat":43.3029,"lon":5.37332,"is_reserved":false,"is_disabled":false,"rental_uris":{"android":"levelo://app?vid=bcbb8011-75a8-4669-913e-297e59694985","ios":"levelo://app?vid=bcbb8011-75a8-4669-913e-297e59694985"},"vehicle_type_id":"4","last_reported":1712081325,"current_range_meters":6000,"station_id":"","pricing_plan_id":"cebpf4jnsgd1na2vs0mg"},{"bike_id":"1997e7d6-9785-4376-9cae-fc32f867de20","system_id":"levelo_inurba_marseille","lat":43.306568,"lon":5.380235,"is_reserved":false,"is_disabled":false,"rental_uris":{"android":"levelo://app?vid=1997e7d6-9785-4376-9cae-fc32f867de20","ios":"levelo://app?vid=1997e7d6-9785-4376-9cae-fc32f867de20"},"vehicle_type_id":"4","last_reported":1712081325,"current_range_meters":0,"station_id":"","pricing_plan_id":"cebpf4jnsgd1na2vs0mg"},{"bike_id":"94d790bf-bc7b-4d5c-8cbb-cb3c5e4469ff","system_id":"levelo_inurba_marseille","lat":43.30498,"lon":5.37897,"is_reserved":false,"is_disabled":false,"rental_uris":{"android":"levelo://app?vid=94d790bf-bc7b-4d5c-8cbb-cb3c5e4469ff","ios":"levelo://app?vid=94d790bf-bc7b-4d5c-8cbb-cb3c5e4469ff"},"vehicle_type_id":"4","last_reported":1712081325,"current_range_meters":12400,"station_id":"ce4bgup2rcd13ifvqcn0","pricing_plan_id":"cebpf4jnsgd1na2vs0mg"},{"bike_id":"af0246ea-8eba-4fd0-9f75-c67773edfbaf","system_id":"levelo_inurba_marseille","lat":43.304606,"lon":5.379026,"is_reserved":false,"is_disabled":false,"rental_uris":{"android":"levelo://app?vid=af0246ea-8eba-4fd0-9f75-c67773edfbaf","ios":"levelo://app?vid=af0246ea-8eba-4fd0-9f75-c67773edfbaf"},"vehicle_type_id":"4","last_reported":1712081325,"current_range_meters":0,"station_id":"ce4bgup2rcd13ifvqcn0","pricing_plan_id":"cebpf4jnsgd1na2vs0mg"},{"bike_id":"9bcce4cf-1501-458c-89e6-712e589dfc80","system_id":"levelo_inurba_marseille","lat":43.304606,"lon":5.379026,"is_reserved":false,"is_disabled":false,"rental_uris":{"android":"levelo://app?vid=9bcce4cf-1501-458c-89e6-712e589dfc80","ios":"levelo://app?vid=9bcce4cf-1501-458c-89e6-712e589dfc80"},"vehicle_type_id":"4","last_reported":1712081325,"current_range_meters":0,"station_id":"ce4bgup2rcd13ifvqcn0","pricing_plan_id":"cebpf4jnsgd1na2vs0mg"},{"bike_id":"3ad8c532-ffa8-4135-be5b-c3cf47c2fc85","system_id":"levelo_inurba_marseille","lat":43.324771,"lon":5.36557,"is_reserved":false,"is_disabled":false,"rental_uris":{"android":"levelo://app?vid=3ad8c532-ffa8-4135-be5b-c3cf47c2fc85","ios":"levelo://app?vid=3ad8c532-ffa8-4135-be5b-c3cf47c2fc85"},"vehicle_type_id":"4","last_reported":1712081325,"current_range_meters":2000,"station_id":"ce4bhs12rcd13ifvqhvg","pricing_plan_id":"cebpf4jnsgd1na2vs0mg"},{"bike_id":"0a26af90-7fac-4d66-a660-bf7294f59a96","system_id":"levelo_inurba_marseille","lat":43.32481,"lon":5.36575,"is_reserved":false,"is_disabled":false,"rental_uris":{"android":"levelo://app?vid=0a26af90-7fac-4d66-a660-bf7294f59a96","ios":"levelo://app?vid=0a26af90-7fac-4d66-a660-bf7294f59a96"},"vehicle_type_id":"4","last_reported":1712081325,"current_range_meters":27600,"station_id":"ce4bhs12rcd13ifvqhvg","pricing_plan_id":"cebpf4jnsgd1na2vs0mg"},{"bike_id":"401bc7b5-9ce9-443b-a290-c2f943b6888e","system_id":"levelo_inurba_marseille","lat":43.324771,"lon":5.36557,"is_reserved":false,"is_disabled":false,"rental_uris":{"android":"levelo://app?vid=401bc7b5-9ce9-443b-a290-c2f943b6888e","ios":"levelo://app?vid=401bc7b5-9ce9-443b-a290-c2f943b6888e"},"vehicle_type_id":"4","last_reported":1712081325,"current_range_meters":20000,"station_id":"ce4bhs12rcd13ifvqhvg","pricing_plan_id":"cebpf4jnsgd1na2vs0mg"},{"bike_id":"7cf8e0b1-aabe-4cde-bd3f-70dd0ab1ac7a","system_id":"levelo_inurba_marseille","lat":43.324771,"lon":5.36557,"is_reserved":false,"is_disabled":false,"rental_uris":{"android":"levelo://app?vid=7cf8e0b1-aabe-4cde-bd3f-70dd0ab1ac7a","ios":"levelo://app?vid=7cf8e0b1-aabe-4cde-bd3f-70dd0ab1ac7a"},"vehicle_type_id":"4","last_reported":1712081325,"current_range_meters":20800,"station_id":"ce4bhs12rcd13ifvqhvg","pricing_plan_id":"cebpf4jnsgd1na2vs0mg"},{"bike_id":"cdbf7076-7e1c-4277-9d57-17692054ed98","system_id":"levelo_inurba_marseille","lat":43.32483,"lon":5.36579,"is_reserved":false,"is_disabled":false,"rental_uris":{"android":"levelo://app?vid=cdbf7076-7e1c-4277-9d57-17692054ed98","ios":"levelo://app?vid=cdbf7076-7e1c-4277-9d57-17692054ed98"},"vehicle_type_id":"4","last_reported":1712081325,"current_range_meters":22000,"station_id":"ce4bhs12rcd13ifvqhvg","pricing_plan_id":"cebpf4jnsgd1na2vs0mg"},{"bike_id":"5eadb6e8-1ca1-4c06-9849-de0f8a589a69","system_id":"levelo_inurba_marseille","lat":43.324829,"lon":5.365761,"is_reserved":false,"is_disabled":false,"rental_uris":{"android":"levelo://app?vid=5eadb6e8-1ca1-4c06-9849-de0f8a589a69","ios":"levelo://app?vid=5eadb6e8-1ca1-4c06-9849-de0f8a589a69"},"vehicle_type_id":"4","last_reported":1712081325,"current_range_meters":0,"station_id":"ce4bhs12rcd13ifvqhvg","pricing_plan_id":"cebpf4jnsgd1na2vs0mg"},{"bike_id":"8379505a-b10f-401a-beb1-5671c297c8a4","system_id":"levelo_inurba_marseille","lat":43.32486,"lon":5.36579,"is_reserved":false,"is_disabled":false,"rental_uris":{"android":"levelo://app?vid=8379505a-b10f-401a-beb1-5671c297c8a4","ios":"levelo://app?vid=8379505a-b10f-401a-beb1-5671c297c8a4"},"vehicle_type_id":"4","last_reported":1712081325,"current_range_meters":21600,"station_id":"ce4bhs12rcd13ifvqhvg","pricing_plan_id":"cebpf4jnsgd1na2vs0mg"},{"bike_id":"26eaf7b5-3051-43bd-a37d-7dec46a557f5","system_id":"levelo_inurba_marseille","lat":43.308012,"lon":5.381511,"is_reserved":false,"is_disabled":false,"rental_uris":{"android":"levelo://app?vid=26eaf7b5-3051-43bd-a37d-7dec46a557f5","ios":"levelo://app?vid=26eaf7b5-3051-43bd-a37d-7dec46a557f5"},"vehicle_type_id":"4","last_reported":1712081325,"current_range_meters":11200,"station_id":"ce4bgt12rcd13ifvqce0","pricing_plan_id":"cebpf4jnsgd1na2vs0mg"},{"bike_id":"eb6b09c8-6428-45b7-9cbe-b857eee8a101","system_id":"levelo_inurba_marseille","lat":43.324771,"lon":5.36557,"is_reserved":false,"is_disabled":false,"rental_uris":{"android":"levelo://app?vid=eb6b09c8-6428-45b7-9cbe-b857eee8a101","ios":"levelo://app?vid=eb6b09c8-6428-45b7-9cbe-b857eee8a101"},"vehicle_type_id":"4","last_reported":1712081325,"current_range_meters":8800,"station_id":"ce4bhs12rcd13ifvqhvg","pricing_plan_id":"cebpf4jnsgd1na2vs0mg"},{"bike_id":"1a092c44-e9ab-43a8-8d50-d84cf68c7624","system_id":"levelo_inurba_marseille","lat":43.310804,"lon":5.38359,"is_reserved":false,"is_disabled":false,"rental_uris":{"android":"levelo://app?vid=1a092c44-e9ab-43a8-8d50-d84cf68c7624","ios":"levelo://app?vid=1a092c44-e9ab-43a8-8d50-d84cf68c7624"},"vehicle_type_id":"4","last_reported":1712081325,"current_range_meters":8000,"station_id":"ce4bgv92rcd13ifvqcr0","pricing_plan_id":"cebpf4jnsgd1na2vs0mg"},{"bike_id":"bfee0132-3ea6-417a-9cb3-734be4a4b4ea","system_id":"levelo_inurba_marseille","lat":43.310804,"lon":5.38359,"is_reserved":false,"is_disabled":false,"rental_uris":{"android":"levelo://app?vid=bfee0132-3ea6-417a-9cb3-734be4a4b4ea","ios":"levelo://app?vid=bfee0132-3ea6-417a-9cb3-734be4a4b4ea"},"vehicle_type_id":"4","last_reported":1712081325,"current_range_meters":0,"station_id":"ce4bgv92rcd13ifvqcr0","pricing_plan_id":"cebpf4jnsgd1na2vs0mg"},{"bike_id":"0d6f945e-7770-4337-8703-1ba27d7c88d5","system_id":"levelo_inurba_marseille","lat":43.319935,"lon":5.381699,"is_reserved":false,"is_disabled":false,"rental_uris":{"android":"levelo://app?vid=0d6f945e-7770-4337-8703-1ba27d7c88d5","ios":"levelo://app?vid=0d6f945e-7770-4337-8703-1ba27d7c88d5"},"vehicle_type_id":"4","last_reported":1712081325,"current_range_meters":19200,"station_id":"ce4bhr12rcd13ifvqhpg","pricing_plan_id":"cebpf4jnsgd1na2vs0mg"},{"bike_id":"c649632b-c356-4334-a633-36a582d86ecc","system_id":"levelo_inurba_marseille","lat":43.319935,"lon":5.381699,"is_reserved":false,"is_disabled":false,"rental_uris":{"android":"levelo://app?vid=c649632b-c356-4334-a633-36a582d86ecc","ios":"levelo://app?vid=c649632b-c356-4334-a633-36a582d86ecc"},"vehicle_type_id":"4","last_reported":1712081325,"current_range_meters":0,"station_id":"ce4bhr12rcd13ifvqhpg","pricing_plan_id":"cebpf4jnsgd1na2vs0mg"},{"bike_id":"90967822-0d01-4979-ab6f-bdd1bbae9452","system_id":"levelo_inurba_marseille","lat":43.319935,"lon":5.381699,"is_reserved":false,"is_disabled":false,"rental_uris":{"android":"levelo://app?vid=90967822-0d01-4979-ab6f-bdd1bbae9452","ios":"levelo://app?vid=90967822-0d01-4979-ab6f-bdd1bbae9452"},"vehicle_type_id":"4","last_reported":1712081325,"current_range_meters":2400,"station_id":"ce4bhr12rcd13ifvqhpg","pricing_plan_id":"cebpf4jnsgd1na2vs0mg"},{"bike_id":"3f09dcd5-9771-474b-919f-94b1480626d2","system_id":"levelo_inurba_marseille","lat":43.319935,"lon":5.381699,"is_reserved":false,"is_disabled":false,"rental_uris":{"android":"levelo://app?vid=3f09dcd5-9771-474b-919f-94b1480626d2","ios":"levelo://app?vid=3f09dcd5-9771-474b-919f-94b1480626d2"},"vehicle_type_id":"4","last_reported":1712081325,"current_range_meters":27600,"station_id":"ce4bhr12rcd13ifvqhpg","pricing_plan_id":"cebpf4jnsgd1na2vs0mg"},{"bike_id":"78dff222-5670-45a6-950a-a10ac35f2829","system_id":"levelo_inurba_marseille","lat":43.319935,"lon":5.381699,"is_reserved":false,"is_disabled":false,"rental_uris":{"android":"levelo://app?vid=78dff222-5670-45a6-950a-a10ac35f2829","ios":"levelo://app?vid=78dff222-5670-45a6-950a-a10ac35f2829"},"vehicle_type_id":"4","last_reported":1712081325,"current_range_meters":5600,"station_id":"ce4bhr12rcd13ifvqhpg","pricing_plan_id":"cebpf4jnsgd1na2vs0mg"},{"bike_id":"23aae6e8-c2b2-4169-af11-303fd8701769","system_id":"levelo_inurba_marseille","lat":43.319935,"lon":5.381699,"is_reserved":false,"is_disabled":false,"rental_uris":{"android":"levelo://app?vid=23aae6e8-c2b2-4169-af11-303fd8701769","ios":"levelo://app?vid=23aae6e8-c2b2-4169-af11-303fd8701769"},"vehicle_type_id":"4","last_reported":1712081325,"current_range_meters":17600,"station_id":"ce4bhr12rcd13ifvqhpg","pricing_plan_id":"cebpf4jnsgd1na2vs0mg"},{"bike_id":"ba30098b-f359-43bd-b013-071d09175d9d","system_id":"levelo_inurba_marseille","lat":43.319935,"lon":5.381699,"is_reserved":false,"is_disabled":false,"rental_uris":{"android":"levelo://app?vid=ba30098b-f359-43bd-b013-071d09175d9d","ios":"levelo://app?vid=ba30098b-f359-43bd-b013-071d09175d9d"},"vehicle_type_id":"4","last_reported":1712081325,"current_range_meters":10400,"station_id":"ce4bhr12rcd13ifvqhpg","pricing_plan_id":"cebpf4jnsgd1na2vs0mg"},{"bike_id":"08e4c2c7-b2fe-45c7-ad09-b32096aab93f","system_id":"levelo_inurba_marseille","lat":43.319935,"lon":5.381699,"is_reserved":false,"is_disabled":false,"rental_uris":{"android":"levelo://app?vid=08e4c2c7-b2fe-45c7-ad09-b32096aab93f","ios":"levelo://app?vid=08e4c2c7-b2fe-45c7-ad09-b32096aab93f"},"vehicle_type_id":"4","last_reported":1712081325,"current_range_meters":17200,"station_id":"ce4bhr12rcd13ifvqhpg","pricing_plan_id":"cebpf4jnsgd1na2vs0mg"},{"bike_id":"67ea23c8-1c69-4f02-9d98-1f5fb72cf589","system_id":"levelo_inurba_marseille","lat":43.319935,"lon":5.381699,"is_reserved":false,"is_disabled":false,"rental_uris":{"android":"levelo://app?vid=67ea23c8-1c69-4f02-9d98-1f5fb72cf589","ios":"levelo://app?vid=67ea23c8-1c69-4f02-9d98-1f5fb72cf589"},"vehicle_type_id":"4","last_reported":1712081325,"current_range_meters":27600,"station_id":"ce4bhr12rcd13ifvqhpg","pricing_plan_id":"cebpf4jnsgd1na2vs0mg"},{"bike_id":"0b029c55-0084-4b3d-9432-ff49712e1d66","system_id":"levelo_inurba_marseille","lat":43.319935,"lon":5.381699,"is_reserved":false,"is_disabled":false,"rental_uris":{"android":"levelo://app?vid=0b029c55-0084-4b3d-9432-ff49712e1d66","ios":"levelo://app?vid=0b029c55-0084-4b3d-9432-ff49712e1d66"},"vehicle_type_id":"4","last_reported":1712081325,"current_range_meters":7600,"station_id":"ce4bhr12rcd13ifvqhpg","pricing_plan_id":"cebpf4jnsgd1na2vs0mg"},{"bike_id":"862ea6a2-f595-4b44-9bb5-5a78c9ca03a9","system_id":"levelo_inurba_marseille","lat":43.319935,"lon":5.381699,"is_reserved":false,"is_disabled":false,"rental_uris":{"android":"levelo://app?vid=862ea6a2-f595-4b44-9bb5-5a78c9ca03a9","ios":"levelo://app?vid=862ea6a2-f595-4b44-9bb5-5a78c9ca03a9"},"vehicle_type_id":"4","last_reported":1712081325,"current_range_meters":15600,"station_id":"ce4bhr12rcd13ifvqhpg","pricing_plan_id":"cebpf4jnsgd1na2vs0mg"},{"bike_id":"818cd0fc-36c1-4ba2-89d7-4e955801aa46","system_id":"levelo_inurba_marseille","lat":43.313571,"lon":5.384829,"is_reserved":false,"is_disabled":false,"rental_uris":{"android":"levelo://app?vid=818cd0fc-36c1-4ba2-89d7-4e955801aa46","ios":"levelo://app?vid=818cd0fc-36c1-4ba2-89d7-4e955801aa46"},"vehicle_type_id":"4","last_reported":1712081325,"current_range_meters":8800,"station_id":"ce4bgt92rcd13ifvqcf0","pricing_plan_id":"cebpf4jnsgd1na2vs0mg"},{"bike_id":"239559c2-def1-4f5c-979e-eb3b83cd8b0d","system_id":"levelo_inurba_marseille","lat":43.299724,"lon":5.371829,"is_reserved":false,"is_disabled":false,"rental_uris":{"android":"levelo://app?vid=239559c2-def1-4f5c-979e-eb3b83cd8b0d","ios":"levelo://app?vid=239559c2-def1-4f5c-979e-eb3b83cd8b0d"},"vehicle_type_id":"4","last_reported":1712081325,"current_range_meters":0,"station_id":"ce4bgr92rcd13ifvqc7g","pricing_plan_id":"cebpf4jnsgd1na2vs0mg"},{"bike_id":"8d1077e0-85e1-4abe-bd9c-b4d212da7d61","system_id":"levelo_inurba_marseille","lat":43.286593,"lon":5.363346,"is_reserved":false,"is_disabled":false,"rental_uris":{"android":"levelo://app?vid=8d1077e0-85e1-4abe-bd9c-b4d212da7d61","ios":"levelo://app?vid=8d1077e0-85e1-4abe-bd9c-b4d212da7d61"},"vehicle_type_id":"4","last_reported":1712081325,"current_range_meters":3600,"station_id":"ce4bhah2rcd13ifvqej0","pricing_plan_id":"cebpf4jnsgd1na2vs0mg"},{"bike_id":"100d573a-d537-4958-8a69-e9b80679f966","system_id":"levelo_inurba_marseille","lat":43.299222,"lon":5.365554,"is_reserved":false,"is_disabled":false,"rental_uris":{"android":"levelo://app?vid=100d573a-d537-4958-8a69-e9b80679f966","ios":"levelo://app?vid=100d573a-d537-4958-8a69-e9b80679f966"},"vehicle_type_id":"4","last_reported":1712081325,"current_range_meters":0,"station_id":"ce4bgm92rcd13ifvqbr0","pricing_plan_id":"cebpf4jnsgd1na2vs0mg"},{"bike_id":"f4efe33d-d186-436f-9ef2-033bff62fb4f","system_id":"levelo_inurba_marseille","lat":43.299724,"lon":5.371829,"is_reserved":false,"is_disabled":false,"rental_uris":{"android":"levelo://app?vid=f4efe33d-d186-436f-9ef2-033bff62fb4f","ios":"levelo://app?vid=f4efe33d-d186-436f-9ef2-033bff62fb4f"},"vehicle_type_id":"4","last_reported":1712081325,"current_range_meters":0,"station_id":"ce4bgr92rcd13ifvqc7g","pricing_plan_id":"cebpf4jnsgd1na2vs0mg"},{"bike_id":"75f2f589-7ab1-4fee-b905-922c95dc119e","system_id":"levelo_inurba_marseille","lat":43.299222,"lon":5.365554,"is_reserved":false,"is_disabled":false,"rental_uris":{"android":"levelo://app?vid=75f2f589-7ab1-4fee-b905-922c95dc119e","ios":"levelo://app?vid=75f2f589-7ab1-4fee-b905-922c95dc119e"},"vehicle_type_id":"4","last_reported":1712081325,"current_range_meters":14400,"station_id":"ce4bgm92rcd13ifvqbr0","pricing_plan_id":"cebpf4jnsgd1na2vs0mg"},{"bike_id":"e89ad0d0-46d9-4e96-8f21-1d13905d1f32","system_id":"levelo_inurba_marseille","lat":43.30218,"lon":5.37995,"is_reserved":false,"is_disabled":false,"rental_uris":{"android":"levelo://app?vid=e89ad0d0-46d9-4e96-8f21-1d13905d1f32","ios":"levelo://app?vid=e89ad0d0-46d9-4e96-8f21-1d13905d1f32"},"vehicle_type_id":"4","last_reported":1712081325,"current_range_meters":9600,"station_id":"","pricing_plan_id":"cebpf4jnsgd1na2vs0mg"},{"bike_id":"cc2e6cdd-2e2d-4501-b6e5-69d72ca4f488","system_id":"levelo_inurba_marseille","lat":43.305364,"lon":5.384119,"is_reserved":false,"is_disabled":false,"rental_uris":{"android":"levelo://app?vid=cc2e6cdd-2e2d-4501-b6e5-69d72ca4f488","ios":"levelo://app?vid=cc2e6cdd-2e2d-4501-b6e5-69d72ca4f488"},"vehicle_type_id":"4","last_reported":1712081325,"current_range_meters":21200,"station_id":"ce4bgg92rcd13ifvqb30","pricing_plan_id":"cebpf4jnsgd1na2vs0mg"},{"bike_id":"4df10a19-3b39-4ba1-88ee-f80060eaba99","system_id":"levelo_inurba_marseille","lat":43.298433,"lon":5.362774,"is_reserved":false,"is_disabled":false,"rental_uris":{"android":"levelo://app?vid=4df10a19-3b39-4ba1-88ee-f80060eaba99","ios":"levelo://app?vid=4df10a19-3b39-4ba1-88ee-f80060eaba99"},"vehicle_type_id":"4","last_reported":1712081325,"current_range_meters":13600,"station_id":"ce4bgpp2rcd13ifvqc3g","pricing_plan_id":"cebpf4jnsgd1na2vs0mg"},{"bike_id":"c5694d0e-ba9c-4730-af31-703403590b66","system_id":"levelo_inurba_marseille","lat":43.311735,"lon":5.38707,"is_reserved":false,"is_disabled":false,"rental_uris":{"android":"levelo://app?vid=c5694d0e-ba9c-4730-af31-703403590b66","ios":"levelo://app?vid=c5694d0e-ba9c-4730-af31-703403590b66"},"vehicle_type_id":"4","last_reported":1712081325,"current_range_meters":26800,"station_id":"ce4bgv12rcd13ifvqcp0","pricing_plan_id":"cebpf4jnsgd1na2vs0mg"},{"bike_id":"f2ee6943-3961-437c-9662-036d7e4badac","system_id":"levelo_inurba_marseille","lat":43.311722,"lon":5.387247,"is_reserved":false,"is_disabled":false,"rental_uris":{"android":"levelo://app?vid=f2ee6943-3961-437c-9662-036d7e4badac","ios":"levelo://app?vid=f2ee6943-3961-437c-9662-036d7e4badac"},"vehicle_type_id":"4","last_reported":1712081325,"current_range_meters":5200,"station_id":"ce4bgv12rcd13ifvqcp0","pricing_plan_id":"cebpf4jnsgd1na2vs0mg"},{"bike_id":"0e756e7b-16ad-4d7c-ae99-6e2e335c0457","system_id":"levelo_inurba_marseille","lat":43.299243,"lon":5.37481,"is_reserved":false,"is_disabled":false,"rental_uris":{"android":"levelo://app?vid=0e756e7b-16ad-4d7c-ae99-6e2e335c0457","ios":"levelo://app?vid=0e756e7b-16ad-4d7c-ae99-6e2e335c0457"},"vehicle_type_id":"4","last_reported":1712081325,"current_range_meters":28000,"station_id":"ce4bgjh2rcd13ifvqbg0","pricing_plan_id":"cebpf4jnsgd1na2vs0mg"},{"bike_id":"e3d19336-43f0-4fb7-a7a7-69d9ce4155ca","system_id":"levelo_inurba_marseille","lat":43.311722,"lon":5.387247,"is_reserved":false,"is_disabled":false,"rental_uris":{"android":"levelo://app?vid=e3d19336-43f0-4fb7-a7a7-69d9ce4155ca","ios":"levelo://app?vid=e3d19336-43f0-4fb7-a7a7-69d9ce4155ca"},"vehicle_type_id":"4","last_reported":1712081325,"current_range_meters":18000,"station_id":"ce4bgv12rcd13ifvqcp0","pricing_plan_id":"cebpf4jnsgd1na2vs0mg"},{"bike_id":"cfa111f4-244f-4e4b-a60c-e66e37bb6476","system_id":"levelo_inurba_marseille","lat":43.311722,"lon":5.387247,"is_reserved":false,"is_disabled":false,"rental_uris":{"android":"levelo://app?vid=cfa111f4-244f-4e4b-a60c-e66e37bb6476","ios":"levelo://app?vid=cfa111f4-244f-4e4b-a60c-e66e37bb6476"},"vehicle_type_id":"4","last_reported":1712081325,"current_range_meters":21600,"station_id":"ce4bgv12rcd13ifvqcp0","pricing_plan_id":"cebpf4jnsgd1na2vs0mg"},{"bike_id":"6b4223f6-f793-4994-82d2-fdcefec021c8","system_id":"levelo_inurba_marseille","lat":43.299243,"lon":5.37481,"is_reserved":false,"is_disabled":false,"rental_uris":{"android":"levelo://app?vid=6b4223f6-f793-4994-82d2-fdcefec021c8","ios":"levelo://app?vid=6b4223f6-f793-4994-82d2-fdcefec021c8"},"vehicle_type_id":"4","last_reported":1712081325,"current_range_meters":7600,"station_id":"ce4bgjh2rcd13ifvqbg0","pricing_plan_id":"cebpf4jnsgd1na2vs0mg"},{"bike_id":"c68f42d7-5ceb-4280-a4f1-873166ae8525","system_id":"levelo_inurba_marseille","lat":43.322872,"lon":5.382756,"is_reserved":false,"is_disabled":false,"rental_uris":{"android":"levelo://app?vid=c68f42d7-5ceb-4280-a4f1-873166ae8525","ios":"levelo://app?vid=c68f42d7-5ceb-4280-a4f1-873166ae8525"},"vehicle_type_id":"4","last_reported":1712081325,"current_range_meters":26000,"station_id":"ce4bhr12rcd13ifvqhqg","pricing_plan_id":"cebpf4jnsgd1na2vs0mg"},{"bike_id":"fda266fe-93ec-48aa-970d-59ae0834bb5a","system_id":"levelo_inurba_marseille","lat":43.322872,"lon":5.382756,"is_reserved":false,"is_disabled":false,"rental_uris":{"android":"levelo://app?vid=fda266fe-93ec-48aa-970d-59ae0834bb5a","ios":"levelo://app?vid=fda266fe-93ec-48aa-970d-59ae0834bb5a"},"vehicle_type_id":"4","last_reported":1712081325,"current_range_meters":14000,"station_id":"ce4bhr12rcd13ifvqhqg","pricing_plan_id":"cebpf4jnsgd1na2vs0mg"},{"bike_id":"353ac126-27b4-449b-8dd4-072aa441f091","system_id":"levelo_inurba_marseille","lat":43.32283,"lon":5.38273,"is_reserved":false,"is_disabled":false,"rental_uris":{"android":"levelo://app?vid=353ac126-27b4-449b-8dd4-072aa441f091","ios":"levelo://app?vid=353ac126-27b4-449b-8dd4-072aa441f091"},"vehicle_type_id":"4","last_reported":1712081325,"current_range_meters":7200,"station_id":"ce4bhr12rcd13ifvqhqg","pricing_plan_id":"cebpf4jnsgd1na2vs0mg"},{"bike_id":"74273bea-3575-4550-b555-5ff5cb6fb480","system_id":"levelo_inurba_marseille","lat":43.322872,"lon":5.382756,"is_reserved":false,"is_disabled":false,"rental_uris":{"android":"levelo://app?vid=74273bea-3575-4550-b555-5ff5cb6fb480","ios":"levelo://app?vid=74273bea-3575-4550-b555-5ff5cb6fb480"},"vehicle_type_id":"4","last_reported":1712081325,"current_range_meters":11600,"station_id":"ce4bhr12rcd13ifvqhqg","pricing_plan_id":"cebpf4jnsgd1na2vs0mg"},{"bike_id":"dedc4631-51f8-4916-a749-c45ed77872be","system_id":"levelo_inurba_marseille","lat":43.322872,"lon":5.382756,"is_reserved":false,"is_disabled":false,"rental_uris":{"android":"levelo://app?vid=dedc4631-51f8-4916-a749-c45ed77872be","ios":"levelo://app?vid=dedc4631-51f8-4916-a749-c45ed77872be"},"vehicle_type_id":"4","last_reported":1712081325,"current_range_meters":12400,"station_id":"ce4bhr12rcd13ifvqhqg","pricing_plan_id":"cebpf4jnsgd1na2vs0mg"},{"bike_id":"5ed1088d-e0ad-4614-a220-0449cb3d1e58","system_id":"levelo_inurba_marseille","lat":43.322872,"lon":5.382756,"is_reserved":false,"is_disabled":false,"rental_uris":{"android":"levelo://app?vid=5ed1088d-e0ad-4614-a220-0449cb3d1e58","ios":"levelo://app?vid=5ed1088d-e0ad-4614-a220-0449cb3d1e58"},"vehicle_type_id":"4","last_reported":1712081325,"current_range_meters":6800,"station_id":"ce4bhr12rcd13ifvqhqg","pricing_plan_id":"cebpf4jnsgd1na2vs0mg"},{"bike_id":"786f7bc4-d5f6-4900-9781-7e7f69506d8d","system_id":"levelo_inurba_marseille","lat":43.322872,"lon":5.382756,"is_reserved":false,"is_disabled":false,"rental_uris":{"android":"levelo://app?vid=786f7bc4-d5f6-4900-9781-7e7f69506d8d","ios":"levelo://app?vid=786f7bc4-d5f6-4900-9781-7e7f69506d8d"},"vehicle_type_id":"4","last_reported":1712081325,"current_range_meters":17600,"station_id":"ce4bhr12rcd13ifvqhqg","pricing_plan_id":"cebpf4jnsgd1na2vs0mg"},{"bike_id":"10099c05-c94c-45d3-97e9-a6b3aab30da2","system_id":"levelo_inurba_marseille","lat":43.322872,"lon":5.382756,"is_reserved":false,"is_disabled":false,"rental_uris":{"android":"levelo://app?vid=10099c05-c94c-45d3-97e9-a6b3aab30da2","ios":"levelo://app?vid=10099c05-c94c-45d3-97e9-a6b3aab30da2"},"vehicle_type_id":"4","last_reported":1712081325,"current_range_meters":5200,"station_id":"ce4bhr12rcd13ifvqhqg","pricing_plan_id":"cebpf4jnsgd1na2vs0mg"},{"bike_id":"df549830-026d-4bd2-bc0e-c58ca6f5f3bc","system_id":"levelo_inurba_marseille","lat":43.3229,"lon":5.3827,"is_reserved":false,"is_disabled":false,"rental_uris":{"android":"levelo://app?vid=df549830-026d-4bd2-bc0e-c58ca6f5f3bc","ios":"levelo://app?vid=df549830-026d-4bd2-bc0e-c58ca6f5f3bc"},"vehicle_type_id":"4","last_reported":1712081325,"current_range_meters":17600,"station_id":"ce4bhr12rcd13ifvqhqg","pricing_plan_id":"cebpf4jnsgd1na2vs0mg"},{"bike_id":"6db4ba56-cdbd-44f6-826d-1abf96302385","system_id":"levelo_inurba_marseille","lat":43.322872,"lon":5.382756,"is_reserved":false,"is_disabled":false,"rental_uris":{"android":"levelo://app?vid=6db4ba56-cdbd-44f6-826d-1abf96302385","ios":"levelo://app?vid=6db4ba56-cdbd-44f6-826d-1abf96302385"},"vehicle_type_id":"4","last_reported":1712081325,"current_range_meters":31600,"station_id":"ce4bhr12rcd13ifvqhqg","pricing_plan_id":"cebpf4jnsgd1na2vs0mg"},{"bike_id":"3e1195df-1e39-45af-a77b-ed48079ee927","system_id":"levelo_inurba_marseille","lat":43.32286,"lon":5.38276,"is_reserved":false,"is_disabled":false,"rental_uris":{"android":"levelo://app?vid=3e1195df-1e39-45af-a77b-ed48079ee927","ios":"levelo://app?vid=3e1195df-1e39-45af-a77b-ed48079ee927"},"vehicle_type_id":"4","last_reported":1712081325,"current_range_meters":800,"station_id":"ce4bhr12rcd13ifvqhqg","pricing_plan_id":"cebpf4jnsgd1na2vs0mg"},{"bike_id":"af91ee66-ebec-4e5f-b566-646a8b5863b7","system_id":"levelo_inurba_marseille","lat":43.322872,"lon":5.382756,"is_reserved":false,"is_disabled":false,"rental_uris":{"android":"levelo://app?vid=af91ee66-ebec-4e5f-b566-646a8b5863b7","ios":"levelo://app?vid=af91ee66-ebec-4e5f-b566-646a8b5863b7"},"vehicle_type_id":"4","last_reported":1712081325,"current_range_meters":12000,"station_id":"ce4bhr12rcd13ifvqhqg","pricing_plan_id":"cebpf4jnsgd1na2vs0mg"},{"bike_id":"38dd02e2-be83-46f6-ab52-569edc0eeb5e","system_id":"levelo_inurba_marseille","lat":43.322872,"lon":5.382756,"is_reserved":false,"is_disabled":false,"rental_uris":{"android":"levelo://app?vid=38dd02e2-be83-46f6-ab52-569edc0eeb5e","ios":"levelo://app?vid=38dd02e2-be83-46f6-ab52-569edc0eeb5e"},"vehicle_type_id":"4","last_reported":1712081325,"current_range_meters":5600,"station_id":"ce4bhr12rcd13ifvqhqg","pricing_plan_id":"cebpf4jnsgd1na2vs0mg"},{"bike_id":"daad3144-008d-4c70-83c5-cbb99de5cc8c","system_id":"levelo_inurba_marseille","lat":43.322872,"lon":5.382756,"is_reserved":false,"is_disabled":false,"rental_uris":{"android":"levelo://app?vid=daad3144-008d-4c70-83c5-cbb99de5cc8c","ios":"levelo://app?vid=daad3144-008d-4c70-83c5-cbb99de5cc8c"},"vehicle_type_id":"4","last_reported":1712081325,"current_range_meters":8400,"station_id":"ce4bhr12rcd13ifvqhqg","pricing_plan_id":"cebpf4jnsgd1na2vs0mg"},{"bike_id":"de12cf6f-0c86-46dd-bd65-f2b071c66edc","system_id":"levelo_inurba_marseille","lat":43.322872,"lon":5.382756,"is_reserved":false,"is_disabled":false,"rental_uris":{"android":"levelo://app?vid=de12cf6f-0c86-46dd-bd65-f2b071c66edc","ios":"levelo://app?vid=de12cf6f-0c86-46dd-bd65-f2b071c66edc"},"vehicle_type_id":"4","last_reported":1712081325,"current_range_meters":30000,"station_id":"ce4bhr12rcd13ifvqhqg","pricing_plan_id":"cebpf4jnsgd1na2vs0mg"},{"bike_id":"8c9032f5-dca8-404b-86e7-7b568d502ea2","system_id":"levelo_inurba_marseille","lat":43.29706,"lon":5.36613,"is_reserved":false,"is_disabled":false,"rental_uris":{"android":"levelo://app?vid=8c9032f5-dca8-404b-86e7-7b568d502ea2","ios":"levelo://app?vid=8c9032f5-dca8-404b-86e7-7b568d502ea2"},"vehicle_type_id":"4","last_reported":1712081325,"current_range_meters":0,"station_id":"ce4bgn12rcd13ifvqbt0","pricing_plan_id":"cebpf4jnsgd1na2vs0mg"},{"bike_id":"b72120e9-4042-4cd4-a07e-efc548adafa9","system_id":"levelo_inurba_marseille","lat":43.296131,"lon":5.370773,"is_reserved":false,"is_disabled":false,"rental_uris":{"android":"levelo://app?vid=b72120e9-4042-4cd4-a07e-efc548adafa9","ios":"levelo://app?vid=b72120e9-4042-4cd4-a07e-efc548adafa9"},"vehicle_type_id":"4","last_reported":1712081325,"current_range_meters":11600,"station_id":"ce4bgnh2rcd13ifvqc0g","pricing_plan_id":"cebpf4jnsgd1na2vs0mg"},{"bike_id":"d1c56c5c-09fd-4cf0-be31-c0b3f16d91d1","system_id":"levelo_inurba_marseille","lat":43.292749,"lon":5.368402,"is_reserved":false,"is_disabled":false,"rental_uris":{"android":"levelo://app?vid=d1c56c5c-09fd-4cf0-be31-c0b3f16d91d1","ios":"levelo://app?vid=d1c56c5c-09fd-4cf0-be31-c0b3f16d91d1"},"vehicle_type_id":"4","last_reported":1712081325,"current_range_meters":2800,"station_id":"ce4bhbp2rcd13ifvqesg","pricing_plan_id":"cebpf4jnsgd1na2vs0mg"},{"bike_id":"0a886056-8d6f-4732-88fa-1262c62e8f97","system_id":"levelo_inurba_marseille","lat":43.299145,"lon":5.381195,"is_reserved":false,"is_disabled":false,"rental_uris":{"android":"levelo://app?vid=0a886056-8d6f-4732-88fa-1262c62e8f97","ios":"levelo://app?vid=0a886056-8d6f-4732-88fa-1262c62e8f97"},"vehicle_type_id":"4","last_reported":1712081325,"current_range_meters":0,"station_id":"ce4bgk12rcd13ifvqbi0","pricing_plan_id":"cebpf4jnsgd1na2vs0mg"},{"bike_id":"7a4fe6aa-f196-4a92-a2c3-f3dcbb35ae11","system_id":"levelo_inurba_marseille","lat":43.29719,"lon":5.37683,"is_reserved":false,"is_disabled":false,"rental_uris":{"android":"levelo://app?vid=7a4fe6aa-f196-4a92-a2c3-f3dcbb35ae11","ios":"levelo://app?vid=7a4fe6aa-f196-4a92-a2c3-f3dcbb35ae11"},"vehicle_type_id":"4","last_reported":1712081325,"current_range_meters":0,"station_id":"ce4bgkh2rcd13ifvqbl0","pricing_plan_id":"cebpf4jnsgd1na2vs0mg"},{"bike_id":"57ae84a6-ab70-4581-9178-a188f56df495","system_id":"levelo_inurba_marseille","lat":43.309589,"lon":5.390258,"is_reserved":false,"is_disabled":false,"rental_uris":{"android":"levelo://app?vid=57ae84a6-ab70-4581-9178-a188f56df495","ios":"levelo://app?vid=57ae84a6-ab70-4581-9178-a188f56df495"},"vehicle_type_id":"4","last_reported":1712081325,"current_range_meters":12000,"station_id":"ce4bgup2rcd13ifvqco0","pricing_plan_id":"cebpf4jnsgd1na2vs0mg"},{"bike_id":"7c599bbb-e1e3-46f2-8293-3261a453d88a","system_id":"levelo_inurba_marseille","lat":43.31759,"lon":5.39003,"is_reserved":false,"is_disabled":false,"rental_uris":{"android":"levelo://app?vid=7c599bbb-e1e3-46f2-8293-3261a453d88a","ios":"levelo://app?vid=7c599bbb-e1e3-46f2-8293-3261a453d88a"},"vehicle_type_id":"4","last_reported":1712081325,"current_range_meters":6000,"station_id":"ce4bhqp2rcd13ifvqhng","pricing_plan_id":"cebpf4jnsgd1na2vs0mg"},{"bike_id":"0a2d34d7-8e81-41bb-b30f-e77eaeed6e59","system_id":"levelo_inurba_marseille","lat":43.31754,"lon":5.39007,"is_reserved":false,"is_disabled":false,"rental_uris":{"android":"levelo://app?vid=0a2d34d7-8e81-41bb-b30f-e77eaeed6e59","ios":"levelo://app?vid=0a2d34d7-8e81-41bb-b30f-e77eaeed6e59"},"vehicle_type_id":"4","last_reported":1712081325,"current_range_meters":2000,"station_id":"ce4bhqp2rcd13ifvqhng","pricing_plan_id":"cebpf4jnsgd1na2vs0mg"},{"bike_id":"e4a6e70f-11c5-4382-a014-401ed4910d82","system_id":"levelo_inurba_marseille","lat":43.317557,"lon":5.390173,"is_reserved":false,"is_disabled":false,"rental_uris":{"android":"levelo://app?vid=e4a6e70f-11c5-4382-a014-401ed4910d82","ios":"levelo://app?vid=e4a6e70f-11c5-4382-a014-401ed4910d82"},"vehicle_type_id":"4","last_reported":1712081325,"current_range_meters":12000,"station_id":"ce4bhqp2rcd13ifvqhng","pricing_plan_id":"cebpf4jnsgd1na2vs0mg"},{"bike_id":"ff0337df-162e-40a2-8236-aed88f45a96c","system_id":"levelo_inurba_marseille","lat":43.31757,"lon":5.390117,"is_reserved":false,"is_disabled":false,"rental_uris":{"android":"levelo://app?vid=ff0337df-162e-40a2-8236-aed88f45a96c","ios":"levelo://app?vid=ff0337df-162e-40a2-8236-aed88f45a96c"},"vehicle_type_id":"4","last_reported":1712081325,"current_range_meters":4000,"station_id":"ce4bhqp2rcd13ifvqhng","pricing_plan_id":"cebpf4jnsgd1na2vs0mg"},{"bike_id":"f8bb8bd5-9531-48c4-a11c-25c615bd497a","system_id":"levelo_inurba_marseille","lat":43.31759,"lon":5.39012,"is_reserved":false,"is_disabled":false,"rental_uris":{"android":"levelo://app?vid=f8bb8bd5-9531-48c4-a11c-25c615bd497a","ios":"levelo://app?vid=f8bb8bd5-9531-48c4-a11c-25c615bd497a"},"vehicle_type_id":"4","last_reported":1712081325,"current_range_meters":12400,"station_id":"ce4bhqp2rcd13ifvqhng","pricing_plan_id":"cebpf4jnsgd1na2vs0mg"},{"bike_id":"7a292f50-0d04-4cba-83c1-8987ac750120","system_id":"levelo_inurba_marseille","lat":43.317517,"lon":5.390166,"is_reserved":false,"is_disabled":false,"rental_uris":{"android":"levelo://app?vid=7a292f50-0d04-4cba-83c1-8987ac750120","ios":"levelo://app?vid=7a292f50-0d04-4cba-83c1-8987ac750120"},"vehicle_type_id":"4","last_reported":1712081325,"current_range_meters":4800,"station_id":"ce4bhqp2rcd13ifvqhng","pricing_plan_id":"cebpf4jnsgd1na2vs0mg"},{"bike_id":"0bd9dd29-14ed-4125-8098-5a1e8562c868","system_id":"levelo_inurba_marseille","lat":43.317557,"lon":5.390173,"is_reserved":false,"is_disabled":false,"rental_uris":{"android":"levelo://app?vid=0bd9dd29-14ed-4125-8098-5a1e8562c868","ios":"levelo://app?vid=0bd9dd29-14ed-4125-8098-5a1e8562c868"},"vehicle_type_id":"4","last_reported":1712081325,"current_range_meters":23600,"station_id":"ce4bhqp2rcd13ifvqhng","pricing_plan_id":"cebpf4jnsgd1na2vs0mg"},{"bike_id":"00a810b7-08e9-43ac-bb97-a69e690700a6","system_id":"levelo_inurba_marseille","lat":43.31754,"lon":5.39017,"is_reserved":false,"is_disabled":false,"rental_uris":{"android":"levelo://app?vid=00a810b7-08e9-43ac-bb97-a69e690700a6","ios":"levelo://app?vid=00a810b7-08e9-43ac-bb97-a69e690700a6"},"vehicle_type_id":"4","last_reported":1712081325,"current_range_meters":2800,"station_id":"ce4bhqp2rcd13ifvqhng","pricing_plan_id":"cebpf4jnsgd1na2vs0mg"},{"bike_id":"ca3883d6-7ba7-41cd-85f7-e47e54e29827","system_id":"levelo_inurba_marseille","lat":43.31752,"lon":5.3902,"is_reserved":false,"is_disabled":false,"rental_uris":{"android":"levelo://app?vid=ca3883d6-7ba7-41cd-85f7-e47e54e29827","ios":"levelo://app?vid=ca3883d6-7ba7-41cd-85f7-e47e54e29827"},"vehicle_type_id":"4","last_reported":1712081325,"current_range_meters":12800,"station_id":"ce4bhqp2rcd13ifvqhng","pricing_plan_id":"cebpf4jnsgd1na2vs0mg"},{"bike_id":"95df7383-4e22-4383-b032-2afbdafc9af3","system_id":"levelo_inurba_marseille","lat":43.297532,"lon":5.379127,"is_reserved":false,"is_disabled":false,"rental_uris":{"android":"levelo://app?vid=95df7383-4e22-4383-b032-2afbdafc9af3","ios":"levelo://app?vid=95df7383-4e22-4383-b032-2afbdafc9af3"},"vehicle_type_id":"4","last_reported":1712081325,"current_range_meters":18400,"station_id":"","pricing_plan_id":"cebpf4jnsgd1na2vs0mg"},{"bike_id":"65007f04-8707-4d7b-a2eb-97118f58ea02","system_id":"levelo_inurba_marseille","lat":43.31756,"lon":5.39023,"is_reserved":false,"is_disabled":false,"rental_uris":{"android":"levelo://app?vid=65007f04-8707-4d7b-a2eb-97118f58ea02","ios":"levelo://app?vid=65007f04-8707-4d7b-a2eb-97118f58ea02"},"vehicle_type_id":"4","last_reported":1712081325,"current_range_meters":5200,"station_id":"ce4bhqp2rcd13ifvqhng","pricing_plan_id":"cebpf4jnsgd1na2vs0mg"},{"bike_id":"305c27c8-45c8-47b9-a197-f7d84d1f2387","system_id":"levelo_inurba_marseille","lat":43.301429,"lon":5.37413,"is_reserved":false,"is_disabled":false,"rental_uris":{"android":"levelo://app?vid=305c27c8-45c8-47b9-a197-f7d84d1f2387","ios":"levelo://app?vid=305c27c8-45c8-47b9-a197-f7d84d1f2387"},"vehicle_type_id":"4","last_reported":1712081325,"current_range_meters":10800,"station_id":"ce4bgs92rcd13ifvqcc0","pricing_plan_id":"cebpf4jnsgd1na2vs0mg"},{"bike_id":"609ab156-dc2d-4953-ace8-dc7ccc3d4eb4","system_id":"levelo_inurba_marseille","lat":43.29578,"lon":5.37503,"is_reserved":false,"is_disabled":false,"rental_uris":{"android":"levelo://app?vid=609ab156-dc2d-4953-ace8-dc7ccc3d4eb4","ios":"levelo://app?vid=609ab156-dc2d-4953-ace8-dc7ccc3d4eb4"},"vehicle_type_id":"4","last_reported":1712081325,"current_range_meters":0,"station_id":"ce4bgh92rcd13ifvqb50","pricing_plan_id":"cebpf4jnsgd1na2vs0mg"},{"bike_id":"b5e8d530-095b-4b5a-908f-b42e7eeb3dbc","system_id":"levelo_inurba_marseille","lat":43.297969,"lon":5.380983,"is_reserved":false,"is_disabled":false,"rental_uris":{"android":"levelo://app?vid=b5e8d530-095b-4b5a-908f-b42e7eeb3dbc","ios":"levelo://app?vid=b5e8d530-095b-4b5a-908f-b42e7eeb3dbc"},"vehicle_type_id":"4","last_reported":1712081325,"current_range_meters":0,"station_id":"ce4bgip2rcd13ifvqbb0","pricing_plan_id":"cebpf4jnsgd1na2vs0mg"},{"bike_id":"d72b04ac-f1f0-4688-8ee1-58b695c302fc","system_id":"levelo_inurba_marseille","lat":43.29796,"lon":5.38098,"is_reserved":false,"is_disabled":false,"rental_uris":{"android":"levelo://app?vid=d72b04ac-f1f0-4688-8ee1-58b695c302fc","ios":"levelo://app?vid=d72b04ac-f1f0-4688-8ee1-58b695c302fc"},"vehicle_type_id":"4","last_reported":1712081325,"current_range_meters":0,"station_id":"ce4bgip2rcd13ifvqbb0","pricing_plan_id":"cebpf4jnsgd1na2vs0mg"},{"bike_id":"0127f6ea-5366-4ef8-a27d-4bc8cabf8c47","system_id":"levelo_inurba_marseille","lat":43.304274,"lon":5.388873,"is_reserved":false,"is_disabled":false,"rental_uris":{"android":"levelo://app?vid=0127f6ea-5366-4ef8-a27d-4bc8cabf8c47","ios":"levelo://app?vid=0127f6ea-5366-4ef8-a27d-4bc8cabf8c47"},"vehicle_type_id":"4","last_reported":1712081325,"current_range_meters":25600,"station_id":"ce4bgk12rcd13ifvqbi0","pricing_plan_id":"cebpf4jnsgd1na2vs0mg"},{"bike_id":"039d65fa-bca8-47b3-aebb-38465638c1bb","system_id":"levelo_inurba_marseille","lat":43.296247,"lon":5.377203,"is_reserved":false,"is_disabled":false,"rental_uris":{"android":"levelo://app?vid=039d65fa-bca8-47b3-aebb-38465638c1bb","ios":"levelo://app?vid=039d65fa-bca8-47b3-aebb-38465638c1bb"},"vehicle_type_id":"4","last_reported":1712081325,"current_range_meters":0,"station_id":"ce4bgi92rcd13ifvqb90","pricing_plan_id":"cebpf4jnsgd1na2vs0mg"},{"bike_id":"94f1cc76-c690-4d4a-9eac-a2532f3efca1","system_id":"levelo_inurba_marseille","lat":43.30435,"lon":5.38899,"is_reserved":false,"is_disabled":false,"rental_uris":{"android":"levelo://app?vid=94f1cc76-c690-4d4a-9eac-a2532f3efca1","ios":"levelo://app?vid=94f1cc76-c690-4d4a-9eac-a2532f3efca1"},"vehicle_type_id":"4","last_reported":1712081325,"current_range_meters":30400,"station_id":"ce4bh012rcd13ifvqcv0","pricing_plan_id":"cebpf4jnsgd1na2vs0mg"},{"bike_id":"2b4eb581-fb93-4ddd-8529-8a42be01361c","system_id":"levelo_inurba_marseille","lat":43.296277,"lon":5.377108,"is_reserved":false,"is_disabled":false,"rental_uris":{"android":"levelo://app?vid=2b4eb581-fb93-4ddd-8529-8a42be01361c","ios":"levelo://app?vid=2b4eb581-fb93-4ddd-8529-8a42be01361c"},"vehicle_type_id":"4","last_reported":1712081325,"current_range_meters":0,"station_id":"ce4bgi92rcd13ifvqb90","pricing_plan_id":"cebpf4jnsgd1na2vs0mg"},{"bike_id":"c035af50-3647-432f-96c9-464ccf4fbee4","system_id":"levelo_inurba_marseille","lat":43.29613,"lon":5.3771,"is_reserved":false,"is_disabled":false,"rental_uris":{"android":"levelo://app?vid=c035af50-3647-432f-96c9-464ccf4fbee4","ios":"levelo://app?vid=c035af50-3647-432f-96c9-464ccf4fbee4"},"vehicle_type_id":"4","last_reported":1712081325,"current_range_meters":0,"station_id":"ce4bgi92rcd13ifvqb90","pricing_plan_id":"cebpf4jnsgd1na2vs0mg"},{"bike_id":"4aafb226-a8ea-438f-a950-bb5d76b0544c","system_id":"levelo_inurba_marseille","lat":43.296263,"lon":5.377094,"is_reserved":false,"is_disabled":false,"rental_uris":{"android":"levelo://app?vid=4aafb226-a8ea-438f-a950-bb5d76b0544c","ios":"levelo://app?vid=4aafb226-a8ea-438f-a950-bb5d76b0544c"},"vehicle_type_id":"4","last_reported":1712081325,"current_range_meters":29200,"station_id":"ce4bgi92rcd13ifvqb90","pricing_plan_id":"cebpf4jnsgd1na2vs0mg"},{"bike_id":"3cb8cc84-de6a-497b-b745-1bb50e4bb0aa","system_id":"levelo_inurba_marseille","lat":43.304274,"lon":5.388873,"is_reserved":false,"is_disabled":false,"rental_uris":{"android":"levelo://app?vid=3cb8cc84-de6a-497b-b745-1bb50e4bb0aa","ios":"levelo://app?vid=3cb8cc84-de6a-497b-b745-1bb50e4bb0aa"},"vehicle_type_id":"4","last_reported":1712081325,"current_range_meters":0,"station_id":"ce4bgk12rcd13ifvqbi0","pricing_plan_id":"cebpf4jnsgd1na2vs0mg"},{"bike_id":"83b23be8-5fcd-430c-b5b4-12e092f2bf21","system_id":"levelo_inurba_marseille","lat":43.299724,"lon":5.384848,"is_reserved":false,"is_disabled":false,"rental_uris":{"android":"levelo://app?vid=83b23be8-5fcd-430c-b5b4-12e092f2bf21","ios":"levelo://app?vid=83b23be8-5fcd-430c-b5b4-12e092f2bf21"},"vehicle_type_id":"4","last_reported":1712081325,"current_range_meters":19200,"station_id":"ce4bgj92rcd13ifvqbd0","pricing_plan_id":"cebpf4jnsgd1na2vs0mg"},{"bike_id":"da3829ac-812b-4517-8ff2-89adc549a526","system_id":"levelo_inurba_marseille","lat":43.299717,"lon":5.384845,"is_reserved":false,"is_disabled":false,"rental_uris":{"android":"levelo://app?vid=da3829ac-812b-4517-8ff2-89adc549a526","ios":"levelo://app?vid=da3829ac-812b-4517-8ff2-89adc549a526"},"vehicle_type_id":"4","last_reported":1712081325,"current_range_meters":30400,"station_id":"ce4bgj92rcd13ifvqbd0","pricing_plan_id":"cebpf4jnsgd1na2vs0mg"},{"bike_id":"a02380fb-e740-481f-9048-19464a4db5ea","system_id":"levelo_inurba_marseille","lat":43.299724,"lon":5.384848,"is_reserved":false,"is_disabled":false,"rental_uris":{"android":"levelo://app?vid=a02380fb-e740-481f-9048-19464a4db5ea","ios":"levelo://app?vid=a02380fb-e740-481f-9048-19464a4db5ea"},"vehicle_type_id":"4","last_reported":1712081325,"current_range_meters":1200,"station_id":"ce4bgj92rcd13ifvqbd0","pricing_plan_id":"cebpf4jnsgd1na2vs0mg"},{"bike_id":"a1314cd5-1681-4005-bc49-dfac7ca2120a","system_id":"levelo_inurba_marseille","lat":43.293009,"lon":5.374584,"is_reserved":false,"is_disabled":false,"rental_uris":{"android":"levelo://app?vid=a1314cd5-1681-4005-bc49-dfac7ca2120a","ios":"levelo://app?vid=a1314cd5-1681-4005-bc49-dfac7ca2120a"},"vehicle_type_id":"4","last_reported":1712081325,"current_range_meters":23600,"station_id":"ce4bgi12rcd13ifvqb70","pricing_plan_id":"cebpf4jnsgd1na2vs0mg"},{"bike_id":"55b0b6c6-6e1d-4bad-8b5b-49739c4fb2be","system_id":"levelo_inurba_marseille","lat":43.299707,"lon":5.384859,"is_reserved":false,"is_disabled":false,"rental_uris":{"android":"levelo://app?vid=55b0b6c6-6e1d-4bad-8b5b-49739c4fb2be","ios":"levelo://app?vid=55b0b6c6-6e1d-4bad-8b5b-49739c4fb2be"},"vehicle_type_id":"4","last_reported":1712081325,"current_range_meters":30400,"station_id":"ce4bgj92rcd13ifvqbd0","pricing_plan_id":"cebpf4jnsgd1na2vs0mg"},{"bike_id":"a777d6ee-d4a6-4079-b6ed-8910a23140d7","system_id":"levelo_inurba_marseille","lat":43.30081,"lon":5.38638,"is_reserved":false,"is_disabled":false,"rental_uris":{"android":"levelo://app?vid=a777d6ee-d4a6-4079-b6ed-8910a23140d7","ios":"levelo://app?vid=a777d6ee-d4a6-4079-b6ed-8910a23140d7"},"vehicle_type_id":"4","last_reported":1712081325,"current_range_meters":800,"station_id":"","pricing_plan_id":"cebpf4jnsgd1na2vs0mg"},{"bike_id":"bb4b3a76-2822-4cc8-a3d1-e012149c5e05","system_id":"levelo_inurba_marseille","lat":43.299724,"lon":5.384848,"is_reserved":false,"is_disabled":false,"rental_uris":{"android":"levelo://app?vid=bb4b3a76-2822-4cc8-a3d1-e012149c5e05","ios":"levelo://app?vid=bb4b3a76-2822-4cc8-a3d1-e012149c5e05"},"vehicle_type_id":"4","last_reported":1712081325,"current_range_meters":12000,"station_id":"ce4bgj92rcd13ifvqbd0","pricing_plan_id":"cebpf4jnsgd1na2vs0mg"},{"bike_id":"3a8c1350-c078-4aaa-b6d1-eab4c0fb8240","system_id":"levelo_inurba_marseille","lat":43.29964,"lon":5.38498,"is_reserved":false,"is_disabled":false,"rental_uris":{"android":"levelo://app?vid=3a8c1350-c078-4aaa-b6d1-eab4c0fb8240","ios":"levelo://app?vid=3a8c1350-c078-4aaa-b6d1-eab4c0fb8240"},"vehicle_type_id":"4","last_reported":1712081325,"current_range_meters":13600,"station_id":"","pricing_plan_id":"cebpf4jnsgd1na2vs0mg"},{"bike_id":"b0ef3ce6-8eae-43d6-8c18-ea508310584d","system_id":"levelo_inurba_marseille","lat":43.278399,"lon":5.392139,"is_reserved":false,"is_disabled":false,"rental_uris":{"android":"levelo://app?vid=b0ef3ce6-8eae-43d6-8c18-ea508310584d","ios":"levelo://app?vid=b0ef3ce6-8eae-43d6-8c18-ea508310584d"},"vehicle_type_id":"4","last_reported":1712081325,"current_range_meters":6400,"station_id":"ce4bhjp2rcd13ifvqga0","pricing_plan_id":"cebpf4jnsgd1na2vs0mg"},{"bike_id":"ec28d969-fbf9-427a-8233-b6bd5718c23f","system_id":"levelo_inurba_marseille","lat":43.32363,"lon":5.38878,"is_reserved":false,"is_disabled":false,"rental_uris":{"android":"levelo://app?vid=ec28d969-fbf9-427a-8233-b6bd5718c23f","ios":"levelo://app?vid=ec28d969-fbf9-427a-8233-b6bd5718c23f"},"vehicle_type_id":"4","last_reported":1712081325,"current_range_meters":5200,"station_id":"ce4bhqp2rcd13ifvqhog","pricing_plan_id":"cebpf4jnsgd1na2vs0mg"},{"bike_id":"700b46e0-0d96-44f1-9e0e-19eb66a5f130","system_id":"levelo_inurba_marseille","lat":43.32367,"lon":5.38877,"is_reserved":false,"is_disabled":false,"rental_uris":{"android":"levelo://app?vid=700b46e0-0d96-44f1-9e0e-19eb66a5f130","ios":"levelo://app?vid=700b46e0-0d96-44f1-9e0e-19eb66a5f130"},"vehicle_type_id":"4","last_reported":1712081325,"current_range_meters":0,"station_id":"ce4bhqp2rcd13ifvqhog","pricing_plan_id":"cebpf4jnsgd1na2vs0mg"},{"bike_id":"eb32ceb2-da9c-416b-b73e-26be742f1e74","system_id":"levelo_inurba_marseille","lat":43.32363,"lon":5.38881,"is_reserved":false,"is_disabled":false,"rental_uris":{"android":"levelo://app?vid=eb32ceb2-da9c-416b-b73e-26be742f1e74","ios":"levelo://app?vid=eb32ceb2-da9c-416b-b73e-26be742f1e74"},"vehicle_type_id":"4","last_reported":1712081325,"current_range_meters":3600,"station_id":"ce4bhqp2rcd13ifvqhog","pricing_plan_id":"cebpf4jnsgd1na2vs0mg"},{"bike_id":"dd6d6741-e110-4877-994a-a2652824c5cd","system_id":"levelo_inurba_marseille","lat":43.32365,"lon":5.3888,"is_reserved":false,"is_disabled":false,"rental_uris":{"android":"levelo://app?vid=dd6d6741-e110-4877-994a-a2652824c5cd","ios":"levelo://app?vid=dd6d6741-e110-4877-994a-a2652824c5cd"},"vehicle_type_id":"4","last_reported":1712081325,"current_range_meters":23600,"station_id":"ce4bhqp2rcd13ifvqhog","pricing_plan_id":"cebpf4jnsgd1na2vs0mg"},{"bike_id":"907dbd5d-c21c-4a69-9ccc-cacb9df34ad3","system_id":"levelo_inurba_marseille","lat":43.32363,"lon":5.38883,"is_reserved":false,"is_disabled":false,"rental_uris":{"android":"levelo://app?vid=907dbd5d-c21c-4a69-9ccc-cacb9df34ad3","ios":"levelo://app?vid=907dbd5d-c21c-4a69-9ccc-cacb9df34ad3"},"vehicle_type_id":"4","last_reported":1712081325,"current_range_meters":2800,"station_id":"ce4bhqp2rcd13ifvqhog","pricing_plan_id":"cebpf4jnsgd1na2vs0mg"},{"bike_id":"cfc9dc23-b7c5-4c17-990c-7b9959e0c997","system_id":"levelo_inurba_marseille","lat":43.32366,"lon":5.38881,"is_reserved":false,"is_disabled":false,"rental_uris":{"android":"levelo://app?vid=cfc9dc23-b7c5-4c17-990c-7b9959e0c997","ios":"levelo://app?vid=cfc9dc23-b7c5-4c17-990c-7b9959e0c997"},"vehicle_type_id":"4","last_reported":1712081325,"current_range_meters":3600,"station_id":"ce4bhqp2rcd13ifvqhog","pricing_plan_id":"cebpf4jnsgd1na2vs0mg"},{"bike_id":"f2a0c78f-44d5-4a08-8f93-7ac45bef0672","system_id":"levelo_inurba_marseille","lat":43.32368,"lon":5.3888,"is_reserved":false,"is_disabled":false,"rental_uris":{"android":"levelo://app?vid=f2a0c78f-44d5-4a08-8f93-7ac45bef0672","ios":"levelo://app?vid=f2a0c78f-44d5-4a08-8f93-7ac45bef0672"},"vehicle_type_id":"4","last_reported":1712081325,"current_range_meters":19200,"station_id":"ce4bhqp2rcd13ifvqhog","pricing_plan_id":"cebpf4jnsgd1na2vs0mg"},{"bike_id":"98875af4-dcb3-4d03-8aa4-5aa5cbd117b1","system_id":"levelo_inurba_marseille","lat":43.32368,"lon":5.38883,"is_reserved":false,"is_disabled":false,"rental_uris":{"android":"levelo://app?vid=98875af4-dcb3-4d03-8aa4-5aa5cbd117b1","ios":"levelo://app?vid=98875af4-dcb3-4d03-8aa4-5aa5cbd117b1"},"vehicle_type_id":"4","last_reported":1712081325,"current_range_meters":5200,"station_id":"ce4bhqp2rcd13ifvqhog","pricing_plan_id":"cebpf4jnsgd1na2vs0mg"},{"bike_id":"a38421ac-a944-4283-8cd8-f098f4f8ee6d","system_id":"levelo_inurba_marseille","lat":43.32366,"lon":5.3889,"is_reserved":false,"is_disabled":false,"rental_uris":{"android":"levelo://app?vid=a38421ac-a944-4283-8cd8-f098f4f8ee6d","ios":"levelo://app?vid=a38421ac-a944-4283-8cd8-f098f4f8ee6d"},"vehicle_type_id":"4","last_reported":1712081325,"current_range_meters":0,"station_id":"ce4bhqp2rcd13ifvqhog","pricing_plan_id":"cebpf4jnsgd1na2vs0mg"},{"bike_id":"c841a719-af38-4f16-8c6e-09f44bfdc5ca","system_id":"levelo_inurba_marseille","lat":43.32377,"lon":5.38883,"is_reserved":false,"is_disabled":false,"rental_uris":{"android":"levelo://app?vid=c841a719-af38-4f16-8c6e-09f44bfdc5ca","ios":"levelo://app?vid=c841a719-af38-4f16-8c6e-09f44bfdc5ca"},"vehicle_type_id":"4","last_reported":1712081325,"current_range_meters":15600,"station_id":"ce4bhqp2rcd13ifvqhog","pricing_plan_id":"cebpf4jnsgd1na2vs0mg"},{"bike_id":"22d48d63-6b4a-447c-b913-1d419ae917f6","system_id":"levelo_inurba_marseille","lat":43.295948,"lon":5.381022,"is_reserved":false,"is_disabled":false,"rental_uris":{"android":"levelo://app?vid=22d48d63-6b4a-447c-b913-1d419ae917f6","ios":"levelo://app?vid=22d48d63-6b4a-447c-b913-1d419ae917f6"},"vehicle_type_id":"4","last_reported":1712081325,"current_range_meters":0,"station_id":"ce4bgl12rcd13ifvqbo0","pricing_plan_id":"cebpf4jnsgd1na2vs0mg"},{"bike_id":"605e9eda-49e2-4107-91dc-38aabb1bcef5","system_id":"levelo_inurba_marseille","lat":43.292749,"lon":5.368402,"is_reserved":false,"is_disabled":false,"rental_uris":{"android":"levelo://app?vid=605e9eda-49e2-4107-91dc-38aabb1bcef5","ios":"levelo://app?vid=605e9eda-49e2-4107-91dc-38aabb1bcef5"},"vehicle_type_id":"4","last_reported":1712081325,"current_range_meters":0,"station_id":"ce4bhbp2rcd13ifvqesg","pricing_plan_id":"cebpf4jnsgd1na2vs0mg"},{"bike_id":"8be8c4ee-b870-4403-b776-8db11c7928fd","system_id":"levelo_inurba_marseille","lat":43.293259,"lon":5.371586,"is_reserved":false,"is_disabled":false,"rental_uris":{"android":"levelo://app?vid=8be8c4ee-b870-4403-b776-8db11c7928fd","ios":"levelo://app?vid=8be8c4ee-b870-4403-b776-8db11c7928fd"},"vehicle_type_id":"4","last_reported":1712081325,"current_range_meters":0,"station_id":"ce4bgh92rcd13ifvqb40","pricing_plan_id":"cebpf4jnsgd1na2vs0mg"},{"bike_id":"74c8e2ae-b937-4ad8-8ceb-76cc525ffbe7","system_id":"levelo_inurba_marseille","lat":43.293259,"lon":5.371586,"is_reserved":false,"is_disabled":false,"rental_uris":{"android":"levelo://app?vid=74c8e2ae-b937-4ad8-8ceb-76cc525ffbe7","ios":"levelo://app?vid=74c8e2ae-b937-4ad8-8ceb-76cc525ffbe7"},"vehicle_type_id":"4","last_reported":1712081325,"current_range_meters":0,"station_id":"ce4bgh92rcd13ifvqb40","pricing_plan_id":"cebpf4jnsgd1na2vs0mg"},{"bike_id":"c6795bd1-d157-4a63-bf3a-c182b74ce4db","system_id":"levelo_inurba_marseille","lat":43.29486,"lon":5.37956,"is_reserved":false,"is_disabled":false,"rental_uris":{"android":"levelo://app?vid=c6795bd1-d157-4a63-bf3a-c182b74ce4db","ios":"levelo://app?vid=c6795bd1-d157-4a63-bf3a-c182b74ce4db"},"vehicle_type_id":"4","last_reported":1712081325,"current_range_meters":2000,"station_id":"","pricing_plan_id":"cebpf4jnsgd1na2vs0mg"},{"bike_id":"f13b2579-a7ef-4b3a-bb64-a6015e7e9a66","system_id":"levelo_inurba_marseille","lat":43.295611,"lon":5.381687,"is_reserved":false,"is_disabled":false,"rental_uris":{"android":"levelo://app?vid=f13b2579-a7ef-4b3a-bb64-a6015e7e9a66","ios":"levelo://app?vid=f13b2579-a7ef-4b3a-bb64-a6015e7e9a66"},"vehicle_type_id":"4","last_reported":1712081325,"current_range_meters":20800,"station_id":"","pricing_plan_id":"cebpf4jnsgd1na2vs0mg"},{"bike_id":"301924c3-c3c1-4f3a-b69b-8b234f10767b","system_id":"levelo_inurba_marseille","lat":43.305994,"lon":5.393687,"is_reserved":false,"is_disabled":false,"rental_uris":{"android":"levelo://app?vid=301924c3-c3c1-4f3a-b69b-8b234f10767b","ios":"levelo://app?vid=301924c3-c3c1-4f3a-b69b-8b234f10767b"},"vehicle_type_id":"4","last_reported":1712081325,"current_range_meters":5200,"station_id":"ce4bh0p2rcd13ifvqd80","pricing_plan_id":"cebpf4jnsgd1na2vs0mg"},{"bike_id":"669bc04b-f9e5-499f-95ae-12cb690f2e8e","system_id":"levelo_inurba_marseille","lat":43.305994,"lon":5.393687,"is_reserved":false,"is_disabled":false,"rental_uris":{"android":"levelo://app?vid=669bc04b-f9e5-499f-95ae-12cb690f2e8e","ios":"levelo://app?vid=669bc04b-f9e5-499f-95ae-12cb690f2e8e"},"vehicle_type_id":"4","last_reported":1712081325,"current_range_meters":20000,"station_id":"ce4bh0p2rcd13ifvqd80","pricing_plan_id":"cebpf4jnsgd1na2vs0mg"},{"bike_id":"ba558561-3a97-4110-9ca6-948d2c306eeb","system_id":"levelo_inurba_marseille","lat":43.293009,"lon":5.374584,"is_reserved":false,"is_disabled":false,"rental_uris":{"android":"levelo://app?vid=ba558561-3a97-4110-9ca6-948d2c306eeb","ios":"levelo://app?vid=ba558561-3a97-4110-9ca6-948d2c306eeb"},"vehicle_type_id":"4","last_reported":1712081325,"current_range_meters":2000,"station_id":"ce4bgi12rcd13ifvqb70","pricing_plan_id":"cebpf4jnsgd1na2vs0mg"},{"bike_id":"70cbec89-adb0-428b-b0f7-45a845d772fb","system_id":"levelo_inurba_marseille","lat":43.293009,"lon":5.374584,"is_reserved":false,"is_disabled":false,"rental_uris":{"android":"levelo://app?vid=70cbec89-adb0-428b-b0f7-45a845d772fb","ios":"levelo://app?vid=70cbec89-adb0-428b-b0f7-45a845d772fb"},"vehicle_type_id":"4","last_reported":1712081325,"current_range_meters":0,"station_id":"ce4bgi12rcd13ifvqb70","pricing_plan_id":"cebpf4jnsgd1na2vs0mg"},{"bike_id":"ab7410d2-e2f3-4725-bc62-ae7c23b1fc5d","system_id":"levelo_inurba_marseille","lat":43.305994,"lon":5.393687,"is_reserved":false,"is_disabled":false,"rental_uris":{"android":"levelo://app?vid=ab7410d2-e2f3-4725-bc62-ae7c23b1fc5d","ios":"levelo://app?vid=ab7410d2-e2f3-4725-bc62-ae7c23b1fc5d"},"vehicle_type_id":"4","last_reported":1712081325,"current_range_meters":13600,"station_id":"ce4bh0p2rcd13ifvqd80","pricing_plan_id":"cebpf4jnsgd1na2vs0mg"},{"bike_id":"9988daf9-a8ba-46a2-974c-9ebcb2981b5a","system_id":"levelo_inurba_marseille","lat":43.305994,"lon":5.393687,"is_reserved":false,"is_disabled":false,"rental_uris":{"android":"levelo://app?vid=9988daf9-a8ba-46a2-974c-9ebcb2981b5a","ios":"levelo://app?vid=9988daf9-a8ba-46a2-974c-9ebcb2981b5a"},"vehicle_type_id":"4","last_reported":1712081325,"current_range_meters":7600,"station_id":"ce4bh0p2rcd13ifvqd80","pricing_plan_id":"cebpf4jnsgd1na2vs0mg"},{"bike_id":"b9853240-743f-4473-a62c-abd8248c7daf","system_id":"levelo_inurba_marseille","lat":43.305994,"lon":5.393687,"is_reserved":false,"is_disabled":false,"rental_uris":{"android":"levelo://app?vid=b9853240-743f-4473-a62c-abd8248c7daf","ios":"levelo://app?vid=b9853240-743f-4473-a62c-abd8248c7daf"},"vehicle_type_id":"4","last_reported":1712081325,"current_range_meters":4400,"station_id":"ce4bh0p2rcd13ifvqd80","pricing_plan_id":"cebpf4jnsgd1na2vs0mg"},{"bike_id":"8f5dd46e-7d37-4f12-8720-8d4f07e523bc","system_id":"levelo_inurba_marseille","lat":43.292967,"lon":5.374666,"is_reserved":false,"is_disabled":false,"rental_uris":{"android":"levelo://app?vid=8f5dd46e-7d37-4f12-8720-8d4f07e523bc","ios":"levelo://app?vid=8f5dd46e-7d37-4f12-8720-8d4f07e523bc"},"vehicle_type_id":"4","last_reported":1712081325,"current_range_meters":1600,"station_id":"","pricing_plan_id":"cebpf4jnsgd1na2vs0mg"},{"bike_id":"4f03f791-8aa8-42ff-9b9e-ead41b44717e","system_id":"levelo_inurba_marseille","lat":43.302992,"lon":5.392136,"is_reserved":false,"is_disabled":false,"rental_uris":{"android":"levelo://app?vid=4f03f791-8aa8-42ff-9b9e-ead41b44717e","ios":"levelo://app?vid=4f03f791-8aa8-42ff-9b9e-ead41b44717e"},"vehicle_type_id":"4","last_reported":1712081325,"current_range_meters":12400,"station_id":"ce4bgkh2rcd13ifvqbk0","pricing_plan_id":"cebpf4jnsgd1na2vs0mg"},{"bike_id":"59f5ff76-dd34-4d8f-9e6c-59fcf268c76f","system_id":"levelo_inurba_marseille","lat":43.302992,"lon":5.392136,"is_reserved":false,"is_disabled":false,"rental_uris":{"android":"levelo://app?vid=59f5ff76-dd34-4d8f-9e6c-59fcf268c76f","ios":"levelo://app?vid=59f5ff76-dd34-4d8f-9e6c-59fcf268c76f"},"vehicle_type_id":"4","last_reported":1712081325,"current_range_meters":5600,"station_id":"ce4bgkh2rcd13ifvqbk0","pricing_plan_id":"cebpf4jnsgd1na2vs0mg"},{"bike_id":"67dcb9ce-6972-4a04-a50e-f74c34b3dd51","system_id":"levelo_inurba_marseille","lat":43.2936,"lon":5.37835,"is_reserved":false,"is_disabled":false,"rental_uris":{"android":"levelo://app?vid=67dcb9ce-6972-4a04-a50e-f74c34b3dd51","ios":"levelo://app?vid=67dcb9ce-6972-4a04-a50e-f74c34b3dd51"},"vehicle_type_id":"4","last_reported":1712081325,"current_range_meters":0,"station_id":"ce4bgjh2rcd13ifvqbf0","pricing_plan_id":"cebpf4jnsgd1na2vs0mg"},{"bike_id":"ef225298-4d16-46ed-8c6c-e46e53a9a24d","system_id":"levelo_inurba_marseille","lat":43.302992,"lon":5.392136,"is_reserved":false,"is_disabled":false,"rental_uris":{"android":"levelo://app?vid=ef225298-4d16-46ed-8c6c-e46e53a9a24d","ios":"levelo://app?vid=ef225298-4d16-46ed-8c6c-e46e53a9a24d"},"vehicle_type_id":"4","last_reported":1712081325,"current_range_meters":5600,"station_id":"ce4bgkh2rcd13ifvqbk0","pricing_plan_id":"cebpf4jnsgd1na2vs0mg"},{"bike_id":"3a5b4e74-f9ce-4a6e-9fbb-91d069b6f9eb","system_id":"levelo_inurba_marseille","lat":43.298764,"lon":5.388973,"is_reserved":false,"is_disabled":false,"rental_uris":{"android":"levelo://app?vid=3a5b4e74-f9ce-4a6e-9fbb-91d069b6f9eb","ios":"levelo://app?vid=3a5b4e74-f9ce-4a6e-9fbb-91d069b6f9eb"},"vehicle_type_id":"4","last_reported":1712081325,"current_range_meters":16400,"station_id":"ce4bh392rcd13ifvqdl0","pricing_plan_id":"cebpf4jnsgd1na2vs0mg"},{"bike_id":"ad9d632c-beef-45e4-88cf-d53919682b7b","system_id":"levelo_inurba_marseille","lat":43.298764,"lon":5.388973,"is_reserved":false,"is_disabled":false,"rental_uris":{"android":"levelo://app?vid=ad9d632c-beef-45e4-88cf-d53919682b7b","ios":"levelo://app?vid=ad9d632c-beef-45e4-88cf-d53919682b7b"},"vehicle_type_id":"4","last_reported":1712081325,"current_range_meters":7600,"station_id":"ce4bh392rcd13ifvqdl0","pricing_plan_id":"cebpf4jnsgd1na2vs0mg"},{"bike_id":"61079e1a-4b7b-4e7c-a656-ae819209b1cd","system_id":"levelo_inurba_marseille","lat":43.29178,"lon":5.37139,"is_reserved":false,"is_disabled":false,"rental_uris":{"android":"levelo://app?vid=61079e1a-4b7b-4e7c-a656-ae819209b1cd","ios":"levelo://app?vid=61079e1a-4b7b-4e7c-a656-ae819209b1cd"},"vehicle_type_id":"4","last_reported":1712081325,"current_range_meters":0,"station_id":"ce4bha92rcd13ifvqeh0","pricing_plan_id":"cebpf4jnsgd1na2vs0mg"},{"bike_id":"7679e90b-fac1-4d7c-90ab-862f331635ba","system_id":"levelo_inurba_marseille","lat":43.298764,"lon":5.388973,"is_reserved":false,"is_disabled":false,"rental_uris":{"android":"levelo://app?vid=7679e90b-fac1-4d7c-90ab-862f331635ba","ios":"levelo://app?vid=7679e90b-fac1-4d7c-90ab-862f331635ba"},"vehicle_type_id":"4","last_reported":1712081325,"current_range_meters":5200,"station_id":"ce4bh392rcd13ifvqdl0","pricing_plan_id":"cebpf4jnsgd1na2vs0mg"},{"bike_id":"31c43de7-a521-4c58-a81f-5a216e37fd01","system_id":"levelo_inurba_marseille","lat":43.29878,"lon":5.388903,"is_reserved":false,"is_disabled":false,"rental_uris":{"android":"levelo://app?vid=31c43de7-a521-4c58-a81f-5a216e37fd01","ios":"levelo://app?vid=31c43de7-a521-4c58-a81f-5a216e37fd01"},"vehicle_type_id":"4","last_reported":1712081325,"current_range_meters":10800,"station_id":"","pricing_plan_id":"cebpf4jnsgd1na2vs0mg"},{"bike_id":"b0618d3f-73da-4e2d-8778-f0dd18936aec","system_id":"levelo_inurba_marseille","lat":43.298764,"lon":5.388973,"is_reserved":false,"is_disabled":false,"rental_uris":{"android":"levelo://app?vid=b0618d3f-73da-4e2d-8778-f0dd18936aec","ios":"levelo://app?vid=b0618d3f-73da-4e2d-8778-f0dd18936aec"},"vehicle_type_id":"4","last_reported":1712081325,"current_range_meters":10400,"station_id":"ce4bh392rcd13ifvqdl0","pricing_plan_id":"cebpf4jnsgd1na2vs0mg"},{"bike_id":"3b2e5481-27b4-4855-b725-221eb09fc92b","system_id":"levelo_inurba_marseille","lat":43.298764,"lon":5.388973,"is_reserved":false,"is_disabled":false,"rental_uris":{"android":"levelo://app?vid=3b2e5481-27b4-4855-b725-221eb09fc92b","ios":"levelo://app?vid=3b2e5481-27b4-4855-b725-221eb09fc92b"},"vehicle_type_id":"4","last_reported":1712081325,"current_range_meters":9200,"station_id":"ce4bh392rcd13ifvqdl0","pricing_plan_id":"cebpf4jnsgd1na2vs0mg"},{"bike_id":"f7647d9c-7c7c-430a-a1bc-7f5f4b99f527","system_id":"levelo_inurba_marseille","lat":43.298764,"lon":5.388973,"is_reserved":false,"is_disabled":false,"rental_uris":{"android":"levelo://app?vid=f7647d9c-7c7c-430a-a1bc-7f5f4b99f527","ios":"levelo://app?vid=f7647d9c-7c7c-430a-a1bc-7f5f4b99f527"},"vehicle_type_id":"4","last_reported":1712081325,"current_range_meters":29600,"station_id":"ce4bh392rcd13ifvqdl0","pricing_plan_id":"cebpf4jnsgd1na2vs0mg"},{"bike_id":"65492b16-8d34-42ab-a0be-c05b665419a4","system_id":"levelo_inurba_marseille","lat":43.298764,"lon":5.388973,"is_reserved":false,"is_disabled":false,"rental_uris":{"android":"levelo://app?vid=65492b16-8d34-42ab-a0be-c05b665419a4","ios":"levelo://app?vid=65492b16-8d34-42ab-a0be-c05b665419a4"},"vehicle_type_id":"4","last_reported":1712081325,"current_range_meters":0,"station_id":"ce4bh392rcd13ifvqdl0","pricing_plan_id":"cebpf4jnsgd1na2vs0mg"},{"bike_id":"1890f9c8-6fe3-4fe9-afd8-3f642613c45d","system_id":"levelo_inurba_marseille","lat":43.309589,"lon":5.390258,"is_reserved":false,"is_disabled":false,"rental_uris":{"android":"levelo://app?vid=1890f9c8-6fe3-4fe9-afd8-3f642613c45d","ios":"levelo://app?vid=1890f9c8-6fe3-4fe9-afd8-3f642613c45d"},"vehicle_type_id":"4","last_reported":1712081325,"current_range_meters":23600,"station_id":"ce4bgup2rcd13ifvqco0","pricing_plan_id":"cebpf4jnsgd1na2vs0mg"},{"bike_id":"d5257aa9-34cc-4974-8600-732753464ab5","system_id":"levelo_inurba_marseille","lat":43.291671,"lon":5.371575,"is_reserved":false,"is_disabled":false,"rental_uris":{"android":"levelo://app?vid=d5257aa9-34cc-4974-8600-732753464ab5","ios":"levelo://app?vid=d5257aa9-34cc-4974-8600-732753464ab5"},"vehicle_type_id":"4","last_reported":1712081325,"current_range_meters":7200,"station_id":"ce4bha92rcd13ifvqeh0","pricing_plan_id":"cebpf4jnsgd1na2vs0mg"},{"bike_id":"f35d8099-a844-407e-80c0-c8862a79a33f","system_id":"levelo_inurba_marseille","lat":43.30884,"lon":5.39635,"is_reserved":false,"is_disabled":false,"rental_uris":{"android":"levelo://app?vid=f35d8099-a844-407e-80c0-c8862a79a33f","ios":"levelo://app?vid=f35d8099-a844-407e-80c0-c8862a79a33f"},"vehicle_type_id":"4","last_reported":1712081325,"current_range_meters":10000,"station_id":"ce4bh012rcd13ifvqcv0","pricing_plan_id":"cebpf4jnsgd1na2vs0mg"},{"bike_id":"34f22992-fb3c-403e-98db-48b7a756e0e7","system_id":"levelo_inurba_marseille","lat":43.309038,"lon":5.396546,"is_reserved":false,"is_disabled":false,"rental_uris":{"android":"levelo://app?vid=34f22992-fb3c-403e-98db-48b7a756e0e7","ios":"levelo://app?vid=34f22992-fb3c-403e-98db-48b7a756e0e7"},"vehicle_type_id":"4","last_reported":1712081325,"current_range_meters":0,"station_id":"ce4bh012rcd13ifvqcv0","pricing_plan_id":"cebpf4jnsgd1na2vs0mg"},{"bike_id":"94254401-5dfc-4de0-a2f9-5e90b0955a3a","system_id":"levelo_inurba_marseille","lat":43.31339,"lon":5.39683,"is_reserved":false,"is_disabled":false,"rental_uris":{"android":"levelo://app?vid=94254401-5dfc-4de0-a2f9-5e90b0955a3a","ios":"levelo://app?vid=94254401-5dfc-4de0-a2f9-5e90b0955a3a"},"vehicle_type_id":"4","last_reported":1712081325,"current_range_meters":0,"station_id":"ce4bgvp2rcd13ifvqcu0","pricing_plan_id":"cebpf4jnsgd1na2vs0mg"},{"bike_id":"3cbdba4a-7307-4047-8c34-716a00604c6f","system_id":"levelo_inurba_marseille","lat":43.31326,"lon":5.39684,"is_reserved":false,"is_disabled":false,"rental_uris":{"android":"levelo://app?vid=3cbdba4a-7307-4047-8c34-716a00604c6f","ios":"levelo://app?vid=3cbdba4a-7307-4047-8c34-716a00604c6f"},"vehicle_type_id":"4","last_reported":1712081325,"current_range_meters":6800,"station_id":"ce4bgvp2rcd13ifvqcu0","pricing_plan_id":"cebpf4jnsgd1na2vs0mg"},{"bike_id":"1c2bb0ff-c8d7-417f-b88d-8ac7b81709ef","system_id":"levelo_inurba_marseille","lat":43.31326,"lon":5.39686,"is_reserved":false,"is_disabled":false,"rental_uris":{"android":"levelo://app?vid=1c2bb0ff-c8d7-417f-b88d-8ac7b81709ef","ios":"levelo://app?vid=1c2bb0ff-c8d7-417f-b88d-8ac7b81709ef"},"vehicle_type_id":"4","last_reported":1712081325,"current_range_meters":16000,"station_id":"ce4bgvp2rcd13ifvqcu0","pricing_plan_id":"cebpf4jnsgd1na2vs0mg"},{"bike_id":"9a3c9ba1-b14c-4ab9-b3b3-ff0cb9588538","system_id":"levelo_inurba_marseille","lat":43.291967,"lon":5.357883,"is_reserved":false,"is_disabled":false,"rental_uris":{"android":"levelo://app?vid=9a3c9ba1-b14c-4ab9-b3b3-ff0cb9588538","ios":"levelo://app?vid=9a3c9ba1-b14c-4ab9-b3b3-ff0cb9588538"},"vehicle_type_id":"4","last_reported":1712081325,"current_range_meters":4800,"station_id":"ce4bhb12rcd13ifvqel0","pricing_plan_id":"cebpf4jnsgd1na2vs0mg"},{"bike_id":"9b97d554-0b9d-4457-9de6-e14a11946d3a","system_id":"levelo_inurba_marseille","lat":43.313291,"lon":5.396838,"is_reserved":false,"is_disabled":false,"rental_uris":{"android":"levelo://app?vid=9b97d554-0b9d-4457-9de6-e14a11946d3a","ios":"levelo://app?vid=9b97d554-0b9d-4457-9de6-e14a11946d3a"},"vehicle_type_id":"4","last_reported":1712081325,"current_range_meters":10400,"station_id":"ce4bgvp2rcd13ifvqcu0","pricing_plan_id":"cebpf4jnsgd1na2vs0mg"},{"bike_id":"70d7563c-d941-4d20-a401-47cdec87e961","system_id":"levelo_inurba_marseille","lat":43.308947,"lon":5.396423,"is_reserved":false,"is_disabled":false,"rental_uris":{"android":"levelo://app?vid=70d7563c-d941-4d20-a401-47cdec87e961","ios":"levelo://app?vid=70d7563c-d941-4d20-a401-47cdec87e961"},"vehicle_type_id":"4","last_reported":1712081325,"current_range_meters":0,"station_id":"ce4bh012rcd13ifvqcv0","pricing_plan_id":"cebpf4jnsgd1na2vs0mg"},{"bike_id":"16a4daa8-3ffd-4432-a1f4-933f98d1438e","system_id":"levelo_inurba_marseille","lat":43.308884,"lon":5.396426,"is_reserved":false,"is_disabled":false,"rental_uris":{"android":"levelo://app?vid=16a4daa8-3ffd-4432-a1f4-933f98d1438e","ios":"levelo://app?vid=16a4daa8-3ffd-4432-a1f4-933f98d1438e"},"vehicle_type_id":"4","last_reported":1712081325,"current_range_meters":14800,"station_id":"ce4bh012rcd13ifvqcv0","pricing_plan_id":"cebpf4jnsgd1na2vs0mg"},{"bike_id":"e83b9e87-e538-4ba0-bf54-e84b66a5f15e","system_id":"levelo_inurba_marseille","lat":43.291994,"lon":5.357886,"is_reserved":false,"is_disabled":false,"rental_uris":{"android":"levelo://app?vid=e83b9e87-e538-4ba0-bf54-e84b66a5f15e","ios":"levelo://app?vid=e83b9e87-e538-4ba0-bf54-e84b66a5f15e"},"vehicle_type_id":"4","last_reported":1712081325,"current_range_meters":27200,"station_id":"ce4bhb12rcd13ifvqel0","pricing_plan_id":"cebpf4jnsgd1na2vs0mg"},{"bike_id":"1fd13ad8-e31b-4b92-9c5b-dfe29af3c346","system_id":"levelo_inurba_marseille","lat":43.313291,"lon":5.396838,"is_reserved":false,"is_disabled":false,"rental_uris":{"android":"levelo://app?vid=1fd13ad8-e31b-4b92-9c5b-dfe29af3c346","ios":"levelo://app?vid=1fd13ad8-e31b-4b92-9c5b-dfe29af3c346"},"vehicle_type_id":"4","last_reported":1712081325,"current_range_meters":18400,"station_id":"ce4bgvp2rcd13ifvqcu0","pricing_plan_id":"cebpf4jnsgd1na2vs0mg"},{"bike_id":"6bca1787-c433-4c04-84b1-98e43dfdd3d2","system_id":"levelo_inurba_marseille","lat":43.313291,"lon":5.396838,"is_reserved":false,"is_disabled":false,"rental_uris":{"android":"levelo://app?vid=6bca1787-c433-4c04-84b1-98e43dfdd3d2","ios":"levelo://app?vid=6bca1787-c433-4c04-84b1-98e43dfdd3d2"},"vehicle_type_id":"4","last_reported":1712081325,"current_range_meters":12400,"station_id":"ce4bgvp2rcd13ifvqcu0","pricing_plan_id":"cebpf4jnsgd1na2vs0mg"},{"bike_id":"8d7a2a89-69e0-49c2-8183-f74dbc9f4305","system_id":"levelo_inurba_marseille","lat":43.313291,"lon":5.396838,"is_reserved":false,"is_disabled":false,"rental_uris":{"android":"levelo://app?vid=8d7a2a89-69e0-49c2-8183-f74dbc9f4305","ios":"levelo://app?vid=8d7a2a89-69e0-49c2-8183-f74dbc9f4305"},"vehicle_type_id":"4","last_reported":1712081325,"current_range_meters":24000,"station_id":"ce4bgvp2rcd13ifvqcu0","pricing_plan_id":"cebpf4jnsgd1na2vs0mg"},{"bike_id":"f131713f-04a9-4c9d-b6ad-0b3fc6fab4b0","system_id":"levelo_inurba_marseille","lat":43.313291,"lon":5.396838,"is_reserved":false,"is_disabled":false,"rental_uris":{"android":"levelo://app?vid=f131713f-04a9-4c9d-b6ad-0b3fc6fab4b0","ios":"levelo://app?vid=f131713f-04a9-4c9d-b6ad-0b3fc6fab4b0"},"vehicle_type_id":"4","last_reported":1712081325,"current_range_meters":25200,"station_id":"ce4bgvp2rcd13ifvqcu0","pricing_plan_id":"cebpf4jnsgd1na2vs0mg"},{"bike_id":"19678103-1bc1-46f8-ae27-256c14c6a433","system_id":"levelo_inurba_marseille","lat":43.29192,"lon":5.3579,"is_reserved":false,"is_disabled":false,"rental_uris":{"android":"levelo://app?vid=19678103-1bc1-46f8-ae27-256c14c6a433","ios":"levelo://app?vid=19678103-1bc1-46f8-ae27-256c14c6a433"},"vehicle_type_id":"4","last_reported":1712081325,"current_range_meters":19600,"station_id":"ce4bhb12rcd13ifvqel0","pricing_plan_id":"cebpf4jnsgd1na2vs0mg"},{"bike_id":"d53d48bb-7626-4be9-9e2b-9a071262467d","system_id":"levelo_inurba_marseille","lat":43.31324,"lon":5.39694,"is_reserved":false,"is_disabled":false,"rental_uris":{"android":"levelo://app?vid=d53d48bb-7626-4be9-9e2b-9a071262467d","ios":"levelo://app?vid=d53d48bb-7626-4be9-9e2b-9a071262467d"},"vehicle_type_id":"4","last_reported":1712081325,"current_range_meters":18800,"station_id":"ce4bgvp2rcd13ifvqcu0","pricing_plan_id":"cebpf4jnsgd1na2vs0mg"},{"bike_id":"6975a647-121a-42ae-8ba7-8e23b9f17f17","system_id":"levelo_inurba_marseille","lat":43.313291,"lon":5.396838,"is_reserved":false,"is_disabled":false,"rental_uris":{"android":"levelo://app?vid=6975a647-121a-42ae-8ba7-8e23b9f17f17","ios":"levelo://app?vid=6975a647-121a-42ae-8ba7-8e23b9f17f17"},"vehicle_type_id":"4","last_reported":1712081325,"current_range_meters":30800,"station_id":"ce4bgvp2rcd13ifvqcu0","pricing_plan_id":"cebpf4jnsgd1na2vs0mg"},{"bike_id":"ae3435e1-c124-459a-a4f5-91df86b495a9","system_id":"levelo_inurba_marseille","lat":43.313291,"lon":5.396838,"is_reserved":false,"is_disabled":false,"rental_uris":{"android":"levelo://app?vid=ae3435e1-c124-459a-a4f5-91df86b495a9","ios":"levelo://app?vid=ae3435e1-c124-459a-a4f5-91df86b495a9"},"vehicle_type_id":"4","last_reported":1712081325,"current_range_meters":14400,"station_id":"ce4bgvp2rcd13ifvqcu0","pricing_plan_id":"cebpf4jnsgd1na2vs0mg"},{"bike_id":"01601a62-2d28-49d7-af3d-bee8efa2fb04","system_id":"levelo_inurba_marseille","lat":43.30891,"lon":5.39649,"is_reserved":false,"is_disabled":false,"rental_uris":{"android":"levelo://app?vid=01601a62-2d28-49d7-af3d-bee8efa2fb04","ios":"levelo://app?vid=01601a62-2d28-49d7-af3d-bee8efa2fb04"},"vehicle_type_id":"4","last_reported":1712081325,"current_range_meters":4800,"station_id":"ce4bh012rcd13ifvqcv0","pricing_plan_id":"cebpf4jnsgd1na2vs0mg"},{"bike_id":"69adbe86-fff3-43fb-93ce-a4a31bd91a42","system_id":"levelo_inurba_marseille","lat":43.310804,"lon":5.38359,"is_reserved":false,"is_disabled":false,"rental_uris":{"android":"levelo://app?vid=69adbe86-fff3-43fb-93ce-a4a31bd91a42","ios":"levelo://app?vid=69adbe86-fff3-43fb-93ce-a4a31bd91a42"},"vehicle_type_id":"4","last_reported":1712081325,"current_range_meters":25200,"station_id":"ce4bgv92rcd13ifvqcr0","pricing_plan_id":"cebpf4jnsgd1na2vs0mg"},{"bike_id":"4720acab-ba49-4257-90cd-05c452f06ab1","system_id":"levelo_inurba_marseille","lat":43.313291,"lon":5.396838,"is_reserved":false,"is_disabled":false,"rental_uris":{"android":"levelo://app?vid=4720acab-ba49-4257-90cd-05c452f06ab1","ios":"levelo://app?vid=4720acab-ba49-4257-90cd-05c452f06ab1"},"vehicle_type_id":"4","last_reported":1712081325,"current_range_meters":25600,"station_id":"ce4bgvp2rcd13ifvqcu0","pricing_plan_id":"cebpf4jnsgd1na2vs0mg"},{"bike_id":"ececb7a5-40cf-4cc8-ae9e-093e5952cb8f","system_id":"levelo_inurba_marseille","lat":43.313291,"lon":5.396838,"is_reserved":false,"is_disabled":false,"rental_uris":{"android":"levelo://app?vid=ececb7a5-40cf-4cc8-ae9e-093e5952cb8f","ios":"levelo://app?vid=ececb7a5-40cf-4cc8-ae9e-093e5952cb8f"},"vehicle_type_id":"4","last_reported":1712081325,"current_range_meters":31200,"station_id":"ce4bgvp2rcd13ifvqcu0","pricing_plan_id":"cebpf4jnsgd1na2vs0mg"},{"bike_id":"c262a2dc-25cd-42eb-882c-c30d72ab25f0","system_id":"levelo_inurba_marseille","lat":43.3089,"lon":5.39651,"is_reserved":false,"is_disabled":false,"rental_uris":{"android":"levelo://app?vid=c262a2dc-25cd-42eb-882c-c30d72ab25f0","ios":"levelo://app?vid=c262a2dc-25cd-42eb-882c-c30d72ab25f0"},"vehicle_type_id":"4","last_reported":1712081325,"current_range_meters":24400,"station_id":"ce4bh012rcd13ifvqcv0","pricing_plan_id":"cebpf4jnsgd1na2vs0mg"},{"bike_id":"5b28664a-7d76-41ba-b52f-2783544a572f","system_id":"levelo_inurba_marseille","lat":43.313291,"lon":5.396838,"is_reserved":false,"is_disabled":false,"rental_uris":{"android":"levelo://app?vid=5b28664a-7d76-41ba-b52f-2783544a572f","ios":"levelo://app?vid=5b28664a-7d76-41ba-b52f-2783544a572f"},"vehicle_type_id":"4","last_reported":1712081325,"current_range_meters":25200,"station_id":"ce4bgvp2rcd13ifvqcu0","pricing_plan_id":"cebpf4jnsgd1na2vs0mg"},{"bike_id":"027f70ff-55c0-49b8-b085-afc8aa0947c8","system_id":"levelo_inurba_marseille","lat":43.313291,"lon":5.396838,"is_reserved":false,"is_disabled":false,"rental_uris":{"android":"levelo://app?vid=027f70ff-55c0-49b8-b085-afc8aa0947c8","ios":"levelo://app?vid=027f70ff-55c0-49b8-b085-afc8aa0947c8"},"vehicle_type_id":"4","last_reported":1712081325,"current_range_meters":16800,"station_id":"ce4bgvp2rcd13ifvqcu0","pricing_plan_id":"cebpf4jnsgd1na2vs0mg"},{"bike_id":"99654399-76cf-4409-9468-ea259b648927","system_id":"levelo_inurba_marseille","lat":43.313291,"lon":5.396838,"is_reserved":false,"is_disabled":false,"rental_uris":{"android":"levelo://app?vid=99654399-76cf-4409-9468-ea259b648927","ios":"levelo://app?vid=99654399-76cf-4409-9468-ea259b648927"},"vehicle_type_id":"4","last_reported":1712081325,"current_range_meters":30000,"station_id":"ce4bgvp2rcd13ifvqcu0","pricing_plan_id":"cebpf4jnsgd1na2vs0mg"},{"bike_id":"53884061-11c8-433e-b5a4-53baeb63bec8","system_id":"levelo_inurba_marseille","lat":43.29529,"lon":5.385581,"is_reserved":false,"is_disabled":false,"rental_uris":{"android":"levelo://app?vid=53884061-11c8-433e-b5a4-53baeb63bec8","ios":"levelo://app?vid=53884061-11c8-433e-b5a4-53baeb63bec8"},"vehicle_type_id":"4","last_reported":1712081325,"current_range_meters":17600,"station_id":"ce4bgih2rcd13ifvqba0","pricing_plan_id":"cebpf4jnsgd1na2vs0mg"},{"bike_id":"ef08ee39-e11a-4bb6-91ed-b00875e07f8a","system_id":"levelo_inurba_marseille","lat":43.29529,"lon":5.385581,"is_reserved":false,"is_disabled":false,"rental_uris":{"android":"levelo://app?vid=ef08ee39-e11a-4bb6-91ed-b00875e07f8a","ios":"levelo://app?vid=ef08ee39-e11a-4bb6-91ed-b00875e07f8a"},"vehicle_type_id":"4","last_reported":1712081325,"current_range_meters":800,"station_id":"ce4bgih2rcd13ifvqba0","pricing_plan_id":"cebpf4jnsgd1na2vs0mg"},{"bike_id":"9e3528b7-5809-4441-bb56-cdceba43a3e2","system_id":"levelo_inurba_marseille","lat":43.29529,"lon":5.385581,"is_reserved":false,"is_disabled":false,"rental_uris":{"android":"levelo://app?vid=9e3528b7-5809-4441-bb56-cdceba43a3e2","ios":"levelo://app?vid=9e3528b7-5809-4441-bb56-cdceba43a3e2"},"vehicle_type_id":"4","last_reported":1712081325,"current_range_meters":8000,"station_id":"ce4bgih2rcd13ifvqba0","pricing_plan_id":"cebpf4jnsgd1na2vs0mg"},{"bike_id":"0f7ac20d-3a87-4225-a306-2ea88efdb467","system_id":"levelo_inurba_marseille","lat":43.29529,"lon":5.385581,"is_reserved":false,"is_disabled":false,"rental_uris":{"android":"levelo://app?vid=0f7ac20d-3a87-4225-a306-2ea88efdb467","ios":"levelo://app?vid=0f7ac20d-3a87-4225-a306-2ea88efdb467"},"vehicle_type_id":"4","last_reported":1712081325,"current_range_meters":0,"station_id":"ce4bgih2rcd13ifvqba0","pricing_plan_id":"cebpf4jnsgd1na2vs0mg"},{"bike_id":"bcb77f84-8b64-4742-9709-2b2a1346eec8","system_id":"levelo_inurba_marseille","lat":43.29529,"lon":5.385581,"is_reserved":false,"is_disabled":false,"rental_uris":{"android":"levelo://app?vid=bcb77f84-8b64-4742-9709-2b2a1346eec8","ios":"levelo://app?vid=bcb77f84-8b64-4742-9709-2b2a1346eec8"},"vehicle_type_id":"4","last_reported":1712081325,"current_range_meters":25600,"station_id":"ce4bgih2rcd13ifvqba0","pricing_plan_id":"cebpf4jnsgd1na2vs0mg"},{"bike_id":"65708818-c5dc-42a6-ba3b-5d575e1f5ded","system_id":"levelo_inurba_marseille","lat":43.29529,"lon":5.385581,"is_reserved":false,"is_disabled":false,"rental_uris":{"android":"levelo://app?vid=65708818-c5dc-42a6-ba3b-5d575e1f5ded","ios":"levelo://app?vid=65708818-c5dc-42a6-ba3b-5d575e1f5ded"},"vehicle_type_id":"4","last_reported":1712081325,"current_range_meters":24400,"station_id":"ce4bgih2rcd13ifvqba0","pricing_plan_id":"cebpf4jnsgd1na2vs0mg"},{"bike_id":"e2898edc-3b01-4a51-94bd-acb0cfd833aa","system_id":"levelo_inurba_marseille","lat":43.29529,"lon":5.385581,"is_reserved":false,"is_disabled":false,"rental_uris":{"android":"levelo://app?vid=e2898edc-3b01-4a51-94bd-acb0cfd833aa","ios":"levelo://app?vid=e2898edc-3b01-4a51-94bd-acb0cfd833aa"},"vehicle_type_id":"4","last_reported":1712081325,"current_range_meters":9200,"station_id":"ce4bgih2rcd13ifvqba0","pricing_plan_id":"cebpf4jnsgd1na2vs0mg"},{"bike_id":"980f8a14-baa9-451f-a511-0cb3f0b7bb9b","system_id":"levelo_inurba_marseille","lat":43.29531,"lon":5.3853,"is_reserved":false,"is_disabled":false,"rental_uris":{"android":"levelo://app?vid=980f8a14-baa9-451f-a511-0cb3f0b7bb9b","ios":"levelo://app?vid=980f8a14-baa9-451f-a511-0cb3f0b7bb9b"},"vehicle_type_id":"4","last_reported":1712081325,"current_range_meters":8400,"station_id":"ce4bgih2rcd13ifvqba0","pricing_plan_id":"cebpf4jnsgd1na2vs0mg"},{"bike_id":"4f21347a-342a-4a31-8661-244c2fb5ab44","system_id":"levelo_inurba_marseille","lat":43.29529,"lon":5.385581,"is_reserved":false,"is_disabled":false,"rental_uris":{"android":"levelo://app?vid=4f21347a-342a-4a31-8661-244c2fb5ab44","ios":"levelo://app?vid=4f21347a-342a-4a31-8661-244c2fb5ab44"},"vehicle_type_id":"4","last_reported":1712081325,"current_range_meters":21200,"station_id":"ce4bgih2rcd13ifvqba0","pricing_plan_id":"cebpf4jnsgd1na2vs0mg"},{"bike_id":"6ed46935-3475-4628-80a6-6d6bfe069ef0","system_id":"levelo_inurba_marseille","lat":43.29529,"lon":5.385581,"is_reserved":false,"is_disabled":false,"rental_uris":{"android":"levelo://app?vid=6ed46935-3475-4628-80a6-6d6bfe069ef0","ios":"levelo://app?vid=6ed46935-3475-4628-80a6-6d6bfe069ef0"},"vehicle_type_id":"4","last_reported":1712081325,"current_range_meters":18400,"station_id":"ce4bgih2rcd13ifvqba0","pricing_plan_id":"cebpf4jnsgd1na2vs0mg"},{"bike_id":"280d4615-3dca-454e-85e7-a4e2a22b8b5d","system_id":"levelo_inurba_marseille","lat":43.29529,"lon":5.385581,"is_reserved":false,"is_disabled":false,"rental_uris":{"android":"levelo://app?vid=280d4615-3dca-454e-85e7-a4e2a22b8b5d","ios":"levelo://app?vid=280d4615-3dca-454e-85e7-a4e2a22b8b5d"},"vehicle_type_id":"4","last_reported":1712081325,"current_range_meters":29600,"station_id":"ce4bgih2rcd13ifvqba0","pricing_plan_id":"cebpf4jnsgd1na2vs0mg"},{"bike_id":"aa421c0e-09b6-474a-acec-4dddd899c752","system_id":"levelo_inurba_marseille","lat":43.29529,"lon":5.385581,"is_reserved":false,"is_disabled":false,"rental_uris":{"android":"levelo://app?vid=aa421c0e-09b6-474a-acec-4dddd899c752","ios":"levelo://app?vid=aa421c0e-09b6-474a-acec-4dddd899c752"},"vehicle_type_id":"4","last_reported":1712081325,"current_range_meters":2800,"station_id":"ce4bgih2rcd13ifvqba0","pricing_plan_id":"cebpf4jnsgd1na2vs0mg"},{"bike_id":"a732e248-eb4c-4fab-8cc8-f2d0e1c9835b","system_id":"levelo_inurba_marseille","lat":43.295336,"lon":5.385475,"is_reserved":false,"is_disabled":false,"rental_uris":{"android":"levelo://app?vid=a732e248-eb4c-4fab-8cc8-f2d0e1c9835b","ios":"levelo://app?vid=a732e248-eb4c-4fab-8cc8-f2d0e1c9835b"},"vehicle_type_id":"4","last_reported":1712081325,"current_range_meters":0,"station_id":"ce4bgih2rcd13ifvqba0","pricing_plan_id":"cebpf4jnsgd1na2vs0mg"},{"bike_id":"65a4207f-9f07-42a0-bcc3-352a417ed400","system_id":"levelo_inurba_marseille","lat":43.29529,"lon":5.385581,"is_reserved":false,"is_disabled":false,"rental_uris":{"android":"levelo://app?vid=65a4207f-9f07-42a0-bcc3-352a417ed400","ios":"levelo://app?vid=65a4207f-9f07-42a0-bcc3-352a417ed400"},"vehicle_type_id":"4","last_reported":1712081325,"current_range_meters":29600,"station_id":"ce4bgih2rcd13ifvqba0","pricing_plan_id":"cebpf4jnsgd1na2vs0mg"},{"bike_id":"a47e2c6e-b48c-4d1e-8d4a-140a573b2ae2","system_id":"levelo_inurba_marseille","lat":43.29529,"lon":5.385581,"is_reserved":false,"is_disabled":false,"rental_uris":{"android":"levelo://app?vid=a47e2c6e-b48c-4d1e-8d4a-140a573b2ae2","ios":"levelo://app?vid=a47e2c6e-b48c-4d1e-8d4a-140a573b2ae2"},"vehicle_type_id":"4","last_reported":1712081325,"current_range_meters":23200,"station_id":"ce4bgih2rcd13ifvqba0","pricing_plan_id":"cebpf4jnsgd1na2vs0mg"},{"bike_id":"9cf417fc-3e42-4db8-a209-91b5de80b2d2","system_id":"levelo_inurba_marseille","lat":43.29529,"lon":5.385581,"is_reserved":false,"is_disabled":false,"rental_uris":{"android":"levelo://app?vid=9cf417fc-3e42-4db8-a209-91b5de80b2d2","ios":"levelo://app?vid=9cf417fc-3e42-4db8-a209-91b5de80b2d2"},"vehicle_type_id":"4","last_reported":1712081325,"current_range_meters":0,"station_id":"ce4bgih2rcd13ifvqba0","pricing_plan_id":"cebpf4jnsgd1na2vs0mg"},{"bike_id":"24b4628c-256a-43e9-8dad-71411019c406","system_id":"levelo_inurba_marseille","lat":43.29529,"lon":5.385581,"is_reserved":false,"is_disabled":false,"rental_uris":{"android":"levelo://app?vid=24b4628c-256a-43e9-8dad-71411019c406","ios":"levelo://app?vid=24b4628c-256a-43e9-8dad-71411019c406"},"vehicle_type_id":"4","last_reported":1712081325,"current_range_meters":0,"station_id":"ce4bgih2rcd13ifvqba0","pricing_plan_id":"cebpf4jnsgd1na2vs0mg"},{"bike_id":"200e1834-9c26-4ef8-98d2-bd1f391e2ecd","system_id":"levelo_inurba_marseille","lat":43.29527,"lon":5.38551,"is_reserved":false,"is_disabled":false,"rental_uris":{"android":"levelo://app?vid=200e1834-9c26-4ef8-98d2-bd1f391e2ecd","ios":"levelo://app?vid=200e1834-9c26-4ef8-98d2-bd1f391e2ecd"},"vehicle_type_id":"4","last_reported":1712081325,"current_range_meters":400,"station_id":"ce4bgih2rcd13ifvqba0","pricing_plan_id":"cebpf4jnsgd1na2vs0mg"},{"bike_id":"7206593a-6871-4ab8-9f94-2d1fcd0f0b19","system_id":"levelo_inurba_marseille","lat":43.290779,"lon":5.371482,"is_reserved":false,"is_disabled":false,"rental_uris":{"android":"levelo://app?vid=7206593a-6871-4ab8-9f94-2d1fcd0f0b19","ios":"levelo://app?vid=7206593a-6871-4ab8-9f94-2d1fcd0f0b19"},"vehicle_type_id":"4","last_reported":1712081325,"current_range_meters":14000,"station_id":"ce4bh5p2rcd13ifvqe4g","pricing_plan_id":"cebpf4jnsgd1na2vs0mg"},{"bike_id":"b2673165-f979-40ed-b40e-582d6f3477ef","system_id":"levelo_inurba_marseille","lat":43.290631,"lon":5.359244,"is_reserved":false,"is_disabled":false,"rental_uris":{"android":"levelo://app?vid=b2673165-f979-40ed-b40e-582d6f3477ef","ios":"levelo://app?vid=b2673165-f979-40ed-b40e-582d6f3477ef"},"vehicle_type_id":"4","last_reported":1712081325,"current_range_meters":25600,"station_id":"ce4bha92rcd13ifvqeg0","pricing_plan_id":"cebpf4jnsgd1na2vs0mg"},{"bike_id":"3d1b7d37-dc16-4e44-8d3c-eff05db30f77","system_id":"levelo_inurba_marseille","lat":43.302008,"lon":5.394694,"is_reserved":false,"is_disabled":false,"rental_uris":{"android":"levelo://app?vid=3d1b7d37-dc16-4e44-8d3c-eff05db30f77","ios":"levelo://app?vid=3d1b7d37-dc16-4e44-8d3c-eff05db30f77"},"vehicle_type_id":"4","last_reported":1712081325,"current_range_meters":20800,"station_id":"ce4bh0p2rcd13ifvqd70","pricing_plan_id":"cebpf4jnsgd1na2vs0mg"},{"bike_id":"272712ee-770c-41c2-8a13-80dff9055e82","system_id":"levelo_inurba_marseille","lat":43.302008,"lon":5.394694,"is_reserved":false,"is_disabled":false,"rental_uris":{"android":"levelo://app?vid=272712ee-770c-41c2-8a13-80dff9055e82","ios":"levelo://app?vid=272712ee-770c-41c2-8a13-80dff9055e82"},"vehicle_type_id":"4","last_reported":1712081325,"current_range_meters":0,"station_id":"ce4bh0p2rcd13ifvqd70","pricing_plan_id":"cebpf4jnsgd1na2vs0mg"},{"bike_id":"9780993a-9bc2-4e72-b223-dd91cdd444e0","system_id":"levelo_inurba_marseille","lat":43.302008,"lon":5.394694,"is_reserved":false,"is_disabled":false,"rental_uris":{"android":"levelo://app?vid=9780993a-9bc2-4e72-b223-dd91cdd444e0","ios":"levelo://app?vid=9780993a-9bc2-4e72-b223-dd91cdd444e0"},"vehicle_type_id":"4","last_reported":1712081325,"current_range_meters":1600,"station_id":"ce4bh0p2rcd13ifvqd70","pricing_plan_id":"cebpf4jnsgd1na2vs0mg"},{"bike_id":"d331fb61-adc0-459a-855d-1ef6fec16f40","system_id":"levelo_inurba_marseille","lat":43.30224,"lon":5.39471,"is_reserved":false,"is_disabled":false,"rental_uris":{"android":"levelo://app?vid=d331fb61-adc0-459a-855d-1ef6fec16f40","ios":"levelo://app?vid=d331fb61-adc0-459a-855d-1ef6fec16f40"},"vehicle_type_id":"4","last_reported":1712081325,"current_range_meters":5200,"station_id":"ce4bh0p2rcd13ifvqd70","pricing_plan_id":"cebpf4jnsgd1na2vs0mg"},{"bike_id":"1cd54c83-a520-4202-a453-b83cb9823d65","system_id":"levelo_inurba_marseille","lat":43.287154,"lon":5.399979,"is_reserved":false,"is_disabled":false,"rental_uris":{"android":"levelo://app?vid=1cd54c83-a520-4202-a453-b83cb9823d65","ios":"levelo://app?vid=1cd54c83-a520-4202-a453-b83cb9823d65"},"vehicle_type_id":"4","last_reported":1712081325,"current_range_meters":7200,"station_id":"ce4bho92rcd13ifvqh3g","pricing_plan_id":"cebpf4jnsgd1na2vs0mg"},{"bike_id":"867dbe54-c325-4055-8aba-93a01713ca99","system_id":"levelo_inurba_marseille","lat":43.302008,"lon":5.394694,"is_reserved":false,"is_disabled":false,"rental_uris":{"android":"levelo://app?vid=867dbe54-c325-4055-8aba-93a01713ca99","ios":"levelo://app?vid=867dbe54-c325-4055-8aba-93a01713ca99"},"vehicle_type_id":"4","last_reported":1712081325,"current_range_meters":5600,"station_id":"ce4bh0p2rcd13ifvqd70","pricing_plan_id":"cebpf4jnsgd1na2vs0mg"},{"bike_id":"a3b51a0a-ec32-4c47-aec0-0dbc3abf85f9","system_id":"levelo_inurba_marseille","lat":43.3021,"lon":5.39472,"is_reserved":false,"is_disabled":false,"rental_uris":{"android":"levelo://app?vid=a3b51a0a-ec32-4c47-aec0-0dbc3abf85f9","ios":"levelo://app?vid=a3b51a0a-ec32-4c47-aec0-0dbc3abf85f9"},"vehicle_type_id":"4","last_reported":1712081325,"current_range_meters":0,"station_id":"ce4bh0p2rcd13ifvqd70","pricing_plan_id":"cebpf4jnsgd1na2vs0mg"},{"bike_id":"b85b03fc-5329-40a4-8f9f-d043500fa713","system_id":"levelo_inurba_marseille","lat":43.290624,"lon":5.359245,"is_reserved":false,"is_disabled":false,"rental_uris":{"android":"levelo://app?vid=b85b03fc-5329-40a4-8f9f-d043500fa713","ios":"levelo://app?vid=b85b03fc-5329-40a4-8f9f-d043500fa713"},"vehicle_type_id":"4","last_reported":1712081325,"current_range_meters":2800,"station_id":"ce4bha92rcd13ifvqeg0","pricing_plan_id":"cebpf4jnsgd1na2vs0mg"},