{"last_updated":1739909413,"ttl":60,"version":"2.2","data":{"bikes":[{"bike_id":"d408fc91-e00e-46aa-8e18-5acdc62dba26","system_id":"levelo_inurba_marseille","lat":43.29432,"lon":5.38639,"is_reserved":false,"is_disabled":false,"rental_uris":{"android":"levelo://app?vid=d408fc91-e00e-46aa-8e18-5acdc62dba26","ios":"levelo://app?vid=d408fc91-e00e-46aa-8e18-5acdc62dba26"},"vehicle_type_id":"4","last_reported":1739909413,"current_range_meters":2800,"station_id":"","pricing_plan_id":"cebpf4jnsgd1na2vs0mg"},{"bike_id":"826e2f4e-c357-4615-a93b-8a01e91fc9b2","system_id":"levelo_inurba_marseille","lat":43.300504,"lon":5.389763,"is_reserved":false,"is_disabled":false,"rental_uris":{"android":"levelo://app?vid=826e2f4e-c357-4615-a93b-8a01e91fc9b2","ios":"levelo://app?vid=826e2f4e-c357-4615-a93b-8a01e91fc9b2"},"vehicle_type_id":"4","last_reported":1739909413,"current_range_meters":3600,"station_id":"ce4bh192rcd13ifvqdb0","pricing_plan_id":"cebpf4jnsgd1na2vs0mg"},{"bike_id":"66f46615-e165-41a2-afca-c41ccada620a","system_id":"levelo_inurba_marseille","lat":43.249962,"lon":5.389345,"is_reserved":false,"is_disabled":false,"rental_uris":{"android":"levelo://app?vid=66f46615-e165-41a2-afca-c41ccada620a","ios":"levelo://app?vid=66f46615-e165-41a2-afca-c41ccada620a"},"vehicle_type_id":"4","last_reported":1739909413,"current_range_meters":3600,"station_id":"ce4bhgp2rcd13ifvqfd0","pricing_plan_id":"cebpf4jnsgd1na2vs0mg"},{"bike_id":"261a8387-1a99-494f-9bbe-79d93316ad18","system_id":"levelo_inurba_marseille","lat":43.29527,"lon":5.38548,"is_reserved":false,"is_disabled":false,"rental_uris":{"android":"levelo://app?vid=261a8387-1a99-494f-9bbe-79d93316ad18","ios":"levelo://app?vid=261a8387-1a99-494f-9bbe-79d93316ad18"},"vehicle_type_id":"4","last_reported":1739909413,"current_range_meters":3600,"station_id":"","pricing_plan_id":"cebpf4jnsgd1na2vs0mg"},{"bike_id":"635050f9-a2c9-4910-8267-ff5a32e2982d","system_id":"levelo_inurba_marseille","lat":43.248073,"lon":5.374585,"is_reserved":false,"is_disabled":false,"rental_uris":{"android":"levelo://app?vid=635050f9-a2c9-4910-8267-ff5a32e2982d","ios":"levelo://app?vid=635050f9-a2c9-4910-8267-ff5a32e2982d"},"vehicle_type_id":"4","last_reported":1739909413,"current_range_meters":4000,"station_id":"","pricing_plan_id":"cebpf4jnsgd1na2vs0mg"},{"bike_id":"5936c3e1-9704-4bb5-b86e-59af9ae1d248","system_id":"levelo_inurba_marseille","lat":43.29701,"lon":5.36605,"is_reserved":false,"is_disabled":false,"rental_uris":{"android":"levelo://app?vid=5936c3e1-9704-4bb5-b86e-59af9ae1d248","ios":"levelo://app?vid=5936c3e1-9704-4bb5-b86e-59af9ae1d248"},"vehicle_type_id":"4","last_reported":1739909413,"current_range_meters":4400,"station_id":"ce4bgn12rcd13ifvqbt0","pricing_plan_id":"cebpf4jnsgd1na2vs0mg"},{"bike_id":"9da1a49f-de30-40db-a859-2e76c053be5f","system_id":"levelo_inurba_marseille","lat":43.3303,"lon":5.39031,"is_reserved":false,"is_disabled":false,"rental_uris":{"android":"levelo://app?vid=9da1a49f-de30-40db-a859-2e76c053be5f","ios":"levelo://app?vid=9da1a49f-de30-40db-a859-2e76c053be5f"},"vehicle_type_id":"4","last_reported":1739909413,"current_range_meters":4400,"station_id":"ce4bhr92rcd13ifvqhrg","pricing_plan_id":"cebpf4jnsgd1na2vs0mg"},{"bike_id":"2e5e89c3-0e0e-4cca-b25a-7707cb6d7c5d","system_id":"levelo_inurba_marseille","lat":43.27636,"lon":5.40854,"is_reserved":false,"is_disabled":false,"rental_uris":{"android":"levelo://app?vid=2e5e89c3-0e0e-4cca-b25a-7707cb6d7c5d","ios":"levelo://app?vid=2e5e89c3-0e0e-4cca-b25a-7707cb6d7c5d"},"vehicle_type_id":"4","last_reported":1739909413,"current_range_meters":4800,"station_id":"","pricing_plan_id":"cebpf4jnsgd1na2vs0mg"},{"bike_id":"a7f8b479-efb5-454d-8262-c96495774865","system_id":"levelo_inurba_marseille","lat":43.30481,"lon":5.37891,"is_reserved":false,"is_disabled":false,"rental_uris":{"android":"levelo://app?vid=a7f8b479-efb5-454d-8262-c96495774865","ios":"levelo://app?vid=a7f8b479-efb5-454d-8262-c96495774865"},"vehicle_type_id":"4","last_reported":1739909413,"current_range_meters":5600,"station_id":"ce4bgup2rcd13ifvqcn0","pricing_plan_id":"cebpf4jnsgd1na2vs0mg"},{"bike_id":"828f024f-3fa3-492e-b4f4-7bfb9d5e214d","system_id":"levelo_inurba_marseille","lat":43.27103,"lon":5.42267,"is_reserved":false,"is_disabled":true,"rental_uris":{"android":"levelo://app?vid=828f024f-3fa3-492e-b4f4-7bfb9d5e214d","ios":"levelo://app?vid=828f024f-3fa3-492e-b4f4-7bfb9d5e214d"},"vehicle_type_id":"4","last_reported":1739909413,"current_range_meters":5600,"station_id":"ce4bhk92rcd13ifvqgb0","pricing_plan_id":"cebpf4jnsgd1na2vs0mg"},{"bike_id":"7b85ab77-b4da-49c0-828e-288db2e9b9ca","system_id":"levelo_inurba_marseille","lat":43.27832,"lon":5.39206,"is_reserved":false,"is_disabled":false,"rental_uris":{"android":"levelo://app?vid=7b85ab77-b4da-49c0-828e-288db2e9b9ca","ios":"levelo://app?vid=7b85ab77-b4da-49c0-828e-288db2e9b9ca"},"vehicle_type_id":"4","last_reported":1739909413,"current_range_meters":6000,"station_id":"ce4bhjp2rcd13ifvqga0","pricing_plan_id":"cebpf4jnsgd1na2vs0mg"},{"bike_id":"f01003c3-ccaf-4174-9e78-e2a89367cac1","system_id":"levelo_inurba_marseille","lat":43.23179,"lon":5.39977,"is_reserved":false,"is_disabled":false,"rental_uris":{"android":"levelo://app?vid=f01003c3-ccaf-4174-9e78-e2a89367cac1","ios":"levelo://app?vid=f01003c3-ccaf-4174-9e78-e2a89367cac1"},"vehicle_type_id":"4","last_reported":1739909413,"current_range_meters":6000,"station_id":"ce4bhn12rcd13ifvqgqg","pricing_plan_id":"cebpf4jnsgd1na2vs0mg"},{"bike_id":"2fc51c18-93da-4c7a-ae54-30bc1bf5f64d","system_id":"levelo_inurba_marseille","lat":43.2951,"lon":5.38198,"is_reserved":false,"is_disabled":true,"rental_uris":{"android":"levelo://app?vid=2fc51c18-93da-4c7a-ae54-30bc1bf5f64d","ios":"levelo://app?vid=2fc51c18-93da-4c7a-ae54-30bc1bf5f64d"},"vehicle_type_id":"4","last_reported":1739909413,"current_range_meters":6000,"station_id":"","pricing_plan_id":"cebpf4jnsgd1na2vs0mg"},{"bike_id":"fb7d9980-5681-4df6-a268-2d4adff634e6","system_id":"levelo_inurba_marseille","lat":43.28999,"lon":5.35641,"is_reserved":false,"is_disabled":false,"rental_uris":{"android":"levelo://app?vid=fb7d9980-5681-4df6-a268-2d4adff634e6","ios":"levelo://app?vid=fb7d9980-5681-4df6-a268-2d4adff634e6"},"vehicle_type_id":"4","last_reported":1739909413,"current_range_meters":6400,"station_id":"ce4bhb92rcd13ifvqen0","pricing_plan_id":"cebpf4jnsgd1na2vs0mg"},{"bike_id":"25dcf690-db42-4694-9c97-37e209bee538","system_id":"levelo_inurba_marseille","lat":43.24649,"lon":5.3891,"is_reserved":false,"is_disabled":false,"rental_uris":{"android":"levelo://app?vid=25dcf690-db42-4694-9c97-37e209bee538","ios":"levelo://app?vid=25dcf690-db42-4694-9c97-37e209bee538"},"vehicle_type_id":"4","last_reported":1739909413,"current_range_meters":6400,"station_id":"ce4bhg12rcd13ifvqf60","pricing_plan_id":"cebpf4jnsgd1na2vs0mg"},{"bike_id":"811901b7-6a39-4b98-9209-f363e05c2482","system_id":"levelo_inurba_marseille","lat":43.28141,"lon":5.42638,"is_reserved":false,"is_disabled":false,"rental_uris":{"android":"levelo://app?vid=811901b7-6a39-4b98-9209-f363e05c2482","ios":"levelo://app?vid=811901b7-6a39-4b98-9209-f363e05c2482"},"vehicle_type_id":"4","last_reported":1739909413,"current_range_meters":6400,"station_id":"ce4bhnh2rcd13ifvqgug","pricing_plan_id":"cebpf4jnsgd1na2vs0mg"},{"bike_id":"b9ebc32d-df74-4f8e-b8d6-1d84d38cee60","system_id":"levelo_inurba_marseille","lat":43.23179,"lon":5.39989,"is_reserved":false,"is_disabled":false,"rental_uris":{"android":"levelo://app?vid=b9ebc32d-df74-4f8e-b8d6-1d84d38cee60","ios":"levelo://app?vid=b9ebc32d-df74-4f8e-b8d6-1d84d38cee60"},"vehicle_type_id":"4","last_reported":1739909413,"current_range_meters":6400,"station_id":"ce4bhn12rcd13ifvqgqg","pricing_plan_id":"cebpf4jnsgd1na2vs0mg"},{"bike_id":"709b8cf4-02bd-4f26-84b4-fef6bbbba5d3","system_id":"levelo_inurba_marseille","lat":43.23961,"lon":5.36637,"is_reserved":false,"is_disabled":false,"rental_uris":{"android":"levelo://app?vid=709b8cf4-02bd-4f26-84b4-fef6bbbba5d3","ios":"levelo://app?vid=709b8cf4-02bd-4f26-84b4-fef6bbbba5d3"},"vehicle_type_id":"4","last_reported":1739909413,"current_range_meters":6400,"station_id":"ce4bhi12rcd13ifvqfp0","pricing_plan_id":"cebpf4jnsgd1na2vs0mg"},{"bike_id":"c4797e87-3d5d-40bf-8650-e94d9038c53b","system_id":"levelo_inurba_marseille","lat":43.30151,"lon":5.39851,"is_reserved":false,"is_disabled":false,"rental_uris":{"android":"levelo://app?vid=c4797e87-3d5d-40bf-8650-e94d9038c53b","ios":"levelo://app?vid=c4797e87-3d5d-40bf-8650-e94d9038c53b"},"vehicle_type_id":"4","last_reported":1739909413,"current_range_meters":6400,"station_id":"ce4bh0h2rcd13ifvqd40","pricing_plan_id":"cebpf4jnsgd1na2vs0mg"},{"bike_id":"98dafedc-f25b-409d-b3e2-803b47ffb900","system_id":"levelo_inurba_marseille","lat":43.245,"lon":5.372373,"is_reserved":false,"is_disabled":false,"rental_uris":{"android":"levelo://app?vid=98dafedc-f25b-409d-b3e2-803b47ffb900","ios":"levelo://app?vid=98dafedc-f25b-409d-b3e2-803b47ffb900"},"vehicle_type_id":"4","last_reported":1739909413,"current_range_meters":6400,"station_id":"","pricing_plan_id":"cebpf4jnsgd1na2vs0mg"},{"bike_id":"d855430c-6af6-4afc-8621-8dac0152b130","system_id":"levelo_inurba_marseille","lat":43.29525,"lon":5.38531,"is_reserved":false,"is_disabled":false,"rental_uris":{"android":"levelo://app?vid=d855430c-6af6-4afc-8621-8dac0152b130","ios":"levelo://app?vid=d855430c-6af6-4afc-8621-8dac0152b130"},"vehicle_type_id":"4","last_reported":1739909413,"current_range_meters":6400,"station_id":"","pricing_plan_id":"cebpf4jnsgd1na2vs0mg"},{"bike_id":"9f9f2931-fe1f-4fb6-81fd-416d64bbe261","system_id":"levelo_inurba_marseille","lat":43.28728,"lon":5.36089,"is_reserved":false,"is_disabled":false,"rental_uris":{"android":"levelo://app?vid=9f9f2931-fe1f-4fb6-81fd-416d64bbe261","ios":"levelo://app?vid=9f9f2931-fe1f-4fb6-81fd-416d64bbe261"},"vehicle_type_id":"4","last_reported":1739909413,"current_range_meters":6800,"station_id":"cki0cbj6b192h4jlfktg","pricing_plan_id":"cebpf4jnsgd1na2vs0mg"},{"bike_id":"374b664b-c2e1-4c10-afc7-5129f330f782","system_id":"levelo_inurba_marseille","lat":43.32367,"lon":5.38894,"is_reserved":false,"is_disabled":false,"rental_uris":{"android":"levelo://app?vid=374b664b-c2e1-4c10-afc7-5129f330f782","ios":"levelo://app?vid=374b664b-c2e1-4c10-afc7-5129f330f782"},"vehicle_type_id":"4","last_reported":1739909413,"current_range_meters":6800,"station_id":"ce4bhqp2rcd13ifvqhog","pricing_plan_id":"cebpf4jnsgd1na2vs0mg"},{"bike_id":"6377d38d-dedd-4f79-bffe-3af1bc0eb3b5","system_id":"levelo_inurba_marseille","lat":43.28105,"lon":5.37847,"is_reserved":false,"is_disabled":false,"rental_uris":{"android":"levelo://app?vid=6377d38d-dedd-4f79-bffe-3af1bc0eb3b5","ios":"levelo://app?vid=6377d38d-dedd-4f79-bffe-3af1bc0eb3b5"},"vehicle_type_id":"4","last_reported":1739909413,"current_range_meters":6800,"station_id":"","pricing_plan_id":"cebpf4jnsgd1na2vs0mg"},{"bike_id":"f8d119ac-78e5-4208-9e87-7041b1483860","system_id":"levelo_inurba_marseille","lat":43.26231,"lon":5.37437,"is_reserved":false,"is_disabled":false,"rental_uris":{"android":"levelo://app?vid=f8d119ac-78e5-4208-9e87-7041b1483860","ios":"levelo://app?vid=f8d119ac-78e5-4208-9e87-7041b1483860"},"vehicle_type_id":"4","last_reported":1739909413,"current_range_meters":6800,"station_id":"ce4bhgp2rcd13ifvqfc0","pricing_plan_id":"cebpf4jnsgd1na2vs0mg"},{"bike_id":"694b54c7-8d24-48f1-a4af-747756a4e67d","system_id":"levelo_inurba_marseille","lat":43.3237,"lon":5.36766,"is_reserved":false,"is_disabled":false,"rental_uris":{"android":"levelo://app?vid=694b54c7-8d24-48f1-a4af-747756a4e67d","ios":"levelo://app?vid=694b54c7-8d24-48f1-a4af-747756a4e67d"},"vehicle_type_id":"4","last_reported":1739909413,"current_range_meters":6800,"station_id":"ce4bhsh2rcd13ifvqi2g","pricing_plan_id":"cebpf4jnsgd1na2vs0mg"},{"bike_id":"f4f02475-5e0b-4390-a91a-1da28d63fbd0","system_id":"levelo_inurba_marseille","lat":43.28711,"lon":5.37382,"is_reserved":false,"is_disabled":false,"rental_uris":{"android":"levelo://app?vid=f4f02475-5e0b-4390-a91a-1da28d63fbd0","ios":"levelo://app?vid=f4f02475-5e0b-4390-a91a-1da28d63fbd0"},"vehicle_type_id":"4","last_reported":1739909413,"current_range_meters":6800,"station_id":"ce4bh3p2rcd13ifvqdq0","pricing_plan_id":"cebpf4jnsgd1na2vs0mg"},{"bike_id":"f301f0ca-9a74-4b1b-95f5-7641143983d6","system_id":"levelo_inurba_marseille","lat":43.25083,"lon":5.39517,"is_reserved":false,"is_disabled":false,"rental_uris":{"android":"levelo://app?vid=f301f0ca-9a74-4b1b-95f5-7641143983d6","ios":"levelo://app?vid=f301f0ca-9a74-4b1b-95f5-7641143983d6"},"vehicle_type_id":"4","last_reported":1739909413,"current_range_meters":6800,"station_id":"ce4bhm12rcd13ifvqgkg","pricing_plan_id":"cebpf4jnsgd1na2vs0mg"},{"bike_id":"789b8238-999a-4c71-8eea-4744c023c8cd","system_id":"levelo_inurba_marseille","lat":43.29457,"lon":5.39753,"is_reserved":false,"is_disabled":false,"rental_uris":{"android":"levelo://app?vid=789b8238-999a-4c71-8eea-4744c023c8cd","ios":"levelo://app?vid=789b8238-999a-4c71-8eea-4744c023c8cd"},"vehicle_type_id":"4","last_reported":1739909413,"current_range_meters":7200,"station_id":"","pricing_plan_id":"cebpf4jnsgd1na2vs0mg"},{"bike_id":"65d3ff26-c73c-4ccd-9dcf-d41099c79b0b","system_id":"levelo_inurba_marseille","lat":43.30119,"lon":5.38777,"is_reserved":false,"is_disabled":false,"rental_uris":{"android":"levelo://app?vid=65d3ff26-c73c-4ccd-9dcf-d41099c79b0b","ios":"levelo://app?vid=65d3ff26-c73c-4ccd-9dcf-d41099c79b0b"},"vehicle_type_id":"4","last_reported":1739909413,"current_range_meters":7200,"station_id":"ce4bhoh2rcd13ifvqh6g","pricing_plan_id":"cebpf4jnsgd1na2vs0mg"},{"bike_id":"6528e792-6c2b-41ab-b102-37d30001a0e7","system_id":"levelo_inurba_marseille","lat":43.27239,"lon":5.40086,"is_reserved":false,"is_disabled":false,"rental_uris":{"android":"levelo://app?vid=6528e792-6c2b-41ab-b102-37d30001a0e7","ios":"levelo://app?vid=6528e792-6c2b-41ab-b102-37d30001a0e7"},"vehicle_type_id":"4","last_reported":1739909413,"current_range_meters":7200,"station_id":"","pricing_plan_id":"cebpf4jnsgd1na2vs0mg"},{"bike_id":"4fc2f0a0-089a-413c-ba46-bce652988aea","system_id":"levelo_inurba_marseille","lat":43.30136,"lon":5.38771,"is_reserved":false,"is_disabled":false,"rental_uris":{"android":"levelo://app?vid=4fc2f0a0-089a-413c-ba46-bce652988aea","ios":"levelo://app?vid=4fc2f0a0-089a-413c-ba46-bce652988aea"},"vehicle_type_id":"4","last_reported":1739909413,"current_range_meters":7200,"station_id":"ce4bhoh2rcd13ifvqh6g","pricing_plan_id":"cebpf4jnsgd1na2vs0mg"},{"bike_id":"eb90b7ee-d415-4cd1-8ee8-6c434ef07f2f","system_id":"levelo_inurba_marseille","lat":43.29173,"lon":5.37148,"is_reserved":false,"is_disabled":false,"rental_uris":{"android":"levelo://app?vid=eb90b7ee-d415-4cd1-8ee8-6c434ef07f2f","ios":"levelo://app?vid=eb90b7ee-d415-4cd1-8ee8-6c434ef07f2f"},"vehicle_type_id":"4","last_reported":1739909413,"current_range_meters":7200,"station_id":"ce4bha92rcd13ifvqeh0","pricing_plan_id":"cebpf4jnsgd1na2vs0mg"},{"bike_id":"e4927ac8-e191-4b29-ad1a-af2dbb4e0225","system_id":"levelo_inurba_marseille","lat":43.29532,"lon":5.38554,"is_reserved":false,"is_disabled":false,"rental_uris":{"android":"levelo://app?vid=e4927ac8-e191-4b29-ad1a-af2dbb4e0225","ios":"levelo://app?vid=e4927ac8-e191-4b29-ad1a-af2dbb4e0225"},"vehicle_type_id":"4","last_reported":1739909413,"current_range_meters":7200,"station_id":"","pricing_plan_id":"cebpf4jnsgd1na2vs0mg"},{"bike_id":"79fca65f-7726-4d8c-b178-da207c385007","system_id":"levelo_inurba_marseille","lat":43.27914,"lon":5.39575,"is_reserved":false,"is_disabled":false,"rental_uris":{"android":"levelo://app?vid=79fca65f-7726-4d8c-b178-da207c385007","ios":"levelo://app?vid=79fca65f-7726-4d8c-b178-da207c385007"},"vehicle_type_id":"4","last_reported":1739909413,"current_range_meters":7200,"station_id":"ce4bhf92rcd13ifvqf40","pricing_plan_id":"cebpf4jnsgd1na2vs0mg"},{"bike_id":"1a7db4a3-be4a-48e9-a2b6-8f927532c24f","system_id":"levelo_inurba_marseille","lat":43.26061,"lon":5.39395,"is_reserved":false,"is_disabled":false,"rental_uris":{"android":"levelo://app?vid=1a7db4a3-be4a-48e9-a2b6-8f927532c24f","ios":"levelo://app?vid=1a7db4a3-be4a-48e9-a2b6-8f927532c24f"},"vehicle_type_id":"4","last_reported":1739909413,"current_range_meters":7200,"station_id":"ce4bhh92rcd13ifvqfj0","pricing_plan_id":"cebpf4jnsgd1na2vs0mg"},{"bike_id":"020f9db3-6048-4a83-8c59-4acc533112c8","system_id":"levelo_inurba_marseille","lat":43.2815,"lon":5.42645,"is_reserved":false,"is_disabled":false,"rental_uris":{"android":"levelo://app?vid=020f9db3-6048-4a83-8c59-4acc533112c8","ios":"levelo://app?vid=020f9db3-6048-4a83-8c59-4acc533112c8"},"vehicle_type_id":"4","last_reported":1739909413,"current_range_meters":7200,"station_id":"ce4bhnh2rcd13ifvqgug","pricing_plan_id":"cebpf4jnsgd1na2vs0mg"},{"bike_id":"dc2583c0-b500-4494-85fd-da6fc368e56b","system_id":"levelo_inurba_marseille","lat":43.27826,"lon":5.39202,"is_reserved":false,"is_disabled":false,"rental_uris":{"android":"levelo://app?vid=dc2583c0-b500-4494-85fd-da6fc368e56b","ios":"levelo://app?vid=dc2583c0-b500-4494-85fd-da6fc368e56b"},"vehicle_type_id":"4","last_reported":1739909413,"current_range_meters":8000,"station_id":"ce4bhjp2rcd13ifvqga0","pricing_plan_id":"cebpf4jnsgd1na2vs0mg"},{"bike_id":"294909f9-749a-4875-ab3d-1423eeaef5da","system_id":"levelo_inurba_marseille","lat":43.29537,"lon":5.38549,"is_reserved":false,"is_disabled":false,"rental_uris":{"android":"levelo://app?vid=294909f9-749a-4875-ab3d-1423eeaef5da","ios":"levelo://app?vid=294909f9-749a-4875-ab3d-1423eeaef5da"},"vehicle_type_id":"4","last_reported":1739909413,"current_range_meters":8000,"station_id":"","pricing_plan_id":"cebpf4jnsgd1na2vs0mg"},{"bike_id":"e34dc701-144c-4e9a-8f13-ba13983b3a86","system_id":"levelo_inurba_marseille","lat":43.28726,"lon":5.36083,"is_reserved":false,"is_disabled":false,"rental_uris":{"android":"levelo://app?vid=e34dc701-144c-4e9a-8f13-ba13983b3a86","ios":"levelo://app?vid=e34dc701-144c-4e9a-8f13-ba13983b3a86"},"vehicle_type_id":"4","last_reported":1739909413,"current_range_meters":8000,"station_id":"cki0cbj6b192h4jlfktg","pricing_plan_id":"cebpf4jnsgd1na2vs0mg"},{"bike_id":"a080841c-ddb8-4df5-9fe4-ad088a163fe8","system_id":"levelo_inurba_marseille","lat":43.23335,"lon":5.40296,"is_reserved":false,"is_disabled":false,"rental_uris":{"android":"levelo://app?vid=a080841c-ddb8-4df5-9fe4-ad088a163fe8","ios":"levelo://app?vid=a080841c-ddb8-4df5-9fe4-ad088a163fe8"},"vehicle_type_id":"4","last_reported":1739909413,"current_range_meters":8400,"station_id":"ce4bho92rcd13ifvqh4g","pricing_plan_id":"cebpf4jnsgd1na2vs0mg"},{"bike_id":"4c28107f-0033-4d60-817f-631d2a47c57a","system_id":"levelo_inurba_marseille","lat":43.29417,"lon":5.38623,"is_reserved":false,"is_disabled":false,"rental_uris":{"android":"levelo://app?vid=4c28107f-0033-4d60-817f-631d2a47c57a","ios":"levelo://app?vid=4c28107f-0033-4d60-817f-631d2a47c57a"},"vehicle_type_id":"4","last_reported":1739909413,"current_range_meters":8400,"station_id":"ce4bh2h2rcd13ifvqdh0","pricing_plan_id":"cebpf4jnsgd1na2vs0mg"},{"bike_id":"f8d63dcd-fc20-4dfd-86f2-51f0073cb79f","system_id":"levelo_inurba_marseille","lat":43.3302,"lon":5.39037,"is_reserved":false,"is_disabled":false,"rental_uris":{"android":"levelo://app?vid=f8d63dcd-fc20-4dfd-86f2-51f0073cb79f","ios":"levelo://app?vid=f8d63dcd-fc20-4dfd-86f2-51f0073cb79f"},"vehicle_type_id":"4","last_reported":1739909413,"current_range_meters":8400,"station_id":"ce4bhr92rcd13ifvqhrg","pricing_plan_id":"cebpf4jnsgd1na2vs0mg"},{"bike_id":"03746526-254a-4087-980a-633e87b0db20","system_id":"levelo_inurba_marseille","lat":43.317,"lon":5.37753,"is_reserved":false,"is_disabled":false,"rental_uris":{"android":"levelo://app?vid=03746526-254a-4087-980a-633e87b0db20","ios":"levelo://app?vid=03746526-254a-4087-980a-633e87b0db20"},"vehicle_type_id":"4","last_reported":1739909413,"current_range_meters":8400,"station_id":"ce4bgth2rcd13ifvqch0","pricing_plan_id":"cebpf4jnsgd1na2vs0mg"},{"bike_id":"66bdaba1-8ea6-4d2c-ad9c-6d213bc14ad8","system_id":"levelo_inurba_marseille","lat":43.26202,"lon":5.3796,"is_reserved":false,"is_disabled":false,"rental_uris":{"android":"levelo://app?vid=66bdaba1-8ea6-4d2c-ad9c-6d213bc14ad8","ios":"levelo://app?vid=66bdaba1-8ea6-4d2c-ad9c-6d213bc14ad8"},"vehicle_type_id":"4","last_reported":1739909413,"current_range_meters":8400,"station_id":"ce4bhjp2rcd13ifvqg90","pricing_plan_id":"cebpf4jnsgd1na2vs0mg"},{"bike_id":"6bb7ac37-d16c-4a25-b6eb-1bf8ca1b78d5","system_id":"levelo_inurba_marseille","lat":43.32543,"lon":5.41455,"is_reserved":false,"is_disabled":false,"rental_uris":{"android":"levelo://app?vid=6bb7ac37-d16c-4a25-b6eb-1bf8ca1b78d5","ios":"levelo://app?vid=6bb7ac37-d16c-4a25-b6eb-1bf8ca1b78d5"},"vehicle_type_id":"4","last_reported":1739909413,"current_range_meters":8400,"station_id":"ce4bhq12rcd13ifvqhhg","pricing_plan_id":"cebpf4jnsgd1na2vs0mg"},{"bike_id":"02bd6b4b-4b48-49cb-a6be-ed4938041c16","system_id":"levelo_inurba_marseille","lat":43.28488,"lon":5.38544,"is_reserved":false,"is_disabled":false,"rental_uris":{"android":"levelo://app?vid=02bd6b4b-4b48-49cb-a6be-ed4938041c16","ios":"levelo://app?vid=02bd6b4b-4b48-49cb-a6be-ed4938041c16"},"vehicle_type_id":"4","last_reported":1739909413,"current_range_meters":8400,"station_id":"ce4bh8p2rcd13ifvqeb0","pricing_plan_id":"cebpf4jnsgd1na2vs0mg"},{"bike_id":"cf37804c-9172-4001-8bb0-46533d0d4bd5","system_id":"levelo_inurba_marseille","lat":43.29556,"lon":5.38546,"is_reserved":false,"is_disabled":false,"rental_uris":{"android":"levelo://app?vid=cf37804c-9172-4001-8bb0-46533d0d4bd5","ios":"levelo://app?vid=cf37804c-9172-4001-8bb0-46533d0d4bd5"},"vehicle_type_id":"4","last_reported":1739909413,"current_range_meters":8800,"station_id":"","pricing_plan_id":"cebpf4jnsgd1na2vs0mg"},{"bike_id":"429e7dfe-27b9-49ef-9877-fa6eb5a22963","system_id":"levelo_inurba_marseille","lat":43.28443,"lon":5.3921,"is_reserved":false,"is_disabled":false,"rental_uris":{"android":"levelo://app?vid=429e7dfe-27b9-49ef-9877-fa6eb5a22963","ios":"levelo://app?vid=429e7dfe-27b9-49ef-9877-fa6eb5a22963"},"vehicle_type_id":"4","last_reported":1739909413,"current_range_meters":8800,"station_id":"ce4bhoh2rcd13ifvqh5g","pricing_plan_id":"cebpf4jnsgd1na2vs0mg"},{"bike_id":"27fd485f-bbf7-4201-b67e-a88ecb63b92c","system_id":"levelo_inurba_marseille","lat":43.29039,"lon":5.39957,"is_reserved":false,"is_disabled":false,"rental_uris":{"android":"levelo://app?vid=27fd485f-bbf7-4201-b67e-a88ecb63b92c","ios":"levelo://app?vid=27fd485f-bbf7-4201-b67e-a88ecb63b92c"},"vehicle_type_id":"4","last_reported":1739909413,"current_range_meters":8800,"station_id":"ce4bh392rcd13ifvqdm0","pricing_plan_id":"cebpf4jnsgd1na2vs0mg"},{"bike_id":"6dd44ce3-321a-471c-8b94-9d502fb37fcf","system_id":"levelo_inurba_marseille","lat":43.28679,"lon":5.38673,"is_reserved":false,"is_disabled":false,"rental_uris":{"android":"levelo://app?vid=6dd44ce3-321a-471c-8b94-9d502fb37fcf","ios":"levelo://app?vid=6dd44ce3-321a-471c-8b94-9d502fb37fcf"},"vehicle_type_id":"4","last_reported":1739909413,"current_range_meters":8800,"station_id":"","pricing_plan_id":"cebpf4jnsgd1na2vs0mg"},{"bike_id":"be88f07f-24f7-4cfd-bc54-410ec51ae323","system_id":"levelo_inurba_marseille","lat":43.26068,"lon":5.39407,"is_reserved":false,"is_disabled":false,"rental_uris":{"android":"levelo://app?vid=be88f07f-24f7-4cfd-bc54-410ec51ae323","ios":"levelo://app?vid=be88f07f-24f7-4cfd-bc54-410ec51ae323"},"vehicle_type_id":"4","last_reported":1739909413,"current_range_meters":8800,"station_id":"ce4bhh92rcd13ifvqfj0","pricing_plan_id":"cebpf4jnsgd1na2vs0mg"},{"bike_id":"6436a366-7865-49ec-a9a2-d4b8e372d7c3","system_id":"levelo_inurba_marseille","lat":43.276245,"lon":5.361111,"is_reserved":false,"is_disabled":false,"rental_uris":{"android":"levelo://app?vid=6436a366-7865-49ec-a9a2-d4b8e372d7c3","ios":"levelo://app?vid=6436a366-7865-49ec-a9a2-d4b8e372d7c3"},"vehicle_type_id":"4","last_reported":1739909413,"current_range_meters":9200,"station_id":"ce4bha12rcd13ifvqef0","pricing_plan_id":"cebpf4jnsgd1na2vs0mg"},{"bike_id":"12b33330-5dcb-4644-8a5c-3a95dc32ce98","system_id":"levelo_inurba_marseille","lat":43.28141,"lon":5.4266,"is_reserved":false,"is_disabled":false,"rental_uris":{"android":"levelo://app?vid=12b33330-5dcb-4644-8a5c-3a95dc32ce98","ios":"levelo://app?vid=12b33330-5dcb-4644-8a5c-3a95dc32ce98"},"vehicle_type_id":"4","last_reported":1739909413,"current_range_meters":9200,"station_id":"ce4bhnh2rcd13ifvqgug","pricing_plan_id":"cebpf4jnsgd1na2vs0mg"},{"bike_id":"3550346a-de41-42f8-b0b3-15cc5f7f05f7","system_id":"levelo_inurba_marseille","lat":43.30076,"lon":5.38701,"is_reserved":false,"is_disabled":false,"rental_uris":{"android":"levelo://app?vid=3550346a-de41-42f8-b0b3-15cc5f7f05f7","ios":"levelo://app?vid=3550346a-de41-42f8-b0b3-15cc5f7f05f7"},"vehicle_type_id":"4","last_reported":1739909413,"current_range_meters":9200,"station_id":"ce4bghh2rcd13ifvqb60","pricing_plan_id":"cebpf4jnsgd1na2vs0mg"},{"bike_id":"01182441-7724-4ecc-a723-6d865f5cf255","system_id":"levelo_inurba_marseille","lat":43.2991,"lon":5.38148,"is_reserved":false,"is_disabled":false,"rental_uris":{"android":"levelo://app?vid=01182441-7724-4ecc-a723-6d865f5cf255","ios":"levelo://app?vid=01182441-7724-4ecc-a723-6d865f5cf255"},"vehicle_type_id":"4","last_reported":1739909413,"current_range_meters":9200,"station_id":"ce4bgj12rcd13ifvqbc0","pricing_plan_id":"cebpf4jnsgd1na2vs0mg"},{"bike_id":"7498add2-6306-4086-af08-cf290b4c7a05","system_id":"levelo_inurba_marseille","lat":43.29267,"lon":5.38454,"is_reserved":false,"is_disabled":false,"rental_uris":{"android":"levelo://app?vid=7498add2-6306-4086-af08-cf290b4c7a05","ios":"levelo://app?vid=7498add2-6306-4086-af08-cf290b4c7a05"},"vehicle_type_id":"4","last_reported":1739909413,"current_range_meters":9200,"station_id":"ce4bh692rcd13ifvqea0","pricing_plan_id":"cebpf4jnsgd1na2vs0mg"},{"bike_id":"603829f6-1bd6-420a-b866-4544fcbffbce","system_id":"levelo_inurba_marseille","lat":43.24804,"lon":5.37452,"is_reserved":false,"is_disabled":false,"rental_uris":{"android":"levelo://app?vid=603829f6-1bd6-420a-b866-4544fcbffbce","ios":"levelo://app?vid=603829f6-1bd6-420a-b866-4544fcbffbce"},"vehicle_type_id":"4","last_reported":1739909413,"current_range_meters":9200,"station_id":"ce4bhgh2rcd13ifvqfb0","pricing_plan_id":"cebpf4jnsgd1na2vs0mg"},{"bike_id":"85609954-3544-4e67-b4ab-f540dcb150e2","system_id":"levelo_inurba_marseille","lat":43.27912,"lon":5.37997,"is_reserved":false,"is_disabled":false,"rental_uris":{"android":"levelo://app?vid=85609954-3544-4e67-b4ab-f540dcb150e2","ios":"levelo://app?vid=85609954-3544-4e67-b4ab-f540dcb150e2"},"vehicle_type_id":"4","last_reported":1739909413,"current_range_meters":9200,"station_id":"ce4bhf92rcd13ifvqf50","pricing_plan_id":"cebpf4jnsgd1na2vs0mg"},{"bike_id":"41ba9a6f-6bc7-4827-966b-bb6239f18d1b","system_id":"levelo_inurba_marseille","lat":43.29878,"lon":5.38919,"is_reserved":false,"is_disabled":false,"rental_uris":{"android":"levelo://app?vid=41ba9a6f-6bc7-4827-966b-bb6239f18d1b","ios":"levelo://app?vid=41ba9a6f-6bc7-4827-966b-bb6239f18d1b"},"vehicle_type_id":"4","last_reported":1739909413,"current_range_meters":9200,"station_id":"ce4bh392rcd13ifvqdl0","pricing_plan_id":"cebpf4jnsgd1na2vs0mg"},{"bike_id":"8072f034-69d4-48c5-b234-451357393f04","system_id":"levelo_inurba_marseille","lat":43.23961,"lon":5.36632,"is_reserved":false,"is_disabled":false,"rental_uris":{"android":"levelo://app?vid=8072f034-69d4-48c5-b234-451357393f04","ios":"levelo://app?vid=8072f034-69d4-48c5-b234-451357393f04"},"vehicle_type_id":"4","last_reported":1739909413,"current_range_meters":9600,"station_id":"ce4bhi12rcd13ifvqfp0","pricing_plan_id":"cebpf4jnsgd1na2vs0mg"},{"bike_id":"f5a7abcc-f6fb-4888-9484-dd0e57f220b4","system_id":"levelo_inurba_marseille","lat":43.29509,"lon":5.39402,"is_reserved":false,"is_disabled":false,"rental_uris":{"android":"levelo://app?vid=f5a7abcc-f6fb-4888-9484-dd0e57f220b4","ios":"levelo://app?vid=f5a7abcc-f6fb-4888-9484-dd0e57f220b4"},"vehicle_type_id":"4","last_reported":1739909413,"current_range_meters":9600,"station_id":"","pricing_plan_id":"cebpf4jnsgd1na2vs0mg"},{"bike_id":"0ddd8de4-1fa2-44a4-910e-01dbc6c0ee46","system_id":"levelo_inurba_marseille","lat":43.29606,"lon":5.37707,"is_reserved":false,"is_disabled":true,"rental_uris":{"android":"levelo://app?vid=0ddd8de4-1fa2-44a4-910e-01dbc6c0ee46","ios":"levelo://app?vid=0ddd8de4-1fa2-44a4-910e-01dbc6c0ee46"},"vehicle_type_id":"4","last_reported":1739909413,"current_range_meters":9600,"station_id":"","pricing_plan_id":"cebpf4jnsgd1na2vs0mg"},{"bike_id":"e605dea0-84a5-4395-b86a-134e39164b56","system_id":"levelo_inurba_marseille","lat":43.28632,"lon":5.35084,"is_reserved":false,"is_disabled":false,"rental_uris":{"android":"levelo://app?vid=e605dea0-84a5-4395-b86a-134e39164b56","ios":"levelo://app?vid=e605dea0-84a5-4395-b86a-134e39164b56"},"vehicle_type_id":"4","last_reported":1739909413,"current_range_meters":9600,"station_id":"ce4bhch2rcd13ifvqeug","pricing_plan_id":"cebpf4jnsgd1na2vs0mg"},{"bike_id":"c9071df5-5664-4a5e-b1b2-1df958a7db03","system_id":"levelo_inurba_marseille","lat":43.23947,"lon":5.3667,"is_reserved":false,"is_disabled":false,"rental_uris":{"android":"levelo://app?vid=c9071df5-5664-4a5e-b1b2-1df958a7db03","ios":"levelo://app?vid=c9071df5-5664-4a5e-b1b2-1df958a7db03"},"vehicle_type_id":"4","last_reported":1739909413,"current_range_meters":9600,"station_id":"ce4bhi12rcd13ifvqfp0","pricing_plan_id":"cebpf4jnsgd1na2vs0mg"},{"bike_id":"4549780a-bd41-4776-b580-439be41aac05","system_id":"levelo_inurba_marseille","lat":43.29258,"lon":5.38443,"is_reserved":false,"is_disabled":false,"rental_uris":{"android":"levelo://app?vid=4549780a-bd41-4776-b580-439be41aac05","ios":"levelo://app?vid=4549780a-bd41-4776-b580-439be41aac05"},"vehicle_type_id":"4","last_reported":1739909413,"current_range_meters":9600,"station_id":"","pricing_plan_id":"cebpf4jnsgd1na2vs0mg"},{"bike_id":"70dee217-670e-40d7-b959-7dcdfca9f445","system_id":"levelo_inurba_marseille","lat":43.24809,"lon":5.37453,"is_reserved":false,"is_disabled":false,"rental_uris":{"android":"levelo://app?vid=70dee217-670e-40d7-b959-7dcdfca9f445","ios":"levelo://app?vid=70dee217-670e-40d7-b959-7dcdfca9f445"},"vehicle_type_id":"4","last_reported":1739909413,"current_range_meters":9600,"station_id":"ce4bhgh2rcd13ifvqfb0","pricing_plan_id":"cebpf4jnsgd1na2vs0mg"},{"bike_id":"5ae0012d-6179-440f-a02a-a607c9208eb9","system_id":"levelo_inurba_marseille","lat":43.24669,"lon":5.38147,"is_reserved":false,"is_disabled":false,"rental_uris":{"android":"levelo://app?vid=5ae0012d-6179-440f-a02a-a607c9208eb9","ios":"levelo://app?vid=5ae0012d-6179-440f-a02a-a607c9208eb9"},"vehicle_type_id":"4","last_reported":1739909413,"current_range_meters":9600,"station_id":"ce4bhih2rcd13ifvqfr0","pricing_plan_id":"cebpf4jnsgd1na2vs0mg"},{"bike_id":"c21214b8-4e24-4e4f-a69f-672307e7c6ff","system_id":"levelo_inurba_marseille","lat":43.28158,"lon":5.42637,"is_reserved":false,"is_disabled":false,"rental_uris":{"android":"levelo://app?vid=c21214b8-4e24-4e4f-a69f-672307e7c6ff","ios":"levelo://app?vid=c21214b8-4e24-4e4f-a69f-672307e7c6ff"},"vehicle_type_id":"4","last_reported":1739909413,"current_range_meters":9600,"station_id":"","pricing_plan_id":"cebpf4jnsgd1na2vs0mg"},{"bike_id":"9fa5df0a-f830-43da-9451-c0d91bf9686b","system_id":"levelo_inurba_marseille","lat":43.2816,"lon":5.42628,"is_reserved":false,"is_disabled":false,"rental_uris":{"android":"levelo://app?vid=9fa5df0a-f830-43da-9451-c0d91bf9686b","ios":"levelo://app?vid=9fa5df0a-f830-43da-9451-c0d91bf9686b"},"vehicle_type_id":"4","last_reported":1739909413,"current_range_meters":9600,"station_id":"","pricing_plan_id":"cebpf4jnsgd1na2vs0mg"},{"bike_id":"3ab4ecca-a7d0-4e14-9e63-eca0d3b35304","system_id":"levelo_inurba_marseille","lat":43.3052,"lon":5.38327,"is_reserved":false,"is_disabled":false,"rental_uris":{"android":"levelo://app?vid=3ab4ecca-a7d0-4e14-9e63-eca0d3b35304","ios":"levelo://app?vid=3ab4ecca-a7d0-4e14-9e63-eca0d3b35304"},"vehicle_type_id":"4","last_reported":1739909413,"current_range_meters":9600,"station_id":"","pricing_plan_id":"cebpf4jnsgd1na2vs0mg"},{"bike_id":"fe7778d2-cf96-46a1-a7c4-e0e46baaf50e","system_id":"levelo_inurba_marseille","lat":43.2894,"lon":5.38379,"is_reserved":false,"is_disabled":false,"rental_uris":{"android":"levelo://app?vid=fe7778d2-cf96-46a1-a7c4-e0e46baaf50e","ios":"levelo://app?vid=fe7778d2-cf96-46a1-a7c4-e0e46baaf50e"},"vehicle_type_id":"4","last_reported":1739909413,"current_range_meters":9600,"station_id":"ce4bh612rcd13ifvqe6g","pricing_plan_id":"cebpf4jnsgd1na2vs0mg"},{"bike_id":"ee24b87f-297d-417d-998d-e914f6e68dfc","system_id":"levelo_inurba_marseille","lat":43.29216,"lon":5.39316,"is_reserved":false,"is_disabled":false,"rental_uris":{"android":"levelo://app?vid=ee24b87f-297d-417d-998d-e914f6e68dfc","ios":"levelo://app?vid=ee24b87f-297d-417d-998d-e914f6e68dfc"},"vehicle_type_id":"4","last_reported":1739909413,"current_range_meters":9600,"station_id":"ce4bh192rcd13ifvqdd0","pricing_plan_id":"cebpf4jnsgd1na2vs0mg"},{"bike_id":"fc9896ce-1f52-403c-86a7-1678079c9523","system_id":"levelo_inurba_marseille","lat":43.28361,"lon":5.44306,"is_reserved":false,"is_disabled":false,"rental_uris":{"android":"levelo://app?vid=fc9896ce-1f52-403c-86a7-1678079c9523","ios":"levelo://app?vid=fc9896ce-1f52-403c-86a7-1678079c9523"},"vehicle_type_id":"4","last_reported":1739909413,"current_range_meters":9600,"station_id":"","pricing_plan_id":"cebpf4jnsgd1na2vs0mg"},{"bike_id":"34b79538-563c-4f72-b17c-52058039c5bb","system_id":"levelo_inurba_marseille","lat":43.29257,"lon":5.3844,"is_reserved":false,"is_disabled":false,"rental_uris":{"android":"levelo://app?vid=34b79538-563c-4f72-b17c-52058039c5bb","ios":"levelo://app?vid=34b79538-563c-4f72-b17c-52058039c5bb"},"vehicle_type_id":"4","last_reported":1739909413,"current_range_meters":9600,"station_id":"","pricing_plan_id":"cebpf4jnsgd1na2vs0mg"},{"bike_id":"07460ddc-72b2-47b9-ae7a-e7f9041dd312","system_id":"levelo_inurba_marseille","lat":43.23964,"lon":5.36623,"is_reserved":false,"is_disabled":false,"rental_uris":{"android":"levelo://app?vid=07460ddc-72b2-47b9-ae7a-e7f9041dd312","ios":"levelo://app?vid=07460ddc-72b2-47b9-ae7a-e7f9041dd312"},"vehicle_type_id":"4","last_reported":1739909413,"current_range_meters":10000,"station_id":"","pricing_plan_id":"cebpf4jnsgd1na2vs0mg"},{"bike_id":"a85165fb-7fdb-4cc1-ae98-ce974cfd16ca","system_id":"levelo_inurba_marseille","lat":43.23195,"lon":5.39982,"is_reserved":false,"is_disabled":false,"rental_uris":{"android":"levelo://app?vid=a85165fb-7fdb-4cc1-ae98-ce974cfd16ca","ios":"levelo://app?vid=a85165fb-7fdb-4cc1-ae98-ce974cfd16ca"},"vehicle_type_id":"4","last_reported":1739909413,"current_range_meters":10000,"station_id":"ce4bhn12rcd13ifvqgqg","pricing_plan_id":"cebpf4jnsgd1na2vs0mg"},{"bike_id":"ef296548-6234-4d2a-a4ab-67c6b078c084","system_id":"levelo_inurba_marseille","lat":43.28406,"lon":5.37499,"is_reserved":false,"is_disabled":false,"rental_uris":{"android":"levelo://app?vid=ef296548-6234-4d2a-a4ab-67c6b078c084","ios":"levelo://app?vid=ef296548-6234-4d2a-a4ab-67c6b078c084"},"vehicle_type_id":"4","last_reported":1739909413,"current_range_meters":10000,"station_id":"ce4bh412rcd13ifvqds0","pricing_plan_id":"cebpf4jnsgd1na2vs0mg"},{"bike_id":"a466fd6e-d0ab-4305-ad59-6536e5f8dd24","system_id":"levelo_inurba_marseille","lat":43.30931,"lon":5.40143,"is_reserved":false,"is_disabled":false,"rental_uris":{"android":"levelo://app?vid=a466fd6e-d0ab-4305-ad59-6536e5f8dd24","ios":"levelo://app?vid=a466fd6e-d0ab-4305-ad59-6536e5f8dd24"},"vehicle_type_id":"4","last_reported":1739909413,"current_range_meters":10000,"station_id":"ce4bgvp2rcd13ifvqct0","pricing_plan_id":"cebpf4jnsgd1na2vs0mg"},{"bike_id":"69c01330-2370-4c51-aab8-4c4c2f96593c","system_id":"levelo_inurba_marseille","lat":43.24812,"lon":5.37458,"is_reserved":false,"is_disabled":false,"rental_uris":{"android":"levelo://app?vid=69c01330-2370-4c51-aab8-4c4c2f96593c","ios":"levelo://app?vid=69c01330-2370-4c51-aab8-4c4c2f96593c"},"vehicle_type_id":"4","last_reported":1739909413,"current_range_meters":10000,"station_id":"","pricing_plan_id":"cebpf4jnsgd1na2vs0mg"},{"bike_id":"cb8372d6-bad2-4555-89ad-5b495afb0b59","system_id":"levelo_inurba_marseille","lat":43.24822,"lon":5.37459,"is_reserved":false,"is_disabled":false,"rental_uris":{"android":"levelo://app?vid=cb8372d6-bad2-4555-89ad-5b495afb0b59","ios":"levelo://app?vid=cb8372d6-bad2-4555-89ad-5b495afb0b59"},"vehicle_type_id":"4","last_reported":1739909413,"current_range_meters":10000,"station_id":"ce4bhgh2rcd13ifvqfb0","pricing_plan_id":"cebpf4jnsgd1na2vs0mg"},{"bike_id":"150d470b-8649-4d00-b7ab-12e70df09d60","system_id":"levelo_inurba_marseille","lat":43.27956,"lon":5.41058,"is_reserved":false,"is_disabled":false,"rental_uris":{"android":"levelo://app?vid=150d470b-8649-4d00-b7ab-12e70df09d60","ios":"levelo://app?vid=150d470b-8649-4d00-b7ab-12e70df09d60"},"vehicle_type_id":"4","last_reported":1739909413,"current_range_meters":10000,"station_id":"ce4bhnp2rcd13ifvqh0g","pricing_plan_id":"cebpf4jnsgd1na2vs0mg"},{"bike_id":"8820331a-ca9f-4cd4-8d8c-b4c7da8425ef","system_id":"levelo_inurba_marseille","lat":43.2804,"lon":5.36948,"is_reserved":false,"is_disabled":false,"rental_uris":{"android":"levelo://app?vid=8820331a-ca9f-4cd4-8d8c-b4c7da8425ef","ios":"levelo://app?vid=8820331a-ca9f-4cd4-8d8c-b4c7da8425ef"},"vehicle_type_id":"4","last_reported":1739909413,"current_range_meters":10800,"station_id":"ce4bha12rcd13ifvqef0","pricing_plan_id":"cebpf4jnsgd1na2vs0mg"},{"bike_id":"3f5c0cbe-76cb-46f9-8009-cb568b808f59","system_id":"levelo_inurba_marseille","lat":43.29182,"lon":5.40814,"is_reserved":false,"is_disabled":false,"rental_uris":{"android":"levelo://app?vid=3f5c0cbe-76cb-46f9-8009-cb568b808f59","ios":"levelo://app?vid=3f5c0cbe-76cb-46f9-8009-cb568b808f59"},"vehicle_type_id":"4","last_reported":1739909413,"current_range_meters":10800,"station_id":"","pricing_plan_id":"cebpf4jnsgd1na2vs0mg"},{"bike_id":"18368891-0c3a-4202-aa26-0c46fc585663","system_id":"levelo_inurba_marseille","lat":43.23971,"lon":5.36626,"is_reserved":false,"is_disabled":false,"rental_uris":{"android":"levelo://app?vid=18368891-0c3a-4202-aa26-0c46fc585663","ios":"levelo://app?vid=18368891-0c3a-4202-aa26-0c46fc585663"},"vehicle_type_id":"4","last_reported":1739909413,"current_range_meters":10800,"station_id":"ce4bhi12rcd13ifvqfp0","pricing_plan_id":"cebpf4jnsgd1na2vs0mg"},{"bike_id":"10f8da56-b982-4af7-a78a-0fa9c8b1a438","system_id":"levelo_inurba_marseille","lat":43.31888,"lon":5.4074,"is_reserved":false,"is_disabled":false,"rental_uris":{"android":"levelo://app?vid=10f8da56-b982-4af7-a78a-0fa9c8b1a438","ios":"levelo://app?vid=10f8da56-b982-4af7-a78a-0fa9c8b1a438"},"vehicle_type_id":"4","last_reported":1739909413,"current_range_meters":10800,"station_id":"ce4bhq12rcd13ifvqhig","pricing_plan_id":"cebpf4jnsgd1na2vs0mg"},{"bike_id":"27d281e4-ae2c-4d0a-b5af-b1a6c9a261f7","system_id":"levelo_inurba_marseille","lat":43.31701,"lon":5.3778,"is_reserved":false,"is_disabled":true,"rental_uris":{"android":"levelo://app?vid=27d281e4-ae2c-4d0a-b5af-b1a6c9a261f7","ios":"levelo://app?vid=27d281e4-ae2c-4d0a-b5af-b1a6c9a261f7"},"vehicle_type_id":"4","last_reported":1739909413,"current_range_meters":10800,"station_id":"ce4bgth2rcd13ifvqch0","pricing_plan_id":"cebpf4jnsgd1na2vs0mg"},{"bike_id":"0563389e-d2fb-4cf7-b867-f187226876ea","system_id":"levelo_inurba_marseille","lat":43.29021,"lon":5.38134,"is_reserved":false,"is_disabled":true,"rental_uris":{"android":"levelo://app?vid=0563389e-d2fb-4cf7-b867-f187226876ea","ios":"levelo://app?vid=0563389e-d2fb-4cf7-b867-f187226876ea"},"vehicle_type_id":"4","last_reported":1739909413,"current_range_meters":10800,"station_id":"ce4bh4p2rcd13ifvqe1g","pricing_plan_id":"cebpf4jnsgd1na2vs0mg"},{"bike_id":"28d29371-58ca-4507-ba2d-658dd91ae2d3","system_id":"levelo_inurba_marseille","lat":43.25587,"lon":5.38234,"is_reserved":false,"is_disabled":false,"rental_uris":{"android":"levelo://app?vid=28d29371-58ca-4507-ba2d-658dd91ae2d3","ios":"levelo://app?vid=28d29371-58ca-4507-ba2d-658dd91ae2d3"},"vehicle_type_id":"4","last_reported":1739909413,"current_range_meters":10800,"station_id":"ce4bhih2rcd13ifvqfs0","pricing_plan_id":"cebpf4jnsgd1na2vs0mg"},{"bike_id":"f734e773-17df-48e9-9fba-b65495e7d8cf","system_id":"levelo_inurba_marseille","lat":43.28436,"lon":5.34993,"is_reserved":false,"is_disabled":true,"rental_uris":{"android":"levelo://app?vid=f734e773-17df-48e9-9fba-b65495e7d8cf","ios":"levelo://app?vid=f734e773-17df-48e9-9fba-b65495e7d8cf"},"vehicle_type_id":"4","last_reported":1739909413,"current_range_meters":10800,"station_id":"","pricing_plan_id":"cebpf4jnsgd1na2vs0mg"},{"bike_id":"7342bfbd-9082-4169-8159-57866036272e","system_id":"levelo_inurba_marseille","lat":43.28451,"lon":5.35896,"is_reserved":false,"is_disabled":false,"rental_uris":{"android":"levelo://app?vid=7342bfbd-9082-4169-8159-57866036272e","ios":"levelo://app?vid=7342bfbd-9082-4169-8159-57866036272e"},"vehicle_type_id":"4","last_reported":1739909413,"current_range_meters":10800,"station_id":"ce4bhah2rcd13ifvqei0","pricing_plan_id":"cebpf4jnsgd1na2vs0mg"},{"bike_id":"6c96a73f-ff01-463f-bd8c-14885ee904b6","system_id":"levelo_inurba_marseille","lat":43.29074,"lon":5.35807,"is_reserved":false,"is_disabled":false,"rental_uris":{"android":"levelo://app?vid=6c96a73f-ff01-463f-bd8c-14885ee904b6","ios":"levelo://app?vid=6c96a73f-ff01-463f-bd8c-14885ee904b6"},"vehicle_type_id":"4","last_reported":1739909413,"current_range_meters":10800,"station_id":"ce4bhb92rcd13ifvqen0","pricing_plan_id":"cebpf4jnsgd1na2vs0mg"},{"bike_id":"d5becc6e-9468-4bed-b6f9-44ac2f9f1c93","system_id":"levelo_inurba_marseille","lat":43.29423,"lon":5.38649,"is_reserved":false,"is_disabled":false,"rental_uris":{"android":"levelo://app?vid=d5becc6e-9468-4bed-b6f9-44ac2f9f1c93","ios":"levelo://app?vid=d5becc6e-9468-4bed-b6f9-44ac2f9f1c93"},"vehicle_type_id":"4","last_reported":1739909413,"current_range_meters":10800,"station_id":"ce4bh2h2rcd13ifvqdh0","pricing_plan_id":"cebpf4jnsgd1na2vs0mg"},{"bike_id":"9582ddc0-b6af-49e9-b173-94c0a9b6801a","system_id":"levelo_inurba_marseille","lat":43.28343,"lon":5.38103,"is_reserved":false,"is_disabled":false,"rental_uris":{"android":"levelo://app?vid=9582ddc0-b6af-49e9-b173-94c0a9b6801a","ios":"levelo://app?vid=9582ddc0-b6af-49e9-b173-94c0a9b6801a"},"vehicle_type_id":"4","last_reported":1739909413,"current_range_meters":10800,"station_id":"","pricing_plan_id":"cebpf4jnsgd1na2vs0mg"},{"bike_id":"739e19f3-bd9a-4d50-8ae2-1d7c0d535f0c","system_id":"levelo_inurba_marseille","lat":43.29416,"lon":5.38626,"is_reserved":false,"is_disabled":false,"rental_uris":{"android":"levelo://app?vid=739e19f3-bd9a-4d50-8ae2-1d7c0d535f0c","ios":"levelo://app?vid=739e19f3-bd9a-4d50-8ae2-1d7c0d535f0c"},"vehicle_type_id":"4","last_reported":1739909413,"current_range_meters":10800,"station_id":"","pricing_plan_id":"cebpf4jnsgd1na2vs0mg"},{"bike_id":"cc05ee1b-a565-44b7-8d73-7b7da525be76","system_id":"levelo_inurba_marseille","lat":43.29969,"lon":5.38495,"is_reserved":false,"is_disabled":false,"rental_uris":{"android":"levelo://app?vid=cc05ee1b-a565-44b7-8d73-7b7da525be76","ios":"levelo://app?vid=cc05ee1b-a565-44b7-8d73-7b7da525be76"},"vehicle_type_id":"4","last_reported":1739909413,"current_range_meters":10800,"station_id":"ce4bgj92rcd13ifvqbd0","pricing_plan_id":"cebpf4jnsgd1na2vs0mg"},{"bike_id":"7e676248-facc-4c24-84d3-894a14296153","system_id":"levelo_inurba_marseille","lat":43.30102,"lon":5.39089,"is_reserved":false,"is_disabled":false,"rental_uris":{"android":"levelo://app?vid=7e676248-facc-4c24-84d3-894a14296153","ios":"levelo://app?vid=7e676248-facc-4c24-84d3-894a14296153"},"vehicle_type_id":"4","last_reported":1739909413,"current_range_meters":11200,"station_id":"ce4bh192rcd13ifvqdb0","pricing_plan_id":"cebpf4jnsgd1na2vs0mg"},{"bike_id":"91bf3218-0a05-4226-acc9-b3131b7d5a8d","system_id":"levelo_inurba_marseille","lat":43.2396,"lon":5.36628,"is_reserved":false,"is_disabled":false,"rental_uris":{"android":"levelo://app?vid=91bf3218-0a05-4226-acc9-b3131b7d5a8d","ios":"levelo://app?vid=91bf3218-0a05-4226-acc9-b3131b7d5a8d"},"vehicle_type_id":"4","last_reported":1739909413,"current_range_meters":11200,"station_id":"ce4bhi12rcd13ifvqfp0","pricing_plan_id":"cebpf4jnsgd1na2vs0mg"},{"bike_id":"60374178-f118-4837-8b8d-369a4f7e98f3","system_id":"levelo_inurba_marseille","lat":43.29262,"lon":5.38454,"is_reserved":false,"is_disabled":false,"rental_uris":{"android":"levelo://app?vid=60374178-f118-4837-8b8d-369a4f7e98f3","ios":"levelo://app?vid=60374178-f118-4837-8b8d-369a4f7e98f3"},"vehicle_type_id":"4","last_reported":1739909413,"current_range_meters":11200,"station_id":"ce4bh692rcd13ifvqea0","pricing_plan_id":"cebpf4jnsgd1na2vs0mg"},{"bike_id":"60d314df-a667-495a-a59f-db49b86bae5a","system_id":"levelo_inurba_marseille","lat":43.30094,"lon":5.39061,"is_reserved":false,"is_disabled":false,"rental_uris":{"android":"levelo://app?vid=60d314df-a667-495a-a59f-db49b86bae5a","ios":"levelo://app?vid=60d314df-a667-495a-a59f-db49b86bae5a"},"vehicle_type_id":"4","last_reported":1739909413,"current_range_meters":11200,"station_id":"ce4bh192rcd13ifvqdb0","pricing_plan_id":"cebpf4jnsgd1na2vs0mg"},{"bike_id":"8b02b176-f4c7-4d69-bac0-b8d0c9191941","system_id":"levelo_inurba_marseille","lat":43.2942,"lon":5.38628,"is_reserved":false,"is_disabled":false,"rental_uris":{"android":"levelo://app?vid=8b02b176-f4c7-4d69-bac0-b8d0c9191941","ios":"levelo://app?vid=8b02b176-f4c7-4d69-bac0-b8d0c9191941"},"vehicle_type_id":"4","last_reported":1739909413,"current_range_meters":11200,"station_id":"ce4bh2h2rcd13ifvqdh0","pricing_plan_id":"cebpf4jnsgd1na2vs0mg"},{"bike_id":"ae7d1db1-7fcb-489a-9701-708950cd6063","system_id":"levelo_inurba_marseille","lat":43.30886,"lon":5.39634,"is_reserved":false,"is_disabled":false,"rental_uris":{"android":"levelo://app?vid=ae7d1db1-7fcb-489a-9701-708950cd6063","ios":"levelo://app?vid=ae7d1db1-7fcb-489a-9701-708950cd6063"},"vehicle_type_id":"4","last_reported":1739909413,"current_range_meters":10800,"station_id":"ce4bh012rcd13ifvqcv0","pricing_plan_id":"cebpf4jnsgd1na2vs0mg"},{"bike_id":"3a348670-b080-4618-9e9a-396cab398fb2","system_id":"levelo_inurba_marseille","lat":43.26061,"lon":5.3938,"is_reserved":false,"is_disabled":false,"rental_uris":{"android":"levelo://app?vid=3a348670-b080-4618-9e9a-396cab398fb2","ios":"levelo://app?vid=3a348670-b080-4618-9e9a-396cab398fb2"},"vehicle_type_id":"4","last_reported":1739909413,"current_range_meters":11200,"station_id":"","pricing_plan_id":"cebpf4jnsgd1na2vs0mg"},{"bike_id":"10c134e7-7862-45ed-8103-0b6221fb4b66","system_id":"levelo_inurba_marseille","lat":43.25,"lon":5.38922,"is_reserved":false,"is_disabled":false,"rental_uris":{"android":"levelo://app?vid=10c134e7-7862-45ed-8103-0b6221fb4b66","ios":"levelo://app?vid=10c134e7-7862-45ed-8103-0b6221fb4b66"},"vehicle_type_id":"4","last_reported":1739909413,"current_range_meters":11600,"station_id":"ce4bhgp2rcd13ifvqfd0","pricing_plan_id":"cebpf4jnsgd1na2vs0mg"},{"bike_id":"9b03b96d-2041-4d92-a949-290d7b50f943","system_id":"levelo_inurba_marseille","lat":43.27196,"lon":5.40999,"is_reserved":false,"is_disabled":false,"rental_uris":{"android":"levelo://app?vid=9b03b96d-2041-4d92-a949-290d7b50f943","ios":"levelo://app?vid=9b03b96d-2041-4d92-a949-290d7b50f943"},"vehicle_type_id":"4","last_reported":1739909413,"current_range_meters":11600,"station_id":"","pricing_plan_id":"cebpf4jnsgd1na2vs0mg"},{"bike_id":"8872e704-ca55-4451-bfab-9e227f14e646","system_id":"levelo_inurba_marseille","lat":43.30137,"lon":5.39871,"is_reserved":false,"is_disabled":false,"rental_uris":{"android":"levelo://app?vid=8872e704-ca55-4451-bfab-9e227f14e646","ios":"levelo://app?vid=8872e704-ca55-4451-bfab-9e227f14e646"},"vehicle_type_id":"4","last_reported":1739909413,"current_range_meters":11600,"station_id":"ce4bh0h2rcd13ifvqd40","pricing_plan_id":"cebpf4jnsgd1na2vs0mg"},{"bike_id":"ecf653dc-4580-4f09-8ba8-aea9a036f542","system_id":"levelo_inurba_marseille","lat":43.29537,"lon":5.38541,"is_reserved":false,"is_disabled":false,"rental_uris":{"android":"levelo://app?vid=ecf653dc-4580-4f09-8ba8-aea9a036f542","ios":"levelo://app?vid=ecf653dc-4580-4f09-8ba8-aea9a036f542"},"vehicle_type_id":"4","last_reported":1739909413,"current_range_meters":11600,"station_id":"","pricing_plan_id":"cebpf4jnsgd1na2vs0mg"},{"bike_id":"fefa9bf9-197f-4351-bf2f-96769b26532d","system_id":"levelo_inurba_marseille","lat":43.29252,"lon":5.38438,"is_reserved":false,"is_disabled":false,"rental_uris":{"android":"levelo://app?vid=fefa9bf9-197f-4351-bf2f-96769b26532d","ios":"levelo://app?vid=fefa9bf9-197f-4351-bf2f-96769b26532d"},"vehicle_type_id":"4","last_reported":1739909413,"current_range_meters":11600,"station_id":"ce4bh692rcd13ifvqea0","pricing_plan_id":"cebpf4jnsgd1na2vs0mg"},{"bike_id":"f4cb91cf-f27a-4abc-b135-5527739ec6ca","system_id":"levelo_inurba_marseille","lat":43.298749,"lon":5.389147,"is_reserved":false,"is_disabled":false,"rental_uris":{"android":"levelo://app?vid=f4cb91cf-f27a-4abc-b135-5527739ec6ca","ios":"levelo://app?vid=f4cb91cf-f27a-4abc-b135-5527739ec6ca"},"vehicle_type_id":"4","last_reported":1739909413,"current_range_meters":11600,"station_id":"ce4bgrp2rcd13ifvqc9g","pricing_plan_id":"cebpf4jnsgd1na2vs0mg"},{"bike_id":"ad8bae08-a5cc-4bc6-a143-39f28604f9d5","system_id":"levelo_inurba_marseille","lat":43.26232,"lon":5.40454,"is_reserved":false,"is_disabled":false,"rental_uris":{"android":"levelo://app?vid=ad8bae08-a5cc-4bc6-a143-39f28604f9d5","ios":"levelo://app?vid=ad8bae08-a5cc-4bc6-a143-39f28604f9d5"},"vehicle_type_id":"4","last_reported":1739909413,"current_range_meters":12000,"station_id":"ce4bhmh2rcd13ifvqgmg","pricing_plan_id":"cebpf4jnsgd1na2vs0mg"},{"bike_id":"6c75fc8a-247b-42cf-aef6-b0b3782b2452","system_id":"levelo_inurba_marseille","lat":43.26931,"lon":5.38916,"is_reserved":false,"is_disabled":false,"rental_uris":{"android":"levelo://app?vid=6c75fc8a-247b-42cf-aef6-b0b3782b2452","ios":"levelo://app?vid=6c75fc8a-247b-42cf-aef6-b0b3782b2452"},"vehicle_type_id":"4","last_reported":1739909413,"current_range_meters":12000,"station_id":"ce4bhhh2rcd13ifvqfl0","pricing_plan_id":"cebpf4jnsgd1na2vs0mg"},{"bike_id":"6d0ed146-7f65-4315-a2dd-72ce5b3441f4","system_id":"levelo_inurba_marseille","lat":43.28615,"lon":5.35109,"is_reserved":false,"is_disabled":false,"rental_uris":{"android":"levelo://app?vid=6d0ed146-7f65-4315-a2dd-72ce5b3441f4","ios":"levelo://app?vid=6d0ed146-7f65-4315-a2dd-72ce5b3441f4"},"vehicle_type_id":"4","last_reported":1739909413,"current_range_meters":12000,"station_id":"","pricing_plan_id":"cebpf4jnsgd1na2vs0mg"},{"bike_id":"8fd5fd08-3015-46c6-9402-b1d2e8097eff","system_id":"levelo_inurba_marseille","lat":43.30137,"lon":5.39864,"is_reserved":false,"is_disabled":false,"rental_uris":{"android":"levelo://app?vid=8fd5fd08-3015-46c6-9402-b1d2e8097eff","ios":"levelo://app?vid=8fd5fd08-3015-46c6-9402-b1d2e8097eff"},"vehicle_type_id":"4","last_reported":1739909413,"current_range_meters":12000,"station_id":"ce4bh0h2rcd13ifvqd40","pricing_plan_id":"cebpf4jnsgd1na2vs0mg"},{"bike_id":"4bf40669-9c35-43f4-8817-8a07f6463fda","system_id":"levelo_inurba_marseille","lat":43.308857,"lon":5.371928,"is_reserved":false,"is_disabled":false,"rental_uris":{"android":"levelo://app?vid=4bf40669-9c35-43f4-8817-8a07f6463fda","ios":"levelo://app?vid=4bf40669-9c35-43f4-8817-8a07f6463fda"},"vehicle_type_id":"4","last_reported":1739909413,"current_range_meters":12000,"station_id":"","pricing_plan_id":"cebpf4jnsgd1na2vs0mg"},{"bike_id":"e461d57a-97a5-4bd4-9daf-ca6f32b20d07","system_id":"levelo_inurba_marseille","lat":43.30093,"lon":5.39082,"is_reserved":false,"is_disabled":false,"rental_uris":{"android":"levelo://app?vid=e461d57a-97a5-4bd4-9daf-ca6f32b20d07","ios":"levelo://app?vid=e461d57a-97a5-4bd4-9daf-ca6f32b20d07"},"vehicle_type_id":"4","last_reported":1739909413,"current_range_meters":12000,"station_id":"ce4bh192rcd13ifvqdb0","pricing_plan_id":"cebpf4jnsgd1na2vs0mg"},{"bike_id":"c30eb01a-98f2-42af-85e9-40478760160f","system_id":"levelo_inurba_marseille","lat":43.29049,"lon":5.35912,"is_reserved":false,"is_disabled":false,"rental_uris":{"android":"levelo://app?vid=c30eb01a-98f2-42af-85e9-40478760160f","ios":"levelo://app?vid=c30eb01a-98f2-42af-85e9-40478760160f"},"vehicle_type_id":"4","last_reported":1739909413,"current_range_meters":12000,"station_id":"ce4bha92rcd13ifvqeg0","pricing_plan_id":"cebpf4jnsgd1na2vs0mg"},{"bike_id":"438e661c-e276-40df-9af7-598d284c9e1f","system_id":"levelo_inurba_marseille","lat":43.28675,"lon":5.38671,"is_reserved":false,"is_disabled":false,"rental_uris":{"android":"levelo://app?vid=438e661c-e276-40df-9af7-598d284c9e1f","ios":"levelo://app?vid=438e661c-e276-40df-9af7-598d284c9e1f"},"vehicle_type_id":"4","last_reported":1739909413,"current_range_meters":12400,"station_id":"ce4bh492rcd13ifvqdug","pricing_plan_id":"cebpf4jnsgd1na2vs0mg"},{"bike_id":"7beb0637-fdc1-4315-9de7-143b2e5fe258","system_id":"levelo_inurba_marseille","lat":43.28462,"lon":5.35886,"is_reserved":false,"is_disabled":false,"rental_uris":{"android":"levelo://app?vid=7beb0637-fdc1-4315-9de7-143b2e5fe258","ios":"levelo://app?vid=7beb0637-fdc1-4315-9de7-143b2e5fe258"},"vehicle_type_id":"4","last_reported":1739909413,"current_range_meters":12400,"station_id":"ce4bhah2rcd13ifvqei0","pricing_plan_id":"cebpf4jnsgd1na2vs0mg"},{"bike_id":"85e87220-f6a3-46be-8172-f6efecf3643e","system_id":"levelo_inurba_marseille","lat":43.28149,"lon":5.42662,"is_reserved":false,"is_disabled":false,"rental_uris":{"android":"levelo://app?vid=85e87220-f6a3-46be-8172-f6efecf3643e","ios":"levelo://app?vid=85e87220-f6a3-46be-8172-f6efecf3643e"},"vehicle_type_id":"4","last_reported":1739909413,"current_range_meters":12400,"station_id":"","pricing_plan_id":"cebpf4jnsgd1na2vs0mg"},{"bike_id":"0e43aaf2-5553-4ce4-8a5f-0e2f15c2357c","system_id":"levelo_inurba_marseille","lat":43.25026,"lon":5.38899,"is_reserved":false,"is_disabled":false,"rental_uris":{"android":"levelo://app?vid=0e43aaf2-5553-4ce4-8a5f-0e2f15c2357c","ios":"levelo://app?vid=0e43aaf2-5553-4ce4-8a5f-0e2f15c2357c"},"vehicle_type_id":"4","last_reported":1739909413,"current_range_meters":12400,"station_id":"ce4bhgp2rcd13ifvqfd0","pricing_plan_id":"cebpf4jnsgd1na2vs0mg"},{"bike_id":"caf71647-c811-4946-94ff-64af2f0d5313","system_id":"levelo_inurba_marseille","lat":43.30633,"lon":5.40098,"is_reserved":false,"is_disabled":false,"rental_uris":{"android":"levelo://app?vid=caf71647-c811-4946-94ff-64af2f0d5313","ios":"levelo://app?vid=caf71647-c811-4946-94ff-64af2f0d5313"},"vehicle_type_id":"4","last_reported":1739909413,"current_range_meters":12000,"station_id":"ce4bh112rcd13ifvqda0","pricing_plan_id":"cebpf4jnsgd1na2vs0mg"},{"bike_id":"66130ab3-09ba-4efc-991d-6fb29a7363a9","system_id":"levelo_inurba_marseille","lat":43.26559,"lon":5.39015,"is_reserved":false,"is_disabled":false,"rental_uris":{"android":"levelo://app?vid=66130ab3-09ba-4efc-991d-6fb29a7363a9","ios":"levelo://app?vid=66130ab3-09ba-4efc-991d-6fb29a7363a9"},"vehicle_type_id":"4","last_reported":1739909413,"current_range_meters":12800,"station_id":"ce4bhe12rcd13ifvqf30","pricing_plan_id":"cebpf4jnsgd1na2vs0mg"},{"bike_id":"ee5ed675-bb03-4728-ab31-548b0122803c","system_id":"levelo_inurba_marseille","lat":43.28711,"lon":5.37399,"is_reserved":false,"is_disabled":false,"rental_uris":{"android":"levelo://app?vid=ee5ed675-bb03-4728-ab31-548b0122803c","ios":"levelo://app?vid=ee5ed675-bb03-4728-ab31-548b0122803c"},"vehicle_type_id":"4","last_reported":1739909413,"current_range_meters":12800,"station_id":"ce4bh3p2rcd13ifvqdq0","pricing_plan_id":"cebpf4jnsgd1na2vs0mg"},{"bike_id":"968a9200-a18d-42fd-b57d-b7f45949d480","system_id":"levelo_inurba_marseille","lat":43.29788,"lon":5.39343,"is_reserved":false,"is_disabled":false,"rental_uris":{"android":"levelo://app?vid=968a9200-a18d-42fd-b57d-b7f45949d480","ios":"levelo://app?vid=968a9200-a18d-42fd-b57d-b7f45949d480"},"vehicle_type_id":"4","last_reported":1739909413,"current_range_meters":12400,"station_id":"chh1huq6cuj3fo74tm60","pricing_plan_id":"cebpf4jnsgd1na2vs0mg"},{"bike_id":"25a87e91-9c0d-4903-b869-115b64990ac3","system_id":"levelo_inurba_marseille","lat":43.28152,"lon":5.42641,"is_reserved":false,"is_disabled":false,"rental_uris":{"android":"levelo://app?vid=25a87e91-9c0d-4903-b869-115b64990ac3","ios":"levelo://app?vid=25a87e91-9c0d-4903-b869-115b64990ac3"},"vehicle_type_id":"4","last_reported":1739909413,"current_range_meters":12800,"station_id":"ce4bhnh2rcd13ifvqgug","pricing_plan_id":"cebpf4jnsgd1na2vs0mg"},{"bike_id":"6b61a15f-d255-41a0-8166-7f2b93e7d846","system_id":"levelo_inurba_marseille","lat":43.23972,"lon":5.36632,"is_reserved":false,"is_disabled":false,"rental_uris":{"android":"levelo://app?vid=6b61a15f-d255-41a0-8166-7f2b93e7d846","ios":"levelo://app?vid=6b61a15f-d255-41a0-8166-7f2b93e7d846"},"vehicle_type_id":"4","last_reported":1739909413,"current_range_meters":12800,"station_id":"ce4bhi12rcd13ifvqfp0","pricing_plan_id":"cebpf4jnsgd1na2vs0mg"},{"bike_id":"340e8c76-933d-44bb-a1ac-13de5874baf2","system_id":"levelo_inurba_marseille","lat":43.2511,"lon":5.40316,"is_reserved":false,"is_disabled":false,"rental_uris":{"android":"levelo://app?vid=340e8c76-933d-44bb-a1ac-13de5874baf2","ios":"levelo://app?vid=340e8c76-933d-44bb-a1ac-13de5874baf2"},"vehicle_type_id":"4","last_reported":1739909413,"current_range_meters":13600,"station_id":"ce4bhlh2rcd13ifvqgig","pricing_plan_id":"cebpf4jnsgd1na2vs0mg"},{"bike_id":"5ac779f2-1fb7-4568-b0fe-31c31466d82e","system_id":"levelo_inurba_marseille","lat":43.26553,"lon":5.39025,"is_reserved":false,"is_disabled":false,"rental_uris":{"android":"levelo://app?vid=5ac779f2-1fb7-4568-b0fe-31c31466d82e","ios":"levelo://app?vid=5ac779f2-1fb7-4568-b0fe-31c31466d82e"},"vehicle_type_id":"4","last_reported":1739909413,"current_range_meters":13600,"station_id":"ce4bhe12rcd13ifvqf30","pricing_plan_id":"cebpf4jnsgd1na2vs0mg"},{"bike_id":"f0f61fdf-e262-479f-a259-1997ef9b3f40","system_id":"levelo_inurba_marseille","lat":43.28148,"lon":5.42645,"is_reserved":false,"is_disabled":false,"rental_uris":{"android":"levelo://app?vid=f0f61fdf-e262-479f-a259-1997ef9b3f40","ios":"levelo://app?vid=f0f61fdf-e262-479f-a259-1997ef9b3f40"},"vehicle_type_id":"4","last_reported":1739909413,"current_range_meters":13600,"station_id":"","pricing_plan_id":"cebpf4jnsgd1na2vs0mg"},{"bike_id":"c6132d24-0447-49a1-b938-1f18e31856c2","system_id":"levelo_inurba_marseille","lat":43.30252,"lon":5.40068,"is_reserved":false,"is_disabled":false,"rental_uris":{"android":"levelo://app?vid=c6132d24-0447-49a1-b938-1f18e31856c2","ios":"levelo://app?vid=c6132d24-0447-49a1-b938-1f18e31856c2"},"vehicle_type_id":"4","last_reported":1739909413,"current_range_meters":14000,"station_id":"ce4bgvh2rcd13ifvqcs0","pricing_plan_id":"cebpf4jnsgd1na2vs0mg"},{"bike_id":"b966e852-f107-4d4c-94d2-e4bfc851cb60","system_id":"levelo_inurba_marseille","lat":43.27996,"lon":5.4001,"is_reserved":false,"is_disabled":false,"rental_uris":{"android":"levelo://app?vid=b966e852-f107-4d4c-94d2-e4bfc851cb60","ios":"levelo://app?vid=b966e852-f107-4d4c-94d2-e4bfc851cb60"},"vehicle_type_id":"4","last_reported":1739909413,"current_range_meters":14000,"station_id":"ce4bho92rcd13ifvqh4g","pricing_plan_id":"cebpf4jnsgd1na2vs0mg"},{"bike_id":"f027fe38-3f5d-42fa-b16a-68ca60104c09","system_id":"levelo_inurba_marseille","lat":43.24166,"lon":5.36404,"is_reserved":false,"is_disabled":false,"rental_uris":{"android":"levelo://app?vid=f027fe38-3f5d-42fa-b16a-68ca60104c09","ios":"levelo://app?vid=f027fe38-3f5d-42fa-b16a-68ca60104c09"},"vehicle_type_id":"4","last_reported":1739909413,"current_range_meters":14000,"station_id":"","pricing_plan_id":"cebpf4jnsgd1na2vs0mg"},{"bike_id":"3f83289c-abe0-43b0-8313-84503265c2e6","system_id":"levelo_inurba_marseille","lat":43.27414,"lon":5.39422,"is_reserved":false,"is_disabled":false,"rental_uris":{"android":"levelo://app?vid=3f83289c-abe0-43b0-8313-84503265c2e6","ios":"levelo://app?vid=3f83289c-abe0-43b0-8313-84503265c2e6"},"vehicle_type_id":"4","last_reported":1739909413,"current_range_meters":14000,"station_id":"ce4bhdp2rcd13ifvqf20","pricing_plan_id":"cebpf4jnsgd1na2vs0mg"},{"bike_id":"ff35d651-9af0-487c-894e-65d0e7833694","system_id":"levelo_inurba_marseille","lat":43.25486,"lon":5.37656,"is_reserved":false,"is_disabled":false,"rental_uris":{"android":"levelo://app?vid=ff35d651-9af0-487c-894e-65d0e7833694","ios":"levelo://app?vid=ff35d651-9af0-487c-894e-65d0e7833694"},"vehicle_type_id":"4","last_reported":1739909413,"current_range_meters":14400,"station_id":"","pricing_plan_id":"cebpf4jnsgd1na2vs0mg"},{"bike_id":"c6b4c1d4-7170-42e8-a495-57f7e8da8511","system_id":"levelo_inurba_marseille","lat":43.24651,"lon":5.38911,"is_reserved":false,"is_disabled":false,"rental_uris":{"android":"levelo://app?vid=c6b4c1d4-7170-42e8-a495-57f7e8da8511","ios":"levelo://app?vid=c6b4c1d4-7170-42e8-a495-57f7e8da8511"},"vehicle_type_id":"4","last_reported":1739909413,"current_range_meters":14400,"station_id":"ce4bhg12rcd13ifvqf60","pricing_plan_id":"cebpf4jnsgd1na2vs0mg"},{"bike_id":"7688fd34-d69d-4c40-9c12-25f5cbe1b98a","system_id":"levelo_inurba_marseille","lat":43.30939,"lon":5.40145,"is_reserved":false,"is_disabled":false,"rental_uris":{"android":"levelo://app?vid=7688fd34-d69d-4c40-9c12-25f5cbe1b98a","ios":"levelo://app?vid=7688fd34-d69d-4c40-9c12-25f5cbe1b98a"},"vehicle_type_id":"4","last_reported":1739909413,"current_range_meters":14800,"station_id":"ce4bgvp2rcd13ifvqct0","pricing_plan_id":"cebpf4jnsgd1na2vs0mg"},{"bike_id":"d1dec037-ee4c-4db9-a655-1087d8ee1f4f","system_id":"levelo_inurba_marseille","lat":43.28444,"lon":5.39175,"is_reserved":false,"is_disabled":true,"rental_uris":{"android":"levelo://app?vid=d1dec037-ee4c-4db9-a655-1087d8ee1f4f","ios":"levelo://app?vid=d1dec037-ee4c-4db9-a655-1087d8ee1f4f"},"vehicle_type_id":"4","last_reported":1739909413,"current_range_meters":14800,"station_id":"","pricing_plan_id":"cebpf4jnsgd1na2vs0mg"},{"bike_id":"1a0d5cf6-ba9a-43c8-b317-0f0ded27ec7c","system_id":"levelo_inurba_marseille","lat":43.2953,"lon":5.38551,"is_reserved":false,"is_disabled":false,"rental_uris":{"android":"levelo://app?vid=1a0d5cf6-ba9a-43c8-b317-0f0ded27ec7c","ios":"levelo://app?vid=1a0d5cf6-ba9a-43c8-b317-0f0ded27ec7c"},"vehicle_type_id":"4","last_reported":1739909413,"current_range_meters":14800,"station_id":"","pricing_plan_id":"cebpf4jnsgd1na2vs0mg"},{"bike_id":"4e3610d1-0252-4e97-9154-9678501ca5d7","system_id":"levelo_inurba_marseille","lat":43.24657,"lon":5.38209,"is_reserved":false,"is_disabled":false,"rental_uris":{"android":"levelo://app?vid=4e3610d1-0252-4e97-9154-9678501ca5d7","ios":"levelo://app?vid=4e3610d1-0252-4e97-9154-9678501ca5d7"},"vehicle_type_id":"4","last_reported":1739909413,"current_range_meters":14800,"station_id":"ce4bhih2rcd13ifvqfr0","pricing_plan_id":"cebpf4jnsgd1na2vs0mg"},{"bike_id":"98b1401a-7342-47bc-852f-3b0a705035c6","system_id":"levelo_inurba_marseille","lat":43.23968,"lon":5.3663,"is_reserved":false,"is_disabled":false,"rental_uris":{"android":"levelo://app?vid=98b1401a-7342-47bc-852f-3b0a705035c6","ios":"levelo://app?vid=98b1401a-7342-47bc-852f-3b0a705035c6"},"vehicle_type_id":"4","last_reported":1739909413,"current_range_meters":14800,"station_id":"ce4bhi12rcd13ifvqfp0","pricing_plan_id":"cebpf4jnsgd1na2vs0mg"},{"bike_id":"397b80cf-cbf3-4f7e-9d00-ad56509053a2","system_id":"levelo_inurba_marseille","lat":43.29202,"lon":5.39785,"is_reserved":false,"is_disabled":false,"rental_uris":{"android":"levelo://app?vid=397b80cf-cbf3-4f7e-9d00-ad56509053a2","ios":"levelo://app?vid=397b80cf-cbf3-4f7e-9d00-ad56509053a2"},"vehicle_type_id":"4","last_reported":1739909413,"current_range_meters":14800,"station_id":"","pricing_plan_id":"cebpf4jnsgd1na2vs0mg"},{"bike_id":"bb81add2-2c90-482a-8c1d-9dc437949269","system_id":"levelo_inurba_marseille","lat":43.30109,"lon":5.38765,"is_reserved":false,"is_disabled":false,"rental_uris":{"android":"levelo://app?vid=bb81add2-2c90-482a-8c1d-9dc437949269","ios":"levelo://app?vid=bb81add2-2c90-482a-8c1d-9dc437949269"},"vehicle_type_id":"4","last_reported":1739909413,"current_range_meters":14800,"station_id":"ce4bghh2rcd13ifvqb60","pricing_plan_id":"cebpf4jnsgd1na2vs0mg"},{"bike_id":"3ba3aae7-8792-4d54-bd64-a0ea827a6cb8","system_id":"levelo_inurba_marseille","lat":43.2903,"lon":5.38657,"is_reserved":false,"is_disabled":false,"rental_uris":{"android":"levelo://app?vid=3ba3aae7-8792-4d54-bd64-a0ea827a6cb8","ios":"levelo://app?vid=3ba3aae7-8792-4d54-bd64-a0ea827a6cb8"},"vehicle_type_id":"4","last_reported":1739909413,"current_range_meters":14800,"station_id":"ce4bh4p2rcd13ifvqe0g","pricing_plan_id":"cebpf4jnsgd1na2vs0mg"},{"bike_id":"8e91a902-6564-47db-8926-8de3ade5e6f9","system_id":"levelo_inurba_marseille","lat":43.28105,"lon":5.3785,"is_reserved":false,"is_disabled":false,"rental_uris":{"android":"levelo://app?vid=8e91a902-6564-47db-8926-8de3ade5e6f9","ios":"levelo://app?vid=8e91a902-6564-47db-8926-8de3ade5e6f9"},"vehicle_type_id":"4","last_reported":1739909413,"current_range_meters":14800,"station_id":"ce4bha12rcd13ifvqee0","pricing_plan_id":"cebpf4jnsgd1na2vs0mg"},{"bike_id":"29a80104-7c84-4882-96c6-67eb68777f92","system_id":"levelo_inurba_marseille","lat":43.24826,"lon":5.37443,"is_reserved":false,"is_disabled":false,"rental_uris":{"android":"levelo://app?vid=29a80104-7c84-4882-96c6-67eb68777f92","ios":"levelo://app?vid=29a80104-7c84-4882-96c6-67eb68777f92"},"vehicle_type_id":"4","last_reported":1739909413,"current_range_meters":14800,"station_id":"","pricing_plan_id":"cebpf4jnsgd1na2vs0mg"},{"bike_id":"60561419-ea1b-43d0-87bf-6aa5404592c0","system_id":"levelo_inurba_marseille","lat":43.29417,"lon":5.38627,"is_reserved":false,"is_disabled":false,"rental_uris":{"android":"levelo://app?vid=60561419-ea1b-43d0-87bf-6aa5404592c0","ios":"levelo://app?vid=60561419-ea1b-43d0-87bf-6aa5404592c0"},"vehicle_type_id":"4","last_reported":1739909413,"current_range_meters":14800,"station_id":"","pricing_plan_id":"cebpf4jnsgd1na2vs0mg"},{"bike_id":"6c335b3b-f93c-450a-8403-36cd529bb099","system_id":"levelo_inurba_marseille","lat":43.29605,"lon":5.38099,"is_reserved":false,"is_disabled":false,"rental_uris":{"android":"levelo://app?vid=6c335b3b-f93c-450a-8403-36cd529bb099","ios":"levelo://app?vid=6c335b3b-f93c-450a-8403-36cd529bb099"},"vehicle_type_id":"4","last_reported":1739909413,"current_range_meters":15200,"station_id":"","pricing_plan_id":"cebpf4jnsgd1na2vs0mg"},{"bike_id":"1d63a175-89ef-49ff-9ead-dfe9ed6c22cf","system_id":"levelo_inurba_marseille","lat":43.24695,"lon":5.3942,"is_reserved":false,"is_disabled":false,"rental_uris":{"android":"levelo://app?vid=1d63a175-89ef-49ff-9ead-dfe9ed6c22cf","ios":"levelo://app?vid=1d63a175-89ef-49ff-9ead-dfe9ed6c22cf"},"vehicle_type_id":"4","last_reported":1739909413,"current_range_meters":15200,"station_id":"","pricing_plan_id":"cebpf4jnsgd1na2vs0mg"},{"bike_id":"153a8d93-cbe4-4143-a987-00f29e2e434a","system_id":"levelo_inurba_marseille","lat":43.29419,"lon":5.38625,"is_reserved":false,"is_disabled":false,"rental_uris":{"android":"levelo://app?vid=153a8d93-cbe4-4143-a987-00f29e2e434a","ios":"levelo://app?vid=153a8d93-cbe4-4143-a987-00f29e2e434a"},"vehicle_type_id":"4","last_reported":1739909413,"current_range_meters":15200,"station_id":"","pricing_plan_id":"cebpf4jnsgd1na2vs0mg"},{"bike_id":"41a385a7-b730-4f7d-9361-0c813e8c49a2","system_id":"levelo_inurba_marseille","lat":43.30299,"lon":5.39218,"is_reserved":false,"is_disabled":false,"rental_uris":{"android":"levelo://app?vid=41a385a7-b730-4f7d-9361-0c813e8c49a2","ios":"levelo://app?vid=41a385a7-b730-4f7d-9361-0c813e8c49a2"},"vehicle_type_id":"4","last_reported":1739909413,"current_range_meters":15200,"station_id":"ce4bgkh2rcd13ifvqbk0","pricing_plan_id":"cebpf4jnsgd1na2vs0mg"},{"bike_id":"901a2024-1d80-4f79-a7fb-a0232ce6d23d","system_id":"levelo_inurba_marseille","lat":43.2755,"lon":5.38446,"is_reserved":false,"is_disabled":false,"rental_uris":{"android":"levelo://app?vid=901a2024-1d80-4f79-a7fb-a0232ce6d23d","ios":"levelo://app?vid=901a2024-1d80-4f79-a7fb-a0232ce6d23d"},"vehicle_type_id":"4","last_reported":1739909413,"current_range_meters":15200,"station_id":"ce4bhh92rcd13ifvqfi0","pricing_plan_id":"cebpf4jnsgd1na2vs0mg"},{"bike_id":"bfef4ce2-45d0-4602-b2e8-a89ae23df3d5","system_id":"levelo_inurba_marseille","lat":43.26952,"lon":5.38642,"is_reserved":false,"is_disabled":false,"rental_uris":{"android":"levelo://app?vid=bfef4ce2-45d0-4602-b2e8-a89ae23df3d5","ios":"levelo://app?vid=bfef4ce2-45d0-4602-b2e8-a89ae23df3d5"},"vehicle_type_id":"4","last_reported":1739909413,"current_range_meters":15200,"station_id":"ce4bhh92rcd13ifvqfh0","pricing_plan_id":"cebpf4jnsgd1na2vs0mg"},{"bike_id":"2ce09ee4-4f3e-4a83-a87c-b6f209561f08","system_id":"levelo_inurba_marseille","lat":43.3056,"lon":5.38405,"is_reserved":false,"is_disabled":false,"rental_uris":{"android":"levelo://app?vid=2ce09ee4-4f3e-4a83-a87c-b6f209561f08","ios":"levelo://app?vid=2ce09ee4-4f3e-4a83-a87c-b6f209561f08"},"vehicle_type_id":"4","last_reported":1739909413,"current_range_meters":15200,"station_id":"ce4bgg92rcd13ifvqb30","pricing_plan_id":"cebpf4jnsgd1na2vs0mg"},{"bike_id":"7cc7d03f-c6e7-49f4-98c8-a01533df1225","system_id":"levelo_inurba_marseille","lat":43.30317,"lon":5.40451,"is_reserved":false,"is_disabled":false,"rental_uris":{"android":"levelo://app?vid=7cc7d03f-c6e7-49f4-98c8-a01533df1225","ios":"levelo://app?vid=7cc7d03f-c6e7-49f4-98c8-a01533df1225"},"vehicle_type_id":"4","last_reported":1739909413,"current_range_meters":15200,"station_id":"ce4bh012rcd13ifvqd10","pricing_plan_id":"cebpf4jnsgd1na2vs0mg"},{"bike_id":"705b8ff8-6691-4b54-b8f8-1e304d7b4048","system_id":"levelo_inurba_marseille","lat":43.30443,"lon":5.38879,"is_reserved":false,"is_disabled":false,"rental_uris":{"android":"levelo://app?vid=705b8ff8-6691-4b54-b8f8-1e304d7b4048","ios":"levelo://app?vid=705b8ff8-6691-4b54-b8f8-1e304d7b4048"},"vehicle_type_id":"4","last_reported":1739909413,"current_range_meters":16000,"station_id":"ce4bgk12rcd13ifvqbi0","pricing_plan_id":"cebpf4jnsgd1na2vs0mg"},{"bike_id":"f6724a5e-f33d-42fb-b878-607e8d9a241f","system_id":"levelo_inurba_marseille","lat":43.29247,"lon":5.38438,"is_reserved":false,"is_disabled":false,"rental_uris":{"android":"levelo://app?vid=f6724a5e-f33d-42fb-b878-607e8d9a241f","ios":"levelo://app?vid=f6724a5e-f33d-42fb-b878-607e8d9a241f"},"vehicle_type_id":"4","last_reported":1739909413,"current_range_meters":16000,"station_id":"ce4bh692rcd13ifvqea0","pricing_plan_id":"cebpf4jnsgd1na2vs0mg"},{"bike_id":"2496f28f-529d-4b86-a9ef-00d9565268b8","system_id":"levelo_inurba_marseille","lat":43.29532,"lon":5.38549,"is_reserved":false,"is_disabled":false,"rental_uris":{"android":"levelo://app?vid=2496f28f-529d-4b86-a9ef-00d9565268b8","ios":"levelo://app?vid=2496f28f-529d-4b86-a9ef-00d9565268b8"},"vehicle_type_id":"4","last_reported":1739909413,"current_range_meters":16000,"station_id":"","pricing_plan_id":"cebpf4jnsgd1na2vs0mg"},{"bike_id":"02e819f0-d6f3-424b-b698-1856211dbb1e","system_id":"levelo_inurba_marseille","lat":43.29258,"lon":5.38422,"is_reserved":false,"is_disabled":false,"rental_uris":{"android":"levelo://app?vid=02e819f0-d6f3-424b-b698-1856211dbb1e","ios":"levelo://app?vid=02e819f0-d6f3-424b-b698-1856211dbb1e"},"vehicle_type_id":"4","last_reported":1739909413,"current_range_meters":16000,"station_id":"","pricing_plan_id":"cebpf4jnsgd1na2vs0mg"},{"bike_id":"60f1c90a-05cc-4a31-a2bc-aec1f860908d","system_id":"levelo_inurba_marseille","lat":43.29264,"lon":5.38445,"is_reserved":false,"is_disabled":false,"rental_uris":{"android":"levelo://app?vid=60f1c90a-05cc-4a31-a2bc-aec1f860908d","ios":"levelo://app?vid=60f1c90a-05cc-4a31-a2bc-aec1f860908d"},"vehicle_type_id":"4","last_reported":1739909413,"current_range_meters":16000,"station_id":"ce4bh692rcd13ifvqea0","pricing_plan_id":"cebpf4jnsgd1na2vs0mg"},{"bike_id":"d2bbc16b-17e1-4745-a415-b4cd89817190","system_id":"levelo_inurba_marseille","lat":43.24649,"lon":5.38924,"is_reserved":false,"is_disabled":false,"rental_uris":{"android":"levelo://app?vid=d2bbc16b-17e1-4745-a415-b4cd89817190","ios":"levelo://app?vid=d2bbc16b-17e1-4745-a415-b4cd89817190"},"vehicle_type_id":"4","last_reported":1739909413,"current_range_meters":16400,"station_id":"ce4bhg12rcd13ifvqf60","pricing_plan_id":"cebpf4jnsgd1na2vs0mg"},{"bike_id":"c3a50302-35be-4085-9dae-1b4ddb75bfa8","system_id":"levelo_inurba_marseille","lat":43.29519,"lon":5.39419,"is_reserved":false,"is_disabled":false,"rental_uris":{"android":"levelo://app?vid=c3a50302-35be-4085-9dae-1b4ddb75bfa8","ios":"levelo://app?vid=c3a50302-35be-4085-9dae-1b4ddb75bfa8"},"vehicle_type_id":"4","last_reported":1739909413,"current_range_meters":16400,"station_id":"ce4bh292rcd13ifvqdf0","pricing_plan_id":"cebpf4jnsgd1na2vs0mg"},{"bike_id":"150693b5-e9e5-40db-94aa-ad3bd62b6aa6","system_id":"levelo_inurba_marseille","lat":43.28666,"lon":5.37439,"is_reserved":false,"is_disabled":false,"rental_uris":{"android":"levelo://app?vid=150693b5-e9e5-40db-94aa-ad3bd62b6aa6","ios":"levelo://app?vid=150693b5-e9e5-40db-94aa-ad3bd62b6aa6"},"vehicle_type_id":"4","last_reported":1739909413,"current_range_meters":16400,"station_id":"ce4bh3p2rcd13ifvqdq0","pricing_plan_id":"cebpf4jnsgd1na2vs0mg"},{"bike_id":"a00fb5cd-e0d2-4f96-befb-5275c0df0c87","system_id":"levelo_inurba_marseille","lat":43.2799,"lon":5.41668,"is_reserved":false,"is_disabled":false,"rental_uris":{"android":"levelo://app?vid=a00fb5cd-e0d2-4f96-befb-5275c0df0c87","ios":"levelo://app?vid=a00fb5cd-e0d2-4f96-befb-5275c0df0c87"},"vehicle_type_id":"4","last_reported":1739909413,"current_range_meters":16400,"station_id":"ce4bho12rcd13ifvqh1g","pricing_plan_id":"cebpf4jnsgd1na2vs0mg"},{"bike_id":"29c64147-3dd9-4094-924e-e8936791aa2c","system_id":"levelo_inurba_marseille","lat":43.29447,"lon":5.39748,"is_reserved":false,"is_disabled":false,"rental_uris":{"android":"levelo://app?vid=29c64147-3dd9-4094-924e-e8936791aa2c","ios":"levelo://app?vid=29c64147-3dd9-4094-924e-e8936791aa2c"},"vehicle_type_id":"4","last_reported":1739909413,"current_range_meters":16400,"station_id":"ce4bh3h2rcd13ifvqdo0","pricing_plan_id":"cebpf4jnsgd1na2vs0mg"},{"bike_id":"59c06e16-2c1f-4444-a3f6-6a7b6c9c893e","system_id":"levelo_inurba_marseille","lat":43.30311,"lon":5.3922,"is_reserved":false,"is_disabled":true,"rental_uris":{"android":"levelo://app?vid=59c06e16-2c1f-4444-a3f6-6a7b6c9c893e","ios":"levelo://app?vid=59c06e16-2c1f-4444-a3f6-6a7b6c9c893e"},"vehicle_type_id":"4","last_reported":1739909413,"current_range_meters":16400,"station_id":"ce4bgkh2rcd13ifvqbk0","pricing_plan_id":"cebpf4jnsgd1na2vs0mg"},{"bike_id":"baf6d894-ad10-49a9-b91a-24f60ad956f7","system_id":"levelo_inurba_marseille","lat":43.28976,"lon":5.4268,"is_reserved":false,"is_disabled":false,"rental_uris":{"android":"levelo://app?vid=baf6d894-ad10-49a9-b91a-24f60ad956f7","ios":"levelo://app?vid=baf6d894-ad10-49a9-b91a-24f60ad956f7"},"vehicle_type_id":"4","last_reported":1739909413,"current_range_meters":16400,"station_id":"","pricing_plan_id":"cebpf4jnsgd1na2vs0mg"},{"bike_id":"f107fd10-a21a-4129-b11c-ebed5d2373f0","system_id":"levelo_inurba_marseille","lat":43.29914,"lon":5.38149,"is_reserved":false,"is_disabled":false,"rental_uris":{"android":"levelo://app?vid=f107fd10-a21a-4129-b11c-ebed5d2373f0","ios":"levelo://app?vid=f107fd10-a21a-4129-b11c-ebed5d2373f0"},"vehicle_type_id":"4","last_reported":1739909413,"current_range_meters":16400,"station_id":"ce4bgj12rcd13ifvqbc0","pricing_plan_id":"cebpf4jnsgd1na2vs0mg"},{"bike_id":"6a29d64c-59b3-4670-ab67-0513acac8ceb","system_id":"levelo_inurba_marseille","lat":43.29422,"lon":5.38612,"is_reserved":false,"is_disabled":false,"rental_uris":{"android":"levelo://app?vid=6a29d64c-59b3-4670-ab67-0513acac8ceb","ios":"levelo://app?vid=6a29d64c-59b3-4670-ab67-0513acac8ceb"},"vehicle_type_id":"4","last_reported":1739909413,"current_range_meters":16400,"station_id":"ce4bh2h2rcd13ifvqdh0","pricing_plan_id":"cebpf4jnsgd1na2vs0mg"},{"bike_id":"95cf8953-b369-4e78-8916-48fb2fb5d3a9","system_id":"levelo_inurba_marseille","lat":43.3015,"lon":5.3877,"is_reserved":false,"is_disabled":false,"rental_uris":{"android":"levelo://app?vid=95cf8953-b369-4e78-8916-48fb2fb5d3a9","ios":"levelo://app?vid=95cf8953-b369-4e78-8916-48fb2fb5d3a9"},"vehicle_type_id":"4","last_reported":1739909413,"current_range_meters":16400,"station_id":"ce4bghh2rcd13ifvqb60","pricing_plan_id":"cebpf4jnsgd1na2vs0mg"},{"bike_id":"b64778c2-2434-4409-b125-e965a1fd469a","system_id":"levelo_inurba_marseille","lat":43.30326,"lon":5.36699,"is_reserved":false,"is_disabled":false,"rental_uris":{"android":"levelo://app?vid=b64778c2-2434-4409-b125-e965a1fd469a","ios":"levelo://app?vid=b64778c2-2434-4409-b125-e965a1fd469a"},"vehicle_type_id":"4","last_reported":1739909413,"current_range_meters":16400,"station_id":"ce4bgs12rcd13ifvqcag","pricing_plan_id":"cebpf4jnsgd1na2vs0mg"},{"bike_id":"f77eb7d8-9434-4c05-861f-edd4244aaffc","system_id":"levelo_inurba_marseille","lat":43.25496,"lon":5.37646,"is_reserved":false,"is_disabled":false,"rental_uris":{"android":"levelo://app?vid=f77eb7d8-9434-4c05-861f-edd4244aaffc","ios":"levelo://app?vid=f77eb7d8-9434-4c05-861f-edd4244aaffc"},"vehicle_type_id":"4","last_reported":1739909413,"current_range_meters":16800,"station_id":"","pricing_plan_id":"cebpf4jnsgd1na2vs0mg"},{"bike_id":"7ede1266-0f6d-45e5-8ecf-974466fcb83a","system_id":"levelo_inurba_marseille","lat":43.23152,"lon":5.43711,"is_reserved":false,"is_disabled":false,"rental_uris":{"android":"levelo://app?vid=7ede1266-0f6d-45e5-8ecf-974466fcb83a","ios":"levelo://app?vid=7ede1266-0f6d-45e5-8ecf-974466fcb83a"},"vehicle_type_id":"4","last_reported":1739909413,"current_range_meters":16400,"station_id":"ce4bhmp2rcd13ifvqgog","pricing_plan_id":"cebpf4jnsgd1na2vs0mg"},{"bike_id":"1c43eb49-ea1b-41ce-946d-e5fe349433b9","system_id":"levelo_inurba_marseille","lat":43.27943,"lon":5.41048,"is_reserved":false,"is_disabled":false,"rental_uris":{"android":"levelo://app?vid=1c43eb49-ea1b-41ce-946d-e5fe349433b9","ios":"levelo://app?vid=1c43eb49-ea1b-41ce-946d-e5fe349433b9"},"vehicle_type_id":"4","last_reported":1739909413,"current_range_meters":16800,"station_id":"ce4bhnp2rcd13ifvqh0g","pricing_plan_id":"cebpf4jnsgd1na2vs0mg"},{"bike_id":"46d061b0-8bef-4087-b66c-76ecb37ad1e9","system_id":"levelo_inurba_marseille","lat":43.31752,"lon":5.39058,"is_reserved":false,"is_disabled":false,"rental_uris":{"android":"levelo://app?vid=46d061b0-8bef-4087-b66c-76ecb37ad1e9","ios":"levelo://app?vid=46d061b0-8bef-4087-b66c-76ecb37ad1e9"},"vehicle_type_id":"4","last_reported":1739909413,"current_range_meters":16800,"station_id":"ce4bhqp2rcd13ifvqhng","pricing_plan_id":"cebpf4jnsgd1na2vs0mg"},{"bike_id":"251e94b7-79f6-4aa4-ac6d-a0f2d6a05a18","system_id":"levelo_inurba_marseille","lat":43.29414,"lon":5.38639,"is_reserved":false,"is_disabled":false,"rental_uris":{"android":"levelo://app?vid=251e94b7-79f6-4aa4-ac6d-a0f2d6a05a18","ios":"levelo://app?vid=251e94b7-79f6-4aa4-ac6d-a0f2d6a05a18"},"vehicle_type_id":"4","last_reported":1739909413,"current_range_meters":16800,"station_id":"","pricing_plan_id":"cebpf4jnsgd1na2vs0mg"},{"bike_id":"f0298322-406b-4921-bbc4-dbc6e889cb1e","system_id":"levelo_inurba_marseille","lat":43.28002,"lon":5.4,"is_reserved":false,"is_disabled":false,"rental_uris":{"android":"levelo://app?vid=f0298322-406b-4921-bbc4-dbc6e889cb1e","ios":"levelo://app?vid=f0298322-406b-4921-bbc4-dbc6e889cb1e"},"vehicle_type_id":"4","last_reported":1739909413,"current_range_meters":16800,"station_id":"ce4bho92rcd13ifvqh4g","pricing_plan_id":"cebpf4jnsgd1na2vs0mg"},{"bike_id":"712b3527-737c-4555-bbb2-2952f0c5ba44","system_id":"levelo_inurba_marseille","lat":43.28036,"lon":5.36951,"is_reserved":false,"is_disabled":false,"rental_uris":{"android":"levelo://app?vid=712b3527-737c-4555-bbb2-2952f0c5ba44","ios":"levelo://app?vid=712b3527-737c-4555-bbb2-2952f0c5ba44"},"vehicle_type_id":"4","last_reported":1739909413,"current_range_meters":16800,"station_id":"ce4bha12rcd13ifvqef0","pricing_plan_id":"cebpf4jnsgd1na2vs0mg"},{"bike_id":"2aeea0ab-a318-4297-9cc6-5218f9e3971d","system_id":"levelo_inurba_marseille","lat":43.27178,"lon":5.40996,"is_reserved":false,"is_disabled":false,"rental_uris":{"android":"levelo://app?vid=2aeea0ab-a318-4297-9cc6-5218f9e3971d","ios":"levelo://app?vid=2aeea0ab-a318-4297-9cc6-5218f9e3971d"},"vehicle_type_id":"4","last_reported":1739909413,"current_range_meters":16800,"station_id":"ce4bhl12rcd13ifvqgf0","pricing_plan_id":"cebpf4jnsgd1na2vs0mg"},{"bike_id":"c67fb496-8441-458a-af2d-8f07c087bdd0","system_id":"levelo_inurba_marseille","lat":43.24172,"lon":5.36426,"is_reserved":false,"is_disabled":true,"rental_uris":{"android":"levelo://app?vid=c67fb496-8441-458a-af2d-8f07c087bdd0","ios":"levelo://app?vid=c67fb496-8441-458a-af2d-8f07c087bdd0"},"vehicle_type_id":"4","last_reported":1739909413,"current_range_meters":16800,"station_id":"","pricing_plan_id":"cebpf4jnsgd1na2vs0mg"},{"bike_id":"db7f2d58-492d-4297-aa78-ce0ad99a0a74","system_id":"levelo_inurba_marseille","lat":43.27453,"lon":5.4104,"is_reserved":false,"is_disabled":false,"rental_uris":{"android":"levelo://app?vid=db7f2d58-492d-4297-aa78-ce0ad99a0a74","ios":"levelo://app?vid=db7f2d58-492d-4297-aa78-ce0ad99a0a74"},"vehicle_type_id":"4","last_reported":1739909413,"current_range_meters":16800,"station_id":"ce4bhb92rcd13ifvqen0","pricing_plan_id":"cebpf4jnsgd1na2vs0mg"},{"bike_id":"4ac6c792-50a6-451d-b092-59085dc6c111","system_id":"levelo_inurba_marseille","lat":43.286896,"lon":5.383286,"is_reserved":false,"is_disabled":false,"rental_uris":{"android":"levelo://app?vid=4ac6c792-50a6-451d-b092-59085dc6c111","ios":"levelo://app?vid=4ac6c792-50a6-451d-b092-59085dc6c111"},"vehicle_type_id":"4","last_reported":1739909413,"current_range_meters":16800,"station_id":"ce4bh9p2rcd13ifvqed0","pricing_plan_id":"cebpf4jnsgd1na2vs0mg"},{"bike_id":"896f46e6-c58b-49ee-83be-f29b0f2fae53","system_id":"levelo_inurba_marseille","lat":43.30306,"lon":5.36875,"is_reserved":false,"is_disabled":false,"rental_uris":{"android":"levelo://app?vid=896f46e6-c58b-49ee-83be-f29b0f2fae53","ios":"levelo://app?vid=896f46e6-c58b-49ee-83be-f29b0f2fae53"},"vehicle_type_id":"4","last_reported":1739909413,"current_range_meters":16800,"station_id":"ce4bgqh2rcd13ifvqc5g","pricing_plan_id":"cebpf4jnsgd1na2vs0mg"},{"bike_id":"5c26c52e-904f-45f3-b17d-fcd68d0887c3","system_id":"levelo_inurba_marseille","lat":43.30795,"lon":5.37648,"is_reserved":false,"is_disabled":false,"rental_uris":{"android":"levelo://app?vid=5c26c52e-904f-45f3-b17d-fcd68d0887c3","ios":"levelo://app?vid=5c26c52e-904f-45f3-b17d-fcd68d0887c3"},"vehicle_type_id":"4","last_reported":1739909413,"current_range_meters":16800,"station_id":"ce4bgv92rcd13ifvqcq0","pricing_plan_id":"cebpf4jnsgd1na2vs0mg"},{"bike_id":"9076ad40-4420-4f49-8938-abacfc15e913","system_id":"levelo_inurba_marseille","lat":43.30145,"lon":5.38797,"is_reserved":false,"is_disabled":false,"rental_uris":{"android":"levelo://app?vid=9076ad40-4420-4f49-8938-abacfc15e913","ios":"levelo://app?vid=9076ad40-4420-4f49-8938-abacfc15e913"},"vehicle_type_id":"4","last_reported":1739909413,"current_range_meters":16800,"station_id":"ce4bhoh2rcd13ifvqh6g","pricing_plan_id":"cebpf4jnsgd1na2vs0mg"},{"bike_id":"24dd12c1-4d8a-40c0-b521-a98d2d462c41","system_id":"levelo_inurba_marseille","lat":43.24171,"lon":5.36397,"is_reserved":false,"is_disabled":false,"rental_uris":{"android":"levelo://app?vid=24dd12c1-4d8a-40c0-b521-a98d2d462c41","ios":"levelo://app?vid=24dd12c1-4d8a-40c0-b521-a98d2d462c41"},"vehicle_type_id":"4","last_reported":1739909413,"current_range_meters":16800,"station_id":"","pricing_plan_id":"cebpf4jnsgd1na2vs0mg"},{"bike_id":"5a53eb6b-200f-4ac0-8efb-be28f6b20f01","system_id":"levelo_inurba_marseille","lat":43.23963,"lon":5.36626,"is_reserved":false,"is_disabled":false,"rental_uris":{"android":"levelo://app?vid=5a53eb6b-200f-4ac0-8efb-be28f6b20f01","ios":"levelo://app?vid=5a53eb6b-200f-4ac0-8efb-be28f6b20f01"},"vehicle_type_id":"4","last_reported":1739909413,"current_range_meters":16800,"station_id":"","pricing_plan_id":"cebpf4jnsgd1na2vs0mg"},{"bike_id":"fc971b16-bef3-4b6d-813c-ffc8ffa48842","system_id":"levelo_inurba_marseille","lat":43.2841,"lon":5.34986,"is_reserved":false,"is_disabled":true,"rental_uris":{"android":"levelo://app?vid=fc971b16-bef3-4b6d-813c-ffc8ffa48842","ios":"levelo://app?vid=fc971b16-bef3-4b6d-813c-ffc8ffa48842"},"vehicle_type_id":"4","last_reported":1739909413,"current_range_meters":16800,"station_id":"","pricing_plan_id":"cebpf4jnsgd1na2vs0mg"},{"bike_id":"47f0921d-aa1d-4b4b-a868-e9e97a59a34c","system_id":"levelo_inurba_marseille","lat":43.29595,"lon":5.38085,"is_reserved":false,"is_disabled":true,"rental_uris":{"android":"levelo://app?vid=47f0921d-aa1d-4b4b-a868-e9e97a59a34c","ios":"levelo://app?vid=47f0921d-aa1d-4b4b-a868-e9e97a59a34c"},"vehicle_type_id":"4","last_reported":1739909413,"current_range_meters":16800,"station_id":"ce4bgl12rcd13ifvqbo0","pricing_plan_id":"cebpf4jnsgd1na2vs0mg"},{"bike_id":"5d5578c2-a2af-4336-8a20-d08d83d12092","system_id":"levelo_inurba_marseille","lat":43.27833,"lon":5.39207,"is_reserved":false,"is_disabled":false,"rental_uris":{"android":"levelo://app?vid=5d5578c2-a2af-4336-8a20-d08d83d12092","ios":"levelo://app?vid=5d5578c2-a2af-4336-8a20-d08d83d12092"},"vehicle_type_id":"4","last_reported":1739909413,"current_range_meters":16800,"station_id":"ce4bhjp2rcd13ifvqga0","pricing_plan_id":"cebpf4jnsgd1na2vs0mg"},{"bike_id":"bc25572d-29ec-4303-bcf6-77a3778c28eb","system_id":"levelo_inurba_marseille","lat":43.28566,"lon":5.39503,"is_reserved":false,"is_disabled":false,"rental_uris":{"android":"levelo://app?vid=bc25572d-29ec-4303-bcf6-77a3778c28eb","ios":"levelo://app?vid=bc25572d-29ec-4303-bcf6-77a3778c28eb"},"vehicle_type_id":"4","last_reported":1739909413,"current_range_meters":16800,"station_id":"ce4bh292rcd13ifvqdg0","pricing_plan_id":"cebpf4jnsgd1na2vs0mg"},{"bike_id":"077acc1b-c1b2-4d14-8209-0cc02229d534","system_id":"levelo_inurba_marseille","lat":43.30143,"lon":5.39832,"is_reserved":false,"is_disabled":false,"rental_uris":{"android":"levelo://app?vid=077acc1b-c1b2-4d14-8209-0cc02229d534","ios":"levelo://app?vid=077acc1b-c1b2-4d14-8209-0cc02229d534"},"vehicle_type_id":"4","last_reported":1739909413,"current_range_meters":16800,"station_id":"ce4bh0h2rcd13ifvqd40","pricing_plan_id":"cebpf4jnsgd1na2vs0mg"},{"bike_id":"9935677e-0262-4894-974f-fec1281c49ef","system_id":"levelo_inurba_marseille","lat":43.29517,"lon":5.394,"is_reserved":false,"is_disabled":false,"rental_uris":{"android":"levelo://app?vid=9935677e-0262-4894-974f-fec1281c49ef","ios":"levelo://app?vid=9935677e-0262-4894-974f-fec1281c49ef"},"vehicle_type_id":"4","last_reported":1739909413,"current_range_meters":16800,"station_id":"ce4bh292rcd13ifvqdf0","pricing_plan_id":"cebpf4jnsgd1na2vs0mg"},{"bike_id":"ec82ab7e-7bfd-4902-af32-9a8ef38275a8","system_id":"levelo_inurba_marseille","lat":43.2953,"lon":5.38543,"is_reserved":false,"is_disabled":false,"rental_uris":{"android":"levelo://app?vid=ec82ab7e-7bfd-4902-af32-9a8ef38275a8","ios":"levelo://app?vid=ec82ab7e-7bfd-4902-af32-9a8ef38275a8"},"vehicle_type_id":"4","last_reported":1739909413,"current_range_meters":16800,"station_id":"","pricing_plan_id":"cebpf4jnsgd1na2vs0mg"},{"bike_id":"090d254b-7e06-4322-b664-ffb12aca0039","system_id":"levelo_inurba_marseille","lat":43.28435,"lon":5.35,"is_reserved":false,"is_disabled":false,"rental_uris":{"android":"levelo://app?vid=090d254b-7e06-4322-b664-ffb12aca0039","ios":"levelo://app?vid=090d254b-7e06-4322-b664-ffb12aca0039"},"vehicle_type_id":"4","last_reported":1739909413,"current_range_meters":17200,"station_id":"ce4bhbh2rcd13ifvqepg","pricing_plan_id":"cebpf4jnsgd1na2vs0mg"},{"bike_id":"0b1a65ba-0db3-4b01-918c-fc5c835fadb5","system_id":"levelo_inurba_marseille","lat":43.25004,"lon":5.38925,"is_reserved":false,"is_disabled":false,"rental_uris":{"android":"levelo://app?vid=0b1a65ba-0db3-4b01-918c-fc5c835fadb5","ios":"levelo://app?vid=0b1a65ba-0db3-4b01-918c-fc5c835fadb5"},"vehicle_type_id":"4","last_reported":1739909413,"current_range_meters":17200,"station_id":"ce4bhgp2rcd13ifvqfd0","pricing_plan_id":"cebpf4jnsgd1na2vs0mg"},{"bike_id":"1b511e5c-8ed0-484a-af27-72b511c9d623","system_id":"levelo_inurba_marseille","lat":43.29429,"lon":5.38626,"is_reserved":false,"is_disabled":false,"rental_uris":{"android":"levelo://app?vid=1b511e5c-8ed0-484a-af27-72b511c9d623","ios":"levelo://app?vid=1b511e5c-8ed0-484a-af27-72b511c9d623"},"vehicle_type_id":"4","last_reported":1739909413,"current_range_meters":17200,"station_id":"ce4bh2h2rcd13ifvqdh0","pricing_plan_id":"cebpf4jnsgd1na2vs0mg"},{"bike_id":"07da0bdc-8313-4de2-9058-fd8ecd01c88e","system_id":"levelo_inurba_marseille","lat":43.32653,"lon":5.40992,"is_reserved":false,"is_disabled":false,"rental_uris":{"android":"levelo://app?vid=07da0bdc-8313-4de2-9058-fd8ecd01c88e","ios":"levelo://app?vid=07da0bdc-8313-4de2-9058-fd8ecd01c88e"},"vehicle_type_id":"4","last_reported":1739909413,"current_range_meters":17200,"station_id":"ce4bhpp2rcd13ifvqhgg","pricing_plan_id":"cebpf4jnsgd1na2vs0mg"},{"bike_id":"bd71b8f9-f9a4-4933-b5ff-cb761b8e2090","system_id":"levelo_inurba_marseille","lat":43.29792,"lon":5.38096,"is_reserved":false,"is_disabled":false,"rental_uris":{"android":"levelo://app?vid=bd71b8f9-f9a4-4933-b5ff-cb761b8e2090","ios":"levelo://app?vid=bd71b8f9-f9a4-4933-b5ff-cb761b8e2090"},"vehicle_type_id":"4","last_reported":1739909413,"current_range_meters":17200,"station_id":"ce4bgip2rcd13ifvqbb0","pricing_plan_id":"cebpf4jnsgd1na2vs0mg"},{"bike_id":"c61944ac-631e-4cba-b49a-1e7cc6e0c65d","system_id":"levelo_inurba_marseille","lat":43.32364,"lon":5.36767,"is_reserved":false,"is_disabled":false,"rental_uris":{"android":"levelo://app?vid=c61944ac-631e-4cba-b49a-1e7cc6e0c65d","ios":"levelo://app?vid=c61944ac-631e-4cba-b49a-1e7cc6e0c65d"},"vehicle_type_id":"4","last_reported":1739909413,"current_range_meters":17200,"station_id":"ce4bhsh2rcd13ifvqi2g","pricing_plan_id":"cebpf4jnsgd1na2vs0mg"},{"bike_id":"c232f339-f33d-4c34-b33c-46fac8f3b968","system_id":"levelo_inurba_marseille","lat":43.28674,"lon":5.38659,"is_reserved":false,"is_disabled":false,"rental_uris":{"android":"levelo://app?vid=c232f339-f33d-4c34-b33c-46fac8f3b968","ios":"levelo://app?vid=c232f339-f33d-4c34-b33c-46fac8f3b968"},"vehicle_type_id":"4","last_reported":1739909413,"current_range_meters":17200,"station_id":"ce4bh492rcd13ifvqdug","pricing_plan_id":"cebpf4jnsgd1na2vs0mg"},{"bike_id":"9a20bf4a-2838-4260-9d28-debd745460c0","system_id":"levelo_inurba_marseille","lat":43.30873,"lon":5.37779,"is_reserved":false,"is_disabled":false,"rental_uris":{"android":"levelo://app?vid=9a20bf4a-2838-4260-9d28-debd745460c0","ios":"levelo://app?vid=9a20bf4a-2838-4260-9d28-debd745460c0"},"vehicle_type_id":"4","last_reported":1739909413,"current_range_meters":17200,"station_id":"ce4bgv92rcd13ifvqcq0","pricing_plan_id":"cebpf4jnsgd1na2vs0mg"},{"bike_id":"93682908-43c6-4032-8e45-6984dd069700","system_id":"levelo_inurba_marseille","lat":43.24649,"lon":5.38897,"is_reserved":false,"is_disabled":false,"rental_uris":{"android":"levelo://app?vid=93682908-43c6-4032-8e45-6984dd069700","ios":"levelo://app?vid=93682908-43c6-4032-8e45-6984dd069700"},"vehicle_type_id":"4","last_reported":1739909413,"current_range_meters":17200,"station_id":"ce4bhg12rcd13ifvqf60","pricing_plan_id":"cebpf4jnsgd1na2vs0mg"},{"bike_id":"50b08f3a-59c4-4c36-b7ff-6bea89264927","system_id":"levelo_inurba_marseille","lat":43.30093,"lon":5.39076,"is_reserved":false,"is_disabled":false,"rental_uris":{"android":"levelo://app?vid=50b08f3a-59c4-4c36-b7ff-6bea89264927","ios":"levelo://app?vid=50b08f3a-59c4-4c36-b7ff-6bea89264927"},"vehicle_type_id":"4","last_reported":1739909413,"current_range_meters":17200,"station_id":"ce4bh192rcd13ifvqdb0","pricing_plan_id":"cebpf4jnsgd1na2vs0mg"},{"bike_id":"5b80abf9-df02-44a7-b61b-dd0a85631c27","system_id":"levelo_inurba_marseille","lat":43.23963,"lon":5.36647,"is_reserved":false,"is_disabled":false,"rental_uris":{"android":"levelo://app?vid=5b80abf9-df02-44a7-b61b-dd0a85631c27","ios":"levelo://app?vid=5b80abf9-df02-44a7-b61b-dd0a85631c27"},"vehicle_type_id":"4","last_reported":1739909413,"current_range_meters":17200,"station_id":"","pricing_plan_id":"cebpf4jnsgd1na2vs0mg"},{"bike_id":"495b4304-c9b3-47f2-a172-35d2e3522097","system_id":"levelo_inurba_marseille","lat":43.28929,"lon":5.36634,"is_reserved":false,"is_disabled":false,"rental_uris":{"android":"levelo://app?vid=495b4304-c9b3-47f2-a172-35d2e3522097","ios":"levelo://app?vid=495b4304-c9b3-47f2-a172-35d2e3522097"},"vehicle_type_id":"4","last_reported":1739909413,"current_range_meters":17200,"station_id":"ce4bhap2rcd13ifvqek0","pricing_plan_id":"cebpf4jnsgd1na2vs0mg"},{"bike_id":"5180f318-4948-4085-aaf1-5f3160b57dbe","system_id":"levelo_inurba_marseille","lat":43.27611,"lon":5.36105,"is_reserved":false,"is_disabled":true,"rental_uris":{"android":"levelo://app?vid=5180f318-4948-4085-aaf1-5f3160b57dbe","ios":"levelo://app?vid=5180f318-4948-4085-aaf1-5f3160b57dbe"},"vehicle_type_id":"4","last_reported":1739909413,"current_range_meters":17200,"station_id":"ce4bgj92rcd13ifvqbe0","pricing_plan_id":"cebpf4jnsgd1na2vs0mg"},{"bike_id":"46f12a1c-cfc6-49b3-8dbe-ae86b80fb7d1","system_id":"levelo_inurba_marseille","lat":43.28636,"lon":5.35099,"is_reserved":false,"is_disabled":false,"rental_uris":{"android":"levelo://app?vid=46f12a1c-cfc6-49b3-8dbe-ae86b80fb7d1","ios":"levelo://app?vid=46f12a1c-cfc6-49b3-8dbe-ae86b80fb7d1"},"vehicle_type_id":"4","last_reported":1739909413,"current_range_meters":17600,"station_id":"","pricing_plan_id":"cebpf4jnsgd1na2vs0mg"},{"bike_id":"80aa6cd4-0dd3-4884-b834-c43edd1568c3","system_id":"levelo_inurba_marseille","lat":43.28612,"lon":5.37062,"is_reserved":false,"is_disabled":false,"rental_uris":{"android":"levelo://app?vid=80aa6cd4-0dd3-4884-b834-c43edd1568c3","ios":"levelo://app?vid=80aa6cd4-0dd3-4884-b834-c43edd1568c3"},"vehicle_type_id":"4","last_reported":1739909413,"current_range_meters":17600,"station_id":"ce4bht12rcd13ifvqi60","pricing_plan_id":"cebpf4jnsgd1na2vs0mg"},{"bike_id":"4c049e8c-dd47-4937-b343-0b8e81c04fa5","system_id":"levelo_inurba_marseille","lat":43.29542,"lon":5.38536,"is_reserved":false,"is_disabled":false,"rental_uris":{"android":"levelo://app?vid=4c049e8c-dd47-4937-b343-0b8e81c04fa5","ios":"levelo://app?vid=4c049e8c-dd47-4937-b343-0b8e81c04fa5"},"vehicle_type_id":"4","last_reported":1739909413,"current_range_meters":17600,"station_id":"ce4bgih2rcd13ifvqba0","pricing_plan_id":"cebpf4jnsgd1na2vs0mg"},{"bike_id":"32738602-b17f-4e62-a23a-a98ea191ef69","system_id":"levelo_inurba_marseille","lat":43.2955,"lon":5.38527,"is_reserved":false,"is_disabled":false,"rental_uris":{"android":"levelo://app?vid=32738602-b17f-4e62-a23a-a98ea191ef69","ios":"levelo://app?vid=32738602-b17f-4e62-a23a-a98ea191ef69"},"vehicle_type_id":"4","last_reported":1739909413,"current_range_meters":17600,"station_id":"","pricing_plan_id":"cebpf4jnsgd1na2vs0mg"},{"bike_id":"8b9ee63a-e8f5-4cba-9afe-cdbd29ca6d8e","system_id":"levelo_inurba_marseille","lat":43.29222,"lon":5.39226,"is_reserved":false,"is_disabled":false,"rental_uris":{"android":"levelo://app?vid=8b9ee63a-e8f5-4cba-9afe-cdbd29ca6d8e","ios":"levelo://app?vid=8b9ee63a-e8f5-4cba-9afe-cdbd29ca6d8e"},"vehicle_type_id":"4","last_reported":1739909413,"current_range_meters":17600,"station_id":"ce4bh192rcd13ifvqdd0","pricing_plan_id":"cebpf4jnsgd1na2vs0mg"},{"bike_id":"a0d3dbb9-7a31-499e-b6fa-75722a74f076","system_id":"levelo_inurba_marseille","lat":43.26214,"lon":5.3744,"is_reserved":false,"is_disabled":false,"rental_uris":{"android":"levelo://app?vid=a0d3dbb9-7a31-499e-b6fa-75722a74f076","ios":"levelo://app?vid=a0d3dbb9-7a31-499e-b6fa-75722a74f076"},"vehicle_type_id":"4","last_reported":1739909413,"current_range_meters":17600,"station_id":"ce4bhgp2rcd13ifvqfc0","pricing_plan_id":"cebpf4jnsgd1na2vs0mg"},{"bike_id":"ee318ccd-c697-43a6-bafd-c758274e6962","system_id":"levelo_inurba_marseille","lat":43.3034,"lon":5.40079,"is_reserved":false,"is_disabled":false,"rental_uris":{"android":"levelo://app?vid=ee318ccd-c697-43a6-bafd-c758274e6962","ios":"levelo://app?vid=ee318ccd-c697-43a6-bafd-c758274e6962"},"vehicle_type_id":"4","last_reported":1739909413,"current_range_meters":17600,"station_id":"","pricing_plan_id":"cebpf4jnsgd1na2vs0mg"},{"bike_id":"5f9ede52-c720-4107-a864-980fb2608395","system_id":"levelo_inurba_marseille","lat":43.24082,"lon":5.38692,"is_reserved":false,"is_disabled":false,"rental_uris":{"android":"levelo://app?vid=5f9ede52-c720-4107-a864-980fb2608395","ios":"levelo://app?vid=5f9ede52-c720-4107-a864-980fb2608395"},"vehicle_type_id":"4","last_reported":1739909413,"current_range_meters":18000,"station_id":"","pricing_plan_id":"cebpf4jnsgd1na2vs0mg"},{"bike_id":"16f8387c-1abb-4d3f-9ee6-f8bed8ab536c","system_id":"levelo_inurba_marseille","lat":43.29805,"lon":5.39304,"is_reserved":false,"is_disabled":false,"rental_uris":{"android":"levelo://app?vid=16f8387c-1abb-4d3f-9ee6-f8bed8ab536c","ios":"levelo://app?vid=16f8387c-1abb-4d3f-9ee6-f8bed8ab536c"},"vehicle_type_id":"4","last_reported":1739909413,"current_range_meters":18000,"station_id":"","pricing_plan_id":"cebpf4jnsgd1na2vs0mg"},{"bike_id":"5089bb88-a0cd-4434-a1a9-f3d5b67361c6","system_id":"levelo_inurba_marseille","lat":43.2436,"lon":5.38787,"is_reserved":false,"is_disabled":false,"rental_uris":{"android":"levelo://app?vid=5089bb88-a0cd-4434-a1a9-f3d5b67361c6","ios":"levelo://app?vid=5089bb88-a0cd-4434-a1a9-f3d5b67361c6"},"vehicle_type_id":"4","last_reported":1739909413,"current_range_meters":18000,"station_id":"","pricing_plan_id":"cebpf4jnsgd1na2vs0mg"},{"bike_id":"83210bee-a884-424c-97a2-b8879c7524a2","system_id":"levelo_inurba_marseille","lat":43.29096,"lon":5.38145,"is_reserved":false,"is_disabled":false,"rental_uris":{"android":"levelo://app?vid=83210bee-a884-424c-97a2-b8879c7524a2","ios":"levelo://app?vid=83210bee-a884-424c-97a2-b8879c7524a2"},"vehicle_type_id":"4","last_reported":1739909413,"current_range_meters":18000,"station_id":"ce4bh512rcd13ifvqe2g","pricing_plan_id":"cebpf4jnsgd1na2vs0mg"},{"bike_id":"b768b1a6-dfb0-4283-bce3-5f90f2a7562b","system_id":"levelo_inurba_marseille","lat":43.32357,"lon":5.38877,"is_reserved":false,"is_disabled":false,"rental_uris":{"android":"levelo://app?vid=b768b1a6-dfb0-4283-bce3-5f90f2a7562b","ios":"levelo://app?vid=b768b1a6-dfb0-4283-bce3-5f90f2a7562b"},"vehicle_type_id":"4","last_reported":1739909413,"current_range_meters":18000,"station_id":"ce4bhqp2rcd13ifvqhog","pricing_plan_id":"cebpf4jnsgd1na2vs0mg"},{"bike_id":"e215a793-b581-4982-bdf8-ff0f3e26ede5","system_id":"levelo_inurba_marseille","lat":43.29254,"lon":5.38443,"is_reserved":false,"is_disabled":false,"rental_uris":{"android":"levelo://app?vid=e215a793-b581-4982-bdf8-ff0f3e26ede5","ios":"levelo://app?vid=e215a793-b581-4982-bdf8-ff0f3e26ede5"},"vehicle_type_id":"4","last_reported":1739909413,"current_range_meters":18000,"station_id":"ce4bh692rcd13ifvqea0","pricing_plan_id":"cebpf4jnsgd1na2vs0mg"},{"bike_id":"659813f7-fc3e-49b2-b743-3ceee2ae3dd9","system_id":"levelo_inurba_marseille","lat":43.23185,"lon":5.39989,"is_reserved":false,"is_disabled":false,"rental_uris":{"android":"levelo://app?vid=659813f7-fc3e-49b2-b743-3ceee2ae3dd9","ios":"levelo://app?vid=659813f7-fc3e-49b2-b743-3ceee2ae3dd9"},"vehicle_type_id":"4","last_reported":1739909413,"current_range_meters":18000,"station_id":"ce4bhn12rcd13ifvqgqg","pricing_plan_id":"cebpf4jnsgd1na2vs0mg"},{"bike_id":"122c0b12-28fc-4ad7-8325-f6349ddb0039","system_id":"levelo_inurba_marseille","lat":43.291475,"lon":5.37184,"is_reserved":false,"is_disabled":false,"rental_uris":{"android":"levelo://app?vid=122c0b12-28fc-4ad7-8325-f6349ddb0039","ios":"levelo://app?vid=122c0b12-28fc-4ad7-8325-f6349ddb0039"},"vehicle_type_id":"4","last_reported":1739909413,"current_range_meters":18000,"station_id":"ce4bha92rcd13ifvqeh0","pricing_plan_id":"cebpf4jnsgd1na2vs0mg"},{"bike_id":"decf1447-1e5a-4157-9d8d-2e81b2baa555","system_id":"levelo_inurba_marseille","lat":43.29722,"lon":5.36617,"is_reserved":false,"is_disabled":false,"rental_uris":{"android":"levelo://app?vid=decf1447-1e5a-4157-9d8d-2e81b2baa555","ios":"levelo://app?vid=decf1447-1e5a-4157-9d8d-2e81b2baa555"},