{"last_updated":1720635079,"ttl":30,"version":"2.2","data":{"bikes":[{"bike_id":"a51219c3-b30b-4593-b63b-ee7071bd2cad","system_id":"levelo_inurba_marseille","lat":43.309076,"lon":5.368465,"is_reserved":false,"is_disabled":false,"rental_uris":{"android":"levelo://app?vid=a51219c3-b30b-4593-b63b-ee7071bd2cad","ios":"levelo://app?vid=a51219c3-b30b-4593-b63b-ee7071bd2cad"},"vehicle_type_id":"4","last_reported":1720635079,"current_range_meters":1600,"station_id":"ce4bgn92rcd13ifvqbvg","pricing_plan_id":"cebpf4jnsgd1na2vs0mg"},{"bike_id":"d4737ec1-f620-427b-85f2-9376cbd7ffea","system_id":"levelo_inurba_marseille","lat":43.313367,"lon":5.372737,"is_reserved":false,"is_disabled":false,"rental_uris":{"android":"levelo://app?vid=d4737ec1-f620-427b-85f2-9376cbd7ffea","ios":"levelo://app?vid=d4737ec1-f620-427b-85f2-9376cbd7ffea"},"vehicle_type_id":"4","last_reported":1720635079,"current_range_meters":4800,"station_id":"","pricing_plan_id":"cebpf4jnsgd1na2vs0mg"},{"bike_id":"1839337d-32c2-4fe2-835a-45094449353b","system_id":"levelo_inurba_marseille","lat":43.31498,"lon":5.37301,"is_reserved":false,"is_disabled":false,"rental_uris":{"android":"levelo://app?vid=1839337d-32c2-4fe2-835a-45094449353b","ios":"levelo://app?vid=1839337d-32c2-4fe2-835a-45094449353b"},"vehicle_type_id":"4","last_reported":1720635079,"current_range_meters":0,"station_id":"ce4bgt12rcd13ifvqcd0","pricing_plan_id":"cebpf4jnsgd1na2vs0mg"},{"bike_id":"893b2375-6d26-4aaa-94d5-e28adcdfff05","system_id":"levelo_inurba_marseille","lat":43.305714,"lon":5.365633,"is_reserved":false,"is_disabled":false,"rental_uris":{"android":"levelo://app?vid=893b2375-6d26-4aaa-94d5-e28adcdfff05","ios":"levelo://app?vid=893b2375-6d26-4aaa-94d5-e28adcdfff05"},"vehicle_type_id":"4","last_reported":1720635079,"current_range_meters":0,"station_id":"ce4bgs12rcd13ifvqcag","pricing_plan_id":"cebpf4jnsgd1na2vs0mg"},{"bike_id":"afeaca38-daa6-416f-a0ee-538bb8d1251e","system_id":"levelo_inurba_marseille","lat":43.305989,"lon":5.37225,"is_reserved":false,"is_disabled":false,"rental_uris":{"android":"levelo://app?vid=afeaca38-daa6-416f-a0ee-538bb8d1251e","ios":"levelo://app?vid=afeaca38-daa6-416f-a0ee-538bb8d1251e"},"vehicle_type_id":"4","last_reported":1720635079,"current_range_meters":2800,"station_id":"ce4bgqh2rcd13ifvqc4g","pricing_plan_id":"cebpf4jnsgd1na2vs0mg"},{"bike_id":"688ccd39-b3b2-4830-8997-2dbdf2b6709d","system_id":"levelo_inurba_marseille","lat":43.305989,"lon":5.37225,"is_reserved":false,"is_disabled":false,"rental_uris":{"android":"levelo://app?vid=688ccd39-b3b2-4830-8997-2dbdf2b6709d","ios":"levelo://app?vid=688ccd39-b3b2-4830-8997-2dbdf2b6709d"},"vehicle_type_id":"4","last_reported":1720635079,"current_range_meters":12400,"station_id":"ce4bgqh2rcd13ifvqc4g","pricing_plan_id":"cebpf4jnsgd1na2vs0mg"},{"bike_id":"9c042c18-66b3-4928-8744-cbb37587d42c","system_id":"levelo_inurba_marseille","lat":43.311131,"lon":5.377651,"is_reserved":false,"is_disabled":false,"rental_uris":{"android":"levelo://app?vid=9c042c18-66b3-4928-8744-cbb37587d42c","ios":"levelo://app?vid=9c042c18-66b3-4928-8744-cbb37587d42c"},"vehicle_type_id":"4","last_reported":1720635079,"current_range_meters":28000,"station_id":"ce4bgt92rcd13ifvqcg0","pricing_plan_id":"cebpf4jnsgd1na2vs0mg"},{"bike_id":"e3e3b76a-7c0b-4448-a7b1-60bc4da44c05","system_id":"levelo_inurba_marseille","lat":43.308176,"lon":5.376482,"is_reserved":false,"is_disabled":false,"rental_uris":{"android":"levelo://app?vid=e3e3b76a-7c0b-4448-a7b1-60bc4da44c05","ios":"levelo://app?vid=e3e3b76a-7c0b-4448-a7b1-60bc4da44c05"},"vehicle_type_id":"4","last_reported":1720635079,"current_range_meters":27200,"station_id":"ce4bgv92rcd13ifvqcq0","pricing_plan_id":"cebpf4jnsgd1na2vs0mg"},{"bike_id":"4921a454-0874-4297-9e70-006d83e5c906","system_id":"levelo_inurba_marseille","lat":43.30641,"lon":5.37438,"is_reserved":false,"is_disabled":false,"rental_uris":{"android":"levelo://app?vid=4921a454-0874-4297-9e70-006d83e5c906","ios":"levelo://app?vid=4921a454-0874-4297-9e70-006d83e5c906"},"vehicle_type_id":"4","last_reported":1720635079,"current_range_meters":11200,"station_id":"","pricing_plan_id":"cebpf4jnsgd1na2vs0mg"},{"bike_id":"069ca937-e9e1-49de-a845-886240f774da","system_id":"levelo_inurba_marseille","lat":43.311619,"lon":5.379861,"is_reserved":false,"is_disabled":false,"rental_uris":{"android":"levelo://app?vid=069ca937-e9e1-49de-a845-886240f774da","ios":"levelo://app?vid=069ca937-e9e1-49de-a845-886240f774da"},"vehicle_type_id":"4","last_reported":1720635079,"current_range_meters":2800,"station_id":"","pricing_plan_id":"cebpf4jnsgd1na2vs0mg"},{"bike_id":"8b78313f-87ab-4714-babf-ae38a1a68a8c","system_id":"levelo_inurba_marseille","lat":43.30955,"lon":5.37926,"is_reserved":false,"is_disabled":false,"rental_uris":{"android":"levelo://app?vid=8b78313f-87ab-4714-babf-ae38a1a68a8c","ios":"levelo://app?vid=8b78313f-87ab-4714-babf-ae38a1a68a8c"},"vehicle_type_id":"4","last_reported":1720635079,"current_range_meters":0,"station_id":"","pricing_plan_id":"cebpf4jnsgd1na2vs0mg"},{"bike_id":"9c425441-78ae-4eb1-8f00-b415f2533bfe","system_id":"levelo_inurba_marseille","lat":43.310745,"lon":5.381121,"is_reserved":false,"is_disabled":false,"rental_uris":{"android":"levelo://app?vid=9c425441-78ae-4eb1-8f00-b415f2533bfe","ios":"levelo://app?vid=9c425441-78ae-4eb1-8f00-b415f2533bfe"},"vehicle_type_id":"4","last_reported":1720635079,"current_range_meters":14800,"station_id":"","pricing_plan_id":"cebpf4jnsgd1na2vs0mg"},{"bike_id":"f5976afd-4dcd-4d78-a43d-58e054a0c274","system_id":"levelo_inurba_marseille","lat":43.30807,"lon":5.38175,"is_reserved":false,"is_disabled":false,"rental_uris":{"android":"levelo://app?vid=f5976afd-4dcd-4d78-a43d-58e054a0c274","ios":"levelo://app?vid=f5976afd-4dcd-4d78-a43d-58e054a0c274"},"vehicle_type_id":"4","last_reported":1720635079,"current_range_meters":0,"station_id":"ce4bgt12rcd13ifvqce0","pricing_plan_id":"cebpf4jnsgd1na2vs0mg"},{"bike_id":"1d3ce130-e244-4140-91bc-fb28adcf1575","system_id":"levelo_inurba_marseille","lat":43.30087,"lon":5.36874,"is_reserved":false,"is_disabled":false,"rental_uris":{"android":"levelo://app?vid=1d3ce130-e244-4140-91bc-fb28adcf1575","ios":"levelo://app?vid=1d3ce130-e244-4140-91bc-fb28adcf1575"},"vehicle_type_id":"4","last_reported":1720635079,"current_range_meters":0,"station_id":"","pricing_plan_id":"cebpf4jnsgd1na2vs0mg"},{"bike_id":"cfc95ea4-70fe-46fd-bd2d-c0af804d2a19","system_id":"levelo_inurba_marseille","lat":43.32476,"lon":5.36588,"is_reserved":false,"is_disabled":false,"rental_uris":{"android":"levelo://app?vid=cfc95ea4-70fe-46fd-bd2d-c0af804d2a19","ios":"levelo://app?vid=cfc95ea4-70fe-46fd-bd2d-c0af804d2a19"},"vehicle_type_id":"4","last_reported":1720635079,"current_range_meters":2400,"station_id":"ce4bhs12rcd13ifvqhvg","pricing_plan_id":"cebpf4jnsgd1na2vs0mg"},{"bike_id":"c58b9972-705e-4580-82ce-0494af9e6444","system_id":"levelo_inurba_marseille","lat":43.324764,"lon":5.365876,"is_reserved":false,"is_disabled":false,"rental_uris":{"android":"levelo://app?vid=c58b9972-705e-4580-82ce-0494af9e6444","ios":"levelo://app?vid=c58b9972-705e-4580-82ce-0494af9e6444"},"vehicle_type_id":"4","last_reported":1720635079,"current_range_meters":11600,"station_id":"ce4bhs12rcd13ifvqhvg","pricing_plan_id":"cebpf4jnsgd1na2vs0mg"},{"bike_id":"70ad2269-9ab7-4228-a0e9-f8e445f62d69","system_id":"levelo_inurba_marseille","lat":43.3248,"lon":5.36569,"is_reserved":false,"is_disabled":false,"rental_uris":{"android":"levelo://app?vid=70ad2269-9ab7-4228-a0e9-f8e445f62d69","ios":"levelo://app?vid=70ad2269-9ab7-4228-a0e9-f8e445f62d69"},"vehicle_type_id":"4","last_reported":1720635079,"current_range_meters":12800,"station_id":"ce4bhs12rcd13ifvqhvg","pricing_plan_id":"cebpf4jnsgd1na2vs0mg"},{"bike_id":"cda51581-678f-49fe-a31d-316d946d7d99","system_id":"levelo_inurba_marseille","lat":43.32482,"lon":5.3659,"is_reserved":false,"is_disabled":false,"rental_uris":{"android":"levelo://app?vid=cda51581-678f-49fe-a31d-316d946d7d99","ios":"levelo://app?vid=cda51581-678f-49fe-a31d-316d946d7d99"},"vehicle_type_id":"4","last_reported":1720635079,"current_range_meters":10800,"station_id":"ce4bhs12rcd13ifvqhvg","pricing_plan_id":"cebpf4jnsgd1na2vs0mg"},{"bike_id":"e9aaa764-2d4d-4429-91ea-b7708367b6b2","system_id":"levelo_inurba_marseille","lat":43.32482,"lon":5.36577,"is_reserved":false,"is_disabled":false,"rental_uris":{"android":"levelo://app?vid=e9aaa764-2d4d-4429-91ea-b7708367b6b2","ios":"levelo://app?vid=e9aaa764-2d4d-4429-91ea-b7708367b6b2"},"vehicle_type_id":"4","last_reported":1720635079,"current_range_meters":20800,"station_id":"ce4bhs12rcd13ifvqhvg","pricing_plan_id":"cebpf4jnsgd1na2vs0mg"},{"bike_id":"122627aa-5889-42de-b5ff-45cf3df1a29f","system_id":"levelo_inurba_marseille","lat":43.32482,"lon":5.36574,"is_reserved":false,"is_disabled":false,"rental_uris":{"android":"levelo://app?vid=122627aa-5889-42de-b5ff-45cf3df1a29f","ios":"levelo://app?vid=122627aa-5889-42de-b5ff-45cf3df1a29f"},"vehicle_type_id":"4","last_reported":1720635079,"current_range_meters":15600,"station_id":"ce4bhs12rcd13ifvqhvg","pricing_plan_id":"cebpf4jnsgd1na2vs0mg"},{"bike_id":"399bb279-3311-4e61-be15-23cbbde8a194","system_id":"levelo_inurba_marseille","lat":43.324771,"lon":5.36557,"is_reserved":false,"is_disabled":false,"rental_uris":{"android":"levelo://app?vid=399bb279-3311-4e61-be15-23cbbde8a194","ios":"levelo://app?vid=399bb279-3311-4e61-be15-23cbbde8a194"},"vehicle_type_id":"4","last_reported":1720635079,"current_range_meters":18800,"station_id":"ce4bhs12rcd13ifvqhvg","pricing_plan_id":"cebpf4jnsgd1na2vs0mg"},{"bike_id":"043f4b1f-cf38-4021-8dda-72e86311f0b5","system_id":"levelo_inurba_marseille","lat":43.324771,"lon":5.36557,"is_reserved":false,"is_disabled":false,"rental_uris":{"android":"levelo://app?vid=043f4b1f-cf38-4021-8dda-72e86311f0b5","ios":"levelo://app?vid=043f4b1f-cf38-4021-8dda-72e86311f0b5"},"vehicle_type_id":"4","last_reported":1720635079,"current_range_meters":32000,"station_id":"ce4bhs12rcd13ifvqhvg","pricing_plan_id":"cebpf4jnsgd1na2vs0mg"},{"bike_id":"3beed82c-a180-4907-86be-101b2d2a76bc","system_id":"levelo_inurba_marseille","lat":43.324771,"lon":5.36557,"is_reserved":false,"is_disabled":false,"rental_uris":{"android":"levelo://app?vid=3beed82c-a180-4907-86be-101b2d2a76bc","ios":"levelo://app?vid=3beed82c-a180-4907-86be-101b2d2a76bc"},"vehicle_type_id":"4","last_reported":1720635079,"current_range_meters":32000,"station_id":"ce4bhs12rcd13ifvqhvg","pricing_plan_id":"cebpf4jnsgd1na2vs0mg"},{"bike_id":"f14a9ec1-5c3f-4565-9d9a-4c0e539bdf2f","system_id":"levelo_inurba_marseille","lat":43.324771,"lon":5.36557,"is_reserved":false,"is_disabled":false,"rental_uris":{"android":"levelo://app?vid=f14a9ec1-5c3f-4565-9d9a-4c0e539bdf2f","ios":"levelo://app?vid=f14a9ec1-5c3f-4565-9d9a-4c0e539bdf2f"},"vehicle_type_id":"4","last_reported":1720635079,"current_range_meters":18000,"station_id":"ce4bhs12rcd13ifvqhvg","pricing_plan_id":"cebpf4jnsgd1na2vs0mg"},{"bike_id":"c583fb6f-7b7d-49d8-9432-22643755ad88","system_id":"levelo_inurba_marseille","lat":43.30143,"lon":5.37413,"is_reserved":false,"is_disabled":false,"rental_uris":{"android":"levelo://app?vid=c583fb6f-7b7d-49d8-9432-22643755ad88","ios":"levelo://app?vid=c583fb6f-7b7d-49d8-9432-22643755ad88"},"vehicle_type_id":"4","last_reported":1720635079,"current_range_meters":21200,"station_id":"ce4bgs92rcd13ifvqcc0","pricing_plan_id":"cebpf4jnsgd1na2vs0mg"},{"bike_id":"436e4355-9157-4bb3-8ccc-7d8e51b5dc6b","system_id":"levelo_inurba_marseille","lat":43.31108,"lon":5.38396,"is_reserved":false,"is_disabled":false,"rental_uris":{"android":"levelo://app?vid=436e4355-9157-4bb3-8ccc-7d8e51b5dc6b","ios":"levelo://app?vid=436e4355-9157-4bb3-8ccc-7d8e51b5dc6b"},"vehicle_type_id":"4","last_reported":1720635079,"current_range_meters":21200,"station_id":"","pricing_plan_id":"cebpf4jnsgd1na2vs0mg"},{"bike_id":"f789ce17-e1d8-40cf-9cca-bac29d7e58a8","system_id":"levelo_inurba_marseille","lat":43.302784,"lon":5.377158,"is_reserved":false,"is_disabled":false,"rental_uris":{"android":"levelo://app?vid=f789ce17-e1d8-40cf-9cca-bac29d7e58a8","ios":"levelo://app?vid=f789ce17-e1d8-40cf-9cca-bac29d7e58a8"},"vehicle_type_id":"4","last_reported":1720635079,"current_range_meters":5600,"station_id":"ce4bguh2rcd13ifvqcj0","pricing_plan_id":"cebpf4jnsgd1na2vs0mg"},{"bike_id":"5170e5a4-a346-48b0-9cfa-e3b6cda1ad54","system_id":"levelo_inurba_marseille","lat":43.319933,"lon":5.381393,"is_reserved":false,"is_disabled":false,"rental_uris":{"android":"levelo://app?vid=5170e5a4-a346-48b0-9cfa-e3b6cda1ad54","ios":"levelo://app?vid=5170e5a4-a346-48b0-9cfa-e3b6cda1ad54"},"vehicle_type_id":"4","last_reported":1720635079,"current_range_meters":16000,"station_id":"ce4bhr12rcd13ifvqhpg","pricing_plan_id":"cebpf4jnsgd1na2vs0mg"},{"bike_id":"faae650a-e436-404b-9f51-5d1c0f4f3d8e","system_id":"levelo_inurba_marseille","lat":43.30592,"lon":5.38175,"is_reserved":false,"is_disabled":false,"rental_uris":{"android":"levelo://app?vid=faae650a-e436-404b-9f51-5d1c0f4f3d8e","ios":"levelo://app?vid=faae650a-e436-404b-9f51-5d1c0f4f3d8e"},"vehicle_type_id":"4","last_reported":1720635079,"current_range_meters":16400,"station_id":"","pricing_plan_id":"cebpf4jnsgd1na2vs0mg"},{"bike_id":"cca699bb-bf42-4643-a1fc-43112d702fcc","system_id":"levelo_inurba_marseille","lat":43.319935,"lon":5.381699,"is_reserved":false,"is_disabled":false,"rental_uris":{"android":"levelo://app?vid=cca699bb-bf42-4643-a1fc-43112d702fcc","ios":"levelo://app?vid=cca699bb-bf42-4643-a1fc-43112d702fcc"},"vehicle_type_id":"4","last_reported":1720635079,"current_range_meters":23600,"station_id":"ce4bhr12rcd13ifvqhpg","pricing_plan_id":"cebpf4jnsgd1na2vs0mg"},{"bike_id":"59892e1c-8383-496d-b3ec-1f0a171fe46b","system_id":"levelo_inurba_marseille","lat":43.313571,"lon":5.384829,"is_reserved":false,"is_disabled":false,"rental_uris":{"android":"levelo://app?vid=59892e1c-8383-496d-b3ec-1f0a171fe46b","ios":"levelo://app?vid=59892e1c-8383-496d-b3ec-1f0a171fe46b"},"vehicle_type_id":"4","last_reported":1720635079,"current_range_meters":0,"station_id":"ce4bgt92rcd13ifvqcf0","pricing_plan_id":"cebpf4jnsgd1na2vs0mg"},{"bike_id":"ae2d7934-88f2-44bf-92fb-b7521d3b46c9","system_id":"levelo_inurba_marseille","lat":43.299222,"lon":5.365554,"is_reserved":false,"is_disabled":false,"rental_uris":{"android":"levelo://app?vid=ae2d7934-88f2-44bf-92fb-b7521d3b46c9","ios":"levelo://app?vid=ae2d7934-88f2-44bf-92fb-b7521d3b46c9"},"vehicle_type_id":"4","last_reported":1720635079,"current_range_meters":20400,"station_id":"ce4bgm92rcd13ifvqbr0","pricing_plan_id":"cebpf4jnsgd1na2vs0mg"},{"bike_id":"bc45292e-c8b3-429a-89cb-3f03f964b0b3","system_id":"levelo_inurba_marseille","lat":43.299724,"lon":5.371829,"is_reserved":false,"is_disabled":false,"rental_uris":{"android":"levelo://app?vid=bc45292e-c8b3-429a-89cb-3f03f964b0b3","ios":"levelo://app?vid=bc45292e-c8b3-429a-89cb-3f03f964b0b3"},"vehicle_type_id":"4","last_reported":1720635079,"current_range_meters":8400,"station_id":"ce4bgr92rcd13ifvqc7g","pricing_plan_id":"cebpf4jnsgd1na2vs0mg"},{"bike_id":"c823371e-f02a-41da-8d04-dad372cbbb5c","system_id":"levelo_inurba_marseille","lat":43.299222,"lon":5.365554,"is_reserved":false,"is_disabled":false,"rental_uris":{"android":"levelo://app?vid=c823371e-f02a-41da-8d04-dad372cbbb5c","ios":"levelo://app?vid=c823371e-f02a-41da-8d04-dad372cbbb5c"},"vehicle_type_id":"4","last_reported":1720635079,"current_range_meters":23600,"station_id":"ce4bgm92rcd13ifvqbr0","pricing_plan_id":"cebpf4jnsgd1na2vs0mg"},{"bike_id":"d63f0278-9884-49bc-929b-6afe914cba0f","system_id":"levelo_inurba_marseille","lat":43.299222,"lon":5.365554,"is_reserved":false,"is_disabled":false,"rental_uris":{"android":"levelo://app?vid=d63f0278-9884-49bc-929b-6afe914cba0f","ios":"levelo://app?vid=d63f0278-9884-49bc-929b-6afe914cba0f"},"vehicle_type_id":"4","last_reported":1720635079,"current_range_meters":23600,"station_id":"ce4bgm92rcd13ifvqbr0","pricing_plan_id":"cebpf4jnsgd1na2vs0mg"},{"bike_id":"62a929d4-e2eb-48d8-ba4f-0e519ec8bcef","system_id":"levelo_inurba_marseille","lat":43.299222,"lon":5.365554,"is_reserved":false,"is_disabled":false,"rental_uris":{"android":"levelo://app?vid=62a929d4-e2eb-48d8-ba4f-0e519ec8bcef","ios":"levelo://app?vid=62a929d4-e2eb-48d8-ba4f-0e519ec8bcef"},"vehicle_type_id":"4","last_reported":1720635079,"current_range_meters":21200,"station_id":"ce4bgm92rcd13ifvqbr0","pricing_plan_id":"cebpf4jnsgd1na2vs0mg"},{"bike_id":"fcfe8e2b-7ba2-4edc-8d9e-5bf738359866","system_id":"levelo_inurba_marseille","lat":43.298487,"lon":5.362943,"is_reserved":false,"is_disabled":false,"rental_uris":{"android":"levelo://app?vid=fcfe8e2b-7ba2-4edc-8d9e-5bf738359866","ios":"levelo://app?vid=fcfe8e2b-7ba2-4edc-8d9e-5bf738359866"},"vehicle_type_id":"4","last_reported":1720635079,"current_range_meters":31200,"station_id":"ce4bgpp2rcd13ifvqc3g","pricing_plan_id":"cebpf4jnsgd1na2vs0mg"},{"bike_id":"cf2ca74a-5af0-44a8-b761-f38645068633","system_id":"levelo_inurba_marseille","lat":43.298433,"lon":5.362774,"is_reserved":false,"is_disabled":false,"rental_uris":{"android":"levelo://app?vid=cf2ca74a-5af0-44a8-b761-f38645068633","ios":"levelo://app?vid=cf2ca74a-5af0-44a8-b761-f38645068633"},"vehicle_type_id":"4","last_reported":1720635079,"current_range_meters":29600,"station_id":"ce4bgpp2rcd13ifvqc3g","pricing_plan_id":"cebpf4jnsgd1na2vs0mg"},{"bike_id":"72bebb94-8a32-41ac-81d7-77f7b270756a","system_id":"levelo_inurba_marseille","lat":43.298433,"lon":5.362774,"is_reserved":false,"is_disabled":false,"rental_uris":{"android":"levelo://app?vid=72bebb94-8a32-41ac-81d7-77f7b270756a","ios":"levelo://app?vid=72bebb94-8a32-41ac-81d7-77f7b270756a"},"vehicle_type_id":"4","last_reported":1720635079,"current_range_meters":29200,"station_id":"ce4bgpp2rcd13ifvqc3g","pricing_plan_id":"cebpf4jnsgd1na2vs0mg"},{"bike_id":"1bc97866-7b35-4550-8c84-fadd0053f6c8","system_id":"levelo_inurba_marseille","lat":43.299135,"lon":5.37456,"is_reserved":false,"is_disabled":false,"rental_uris":{"android":"levelo://app?vid=1bc97866-7b35-4550-8c84-fadd0053f6c8","ios":"levelo://app?vid=1bc97866-7b35-4550-8c84-fadd0053f6c8"},"vehicle_type_id":"4","last_reported":1720635079,"current_range_meters":31200,"station_id":"ce4bgjh2rcd13ifvqbg0","pricing_plan_id":"cebpf4jnsgd1na2vs0mg"},{"bike_id":"d2222721-e06d-4623-824a-d462b0a4f899","system_id":"levelo_inurba_marseille","lat":43.31176,"lon":5.38714,"is_reserved":false,"is_disabled":false,"rental_uris":{"android":"levelo://app?vid=d2222721-e06d-4623-824a-d462b0a4f899","ios":"levelo://app?vid=d2222721-e06d-4623-824a-d462b0a4f899"},"vehicle_type_id":"4","last_reported":1720635079,"current_range_meters":0,"station_id":"ce4bgv12rcd13ifvqcp0","pricing_plan_id":"cebpf4jnsgd1na2vs0mg"},{"bike_id":"6861a0b8-eedd-4eb5-9c1f-080c03eae9dd","system_id":"levelo_inurba_marseille","lat":43.297163,"lon":5.365866,"is_reserved":false,"is_disabled":false,"rental_uris":{"android":"levelo://app?vid=6861a0b8-eedd-4eb5-9c1f-080c03eae9dd","ios":"levelo://app?vid=6861a0b8-eedd-4eb5-9c1f-080c03eae9dd"},"vehicle_type_id":"4","last_reported":1720635079,"current_range_meters":14000,"station_id":"ce4bgn12rcd13ifvqbt0","pricing_plan_id":"cebpf4jnsgd1na2vs0mg"},{"bike_id":"2b0f914c-c789-495d-b843-ae2d3d742964","system_id":"levelo_inurba_marseille","lat":43.297163,"lon":5.365866,"is_reserved":false,"is_disabled":false,"rental_uris":{"android":"levelo://app?vid=2b0f914c-c789-495d-b843-ae2d3d742964","ios":"levelo://app?vid=2b0f914c-c789-495d-b843-ae2d3d742964"},"vehicle_type_id":"4","last_reported":1720635079,"current_range_meters":14400,"station_id":"ce4bgn12rcd13ifvqbt0","pricing_plan_id":"cebpf4jnsgd1na2vs0mg"},{"bike_id":"329f7ef3-08bf-4c9e-960e-82003cbc63d1","system_id":"levelo_inurba_marseille","lat":43.297163,"lon":5.365866,"is_reserved":false,"is_disabled":false,"rental_uris":{"android":"levelo://app?vid=329f7ef3-08bf-4c9e-960e-82003cbc63d1","ios":"levelo://app?vid=329f7ef3-08bf-4c9e-960e-82003cbc63d1"},"vehicle_type_id":"4","last_reported":1720635079,"current_range_meters":24400,"station_id":"ce4bgn12rcd13ifvqbt0","pricing_plan_id":"cebpf4jnsgd1na2vs0mg"},{"bike_id":"47af01f5-a5a4-4777-b25e-e17bc6b25357","system_id":"levelo_inurba_marseille","lat":43.297163,"lon":5.365866,"is_reserved":false,"is_disabled":false,"rental_uris":{"android":"levelo://app?vid=47af01f5-a5a4-4777-b25e-e17bc6b25357","ios":"levelo://app?vid=47af01f5-a5a4-4777-b25e-e17bc6b25357"},"vehicle_type_id":"4","last_reported":1720635079,"current_range_meters":1200,"station_id":"ce4bgn12rcd13ifvqbt0","pricing_plan_id":"cebpf4jnsgd1na2vs0mg"},{"bike_id":"838b8373-298d-4df2-917f-1373a6b639ad","system_id":"levelo_inurba_marseille","lat":43.297163,"lon":5.365866,"is_reserved":false,"is_disabled":false,"rental_uris":{"android":"levelo://app?vid=838b8373-298d-4df2-917f-1373a6b639ad","ios":"levelo://app?vid=838b8373-298d-4df2-917f-1373a6b639ad"},"vehicle_type_id":"4","last_reported":1720635079,"current_range_meters":24000,"station_id":"ce4bgn12rcd13ifvqbt0","pricing_plan_id":"cebpf4jnsgd1na2vs0mg"},{"bike_id":"8d3b0a3f-d4c0-4868-a2d6-a888f11aef4a","system_id":"levelo_inurba_marseille","lat":43.297163,"lon":5.365866,"is_reserved":false,"is_disabled":false,"rental_uris":{"android":"levelo://app?vid=8d3b0a3f-d4c0-4868-a2d6-a888f11aef4a","ios":"levelo://app?vid=8d3b0a3f-d4c0-4868-a2d6-a888f11aef4a"},"vehicle_type_id":"4","last_reported":1720635079,"current_range_meters":0,"station_id":"ce4bgn12rcd13ifvqbt0","pricing_plan_id":"cebpf4jnsgd1na2vs0mg"},{"bike_id":"baade467-f2f8-44b6-9303-003b51e6d2db","system_id":"levelo_inurba_marseille","lat":43.297163,"lon":5.365866,"is_reserved":false,"is_disabled":false,"rental_uris":{"android":"levelo://app?vid=baade467-f2f8-44b6-9303-003b51e6d2db","ios":"levelo://app?vid=baade467-f2f8-44b6-9303-003b51e6d2db"},"vehicle_type_id":"4","last_reported":1720635079,"current_range_meters":27200,"station_id":"ce4bgn12rcd13ifvqbt0","pricing_plan_id":"cebpf4jnsgd1na2vs0mg"},{"bike_id":"d83a05df-d119-4a65-9803-9ea8808de771","system_id":"levelo_inurba_marseille","lat":43.297163,"lon":5.365866,"is_reserved":false,"is_disabled":false,"rental_uris":{"android":"levelo://app?vid=d83a05df-d119-4a65-9803-9ea8808de771","ios":"levelo://app?vid=d83a05df-d119-4a65-9803-9ea8808de771"},"vehicle_type_id":"4","last_reported":1720635079,"current_range_meters":7600,"station_id":"ce4bgn12rcd13ifvqbt0","pricing_plan_id":"cebpf4jnsgd1na2vs0mg"},{"bike_id":"da2002e9-2685-4437-bfe0-a3800592a9e8","system_id":"levelo_inurba_marseille","lat":43.309589,"lon":5.390258,"is_reserved":false,"is_disabled":false,"rental_uris":{"android":"levelo://app?vid=da2002e9-2685-4437-bfe0-a3800592a9e8","ios":"levelo://app?vid=da2002e9-2685-4437-bfe0-a3800592a9e8"},"vehicle_type_id":"4","last_reported":1720635079,"current_range_meters":16000,"station_id":"ce4bgup2rcd13ifvqco0","pricing_plan_id":"cebpf4jnsgd1na2vs0mg"},{"bike_id":"3adeb727-3977-4449-be0e-a5b708e21e56","system_id":"levelo_inurba_marseille","lat":43.29911,"lon":5.38137,"is_reserved":false,"is_disabled":false,"rental_uris":{"android":"levelo://app?vid=3adeb727-3977-4449-be0e-a5b708e21e56","ios":"levelo://app?vid=3adeb727-3977-4449-be0e-a5b708e21e56"},"vehicle_type_id":"4","last_reported":1720635079,"current_range_meters":0,"station_id":"ce4bgj12rcd13ifvqbc0","pricing_plan_id":"cebpf4jnsgd1na2vs0mg"},{"bike_id":"1664e45a-0229-4f63-bb69-80da5213849e","system_id":"levelo_inurba_marseille","lat":43.299028,"lon":5.381509,"is_reserved":false,"is_disabled":false,"rental_uris":{"android":"levelo://app?vid=1664e45a-0229-4f63-bb69-80da5213849e","ios":"levelo://app?vid=1664e45a-0229-4f63-bb69-80da5213849e"},"vehicle_type_id":"4","last_reported":1720635079,"current_range_meters":800,"station_id":"ce4bgj12rcd13ifvqbc0","pricing_plan_id":"cebpf4jnsgd1na2vs0mg"},{"bike_id":"f053c1ba-9c63-48c1-8dc6-75688e789544","system_id":"levelo_inurba_marseille","lat":43.299028,"lon":5.381509,"is_reserved":false,"is_disabled":false,"rental_uris":{"android":"levelo://app?vid=f053c1ba-9c63-48c1-8dc6-75688e789544","ios":"levelo://app?vid=f053c1ba-9c63-48c1-8dc6-75688e789544"},"vehicle_type_id":"4","last_reported":1720635079,"current_range_meters":30800,"station_id":"ce4bgj12rcd13ifvqbc0","pricing_plan_id":"cebpf4jnsgd1na2vs0mg"},{"bike_id":"00458b89-69df-44e4-8f58-99a7c40ee984","system_id":"levelo_inurba_marseille","lat":43.299028,"lon":5.381509,"is_reserved":false,"is_disabled":false,"rental_uris":{"android":"levelo://app?vid=00458b89-69df-44e4-8f58-99a7c40ee984","ios":"levelo://app?vid=00458b89-69df-44e4-8f58-99a7c40ee984"},"vehicle_type_id":"4","last_reported":1720635079,"current_range_meters":2000,"station_id":"ce4bgj12rcd13ifvqbc0","pricing_plan_id":"cebpf4jnsgd1na2vs0mg"},{"bike_id":"1f68bac5-30a6-4cab-aa8b-d7b2b1b40b1b","system_id":"levelo_inurba_marseille","lat":43.309589,"lon":5.390258,"is_reserved":false,"is_disabled":false,"rental_uris":{"android":"levelo://app?vid=1f68bac5-30a6-4cab-aa8b-d7b2b1b40b1b","ios":"levelo://app?vid=1f68bac5-30a6-4cab-aa8b-d7b2b1b40b1b"},"vehicle_type_id":"4","last_reported":1720635079,"current_range_meters":800,"station_id":"ce4bgup2rcd13ifvqco0","pricing_plan_id":"cebpf4jnsgd1na2vs0mg"},{"bike_id":"db0a06f6-7ff7-43df-8536-132034bf9cf6","system_id":"levelo_inurba_marseille","lat":43.2991,"lon":5.38149,"is_reserved":false,"is_disabled":false,"rental_uris":{"android":"levelo://app?vid=db0a06f6-7ff7-43df-8536-132034bf9cf6","ios":"levelo://app?vid=db0a06f6-7ff7-43df-8536-132034bf9cf6"},"vehicle_type_id":"4","last_reported":1720635079,"current_range_meters":1600,"station_id":"ce4bgj12rcd13ifvqbc0","pricing_plan_id":"cebpf4jnsgd1na2vs0mg"},{"bike_id":"530b29dc-afc3-403e-8997-2fdcf6a75615","system_id":"levelo_inurba_marseille","lat":43.309589,"lon":5.390258,"is_reserved":false,"is_disabled":false,"rental_uris":{"android":"levelo://app?vid=530b29dc-afc3-403e-8997-2fdcf6a75615","ios":"levelo://app?vid=530b29dc-afc3-403e-8997-2fdcf6a75615"},"vehicle_type_id":"4","last_reported":1720635079,"current_range_meters":3600,"station_id":"ce4bgup2rcd13ifvqco0","pricing_plan_id":"cebpf4jnsgd1na2vs0mg"},{"bike_id":"783b46a8-8aa3-4033-882e-dcf4ff46c4bb","system_id":"levelo_inurba_marseille","lat":43.31759,"lon":5.39005,"is_reserved":false,"is_disabled":false,"rental_uris":{"android":"levelo://app?vid=783b46a8-8aa3-4033-882e-dcf4ff46c4bb","ios":"levelo://app?vid=783b46a8-8aa3-4033-882e-dcf4ff46c4bb"},"vehicle_type_id":"4","last_reported":1720635079,"current_range_meters":8400,"station_id":"ce4bhqp2rcd13ifvqhng","pricing_plan_id":"cebpf4jnsgd1na2vs0mg"},{"bike_id":"c13678f0-8d7f-4e03-b66c-c1d5e5678ac0","system_id":"levelo_inurba_marseille","lat":43.295748,"lon":5.37522,"is_reserved":false,"is_disabled":false,"rental_uris":{"android":"levelo://app?vid=c13678f0-8d7f-4e03-b66c-c1d5e5678ac0","ios":"levelo://app?vid=c13678f0-8d7f-4e03-b66c-c1d5e5678ac0"},"vehicle_type_id":"4","last_reported":1720635079,"current_range_meters":19600,"station_id":"ce4bgh92rcd13ifvqb50","pricing_plan_id":"cebpf4jnsgd1na2vs0mg"},{"bike_id":"c663168f-e342-41a0-ae25-3d3eb2cb7485","system_id":"levelo_inurba_marseille","lat":43.295748,"lon":5.37522,"is_reserved":false,"is_disabled":false,"rental_uris":{"android":"levelo://app?vid=c663168f-e342-41a0-ae25-3d3eb2cb7485","ios":"levelo://app?vid=c663168f-e342-41a0-ae25-3d3eb2cb7485"},"vehicle_type_id":"4","last_reported":1720635079,"current_range_meters":16800,"station_id":"ce4bgh92rcd13ifvqb50","pricing_plan_id":"cebpf4jnsgd1na2vs0mg"},{"bike_id":"74a8ecfb-dd33-488a-8e66-be1998774d6f","system_id":"levelo_inurba_marseille","lat":43.304274,"lon":5.388873,"is_reserved":false,"is_disabled":false,"rental_uris":{"android":"levelo://app?vid=74a8ecfb-dd33-488a-8e66-be1998774d6f","ios":"levelo://app?vid=74a8ecfb-dd33-488a-8e66-be1998774d6f"},"vehicle_type_id":"4","last_reported":1720635079,"current_range_meters":4000,"station_id":"ce4bgk12rcd13ifvqbi0","pricing_plan_id":"cebpf4jnsgd1na2vs0mg"},{"bike_id":"b90fc676-6c95-499d-8f3e-4db9b06f7e01","system_id":"levelo_inurba_marseille","lat":43.298037,"lon":5.381066,"is_reserved":false,"is_disabled":false,"rental_uris":{"android":"levelo://app?vid=b90fc676-6c95-499d-8f3e-4db9b06f7e01","ios":"levelo://app?vid=b90fc676-6c95-499d-8f3e-4db9b06f7e01"},"vehicle_type_id":"4","last_reported":1720635079,"current_range_meters":26000,"station_id":"ce4bgip2rcd13ifvqbb0","pricing_plan_id":"cebpf4jnsgd1na2vs0mg"},{"bike_id":"0ccd5e0b-61bc-4ee5-b174-3ceea4ee384c","system_id":"levelo_inurba_marseille","lat":43.295748,"lon":5.37522,"is_reserved":false,"is_disabled":false,"rental_uris":{"android":"levelo://app?vid=0ccd5e0b-61bc-4ee5-b174-3ceea4ee384c","ios":"levelo://app?vid=0ccd5e0b-61bc-4ee5-b174-3ceea4ee384c"},"vehicle_type_id":"4","last_reported":1720635079,"current_range_meters":1600,"station_id":"ce4bgh92rcd13ifvqb50","pricing_plan_id":"cebpf4jnsgd1na2vs0mg"},{"bike_id":"aed21831-298e-489a-8842-6c1628e0a201","system_id":"levelo_inurba_marseille","lat":43.296231,"lon":5.377134,"is_reserved":false,"is_disabled":false,"rental_uris":{"android":"levelo://app?vid=aed21831-298e-489a-8842-6c1628e0a201","ios":"levelo://app?vid=aed21831-298e-489a-8842-6c1628e0a201"},"vehicle_type_id":"4","last_reported":1720635079,"current_range_meters":30800,"station_id":"ce4bgi92rcd13ifvqb90","pricing_plan_id":"cebpf4jnsgd1na2vs0mg"},{"bike_id":"55e49f57-9d16-4e2a-bf36-49f54181d3c7","system_id":"levelo_inurba_marseille","lat":43.299707,"lon":5.384859,"is_reserved":false,"is_disabled":false,"rental_uris":{"android":"levelo://app?vid=55e49f57-9d16-4e2a-bf36-49f54181d3c7","ios":"levelo://app?vid=55e49f57-9d16-4e2a-bf36-49f54181d3c7"},"vehicle_type_id":"4","last_reported":1720635079,"current_range_meters":4400,"station_id":"ce4bgj92rcd13ifvqbd0","pricing_plan_id":"cebpf4jnsgd1na2vs0mg"},{"bike_id":"cddc08dd-8746-412f-a369-95daf41923f4","system_id":"levelo_inurba_marseille","lat":43.299707,"lon":5.384859,"is_reserved":false,"is_disabled":false,"rental_uris":{"android":"levelo://app?vid=cddc08dd-8746-412f-a369-95daf41923f4","ios":"levelo://app?vid=cddc08dd-8746-412f-a369-95daf41923f4"},"vehicle_type_id":"4","last_reported":1720635079,"current_range_meters":3600,"station_id":"ce4bgj92rcd13ifvqbd0","pricing_plan_id":"cebpf4jnsgd1na2vs0mg"},{"bike_id":"6e67f671-0110-47a7-9806-03fb74170bb5","system_id":"levelo_inurba_marseille","lat":43.299717,"lon":5.384845,"is_reserved":false,"is_disabled":false,"rental_uris":{"android":"levelo://app?vid=6e67f671-0110-47a7-9806-03fb74170bb5","ios":"levelo://app?vid=6e67f671-0110-47a7-9806-03fb74170bb5"},"vehicle_type_id":"4","last_reported":1720635079,"current_range_meters":400,"station_id":"ce4bgj92rcd13ifvqbd0","pricing_plan_id":"cebpf4jnsgd1na2vs0mg"},{"bike_id":"46f0f0bf-1d72-42e8-a67e-40e3ccf9c747","system_id":"levelo_inurba_marseille","lat":43.301396,"lon":5.387812,"is_reserved":false,"is_disabled":false,"rental_uris":{"android":"levelo://app?vid=46f0f0bf-1d72-42e8-a67e-40e3ccf9c747","ios":"levelo://app?vid=46f0f0bf-1d72-42e8-a67e-40e3ccf9c747"},"vehicle_type_id":"4","last_reported":1720635079,"current_range_meters":0,"station_id":"ce4bghh2rcd13ifvqb60","pricing_plan_id":"cebpf4jnsgd1na2vs0mg"},{"bike_id":"cc094480-5651-46ec-8efc-10a1d7628d17","system_id":"levelo_inurba_marseille","lat":43.32367,"lon":5.388836,"is_reserved":false,"is_disabled":false,"rental_uris":{"android":"levelo://app?vid=cc094480-5651-46ec-8efc-10a1d7628d17","ios":"levelo://app?vid=cc094480-5651-46ec-8efc-10a1d7628d17"},"vehicle_type_id":"4","last_reported":1720635079,"current_range_meters":9600,"station_id":"ce4bhqp2rcd13ifvqhog","pricing_plan_id":"cebpf4jnsgd1na2vs0mg"},{"bike_id":"d21a7c3e-6c7c-47a2-ab5a-2701fbb9b018","system_id":"levelo_inurba_marseille","lat":43.323425,"lon":5.389261,"is_reserved":false,"is_disabled":false,"rental_uris":{"android":"levelo://app?vid=d21a7c3e-6c7c-47a2-ab5a-2701fbb9b018","ios":"levelo://app?vid=d21a7c3e-6c7c-47a2-ab5a-2701fbb9b018"},"vehicle_type_id":"4","last_reported":1720635079,"current_range_meters":24000,"station_id":"","pricing_plan_id":"cebpf4jnsgd1na2vs0mg"},{"bike_id":"21bc6e7f-fc08-4397-9d4b-b2e7ac1fed79","system_id":"levelo_inurba_marseille","lat":43.29602,"lon":5.381084,"is_reserved":false,"is_disabled":false,"rental_uris":{"android":"levelo://app?vid=21bc6e7f-fc08-4397-9d4b-b2e7ac1fed79","ios":"levelo://app?vid=21bc6e7f-fc08-4397-9d4b-b2e7ac1fed79"},"vehicle_type_id":"4","last_reported":1720635079,"current_range_meters":14800,"station_id":"ce4bgl12rcd13ifvqbo0","pricing_plan_id":"cebpf4jnsgd1na2vs0mg"},{"bike_id":"f98177ae-18e2-474c-a253-54977d2e348b","system_id":"levelo_inurba_marseille","lat":43.293259,"lon":5.371586,"is_reserved":false,"is_disabled":false,"rental_uris":{"android":"levelo://app?vid=f98177ae-18e2-474c-a253-54977d2e348b","ios":"levelo://app?vid=f98177ae-18e2-474c-a253-54977d2e348b"},"vehicle_type_id":"4","last_reported":1720635079,"current_range_meters":400,"station_id":"ce4bgh92rcd13ifvqb40","pricing_plan_id":"cebpf4jnsgd1na2vs0mg"},{"bike_id":"88fad85e-33c5-4726-9035-7a5b8640295a","system_id":"levelo_inurba_marseille","lat":43.293259,"lon":5.371586,"is_reserved":false,"is_disabled":false,"rental_uris":{"android":"levelo://app?vid=88fad85e-33c5-4726-9035-7a5b8640295a","ios":"levelo://app?vid=88fad85e-33c5-4726-9035-7a5b8640295a"},"vehicle_type_id":"4","last_reported":1720635079,"current_range_meters":22800,"station_id":"ce4bgh92rcd13ifvqb40","pricing_plan_id":"cebpf4jnsgd1na2vs0mg"},{"bike_id":"3844c00c-c2b1-42f9-ba56-4b9b1ddeffce","system_id":"levelo_inurba_marseille","lat":43.293249,"lon":5.371578,"is_reserved":false,"is_disabled":false,"rental_uris":{"android":"levelo://app?vid=3844c00c-c2b1-42f9-ba56-4b9b1ddeffce","ios":"levelo://app?vid=3844c00c-c2b1-42f9-ba56-4b9b1ddeffce"},"vehicle_type_id":"4","last_reported":1720635079,"current_range_meters":0,"station_id":"ce4bgh92rcd13ifvqb40","pricing_plan_id":"cebpf4jnsgd1na2vs0mg"},{"bike_id":"278c605f-fe5a-4d67-939b-fc986a994c73","system_id":"levelo_inurba_marseille","lat":43.294244,"lon":5.377494,"is_reserved":false,"is_disabled":false,"rental_uris":{"android":"levelo://app?vid=278c605f-fe5a-4d67-939b-fc986a994c73","ios":"levelo://app?vid=278c605f-fe5a-4d67-939b-fc986a994c73"},"vehicle_type_id":"4","last_reported":1720635079,"current_range_meters":7600,"station_id":"ce4bhbh2rcd13ifvqeo0","pricing_plan_id":"cebpf4jnsgd1na2vs0mg"},{"bike_id":"a8c5a4a9-1266-4063-8950-8e9836a1ee46","system_id":"levelo_inurba_marseille","lat":43.29306,"lon":5.37432,"is_reserved":false,"is_disabled":false,"rental_uris":{"android":"levelo://app?vid=a8c5a4a9-1266-4063-8950-8e9836a1ee46","ios":"levelo://app?vid=a8c5a4a9-1266-4063-8950-8e9836a1ee46"},"vehicle_type_id":"4","last_reported":1720635079,"current_range_meters":0,"station_id":"ce4bgi12rcd13ifvqb70","pricing_plan_id":"cebpf4jnsgd1na2vs0mg"},{"bike_id":"28744e08-21b6-4534-8892-25338976544b","system_id":"levelo_inurba_marseille","lat":43.29306,"lon":5.37454,"is_reserved":false,"is_disabled":false,"rental_uris":{"android":"levelo://app?vid=28744e08-21b6-4534-8892-25338976544b","ios":"levelo://app?vid=28744e08-21b6-4534-8892-25338976544b"},"vehicle_type_id":"4","last_reported":1720635079,"current_range_meters":0,"station_id":"ce4bgi12rcd13ifvqb70","pricing_plan_id":"cebpf4jnsgd1na2vs0mg"},{"bike_id":"0fb265bf-80fe-47a6-8c74-0ed5d01a5b31","system_id":"levelo_inurba_marseille","lat":43.305994,"lon":5.393687,"is_reserved":false,"is_disabled":false,"rental_uris":{"android":"levelo://app?vid=0fb265bf-80fe-47a6-8c74-0ed5d01a5b31","ios":"levelo://app?vid=0fb265bf-80fe-47a6-8c74-0ed5d01a5b31"},"vehicle_type_id":"4","last_reported":1720635079,"current_range_meters":400,"station_id":"ce4bh0p2rcd13ifvqd80","pricing_plan_id":"cebpf4jnsgd1na2vs0mg"},{"bike_id":"39b79af5-1fb5-40f4-9454-efc07730422a","system_id":"levelo_inurba_marseille","lat":43.305994,"lon":5.393687,"is_reserved":false,"is_disabled":false,"rental_uris":{"android":"levelo://app?vid=39b79af5-1fb5-40f4-9454-efc07730422a","ios":"levelo://app?vid=39b79af5-1fb5-40f4-9454-efc07730422a"},"vehicle_type_id":"4","last_reported":1720635079,"current_range_meters":25600,"station_id":"ce4bh0p2rcd13ifvqd80","pricing_plan_id":"cebpf4jnsgd1na2vs0mg"},{"bike_id":"d6dcc94a-9091-4feb-826a-87ebce1e95ae","system_id":"levelo_inurba_marseille","lat":43.305994,"lon":5.393687,"is_reserved":false,"is_disabled":false,"rental_uris":{"android":"levelo://app?vid=d6dcc94a-9091-4feb-826a-87ebce1e95ae","ios":"levelo://app?vid=d6dcc94a-9091-4feb-826a-87ebce1e95ae"},"vehicle_type_id":"4","last_reported":1720635079,"current_range_meters":2800,"station_id":"ce4bh0p2rcd13ifvqd80","pricing_plan_id":"cebpf4jnsgd1na2vs0mg"},{"bike_id":"bb7788d0-e040-41d6-a3eb-364096aeb736","system_id":"levelo_inurba_marseille","lat":43.29299,"lon":5.3745,"is_reserved":false,"is_disabled":false,"rental_uris":{"android":"levelo://app?vid=bb7788d0-e040-41d6-a3eb-364096aeb736","ios":"levelo://app?vid=bb7788d0-e040-41d6-a3eb-364096aeb736"},"vehicle_type_id":"4","last_reported":1720635079,"current_range_meters":0,"station_id":"ce4bgi12rcd13ifvqb70","pricing_plan_id":"cebpf4jnsgd1na2vs0mg"},{"bike_id":"7937758a-1e77-467a-a485-90c877fe8bf5","system_id":"levelo_inurba_marseille","lat":43.295155,"lon":5.3816,"is_reserved":false,"is_disabled":false,"rental_uris":{"android":"levelo://app?vid=7937758a-1e77-467a-a485-90c877fe8bf5","ios":"levelo://app?vid=7937758a-1e77-467a-a485-90c877fe8bf5"},"vehicle_type_id":"4","last_reported":1720635079,"current_range_meters":4400,"station_id":"","pricing_plan_id":"cebpf4jnsgd1na2vs0mg"},{"bike_id":"9f6bc190-2982-40f0-92e5-1f488a7edbaa","system_id":"levelo_inurba_marseille","lat":43.305994,"lon":5.393687,"is_reserved":false,"is_disabled":false,"rental_uris":{"android":"levelo://app?vid=9f6bc190-2982-40f0-92e5-1f488a7edbaa","ios":"levelo://app?vid=9f6bc190-2982-40f0-92e5-1f488a7edbaa"},"vehicle_type_id":"4","last_reported":1720635079,"current_range_meters":2000,"station_id":"ce4bh0p2rcd13ifvqd80","pricing_plan_id":"cebpf4jnsgd1na2vs0mg"},{"bike_id":"8ba3a60f-6ec8-4044-917b-d582e1ba72f4","system_id":"levelo_inurba_marseille","lat":43.30298,"lon":5.39212,"is_reserved":false,"is_disabled":false,"rental_uris":{"android":"levelo://app?vid=8ba3a60f-6ec8-4044-917b-d582e1ba72f4","ios":"levelo://app?vid=8ba3a60f-6ec8-4044-917b-d582e1ba72f4"},"vehicle_type_id":"4","last_reported":1720635079,"current_range_meters":0,"station_id":"ce4bgkh2rcd13ifvqbk0","pricing_plan_id":"cebpf4jnsgd1na2vs0mg"},{"bike_id":"7fac8998-ca09-4d0a-999c-9189bcab3b53","system_id":"levelo_inurba_marseille","lat":43.302992,"lon":5.392136,"is_reserved":false,"is_disabled":false,"rental_uris":{"android":"levelo://app?vid=7fac8998-ca09-4d0a-999c-9189bcab3b53","ios":"levelo://app?vid=7fac8998-ca09-4d0a-999c-9189bcab3b53"},"vehicle_type_id":"4","last_reported":1720635079,"current_range_meters":0,"station_id":"ce4bgkh2rcd13ifvqbk0","pricing_plan_id":"cebpf4jnsgd1na2vs0mg"},{"bike_id":"d1ecdecd-03b1-4bdf-bea4-f73b841fe695","system_id":"levelo_inurba_marseille","lat":43.302992,"lon":5.392136,"is_reserved":false,"is_disabled":false,"rental_uris":{"android":"levelo://app?vid=d1ecdecd-03b1-4bdf-bea4-f73b841fe695","ios":"levelo://app?vid=d1ecdecd-03b1-4bdf-bea4-f73b841fe695"},"vehicle_type_id":"4","last_reported":1720635079,"current_range_meters":24400,"station_id":"ce4bgkh2rcd13ifvqbk0","pricing_plan_id":"cebpf4jnsgd1na2vs0mg"},{"bike_id":"aea048e0-4a3f-4f4f-8aa5-15c2fdadabd0","system_id":"levelo_inurba_marseille","lat":43.2936,"lon":5.37835,"is_reserved":false,"is_disabled":false,"rental_uris":{"android":"levelo://app?vid=aea048e0-4a3f-4f4f-8aa5-15c2fdadabd0","ios":"levelo://app?vid=aea048e0-4a3f-4f4f-8aa5-15c2fdadabd0"},"vehicle_type_id":"4","last_reported":1720635079,"current_range_meters":22400,"station_id":"ce4bgjh2rcd13ifvqbf0","pricing_plan_id":"cebpf4jnsgd1na2vs0mg"},{"bike_id":"0d801b5d-763f-4ab0-9388-04aeb7493393","system_id":"levelo_inurba_marseille","lat":43.292311,"lon":5.360731,"is_reserved":false,"is_disabled":false,"rental_uris":{"android":"levelo://app?vid=0d801b5d-763f-4ab0-9388-04aeb7493393","ios":"levelo://app?vid=0d801b5d-763f-4ab0-9388-04aeb7493393"},"vehicle_type_id":"4","last_reported":1720635079,"current_range_meters":20800,"station_id":"ce4bhbh2rcd13ifvqeqg","pricing_plan_id":"cebpf4jnsgd1na2vs0mg"},{"bike_id":"8f13680f-8898-46b0-88f7-f445de714d2b","system_id":"levelo_inurba_marseille","lat":43.30085,"lon":5.390856,"is_reserved":false,"is_disabled":false,"rental_uris":{"android":"levelo://app?vid=8f13680f-8898-46b0-88f7-f445de714d2b","ios":"levelo://app?vid=8f13680f-8898-46b0-88f7-f445de714d2b"},"vehicle_type_id":"4","last_reported":1720635079,"current_range_meters":0,"station_id":"ce4bh192rcd13ifvqdb0","pricing_plan_id":"cebpf4jnsgd1na2vs0mg"},{"bike_id":"96e6d503-2326-445c-aa7a-c73d10c741b2","system_id":"levelo_inurba_marseille","lat":43.290104,"lon":5.356111,"is_reserved":false,"is_disabled":false,"rental_uris":{"android":"levelo://app?vid=96e6d503-2326-445c-aa7a-c73d10c741b2","ios":"levelo://app?vid=96e6d503-2326-445c-aa7a-c73d10c741b2"},"vehicle_type_id":"4","last_reported":1720635079,"current_range_meters":25600,"station_id":"ce4bhb92rcd13ifvqen0","pricing_plan_id":"cebpf4jnsgd1na2vs0mg"},{"bike_id":"8c023ca1-aae3-4b7a-b2e0-9570041b2eb9","system_id":"levelo_inurba_marseille","lat":43.309038,"lon":5.396546,"is_reserved":false,"is_disabled":false,"rental_uris":{"android":"levelo://app?vid=8c023ca1-aae3-4b7a-b2e0-9570041b2eb9","ios":"levelo://app?vid=8c023ca1-aae3-4b7a-b2e0-9570041b2eb9"},"vehicle_type_id":"4","last_reported":1720635079,"current_range_meters":20000,"station_id":"ce4bh012rcd13ifvqcv0","pricing_plan_id":"cebpf4jnsgd1na2vs0mg"},{"bike_id":"ad2630a5-809f-4fc0-a88c-3c9f4aa2ab81","system_id":"levelo_inurba_marseille","lat":43.292005,"lon":5.357875,"is_reserved":false,"is_disabled":false,"rental_uris":{"android":"levelo://app?vid=ad2630a5-809f-4fc0-a88c-3c9f4aa2ab81","ios":"levelo://app?vid=ad2630a5-809f-4fc0-a88c-3c9f4aa2ab81"},"vehicle_type_id":"4","last_reported":1720635079,"current_range_meters":28800,"station_id":"ce4bhb12rcd13ifvqel0","pricing_plan_id":"cebpf4jnsgd1na2vs0mg"},{"bike_id":"c60bbf0d-d3f8-4531-8391-1b3782a859dc","system_id":"levelo_inurba_marseille","lat":43.291994,"lon":5.357886,"is_reserved":false,"is_disabled":false,"rental_uris":{"android":"levelo://app?vid=c60bbf0d-d3f8-4531-8391-1b3782a859dc","ios":"levelo://app?vid=c60bbf0d-d3f8-4531-8391-1b3782a859dc"},"vehicle_type_id":"4","last_reported":1720635079,"current_range_meters":17200,"station_id":"ce4bhb12rcd13ifvqel0","pricing_plan_id":"cebpf4jnsgd1na2vs0mg"},{"bike_id":"0108005a-bd5b-4057-b9ab-ebeb68f01c42","system_id":"levelo_inurba_marseille","lat":43.313291,"lon":5.396838,"is_reserved":false,"is_disabled":false,"rental_uris":{"android":"levelo://app?vid=0108005a-bd5b-4057-b9ab-ebeb68f01c42","ios":"levelo://app?vid=0108005a-bd5b-4057-b9ab-ebeb68f01c42"},"vehicle_type_id":"4","last_reported":1720635079,"current_range_meters":0,"station_id":"ce4bgvp2rcd13ifvqcu0","pricing_plan_id":"cebpf4jnsgd1na2vs0mg"},{"bike_id":"001a74b3-64b8-4798-b6c0-7159f31eb595","system_id":"levelo_inurba_marseille","lat":43.313291,"lon":5.396838,"is_reserved":false,"is_disabled":false,"rental_uris":{"android":"levelo://app?vid=001a74b3-64b8-4798-b6c0-7159f31eb595","ios":"levelo://app?vid=001a74b3-64b8-4798-b6c0-7159f31eb595"},"vehicle_type_id":"4","last_reported":1720635079,"current_range_meters":11200,"station_id":"ce4bgvp2rcd13ifvqcu0","pricing_plan_id":"cebpf4jnsgd1na2vs0mg"},{"bike_id":"cf0e863e-a51e-4406-9c7b-24b2f07beab5","system_id":"levelo_inurba_marseille","lat":43.309047,"lon":5.396551,"is_reserved":false,"is_disabled":false,"rental_uris":{"android":"levelo://app?vid=cf0e863e-a51e-4406-9c7b-24b2f07beab5","ios":"levelo://app?vid=cf0e863e-a51e-4406-9c7b-24b2f07beab5"},"vehicle_type_id":"4","last_reported":1720635079,"current_range_meters":24400,"station_id":"ce4bh012rcd13ifvqcv0","pricing_plan_id":"cebpf4jnsgd1na2vs0mg"},{"bike_id":"746cfd49-9798-4356-93a8-0c334b2e5d23","system_id":"levelo_inurba_marseille","lat":43.309047,"lon":5.396551,"is_reserved":false,"is_disabled":false,"rental_uris":{"android":"levelo://app?vid=746cfd49-9798-4356-93a8-0c334b2e5d23","ios":"levelo://app?vid=746cfd49-9798-4356-93a8-0c334b2e5d23"},"vehicle_type_id":"4","last_reported":1720635079,"current_range_meters":18400,"station_id":"ce4bh012rcd13ifvqcv0","pricing_plan_id":"cebpf4jnsgd1na2vs0mg"},{"bike_id":"daba096c-57a7-42ca-b6c1-37f97fc32186","system_id":"levelo_inurba_marseille","lat":43.290779,"lon":5.371482,"is_reserved":false,"is_disabled":false,"rental_uris":{"android":"levelo://app?vid=daba096c-57a7-42ca-b6c1-37f97fc32186","ios":"levelo://app?vid=daba096c-57a7-42ca-b6c1-37f97fc32186"},"vehicle_type_id":"4","last_reported":1720635079,"current_range_meters":1200,"station_id":"ce4bh5p2rcd13ifvqe4g","pricing_plan_id":"cebpf4jnsgd1na2vs0mg"},{"bike_id":"44569e10-b3b5-4c83-9f98-57e87b6643a3","system_id":"levelo_inurba_marseille","lat":43.290779,"lon":5.371482,"is_reserved":false,"is_disabled":false,"rental_uris":{"android":"levelo://app?vid=44569e10-b3b5-4c83-9f98-57e87b6643a3","ios":"levelo://app?vid=44569e10-b3b5-4c83-9f98-57e87b6643a3"},"vehicle_type_id":"4","last_reported":1720635079,"current_range_meters":2400,"station_id":"ce4bh5p2rcd13ifvqe4g","pricing_plan_id":"cebpf4jnsgd1na2vs0mg"},{"bike_id":"ecde2dcd-d62b-41ee-a5df-fc871389d162","system_id":"levelo_inurba_marseille","lat":43.29045,"lon":5.35902,"is_reserved":false,"is_disabled":false,"rental_uris":{"android":"levelo://app?vid=ecde2dcd-d62b-41ee-a5df-fc871389d162","ios":"levelo://app?vid=ecde2dcd-d62b-41ee-a5df-fc871389d162"},"vehicle_type_id":"4","last_reported":1720635079,"current_range_meters":0,"station_id":"ce4bha92rcd13ifvqeg0","pricing_plan_id":"cebpf4jnsgd1na2vs0mg"},{"bike_id":"8ad6c311-965b-4652-aabe-971b482082c7","system_id":"levelo_inurba_marseille","lat":43.294162,"lon":5.386292,"is_reserved":false,"is_disabled":false,"rental_uris":{"android":"levelo://app?vid=8ad6c311-965b-4652-aabe-971b482082c7","ios":"levelo://app?vid=8ad6c311-965b-4652-aabe-971b482082c7"},"vehicle_type_id":"4","last_reported":1720635079,"current_range_meters":16000,"station_id":"ce4bh2h2rcd13ifvqdh0","pricing_plan_id":"cebpf4jnsgd1na2vs0mg"},{"bike_id":"6668ab67-9586-4aa3-92cf-c27ee330f354","system_id":"levelo_inurba_marseille","lat":43.294153,"lon":5.386305,"is_reserved":false,"is_disabled":false,"rental_uris":{"android":"levelo://app?vid=6668ab67-9586-4aa3-92cf-c27ee330f354","ios":"levelo://app?vid=6668ab67-9586-4aa3-92cf-c27ee330f354"},"vehicle_type_id":"4","last_reported":1720635079,"current_range_meters":11600,"station_id":"ce4bh2h2rcd13ifvqdh0","pricing_plan_id":"cebpf4jnsgd1na2vs0mg"},{"bike_id":"897f48ea-2ae6-4e3d-8eac-f0d08a9fe4e9","system_id":"levelo_inurba_marseille","lat":43.2942,"lon":5.38615,"is_reserved":false,"is_disabled":false,"rental_uris":{"android":"levelo://app?vid=897f48ea-2ae6-4e3d-8eac-f0d08a9fe4e9","ios":"levelo://app?vid=897f48ea-2ae6-4e3d-8eac-f0d08a9fe4e9"},"vehicle_type_id":"4","last_reported":1720635079,"current_range_meters":0,"station_id":"ce4bh2h2rcd13ifvqdh0","pricing_plan_id":"cebpf4jnsgd1na2vs0mg"},{"bike_id":"41e7b3df-6b13-4f30-a599-e59ae5bc404c","system_id":"levelo_inurba_marseille","lat":43.29425,"lon":5.38626,"is_reserved":false,"is_disabled":false,"rental_uris":{"android":"levelo://app?vid=41e7b3df-6b13-4f30-a599-e59ae5bc404c","ios":"levelo://app?vid=41e7b3df-6b13-4f30-a599-e59ae5bc404c"},"vehicle_type_id":"4","last_reported":1720635079,"current_range_meters":1600,"station_id":"","pricing_plan_id":"cebpf4jnsgd1na2vs0mg"},{"bike_id":"c69c88d3-b5e0-430e-be4e-2b1d8a503c13","system_id":"levelo_inurba_marseille","lat":43.294162,"lon":5.386292,"is_reserved":false,"is_disabled":false,"rental_uris":{"android":"levelo://app?vid=c69c88d3-b5e0-430e-be4e-2b1d8a503c13","ios":"levelo://app?vid=c69c88d3-b5e0-430e-be4e-2b1d8a503c13"},"vehicle_type_id":"4","last_reported":1720635079,"current_range_meters":0,"station_id":"ce4bh2h2rcd13ifvqdh0","pricing_plan_id":"cebpf4jnsgd1na2vs0mg"},{"bike_id":"a18eb8ab-4da7-4daf-b7d8-1edb80b7b7a8","system_id":"levelo_inurba_marseille","lat":43.294162,"lon":5.386292,"is_reserved":false,"is_disabled":false,"rental_uris":{"android":"levelo://app?vid=a18eb8ab-4da7-4daf-b7d8-1edb80b7b7a8","ios":"levelo://app?vid=a18eb8ab-4da7-4daf-b7d8-1edb80b7b7a8"},"vehicle_type_id":"4","last_reported":1720635079,"current_range_meters":1200,"station_id":"ce4bh2h2rcd13ifvqdh0","pricing_plan_id":"cebpf4jnsgd1na2vs0mg"},{"bike_id":"c6b6db1a-0b6f-4c8b-aca7-370b191ade6b","system_id":"levelo_inurba_marseille","lat":43.294162,"lon":5.386292,"is_reserved":false,"is_disabled":false,"rental_uris":{"android":"levelo://app?vid=c6b6db1a-0b6f-4c8b-aca7-370b191ade6b","ios":"levelo://app?vid=c6b6db1a-0b6f-4c8b-aca7-370b191ade6b"},"vehicle_type_id":"4","last_reported":1720635079,"current_range_meters":22400,"station_id":"ce4bh2h2rcd13ifvqdh0","pricing_plan_id":"cebpf4jnsgd1na2vs0mg"},{"bike_id":"7af4a062-dba1-4b99-89c0-405b14835683","system_id":"levelo_inurba_marseille","lat":43.294162,"lon":5.386292,"is_reserved":false,"is_disabled":false,"rental_uris":{"android":"levelo://app?vid=7af4a062-dba1-4b99-89c0-405b14835683","ios":"levelo://app?vid=7af4a062-dba1-4b99-89c0-405b14835683"},"vehicle_type_id":"4","last_reported":1720635079,"current_range_meters":17600,"station_id":"ce4bh2h2rcd13ifvqdh0","pricing_plan_id":"cebpf4jnsgd1na2vs0mg"},{"bike_id":"04432c4d-999e-4fe6-8906-e635f5a5db23","system_id":"levelo_inurba_marseille","lat":43.294162,"lon":5.386292,"is_reserved":false,"is_disabled":false,"rental_uris":{"android":"levelo://app?vid=04432c4d-999e-4fe6-8906-e635f5a5db23","ios":"levelo://app?vid=04432c4d-999e-4fe6-8906-e635f5a5db23"},"vehicle_type_id":"4","last_reported":1720635079,"current_range_meters":11600,"station_id":"ce4bh2h2rcd13ifvqdh0","pricing_plan_id":"cebpf4jnsgd1na2vs0mg"},{"bike_id":"2d46234d-c29c-4a53-8e05-9b7375e004d0","system_id":"levelo_inurba_marseille","lat":43.294162,"lon":5.386292,"is_reserved":false,"is_disabled":false,"rental_uris":{"android":"levelo://app?vid=2d46234d-c29c-4a53-8e05-9b7375e004d0","ios":"levelo://app?vid=2d46234d-c29c-4a53-8e05-9b7375e004d0"},"vehicle_type_id":"4","last_reported":1720635079,"current_range_meters":22000,"station_id":"ce4bh2h2rcd13ifvqdh0","pricing_plan_id":"cebpf4jnsgd1na2vs0mg"},{"bike_id":"229707c9-48ad-4cff-90ff-b31b50b9303e","system_id":"levelo_inurba_marseille","lat":43.289468,"lon":5.363719,"is_reserved":false,"is_disabled":false,"rental_uris":{"android":"levelo://app?vid=229707c9-48ad-4cff-90ff-b31b50b9303e","ios":"levelo://app?vid=229707c9-48ad-4cff-90ff-b31b50b9303e"},"vehicle_type_id":"4","last_reported":1720635079,"current_range_meters":23200,"station_id":"ce4bhc92rcd13ifvqetg","pricing_plan_id":"cebpf4jnsgd1na2vs0mg"},{"bike_id":"cf5bc74e-d92e-4e59-b975-1bb148f51a2e","system_id":"levelo_inurba_marseille","lat":43.289184,"lon":5.366408,"is_reserved":false,"is_disabled":false,"rental_uris":{"android":"levelo://app?vid=cf5bc74e-d92e-4e59-b975-1bb148f51a2e","ios":"levelo://app?vid=cf5bc74e-d92e-4e59-b975-1bb148f51a2e"},"vehicle_type_id":"4","last_reported":1720635079,"current_range_meters":5600,"station_id":"ce4bhap2rcd13ifvqek0","pricing_plan_id":"cebpf4jnsgd1na2vs0mg"},{"bike_id":"321afa5b-2b52-46e5-9f6a-8da1921a66cd","system_id":"levelo_inurba_marseille","lat":43.289468,"lon":5.363719,"is_reserved":false,"is_disabled":false,"rental_uris":{"android":"levelo://app?vid=321afa5b-2b52-46e5-9f6a-8da1921a66cd","ios":"levelo://app?vid=321afa5b-2b52-46e5-9f6a-8da1921a66cd"},"vehicle_type_id":"4","last_reported":1720635079,"current_range_meters":10800,"station_id":"ce4bhc92rcd13ifvqetg","pricing_plan_id":"cebpf4jnsgd1na2vs0mg"},{"bike_id":"db9fcec7-47c0-41a6-8be2-48edd269e544","system_id":"levelo_inurba_marseille","lat":43.292644,"lon":5.384257,"is_reserved":false,"is_disabled":false,"rental_uris":{"android":"levelo://app?vid=db9fcec7-47c0-41a6-8be2-48edd269e544","ios":"levelo://app?vid=db9fcec7-47c0-41a6-8be2-48edd269e544"},"vehicle_type_id":"4","last_reported":1720635079,"current_range_meters":0,"station_id":"ce4bh692rcd13ifvqea0","pricing_plan_id":"cebpf4jnsgd1na2vs0mg"},{"bike_id":"9a607112-83a1-4f2b-beed-b8e0c870f465","system_id":"levelo_inurba_marseille","lat":43.29007,"lon":5.35619,"is_reserved":false,"is_disabled":false,"rental_uris":{"android":"levelo://app?vid=9a607112-83a1-4f2b-beed-b8e0c870f465","ios":"levelo://app?vid=9a607112-83a1-4f2b-beed-b8e0c870f465"},"vehicle_type_id":"4","last_reported":1720635079,"current_range_meters":31600,"station_id":"ce4bhb92rcd13ifvqen0","pricing_plan_id":"cebpf4jnsgd1na2vs0mg"},{"bike_id":"2f9ca586-4fdf-4b0d-94dc-de8112d42ad3","system_id":"levelo_inurba_marseille","lat":43.29007,"lon":5.35605,"is_reserved":false,"is_disabled":false,"rental_uris":{"android":"levelo://app?vid=2f9ca586-4fdf-4b0d-94dc-de8112d42ad3","ios":"levelo://app?vid=2f9ca586-4fdf-4b0d-94dc-de8112d42ad3"},"vehicle_type_id":"4","last_reported":1720635079,"current_range_meters":31200,"station_id":"ce4bhb92rcd13ifvqen0","pricing_plan_id":"cebpf4jnsgd1na2vs0mg"},{"bike_id":"857a37a7-23e9-40e1-995f-d18060ffbe96","system_id":"levelo_inurba_marseille","lat":43.297813,"lon":5.393301,"is_reserved":false,"is_disabled":false,"rental_uris":{"android":"levelo://app?vid=857a37a7-23e9-40e1-995f-d18060ffbe96","ios":"levelo://app?vid=857a37a7-23e9-40e1-995f-d18060ffbe96"},"vehicle_type_id":"4","last_reported":1720635079,"current_range_meters":0,"station_id":"","pricing_plan_id":"cebpf4jnsgd1na2vs0mg"},{"bike_id":"ed595a9a-4b5f-4c11-84b1-68a89b3e06f5","system_id":"levelo_inurba_marseille","lat":43.29528,"lon":5.39035,"is_reserved":false,"is_disabled":false,"rental_uris":{"android":"levelo://app?vid=ed595a9a-4b5f-4c11-84b1-68a89b3e06f5","ios":"levelo://app?vid=ed595a9a-4b5f-4c11-84b1-68a89b3e06f5"},"vehicle_type_id":"4","last_reported":1720635079,"current_range_meters":0,"station_id":"ce4bh3p2rcd13ifvqdp0","pricing_plan_id":"cebpf4jnsgd1na2vs0mg"},{"bike_id":"57ce2f58-ac14-4374-898c-d9e7e4eb92ab","system_id":"levelo_inurba_marseille","lat":43.2898,"lon":5.37839,"is_reserved":false,"is_disabled":false,"rental_uris":{"android":"levelo://app?vid=57ce2f58-ac14-4374-898c-d9e7e4eb92ab","ios":"levelo://app?vid=57ce2f58-ac14-4374-898c-d9e7e4eb92ab"},"vehicle_type_id":"4","last_reported":1720635079,"current_range_meters":21200,"station_id":"ce4bh9p2rcd13ifvqed0","pricing_plan_id":"cebpf4jnsgd1na2vs0mg"},{"bike_id":"7f4ba68c-72b4-4185-b6f7-efe66768fb85","system_id":"levelo_inurba_marseille","lat":43.330442,"lon":5.389148,"is_reserved":false,"is_disabled":false,"rental_uris":{"android":"levelo://app?vid=7f4ba68c-72b4-4185-b6f7-efe66768fb85","ios":"levelo://app?vid=7f4ba68c-72b4-4185-b6f7-efe66768fb85"},"vehicle_type_id":"4","last_reported":1720635079,"current_range_meters":24000,"station_id":"ce4bhr92rcd13ifvqhrg","pricing_plan_id":"cebpf4jnsgd1na2vs0mg"},{"bike_id":"74f20116-5ca5-4f7b-aa1c-9113bdd7963c","system_id":"levelo_inurba_marseille","lat":43.295169,"lon":5.390426,"is_reserved":false,"is_disabled":false,"rental_uris":{"android":"levelo://app?vid=74f20116-5ca5-4f7b-aa1c-9113bdd7963c","ios":"levelo://app?vid=74f20116-5ca5-4f7b-aa1c-9113bdd7963c"},"vehicle_type_id":"4","last_reported":1720635079,"current_range_meters":0,"station_id":"ce4bh3p2rcd13ifvqdp0","pricing_plan_id":"cebpf4jnsgd1na2vs0mg"},{"bike_id":"b5b45976-0b1c-4014-9c69-34715d69a153","system_id":"levelo_inurba_marseille","lat":43.330442,"lon":5.389148,"is_reserved":false,"is_disabled":false,"rental_uris":{"android":"levelo://app?vid=b5b45976-0b1c-4014-9c69-34715d69a153","ios":"levelo://app?vid=b5b45976-0b1c-4014-9c69-34715d69a153"},"vehicle_type_id":"4","last_reported":1720635079,"current_range_meters":8400,"station_id":"ce4bhr92rcd13ifvqhrg","pricing_plan_id":"cebpf4jnsgd1na2vs0mg"},{"bike_id":"e84ea5c3-e325-4421-91e7-f0bdc4c3736c","system_id":"levelo_inurba_marseille","lat":43.330442,"lon":5.389148,"is_reserved":false,"is_disabled":false,"rental_uris":{"android":"levelo://app?vid=e84ea5c3-e325-4421-91e7-f0bdc4c3736c","ios":"levelo://app?vid=e84ea5c3-e325-4421-91e7-f0bdc4c3736c"},"vehicle_type_id":"4","last_reported":1720635079,"current_range_meters":4800,"station_id":"ce4bhr92rcd13ifvqhrg","pricing_plan_id":"cebpf4jnsgd1na2vs0mg"},{"bike_id":"7acd27b2-9c90-4a2a-a99e-1280e47ff8f5","system_id":"levelo_inurba_marseille","lat":43.330442,"lon":5.389148,"is_reserved":false,"is_disabled":false,"rental_uris":{"android":"levelo://app?vid=7acd27b2-9c90-4a2a-a99e-1280e47ff8f5","ios":"levelo://app?vid=7acd27b2-9c90-4a2a-a99e-1280e47ff8f5"},"vehicle_type_id":"4","last_reported":1720635079,"current_range_meters":6000,"station_id":"ce4bhr92rcd13ifvqhrg","pricing_plan_id":"cebpf4jnsgd1na2vs0mg"},{"bike_id":"e1749463-52db-42da-9fd4-bfa5181bf220","system_id":"levelo_inurba_marseille","lat":43.330442,"lon":5.389148,"is_reserved":false,"is_disabled":false,"rental_uris":{"android":"levelo://app?vid=e1749463-52db-42da-9fd4-bfa5181bf220","ios":"levelo://app?vid=e1749463-52db-42da-9fd4-bfa5181bf220"},"vehicle_type_id":"4","last_reported":1720635079,"current_range_meters":15600,"station_id":"ce4bhr92rcd13ifvqhrg","pricing_plan_id":"cebpf4jnsgd1na2vs0mg"},{"bike_id":"9d8377e6-65ac-43ce-a6ee-7baac4bd88d5","system_id":"levelo_inurba_marseille","lat":43.33026,"lon":5.39045,"is_reserved":false,"is_disabled":false,"rental_uris":{"android":"levelo://app?vid=9d8377e6-65ac-43ce-a6ee-7baac4bd88d5","ios":"levelo://app?vid=9d8377e6-65ac-43ce-a6ee-7baac4bd88d5"},"vehicle_type_id":"4","last_reported":1720635079,"current_range_meters":0,"station_id":"ce4bhr92rcd13ifvqhrg","pricing_plan_id":"cebpf4jnsgd1na2vs0mg"},{"bike_id":"db79ca62-5b8c-495a-9409-550110e8978e","system_id":"levelo_inurba_marseille","lat":43.295169,"lon":5.390426,"is_reserved":false,"is_disabled":false,"rental_uris":{"android":"levelo://app?vid=db79ca62-5b8c-495a-9409-550110e8978e","ios":"levelo://app?vid=db79ca62-5b8c-495a-9409-550110e8978e"},"vehicle_type_id":"4","last_reported":1720635079,"current_range_meters":24000,"station_id":"ce4bh3p2rcd13ifvqdp0","pricing_plan_id":"cebpf4jnsgd1na2vs0mg"},{"bike_id":"0aa9e316-5cd9-478e-bade-4691a1af63a4","system_id":"levelo_inurba_marseille","lat":43.29527,"lon":5.39058,"is_reserved":false,"is_disabled":false,"rental_uris":{"android":"levelo://app?vid=0aa9e316-5cd9-478e-bade-4691a1af63a4","ios":"levelo://app?vid=0aa9e316-5cd9-478e-bade-4691a1af63a4"},"vehicle_type_id":"4","last_reported":1720635079,"current_range_meters":400,"station_id":"","pricing_plan_id":"cebpf4jnsgd1na2vs0mg"},{"bike_id":"5789c8b9-e44c-4526-aaef-0e0687ac02a8","system_id":"levelo_inurba_marseille","lat":43.290315,"lon":5.381258,"is_reserved":false,"is_disabled":false,"rental_uris":{"android":"levelo://app?vid=5789c8b9-e44c-4526-aaef-0e0687ac02a8","ios":"levelo://app?vid=5789c8b9-e44c-4526-aaef-0e0687ac02a8"},"vehicle_type_id":"4","last_reported":1720635079,"current_range_meters":0,"station_id":"ce4bh4p2rcd13ifvqe1g","pricing_plan_id":"cebpf4jnsgd1na2vs0mg"},{"bike_id":"19b55d70-b012-4e2c-b081-3e54fcbee085","system_id":"levelo_inurba_marseille","lat":43.312609,"lon":5.401662,"is_reserved":false,"is_disabled":false,"rental_uris":{"android":"levelo://app?vid=19b55d70-b012-4e2c-b081-3e54fcbee085","ios":"levelo://app?vid=19b55d70-b012-4e2c-b081-3e54fcbee085"},"vehicle_type_id":"4","last_reported":1720635079,"current_range_meters":5200,"station_id":"ce4bh092rcd13ifvqd30","pricing_plan_id":"cebpf4jnsgd1na2vs0mg"},{"bike_id":"06a70f1e-8620-40cb-af16-1ec8126f80f2","system_id":"levelo_inurba_marseille","lat":43.312609,"lon":5.401662,"is_reserved":false,"is_disabled":false,"rental_uris":{"android":"levelo://app?vid=06a70f1e-8620-40cb-af16-1ec8126f80f2","ios":"levelo://app?vid=06a70f1e-8620-40cb-af16-1ec8126f80f2"},"vehicle_type_id":"4","last_reported":1720635079,"current_range_meters":18000,"station_id":"ce4bh092rcd13ifvqd30","pricing_plan_id":"cebpf4jnsgd1na2vs0mg"},{"bike_id":"a5292de9-657c-4f72-a734-ca1df9ff60cd","system_id":"levelo_inurba_marseille","lat":43.309371,"lon":5.401449,"is_reserved":false,"is_disabled":false,"rental_uris":{"android":"levelo://app?vid=a5292de9-657c-4f72-a734-ca1df9ff60cd","ios":"levelo://app?vid=a5292de9-657c-4f72-a734-ca1df9ff60cd"},"vehicle_type_id":"4","last_reported":1720635079,"current_range_meters":7200,"station_id":"ce4bgvp2rcd13ifvqct0","pricing_plan_id":"cebpf4jnsgd1na2vs0mg"},{"bike_id":"882430bc-7dcf-4f6c-b066-c0aa0470d819","system_id":"levelo_inurba_marseille","lat":43.33745,"lon":5.37456,"is_reserved":false,"is_disabled":false,"rental_uris":{"android":"levelo://app?vid=882430bc-7dcf-4f6c-b066-c0aa0470d819","ios":"levelo://app?vid=882430bc-7dcf-4f6c-b066-c0aa0470d819"},"vehicle_type_id":"4","last_reported":1720635079,"current_range_meters":10800,"station_id":"","pricing_plan_id":"cebpf4jnsgd1na2vs0mg"},{"bike_id":"7f5e8b40-6f2f-4173-8f3b-49740d847f81","system_id":"levelo_inurba_marseille","lat":43.33756,"lon":5.37435,"is_reserved":false,"is_disabled":false,"rental_uris":{"android":"levelo://app?vid=7f5e8b40-6f2f-4173-8f3b-49740d847f81","ios":"levelo://app?vid=7f5e8b40-6f2f-4173-8f3b-49740d847f81"},"vehicle_type_id":"4","last_reported":1720635079,"current_range_meters":24800,"station_id":"","pricing_plan_id":"cebpf4jnsgd1na2vs0mg"},{"bike_id":"d75e0188-26d0-43e4-b616-6321688cb7bc","system_id":"levelo_inurba_marseille","lat":43.33756,"lon":5.37454,"is_reserved":false,"is_disabled":false,"rental_uris":{"android":"levelo://app?vid=d75e0188-26d0-43e4-b616-6321688cb7bc","ios":"levelo://app?vid=d75e0188-26d0-43e4-b616-6321688cb7bc"},"vehicle_type_id":"4","last_reported":1720635079,"current_range_meters":22800,"station_id":"","pricing_plan_id":"cebpf4jnsgd1na2vs0mg"},{"bike_id":"ff209a93-70fc-4906-b500-6ed1a9cde8f9","system_id":"levelo_inurba_marseille","lat":43.337642,"lon":5.374334,"is_reserved":false,"is_disabled":false,"rental_uris":{"android":"levelo://app?vid=ff209a93-70fc-4906-b500-6ed1a9cde8f9","ios":"levelo://app?vid=ff209a93-70fc-4906-b500-6ed1a9cde8f9"},"vehicle_type_id":"4","last_reported":1720635079,"current_range_meters":15200,"station_id":"","pricing_plan_id":"cebpf4jnsgd1na2vs0mg"},{"bike_id":"464b1cbc-eb32-473e-bab6-fa5a0fe044ea","system_id":"levelo_inurba_marseille","lat":43.306412,"lon":5.401035,"is_reserved":false,"is_disabled":false,"rental_uris":{"android":"levelo://app?vid=464b1cbc-eb32-473e-bab6-fa5a0fe044ea","ios":"levelo://app?vid=464b1cbc-eb32-473e-bab6-fa5a0fe044ea"},"vehicle_type_id":"4","last_reported":1720635079,"current_range_meters":0,"station_id":"ce4bh112rcd13ifvqda0","pricing_plan_id":"cebpf4jnsgd1na2vs0mg"},{"bike_id":"aa55a8b5-3565-4b8e-acf5-dc16b042d0dd","system_id":"levelo_inurba_marseille","lat":43.30642,"lon":5.401031,"is_reserved":false,"is_disabled":false,"rental_uris":{"android":"levelo://app?vid=aa55a8b5-3565-4b8e-acf5-dc16b042d0dd","ios":"levelo://app?vid=aa55a8b5-3565-4b8e-acf5-dc16b042d0dd"},"vehicle_type_id":"4","last_reported":1720635079,"current_range_meters":4800,"station_id":"ce4bh112rcd13ifvqda0","pricing_plan_id":"cebpf4jnsgd1na2vs0mg"},{"bike_id":"e58d635a-579b-4f52-833a-250c28f3199e","system_id":"levelo_inurba_marseille","lat":43.30642,"lon":5.401031,"is_reserved":false,"is_disabled":false,"rental_uris":{"android":"levelo://app?vid=e58d635a-579b-4f52-833a-250c28f3199e","ios":"levelo://app?vid=e58d635a-579b-4f52-833a-250c28f3199e"},"vehicle_type_id":"4","last_reported":1720635079,"current_range_meters":21600,"station_id":"ce4bh112rcd13ifvqda0","pricing_plan_id":"cebpf4jnsgd1na2vs0mg"},{"bike_id":"d580294d-55ab-4f86-b7fb-931e1810aedf","system_id":"levelo_inurba_marseille","lat":43.30146,"lon":5.39856,"is_reserved":false,"is_disabled":false,"rental_uris":{"android":"levelo://app?vid=d580294d-55ab-4f86-b7fb-931e1810aedf","ios":"levelo://app?vid=d580294d-55ab-4f86-b7fb-931e1810aedf"},"vehicle_type_id":"4","last_reported":1720635079,"current_range_meters":0,"station_id":"ce4bh0h2rcd13ifvqd40","pricing_plan_id":"cebpf4jnsgd1na2vs0mg"},{"bike_id":"97eeed17-a13e-4a41-931a-1a4ab55d5a8f","system_id":"levelo_inurba_marseille","lat":43.30148,"lon":5.3986,"is_reserved":false,"is_disabled":false,"rental_uris":{"android":"levelo://app?vid=97eeed17-a13e-4a41-931a-1a4ab55d5a8f","ios":"levelo://app?vid=97eeed17-a13e-4a41-931a-1a4ab55d5a8f"},"vehicle_type_id":"4","last_reported":1720635079,"current_range_meters":0,"station_id":"ce4bh0h2rcd13ifvqd40","pricing_plan_id":"cebpf4jnsgd1na2vs0mg"},{"bike_id":"6605a712-742d-4d3a-9eda-d8f831f1af73","system_id":"levelo_inurba_marseille","lat":43.301117,"lon":5.398795,"is_reserved":false,"is_disabled":false,"rental_uris":{"android":"levelo://app?vid=6605a712-742d-4d3a-9eda-d8f831f1af73","ios":"levelo://app?vid=6605a712-742d-4d3a-9eda-d8f831f1af73"},"vehicle_type_id":"4","last_reported":1720635079,"current_range_meters":0,"station_id":"ce4bh0h2rcd13ifvqd40","pricing_plan_id":"cebpf4jnsgd1na2vs0mg"},{"bike_id":"7a7691ef-1075-4ea4-9347-01ef6ba323bf","system_id":"levelo_inurba_marseille","lat":43.28676,"lon":5.36354,"is_reserved":false,"is_disabled":false,"rental_uris":{"android":"levelo://app?vid=7a7691ef-1075-4ea4-9347-01ef6ba323bf","ios":"levelo://app?vid=7a7691ef-1075-4ea4-9347-01ef6ba323bf"},"vehicle_type_id":"4","last_reported":1720635079,"current_range_meters":16000,"station_id":"ce4bhah2rcd13ifvqej0","pricing_plan_id":"cebpf4jnsgd1na2vs0mg"},{"bike_id":"258ef632-4fb6-4bf4-b9ed-68441f9d994e","system_id":"levelo_inurba_marseille","lat":43.298681,"lon":5.397225,"is_reserved":false,"is_disabled":false,"rental_uris":{"android":"levelo://app?vid=258ef632-4fb6-4bf4-b9ed-68441f9d994e","ios":"levelo://app?vid=258ef632-4fb6-4bf4-b9ed-68441f9d994e"},"vehicle_type_id":"4","last_reported":1720635079,"current_range_meters":16400,"station_id":"ce4bh0h2rcd13ifvqd50","pricing_plan_id":"cebpf4jnsgd1na2vs0mg"},{"bike_id":"81dafc07-32e3-4da5-8c3e-de035ee212b2","system_id":"levelo_inurba_marseille","lat":43.29521,"lon":5.39406,"is_reserved":false,"is_disabled":false,"rental_uris":{"android":"levelo://app?vid=81dafc07-32e3-4da5-8c3e-de035ee212b2","ios":"levelo://app?vid=81dafc07-32e3-4da5-8c3e-de035ee212b2"},"vehicle_type_id":"4","last_reported":1720635079,"current_range_meters":0,"station_id":"ce4bh292rcd13ifvqdf0","pricing_plan_id":"cebpf4jnsgd1na2vs0mg"},{"bike_id":"aad0fff0-b274-4eb1-b4c4-e6eb398e6e07","system_id":"levelo_inurba_marseille","lat":43.290336,"lon":5.386425,"is_reserved":false,"is_disabled":false,"rental_uris":{"android":"levelo://app?vid=aad0fff0-b274-4eb1-b4c4-e6eb398e6e07","ios":"levelo://app?vid=aad0fff0-b274-4eb1-b4c4-e6eb398e6e07"},"vehicle_type_id":"4","last_reported":1720635079,"current_range_meters":0,"station_id":"ce4bh4p2rcd13ifvqe0g","pricing_plan_id":"cebpf4jnsgd1na2vs0mg"},{"bike_id":"5fe0d185-48da-422a-8a13-5ca5e9568a84","system_id":"levelo_inurba_marseille","lat":43.302759,"lon":5.400793,"is_reserved":false,"is_disabled":false,"rental_uris":{"android":"levelo://app?vid=5fe0d185-48da-422a-8a13-5ca5e9568a84","ios":"levelo://app?vid=5fe0d185-48da-422a-8a13-5ca5e9568a84"},"vehicle_type_id":"4","last_reported":1720635079,"current_range_meters":1200,"station_id":"ce4bgvh2rcd13ifvqcs0","pricing_plan_id":"cebpf4jnsgd1na2vs0mg"},{"bike_id":"c9496814-0828-4505-a1d2-c4a52b3ca280","system_id":"levelo_inurba_marseille","lat":43.302759,"lon":5.400793,"is_reserved":false,"is_disabled":false,"rental_uris":{"android":"levelo://app?vid=c9496814-0828-4505-a1d2-c4a52b3ca280","ios":"levelo://app?vid=c9496814-0828-4505-a1d2-c4a52b3ca280"},"vehicle_type_id":"4","last_reported":1720635079,"current_range_meters":22800,"station_id":"ce4bgvh2rcd13ifvqcs0","pricing_plan_id":"cebpf4jnsgd1na2vs0mg"},{"bike_id":"50a89d2a-c5f8-4d7d-87ef-6a4ab3c30ee6","system_id":"levelo_inurba_marseille","lat":43.290336,"lon":5.386425,"is_reserved":false,"is_disabled":false,"rental_uris":{"android":"levelo://app?vid=50a89d2a-c5f8-4d7d-87ef-6a4ab3c30ee6","ios":"levelo://app?vid=50a89d2a-c5f8-4d7d-87ef-6a4ab3c30ee6"},"vehicle_type_id":"4","last_reported":1720635079,"current_range_meters":9200,"station_id":"ce4bh4p2rcd13ifvqe0g","pricing_plan_id":"cebpf4jnsgd1na2vs0mg"},{"bike_id":"4d6fd581-99b6-498f-a48f-682e3e978a54","system_id":"levelo_inurba_marseille","lat":43.302759,"lon":5.400793,"is_reserved":false,"is_disabled":false,"rental_uris":{"android":"levelo://app?vid=4d6fd581-99b6-498f-a48f-682e3e978a54","ios":"levelo://app?vid=4d6fd581-99b6-498f-a48f-682e3e978a54"},"vehicle_type_id":"4","last_reported":1720635079,"current_range_meters":15600,"station_id":"ce4bgvh2rcd13ifvqcs0","pricing_plan_id":"cebpf4jnsgd1na2vs0mg"},{"bike_id":"5da5cf5d-c312-41b0-87ff-6a168cfc7a9e","system_id":"levelo_inurba_marseille","lat":43.302759,"lon":5.400793,"is_reserved":false,"is_disabled":false,"rental_uris":{"android":"levelo://app?vid=5da5cf5d-c312-41b0-87ff-6a168cfc7a9e","ios":"levelo://app?vid=5da5cf5d-c312-41b0-87ff-6a168cfc7a9e"},"vehicle_type_id":"4","last_reported":1720635079,"current_range_meters":18400,"station_id":"ce4bgvh2rcd13ifvqcs0","pricing_plan_id":"cebpf4jnsgd1na2vs0mg"},{"bike_id":"ee81d2d7-6fc1-4e46-a3d0-073684fa668a","system_id":"levelo_inurba_marseille","lat":43.302759,"lon":5.400793,"is_reserved":false,"is_disabled":false,"rental_uris":{"android":"levelo://app?vid=ee81d2d7-6fc1-4e46-a3d0-073684fa668a","ios":"levelo://app?vid=ee81d2d7-6fc1-4e46-a3d0-073684fa668a"},"vehicle_type_id":"4","last_reported":1720635079,"current_range_meters":23600,"station_id":"ce4bgvh2rcd13ifvqcs0","pricing_plan_id":"cebpf4jnsgd1na2vs0mg"},{"bike_id":"ce7e51fb-fd7c-4f0d-a833-818d36c1ce0c","system_id":"levelo_inurba_marseille","lat":43.286039,"lon":5.370679,"is_reserved":false,"is_disabled":false,"rental_uris":{"android":"levelo://app?vid=ce7e51fb-fd7c-4f0d-a833-818d36c1ce0c","ios":"levelo://app?vid=ce7e51fb-fd7c-4f0d-a833-818d36c1ce0c"},"vehicle_type_id":"4","last_reported":1720635079,"current_range_meters":1600,"station_id":"ce4bht12rcd13ifvqi60","pricing_plan_id":"cebpf4jnsgd1na2vs0mg"},{"bike_id":"00178876-f070-49db-b06a-3a6d9d7c9701","system_id":"levelo_inurba_marseille","lat":43.286039,"lon":5.370681,"is_reserved":false,"is_disabled":false,"rental_uris":{"android":"levelo://app?vid=00178876-f070-49db-b06a-3a6d9d7c9701","ios":"levelo://app?vid=00178876-f070-49db-b06a-3a6d9d7c9701"},"vehicle_type_id":"4","last_reported":1720635079,"current_range_meters":10000,"station_id":"ce4bht12rcd13ifvqi60","pricing_plan_id":"cebpf4jnsgd1na2vs0mg"},{"bike_id":"28d4cbb3-571c-4567-98b7-35a875308e51","system_id":"levelo_inurba_marseille","lat":43.286039,"lon":5.370681,"is_reserved":false,"is_disabled":false,"rental_uris":{"android":"levelo://app?vid=28d4cbb3-571c-4567-98b7-35a875308e51","ios":"levelo://app?vid=28d4cbb3-571c-4567-98b7-35a875308e51"},"vehicle_type_id":"4","last_reported":1720635079,"current_range_meters":0,"station_id":"ce4bht12rcd13ifvqi60","pricing_plan_id":"cebpf4jnsgd1na2vs0mg"},{"bike_id":"86c9a6c8-baf3-4d37-86c9-445870b098ab","system_id":"levelo_inurba_marseille","lat":43.286039,"lon":5.370681,"is_reserved":false,"is_disabled":false,"rental_uris":{"android":"levelo://app?vid=86c9a6c8-baf3-4d37-86c9-445870b098ab","ios":"levelo://app?vid=86c9a6c8-baf3-4d37-86c9-445870b098ab"},"vehicle_type_id":"4","last_reported":1720635079,"current_range_meters":12000,"station_id":"ce4bht12rcd13ifvqi60","pricing_plan_id":"cebpf4jnsgd1na2vs0mg"},{"bike_id":"05fbdc09-90da-490c-8077-0f93f64a3592","system_id":"levelo_inurba_marseille","lat":43.286039,"lon":5.370681,"is_reserved":false,"is_disabled":false,"rental_uris":{"android":"levelo://app?vid=05fbdc09-90da-490c-8077-0f93f64a3592","ios":"levelo://app?vid=05fbdc09-90da-490c-8077-0f93f64a3592"},"vehicle_type_id":"4","last_reported":1720635079,"current_range_meters":26800,"station_id":"ce4bht12rcd13ifvqi60","pricing_plan_id":"cebpf4jnsgd1na2vs0mg"},{"bike_id":"f26a219d-66e9-4879-8dcd-6ea5ccc1289d","system_id":"levelo_inurba_marseille","lat":43.286039,"lon":5.370681,"is_reserved":false,"is_disabled":false,"rental_uris":{"android":"levelo://app?vid=f26a219d-66e9-4879-8dcd-6ea5ccc1289d","ios":"levelo://app?vid=f26a219d-66e9-4879-8dcd-6ea5ccc1289d"},"vehicle_type_id":"4","last_reported":1720635079,"current_range_meters":23200,"station_id":"ce4bht12rcd13ifvqi60","pricing_plan_id":"cebpf4jnsgd1na2vs0mg"},{"bike_id":"6ea732e9-0995-455e-9f4c-59fc64500b73","system_id":"levelo_inurba_marseille","lat":43.286039,"lon":5.370681,"is_reserved":false,"is_disabled":false,"rental_uris":{"android":"levelo://app?vid=6ea732e9-0995-455e-9f4c-59fc64500b73","ios":"levelo://app?vid=6ea732e9-0995-455e-9f4c-59fc64500b73"},"vehicle_type_id":"4","last_reported":1720635079,"current_range_meters":6800,"station_id":"ce4bht12rcd13ifvqi60","pricing_plan_id":"cebpf4jnsgd1na2vs0mg"},{"bike_id":"7ded7b24-1d77-4297-812f-48b858ad8d8b","system_id":"levelo_inurba_marseille","lat":43.286039,"lon":5.370679,"is_reserved":false,"is_disabled":false,"rental_uris":{"android":"levelo://app?vid=7ded7b24-1d77-4297-812f-48b858ad8d8b","ios":"levelo://app?vid=7ded7b24-1d77-4297-812f-48b858ad8d8b"},"vehicle_type_id":"4","last_reported":1720635079,"current_range_meters":0,"station_id":"ce4bht12rcd13ifvqi60","pricing_plan_id":"cebpf4jnsgd1na2vs0mg"},{"bike_id":"8b305c90-69ee-4b04-89e0-b06e74de4380","system_id":"levelo_inurba_marseille","lat":43.286039,"lon":5.370681,"is_reserved":false,"is_disabled":false,"rental_uris":{"android":"levelo://app?vid=8b305c90-69ee-4b04-89e0-b06e74de4380","ios":"levelo://app?vid=8b305c90-69ee-4b04-89e0-b06e74de4380"},"vehicle_type_id":"4","last_reported":1720635079,"current_range_meters":9600,"station_id":"ce4bht12rcd13ifvqi60","pricing_plan_id":"cebpf4jnsgd1na2vs0mg"},{"bike_id":"3a280cd5-1040-4b94-8a40-b1060df360d0","system_id":"levelo_inurba_marseille","lat":43.286039,"lon":5.370679,"is_reserved":false,"is_disabled":false,"rental_uris":{"android":"levelo://app?vid=3a280cd5-1040-4b94-8a40-b1060df360d0","ios":"levelo://app?vid=3a280cd5-1040-4b94-8a40-b1060df360d0"},"vehicle_type_id":"4","last_reported":1720635079,"current_range_meters":10800,"station_id":"ce4bht12rcd13ifvqi60","pricing_plan_id":"cebpf4jnsgd1na2vs0mg"},{"bike_id":"1e52f798-ab4e-46d4-ba4a-08ec92e713e1","system_id":"levelo_inurba_marseille","lat":43.31823,"lon":5.40375,"is_reserved":false,"is_disabled":false,"rental_uris":{"android":"levelo://app?vid=1e52f798-ab4e-46d4-ba4a-08ec92e713e1","ios":"levelo://app?vid=1e52f798-ab4e-46d4-ba4a-08ec92e713e1"},"vehicle_type_id":"4","last_reported":1720635079,"current_range_meters":15600,"station_id":"","pricing_plan_id":"cebpf4jnsgd1na2vs0mg"},{"bike_id":"fd51db52-8420-4ca1-8e3b-0908082029c2","system_id":"levelo_inurba_marseille","lat":43.291994,"lon":5.392907,"is_reserved":false,"is_disabled":false,"rental_uris":{"android":"levelo://app?vid=fd51db52-8420-4ca1-8e3b-0908082029c2","ios":"levelo://app?vid=fd51db52-8420-4ca1-8e3b-0908082029c2"},"vehicle_type_id":"4","last_reported":1720635079,"current_range_meters":4800,"station_id":"ce4bh192rcd13ifvqdd0","pricing_plan_id":"cebpf4jnsgd1na2vs0mg"},{"bike_id":"e9def20d-fc9f-46fb-8e97-8f24c3ea46e0","system_id":"levelo_inurba_marseille","lat":43.291994,"lon":5.392907,"is_reserved":false,"is_disabled":false,"rental_uris":{"android":"levelo://app?vid=e9def20d-fc9f-46fb-8e97-8f24c3ea46e0","ios":"levelo://app?vid=e9def20d-fc9f-46fb-8e97-8f24c3ea46e0"},"vehicle_type_id":"4","last_reported":1720635079,"current_range_meters":2800,"station_id":"ce4bh192rcd13ifvqdd0","pricing_plan_id":"cebpf4jnsgd1na2vs0mg"},{"bike_id":"1c2d73ac-3b1b-4165-8ed0-3da1908c4227","system_id":"levelo_inurba_marseille","lat":43.291994,"lon":5.392907,"is_reserved":false,"is_disabled":false,"rental_uris":{"android":"levelo://app?vid=1c2d73ac-3b1b-4165-8ed0-3da1908c4227","ios":"levelo://app?vid=1c2d73ac-3b1b-4165-8ed0-3da1908c4227"},"vehicle_type_id":"4","last_reported":1720635079,"current_range_meters":1600,"station_id":"ce4bh192rcd13ifvqdd0","pricing_plan_id":"cebpf4jnsgd1na2vs0mg"},{"bike_id":"d4966466-2762-4242-89ea-5d4610d54c7d","system_id":"levelo_inurba_marseille","lat":43.291994,"lon":5.392907,"is_reserved":false,"is_disabled":false,"rental_uris":{"android":"levelo://app?vid=d4966466-2762-4242-89ea-5d4610d54c7d","ios":"levelo://app?vid=d4966466-2762-4242-89ea-5d4610d54c7d"},"vehicle_type_id":"4","last_reported":1720635079,"current_range_meters":31600,"station_id":"ce4bh192rcd13ifvqdd0","pricing_plan_id":"cebpf4jnsgd1na2vs0mg"},{"bike_id":"f028391d-57bc-4768-9e11-3348ed0c8c5c","system_id":"levelo_inurba_marseille","lat":43.29864,"lon":5.40086,"is_reserved":false,"is_disabled":false,"rental_uris":{"android":"levelo://app?vid=f028391d-57bc-4768-9e11-3348ed0c8c5c","ios":"levelo://app?vid=f028391d-57bc-4768-9e11-3348ed0c8c5c"},"vehicle_type_id":"4","last_reported":1720635079,"current_range_meters":0,"station_id":"","pricing_plan_id":"cebpf4jnsgd1na2vs0mg"},{"bike_id":"3a2e336d-a4e1-4a28-a2df-2c42fb6d340f","system_id":"levelo_inurba_marseille","lat":43.294314,"lon":5.397498,"is_reserved":false,"is_disabled":false,"rental_uris":{"android":"levelo://app?vid=3a2e336d-a4e1-4a28-a2df-2c42fb6d340f","ios":"levelo://app?vid=3a2e336d-a4e1-4a28-a2df-2c42fb6d340f"},"vehicle_type_id":"4","last_reported":1720635079,"current_range_meters":27200,"station_id":"ce4bh3h2rcd13ifvqdo0","pricing_plan_id":"cebpf4jnsgd1na2vs0mg"},{"bike_id":"582a6bf9-e6de-4580-b3d2-25c656aca712","system_id":"levelo_inurba_marseille","lat":43.294314,"lon":5.397498,"is_reserved":false,"is_disabled":false,"rental_uris":{"android":"levelo://app?vid=582a6bf9-e6de-4580-b3d2-25c656aca712","ios":"levelo://app?vid=582a6bf9-e6de-4580-b3d2-25c656aca712"},"vehicle_type_id":"4","last_reported":1720635079,"current_range_meters":25600,"station_id":"ce4bh3h2rcd13ifvqdo0","pricing_plan_id":"cebpf4jnsgd1na2vs0mg"},{"bike_id":"ecfa7bd6-10cf-47d2-88fd-c33f8b079617","system_id":"levelo_inurba_marseille","lat":43.28621,"lon":5.35113,"is_reserved":false,"is_disabled":false,"rental_uris":{"android":"levelo://app?vid=ecfa7bd6-10cf-47d2-88fd-c33f8b079617","ios":"levelo://app?vid=ecfa7bd6-10cf-47d2-88fd-c33f8b079617"},"vehicle_type_id":"4","last_reported":1720635079,"current_range_meters":24000,"station_id":"ce4bhch2rcd13ifvqeug","pricing_plan_id":"cebpf4jnsgd1na2vs0mg"},{"bike_id":"264ac401-4cd1-435e-ba78-68444da456e6","system_id":"levelo_inurba_marseille","lat":43.2862,"lon":5.35108,"is_reserved":false,"is_disabled":false,"rental_uris":{"android":"levelo://app?vid=264ac401-4cd1-435e-ba78-68444da456e6","ios":"levelo://app?vid=264ac401-4cd1-435e-ba78-68444da456e6"},"vehicle_type_id":"4","last_reported":1720635079,"current_range_meters":30400,"station_id":"ce4bhch2rcd13ifvqeug","pricing_plan_id":"cebpf4jnsgd1na2vs0mg"},{"bike_id":"12b147a8-0b16-4e11-8487-98c91e6bf253","system_id":"levelo_inurba_marseille","lat":43.28621,"lon":5.35101,"is_reserved":false,"is_disabled":false,"rental_uris":{"android":"levelo://app?vid=12b147a8-0b16-4e11-8487-98c91e6bf253","ios":"levelo://app?vid=12b147a8-0b16-4e11-8487-98c91e6bf253"},"vehicle_type_id":"4","last_reported":1720635079,"current_range_meters":16800,"station_id":"ce4bhch2rcd13ifvqeug","pricing_plan_id":"cebpf4jnsgd1na2vs0mg"},{"bike_id":"4d3a5758-c26e-4c60-986f-f3a27a4fe827","system_id":"levelo_inurba_marseille","lat":43.286178,"lon":5.351101,"is_reserved":false,"is_disabled":false,"rental_uris":{"android":"levelo://app?vid=4d3a5758-c26e-4c60-986f-f3a27a4fe827","ios":"levelo://app?vid=4d3a5758-c26e-4c60-986f-f3a27a4fe827"},"vehicle_type_id":"4","last_reported":1720635079,"current_range_meters":31200,"station_id":"ce4bhch2rcd13ifvqeug","pricing_plan_id":"cebpf4jnsgd1na2vs0mg"},{"bike_id":"3e971ae7-17d3-40ab-9d22-ba22d7edc60b","system_id":"levelo_inurba_marseille","lat":43.28621,"lon":5.35097,"is_reserved":false,"is_disabled":false,"rental_uris":{"android":"levelo://app?vid=3e971ae7-17d3-40ab-9d22-ba22d7edc60b","ios":"levelo://app?vid=3e971ae7-17d3-40ab-9d22-ba22d7edc60b"},"vehicle_type_id":"4","last_reported":1720635079,"current_range_meters":6400,"station_id":"ce4bhch2rcd13ifvqeug","pricing_plan_id":"cebpf4jnsgd1na2vs0mg"},{"bike_id":"0a011e0d-d5b1-4e61-ae40-1abd1c0326eb","system_id":"levelo_inurba_marseille","lat":43.2862,"lon":5.35098,"is_reserved":false,"is_disabled":false,"rental_uris":{"android":"levelo://app?vid=0a011e0d-d5b1-4e61-ae40-1abd1c0326eb","ios":"levelo://app?vid=0a011e0d-d5b1-4e61-ae40-1abd1c0326eb"},"vehicle_type_id":"4","last_reported":1720635079,"current_range_meters":31200,"station_id":"ce4bhch2rcd13ifvqeug","pricing_plan_id":"cebpf4jnsgd1na2vs0mg"},{"bike_id":"23761f91-bc77-483d-9ed9-f652ff2624b7","system_id":"levelo_inurba_marseille","lat":43.285856,"lon":5.350771,"is_reserved":false,"is_disabled":false,"rental_uris":{"android":"levelo://app?vid=23761f91-bc77-483d-9ed9-f652ff2624b7","ios":"levelo://app?vid=23761f91-bc77-483d-9ed9-f652ff2624b7"},"vehicle_type_id":"4","last_reported":1720635079,"current_range_meters":28400,"station_id":"ce4bhch2rcd13ifvqeug","pricing_plan_id":"cebpf4jnsgd1na2vs0mg"},{"bike_id":"fb89b981-659e-4e15-94aa-c338a31caa78","system_id":"levelo_inurba_marseille","lat":43.28618,"lon":5.351,"is_reserved":false,"is_disabled":false,"rental_uris":{"android":"levelo://app?vid=fb89b981-659e-4e15-94aa-c338a31caa78","ios":"levelo://app?vid=fb89b981-659e-4e15-94aa-c338a31caa78"},"vehicle_type_id":"4","last_reported":1720635079,"current_range_meters":20400,"station_id":"ce4bhch2rcd13ifvqeug","pricing_plan_id":"cebpf4jnsgd1na2vs0mg"},{"bike_id":"9e42959c-2323-4062-8099-e971d460101f","system_id":"levelo_inurba_marseille","lat":43.28616,"lon":5.35105,"is_reserved":false,"is_disabled":false,"rental_uris":{"android":"levelo://app?vid=9e42959c-2323-4062-8099-e971d460101f","ios":"levelo://app?vid=9e42959c-2323-4062-8099-e971d460101f"},"vehicle_type_id":"4","last_reported":1720635079,"current_range_meters":23200,"station_id":"ce4bhch2rcd13ifvqeug","pricing_plan_id":"cebpf4jnsgd1na2vs0mg"},{"bike_id":"d221ab95-7263-47e3-b723-ff0df104aae4","system_id":"levelo_inurba_marseille","lat":43.28619,"lon":5.35095,"is_reserved":false,"is_disabled":false,"rental_uris":{"android":"levelo://app?vid=d221ab95-7263-47e3-b723-ff0df104aae4","ios":"levelo://app?vid=d221ab95-7263-47e3-b723-ff0df104aae4"},"vehicle_type_id":"4","last_reported":1720635079,"current_range_meters":30400,"station_id":"ce4bhch2rcd13ifvqeug","pricing_plan_id":"cebpf4jnsgd1na2vs0mg"},{"bike_id":"b1e3e0cf-f016-4029-aadc-968c0d0578fc","system_id":"levelo_inurba_marseille","lat":43.285856,"lon":5.350771,"is_reserved":false,"is_disabled":false,"rental_uris":{"android":"levelo://app?vid=b1e3e0cf-f016-4029-aadc-968c0d0578fc","ios":"levelo://app?vid=b1e3e0cf-f016-4029-aadc-968c0d0578fc"},"vehicle_type_id":"4","last_reported":1720635079,"current_range_meters":30000,"station_id":"ce4bhch2rcd13ifvqeug","pricing_plan_id":"cebpf4jnsgd1na2vs0mg"},{"bike_id":"eabb4816-184f-46ec-b8f8-b989ad362fbf","system_id":"levelo_inurba_marseille","lat":43.28616,"lon":5.351,"is_reserved":false,"is_disabled":false,"rental_uris":{"android":"levelo://app?vid=eabb4816-184f-46ec-b8f8-b989ad362fbf","ios":"levelo://app?vid=eabb4816-184f-46ec-b8f8-b989ad362fbf"},"vehicle_type_id":"4","last_reported":1720635079,"current_range_meters":20000,"station_id":"ce4bhch2rcd13ifvqeug","pricing_plan_id":"cebpf4jnsgd1na2vs0mg"},{"bike_id":"19751679-025b-4614-9caa-cb3c83dae230","system_id":"levelo_inurba_marseille","lat":43.28613,"lon":5.35107,"is_reserved":false,"is_disabled":false,"rental_uris":{"android":"levelo://app?vid=19751679-025b-4614-9caa-cb3c83dae230","ios":"levelo://app?vid=19751679-025b-4614-9caa-cb3c83dae230"},"vehicle_type_id":"4","last_reported":1720635079,"current_range_meters":31200,"station_id":"ce4bhch2rcd13ifvqeug","pricing_plan_id":"cebpf4jnsgd1na2vs0mg"},{"bike_id":"4d4aebba-b411-4120-b0a6-d3ddc035c8b6","system_id":"levelo_inurba_marseille","lat":43.28616,"lon":5.35096,"is_reserved":false,"is_disabled":false,"rental_uris":{"android":"levelo://app?vid=4d4aebba-b411-4120-b0a6-d3ddc035c8b6","ios":"levelo://app?vid=4d4aebba-b411-4120-b0a6-d3ddc035c8b6"},"vehicle_type_id":"4","last_reported":1720635079,"current_range_meters":31200,"station_id":"ce4bhch2rcd13ifvqeug","pricing_plan_id":"cebpf4jnsgd1na2vs0mg"},{"bike_id":"3531693f-b2b7-4113-ab43-ccaf11191fd2","system_id":"levelo_inurba_marseille","lat":43.28612,"lon":5.35102,"is_reserved":false,"is_disabled":false,"rental_uris":{"android":"levelo://app?vid=3531693f-b2b7-4113-ab43-ccaf11191fd2","ios":"levelo://app?vid=3531693f-b2b7-4113-ab43-ccaf11191fd2"},"vehicle_type_id":"4","last_reported":1720635079,"current_range_meters":10400,"station_id":"ce4bhch2rcd13ifvqeug","pricing_plan_id":"cebpf4jnsgd1na2vs0mg"},{"bike_id":"8afe6869-6d61-43a5-aecd-4e3d14311be7","system_id":"levelo_inurba_marseille","lat":43.28424,"lon":5.37511,"is_reserved":false,"is_disabled":false,"rental_uris":{"android":"levelo://app?vid=8afe6869-6d61-43a5-aecd-4e3d14311be7","ios":"levelo://app?vid=8afe6869-6d61-43a5-aecd-4e3d14311be7"},"vehicle_type_id":"4","last_reported":1720635079,"current_range_meters":0,"station_id":"ce4bh412rcd13ifvqds0","pricing_plan_id":"cebpf4jnsgd1na2vs0mg"},{"bike_id":"0303f03f-faa4-46e0-b334-1c61f612f5f5","system_id":"levelo_inurba_marseille","lat":43.284065,"lon":5.37517,"is_reserved":false,"is_disabled":false,"rental_uris":{"android":"levelo://app?vid=0303f03f-faa4-46e0-b334-1c61f612f5f5","ios":"levelo://app?vid=0303f03f-faa4-46e0-b334-1c61f612f5f5"},"vehicle_type_id":"4","last_reported":1720635079,"current_range_meters":2000,"station_id":"ce4bh412rcd13ifvqds0","pricing_plan_id":"cebpf4jnsgd1na2vs0mg"},{"bike_id":"622f561c-c1d0-4184-8fb7-a27afadf376c","system_id":"levelo_inurba_marseille","lat":43.283998,"lon":5.375062,"is_reserved":false,"is_disabled":false,"rental_uris":{"android":"levelo://app?vid=622f561c-c1d0-4184-8fb7-a27afadf376c","ios":"levelo://app?vid=622f561c-c1d0-4184-8fb7-a27afadf376c"},"vehicle_type_id":"4","last_reported":1720635079,"current_range_meters":22400,"station_id":"ce4bh412rcd13ifvqds0","pricing_plan_id":"cebpf4jnsgd1na2vs0mg"},{"bike_id":"723b2842-e8ed-49f3-bc41-65b86ca42a3e","system_id":"levelo_inurba_marseille","lat":43.286595,"lon":5.386795,"is_reserved":false,"is_disabled":false,"rental_uris":{"android":"levelo://app?vid=723b2842-e8ed-49f3-bc41-65b86ca42a3e","ios":"levelo://app?vid=723b2842-e8ed-49f3-bc41-65b86ca42a3e"},"vehicle_type_id":"4","last_reported":1720635079,"current_range_meters":0,"station_id":"ce4bh492rcd13ifvqdug","pricing_plan_id":"cebpf4jnsgd1na2vs0mg"},{"bike_id":"61e5897e-6678-49c0-ae6e-a15a730226b9","system_id":"levelo_inurba_marseille","lat":43.286595,"lon":5.386795,"is_reserved":false,"is_disabled":false,"rental_uris":{"android":"levelo://app?vid=61e5897e-6678-49c0-ae6e-a15a730226b9","ios":"levelo://app?vid=61e5897e-6678-49c0-ae6e-a15a730226b9"},"vehicle_type_id":"4","last_reported":1720635079,"current_range_meters":0,"station_id":"ce4bh492rcd13ifvqdug","pricing_plan_id":"cebpf4jnsgd1na2vs0mg"},{"bike_id":"ee2f36e4-816f-4f3f-8b00-2b9b487d4156","system_id":"levelo_inurba_marseille","lat":43.319179,"lon":5.407725,"is_reserved":false,"is_disabled":false,"rental_uris":{"android":"levelo://app?vid=ee2f36e4-816f-4f3f-8b00-2b9b487d4156","ios":"levelo://app?vid=ee2f36e4-816f-4f3f-8b00-2b9b487d4156"},"vehicle_type_id":"4","last_reported":1720635079,"current_range_meters":6800,"station_id":"ce4bhq12rcd13ifvqhig","pricing_plan_id":"cebpf4jnsgd1na2vs0mg"},{"bike_id":"8e03ad62-09b6-4ff6-8527-018da59e9d29","system_id":"levelo_inurba_marseille","lat":43.319179,"lon":5.407725,"is_reserved":false,"is_disabled":false,"rental_uris":{"android":"levelo://app?vid=8e03ad62-09b6-4ff6-8527-018da59e9d29","ios":"levelo://app?vid=8e03ad62-09b6-4ff6-8527-018da59e9d29"},"vehicle_type_id":"4","last_reported":1720635079,"current_range_meters":0,"station_id":"ce4bhq12rcd13ifvqhig","pricing_plan_id":"cebpf4jnsgd1na2vs0mg"},{"bike_id":"ea7bdeac-3e9a-4efd-985a-38dbf81b47d1","system_id":"levelo_inurba_marseille","lat":43.323464,"lon":5.406297,"is_reserved":false,"is_disabled":false,"rental_uris":{"android":"levelo://app?vid=ea7bdeac-3e9a-4efd-985a-38dbf81b47d1","ios":"levelo://app?vid=ea7bdeac-3e9a-4efd-985a-38dbf81b47d1"},"vehicle_type_id":"4","last_reported":1720635079,"current_range_meters":23600,"station_id":"ce4bhq92rcd13ifvqhjg","pricing_plan_id":"cebpf4jnsgd1na2vs0mg"},{"bike_id":"b9252d55-8122-4b6f-8574-d64584d53f99","system_id":"levelo_inurba_marseille","lat":43.323464,"lon":5.406297,"is_reserved":false,"is_disabled":false,"rental_uris":{"android":"levelo://app?vid=b9252d55-8122-4b6f-8574-d64584d53f99","ios":"levelo://app?vid=b9252d55-8122-4b6f-8574-d64584d53f99"},"vehicle_type_id":"4","last_reported":1720635079,"current_range_meters":7600,"station_id":"ce4bhq92rcd13ifvqhjg","pricing_plan_id":"cebpf4jnsgd1na2vs0mg"},{"bike_id":"35721b39-e80a-45a2-a05e-94ccfc333b49","system_id":"levelo_inurba_marseille","lat":43.28474,"lon":5.384,"is_reserved":false,"is_disabled":false,"rental_uris":{"android":"levelo://app?vid=35721b39-e80a-45a2-a05e-94ccfc333b49","ios":"levelo://app?vid=35721b39-e80a-45a2-a05e-94ccfc333b49"},"vehicle_type_id":"4","last_reported":1720635079,"current_range_meters":0,"station_id":"ce4bh512rcd13ifvqe3g","pricing_plan_id":"cebpf4jnsgd1na2vs0mg"},{"bike_id":"af2ecb0b-1bf1-4266-a211-4bdf4e194488","system_id":"levelo_inurba_marseille","lat":43.31744,"lon":5.409,"is_reserved":false,"is_disabled":false,"rental_uris":{"android":"levelo://app?vid=af2ecb0b-1bf1-4266-a211-4bdf4e194488","ios":"levelo://app?vid=af2ecb0b-1bf1-4266-a211-4bdf4e194488"},"vehicle_type_id":"4","last_reported":1720635079,"current_range_meters":31200,"station_id":"","pricing_plan_id":"cebpf4jnsgd1na2vs0mg"},{"bike_id":"5c04c5d1-1ca3-429b-a747-2be223ca7939","system_id":"levelo_inurba_marseille","lat":43.284299,"lon":5.349906,"is_reserved":false,"is_disabled":false,"rental_uris":{"android":"levelo://app?vid=5c04c5d1-1ca3-429b-a747-2be223ca7939","ios":"levelo://app?vid=5c04c5d1-1ca3-429b-a747-2be223ca7939"},"vehicle_type_id":"4","last_reported":1720635079,"current_range_meters":22400,"station_id":"ce4bhbh2rcd13ifvqepg","pricing_plan_id":"cebpf4jnsgd1na2vs0mg"},{"bike_id":"dbff8d67-f76f-4273-8b26-76f74609740f","system_id":"levelo_inurba_marseille","lat":43.28431,"lon":5.34982,"is_reserved":false,"is_disabled":false,"rental_uris":{"android":"levelo://app?vid=dbff8d67-f76f-4273-8b26-76f74609740f","ios":"levelo://app?vid=dbff8d67-f76f-4273-8b26-76f74609740f"},"vehicle_type_id":"4","last_reported":1720635079,"current_range_meters":3600,"station_id":"ce4bhbh2rcd13ifvqepg","pricing_plan_id":"cebpf4jnsgd1na2vs0mg"},{"bike_id":"a24631bb-3bfe-47e0-9dd9-2ee545aeea94","system_id":"levelo_inurba_marseille","lat":43.284253,"lon":5.349908,"is_reserved":false,"is_disabled":false,"rental_uris":{"android":"levelo://app?vid=a24631bb-3bfe-47e0-9dd9-2ee545aeea94","ios":"levelo://app?vid=a24631bb-3bfe-47e0-9dd9-2ee545aeea94"},"vehicle_type_id":"4","last_reported":1720635079,"current_range_meters":30000,"station_id":"ce4bhbh2rcd13ifvqepg","pricing_plan_id":"cebpf4jnsgd1na2vs0mg"},{"bike_id":"c66283db-d7e8-4417-8c72-1b8884a699d9","system_id":"levelo_inurba_marseille","lat":43.284249,"lon":5.349921,"is_reserved":false,"is_disabled":false,"rental_uris":{"android":"levelo://app?vid=c66283db-d7e8-4417-8c72-1b8884a699d9","ios":"levelo://app?vid=c66283db-d7e8-4417-8c72-1b8884a699d9"},"vehicle_type_id":"4","last_reported":1720635079,"current_range_meters":22000,"station_id":"ce4bhbh2rcd13ifvqepg","pricing_plan_id":"cebpf4jnsgd1na2vs0mg"},{"bike_id":"af5b017b-b8de-4fa8-afbe-1add35a68456","system_id":"levelo_inurba_marseille","lat":43.2843,"lon":5.34976,"is_reserved":false,"is_disabled":false,"rental_uris":{"android":"levelo://app?vid=af5b017b-b8de-4fa8-afbe-1add35a68456","ios":"levelo://app?vid=af5b017b-b8de-4fa8-afbe-1add35a68456"},"vehicle_type_id":"4","last_reported":1720635079,"current_range_meters":12400,"station_id":"ce4bhbh2rcd13ifvqepg","pricing_plan_id":"cebpf4jnsgd1na2vs0mg"},{"bike_id":"e6c46b94-1eba-4e1a-a7ae-4a2f7bc81e43","system_id":"levelo_inurba_marseille","lat":43.284253,"lon":5.349887,"is_reserved":false,"is_disabled":false,"rental_uris":{"android":"levelo://app?vid=e6c46b94-1eba-4e1a-a7ae-4a2f7bc81e43","ios":"levelo://app?vid=e6c46b94-1eba-4e1a-a7ae-4a2f7bc81e43"},"vehicle_type_id":"4","last_reported":1720635079,"current_range_meters":30400,"station_id":"ce4bhbh2rcd13ifvqepg","pricing_plan_id":"cebpf4jnsgd1na2vs0mg"},{"bike_id":"58425e36-3797-4d42-bfe1-c720a14fdc77","system_id":"levelo_inurba_marseille","lat":43.284219,"lon":5.3497,"is_reserved":false,"is_disabled":false,"rental_uris":{"android":"levelo://app?vid=58425e36-3797-4d42-bfe1-c720a14fdc77","ios":"levelo://app?vid=58425e36-3797-4d42-bfe1-c720a14fdc77"},"vehicle_type_id":"4","last_reported":1720635079,"current_range_meters":32000,"station_id":"ce4bhbh2rcd13ifvqepg","pricing_plan_id":"cebpf4jnsgd1na2vs0mg"},{"bike_id":"4e5e1b7e-45f4-4ee6-9930-c74da8d2efdd","system_id":"levelo_inurba_marseille","lat":43.28422,"lon":5.34988,"is_reserved":false,"is_disabled":false,"rental_uris":{"android":"levelo://app?vid=4e5e1b7e-45f4-4ee6-9930-c74da8d2efdd","ios":"levelo://app?vid=4e5e1b7e-45f4-4ee6-9930-c74da8d2efdd"},"vehicle_type_id":"4","last_reported":1720635079,"current_range_meters":30800,"station_id":"ce4bhbh2rcd13ifvqepg","pricing_plan_id":"cebpf4jnsgd1na2vs0mg"},{"bike_id":"19ed9e80-7cdf-471c-b708-1d9a7dcf94c6","system_id":"levelo_inurba_marseille","lat":43.28419,"lon":5.34997,"is_reserved":false,"is_disabled":false,"rental_uris":{"android":"levelo://app?vid=19ed9e80-7cdf-471c-b708-1d9a7dcf94c6","ios":"levelo://app?vid=19ed9e80-7cdf-471c-b708-1d9a7dcf94c6"},"vehicle_type_id":"4","last_reported":1720635079,"current_range_meters":0,"station_id":"ce4bhbh2rcd13ifvqepg","pricing_plan_id":"cebpf4jnsgd1na2vs0mg"},{"bike_id":"f74c812d-f0bb-479a-9259-e8cdfa9a5be9","system_id":"levelo_inurba_marseille","lat":43.284219,"lon":5.3497,"is_reserved":false,"is_disabled":false,"rental_uris":{"android":"levelo://app?vid=f74c812d-f0bb-479a-9259-e8cdfa9a5be9","ios":"levelo://app?vid=f74c812d-f0bb-479a-9259-e8cdfa9a5be9"},"vehicle_type_id":"4","last_reported":1720635079,"current_range_meters":23200,"station_id":"ce4bhbh2rcd13ifvqepg","pricing_plan_id":"cebpf4jnsgd1na2vs0mg"},{"bike_id":"4aedee63-3914-4b0b-a430-99216f7f08b2","system_id":"levelo_inurba_marseille","lat":43.28423,"lon":5.34983,"is_reserved":false,"is_disabled":false,"rental_uris":{"android":"levelo://app?vid=4aedee63-3914-4b0b-a430-99216f7f08b2","ios":"levelo://app?vid=4aedee63-3914-4b0b-a430-99216f7f08b2"},"vehicle_type_id":"4","last_reported":1720635079,"current_range_meters":31200,"station_id":"ce4bhbh2rcd13ifvqepg","pricing_plan_id":"cebpf4jnsgd1na2vs0mg"},{"bike_id":"e52fd75d-4232-42da-a7c6-4dd20ee1fd24","system_id":"levelo_inurba_marseille","lat":43.2842,"lon":5.34992,"is_reserved":false,"is_disabled":false,"rental_uris":{"android":"levelo://app?vid=e52fd75d-4232-42da-a7c6-4dd20ee1fd24","ios":"levelo://app?vid=e52fd75d-4232-42da-a7c6-4dd20ee1fd24"},"vehicle_type_id":"4","last_reported":1720635079,"current_range_meters":19200,"station_id":"ce4bhbh2rcd13ifvqepg","pricing_plan_id":"cebpf4jnsgd1na2vs0mg"},{"bike_id":"e9017186-a11f-47e2-95c3-aba602331986","system_id":"levelo_inurba_marseille","lat":43.284203,"lon":5.349865,"is_reserved":false,"is_disabled":false,"rental_uris":{"android":"levelo://app?vid=e9017186-a11f-47e2-95c3-aba602331986","ios":"levelo://app?vid=e9017186-a11f-47e2-95c3-aba602331986"},"vehicle_type_id":"4","last_reported":1720635079,"current_range_meters":15600,"station_id":"ce4bhbh2rcd13ifvqepg","pricing_plan_id":"cebpf4jnsgd1na2vs0mg"},{"bike_id":"46e5026d-e519-4e97-961d-b65af7f3d3a1","system_id":"levelo_inurba_marseille","lat":43.28421,"lon":5.34984,"is_reserved":false,"is_disabled":false,"rental_uris":{"android":"levelo://app?vid=46e5026d-e519-4e97-961d-b65af7f3d3a1","ios":"levelo://app?vid=46e5026d-e519-4e97-961d-b65af7f3d3a1"},"vehicle_type_id":"4","last_reported":1720635079,"current_range_meters":22400,"station_id":"ce4bhbh2rcd13ifvqepg","pricing_plan_id":"cebpf4jnsgd1na2vs0mg"},{"bike_id":"8ef41767-80a3-476e-bb54-68cd416d7689","system_id":"levelo_inurba_marseille","lat":43.284219,"lon":5.3497,"is_reserved":false,"is_disabled":false,"rental_uris":{"android":"levelo://app?vid=8ef41767-80a3-476e-bb54-68cd416d7689","ios":"levelo://app?vid=8ef41767-80a3-476e-bb54-68cd416d7689"},"vehicle_type_id":"4","last_reported":1720635079,"current_range_meters":23200,"station_id":"ce4bhbh2rcd13ifvqepg","pricing_plan_id":"cebpf4jnsgd1na2vs0mg"},{"bike_id":"06261994-3902-42d7-81ba-0883e33f5eea","system_id":"levelo_inurba_marseille","lat":43.284208,"lon":5.349826,"is_reserved":false,"is_disabled":false,"rental_uris":{"android":"levelo://app?vid=06261994-3902-42d7-81ba-0883e33f5eea","ios":"levelo://app?vid=06261994-3902-42d7-81ba-0883e33f5eea"},"vehicle_type_id":"4","last_reported":1720635079,"current_range_meters":8400,"station_id":"ce4bhbh2rcd13ifvqepg","pricing_plan_id":"cebpf4jnsgd1na2vs0mg"},{"bike_id":"abb3c03b-c753-4585-81ce-5b537e1ed8de","system_id":"levelo_inurba_marseille","lat":43.284179,"lon":5.349832,"is_reserved":false,"is_disabled":false,"rental_uris":{"android":"levelo://app?vid=abb3c03b-c753-4585-81ce-5b537e1ed8de","ios":"levelo://app?vid=abb3c03b-c753-4585-81ce-5b537e1ed8de"},"vehicle_type_id":"4","last_reported":1720635079,"current_range_meters":22400,"station_id":"ce4bhbh2rcd13ifvqepg","pricing_plan_id":"cebpf4jnsgd1na2vs0mg"},{"bike_id":"f07e3473-1166-4464-8e75-5de4c3d088b6","system_id":"levelo_inurba_marseille","lat":43.284214,"lon":5.349706,"is_reserved":false,"is_disabled":false,"rental_uris":{"android":"levelo://app?vid=f07e3473-1166-4464-8e75-5de4c3d088b6","ios":"levelo://app?vid=f07e3473-1166-4464-8e75-5de4c3d088b6"},"vehicle_type_id":"4","last_reported":1720635079,"current_range_meters":26000,"station_id":"ce4bhbh2rcd13ifvqepg","pricing_plan_id":"cebpf4jnsgd1na2vs0mg"},{"bike_id":"64c83263-3325-4f9e-a6ab-704c203c740e","system_id":"levelo_inurba_marseille","lat":43.284176,"lon":5.349836,"is_reserved":false,"is_disabled":false,"rental_uris":{"android":"levelo://app?vid=64c83263-3325-4f9e-a6ab-704c203c740e","ios":"levelo://app?vid=64c83263-3325-4f9e-a6ab-704c203c740e"},"vehicle_type_id":"4","last_reported":1720635079,"current_range_meters":25600,"station_id":"ce4bhbh2rcd13ifvqepg","pricing_plan_id":"cebpf4jnsgd1na2vs0mg"},{"bike_id":"8cf38db4-ff94-434d-8b5a-b377dcf4c9a1","system_id":"levelo_inurba_marseille","lat":43.284214,"lon":5.349706,"is_reserved":false,"is_disabled":false,"rental_uris":{"android":"levelo://app?vid=8cf38db4-ff94-434d-8b5a-b377dcf4c9a1","ios":"levelo://app?vid=8cf38db4-ff94-434d-8b5a-b377dcf4c9a1"},"vehicle_type_id":"4","last_reported":1720635079,"current_range_meters":27600,"station_id":"ce4bhbh2rcd13ifvqepg","pricing_plan_id":"cebpf4jnsgd1na2vs0mg"},{"bike_id":"e0e3315a-d8fb-4744-a57f-b648f9bf98ee","system_id":"levelo_inurba_marseille","lat":43.28417,"lon":5.34984,"is_reserved":false,"is_disabled":false,"rental_uris":{"android":"levelo://app?vid=e0e3315a-d8fb-4744-a57f-b648f9bf98ee","ios":"levelo://app?vid=e0e3315a-d8fb-4744-a57f-b648f9bf98ee"},"vehicle_type_id":"4","last_reported":1720635079,"current_range_meters":8000,"station_id":"ce4bhbh2rcd13ifvqepg","pricing_plan_id":"cebpf4jnsgd1na2vs0mg"},{"bike_id":"d9fb3f13-9b84-4dfc-b413-e200b6fe0ca9","system_id":"levelo_inurba_marseille","lat":43.28418,"lon":5.34978,"is_reserved":false,"is_disabled":false,"rental_uris":{"android":"levelo://app?vid=d9fb3f13-9b84-4dfc-b413-e200b6fe0ca9","ios":"levelo://app?vid=d9fb3f13-9b84-4dfc-b413-e200b6fe0ca9"},"vehicle_type_id":"4","last_reported":1720635079,"current_range_meters":8800,"station_id":"ce4bhbh2rcd13ifvqepg","pricing_plan_id":"cebpf4jnsgd1na2vs0mg"},{"bike_id":"ec279bd6-7e2b-4b64-85b6-fa27cfb473b5","system_id":"levelo_inurba_marseille","lat":43.28413,"lon":5.34992,"is_reserved":false,"is_disabled":false,"rental_uris":{"android":"levelo://app?vid=ec279bd6-7e2b-4b64-85b6-fa27cfb473b5","ios":"levelo://app?vid=ec279bd6-7e2b-4b64-85b6-fa27cfb473b5"},"vehicle_type_id":"4","last_reported":1720635079,"current_range_meters":20400,"station_id":"ce4bhbh2rcd13ifvqepg","pricing_plan_id":"cebpf4jnsgd1na2vs0mg"},