{"last_updated":1784783704,"ttl":60,"version":"2.2","data":{"bikes":[{"bike_id":"7ef36254-6bb3-448c-8d77-979d957d54b6","system_id":"levelo_inurba_marseille","lat":43.337444,"lon":5.374475,"is_reserved":false,"is_disabled":false,"rental_uris":{"android":"levelo://app?vid=7ef36254-6bb3-448c-8d77-979d957d54b6","ios":"levelo://app?vid=7ef36254-6bb3-448c-8d77-979d957d54b6"},"vehicle_type_id":"4","last_reported":1784783705,"current_range_meters":0,"station_id":"","pricing_plan_id":"cebpf4jnsgd1na2vs0mg"},{"bike_id":"21fe2e98-0432-4b40-a81f-10dd00b0f57d","system_id":"levelo_inurba_marseille","lat":43.337444,"lon":5.374475,"is_reserved":false,"is_disabled":false,"rental_uris":{"android":"levelo://app?vid=21fe2e98-0432-4b40-a81f-10dd00b0f57d","ios":"levelo://app?vid=21fe2e98-0432-4b40-a81f-10dd00b0f57d"},"vehicle_type_id":"4","last_reported":1784783705,"current_range_meters":0,"station_id":"","pricing_plan_id":"cebpf4jnsgd1na2vs0mg"},{"bike_id":"74e63f80-9a64-4358-bbc0-f4bf523b1542","system_id":"levelo_inurba_marseille","lat":43.29247,"lon":5.39333,"is_reserved":false,"is_disabled":false,"rental_uris":{"android":"levelo://app?vid=74e63f80-9a64-4358-bbc0-f4bf523b1542","ios":"levelo://app?vid=74e63f80-9a64-4358-bbc0-f4bf523b1542"},"vehicle_type_id":"4","last_reported":1784783705,"current_range_meters":39200,"station_id":"ce4bh192rcd13ifvqdd0","pricing_plan_id":"cebpf4jnsgd1na2vs0mg"},{"bike_id":"1436c8fc-1976-4375-a86e-3d183547cdb8","system_id":"levelo_inurba_marseille","lat":43.32644,"lon":5.41009,"is_reserved":false,"is_disabled":false,"rental_uris":{"android":"levelo://app?vid=1436c8fc-1976-4375-a86e-3d183547cdb8","ios":"levelo://app?vid=1436c8fc-1976-4375-a86e-3d183547cdb8"},"vehicle_type_id":"4","last_reported":1784783705,"current_range_meters":38000,"station_id":"ce4bhpp2rcd13ifvqhgg","pricing_plan_id":"cebpf4jnsgd1na2vs0mg"},{"bike_id":"910edd9b-3f88-46ff-af53-0deba1c167b6","system_id":"levelo_inurba_marseille","lat":43.23958,"lon":5.36626,"is_reserved":false,"is_disabled":false,"rental_uris":{"android":"levelo://app?vid=910edd9b-3f88-46ff-af53-0deba1c167b6","ios":"levelo://app?vid=910edd9b-3f88-46ff-af53-0deba1c167b6"},"vehicle_type_id":"4","last_reported":1784783705,"current_range_meters":38000,"station_id":"ce4bhi12rcd13ifvqfp0","pricing_plan_id":"cebpf4jnsgd1na2vs0mg"},{"bike_id":"b8e064f1-518d-4adb-bc46-2d1160d72e79","system_id":"levelo_inurba_marseille","lat":43.31079,"lon":5.37166,"is_reserved":false,"is_disabled":false,"rental_uris":{"android":"levelo://app?vid=b8e064f1-518d-4adb-bc46-2d1160d72e79","ios":"levelo://app?vid=b8e064f1-518d-4adb-bc46-2d1160d72e79"},"vehicle_type_id":"4","last_reported":1784783705,"current_range_meters":16400,"station_id":"st_d4kl2rp97mjs73e7tdfg","pricing_plan_id":"cebpf4jnsgd1na2vs0mg"},{"bike_id":"eaf6c4bf-604d-4dd8-b4de-52f6da479651","system_id":"levelo_inurba_marseille","lat":43.25084,"lon":5.39534,"is_reserved":false,"is_disabled":false,"rental_uris":{"android":"levelo://app?vid=eaf6c4bf-604d-4dd8-b4de-52f6da479651","ios":"levelo://app?vid=eaf6c4bf-604d-4dd8-b4de-52f6da479651"},"vehicle_type_id":"4","last_reported":1784783705,"current_range_meters":34000,"station_id":"ce4bhm12rcd13ifvqgkg","pricing_plan_id":"cebpf4jnsgd1na2vs0mg"},{"bike_id":"f2c26268-2002-48c9-a2f8-8f76ed8a8540","system_id":"levelo_inurba_marseille","lat":43.23879,"lon":5.37479,"is_reserved":false,"is_disabled":false,"rental_uris":{"android":"levelo://app?vid=f2c26268-2002-48c9-a2f8-8f76ed8a8540","ios":"levelo://app?vid=f2c26268-2002-48c9-a2f8-8f76ed8a8540"},"vehicle_type_id":"4","last_reported":1784783705,"current_range_meters":38400,"station_id":"st_d6sm7csbq4hs73f8fpjg","pricing_plan_id":"cebpf4jnsgd1na2vs0mg"},{"bike_id":"fc079d15-0938-45f7-80b7-6e7d703b61d8","system_id":"levelo_inurba_marseille","lat":43.28436,"lon":5.3754,"is_reserved":false,"is_disabled":false,"rental_uris":{"android":"levelo://app?vid=fc079d15-0938-45f7-80b7-6e7d703b61d8","ios":"levelo://app?vid=fc079d15-0938-45f7-80b7-6e7d703b61d8"},"vehicle_type_id":"4","last_reported":1784783705,"current_range_meters":38000,"station_id":"ce4bh412rcd13ifvqds0","pricing_plan_id":"cebpf4jnsgd1na2vs0mg"},{"bike_id":"72706276-fb69-4388-946e-2b4fb06a5929","system_id":"levelo_inurba_marseille","lat":43.33013,"lon":5.39059,"is_reserved":false,"is_disabled":false,"rental_uris":{"android":"levelo://app?vid=72706276-fb69-4388-946e-2b4fb06a5929","ios":"levelo://app?vid=72706276-fb69-4388-946e-2b4fb06a5929"},"vehicle_type_id":"4","last_reported":1784783705,"current_range_meters":38800,"station_id":"ce4bhr92rcd13ifvqhrg","pricing_plan_id":"cebpf4jnsgd1na2vs0mg"},{"bike_id":"9a4ea630-4b44-4573-a5e3-cdd359cb069c","system_id":"levelo_inurba_marseille","lat":43.29622,"lon":5.40619,"is_reserved":false,"is_disabled":false,"rental_uris":{"android":"levelo://app?vid=9a4ea630-4b44-4573-a5e3-cdd359cb069c","ios":"levelo://app?vid=9a4ea630-4b44-4573-a5e3-cdd359cb069c"},"vehicle_type_id":"4","last_reported":1784783705,"current_range_meters":39200,"station_id":"ce4bh0h2rcd13ifvqd60","pricing_plan_id":"cebpf4jnsgd1na2vs0mg"},{"bike_id":"1914db54-2477-43de-b8a3-251c739d9c91","system_id":"levelo_inurba_marseille","lat":43.30806,"lon":5.3814,"is_reserved":false,"is_disabled":false,"rental_uris":{"android":"levelo://app?vid=1914db54-2477-43de-b8a3-251c739d9c91","ios":"levelo://app?vid=1914db54-2477-43de-b8a3-251c739d9c91"},"vehicle_type_id":"4","last_reported":1784783705,"current_range_meters":39200,"station_id":"ce4bgt12rcd13ifvqce0","pricing_plan_id":"cebpf4jnsgd1na2vs0mg"},{"bike_id":"a3a2fc6a-55a6-4c59-b5eb-af329f69e502","system_id":"levelo_inurba_marseille","lat":43.24427,"lon":5.37064,"is_reserved":false,"is_disabled":false,"rental_uris":{"android":"levelo://app?vid=a3a2fc6a-55a6-4c59-b5eb-af329f69e502","ios":"levelo://app?vid=a3a2fc6a-55a6-4c59-b5eb-af329f69e502"},"vehicle_type_id":"4","last_reported":1784783705,"current_range_meters":32800,"station_id":"ce4bhhh2rcd13ifvqfk0","pricing_plan_id":"cebpf4jnsgd1na2vs0mg"},{"bike_id":"b4eb82e3-4188-4aea-931f-9c75f17c1c62","system_id":"levelo_inurba_marseille","lat":43.29055,"lon":5.38127,"is_reserved":false,"is_disabled":false,"rental_uris":{"android":"levelo://app?vid=b4eb82e3-4188-4aea-931f-9c75f17c1c62","ios":"levelo://app?vid=b4eb82e3-4188-4aea-931f-9c75f17c1c62"},"vehicle_type_id":"4","last_reported":1784783705,"current_range_meters":38400,"station_id":"","pricing_plan_id":"cebpf4jnsgd1na2vs0mg"},{"bike_id":"a278d1de-69f6-4411-9626-a144bc8f62c6","system_id":"levelo_inurba_marseille","lat":43.28415,"lon":5.37522,"is_reserved":false,"is_disabled":false,"rental_uris":{"android":"levelo://app?vid=a278d1de-69f6-4411-9626-a144bc8f62c6","ios":"levelo://app?vid=a278d1de-69f6-4411-9626-a144bc8f62c6"},"vehicle_type_id":"4","last_reported":1784783705,"current_range_meters":30800,"station_id":"ce4bh412rcd13ifvqds0","pricing_plan_id":"cebpf4jnsgd1na2vs0mg"},{"bike_id":"5098cb6c-985e-4621-a2e4-87eccf1cd83e","system_id":"levelo_inurba_marseille","lat":43.29639,"lon":5.39534,"is_reserved":false,"is_disabled":false,"rental_uris":{"android":"levelo://app?vid=5098cb6c-985e-4621-a2e4-87eccf1cd83e","ios":"levelo://app?vid=5098cb6c-985e-4621-a2e4-87eccf1cd83e"},"vehicle_type_id":"4","last_reported":1784783705,"current_range_meters":28000,"station_id":"","pricing_plan_id":"cebpf4jnsgd1na2vs0mg"},{"bike_id":"3101f7ce-d802-418d-8fba-8e517979d361","system_id":"levelo_inurba_marseille","lat":43.24174,"lon":5.36387,"is_reserved":false,"is_disabled":false,"rental_uris":{"android":"levelo://app?vid=3101f7ce-d802-418d-8fba-8e517979d361","ios":"levelo://app?vid=3101f7ce-d802-418d-8fba-8e517979d361"},"vehicle_type_id":"4","last_reported":1784783705,"current_range_meters":12000,"station_id":"cpo36qri1sfpv3e86is0","pricing_plan_id":"cebpf4jnsgd1na2vs0mg"},{"bike_id":"45c49d7a-ce5a-4cef-92b3-a6a99f7ffcbc","system_id":"levelo_inurba_marseille","lat":43.31776,"lon":5.38994,"is_reserved":false,"is_disabled":false,"rental_uris":{"android":"levelo://app?vid=45c49d7a-ce5a-4cef-92b3-a6a99f7ffcbc","ios":"levelo://app?vid=45c49d7a-ce5a-4cef-92b3-a6a99f7ffcbc"},"vehicle_type_id":"4","last_reported":1784783705,"current_range_meters":38400,"station_id":"ce4bhqp2rcd13ifvqhng","pricing_plan_id":"cebpf4jnsgd1na2vs0mg"},{"bike_id":"57995630-c16c-4ab3-8288-3c463116c252","system_id":"levelo_inurba_marseille","lat":43.28941,"lon":5.39628,"is_reserved":false,"is_disabled":false,"rental_uris":{"android":"levelo://app?vid=57995630-c16c-4ab3-8288-3c463116c252","ios":"levelo://app?vid=57995630-c16c-4ab3-8288-3c463116c252"},"vehicle_type_id":"4","last_reported":1784783705,"current_range_meters":38000,"station_id":"ce4bh3h2rcd13ifvqdn0","pricing_plan_id":"cebpf4jnsgd1na2vs0mg"},{"bike_id":"709aad30-cd29-41eb-afa3-d717978149e3","system_id":"levelo_inurba_marseille","lat":43.33762,"lon":5.37441,"is_reserved":false,"is_disabled":false,"rental_uris":{"android":"levelo://app?vid=709aad30-cd29-41eb-afa3-d717978149e3","ios":"levelo://app?vid=709aad30-cd29-41eb-afa3-d717978149e3"},"vehicle_type_id":"4","last_reported":1784783705,"current_range_meters":38800,"station_id":"","pricing_plan_id":"cebpf4jnsgd1na2vs0mg"},{"bike_id":"93056aa7-aa48-450d-9fd9-e010cf04fd23","system_id":"levelo_inurba_marseille","lat":43.30669,"lon":5.40114,"is_reserved":false,"is_disabled":false,"rental_uris":{"android":"levelo://app?vid=93056aa7-aa48-450d-9fd9-e010cf04fd23","ios":"levelo://app?vid=93056aa7-aa48-450d-9fd9-e010cf04fd23"},"vehicle_type_id":"4","last_reported":1784783705,"current_range_meters":25200,"station_id":"ce4bh112rcd13ifvqda0","pricing_plan_id":"cebpf4jnsgd1na2vs0mg"},{"bike_id":"0334278a-f526-4865-9991-40008fe349be","system_id":"levelo_inurba_marseille","lat":43.28099,"lon":5.3964,"is_reserved":false,"is_disabled":true,"rental_uris":{"android":"levelo://app?vid=0334278a-f526-4865-9991-40008fe349be","ios":"levelo://app?vid=0334278a-f526-4865-9991-40008fe349be"},"vehicle_type_id":"4","last_reported":1784783705,"current_range_meters":38000,"station_id":"ce4bho12rcd13ifvqh2g","pricing_plan_id":"cebpf4jnsgd1na2vs0mg"},{"bike_id":"3455e20c-522e-437c-be9f-471c37fa2a69","system_id":"levelo_inurba_marseille","lat":43.29817,"lon":5.40398,"is_reserved":false,"is_disabled":false,"rental_uris":{"android":"levelo://app?vid=3455e20c-522e-437c-be9f-471c37fa2a69","ios":"levelo://app?vid=3455e20c-522e-437c-be9f-471c37fa2a69"},"vehicle_type_id":"4","last_reported":1784783705,"current_range_meters":38400,"station_id":"ce4bh112rcd13ifvqd90","pricing_plan_id":"cebpf4jnsgd1na2vs0mg"},{"bike_id":"9b4e6bf1-8345-43ae-be60-2d9ac6130d69","system_id":"levelo_inurba_marseille","lat":43.30119,"lon":5.39054,"is_reserved":false,"is_disabled":false,"rental_uris":{"android":"levelo://app?vid=9b4e6bf1-8345-43ae-be60-2d9ac6130d69","ios":"levelo://app?vid=9b4e6bf1-8345-43ae-be60-2d9ac6130d69"},"vehicle_type_id":"4","last_reported":1784783705,"current_range_meters":24400,"station_id":"ce4bh192rcd13ifvqdb0","pricing_plan_id":"cebpf4jnsgd1na2vs0mg"},{"bike_id":"7b893c3a-f50d-4ab1-b4e5-684f550fde57","system_id":"levelo_inurba_marseille","lat":43.31494,"lon":5.37306,"is_reserved":false,"is_disabled":true,"rental_uris":{"android":"levelo://app?vid=7b893c3a-f50d-4ab1-b4e5-684f550fde57","ios":"levelo://app?vid=7b893c3a-f50d-4ab1-b4e5-684f550fde57"},"vehicle_type_id":"4","last_reported":1784783705,"current_range_meters":6000,"station_id":"ce4bgt12rcd13ifvqcd0","pricing_plan_id":"cebpf4jnsgd1na2vs0mg"},{"bike_id":"bd1fb047-1503-427f-b75e-bda7ffbeebc4","system_id":"levelo_inurba_marseille","lat":43.31753,"lon":5.39037,"is_reserved":false,"is_disabled":false,"rental_uris":{"android":"levelo://app?vid=bd1fb047-1503-427f-b75e-bda7ffbeebc4","ios":"levelo://app?vid=bd1fb047-1503-427f-b75e-bda7ffbeebc4"},"vehicle_type_id":"4","last_reported":1784783705,"current_range_meters":34000,"station_id":"ce4bhqp2rcd13ifvqhng","pricing_plan_id":"cebpf4jnsgd1na2vs0mg"},{"bike_id":"f0b5964a-d2cc-4534-aee6-ec4a519c24da","system_id":"levelo_inurba_marseille","lat":43.31077,"lon":5.37174,"is_reserved":false,"is_disabled":false,"rental_uris":{"android":"levelo://app?vid=f0b5964a-d2cc-4534-aee6-ec4a519c24da","ios":"levelo://app?vid=f0b5964a-d2cc-4534-aee6-ec4a519c24da"},"vehicle_type_id":"4","last_reported":1784783705,"current_range_meters":8800,"station_id":"st_d4kl2rp97mjs73e7tdfg","pricing_plan_id":"cebpf4jnsgd1na2vs0mg"},{"bike_id":"7d8003c2-c2c0-4625-b144-17864397c8d8","system_id":"levelo_inurba_marseille","lat":43.26067,"lon":5.39402,"is_reserved":false,"is_disabled":false,"rental_uris":{"android":"levelo://app?vid=7d8003c2-c2c0-4625-b144-17864397c8d8","ios":"levelo://app?vid=7d8003c2-c2c0-4625-b144-17864397c8d8"},"vehicle_type_id":"4","last_reported":1784783705,"current_range_meters":26800,"station_id":"ce4bhh92rcd13ifvqfj0","pricing_plan_id":"cebpf4jnsgd1na2vs0mg"},{"bike_id":"092a8e30-6514-4600-acda-54def350112e","system_id":"levelo_inurba_marseille","lat":43.30926,"lon":5.40146,"is_reserved":false,"is_disabled":false,"rental_uris":{"android":"levelo://app?vid=092a8e30-6514-4600-acda-54def350112e","ios":"levelo://app?vid=092a8e30-6514-4600-acda-54def350112e"},"vehicle_type_id":"4","last_reported":1784783705,"current_range_meters":28000,"station_id":"ce4bgvp2rcd13ifvqct0","pricing_plan_id":"cebpf4jnsgd1na2vs0mg"},{"bike_id":"230bb001-2aae-4201-b0c5-e04ad994a755","system_id":"levelo_inurba_marseille","lat":43.30212,"lon":5.39435,"is_reserved":false,"is_disabled":false,"rental_uris":{"android":"levelo://app?vid=230bb001-2aae-4201-b0c5-e04ad994a755","ios":"levelo://app?vid=230bb001-2aae-4201-b0c5-e04ad994a755"},"vehicle_type_id":"4","last_reported":1784783705,"current_range_meters":38800,"station_id":"ce4bh0p2rcd13ifvqd70","pricing_plan_id":"cebpf4jnsgd1na2vs0mg"},{"bike_id":"bb6740e4-f2f7-43af-b7fb-56cb5beb6d3d","system_id":"levelo_inurba_marseille","lat":43.28398,"lon":5.38638,"is_reserved":false,"is_disabled":false,"rental_uris":{"android":"levelo://app?vid=bb6740e4-f2f7-43af-b7fb-56cb5beb6d3d","ios":"levelo://app?vid=bb6740e4-f2f7-43af-b7fb-56cb5beb6d3d"},"vehicle_type_id":"4","last_reported":1784783705,"current_range_meters":39200,"station_id":"ce4bh492rcd13ifvqdvg","pricing_plan_id":"cebpf4jnsgd1na2vs0mg"},{"bike_id":"78c965f0-3dcc-4c2d-9473-61c3fb2cbec4","system_id":"levelo_inurba_marseille","lat":43.28341,"lon":5.38073,"is_reserved":false,"is_disabled":false,"rental_uris":{"android":"levelo://app?vid=78c965f0-3dcc-4c2d-9473-61c3fb2cbec4","ios":"levelo://app?vid=78c965f0-3dcc-4c2d-9473-61c3fb2cbec4"},"vehicle_type_id":"4","last_reported":1784783705,"current_range_meters":33600,"station_id":"ce4bh412rcd13ifvqdr0","pricing_plan_id":"cebpf4jnsgd1na2vs0mg"},{"bike_id":"e6fd8f23-7706-405c-97a9-bc0f2d1ad132","system_id":"levelo_inurba_marseille","lat":43.24383,"lon":5.37043,"is_reserved":false,"is_disabled":false,"rental_uris":{"android":"levelo://app?vid=e6fd8f23-7706-405c-97a9-bc0f2d1ad132","ios":"levelo://app?vid=e6fd8f23-7706-405c-97a9-bc0f2d1ad132"},"vehicle_type_id":"4","last_reported":1784783705,"current_range_meters":30400,"station_id":"ce4bhhh2rcd13ifvqfk0","pricing_plan_id":"cebpf4jnsgd1na2vs0mg"},{"bike_id":"4b5bbc0c-d42a-47d6-a1f9-c9e7f42943f0","system_id":"levelo_inurba_marseille","lat":43.24674,"lon":5.38166,"is_reserved":false,"is_disabled":false,"rental_uris":{"android":"levelo://app?vid=4b5bbc0c-d42a-47d6-a1f9-c9e7f42943f0","ios":"levelo://app?vid=4b5bbc0c-d42a-47d6-a1f9-c9e7f42943f0"},"vehicle_type_id":"4","last_reported":1784783705,"current_range_meters":9200,"station_id":"ce4bhih2rcd13ifvqfr0","pricing_plan_id":"cebpf4jnsgd1na2vs0mg"},{"bike_id":"7764970a-34ed-47ec-8822-620f6c0f8a78","system_id":"levelo_inurba_marseille","lat":43.24963,"lon":5.38979,"is_reserved":false,"is_disabled":true,"rental_uris":{"android":"levelo://app?vid=7764970a-34ed-47ec-8822-620f6c0f8a78","ios":"levelo://app?vid=7764970a-34ed-47ec-8822-620f6c0f8a78"},"vehicle_type_id":"4","last_reported":1784783705,"current_range_meters":0,"station_id":"","pricing_plan_id":"cebpf4jnsgd1na2vs0mg"},{"bike_id":"6f2dfda6-953e-483c-9d7e-5af30cff94be","system_id":"levelo_inurba_marseille","lat":43.28574,"lon":5.39493,"is_reserved":false,"is_disabled":false,"rental_uris":{"android":"levelo://app?vid=6f2dfda6-953e-483c-9d7e-5af30cff94be","ios":"levelo://app?vid=6f2dfda6-953e-483c-9d7e-5af30cff94be"},"vehicle_type_id":"4","last_reported":1784783705,"current_range_meters":36800,"station_id":"ce4bh292rcd13ifvqdg0","pricing_plan_id":"cebpf4jnsgd1na2vs0mg"},{"bike_id":"9bf34726-bb15-461f-9e3e-80ad5e4e343b","system_id":"levelo_inurba_marseille","lat":43.31346,"lon":5.36716,"is_reserved":false,"is_disabled":false,"rental_uris":{"android":"levelo://app?vid=9bf34726-bb15-461f-9e3e-80ad5e4e343b","ios":"levelo://app?vid=9bf34726-bb15-461f-9e3e-80ad5e4e343b"},"vehicle_type_id":"4","last_reported":1784783705,"current_range_meters":38400,"station_id":"ce4bgr92rcd13ifvqc6g","pricing_plan_id":"cebpf4jnsgd1na2vs0mg"},{"bike_id":"a338cea5-f797-4d31-b718-3121663ee29c","system_id":"levelo_inurba_marseille","lat":43.30428,"lon":5.37941,"is_reserved":false,"is_disabled":false,"rental_uris":{"android":"levelo://app?vid=a338cea5-f797-4d31-b718-3121663ee29c","ios":"levelo://app?vid=a338cea5-f797-4d31-b718-3121663ee29c"},"vehicle_type_id":"4","last_reported":1784783705,"current_range_meters":31200,"station_id":"ce4bgup2rcd13ifvqcn0","pricing_plan_id":"cebpf4jnsgd1na2vs0mg"},{"bike_id":"aa9df743-88fd-4f46-a92a-690b4294c277","system_id":"levelo_inurba_marseille","lat":43.30002,"lon":5.37181,"is_reserved":false,"is_disabled":false,"rental_uris":{"android":"levelo://app?vid=aa9df743-88fd-4f46-a92a-690b4294c277","ios":"levelo://app?vid=aa9df743-88fd-4f46-a92a-690b4294c277"},"vehicle_type_id":"4","last_reported":1784783705,"current_range_meters":39200,"station_id":"ce4bgr92rcd13ifvqc7g","pricing_plan_id":"cebpf4jnsgd1na2vs0mg"},{"bike_id":"dccd1842-d3fc-462b-8861-64d8a5c860cb","system_id":"levelo_inurba_marseille","lat":43.28977,"lon":5.37824,"is_reserved":false,"is_disabled":false,"rental_uris":{"android":"levelo://app?vid=dccd1842-d3fc-462b-8861-64d8a5c860cb","ios":"levelo://app?vid=dccd1842-d3fc-462b-8861-64d8a5c860cb"},"vehicle_type_id":"4","last_reported":1784783705,"current_range_meters":39200,"station_id":"ce4bh9p2rcd13ifvqed0","pricing_plan_id":"cebpf4jnsgd1na2vs0mg"},{"bike_id":"a0cf1fe7-6d18-4478-8c08-79d4e82a4c9a","system_id":"levelo_inurba_marseille","lat":43.30546,"lon":5.38429,"is_reserved":false,"is_disabled":false,"rental_uris":{"android":"levelo://app?vid=a0cf1fe7-6d18-4478-8c08-79d4e82a4c9a","ios":"levelo://app?vid=a0cf1fe7-6d18-4478-8c08-79d4e82a4c9a"},"vehicle_type_id":"4","last_reported":1784783705,"current_range_meters":38000,"station_id":"ce4bgg92rcd13ifvqb30","pricing_plan_id":"cebpf4jnsgd1na2vs0mg"},{"bike_id":"a7c9489a-3c37-4218-bc38-92c335aa3a8a","system_id":"levelo_inurba_marseille","lat":43.28496,"lon":5.48386,"is_reserved":false,"is_disabled":false,"rental_uris":{"android":"levelo://app?vid=a7c9489a-3c37-4218-bc38-92c335aa3a8a","ios":"levelo://app?vid=a7c9489a-3c37-4218-bc38-92c335aa3a8a"},"vehicle_type_id":"4","last_reported":1784783705,"current_range_meters":39200,"station_id":"st_d3svhcjqgbts73a3dn0g","pricing_plan_id":"cebpf4jnsgd1na2vs0mg"},{"bike_id":"67b3b13e-f154-4212-aad2-bfcb9d756cb6","system_id":"levelo_inurba_marseille","lat":43.30544,"lon":5.38431,"is_reserved":false,"is_disabled":false,"rental_uris":{"android":"levelo://app?vid=67b3b13e-f154-4212-aad2-bfcb9d756cb6","ios":"levelo://app?vid=67b3b13e-f154-4212-aad2-bfcb9d756cb6"},"vehicle_type_id":"4","last_reported":1784783705,"current_range_meters":19200,"station_id":"ce4bgg92rcd13ifvqb30","pricing_plan_id":"cebpf4jnsgd1na2vs0mg"},{"bike_id":"b4a84a03-8380-4ead-838e-21f3cf0d177c","system_id":"levelo_inurba_marseille","lat":43.32283,"lon":5.38253,"is_reserved":false,"is_disabled":false,"rental_uris":{"android":"levelo://app?vid=b4a84a03-8380-4ead-838e-21f3cf0d177c","ios":"levelo://app?vid=b4a84a03-8380-4ead-838e-21f3cf0d177c"},"vehicle_type_id":"4","last_reported":1784783705,"current_range_meters":40000,"station_id":"ce4bhr12rcd13ifvqhqg","pricing_plan_id":"cebpf4jnsgd1na2vs0mg"},{"bike_id":"b8e856c1-a581-416f-b4a7-9d85023fcbcd","system_id":"levelo_inurba_marseille","lat":43.28665,"lon":5.36357,"is_reserved":false,"is_disabled":false,"rental_uris":{"android":"levelo://app?vid=b8e856c1-a581-416f-b4a7-9d85023fcbcd","ios":"levelo://app?vid=b8e856c1-a581-416f-b4a7-9d85023fcbcd"},"vehicle_type_id":"4","last_reported":1784783705,"current_range_meters":8800,"station_id":"ce4bhah2rcd13ifvqej0","pricing_plan_id":"cebpf4jnsgd1na2vs0mg"},{"bike_id":"c9ec9bb6-667b-4165-86f8-8c42354a2269","system_id":"levelo_inurba_marseille","lat":43.33781,"lon":5.37435,"is_reserved":false,"is_disabled":false,"rental_uris":{"android":"levelo://app?vid=c9ec9bb6-667b-4165-86f8-8c42354a2269","ios":"levelo://app?vid=c9ec9bb6-667b-4165-86f8-8c42354a2269"},"vehicle_type_id":"4","last_reported":1784783705,"current_range_meters":32000,"station_id":"","pricing_plan_id":"cebpf4jnsgd1na2vs0mg"},{"bike_id":"3d3363f1-b079-4e13-899e-dbc693f0dea6","system_id":"levelo_inurba_marseille","lat":43.27498,"lon":5.42454,"is_reserved":false,"is_disabled":false,"rental_uris":{"android":"levelo://app?vid=3d3363f1-b079-4e13-899e-dbc693f0dea6","ios":"levelo://app?vid=3d3363f1-b079-4e13-899e-dbc693f0dea6"},"vehicle_type_id":"4","last_reported":1784783705,"current_range_meters":6000,"station_id":"ce4bhn92rcd13ifvqgrg","pricing_plan_id":"cebpf4jnsgd1na2vs0mg"},{"bike_id":"dcb52276-35bc-42b7-9a0d-fe3391fbd2fe","system_id":"levelo_inurba_marseille","lat":43.32477,"lon":5.36563,"is_reserved":false,"is_disabled":false,"rental_uris":{"android":"levelo://app?vid=dcb52276-35bc-42b7-9a0d-fe3391fbd2fe","ios":"levelo://app?vid=dcb52276-35bc-42b7-9a0d-fe3391fbd2fe"},"vehicle_type_id":"4","last_reported":1784783705,"current_range_meters":39200,"station_id":"ce4bhs12rcd13ifvqhvg","pricing_plan_id":"cebpf4jnsgd1na2vs0mg"},{"bike_id":"5aa3ca14-34f8-4cf6-bf98-84664ad40ed9","system_id":"levelo_inurba_marseille","lat":43.32344,"lon":5.38855,"is_reserved":false,"is_disabled":false,"rental_uris":{"android":"levelo://app?vid=5aa3ca14-34f8-4cf6-bf98-84664ad40ed9","ios":"levelo://app?vid=5aa3ca14-34f8-4cf6-bf98-84664ad40ed9"},"vehicle_type_id":"4","last_reported":1784783705,"current_range_meters":34800,"station_id":"ce4bhqp2rcd13ifvqhog","pricing_plan_id":"cebpf4jnsgd1na2vs0mg"},{"bike_id":"e55196e3-b19f-426d-8da8-42328ae62942","system_id":"levelo_inurba_marseille","lat":43.28481,"lon":5.38405,"is_reserved":false,"is_disabled":false,"rental_uris":{"android":"levelo://app?vid=e55196e3-b19f-426d-8da8-42328ae62942","ios":"levelo://app?vid=e55196e3-b19f-426d-8da8-42328ae62942"},"vehicle_type_id":"4","last_reported":1784783705,"current_range_meters":38400,"station_id":"ce4bh512rcd13ifvqe3g","pricing_plan_id":"cebpf4jnsgd1na2vs0mg"},{"bike_id":"3a4e7014-da5d-4ced-a4e0-020fc1ccbea3","system_id":"levelo_inurba_marseille","lat":43.29808,"lon":5.40412,"is_reserved":false,"is_disabled":false,"rental_uris":{"android":"levelo://app?vid=3a4e7014-da5d-4ced-a4e0-020fc1ccbea3","ios":"levelo://app?vid=3a4e7014-da5d-4ced-a4e0-020fc1ccbea3"},"vehicle_type_id":"4","last_reported":1784783705,"current_range_meters":36400,"station_id":"ce4bh112rcd13ifvqd90","pricing_plan_id":"cebpf4jnsgd1na2vs0mg"},{"bike_id":"0547f557-b090-4345-9140-124bc0c4fa4e","system_id":"levelo_inurba_marseille","lat":43.33158,"lon":5.3767,"is_reserved":false,"is_disabled":false,"rental_uris":{"android":"levelo://app?vid=0547f557-b090-4345-9140-124bc0c4fa4e","ios":"levelo://app?vid=0547f557-b090-4345-9140-124bc0c4fa4e"},"vehicle_type_id":"4","last_reported":1784783705,"current_range_meters":31200,"station_id":"st_d46cu089ee8s73dldbu0","pricing_plan_id":"cebpf4jnsgd1na2vs0mg"},{"bike_id":"a4e34098-8c0f-4326-9772-a08c7f6b76fa","system_id":"levelo_inurba_marseille","lat":43.27073,"lon":5.42299,"is_reserved":false,"is_disabled":false,"rental_uris":{"android":"levelo://app?vid=a4e34098-8c0f-4326-9772-a08c7f6b76fa","ios":"levelo://app?vid=a4e34098-8c0f-4326-9772-a08c7f6b76fa"},"vehicle_type_id":"4","last_reported":1784783705,"current_range_meters":37600,"station_id":"ce4bhk92rcd13ifvqgb0","pricing_plan_id":"cebpf4jnsgd1na2vs0mg"},{"bike_id":"8b48f329-937d-4f33-bc8e-cc3992c67190","system_id":"levelo_inurba_marseille","lat":43.29622,"lon":5.37167,"is_reserved":false,"is_disabled":true,"rental_uris":{"android":"levelo://app?vid=8b48f329-937d-4f33-bc8e-cc3992c67190","ios":"levelo://app?vid=8b48f329-937d-4f33-bc8e-cc3992c67190"},"vehicle_type_id":"4","last_reported":1784783705,"current_range_meters":33200,"station_id":"","pricing_plan_id":"cebpf4jnsgd1na2vs0mg"},{"bike_id":"d2f317eb-ede0-48d9-9c1e-726306402956","system_id":"levelo_inurba_marseille","lat":43.28939,"lon":5.39618,"is_reserved":false,"is_disabled":false,"rental_uris":{"android":"levelo://app?vid=d2f317eb-ede0-48d9-9c1e-726306402956","ios":"levelo://app?vid=d2f317eb-ede0-48d9-9c1e-726306402956"},"vehicle_type_id":"4","last_reported":1784783705,"current_range_meters":38000,"station_id":"ce4bh3h2rcd13ifvqdn0","pricing_plan_id":"cebpf4jnsgd1na2vs0mg"},{"bike_id":"8f0e7d8f-4628-4ae9-adf4-e14f8541deb9","system_id":"levelo_inurba_marseille","lat":43.27184,"lon":5.40999,"is_reserved":false,"is_disabled":false,"rental_uris":{"android":"levelo://app?vid=8f0e7d8f-4628-4ae9-adf4-e14f8541deb9","ios":"levelo://app?vid=8f0e7d8f-4628-4ae9-adf4-e14f8541deb9"},"vehicle_type_id":"4","last_reported":1784783705,"current_range_meters":18000,"station_id":"ce4bhl12rcd13ifvqgf0","pricing_plan_id":"cebpf4jnsgd1na2vs0mg"},{"bike_id":"429de8f6-407d-420a-b872-986ad355a2d5","system_id":"levelo_inurba_marseille","lat":43.255912,"lon":5.376674,"is_reserved":false,"is_disabled":true,"rental_uris":{"android":"levelo://app?vid=429de8f6-407d-420a-b872-986ad355a2d5","ios":"levelo://app?vid=429de8f6-407d-420a-b872-986ad355a2d5"},"vehicle_type_id":"4","last_reported":1784783705,"current_range_meters":17600,"station_id":"","pricing_plan_id":"cebpf4jnsgd1na2vs0mg"},{"bike_id":"b62c6f43-d381-4900-8a07-23d79aaa3392","system_id":"levelo_inurba_marseille","lat":43.29591,"lon":5.42233,"is_reserved":false,"is_disabled":false,"rental_uris":{"android":"levelo://app?vid=b62c6f43-d381-4900-8a07-23d79aaa3392","ios":"levelo://app?vid=b62c6f43-d381-4900-8a07-23d79aaa3392"},"vehicle_type_id":"4","last_reported":1784783705,"current_range_meters":14400,"station_id":"","pricing_plan_id":"cebpf4jnsgd1na2vs0mg"},{"bike_id":"b4ac26d0-963a-4a25-bf7e-8083e1294ae5","system_id":"levelo_inurba_marseille","lat":43.23951,"lon":5.36634,"is_reserved":false,"is_disabled":false,"rental_uris":{"android":"levelo://app?vid=b4ac26d0-963a-4a25-bf7e-8083e1294ae5","ios":"levelo://app?vid=b4ac26d0-963a-4a25-bf7e-8083e1294ae5"},"vehicle_type_id":"4","last_reported":1784783705,"current_range_meters":34000,"station_id":"ce4bhi12rcd13ifvqfp0","pricing_plan_id":"cebpf4jnsgd1na2vs0mg"},{"bike_id":"1b1c692c-3f22-4b84-89e9-e8db6fc521f4","system_id":"levelo_inurba_marseille","lat":43.29506,"lon":5.37508,"is_reserved":false,"is_disabled":false,"rental_uris":{"android":"levelo://app?vid=1b1c692c-3f22-4b84-89e9-e8db6fc521f4","ios":"levelo://app?vid=1b1c692c-3f22-4b84-89e9-e8db6fc521f4"},"vehicle_type_id":"4","last_reported":1784783705,"current_range_meters":38800,"station_id":"ce4bgkp2rcd13ifvqbmg","pricing_plan_id":"cebpf4jnsgd1na2vs0mg"},{"bike_id":"3a295aff-6816-4af7-ac5a-87a5bd41c1cd","system_id":"levelo_inurba_marseille","lat":43.28475,"lon":5.48384,"is_reserved":false,"is_disabled":false,"rental_uris":{"android":"levelo://app?vid=3a295aff-6816-4af7-ac5a-87a5bd41c1cd","ios":"levelo://app?vid=3a295aff-6816-4af7-ac5a-87a5bd41c1cd"},"vehicle_type_id":"4","last_reported":1784783705,"current_range_meters":24800,"station_id":"st_d3svhcjqgbts73a3dn0g","pricing_plan_id":"cebpf4jnsgd1na2vs0mg"},{"bike_id":"7b1a34a9-9772-429a-ac81-dbcf3805788e","system_id":"levelo_inurba_marseille","lat":43.27889,"lon":5.35529,"is_reserved":false,"is_disabled":false,"rental_uris":{"android":"levelo://app?vid=7b1a34a9-9772-429a-ac81-dbcf3805788e","ios":"levelo://app?vid=7b1a34a9-9772-429a-ac81-dbcf3805788e"},"vehicle_type_id":"4","last_reported":1784783705,"current_range_meters":14400,"station_id":"","pricing_plan_id":"cebpf4jnsgd1na2vs0mg"},{"bike_id":"aa391704-cb81-469a-8f7c-4fac615a81b3","system_id":"levelo_inurba_marseille","lat":43.28409,"lon":5.37525,"is_reserved":false,"is_disabled":false,"rental_uris":{"android":"levelo://app?vid=aa391704-cb81-469a-8f7c-4fac615a81b3","ios":"levelo://app?vid=aa391704-cb81-469a-8f7c-4fac615a81b3"},"vehicle_type_id":"4","last_reported":1784783705,"current_range_meters":39200,"station_id":"ce4bh412rcd13ifvqds0","pricing_plan_id":"cebpf4jnsgd1na2vs0mg"},{"bike_id":"7b25ed2b-a387-4dd8-96e1-6ed8183d149d","system_id":"levelo_inurba_marseille","lat":43.30309,"lon":5.4044,"is_reserved":false,"is_disabled":false,"rental_uris":{"android":"levelo://app?vid=7b25ed2b-a387-4dd8-96e1-6ed8183d149d","ios":"levelo://app?vid=7b25ed2b-a387-4dd8-96e1-6ed8183d149d"},"vehicle_type_id":"4","last_reported":1784783705,"current_range_meters":36800,"station_id":"ce4bh012rcd13ifvqd10","pricing_plan_id":"cebpf4jnsgd1na2vs0mg"},{"bike_id":"b3615f38-9ae4-47b3-be0f-27da959fb130","system_id":"levelo_inurba_marseille","lat":43.26553,"lon":5.39616,"is_reserved":false,"is_disabled":false,"rental_uris":{"android":"levelo://app?vid=b3615f38-9ae4-47b3-be0f-27da959fb130","ios":"levelo://app?vid=b3615f38-9ae4-47b3-be0f-27da959fb130"},"vehicle_type_id":"4","last_reported":1784783705,"current_range_meters":11600,"station_id":"","pricing_plan_id":"cebpf4jnsgd1na2vs0mg"},{"bike_id":"8328695f-c1b4-4a5d-b9f5-b947fa6f90a1","system_id":"levelo_inurba_marseille","lat":43.31311,"lon":5.3973,"is_reserved":false,"is_disabled":false,"rental_uris":{"android":"levelo://app?vid=8328695f-c1b4-4a5d-b9f5-b947fa6f90a1","ios":"levelo://app?vid=8328695f-c1b4-4a5d-b9f5-b947fa6f90a1"},"vehicle_type_id":"4","last_reported":1784783705,"current_range_meters":30800,"station_id":"ce4bgvp2rcd13ifvqcu0","pricing_plan_id":"cebpf4jnsgd1na2vs0mg"},{"bike_id":"8094c541-617a-4d8d-a8a0-d0bafcd084c1","system_id":"levelo_inurba_marseille","lat":43.27812,"lon":5.40697,"is_reserved":false,"is_disabled":false,"rental_uris":{"android":"levelo://app?vid=8094c541-617a-4d8d-a8a0-d0bafcd084c1","ios":"levelo://app?vid=8094c541-617a-4d8d-a8a0-d0bafcd084c1"},"vehicle_type_id":"4","last_reported":1784783705,"current_range_meters":38800,"station_id":"ce4bhnh2rcd13ifvqgtg","pricing_plan_id":"cebpf4jnsgd1na2vs0mg"},{"bike_id":"01d9a676-01f3-4b98-beb9-e0a1a490c722","system_id":"levelo_inurba_marseille","lat":43.28145,"lon":5.42626,"is_reserved":false,"is_disabled":false,"rental_uris":{"android":"levelo://app?vid=01d9a676-01f3-4b98-beb9-e0a1a490c722","ios":"levelo://app?vid=01d9a676-01f3-4b98-beb9-e0a1a490c722"},"vehicle_type_id":"4","last_reported":1784783705,"current_range_meters":26800,"station_id":"ce4bhnh2rcd13ifvqgug","pricing_plan_id":"cebpf4jnsgd1na2vs0mg"},{"bike_id":"f765bc46-853b-4f5f-a0cf-13f9a2c85881","system_id":"levelo_inurba_marseille","lat":43.32109,"lon":5.36788,"is_reserved":false,"is_disabled":false,"rental_uris":{"android":"levelo://app?vid=f765bc46-853b-4f5f-a0cf-13f9a2c85881","ios":"levelo://app?vid=f765bc46-853b-4f5f-a0cf-13f9a2c85881"},"vehicle_type_id":"4","last_reported":1784783705,"current_range_meters":30400,"station_id":"ce4bhrh2rcd13ifvqhug","pricing_plan_id":"cebpf4jnsgd1na2vs0mg"},{"bike_id":"5baea5e5-a44e-4902-854b-e25f3b33b7fd","system_id":"levelo_inurba_marseille","lat":43.29623,"lon":5.40613,"is_reserved":false,"is_disabled":false,"rental_uris":{"android":"levelo://app?vid=5baea5e5-a44e-4902-854b-e25f3b33b7fd","ios":"levelo://app?vid=5baea5e5-a44e-4902-854b-e25f3b33b7fd"},"vehicle_type_id":"4","last_reported":1784783705,"current_range_meters":38000,"station_id":"ce4bh0h2rcd13ifvqd60","pricing_plan_id":"cebpf4jnsgd1na2vs0mg"},{"bike_id":"c469d1f0-e1f3-4009-933d-1f7d58ff00a5","system_id":"levelo_inurba_marseille","lat":43.25857,"lon":5.39891,"is_reserved":false,"is_disabled":false,"rental_uris":{"android":"levelo://app?vid=c469d1f0-e1f3-4009-933d-1f7d58ff00a5","ios":"levelo://app?vid=c469d1f0-e1f3-4009-933d-1f7d58ff00a5"},"vehicle_type_id":"4","last_reported":1784783705,"current_range_meters":24800,"station_id":"ce4bhl92rcd13ifvqghg","pricing_plan_id":"cebpf4jnsgd1na2vs0mg"},{"bike_id":"cf018048-2387-49ea-bf45-48ad047fb488","system_id":"levelo_inurba_marseille","lat":43.28917,"lon":5.38353,"is_reserved":false,"is_disabled":false,"rental_uris":{"android":"levelo://app?vid=cf018048-2387-49ea-bf45-48ad047fb488","ios":"levelo://app?vid=cf018048-2387-49ea-bf45-48ad047fb488"},"vehicle_type_id":"4","last_reported":1784783705,"current_range_meters":19600,"station_id":"ce4bh612rcd13ifvqe6g","pricing_plan_id":"cebpf4jnsgd1na2vs0mg"},{"bike_id":"a13e16e4-e177-431d-8bef-33b38f696e96","system_id":"levelo_inurba_marseille","lat":43.26759,"lon":5.3998,"is_reserved":false,"is_disabled":false,"rental_uris":{"android":"levelo://app?vid=a13e16e4-e177-431d-8bef-33b38f696e96","ios":"levelo://app?vid=a13e16e4-e177-431d-8bef-33b38f696e96"},"vehicle_type_id":"4","last_reported":1784783705,"current_range_meters":22800,"station_id":"","pricing_plan_id":"cebpf4jnsgd1na2vs0mg"},{"bike_id":"2d7109ad-46e8-47c3-91fe-8fafb72b67c5","system_id":"levelo_inurba_marseille","lat":43.31891,"lon":5.36808,"is_reserved":false,"is_disabled":false,"rental_uris":{"android":"levelo://app?vid=2d7109ad-46e8-47c3-91fe-8fafb72b67c5","ios":"levelo://app?vid=2d7109ad-46e8-47c3-91fe-8fafb72b67c5"},"vehicle_type_id":"4","last_reported":1784783705,"current_range_meters":4800,"station_id":"st_d6o2h0d0559c73evc1b0","pricing_plan_id":"cebpf4jnsgd1na2vs0mg"},{"bike_id":"3281dc6c-da59-4ffa-a4e6-15741ec6bf20","system_id":"levelo_inurba_marseille","lat":43.27803,"lon":5.4071,"is_reserved":false,"is_disabled":false,"rental_uris":{"android":"levelo://app?vid=3281dc6c-da59-4ffa-a4e6-15741ec6bf20","ios":"levelo://app?vid=3281dc6c-da59-4ffa-a4e6-15741ec6bf20"},"vehicle_type_id":"4","last_reported":1784783705,"current_range_meters":24800,"station_id":"ce4bhnh2rcd13ifvqgtg","pricing_plan_id":"cebpf4jnsgd1na2vs0mg"},{"bike_id":"de84f93e-2efe-44dd-902e-99315be80f66","system_id":"levelo_inurba_marseille","lat":43.24156,"lon":5.36373,"is_reserved":false,"is_disabled":false,"rental_uris":{"android":"levelo://app?vid=de84f93e-2efe-44dd-902e-99315be80f66","ios":"levelo://app?vid=de84f93e-2efe-44dd-902e-99315be80f66"},"vehicle_type_id":"4","last_reported":1784783705,"current_range_meters":34800,"station_id":"cpo36qri1sfpv3e86is0","pricing_plan_id":"cebpf4jnsgd1na2vs0mg"},{"bike_id":"c195be82-ed1a-40b2-9e45-ad51084a7f51","system_id":"levelo_inurba_marseille","lat":43.30095,"lon":5.39078,"is_reserved":false,"is_disabled":false,"rental_uris":{"android":"levelo://app?vid=c195be82-ed1a-40b2-9e45-ad51084a7f51","ios":"levelo://app?vid=c195be82-ed1a-40b2-9e45-ad51084a7f51"},"vehicle_type_id":"4","last_reported":1784783705,"current_range_meters":20800,"station_id":"ce4bh192rcd13ifvqdb0","pricing_plan_id":"cebpf4jnsgd1na2vs0mg"},{"bike_id":"9204c48f-8df7-43a3-b478-da259247ecd0","system_id":"levelo_inurba_marseille","lat":43.32482,"lon":5.36566,"is_reserved":false,"is_disabled":false,"rental_uris":{"android":"levelo://app?vid=9204c48f-8df7-43a3-b478-da259247ecd0","ios":"levelo://app?vid=9204c48f-8df7-43a3-b478-da259247ecd0"},"vehicle_type_id":"4","last_reported":1784783705,"current_range_meters":38800,"station_id":"ce4bhs12rcd13ifvqhvg","pricing_plan_id":"cebpf4jnsgd1na2vs0mg"},{"bike_id":"6a04307a-b5c3-41e0-ba26-168c5d2d0e9b","system_id":"levelo_inurba_marseille","lat":43.30577,"lon":5.39289,"is_reserved":false,"is_disabled":false,"rental_uris":{"android":"levelo://app?vid=6a04307a-b5c3-41e0-ba26-168c5d2d0e9b","ios":"levelo://app?vid=6a04307a-b5c3-41e0-ba26-168c5d2d0e9b"},"vehicle_type_id":"4","last_reported":1784783705,"current_range_meters":38800,"station_id":"","pricing_plan_id":"cebpf4jnsgd1na2vs0mg"},{"bike_id":"0a3a6ebb-bddd-43e8-b9e0-b190e5fcbe3f","system_id":"levelo_inurba_marseille","lat":43.30977,"lon":5.39047,"is_reserved":false,"is_disabled":false,"rental_uris":{"android":"levelo://app?vid=0a3a6ebb-bddd-43e8-b9e0-b190e5fcbe3f","ios":"levelo://app?vid=0a3a6ebb-bddd-43e8-b9e0-b190e5fcbe3f"},"vehicle_type_id":"4","last_reported":1784783705,"current_range_meters":33200,"station_id":"ce4bgup2rcd13ifvqco0","pricing_plan_id":"cebpf4jnsgd1na2vs0mg"},{"bike_id":"99604d38-de97-4000-a3ab-392a3ec7474d","system_id":"levelo_inurba_marseille","lat":43.29568,"lon":5.39992,"is_reserved":false,"is_disabled":false,"rental_uris":{"android":"levelo://app?vid=99604d38-de97-4000-a3ab-392a3ec7474d","ios":"levelo://app?vid=99604d38-de97-4000-a3ab-392a3ec7474d"},"vehicle_type_id":"4","last_reported":1784783705,"current_range_meters":22800,"station_id":"ce4bh312rcd13ifvqdj0","pricing_plan_id":"cebpf4jnsgd1na2vs0mg"},{"bike_id":"6e1c807d-7ad9-454b-9842-cad0e1f907e4","system_id":"levelo_inurba_marseille","lat":43.25514,"lon":5.37665,"is_reserved":false,"is_disabled":true,"rental_uris":{"android":"levelo://app?vid=6e1c807d-7ad9-454b-9842-cad0e1f907e4","ios":"levelo://app?vid=6e1c807d-7ad9-454b-9842-cad0e1f907e4"},"vehicle_type_id":"4","last_reported":1784783705,"current_range_meters":12800,"station_id":"ce4bhh12rcd13ifvqff0","pricing_plan_id":"cebpf4jnsgd1na2vs0mg"},{"bike_id":"06a47a70-c4aa-4b09-8775-c059e958d2f4","system_id":"levelo_inurba_marseille","lat":43.28421,"lon":5.37535,"is_reserved":false,"is_disabled":false,"rental_uris":{"android":"levelo://app?vid=06a47a70-c4aa-4b09-8775-c059e958d2f4","ios":"levelo://app?vid=06a47a70-c4aa-4b09-8775-c059e958d2f4"},"vehicle_type_id":"4","last_reported":1784783705,"current_range_meters":24000,"station_id":"ce4bh412rcd13ifvqds0","pricing_plan_id":"cebpf4jnsgd1na2vs0mg"},{"bike_id":"6daf8dce-1c8e-49a4-b414-27acd96e8ad1","system_id":"levelo_inurba_marseille","lat":43.28488,"lon":5.38572,"is_reserved":false,"is_disabled":false,"rental_uris":{"android":"levelo://app?vid=6daf8dce-1c8e-49a4-b414-27acd96e8ad1","ios":"levelo://app?vid=6daf8dce-1c8e-49a4-b414-27acd96e8ad1"},"vehicle_type_id":"4","last_reported":1784783705,"current_range_meters":36800,"station_id":"ce4bh8p2rcd13ifvqeb0","pricing_plan_id":"cebpf4jnsgd1na2vs0mg"},{"bike_id":"842555fb-5f78-4a31-b26a-f6a6fbd294cf","system_id":"levelo_inurba_marseille","lat":43.29932,"lon":5.37475,"is_reserved":false,"is_disabled":false,"rental_uris":{"android":"levelo://app?vid=842555fb-5f78-4a31-b26a-f6a6fbd294cf","ios":"levelo://app?vid=842555fb-5f78-4a31-b26a-f6a6fbd294cf"},"vehicle_type_id":"4","last_reported":1784783705,"current_range_meters":19600,"station_id":"ce4bgjh2rcd13ifvqbg0","pricing_plan_id":"cebpf4jnsgd1na2vs0mg"},{"bike_id":"48436673-e795-4095-9f2d-b89504a4a8bc","system_id":"levelo_inurba_marseille","lat":43.30822,"lon":5.38128,"is_reserved":false,"is_disabled":false,"rental_uris":{"android":"levelo://app?vid=48436673-e795-4095-9f2d-b89504a4a8bc","ios":"levelo://app?vid=48436673-e795-4095-9f2d-b89504a4a8bc"},"vehicle_type_id":"4","last_reported":1784783705,"current_range_meters":21600,"station_id":"ce4bgt12rcd13ifvqce0","pricing_plan_id":"cebpf4jnsgd1na2vs0mg"},{"bike_id":"1ffd6e8d-c4af-44c4-b5ee-8153d663260f","system_id":"levelo_inurba_marseille","lat":43.29219,"lon":5.393,"is_reserved":false,"is_disabled":true,"rental_uris":{"android":"levelo://app?vid=1ffd6e8d-c4af-44c4-b5ee-8153d663260f","ios":"levelo://app?vid=1ffd6e8d-c4af-44c4-b5ee-8153d663260f"},"vehicle_type_id":"4","last_reported":1784783705,"current_range_meters":20400,"station_id":"ce4bh192rcd13ifvqdd0","pricing_plan_id":"cebpf4jnsgd1na2vs0mg"},{"bike_id":"65b58bcf-4346-49dc-8a22-60f4aed99d77","system_id":"levelo_inurba_marseille","lat":43.24179,"lon":5.3637,"is_reserved":false,"is_disabled":false,"rental_uris":{"android":"levelo://app?vid=65b58bcf-4346-49dc-8a22-60f4aed99d77","ios":"levelo://app?vid=65b58bcf-4346-49dc-8a22-60f4aed99d77"},"vehicle_type_id":"4","last_reported":1784783705,"current_range_meters":6800,"station_id":"cpo36qri1sfpv3e86is0","pricing_plan_id":"cebpf4jnsgd1na2vs0mg"},{"bike_id":"f27125b7-9dc2-4097-85ab-bda6151e3a81","system_id":"levelo_inurba_marseille","lat":43.30319,"lon":5.40452,"is_reserved":false,"is_disabled":false,"rental_uris":{"android":"levelo://app?vid=f27125b7-9dc2-4097-85ab-bda6151e3a81","ios":"levelo://app?vid=f27125b7-9dc2-4097-85ab-bda6151e3a81"},"vehicle_type_id":"4","last_reported":1784783705,"current_range_meters":38400,"station_id":"ce4bh012rcd13ifvqd10","pricing_plan_id":"cebpf4jnsgd1na2vs0mg"},{"bike_id":"e3e78347-ef60-4ab2-ba18-b94c585c9f77","system_id":"levelo_inurba_marseille","lat":43.30907,"lon":5.39641,"is_reserved":false,"is_disabled":false,"rental_uris":{"android":"levelo://app?vid=e3e78347-ef60-4ab2-ba18-b94c585c9f77","ios":"levelo://app?vid=e3e78347-ef60-4ab2-ba18-b94c585c9f77"},"vehicle_type_id":"4","last_reported":1784783705,"current_range_meters":8400,"station_id":"ce4bh012rcd13ifvqcv0","pricing_plan_id":"cebpf4jnsgd1na2vs0mg"},{"bike_id":"856c1d79-33bf-4dc6-a3ad-e8a03c6a267d","system_id":"levelo_inurba_marseille","lat":43.29044,"lon":5.37553,"is_reserved":false,"is_disabled":true,"rental_uris":{"android":"levelo://app?vid=856c1d79-33bf-4dc6-a3ad-e8a03c6a267d","ios":"levelo://app?vid=856c1d79-33bf-4dc6-a3ad-e8a03c6a267d"},"vehicle_type_id":"4","last_reported":1784783705,"current_range_meters":32000,"station_id":"ce4bh692rcd13ifvqe90","pricing_plan_id":"cebpf4jnsgd1na2vs0mg"},{"bike_id":"1f258f1a-090f-4fc9-aa0c-dfcc2e237f21","system_id":"levelo_inurba_marseille","lat":43.28693,"lon":5.38666,"is_reserved":false,"is_disabled":false,"rental_uris":{"android":"levelo://app?vid=1f258f1a-090f-4fc9-aa0c-dfcc2e237f21","ios":"levelo://app?vid=1f258f1a-090f-4fc9-aa0c-dfcc2e237f21"},"vehicle_type_id":"4","last_reported":1784783705,"current_range_meters":38000,"station_id":"ce4bh492rcd13ifvqdug","pricing_plan_id":"cebpf4jnsgd1na2vs0mg"},{"bike_id":"2bbb3aeb-b508-42f7-910e-0c84ff3ada82","system_id":"levelo_inurba_marseille","lat":43.31235,"lon":5.39045,"is_reserved":false,"is_disabled":false,"rental_uris":{"android":"levelo://app?vid=2bbb3aeb-b508-42f7-910e-0c84ff3ada82","ios":"levelo://app?vid=2bbb3aeb-b508-42f7-910e-0c84ff3ada82"},"vehicle_type_id":"4","last_reported":1784783705,"current_range_meters":10800,"station_id":"","pricing_plan_id":"cebpf4jnsgd1na2vs0mg"},{"bike_id":"c96f6969-8a16-4c7f-b06e-c3d079436fcb","system_id":"levelo_inurba_marseille","lat":43.29573,"lon":5.3999,"is_reserved":false,"is_disabled":false,"rental_uris":{"android":"levelo://app?vid=c96f6969-8a16-4c7f-b06e-c3d079436fcb","ios":"levelo://app?vid=c96f6969-8a16-4c7f-b06e-c3d079436fcb"},"vehicle_type_id":"4","last_reported":1784783705,"current_range_meters":15200,"station_id":"ce4bh312rcd13ifvqdj0","pricing_plan_id":"cebpf4jnsgd1na2vs0mg"},{"bike_id":"51953514-288c-49c3-a274-a3d5664450ee","system_id":"levelo_inurba_marseille","lat":43.30136,"lon":5.39878,"is_reserved":false,"is_disabled":false,"rental_uris":{"android":"levelo://app?vid=51953514-288c-49c3-a274-a3d5664450ee","ios":"levelo://app?vid=51953514-288c-49c3-a274-a3d5664450ee"},"vehicle_type_id":"4","last_reported":1784783705,"current_range_meters":36800,"station_id":"ce4bh0h2rcd13ifvqd40","pricing_plan_id":"cebpf4jnsgd1na2vs0mg"},{"bike_id":"f1288106-a8c3-4624-ad2a-44299213b3e2","system_id":"levelo_inurba_marseille","lat":43.2958,"lon":5.36775,"is_reserved":false,"is_disabled":true,"rental_uris":{"android":"levelo://app?vid=f1288106-a8c3-4624-ad2a-44299213b3e2","ios":"levelo://app?vid=f1288106-a8c3-4624-ad2a-44299213b3e2"},"vehicle_type_id":"4","last_reported":1784783705,"current_range_meters":39200,"station_id":"","pricing_plan_id":"cebpf4jnsgd1na2vs0mg"},{"bike_id":"c0486753-d975-43ea-b6d4-1d6219ec8830","system_id":"levelo_inurba_marseille","lat":43.29251,"lon":5.36688,"is_reserved":false,"is_disabled":false,"rental_uris":{"android":"levelo://app?vid=c0486753-d975-43ea-b6d4-1d6219ec8830","ios":"levelo://app?vid=c0486753-d975-43ea-b6d4-1d6219ec8830"},"vehicle_type_id":"4","last_reported":1784783705,"current_range_meters":23200,"station_id":"","pricing_plan_id":"cebpf4jnsgd1na2vs0mg"},{"bike_id":"ab907c16-2123-44c2-912f-95e0f2737c03","system_id":"levelo_inurba_marseille","lat":43.30398,"lon":5.42735,"is_reserved":false,"is_disabled":true,"rental_uris":{"android":"levelo://app?vid=ab907c16-2123-44c2-912f-95e0f2737c03","ios":"levelo://app?vid=ab907c16-2123-44c2-912f-95e0f2737c03"},"vehicle_type_id":"4","last_reported":1784783705,"current_range_meters":21600,"station_id":"","pricing_plan_id":"cebpf4jnsgd1na2vs0mg"},{"bike_id":"7ea947c2-6348-4b4e-960a-27b32eb29d3b","system_id":"levelo_inurba_marseille","lat":43.27994,"lon":5.38696,"is_reserved":false,"is_disabled":false,"rental_uris":{"android":"levelo://app?vid=7ea947c2-6348-4b4e-960a-27b32eb29d3b","ios":"levelo://app?vid=7ea947c2-6348-4b4e-960a-27b32eb29d3b"},"vehicle_type_id":"4","last_reported":1784783705,"current_range_meters":16800,"station_id":"ce4bhg12rcd13ifvqf80","pricing_plan_id":"cebpf4jnsgd1na2vs0mg"},{"bike_id":"1fb2f5a3-8d7e-4823-bf6a-5fef2cc785f8","system_id":"levelo_inurba_marseille","lat":43.31764,"lon":5.39021,"is_reserved":false,"is_disabled":false,"rental_uris":{"android":"levelo://app?vid=1fb2f5a3-8d7e-4823-bf6a-5fef2cc785f8","ios":"levelo://app?vid=1fb2f5a3-8d7e-4823-bf6a-5fef2cc785f8"},"vehicle_type_id":"4","last_reported":1784783705,"current_range_meters":38800,"station_id":"ce4bhqp2rcd13ifvqhng","pricing_plan_id":"cebpf4jnsgd1na2vs0mg"},{"bike_id":"f406c5f6-30b6-43c5-abf7-66cf71b16ff0","system_id":"levelo_inurba_marseille","lat":43.30313,"lon":5.40448,"is_reserved":false,"is_disabled":false,"rental_uris":{"android":"levelo://app?vid=f406c5f6-30b6-43c5-abf7-66cf71b16ff0","ios":"levelo://app?vid=f406c5f6-30b6-43c5-abf7-66cf71b16ff0"},"vehicle_type_id":"4","last_reported":1784783705,"current_range_meters":16400,"station_id":"ce4bh012rcd13ifvqd10","pricing_plan_id":"cebpf4jnsgd1na2vs0mg"},{"bike_id":"a68600bb-7cb8-446a-8af2-4628e3a05293","system_id":"levelo_inurba_marseille","lat":43.31044,"lon":5.37191,"is_reserved":false,"is_disabled":false,"rental_uris":{"android":"levelo://app?vid=a68600bb-7cb8-446a-8af2-4628e3a05293","ios":"levelo://app?vid=a68600bb-7cb8-446a-8af2-4628e3a05293"},"vehicle_type_id":"4","last_reported":1784783705,"current_range_meters":6800,"station_id":"st_d4kl2rp97mjs73e7tdfg","pricing_plan_id":"cebpf4jnsgd1na2vs0mg"},{"bike_id":"5a26a324-7be6-4998-86e5-eebbf8b2c06f","system_id":"levelo_inurba_marseille","lat":43.25307,"lon":5.40887,"is_reserved":false,"is_disabled":false,"rental_uris":{"android":"levelo://app?vid=5a26a324-7be6-4998-86e5-eebbf8b2c06f","ios":"levelo://app?vid=5a26a324-7be6-4998-86e5-eebbf8b2c06f"},"vehicle_type_id":"4","last_reported":1784783705,"current_range_meters":27600,"station_id":"","pricing_plan_id":"cebpf4jnsgd1na2vs0mg"},{"bike_id":"c520161e-c250-4161-a55a-6b287776d8da","system_id":"levelo_inurba_marseille","lat":43.28478,"lon":5.48378,"is_reserved":false,"is_disabled":false,"rental_uris":{"android":"levelo://app?vid=c520161e-c250-4161-a55a-6b287776d8da","ios":"levelo://app?vid=c520161e-c250-4161-a55a-6b287776d8da"},"vehicle_type_id":"4","last_reported":1784783705,"current_range_meters":26000,"station_id":"st_d3svhcjqgbts73a3dn0g","pricing_plan_id":"cebpf4jnsgd1na2vs0mg"},{"bike_id":"1be16c68-4af1-419d-93d4-773b2af07f2a","system_id":"levelo_inurba_marseille","lat":43.28535,"lon":5.44108,"is_reserved":false,"is_disabled":false,"rental_uris":{"android":"levelo://app?vid=1be16c68-4af1-419d-93d4-773b2af07f2a","ios":"levelo://app?vid=1be16c68-4af1-419d-93d4-773b2af07f2a"},"vehicle_type_id":"4","last_reported":1784783705,"current_range_meters":35600,"station_id":"st_d3j3df2ikq2c7380ej80","pricing_plan_id":"cebpf4jnsgd1na2vs0mg"},{"bike_id":"e2558628-b96f-40d0-8841-b8d4f846138e","system_id":"levelo_inurba_marseille","lat":43.25117,"lon":5.40323,"is_reserved":false,"is_disabled":false,"rental_uris":{"android":"levelo://app?vid=e2558628-b96f-40d0-8841-b8d4f846138e","ios":"levelo://app?vid=e2558628-b96f-40d0-8841-b8d4f846138e"},"vehicle_type_id":"4","last_reported":1784783705,"current_range_meters":40000,"station_id":"ce4bhlh2rcd13ifvqgig","pricing_plan_id":"cebpf4jnsgd1na2vs0mg"},{"bike_id":"3d015542-b60d-439c-a105-f5b0e4bf8bc5","system_id":"levelo_inurba_marseille","lat":43.30109,"lon":5.39048,"is_reserved":false,"is_disabled":false,"rental_uris":{"android":"levelo://app?vid=3d015542-b60d-439c-a105-f5b0e4bf8bc5","ios":"levelo://app?vid=3d015542-b60d-439c-a105-f5b0e4bf8bc5"},"vehicle_type_id":"4","last_reported":1784783705,"current_range_meters":28400,"station_id":"ce4bh192rcd13ifvqdb0","pricing_plan_id":"cebpf4jnsgd1na2vs0mg"},{"bike_id":"a1e828c3-6760-4055-974a-b1f13b37ac0b","system_id":"levelo_inurba_marseille","lat":43.31478,"lon":5.37292,"is_reserved":false,"is_disabled":false,"rental_uris":{"android":"levelo://app?vid=a1e828c3-6760-4055-974a-b1f13b37ac0b","ios":"levelo://app?vid=a1e828c3-6760-4055-974a-b1f13b37ac0b"},"vehicle_type_id":"4","last_reported":1784783705,"current_range_meters":38400,"station_id":"ce4bgt12rcd13ifvqcd0","pricing_plan_id":"cebpf4jnsgd1na2vs0mg"},{"bike_id":"86b68a25-cf05-4d9d-a1fc-14ed7f4082b4","system_id":"levelo_inurba_marseille","lat":43.284,"lon":5.37519,"is_reserved":false,"is_disabled":false,"rental_uris":{"android":"levelo://app?vid=86b68a25-cf05-4d9d-a1fc-14ed7f4082b4","ios":"levelo://app?vid=86b68a25-cf05-4d9d-a1fc-14ed7f4082b4"},"vehicle_type_id":"4","last_reported":1784783705,"current_range_meters":19600,"station_id":"ce4bh412rcd13ifvqds0","pricing_plan_id":"cebpf4jnsgd1na2vs0mg"},{"bike_id":"804dc358-9357-46bb-92e7-a688fb04e878","system_id":"levelo_inurba_marseille","lat":43.30811,"lon":5.3819,"is_reserved":false,"is_disabled":false,"rental_uris":{"android":"levelo://app?vid=804dc358-9357-46bb-92e7-a688fb04e878","ios":"levelo://app?vid=804dc358-9357-46bb-92e7-a688fb04e878"},"vehicle_type_id":"4","last_reported":1784783705,"current_range_meters":16400,"station_id":"ce4bgt12rcd13ifvqce0","pricing_plan_id":"cebpf4jnsgd1na2vs0mg"},{"bike_id":"8ec6c6c2-6636-4cd7-905f-5feb25c5f93e","system_id":"levelo_inurba_marseille","lat":43.29019,"lon":5.37254,"is_reserved":false,"is_disabled":false,"rental_uris":{"android":"levelo://app?vid=8ec6c6c2-6636-4cd7-905f-5feb25c5f93e","ios":"levelo://app?vid=8ec6c6c2-6636-4cd7-905f-5feb25c5f93e"},"vehicle_type_id":"4","last_reported":1784783705,"current_range_meters":14800,"station_id":"","pricing_plan_id":"cebpf4jnsgd1na2vs0mg"},{"bike_id":"0cc05ef7-e857-48fa-be3b-4e0652ce5892","system_id":"levelo_inurba_marseille","lat":43.29198,"lon":5.37162,"is_reserved":false,"is_disabled":false,"rental_uris":{"android":"levelo://app?vid=0cc05ef7-e857-48fa-be3b-4e0652ce5892","ios":"levelo://app?vid=0cc05ef7-e857-48fa-be3b-4e0652ce5892"},"vehicle_type_id":"4","last_reported":1784783705,"current_range_meters":24000,"station_id":"ce4bha92rcd13ifvqeh0","pricing_plan_id":"cebpf4jnsgd1na2vs0mg"},{"bike_id":"42a5b23f-1a82-45a9-bd86-92d7c7cf5e53","system_id":"levelo_inurba_marseille","lat":43.30376,"lon":5.39533,"is_reserved":false,"is_disabled":false,"rental_uris":{"android":"levelo://app?vid=42a5b23f-1a82-45a9-bd86-92d7c7cf5e53","ios":"levelo://app?vid=42a5b23f-1a82-45a9-bd86-92d7c7cf5e53"},"vehicle_type_id":"4","last_reported":1784783705,"current_range_meters":27200,"station_id":"","pricing_plan_id":"cebpf4jnsgd1na2vs0mg"},{"bike_id":"4d240a4b-703d-45dd-ac2e-ecd9c3e60772","system_id":"levelo_inurba_marseille","lat":43.31325,"lon":5.39697,"is_reserved":false,"is_disabled":false,"rental_uris":{"android":"levelo://app?vid=4d240a4b-703d-45dd-ac2e-ecd9c3e60772","ios":"levelo://app?vid=4d240a4b-703d-45dd-ac2e-ecd9c3e60772"},"vehicle_type_id":"4","last_reported":1784783705,"current_range_meters":39200,"station_id":"ce4bgvp2rcd13ifvqcu0","pricing_plan_id":"cebpf4jnsgd1na2vs0mg"},{"bike_id":"c31ea38b-cee9-41a1-93fb-85dd217b0cbd","system_id":"levelo_inurba_marseille","lat":43.3374,"lon":5.367,"is_reserved":false,"is_disabled":false,"rental_uris":{"android":"levelo://app?vid=c31ea38b-cee9-41a1-93fb-85dd217b0cbd","ios":"levelo://app?vid=c31ea38b-cee9-41a1-93fb-85dd217b0cbd"},"vehicle_type_id":"4","last_reported":1784783705,"current_range_meters":28800,"station_id":"","pricing_plan_id":"cebpf4jnsgd1na2vs0mg"},{"bike_id":"0353fca3-fbdd-4286-a9eb-ebce376c25fa","system_id":"levelo_inurba_marseille","lat":43.23378,"lon":5.41248,"is_reserved":false,"is_disabled":false,"rental_uris":{"android":"levelo://app?vid=0353fca3-fbdd-4286-a9eb-ebce376c25fa","ios":"levelo://app?vid=0353fca3-fbdd-4286-a9eb-ebce376c25fa"},"vehicle_type_id":"4","last_reported":1784783705,"current_range_meters":37600,"station_id":"st_d75pvndhf9lc73cqq3eg","pricing_plan_id":"cebpf4jnsgd1na2vs0mg"},{"bike_id":"b8e43a89-3bb1-4279-9cee-f7b093c9b703","system_id":"levelo_inurba_marseille","lat":43.33718,"lon":5.37415,"is_reserved":false,"is_disabled":false,"rental_uris":{"android":"levelo://app?vid=b8e43a89-3bb1-4279-9cee-f7b093c9b703","ios":"levelo://app?vid=b8e43a89-3bb1-4279-9cee-f7b093c9b703"},"vehicle_type_id":"4","last_reported":1784783705,"current_range_meters":12000,"station_id":"","pricing_plan_id":"cebpf4jnsgd1na2vs0mg"},{"bike_id":"a061221c-7b6d-41be-a72e-a2fa8d416b64","system_id":"levelo_inurba_marseille","lat":43.28341,"lon":5.38114,"is_reserved":false,"is_disabled":false,"rental_uris":{"android":"levelo://app?vid=a061221c-7b6d-41be-a72e-a2fa8d416b64","ios":"levelo://app?vid=a061221c-7b6d-41be-a72e-a2fa8d416b64"},"vehicle_type_id":"4","last_reported":1784783705,"current_range_meters":4800,"station_id":"ce4bh412rcd13ifvqdr0","pricing_plan_id":"cebpf4jnsgd1na2vs0mg"},{"bike_id":"17ec69e9-f82e-42b7-8fd3-de92d2bea59d","system_id":"levelo_inurba_marseille","lat":43.25351,"lon":5.42172,"is_reserved":false,"is_disabled":false,"rental_uris":{"android":"levelo://app?vid=17ec69e9-f82e-42b7-8fd3-de92d2bea59d","ios":"levelo://app?vid=17ec69e9-f82e-42b7-8fd3-de92d2bea59d"},"vehicle_type_id":"4","last_reported":1784783705,"current_range_meters":20800,"station_id":"st_d2m65c5bi1j21697t3ng","pricing_plan_id":"cebpf4jnsgd1na2vs0mg"},{"bike_id":"59468bfc-ad13-45bf-843a-87fb8a83c143","system_id":"levelo_inurba_marseille","lat":43.29256,"lon":5.4014,"is_reserved":false,"is_disabled":false,"rental_uris":{"android":"levelo://app?vid=59468bfc-ad13-45bf-843a-87fb8a83c143","ios":"levelo://app?vid=59468bfc-ad13-45bf-843a-87fb8a83c143"},"vehicle_type_id":"4","last_reported":1784783705,"current_range_meters":36800,"station_id":"ce4bh312rcd13ifvqdk0","pricing_plan_id":"cebpf4jnsgd1na2vs0mg"},{"bike_id":"739108af-8429-4447-ab2d-80202f08a5fe","system_id":"levelo_inurba_marseille","lat":43.25882,"lon":5.39887,"is_reserved":false,"is_disabled":false,"rental_uris":{"android":"levelo://app?vid=739108af-8429-4447-ab2d-80202f08a5fe","ios":"levelo://app?vid=739108af-8429-4447-ab2d-80202f08a5fe"},"vehicle_type_id":"4","last_reported":1784783705,"current_range_meters":38000,"station_id":"ce4bhl92rcd13ifvqghg","pricing_plan_id":"cebpf4jnsgd1na2vs0mg"},{"bike_id":"5783761d-f3a8-46b4-8c26-9812d8d66703","system_id":"levelo_inurba_marseille","lat":43.22535,"lon":5.34809,"is_reserved":false,"is_disabled":false,"rental_uris":{"android":"levelo://app?vid=5783761d-f3a8-46b4-8c26-9812d8d66703","ios":"levelo://app?vid=5783761d-f3a8-46b4-8c26-9812d8d66703"},"vehicle_type_id":"4","last_reported":1784783705,"current_range_meters":20400,"station_id":"st_cvj5dfep6f1abm77gieg","pricing_plan_id":"cebpf4jnsgd1na2vs0mg"},{"bike_id":"3f403486-e585-44eb-9187-7d69588b4e24","system_id":"levelo_inurba_marseille","lat":43.30415,"lon":5.3975,"is_reserved":false,"is_disabled":false,"rental_uris":{"android":"levelo://app?vid=3f403486-e585-44eb-9187-7d69588b4e24","ios":"levelo://app?vid=3f403486-e585-44eb-9187-7d69588b4e24"},"vehicle_type_id":"4","last_reported":1784783705,"current_range_meters":38400,"station_id":"ce4bh092rcd13ifvqd20","pricing_plan_id":"cebpf4jnsgd1na2vs0mg"},{"bike_id":"8775496e-66bc-4ada-9928-7ea0663d9e78","system_id":"levelo_inurba_marseille","lat":43.29523,"lon":5.39414,"is_reserved":false,"is_disabled":false,"rental_uris":{"android":"levelo://app?vid=8775496e-66bc-4ada-9928-7ea0663d9e78","ios":"levelo://app?vid=8775496e-66bc-4ada-9928-7ea0663d9e78"},"vehicle_type_id":"4","last_reported":1784783705,"current_range_meters":20400,"station_id":"ce4bh292rcd13ifvqdf0","pricing_plan_id":"cebpf4jnsgd1na2vs0mg"},{"bike_id":"f0a1a0d3-0054-42f6-aa84-f435a5a6f363","system_id":"levelo_inurba_marseille","lat":43.30421,"lon":5.39739,"is_reserved":false,"is_disabled":false,"rental_uris":{"android":"levelo://app?vid=f0a1a0d3-0054-42f6-aa84-f435a5a6f363","ios":"levelo://app?vid=f0a1a0d3-0054-42f6-aa84-f435a5a6f363"},"vehicle_type_id":"4","last_reported":1784783705,"current_range_meters":7200,"station_id":"ce4bh092rcd13ifvqd20","pricing_plan_id":"cebpf4jnsgd1na2vs0mg"},{"bike_id":"50c1557f-6309-4792-a715-9cef22a055da","system_id":"levelo_inurba_marseille","lat":43.34146,"lon":5.4089,"is_reserved":false,"is_disabled":false,"rental_uris":{"android":"levelo://app?vid=50c1557f-6309-4792-a715-9cef22a055da","ios":"levelo://app?vid=50c1557f-6309-4792-a715-9cef22a055da"},"vehicle_type_id":"4","last_reported":1784783705,"current_range_meters":8400,"station_id":"ce4bhqh2rcd13ifvqhlg","pricing_plan_id":"cebpf4jnsgd1na2vs0mg"},{"bike_id":"13bbfe3b-874b-44d7-9abb-922c8de23c11","system_id":"levelo_inurba_marseille","lat":43.23258,"lon":5.35414,"is_reserved":false,"is_disabled":false,"rental_uris":{"android":"levelo://app?vid=13bbfe3b-874b-44d7-9abb-922c8de23c11","ios":"levelo://app?vid=13bbfe3b-874b-44d7-9abb-922c8de23c11"},"vehicle_type_id":"4","last_reported":1784783705,"current_range_meters":19600,"station_id":"","pricing_plan_id":"cebpf4jnsgd1na2vs0mg"},{"bike_id":"a29fc34b-47f0-4e6c-a49d-ad840f4184cd","system_id":"levelo_inurba_marseille","lat":43.33159,"lon":5.37671,"is_reserved":false,"is_disabled":false,"rental_uris":{"android":"levelo://app?vid=a29fc34b-47f0-4e6c-a49d-ad840f4184cd","ios":"levelo://app?vid=a29fc34b-47f0-4e6c-a49d-ad840f4184cd"},"vehicle_type_id":"4","last_reported":1784783705,"current_range_meters":39200,"station_id":"st_d46cu089ee8s73dldbu0","pricing_plan_id":"cebpf4jnsgd1na2vs0mg"},{"bike_id":"49a1373d-2792-477e-87cc-ec0c37648bd2","system_id":"levelo_inurba_marseille","lat":43.31084,"lon":5.42439,"is_reserved":false,"is_disabled":false,"rental_uris":{"android":"levelo://app?vid=49a1373d-2792-477e-87cc-ec0c37648bd2","ios":"levelo://app?vid=49a1373d-2792-477e-87cc-ec0c37648bd2"},"vehicle_type_id":"4","last_reported":1784783705,"current_range_meters":38400,"station_id":"ce4bhp92rcd13ifvqhag","pricing_plan_id":"cebpf4jnsgd1na2vs0mg"},{"bike_id":"9a86c5d2-1372-44b0-9209-43c3e2bf6ce4","system_id":"levelo_inurba_marseille","lat":43.31296,"lon":5.36715,"is_reserved":false,"is_disabled":false,"rental_uris":{"android":"levelo://app?vid=9a86c5d2-1372-44b0-9209-43c3e2bf6ce4","ios":"levelo://app?vid=9a86c5d2-1372-44b0-9209-43c3e2bf6ce4"},"vehicle_type_id":"4","last_reported":1784783705,"current_range_meters":38000,"station_id":"ce4bgr92rcd13ifvqc6g","pricing_plan_id":"cebpf4jnsgd1na2vs0mg"},{"bike_id":"6ed5f8c3-6da8-4cec-bfad-13253a432d70","system_id":"levelo_inurba_marseille","lat":43.29398,"lon":5.38571,"is_reserved":false,"is_disabled":true,"rental_uris":{"android":"levelo://app?vid=6ed5f8c3-6da8-4cec-bfad-13253a432d70","ios":"levelo://app?vid=6ed5f8c3-6da8-4cec-bfad-13253a432d70"},"vehicle_type_id":"4","last_reported":1784783705,"current_range_meters":30000,"station_id":"","pricing_plan_id":"cebpf4jnsgd1na2vs0mg"},{"bike_id":"2abfcdfb-2eb0-4480-932d-1071dc8638d6","system_id":"levelo_inurba_marseille","lat":43.33519,"lon":5.37446,"is_reserved":false,"is_disabled":false,"rental_uris":{"android":"levelo://app?vid=2abfcdfb-2eb0-4480-932d-1071dc8638d6","ios":"levelo://app?vid=2abfcdfb-2eb0-4480-932d-1071dc8638d6"},"vehicle_type_id":"4","last_reported":1784783705,"current_range_meters":39200,"station_id":"st_d46tts09ee8s73dlu43g","pricing_plan_id":"cebpf4jnsgd1na2vs0mg"},{"bike_id":"0dee0085-d5a5-4c48-b3f1-a323bb744f3d","system_id":"levelo_inurba_marseille","lat":43.22564,"lon":5.41631,"is_reserved":false,"is_disabled":false,"rental_uris":{"android":"levelo://app?vid=0dee0085-d5a5-4c48-b3f1-a323bb744f3d","ios":"levelo://app?vid=0dee0085-d5a5-4c48-b3f1-a323bb744f3d"},"vehicle_type_id":"4","last_reported":1784783705,"current_range_meters":28800,"station_id":"st_d2o4gvlbi1j2169b742g","pricing_plan_id":"cebpf4jnsgd1na2vs0mg"},{"bike_id":"589bc921-31be-458b-a0b7-d712c5f2b103","system_id":"levelo_inurba_marseille","lat":43.27152,"lon":5.41002,"is_reserved":false,"is_disabled":false,"rental_uris":{"android":"levelo://app?vid=589bc921-31be-458b-a0b7-d712c5f2b103","ios":"levelo://app?vid=589bc921-31be-458b-a0b7-d712c5f2b103"},"vehicle_type_id":"4","last_reported":1784783705,"current_range_meters":38400,"station_id":"ce4bhl12rcd13ifvqgf0","pricing_plan_id":"cebpf4jnsgd1na2vs0mg"},{"bike_id":"082a8540-8653-43a9-9ea9-5771a75d2e6d","system_id":"levelo_inurba_marseille","lat":43.30465,"lon":5.37923,"is_reserved":false,"is_disabled":false,"rental_uris":{"android":"levelo://app?vid=082a8540-8653-43a9-9ea9-5771a75d2e6d","ios":"levelo://app?vid=082a8540-8653-43a9-9ea9-5771a75d2e6d"},"vehicle_type_id":"4","last_reported":1784783705,"current_range_meters":23200,"station_id":"ce4bgup2rcd13ifvqcn0","pricing_plan_id":"cebpf4jnsgd1na2vs0mg"},{"bike_id":"5f238376-0c8f-4526-8c2c-ed47690a5ee9","system_id":"levelo_inurba_marseille","lat":43.28891,"lon":5.3927,"is_reserved":false,"is_disabled":false,"rental_uris":{"android":"levelo://app?vid=5f238376-0c8f-4526-8c2c-ed47690a5ee9","ios":"levelo://app?vid=5f238376-0c8f-4526-8c2c-ed47690a5ee9"},"vehicle_type_id":"4","last_reported":1784783705,"current_range_meters":36400,"station_id":"","pricing_plan_id":"cebpf4jnsgd1na2vs0mg"},{"bike_id":"0b2c45f2-fdaa-45fe-9511-e6426cab85f6","system_id":"levelo_inurba_marseille","lat":43.27485,"lon":5.42456,"is_reserved":false,"is_disabled":false,"rental_uris":{"android":"levelo://app?vid=0b2c45f2-fdaa-45fe-9511-e6426cab85f6","ios":"levelo://app?vid=0b2c45f2-fdaa-45fe-9511-e6426cab85f6"},"vehicle_type_id":"4","last_reported":1784783705,"current_range_meters":16800,"station_id":"ce4bhn92rcd13ifvqgrg","pricing_plan_id":"cebpf4jnsgd1na2vs0mg"},{"bike_id":"aaf7686f-fa15-4f45-bf11-dfb700bdc793","system_id":"levelo_inurba_marseille","lat":43.30458,"lon":5.39196,"is_reserved":false,"is_disabled":false,"rental_uris":{"android":"levelo://app?vid=aaf7686f-fa15-4f45-bf11-dfb700bdc793","ios":"levelo://app?vid=aaf7686f-fa15-4f45-bf11-dfb700bdc793"},"vehicle_type_id":"4","last_reported":1784783705,"current_range_meters":39200,"station_id":"","pricing_plan_id":"cebpf4jnsgd1na2vs0mg"},{"bike_id":"46829d30-948c-4700-9279-2117a96cb634","system_id":"levelo_inurba_marseille","lat":43.29629,"lon":5.40605,"is_reserved":false,"is_disabled":false,"rental_uris":{"android":"levelo://app?vid=46829d30-948c-4700-9279-2117a96cb634","ios":"levelo://app?vid=46829d30-948c-4700-9279-2117a96cb634"},"vehicle_type_id":"4","last_reported":1784783705,"current_range_meters":37600,"station_id":"ce4bh0h2rcd13ifvqd60","pricing_plan_id":"cebpf4jnsgd1na2vs0mg"},{"bike_id":"7b0038ed-5203-4f10-a61b-439e0abcc47e","system_id":"levelo_inurba_marseille","lat":43.30596,"lon":5.37217,"is_reserved":false,"is_disabled":false,"rental_uris":{"android":"levelo://app?vid=7b0038ed-5203-4f10-a61b-439e0abcc47e","ios":"levelo://app?vid=7b0038ed-5203-4f10-a61b-439e0abcc47e"},"vehicle_type_id":"4","last_reported":1784783705,"current_range_meters":32400,"station_id":"ce4bgqh2rcd13ifvqc4g","pricing_plan_id":"cebpf4jnsgd1na2vs0mg"},{"bike_id":"dad5eff3-cb3a-4459-ba39-741abe4a6c6c","system_id":"levelo_inurba_marseille","lat":43.32101,"lon":5.36797,"is_reserved":false,"is_disabled":false,"rental_uris":{"android":"levelo://app?vid=dad5eff3-cb3a-4459-ba39-741abe4a6c6c","ios":"levelo://app?vid=dad5eff3-cb3a-4459-ba39-741abe4a6c6c"},"vehicle_type_id":"4","last_reported":1784783705,"current_range_meters":6000,"station_id":"ce4bhrh2rcd13ifvqhug","pricing_plan_id":"cebpf4jnsgd1na2vs0mg"},{"bike_id":"a06306fb-6dc0-4b5e-965a-bbb2c2ee727a","system_id":"levelo_inurba_marseille","lat":43.25502,"lon":5.37651,"is_reserved":false,"is_disabled":false,"rental_uris":{"android":"levelo://app?vid=a06306fb-6dc0-4b5e-965a-bbb2c2ee727a","ios":"levelo://app?vid=a06306fb-6dc0-4b5e-965a-bbb2c2ee727a"},"vehicle_type_id":"4","last_reported":1784783705,"current_range_meters":39200,"station_id":"ce4bhh12rcd13ifvqff0","pricing_plan_id":"cebpf4jnsgd1na2vs0mg"},{"bike_id":"803f7df9-868f-456a-ad9f-b9f6950af8c3","system_id":"levelo_inurba_marseille","lat":43.23189,"lon":5.3995,"is_reserved":false,"is_disabled":false,"rental_uris":{"android":"levelo://app?vid=803f7df9-868f-456a-ad9f-b9f6950af8c3","ios":"levelo://app?vid=803f7df9-868f-456a-ad9f-b9f6950af8c3"},"vehicle_type_id":"4","last_reported":1784783705,"current_range_meters":27200,"station_id":"ce4bhn12rcd13ifvqgqg","pricing_plan_id":"cebpf4jnsgd1na2vs0mg"},{"bike_id":"e6c9edea-b5c6-472a-8886-472740ccdd05","system_id":"levelo_inurba_marseille","lat":43.28729,"lon":5.39985,"is_reserved":false,"is_disabled":false,"rental_uris":{"android":"levelo://app?vid=e6c9edea-b5c6-472a-8886-472740ccdd05","ios":"levelo://app?vid=e6c9edea-b5c6-472a-8886-472740ccdd05"},"vehicle_type_id":"4","last_reported":1784783705,"current_range_meters":38000,"station_id":"ce4bho92rcd13ifvqh3g","pricing_plan_id":"cebpf4jnsgd1na2vs0mg"},{"bike_id":"8d8673aa-a69c-4d74-931d-06b8f35221f4","system_id":"levelo_inurba_marseille","lat":43.26699,"lon":5.41982,"is_reserved":false,"is_disabled":false,"rental_uris":{"android":"levelo://app?vid=8d8673aa-a69c-4d74-931d-06b8f35221f4","ios":"levelo://app?vid=8d8673aa-a69c-4d74-931d-06b8f35221f4"},"vehicle_type_id":"4","last_reported":1784783705,"current_range_meters":24800,"station_id":"","pricing_plan_id":"cebpf4jnsgd1na2vs0mg"},{"bike_id":"8c024520-5ef9-4a9c-a20e-91073dc95666","system_id":"levelo_inurba_marseille","lat":43.299828,"lon":5.371924,"is_reserved":false,"is_disabled":false,"rental_uris":{"android":"levelo://app?vid=8c024520-5ef9-4a9c-a20e-91073dc95666","ios":"levelo://app?vid=8c024520-5ef9-4a9c-a20e-91073dc95666"},"vehicle_type_id":"4","last_reported":1784783705,"current_range_meters":33200,"station_id":"ce4bh4p2rcd13ifvqe1g","pricing_plan_id":"cebpf4jnsgd1na2vs0mg"},{"bike_id":"bb6c1d94-b8a1-4d7e-8e26-2628675f7e1d","system_id":"levelo_inurba_marseille","lat":43.2961,"lon":5.37715,"is_reserved":false,"is_disabled":true,"rental_uris":{"android":"levelo://app?vid=bb6c1d94-b8a1-4d7e-8e26-2628675f7e1d","ios":"levelo://app?vid=bb6c1d94-b8a1-4d7e-8e26-2628675f7e1d"},"vehicle_type_id":"4","last_reported":1784783705,"current_range_meters":18800,"station_id":"ce4bgi92rcd13ifvqb90","pricing_plan_id":"cebpf4jnsgd1na2vs0mg"},{"bike_id":"ad73d6c5-5ed9-43f7-92cc-606421124dcf","system_id":"levelo_inurba_marseille","lat":43.31369,"lon":5.38483,"is_reserved":false,"is_disabled":false,"rental_uris":{"android":"levelo://app?vid=ad73d6c5-5ed9-43f7-92cc-606421124dcf","ios":"levelo://app?vid=ad73d6c5-5ed9-43f7-92cc-606421124dcf"},"vehicle_type_id":"4","last_reported":1784783705,"current_range_meters":40000,"station_id":"ce4bgt92rcd13ifvqcf0","pricing_plan_id":"cebpf4jnsgd1na2vs0mg"},{"bike_id":"4c3e439e-4420-46e8-9604-df3eb8e47e0a","system_id":"levelo_inurba_marseille","lat":43.29633,"lon":5.3771,"is_reserved":false,"is_disabled":false,"rental_uris":{"android":"levelo://app?vid=4c3e439e-4420-46e8-9604-df3eb8e47e0a","ios":"levelo://app?vid=4c3e439e-4420-46e8-9604-df3eb8e47e0a"},"vehicle_type_id":"4","last_reported":1784783705,"current_range_meters":12000,"station_id":"ce4bgi92rcd13ifvqb90","pricing_plan_id":"cebpf4jnsgd1na2vs0mg"},{"bike_id":"1fade11d-8e73-4748-8586-d9741ca55ced","system_id":"levelo_inurba_marseille","lat":43.317152,"lon":5.437034,"is_reserved":false,"is_disabled":false,"rental_uris":{"android":"levelo://app?vid=1fade11d-8e73-4748-8586-d9741ca55ced","ios":"levelo://app?vid=1fade11d-8e73-4748-8586-d9741ca55ced"},"vehicle_type_id":"4","last_reported":1784783705,"current_range_meters":28000,"station_id":"ce4bhp92rcd13ifvqhcg","pricing_plan_id":"cebpf4jnsgd1na2vs0mg"},{"bike_id":"d73bd1e4-68e9-4c2e-ae1c-15606b0054ae","system_id":"levelo_inurba_marseille","lat":43.23894,"lon":5.37458,"is_reserved":false,"is_disabled":false,"rental_uris":{"android":"levelo://app?vid=d73bd1e4-68e9-4c2e-ae1c-15606b0054ae","ios":"levelo://app?vid=d73bd1e4-68e9-4c2e-ae1c-15606b0054ae"},"vehicle_type_id":"4","last_reported":1784783705,"current_range_meters":38400,"station_id":"st_d6sm7csbq4hs73f8fpjg","pricing_plan_id":"cebpf4jnsgd1na2vs0mg"},{"bike_id":"ffe6ae5a-d919-4213-9d4a-fc19bf5ddb19","system_id":"levelo_inurba_marseille","lat":43.30407,"lon":5.39744,"is_reserved":false,"is_disabled":false,"rental_uris":{"android":"levelo://app?vid=ffe6ae5a-d919-4213-9d4a-fc19bf5ddb19","ios":"levelo://app?vid=ffe6ae5a-d919-4213-9d4a-fc19bf5ddb19"},"vehicle_type_id":"4","last_reported":1784783705,"current_range_meters":36000,"station_id":"ce4bh092rcd13ifvqd20","pricing_plan_id":"cebpf4jnsgd1na2vs0mg"},{"bike_id":"c8da8785-9f17-47b4-8522-306ee67d5911","system_id":"levelo_inurba_marseille","lat":43.260309,"lon":5.375524,"is_reserved":false,"is_disabled":false,"rental_uris":{"android":"levelo://app?vid=c8da8785-9f17-47b4-8522-306ee67d5911","ios":"levelo://app?vid=c8da8785-9f17-47b4-8522-306ee67d5911"},"vehicle_type_id":"4","last_reported":1784783705,"current_range_meters":36800,"station_id":"","pricing_plan_id":"cebpf4jnsgd1na2vs0mg"},{"bike_id":"6ebb0a3c-6954-4eb3-943b-a6e5d9b59f27","system_id":"levelo_inurba_marseille","lat":43.29508,"lon":5.39398,"is_reserved":false,"is_disabled":false,"rental_uris":{"android":"levelo://app?vid=6ebb0a3c-6954-4eb3-943b-a6e5d9b59f27","ios":"levelo://app?vid=6ebb0a3c-6954-4eb3-943b-a6e5d9b59f27"},"vehicle_type_id":"4","last_reported":1784783705,"current_range_meters":21600,"station_id":"ce4bh292rcd13ifvqdf0","pricing_plan_id":"cebpf4jnsgd1na2vs0mg"},{"bike_id":"072b9c1d-531e-4493-86da-9c9c8268e088","system_id":"levelo_inurba_marseille","lat":43.337444,"lon":5.374475,"is_reserved":false,"is_disabled":false,"rental_uris":{"android":"levelo://app?vid=072b9c1d-531e-4493-86da-9c9c8268e088","ios":"levelo://app?vid=072b9c1d-531e-4493-86da-9c9c8268e088"},"vehicle_type_id":"4","last_reported":1784783705,"current_range_meters":37600,"station_id":"","pricing_plan_id":"cebpf4jnsgd1na2vs0mg"},{"bike_id":"75146afd-6944-4808-9153-760cee29f303","system_id":"levelo_inurba_marseille","lat":43.24664,"lon":5.37867,"is_reserved":false,"is_disabled":false,"rental_uris":{"android":"levelo://app?vid=75146afd-6944-4808-9153-760cee29f303","ios":"levelo://app?vid=75146afd-6944-4808-9153-760cee29f303"},"vehicle_type_id":"4","last_reported":1784783705,"current_range_meters":22400,"station_id":"","pricing_plan_id":"cebpf4jnsgd1na2vs0mg"},{"bike_id":"ce66301a-dbf2-441d-abbe-bb3423c0536b","system_id":"levelo_inurba_marseille","lat":43.30275,"lon":5.37671,"is_reserved":false,"is_disabled":false,"rental_uris":{"android":"levelo://app?vid=ce66301a-dbf2-441d-abbe-bb3423c0536b","ios":"levelo://app?vid=ce66301a-dbf2-441d-abbe-bb3423c0536b"},"vehicle_type_id":"4","last_reported":1784783705,"current_range_meters":5600,"station_id":"ce4bguh2rcd13ifvqcj0","pricing_plan_id":"cebpf4jnsgd1na2vs0mg"},{"bike_id":"8d082179-34b7-4e56-bcf1-040b24ed592e","system_id":"levelo_inurba_marseille","lat":43.26503,"lon":5.39553,"is_reserved":false,"is_disabled":false,"rental_uris":{"android":"levelo://app?vid=8d082179-34b7-4e56-bcf1-040b24ed592e","ios":"levelo://app?vid=8d082179-34b7-4e56-bcf1-040b24ed592e"},"vehicle_type_id":"4","last_reported":1784783705,"current_range_meters":39200,"station_id":"ce4bhi12rcd13ifvqfq0","pricing_plan_id":"cebpf4jnsgd1na2vs0mg"},{"bike_id":"a31cea0c-4cff-4f6d-8f93-36842670158b","system_id":"levelo_inurba_marseille","lat":43.29718,"lon":5.36624,"is_reserved":false,"is_disabled":true,"rental_uris":{"android":"levelo://app?vid=a31cea0c-4cff-4f6d-8f93-36842670158b","ios":"levelo://app?vid=a31cea0c-4cff-4f6d-8f93-36842670158b"},"vehicle_type_id":"4","last_reported":1784783705,"current_range_meters":38800,"station_id":"ce4bgn12rcd13ifvqbt0","pricing_plan_id":"cebpf4jnsgd1na2vs0mg"},{"bike_id":"91f42b21-0df3-45b1-8e17-e5638f0043ee","system_id":"levelo_inurba_marseille","lat":43.30811,"lon":5.38168,"is_reserved":false,"is_disabled":false,"rental_uris":{"android":"levelo://app?vid=91f42b21-0df3-45b1-8e17-e5638f0043ee","ios":"levelo://app?vid=91f42b21-0df3-45b1-8e17-e5638f0043ee"},"vehicle_type_id":"4","last_reported":1784783705,"current_range_meters":39200,"station_id":"ce4bgt12rcd13ifvqce0","pricing_plan_id":"cebpf4jnsgd1na2vs0mg"},{"bike_id":"49ee6634-9aad-478a-8c8d-9e523046c149","system_id":"levelo_inurba_marseille","lat":43.3376,"lon":5.37435,"is_reserved":false,"is_disabled":false,"rental_uris":{"android":"levelo://app?vid=49ee6634-9aad-478a-8c8d-9e523046c149","ios":"levelo://app?vid=49ee6634-9aad-478a-8c8d-9e523046c149"},"vehicle_type_id":"4","last_reported":1784783705,"current_range_meters":30400,"station_id":"","pricing_plan_id":"cebpf4jnsgd1na2vs0mg"},{"bike_id":"452ac296-b654-4152-89ca-c3c2d6dfb656","system_id":"levelo_inurba_marseille","lat":43.27061,"lon":5.38309,"is_reserved":false,"is_disabled":false,"rental_uris":{"android":"levelo://app?vid=452ac296-b654-4152-89ca-c3c2d6dfb656","ios":"levelo://app?vid=452ac296-b654-4152-89ca-c3c2d6dfb656"},"vehicle_type_id":"4","last_reported":1784783705,"current_range_meters":22400,"station_id":"st_d3n2fo6cfp8s73cte1j0","pricing_plan_id":"cebpf4jnsgd1na2vs0mg"},{"bike_id":"d2228d17-05e0-4718-b46a-4c0385f56ed8","system_id":"levelo_inurba_marseille","lat":43.28103,"lon":5.37847,"is_reserved":false,"is_disabled":false,"rental_uris":{"android":"levelo://app?vid=d2228d17-05e0-4718-b46a-4c0385f56ed8","ios":"levelo://app?vid=d2228d17-05e0-4718-b46a-4c0385f56ed8"},"vehicle_type_id":"4","last_reported":1784783705,"current_range_meters":30400,"station_id":"ce4bha12rcd13ifvqee0","pricing_plan_id":"cebpf4jnsgd1na2vs0mg"},{"bike_id":"3d53c05f-73e3-440a-8c06-cf8f366e6e22","system_id":"levelo_inurba_marseille","lat":43.31518,"lon":5.38038,"is_reserved":false,"is_disabled":false,"rental_uris":{"android":"levelo://app?vid=3d53c05f-73e3-440a-8c06-cf8f366e6e22","ios":"levelo://app?vid=3d53c05f-73e3-440a-8c06-cf8f366e6e22"},"vehicle_type_id":"4","last_reported":1784783705,"current_range_meters":38400,"station_id":"ce4bhsp2rcd13ifvqi50","pricing_plan_id":"cebpf4jnsgd1na2vs0mg"},{"bike_id":"b6e149ac-230a-48ff-a674-48ad8c1be1cf","system_id":"levelo_inurba_marseille","lat":43.31359,"lon":5.38527,"is_reserved":false,"is_disabled":true,"rental_uris":{"android":"levelo://app?vid=b6e149ac-230a-48ff-a674-48ad8c1be1cf","ios":"levelo://app?vid=b6e149ac-230a-48ff-a674-48ad8c1be1cf"},"vehicle_type_id":"4","last_reported":1784783705,"current_range_meters":32800,"station_id":"ce4bgt92rcd13ifvqcf0","pricing_plan_id":"cebpf4jnsgd1na2vs0mg"},{"bike_id":"425cee52-7ff4-408d-b63f-f1bb20a33257","system_id":"levelo_inurba_marseille","lat":43.27477,"lon":5.42561,"is_reserved":false,"is_disabled":false,"rental_uris":{"android":"levelo://app?vid=425cee52-7ff4-408d-b63f-f1bb20a33257","ios":"levelo://app?vid=425cee52-7ff4-408d-b63f-f1bb20a33257"},"vehicle_type_id":"4","last_reported":1784783705,"current_range_meters":35200,"station_id":"st_d8t4bh7nbrqs73arha60","pricing_plan_id":"cebpf4jnsgd1na2vs0mg"},{"bike_id":"acb6c310-64e8-4ffb-9d0e-3645b38213aa","system_id":"levelo_inurba_marseille","lat":43.22559,"lon":5.41635,"is_reserved":false,"is_disabled":false,"rental_uris":{"android":"levelo://app?vid=acb6c310-64e8-4ffb-9d0e-3645b38213aa","ios":"levelo://app?vid=acb6c310-64e8-4ffb-9d0e-3645b38213aa"},"vehicle_type_id":"4","last_reported":1784783705,"current_range_meters":6400,"station_id":"st_d2o4gvlbi1j2169b742g","pricing_plan_id":"cebpf4jnsgd1na2vs0mg"},{"bike_id":"97ec0cba-1bab-4853-8f69-51e4f976d26d","system_id":"levelo_inurba_marseille","lat":43.30936,"lon":5.40167,"is_reserved":false,"is_disabled":false,"rental_uris":{"android":"levelo://app?vid=97ec0cba-1bab-4853-8f69-51e4f976d26d","ios":"levelo://app?vid=97ec0cba-1bab-4853-8f69-51e4f976d26d"},"vehicle_type_id":"4","last_reported":1784783705,"current_range_meters":20400,"station_id":"ce4bgvp2rcd13ifvqct0","pricing_plan_id":"cebpf4jnsgd1na2vs0mg"},{"bike_id":"f879891d-1098-40c4-8114-7979c70cf0f1","system_id":"levelo_inurba_marseille","lat":43.30206,"lon":5.38781,"is_reserved":false,"is_disabled":false,"rental_uris":{"android":"levelo://app?vid=f879891d-1098-40c4-8114-7979c70cf0f1","ios":"levelo://app?vid=f879891d-1098-40c4-8114-7979c70cf0f1"},"vehicle_type_id":"4","last_reported":1784783705,"current_range_meters":19200,"station_id":"","pricing_plan_id":"cebpf4jnsgd1na2vs0mg"},{"bike_id":"2b2d5806-a98a-4b6d-8666-219c96826a65","system_id":"levelo_inurba_marseille","lat":43.33042,"lon":5.3902,"is_reserved":false,"is_disabled":false,"rental_uris":{"android":"levelo://app?vid=2b2d5806-a98a-4b6d-8666-219c96826a65","ios":"levelo://app?vid=2b2d5806-a98a-4b6d-8666-219c96826a65"},"vehicle_type_id":"4","last_reported":1784783705,"current_range_meters":7200,"station_id":"ce4bhr92rcd13ifvqhrg","pricing_plan_id":"cebpf4jnsgd1na2vs0mg"},{"bike_id":"9d4b8430-c687-4ce9-b117-2b375d0afc9f","system_id":"levelo_inurba_marseille","lat":43.24167,"lon":5.36406,"is_reserved":false,"is_disabled":true,"rental_uris":{"android":"levelo://app?vid=9d4b8430-c687-4ce9-b117-2b375d0afc9f","ios":"levelo://app?vid=9d4b8430-c687-4ce9-b117-2b375d0afc9f"},"vehicle_type_id":"4","last_reported":1784783705,"current_range_meters":32800,"station_id":"cpo36qri1sfpv3e86is0","pricing_plan_id":"cebpf4jnsgd1na2vs0mg"},{"bike_id":"3b5af452-7d77-46ba-b5ea-23bd1793d4e4","system_id":"levelo_inurba_marseille","lat":43.31374,"lon":5.38502,"is_reserved":false,"is_disabled":false,"rental_uris":{"android":"levelo://app?vid=3b5af452-7d77-46ba-b5ea-23bd1793d4e4","ios":"levelo://app?vid=3b5af452-7d77-46ba-b5ea-23bd1793d4e4"},"vehicle_type_id":"4","last_reported":1784783705,"current_range_meters":39200,"station_id":"ce4bgt92rcd13ifvqcf0","pricing_plan_id":"cebpf4jnsgd1na2vs0mg"},{"bike_id":"c8186598-7ff0-4f1d-9c68-0f7323628d84","system_id":"levelo_inurba_marseille","lat":43.31687,"lon":5.40441,"is_reserved":false,"is_disabled":false,"rental_uris":{"android":"levelo://app?vid=c8186598-7ff0-4f1d-9c68-0f7323628d84","ios":"levelo://app?vid=c8186598-7ff0-4f1d-9c68-0f7323628d84"},"vehicle_type_id":"4","last_reported":1784783705,"current_range_meters":28800,"station_id":"ce4bh012rcd13ifvqd00","pricing_plan_id":"cebpf4jnsgd1na2vs0mg"},{"bike_id":"8e661f57-eae5-43a0-9064-850e77532136","system_id":"levelo_inurba_marseille","lat":43.29377,"lon":5.37858,"is_reserved":false,"is_disabled":true,"rental_uris":{"android":"levelo://app?vid=8e661f57-eae5-43a0-9064-850e77532136","ios":"levelo://app?vid=8e661f57-eae5-43a0-9064-850e77532136"},"vehicle_type_id":"4","last_reported":1784783705,"current_range_meters":28000,"station_id":"ce4bgjh2rcd13ifvqbf0","pricing_plan_id":"cebpf4jnsgd1na2vs0mg"},{"bike_id":"bbce7a3d-81af-4218-bca7-57509cdbd381","system_id":"levelo_inurba_marseille","lat":43.3089,"lon":5.39619,"is_reserved":false,"is_disabled":false,"rental_uris":{"android":"levelo://app?vid=bbce7a3d-81af-4218-bca7-57509cdbd381","ios":"levelo://app?vid=bbce7a3d-81af-4218-bca7-57509cdbd381"},"vehicle_type_id":"4","last_reported":1784783705,"current_range_meters":31200,"station_id":"ce4bh012rcd13ifvqcv0","pricing_plan_id":"cebpf4jnsgd1na2vs0mg"},{"bike_id":"a83f6dd4-a966-4c48-9c5e-40cd101889e5","system_id":"levelo_inurba_marseille","lat":43.28654,"lon":5.36337,"is_reserved":false,"is_disabled":true,"rental_uris":{"android":"levelo://app?vid=a83f6dd4-a966-4c48-9c5e-40cd101889e5","ios":"levelo://app?vid=a83f6dd4-a966-4c48-9c5e-40cd101889e5"},"vehicle_type_id":"4","last_reported":1784783705,"current_range_meters":26000,"station_id":"ce4bhah2rcd13ifvqej0","pricing_plan_id":"cebpf4jnsgd1na2vs0mg"},{"bike_id":"429123e4-dc43-429b-abc2-42a83c22e46e","system_id":"levelo_inurba_marseille","lat":43.23202,"lon":5.3555,"is_reserved":false,"is_disabled":false,"rental_uris":{"android":"levelo://app?vid=429123e4-dc43-429b-abc2-42a83c22e46e","ios":"levelo://app?vid=429123e4-dc43-429b-abc2-42a83c22e46e"},"vehicle_type_id":"4","last_reported":1784783705,"current_range_meters":28800,"station_id":"ce4bhu92rcd13ifvqi70","pricing_plan_id":"cebpf4jnsgd1na2vs0mg"},{"bike_id":"d4176fdd-97a2-4c8b-af24-a5d62c1ee6a5","system_id":"levelo_inurba_marseille","lat":43.28702,"lon":5.38702,"is_reserved":false,"is_disabled":true,"rental_uris":{"android":"levelo://app?vid=d4176fdd-97a2-4c8b-af24-a5d62c1ee6a5","ios":"levelo://app?vid=d4176fdd-97a2-4c8b-af24-a5d62c1ee6a5"},"vehicle_type_id":"4","last_reported":1784783705,"current_range_meters":29600,"station_id":"","pricing_plan_id":"cebpf4jnsgd1na2vs0mg"},{"bike_id":"340c0ce1-b229-4811-afc8-78d6b4740191","system_id":"levelo_inurba_marseille","lat":43.24946,"lon":5.40472,"is_reserved":false,"is_disabled":false,"rental_uris":{"android":"levelo://app?vid=340c0ce1-b229-4811-afc8-78d6b4740191","ios":"levelo://app?vid=340c0ce1-b229-4811-afc8-78d6b4740191"},"vehicle_type_id":"4","last_reported":1784783705,"current_range_meters":2800,"station_id":"st_d2ngiaodas8pm72gd1h0","pricing_plan_id":"cebpf4jnsgd1na2vs0mg"},{"bike_id":"09480c37-728d-435c-b0c2-253c37c37d30","system_id":"levelo_inurba_marseille","lat":43.28478,"lon":5.38423,"is_reserved":false,"is_disabled":false,"rental_uris":{"android":"levelo://app?vid=09480c37-728d-435c-b0c2-253c37c37d30","ios":"levelo://app?vid=09480c37-728d-435c-b0c2-253c37c37d30"},"vehicle_type_id":"4","last_reported":1784783705,"current_range_meters":38800,"station_id":"ce4bh512rcd13ifvqe3g","pricing_plan_id":"cebpf4jnsgd1na2vs0mg"},{"bike_id":"bace381c-6258-4d80-80f1-070c343af026","system_id":"levelo_inurba_marseille","lat":43.33164,"lon":5.37683,"is_reserved":false,"is_disabled":false,"rental_uris":{"android":"levelo://app?vid=bace381c-6258-4d80-80f1-070c343af026","ios":"levelo://app?vid=bace381c-6258-4d80-80f1-070c343af026"},"vehicle_type_id":"4","last_reported":1784783705,"current_range_meters":8000,"station_id":"st_d46cu089ee8s73dldbu0","pricing_plan_id":"cebpf4jnsgd1na2vs0mg"},{"bike_id":"484e47bb-c244-4caf-825b-8db5ca56ab5f","system_id":"levelo_inurba_marseille","lat":43.24415,"lon":5.37043,"is_reserved":false,"is_disabled":false,"rental_uris":{"android":"levelo://app?vid=484e47bb-c244-4caf-825b-8db5ca56ab5f","ios":"levelo://app?vid=484e47bb-c244-4caf-825b-8db5ca56ab5f"},"vehicle_type_id":"4","last_reported":1784783705,"current_range_meters":38400,"station_id":"ce4bhhh2rcd13ifvqfk0","pricing_plan_id":"cebpf4jnsgd1na2vs0mg"},{"bike_id":"96b5c5f9-2213-4d50-a768-81194203f08d","system_id":"levelo_inurba_marseille","lat":43.337444,"lon":5.374475,"is_reserved":false,"is_disabled":false,"rental_uris":{"android":"levelo://app?vid=96b5c5f9-2213-4d50-a768-81194203f08d","ios":"levelo://app?vid=96b5c5f9-2213-4d50-a768-81194203f08d"},"vehicle_type_id":"4","last_reported":1784783705,"current_range_meters":26800,"station_id":"","pricing_plan_id":"cebpf4jnsgd1na2vs0mg"},{"bike_id":"fb644f12-853e-41a1-b0c5-c15aaf166b0d","system_id":"levelo_inurba_marseille","lat":43.30828,"lon":5.43944,"is_reserved":false,"is_disabled":false,"rental_uris":{"android":"levelo://app?vid=fb644f12-853e-41a1-b0c5-c15aaf166b0d","ios":"levelo://app?vid=fb644f12-853e-41a1-b0c5-c15aaf166b0d"},"vehicle_type_id":"4","last_reported":1784783705,"current_range_meters":11200,"station_id":"","pricing_plan_id":"cebpf4jnsgd1na2vs0mg"},{"bike_id":"e9e543b0-8ca5-47a6-998c-4902ea53cdd4","system_id":"levelo_inurba_marseille","lat":43.25184,"lon":5.37298,"is_reserved":false,"is_disabled":true,"rental_uris":{"android":"levelo://app?vid=e9e543b0-8ca5-47a6-998c-4902ea53cdd4","ios":"levelo://app?vid=e9e543b0-8ca5-47a6-998c-4902ea53cdd4"},"vehicle_type_id":"4","last_reported":1784783705,"current_range_meters":9200,"station_id":"","pricing_plan_id":"cebpf4jnsgd1na2vs0mg"},{"bike_id":"e0423e1d-d607-4bb9-b5cc-a84f975ef725","system_id":"levelo_inurba_marseille","lat":43.279983,"lon":5.400053,"is_reserved":false,"is_disabled":false,"rental_uris":{"android":"levelo://app?vid=e0423e1d-d607-4bb9-b5cc-a84f975ef725","ios":"levelo://app?vid=e0423e1d-d607-4bb9-b5cc-a84f975ef725"},"vehicle_type_id":"4","last_reported":1784783705,"current_range_meters":18000,"station_id":"ce4bho92rcd13ifvqh4g","pricing_plan_id":"cebpf4jnsgd1na2vs0mg"},{"bike_id":"fccd4d01-7853-4830-aae7-7e5a8b3ffbdf","system_id":"levelo_inurba_marseille","lat":43.23765,"lon":5.36643,"is_reserved":false,"is_disabled":false,"rental_uris":{"android":"levelo://app?vid=fccd4d01-7853-4830-aae7-7e5a8b3ffbdf","ios":"levelo://app?vid=fccd4d01-7853-4830-aae7-7e5a8b3ffbdf"},"vehicle_type_id":"4","last_reported":1784783705,"current_range_meters":37600,"station_id":"st_d3nk18o9ro0c73en2l3g","pricing_plan_id":"cebpf4jnsgd1na2vs0mg"},{"bike_id":"8f31f3af-0aa6-4421-8e2c-a77a880bef79","system_id":"levelo_inurba_marseille","lat":43.273726,"lon":5.398294,"is_reserved":false,"is_disabled":true,"rental_uris":{"android":"levelo://app?vid=8f31f3af-0aa6-4421-8e2c-a77a880bef79","ios":"levelo://app?vid=8f31f3af-0aa6-4421-8e2c-a77a880bef79"},"vehicle_type_id":"4","last_reported":1784783705,"current_range_meters":4000,"station_id":"","pricing_plan_id":"cebpf4jnsgd1na2vs0mg"},{"bike_id":"e86a0c8a-5f7d-41de-afcb-09382866396b","system_id":"levelo_inurba_marseille","lat":43.28418,"lon":5.34982,"is_reserved":false,"is_disabled":false,"rental_uris":{"android":"levelo://app?vid=e86a0c8a-5f7d-41de-afcb-09382866396b","ios":"levelo://app?vid=e86a0c8a-5f7d-41de-afcb-09382866396b"},"vehicle_type_id":"4","last_reported":1784783705,"current_range_meters":35200,"station_id":"ce4bhbh2rcd13ifvqepg","pricing_plan_id":"cebpf4jnsgd1na2vs0mg"},{"bike_id":"54ad900a-8841-4b0f-b519-e43ccfc6fbbd","system_id":"levelo_inurba_marseille","lat":43.28032,"lon":5.36956,"is_reserved":false,"is_disabled":false,"rental_uris":{"android":"levelo://app?vid=54ad900a-8841-4b0f-b519-e43ccfc6fbbd","ios":"levelo://app?vid=54ad900a-8841-4b0f-b519-e43ccfc6fbbd"},"vehicle_type_id":"4","last_reported":1784783705,"current_range_meters":38000,"station_id":"ce4bha12rcd13ifvqef0","pricing_plan_id":"cebpf4jnsgd1na2vs0mg"},{"bike_id":"3e17ff3c-920a-4749-a059-0e5bfca5fa03","system_id":"levelo_inurba_marseille","lat":43.27919,"lon":5.39589,"is_reserved":false,"is_disabled":false,"rental_uris":{"android":"levelo://app?vid=3e17ff3c-920a-4749-a059-0e5bfca5fa03","ios":"levelo://app?vid=3e17ff3c-920a-4749-a059-0e5bfca5fa03"},"vehicle_type_id":"4","last_reported":1784783705,"current_range_meters":38000,"station_id":"ce4bhf92rcd13ifvqf40","pricing_plan_id":"cebpf4jnsgd1na2vs0mg"},{"bike_id":"476beb9f-d625-4af7-8570-9e552e55f6b8","system_id":"levelo_inurba_marseille","lat":43.27442,"lon":5.39409,"is_reserved":false,"is_disabled":true,"rental_uris":{"android":"levelo://app?vid=476beb9f-d625-4af7-8570-9e552e55f6b8","ios":"levelo://app?vid=476beb9f-d625-4af7-8570-9e552e55f6b8"},"vehicle_type_id":"4","last_reported":1784783705,"current_range_meters":800,"station_id":"ce4bhdp2rcd13ifvqf20","pricing_plan_id":"cebpf4jnsgd1na2vs0mg"},{"bike_id":"a2c9fd6e-925c-4795-ba3f-b9c641931695","system_id":"levelo_inurba_marseille","lat":43.29596,"lon":5.37717,"is_reserved":false,"is_disabled":true,"rental_uris":{"android":"levelo://app?vid=a2c9fd6e-925c-4795-ba3f-b9c641931695","ios":"levelo://app?vid=a2c9fd6e-925c-4795-ba3f-b9c641931695"},"vehicle_type_id":"4","last_reported":1784783705,"current_range_meters":25600,"station_id":"ce4bgi92rcd13ifvqb90","pricing_plan_id":"cebpf4jnsgd1na2vs0mg"},{"bike_id":"62b26bd9-baa5-443a-98e6-6d62711a5119","system_id":"levelo_inurba_marseille","lat":43.28671,"lon":5.38656,"is_reserved":false,"is_disabled":false,"rental_uris":{"android":"levelo://app?vid=62b26bd9-baa5-443a-98e6-6d62711a5119","ios":"levelo://app?vid=62b26bd9-baa5-443a-98e6-6d62711a5119"},"vehicle_type_id":"4","last_reported":1784783705,"current_range_meters":12400,"station_id":"ce4bh492rcd13ifvqdug","pricing_plan_id":"cebpf4jnsgd1na2vs0mg"},{"bike_id":"d6c26f88-3d7b-4068-a235-4049bb6e9207","system_id":"levelo_inurba_marseille","lat":43.29646,"lon":5.37714,"is_reserved":false,"is_disabled":false,"rental_uris":{"android":"levelo://app?vid=d6c26f88-3d7b-4068-a235-4049bb6e9207","ios":"levelo://app?vid=d6c26f88-3d7b-4068-a235-4049bb6e9207"},"vehicle_type_id":"4","last_reported":1784783705,"current_range_meters":38400,"station_id":"ce4bgi92rcd13ifvqb90","pricing_plan_id":"cebpf4jnsgd1na2vs0mg"},{"bike_id":"7b7c350c-7fa0-4260-b6c2-812c00fe7727","system_id":"levelo_inurba_marseille","lat":43.32113,"lon":5.36762,"is_reserved":false,"is_disabled":false,"rental_uris":{"android":"levelo://app?vid=7b7c350c-7fa0-4260-b6c2-812c00fe7727","ios":"levelo://app?vid=7b7c350c-7fa0-4260-b6c2-812c00fe7727"},"vehicle_type_id":"4","last_reported":1784783705,"current_range_meters":25600,"station_id":"ce4bhrh2rcd13ifvqhug","pricing_plan_id":"cebpf4jnsgd1na2vs0mg"},{"bike_id":"002b6de9-4906-4900-bd53-a26437451aab","system_id":"levelo_inurba_marseille","lat":43.33256,"lon":5.35883,"is_reserved":false,"is_disabled":false,"rental_uris":{"android":"levelo://app?vid=002b6de9-4906-4900-bd53-a26437451aab","ios":"levelo://app?vid=002b6de9-4906-4900-bd53-a26437451aab"},"vehicle_type_id":"4","last_reported":1784783705,"current_range_meters":10800,"station_id":"","pricing_plan_id":"cebpf4jnsgd1na2vs0mg"},{"bike_id":"94f1b0ad-aaa9-4b51-806c-9eae39355e9b","system_id":"levelo_inurba_marseille","lat":43.27385,"lon":5.36262,"is_reserved":false,"is_disabled":true,"rental_uris":{"android":"levelo://app?vid=94f1b0ad-aaa9-4b51-806c-9eae39355e9b","ios":"levelo://app?vid=94f1b0ad-aaa9-4b51-806c-9eae39355e9b"},"vehicle_type_id":"4","last_reported":1784783705,"current_range_meters":4000,"station_id":"ce4bhbh2rcd13ifvqeo0","pricing_plan_id":"cebpf4jnsgd1na2vs0mg"},{"bike_id":"d568f017-0550-40c3-b758-69fc0156698c","system_id":"levelo_inurba_marseille","lat":43.28621,"lon":5.40005,"is_reserved":false,"is_disabled":false,"rental_uris":{"android":"levelo://app?vid=d568f017-0550-40c3-b758-69fc0156698c","ios":"levelo://app?vid=d568f017-0550-40c3-b758-69fc0156698c"},"vehicle_type_id":"4","last_reported":1784783705,"current_range_meters":39200,"station_id":"","pricing_plan_id":"cebpf4jnsgd1na2vs0mg"},{"bike_id":"3d185dea-3134-4b35-9cee-49aed1f0c978","system_id":"levelo_inurba_marseille","lat":43.24649,"lon":5.38178,"is_reserved":false,"is_disabled":true,"rental_uris":{"android":"levelo://app?vid=3d185dea-3134-4b35-9cee-49aed1f0c978","ios":"levelo://app?vid=3d185dea-3134-4b35-9cee-49aed1f0c978"},"vehicle_type_id":"4","last_reported":1784783705,"current_range_meters":34000,"station_id":"ce4bhih2rcd13ifvqfr0","pricing_plan_id":"cebpf4jnsgd1na2vs0mg"},{"bike_id":"d59836fa-cc94-4caa-8c24-e346fea64424","system_id":"levelo_inurba_marseille","lat":43.29971,"lon":5.38494,"is_reserved":false,"is_disabled":true,"rental_uris":{"android":"levelo://app?vid=d59836fa-cc94-4caa-8c24-e346fea64424","ios":"levelo://app?vid=d59836fa-cc94-4caa-8c24-e346fea64424"},"vehicle_type_id":"4","last_reported":1784783705,"current_range_meters":9200,"station_id":"ce4bgj92rcd13ifvqbd0","pricing_plan_id":"cebpf4jnsgd1na2vs0mg"},{"bike_id":"737e80df-9b27-4a70-bcca-0c7587ea2182","system_id":"levelo_inurba_marseille","lat":43.287032,"lon":5.399916,"is_reserved":false,"is_disabled":false,"rental_uris":{"android":"levelo://app?vid=737e80df-9b27-4a70-bcca-0c7587ea2182","ios":"levelo://app?vid=737e80df-9b27-4a70-bcca-0c7587ea2182"},"vehicle_type_id":"4","last_reported":1784783705,"current_range_meters":20000,"station_id":"","pricing_plan_id":"cebpf4jnsgd1na2vs0mg"},{"bike_id":"3d13333b-7690-4142-9bbb-2728fb60d95b","system_id":"levelo_inurba_marseille","lat":43.28216,"lon":5.39037,"is_reserved":false,"is_disabled":false,"rental_uris":{"android":"levelo://app?vid=3d13333b-7690-4142-9bbb-2728fb60d95b","ios":"levelo://app?vid=3d13333b-7690-4142-9bbb-2728fb60d95b"},"vehicle_type_id":"4","last_reported":1784783705,"current_range_meters":39200,"station_id":"ce4bhn92rcd13ifvqgsg","pricing_plan_id":"cebpf4jnsgd1na2vs0mg"},{"bike_id":"77bcfa31-f113-42f5-a1d5-390cc9e03aaf","system_id":"levelo_inurba_marseille","lat":43.24438,"lon":5.37048,"is_reserved":false,"is_disabled":false,"rental_uris":{"android":"levelo://app?vid=77bcfa31-f113-42f5-a1d5-390cc9e03aaf","ios":"levelo://app?vid=77bcfa31-f113-42f5-a1d5-390cc9e03aaf"},"vehicle_type_id":"4","last_reported":1784783705,"current_range_meters":20400,"station_id":"","pricing_plan_id":"cebpf4jnsgd1na2vs0mg"},{"bike_id":"0a3b6893-d939-4c70-85ee-bad275a749a3","system_id":"levelo_inurba_marseille","lat":43.31695,"lon":5.43726,"is_reserved":false,"is_disabled":false,"rental_uris":{"android":"levelo://app?vid=0a3b6893-d939-4c70-85ee-bad275a749a3","ios":"levelo://app?vid=0a3b6893-d939-4c70-85ee-bad275a749a3"},"vehicle_type_id":"4","last_reported":1784783705,"current_range_meters":36800,"station_id":"ce4bhp92rcd13ifvqhcg","pricing_plan_id":"cebpf4jnsgd1na2vs0mg"},{"bike_id":"1981d3ef-d7ae-460e-a247-e2f1120f8322","system_id":"levelo_inurba_marseille","lat":43.24588,"lon":5.41951,"is_reserved":false,"is_disabled":false,"rental_uris":{"android":"levelo://app?vid=1981d3ef-d7ae-460e-a247-e2f1120f8322","ios":"levelo://app?vid=1981d3ef-d7ae-460e-a247-e2f1120f8322"},"vehicle_type_id":"4","last_reported":1784783705,"current_range_meters":14800,"station_id":"","pricing_plan_id":"cebpf4jnsgd1na2vs0mg"},{"bike_id":"165f17ce-60d5-4c1f-b561-f2a05656aed3","system_id":"levelo_inurba_marseille","lat":43.24171,"lon":5.36404,"is_reserved":false,"is_disabled":false,"rental_uris":{"android":"levelo://app?vid=165f17ce-60d5-4c1f-b561-f2a05656aed3","ios":"levelo://app?vid=165f17ce-60d5-4c1f-b561-f2a05656aed3"},"vehicle_type_id":"4","last_reported":1784783705,"current_range_meters":30400,"station_id":"cpo36qri1sfpv3e86is0","pricing_plan_id":"cebpf4jnsgd1na2vs0mg"},{"bike_id":"bbb6d84d-52b2-4523-b78b-60cb354411ef","system_id":"levelo_inurba_marseille","lat":43.32106,"lon":5.36769,"is_reserved":false,"is_disabled":false,"rental_uris":{"android":"levelo://app?vid=bbb6d84d-52b2-4523-b78b-60cb354411ef","ios":"levelo://app?vid=bbb6d84d-52b2-4523-b78b-60cb354411ef"},"vehicle_type_id":"4","last_reported":1784783705,"current_range_meters":34000,"station_id":"ce4bhrh2rcd13ifvqhug","pricing_plan_id":"cebpf4jnsgd1na2vs0mg"},{"bike_id":"8a836e41-787b-455d-b6d7-39f01e28f08c","system_id":"levelo_inurba_marseille","lat":43.30212,"lon":5.39467,"is_reserved":false,"is_disabled":false,"rental_uris":{"android":"levelo://app?vid=8a836e41-787b-455d-b6d7-39f01e28f08c","ios":"levelo://app?vid=8a836e41-787b-455d-b6d7-39f01e28f08c"},"vehicle_type_id":"4","last_reported":1784783705,"current_range_meters":40000,"station_id":"ce4bh0p2rcd13ifvqd70","pricing_plan_id":"cebpf4jnsgd1na2vs0mg"},{"bike_id":"7c215944-6de0-44b9-b267-ecfcdb73eb11","system_id":"levelo_inurba_marseille","lat":43.27814,"lon":5.40721,"is_reserved":false,"is_disabled":true,"rental_uris":{"android":"levelo://app?vid=7c215944-6de0-44b9-b267-ecfcdb73eb11","ios":"levelo://app?vid=7c215944-6de0-44b9-b267-ecfcdb73eb11"},"vehicle_type_id":"4","last_reported":1784783705,"current_range_meters":39200,"station_id":"ce4bhnh2rcd13ifvqgtg","pricing_plan_id":"cebpf4jnsgd1na2vs0mg"},{"bike_id":"a9863fcb-8ca0-4220-b083-cb27e96475fe","system_id":"levelo_inurba_marseille","lat":43.23191,"lon":5.35555,"is_reserved":false,"is_disabled":false,"rental_uris":{"android":"levelo://app?vid=a9863fcb-8ca0-4220-b083-cb27e96475fe","ios":"levelo://app?vid=a9863fcb-8ca0-4220-b083-cb27e96475fe"},"vehicle_type_id":"4","last_reported":1784783705,"current_range_meters":6400,"station_id":"ce4bhu92rcd13ifvqi70","pricing_plan_id":"cebpf4jnsgd1na2vs0mg"},{"bike_id":"64d6a1bb-9f40-4c2f-86db-a81e217c2827","system_id":"levelo_inurba_marseille","lat":43.24388,"lon":5.37047,"is_reserved":false,"is_disabled":false,"rental_uris":{"android":"levelo://app?vid=64d6a1bb-9f40-4c2f-86db-a81e217c2827","ios":"levelo://app?vid=64d6a1bb-9f40-4c2f-86db-a81e217c2827"},"vehicle_type_id":"4","last_reported":1784783705,"current_range_meters":9600,"station_id":"ce4bhhh2rcd13ifvqfk0","pricing_plan_id":"cebpf4jnsgd1na2vs0mg"},{"bike_id":"f1858c62-0146-4ba0-adec-2c135f7dc622","system_id":"levelo_inurba_marseille","lat":43.29372,"lon":5.37822,"is_reserved":false,"is_disabled":false,"rental_uris":{"android":"levelo://app?vid=f1858c62-0146-4ba0-adec-2c135f7dc622","ios":"levelo://app?vid=f1858c62-0146-4ba0-adec-2c135f7dc622"},"vehicle_type_id":"4","last_reported":1784783705,"current_range_meters":32400,"station_id":"ce4bgjh2rcd13ifvqbf0","pricing_plan_id":"cebpf4jnsgd1na2vs0mg"},{"bike_id":"a8da38aa-f94e-4c2e-80f0-e41e78a1c855","system_id":"levelo_inurba_marseille","lat":43.29765,"lon":5.38074,"is_reserved":false,"is_disabled":true,"rental_uris":{"android":"levelo://app?vid=a8da38aa-f94e-4c2e-80f0-e41e78a1c855","ios":"levelo://app?vid=a8da38aa-f94e-4c2e-80f0-e41e78a1c855"},"vehicle_type_id":"4","last_reported":1784783705,"current_range_meters":36800,"station_id":"","pricing_plan_id":"cebpf4jnsgd1na2vs0mg"},{"bike_id":"c0265539-a976-4456-8808-82377c8dc035","system_id":"levelo_inurba_marseille","lat":43.2817,"lon":5.42631,"is_reserved":false,"is_disabled":false,"rental_uris":{"android":"levelo://app?vid=c0265539-a976-4456-8808-82377c8dc035","ios":"levelo://app?vid=c0265539-a976-4456-8808-82377c8dc035"},"vehicle_type_id":"4","last_reported":1784783705,"current_range_meters":40000,"station_id":"ce4bhnh2rcd13ifvqgug","pricing_plan_id":"cebpf4jnsgd1na2vs0mg"},{"bike_id":"6beb94b0-4283-4f7d-810d-b229619bc024","system_id":"levelo_inurba_marseille","lat":43.229591,"lon":5.444884,"is_reserved":false,"is_disabled":false,"rental_uris":{"android":"levelo://app?vid=6beb94b0-4283-4f7d-810d-b229619bc024","ios":"levelo://app?vid=6beb94b0-4283-4f7d-810d-b229619bc024"},"vehicle_type_id":"4","last_reported":1784783705,"current_range_meters":22400,"station_id":"","pricing_plan_id":"cebpf4jnsgd1na2vs0mg"},{"bike_id":"b5a9d944-9eb1-434c-931a-e7a13d8c2c58","system_id":"levelo_inurba_marseille","lat":43.27432,"lon":5.39392,"is_reserved":false,"is_disabled":true,"rental_uris":{"android":"levelo://app?vid=b5a9d944-9eb1-434c-931a-e7a13d8c2c58","ios":"levelo://app?vid=b5a9d944-9eb1-434c-931a-e7a13d8c2c58"},"vehicle_type_id":"4","last_reported":1784783705,"current_range_meters":39200,"station_id":"ce4bhdp2rcd13ifvqf20","pricing_plan_id":"cebpf4jnsgd1na2vs0mg"},{"bike_id":"354a079f-ed28-41a7-a06b-85ab194fda38","system_id":"levelo_inurba_marseille","lat":43.29474,"lon":5.39807,"is_reserved":false,"is_disabled":false,"rental_uris":{"android":"levelo://app?vid=354a079f-ed28-41a7-a06b-85ab194fda38","ios":"levelo://app?vid=354a079f-ed28-41a7-a06b-85ab194fda38"},"vehicle_type_id":"4","last_reported":1784783705,"current_range_meters":39200,"station_id":"","pricing_plan_id":"cebpf4jnsgd1na2vs0mg"},{"bike_id":"25d63c03-240b-4596-9842-ae7363543101","system_id":"levelo_inurba_marseille","lat":43.33162,"lon":5.37684,"is_reserved":false,"is_disabled":false,"rental_uris":{"android":"levelo://app?vid=25d63c03-240b-4596-9842-ae7363543101","ios":"levelo://app?vid=25d63c03-240b-4596-9842-ae7363543101"},"vehicle_type_id":"4","last_reported":1784783705,"current_range_meters":38000,"station_id":"st_d46cu089ee8s73dldbu0","pricing_plan_id":"cebpf4jnsgd1na2vs0mg"},{"bike_id":"d5ce1f70-45dd-47d5-a2a4-e8a19c2ad395","system_id":"levelo_inurba_marseille","lat":43.23785,"lon":5.36636,"is_reserved":false,"is_disabled":false,"rental_uris":{"android":"levelo://app?vid=d5ce1f70-45dd-47d5-a2a4-e8a19c2ad395","ios":"levelo://app?vid=d5ce1f70-45dd-47d5-a2a4-e8a19c2ad395"},"vehicle_type_id":"4","last_reported":1784783705,"current_range_meters":40000,"station_id":"st_d3nk18o9ro0c73en2l3g","pricing_plan_id":"cebpf4jnsgd1na2vs0mg"},{"bike_id":"6279a519-c54c-47a6-a44a-3f5b690e92ea","system_id":"levelo_inurba_marseille","lat":43.30174,"lon":5.36621,"is_reserved":false,"is_disabled":false,"rental_uris":{"android":"levelo://app?vid=6279a519-c54c-47a6-a44a-3f5b690e92ea","ios":"levelo://app?vid=6279a519-c54c-47a6-a44a-3f5b690e92ea"},