{"last_updated":1738757842,"ttl":60,"version":"2.2","data":{"bikes":[{"bike_id":"5aa17bed-e19f-41ae-9fc6-0f4d961fb09b","system_id":"levelo_inurba_marseille","lat":43.30543,"lon":5.36721,"is_reserved":false,"is_disabled":false,"rental_uris":{"android":"levelo://app?vid=5aa17bed-e19f-41ae-9fc6-0f4d961fb09b","ios":"levelo://app?vid=5aa17bed-e19f-41ae-9fc6-0f4d961fb09b"},"vehicle_type_id":"4","last_reported":1738757842,"current_range_meters":36400,"station_id":"ce4bgrp2rcd13ifvqc9g","pricing_plan_id":"cebpf4jnsgd1na2vs0mg"},{"bike_id":"a5f7c4f5-34ee-4436-8ad6-ab0e42629126","system_id":"levelo_inurba_marseille","lat":43.3133,"lon":5.39698,"is_reserved":false,"is_disabled":false,"rental_uris":{"android":"levelo://app?vid=a5f7c4f5-34ee-4436-8ad6-ab0e42629126","ios":"levelo://app?vid=a5f7c4f5-34ee-4436-8ad6-ab0e42629126"},"vehicle_type_id":"4","last_reported":1738757842,"current_range_meters":27200,"station_id":"ce4bgvp2rcd13ifvqcu0","pricing_plan_id":"cebpf4jnsgd1na2vs0mg"},{"bike_id":"419c8c22-86a4-4ef5-91f4-a06b4c2e4bba","system_id":"levelo_inurba_marseille","lat":43.22932,"lon":5.35381,"is_reserved":false,"is_disabled":false,"rental_uris":{"android":"levelo://app?vid=419c8c22-86a4-4ef5-91f4-a06b4c2e4bba","ios":"levelo://app?vid=419c8c22-86a4-4ef5-91f4-a06b4c2e4bba"},"vehicle_type_id":"4","last_reported":1738757842,"current_range_meters":27200,"station_id":"cpo3532slgdg3j2ikp40","pricing_plan_id":"cebpf4jnsgd1na2vs0mg"},{"bike_id":"19b7fd1b-89ca-4ddd-96ef-12825d225047","system_id":"levelo_inurba_marseille","lat":43.29026,"lon":5.37574,"is_reserved":false,"is_disabled":true,"rental_uris":{"android":"levelo://app?vid=19b7fd1b-89ca-4ddd-96ef-12825d225047","ios":"levelo://app?vid=19b7fd1b-89ca-4ddd-96ef-12825d225047"},"vehicle_type_id":"4","last_reported":1738757842,"current_range_meters":400,"station_id":"ce4bh692rcd13ifvqe90","pricing_plan_id":"cebpf4jnsgd1na2vs0mg"},{"bike_id":"ba05dbef-cf19-40fa-8248-bd31b49bcc49","system_id":"levelo_inurba_marseille","lat":43.25933,"lon":5.40904,"is_reserved":false,"is_disabled":false,"rental_uris":{"android":"levelo://app?vid=ba05dbef-cf19-40fa-8248-bd31b49bcc49","ios":"levelo://app?vid=ba05dbef-cf19-40fa-8248-bd31b49bcc49"},"vehicle_type_id":"4","last_reported":1738757842,"current_range_meters":38800,"station_id":"ce4bhm92rcd13ifvqglg","pricing_plan_id":"cebpf4jnsgd1na2vs0mg"},{"bike_id":"2f0a2b2d-8a8a-4142-bb85-2511658eac70","system_id":"levelo_inurba_marseille","lat":43.28942,"lon":5.36628,"is_reserved":false,"is_disabled":false,"rental_uris":{"android":"levelo://app?vid=2f0a2b2d-8a8a-4142-bb85-2511658eac70","ios":"levelo://app?vid=2f0a2b2d-8a8a-4142-bb85-2511658eac70"},"vehicle_type_id":"4","last_reported":1738757842,"current_range_meters":37600,"station_id":"ce4bhap2rcd13ifvqek0","pricing_plan_id":"cebpf4jnsgd1na2vs0mg"},{"bike_id":"a5c1c6e4-93b1-41f9-9cd6-2e43eca69d7b","system_id":"levelo_inurba_marseille","lat":43.30546,"lon":5.36703,"is_reserved":false,"is_disabled":false,"rental_uris":{"android":"levelo://app?vid=a5c1c6e4-93b1-41f9-9cd6-2e43eca69d7b","ios":"levelo://app?vid=a5c1c6e4-93b1-41f9-9cd6-2e43eca69d7b"},"vehicle_type_id":"4","last_reported":1738757842,"current_range_meters":12400,"station_id":"ce4bgrp2rcd13ifvqc9g","pricing_plan_id":"cebpf4jnsgd1na2vs0mg"},{"bike_id":"8a02c9a1-15e4-471d-ab6d-e972dacf97b1","system_id":"levelo_inurba_marseille","lat":43.30552,"lon":5.36535,"is_reserved":false,"is_disabled":false,"rental_uris":{"android":"levelo://app?vid=8a02c9a1-15e4-471d-ab6d-e972dacf97b1","ios":"levelo://app?vid=8a02c9a1-15e4-471d-ab6d-e972dacf97b1"},"vehicle_type_id":"4","last_reported":1738757842,"current_range_meters":36000,"station_id":"ce4bgs12rcd13ifvqcag","pricing_plan_id":"cebpf4jnsgd1na2vs0mg"},{"bike_id":"e88765a3-c01e-4915-9314-7b0a8b461ddd","system_id":"levelo_inurba_marseille","lat":43.27997,"lon":5.40024,"is_reserved":false,"is_disabled":false,"rental_uris":{"android":"levelo://app?vid=e88765a3-c01e-4915-9314-7b0a8b461ddd","ios":"levelo://app?vid=e88765a3-c01e-4915-9314-7b0a8b461ddd"},"vehicle_type_id":"4","last_reported":1738757842,"current_range_meters":36800,"station_id":"ce4bho92rcd13ifvqh4g","pricing_plan_id":"cebpf4jnsgd1na2vs0mg"},{"bike_id":"caf558c3-a9ad-4fe3-92b6-038f06ef09fe","system_id":"levelo_inurba_marseille","lat":43.23189,"lon":5.35542,"is_reserved":false,"is_disabled":false,"rental_uris":{"android":"levelo://app?vid=caf558c3-a9ad-4fe3-92b6-038f06ef09fe","ios":"levelo://app?vid=caf558c3-a9ad-4fe3-92b6-038f06ef09fe"},"vehicle_type_id":"4","last_reported":1738757842,"current_range_meters":11600,"station_id":"ce4bhu92rcd13ifvqi70","pricing_plan_id":"cebpf4jnsgd1na2vs0mg"},{"bike_id":"aa5e6fb4-4bde-4cef-b777-c0d8866accc0","system_id":"levelo_inurba_marseille","lat":43.26953,"lon":5.38642,"is_reserved":false,"is_disabled":false,"rental_uris":{"android":"levelo://app?vid=aa5e6fb4-4bde-4cef-b777-c0d8866accc0","ios":"levelo://app?vid=aa5e6fb4-4bde-4cef-b777-c0d8866accc0"},"vehicle_type_id":"4","last_reported":1738757842,"current_range_meters":27600,"station_id":"ce4bhh92rcd13ifvqfh0","pricing_plan_id":"cebpf4jnsgd1na2vs0mg"},{"bike_id":"47aff644-5979-478a-a0fd-f3a56ebe8580","system_id":"levelo_inurba_marseille","lat":43.30947,"lon":5.39042,"is_reserved":false,"is_disabled":false,"rental_uris":{"android":"levelo://app?vid=47aff644-5979-478a-a0fd-f3a56ebe8580","ios":"levelo://app?vid=47aff644-5979-478a-a0fd-f3a56ebe8580"},"vehicle_type_id":"4","last_reported":1738757842,"current_range_meters":13600,"station_id":"ce4bgup2rcd13ifvqco0","pricing_plan_id":"cebpf4jnsgd1na2vs0mg"},{"bike_id":"7e19e353-1331-446b-aa47-ecd228ac2406","system_id":"levelo_inurba_marseille","lat":43.30447,"lon":5.3792,"is_reserved":false,"is_disabled":false,"rental_uris":{"android":"levelo://app?vid=7e19e353-1331-446b-aa47-ecd228ac2406","ios":"levelo://app?vid=7e19e353-1331-446b-aa47-ecd228ac2406"},"vehicle_type_id":"4","last_reported":1738757842,"current_range_meters":37600,"station_id":"ce4bgup2rcd13ifvqcn0","pricing_plan_id":"cebpf4jnsgd1na2vs0mg"},{"bike_id":"3b3750dc-9cdb-41a8-a721-f3277ba575c5","system_id":"levelo_inurba_marseille","lat":43.29679,"lon":5.37287,"is_reserved":false,"is_disabled":false,"rental_uris":{"android":"levelo://app?vid=3b3750dc-9cdb-41a8-a721-f3277ba575c5","ios":"levelo://app?vid=3b3750dc-9cdb-41a8-a721-f3277ba575c5"},"vehicle_type_id":"4","last_reported":1738757842,"current_range_meters":18800,"station_id":"ce4bgk12rcd13ifvqbj0","pricing_plan_id":"cebpf4jnsgd1na2vs0mg"},{"bike_id":"0d5fd895-0f10-494e-b501-bf1551cd39bd","system_id":"levelo_inurba_marseille","lat":43.2795,"lon":5.41051,"is_reserved":false,"is_disabled":false,"rental_uris":{"android":"levelo://app?vid=0d5fd895-0f10-494e-b501-bf1551cd39bd","ios":"levelo://app?vid=0d5fd895-0f10-494e-b501-bf1551cd39bd"},"vehicle_type_id":"4","last_reported":1738757842,"current_range_meters":14400,"station_id":"ce4bhnp2rcd13ifvqh0g","pricing_plan_id":"cebpf4jnsgd1na2vs0mg"},{"bike_id":"27788668-d35d-4e3b-b85e-35c52733c3a9","system_id":"levelo_inurba_marseille","lat":43.243866,"lon":5.370724,"is_reserved":false,"is_disabled":false,"rental_uris":{"android":"levelo://app?vid=27788668-d35d-4e3b-b85e-35c52733c3a9","ios":"levelo://app?vid=27788668-d35d-4e3b-b85e-35c52733c3a9"},"vehicle_type_id":"4","last_reported":1738757842,"current_range_meters":6800,"station_id":"ce4bhhh2rcd13ifvqfk0","pricing_plan_id":"cebpf4jnsgd1na2vs0mg"},{"bike_id":"52ec9d16-8d16-4322-a5d9-68534ef66132","system_id":"levelo_inurba_marseille","lat":43.30536,"lon":5.36532,"is_reserved":false,"is_disabled":false,"rental_uris":{"android":"levelo://app?vid=52ec9d16-8d16-4322-a5d9-68534ef66132","ios":"levelo://app?vid=52ec9d16-8d16-4322-a5d9-68534ef66132"},"vehicle_type_id":"4","last_reported":1738757842,"current_range_meters":20400,"station_id":"ce4bgs12rcd13ifvqcag","pricing_plan_id":"cebpf4jnsgd1na2vs0mg"},{"bike_id":"9faedc02-9e18-48a4-bf32-ec0d86769a61","system_id":"levelo_inurba_marseille","lat":43.2929,"lon":5.37447,"is_reserved":false,"is_disabled":false,"rental_uris":{"android":"levelo://app?vid=9faedc02-9e18-48a4-bf32-ec0d86769a61","ios":"levelo://app?vid=9faedc02-9e18-48a4-bf32-ec0d86769a61"},"vehicle_type_id":"4","last_reported":1738757842,"current_range_meters":38800,"station_id":"ce4bgi12rcd13ifvqb70","pricing_plan_id":"cebpf4jnsgd1na2vs0mg"},{"bike_id":"d72f401d-7e85-4e85-abe3-8fc4222030a1","system_id":"levelo_inurba_marseille","lat":43.29964,"lon":5.37762,"is_reserved":false,"is_disabled":false,"rental_uris":{"android":"levelo://app?vid=d72f401d-7e85-4e85-abe3-8fc4222030a1","ios":"levelo://app?vid=d72f401d-7e85-4e85-abe3-8fc4222030a1"},"vehicle_type_id":"4","last_reported":1738757842,"current_range_meters":26000,"station_id":"","pricing_plan_id":"cebpf4jnsgd1na2vs0mg"},{"bike_id":"7c0a5f50-0b9b-43cb-9fcc-ad7d2aace6dd","system_id":"levelo_inurba_marseille","lat":43.29741,"lon":5.37671,"is_reserved":false,"is_disabled":false,"rental_uris":{"android":"levelo://app?vid=7c0a5f50-0b9b-43cb-9fcc-ad7d2aace6dd","ios":"levelo://app?vid=7c0a5f50-0b9b-43cb-9fcc-ad7d2aace6dd"},"vehicle_type_id":"4","last_reported":1738757842,"current_range_meters":30000,"station_id":"ce4bgkh2rcd13ifvqbl0","pricing_plan_id":"cebpf4jnsgd1na2vs0mg"},{"bike_id":"7fce3584-a536-4698-a62e-50e7ebe5cb40","system_id":"levelo_inurba_marseille","lat":43.28706,"lon":5.39989,"is_reserved":false,"is_disabled":false,"rental_uris":{"android":"levelo://app?vid=7fce3584-a536-4698-a62e-50e7ebe5cb40","ios":"levelo://app?vid=7fce3584-a536-4698-a62e-50e7ebe5cb40"},"vehicle_type_id":"4","last_reported":1738757842,"current_range_meters":35600,"station_id":"ce4bho92rcd13ifvqh3g","pricing_plan_id":"cebpf4jnsgd1na2vs0mg"},{"bike_id":"7eaacd34-10f9-4246-8aa1-4a22e07a7c06","system_id":"levelo_inurba_marseille","lat":43.31655,"lon":5.37419,"is_reserved":false,"is_disabled":false,"rental_uris":{"android":"levelo://app?vid=7eaacd34-10f9-4246-8aa1-4a22e07a7c06","ios":"levelo://app?vid=7eaacd34-10f9-4246-8aa1-4a22e07a7c06"},"vehicle_type_id":"4","last_reported":1738757842,"current_range_meters":26800,"station_id":"","pricing_plan_id":"cebpf4jnsgd1na2vs0mg"},{"bike_id":"9febad4e-f695-49ed-82b0-71edd70b75df","system_id":"levelo_inurba_marseille","lat":43.32539,"lon":5.41434,"is_reserved":false,"is_disabled":false,"rental_uris":{"android":"levelo://app?vid=9febad4e-f695-49ed-82b0-71edd70b75df","ios":"levelo://app?vid=9febad4e-f695-49ed-82b0-71edd70b75df"},"vehicle_type_id":"4","last_reported":1738757842,"current_range_meters":28000,"station_id":"ce4bhq12rcd13ifvqhhg","pricing_plan_id":"cebpf4jnsgd1na2vs0mg"},{"bike_id":"5f12060b-9ee7-4a7e-afd6-168eb1ba1fa0","system_id":"levelo_inurba_marseille","lat":43.2668,"lon":5.38266,"is_reserved":false,"is_disabled":false,"rental_uris":{"android":"levelo://app?vid=5f12060b-9ee7-4a7e-afd6-168eb1ba1fa0","ios":"levelo://app?vid=5f12060b-9ee7-4a7e-afd6-168eb1ba1fa0"},"vehicle_type_id":"4","last_reported":1738757842,"current_range_meters":28800,"station_id":"ce4bhg92rcd13ifvqf90","pricing_plan_id":"cebpf4jnsgd1na2vs0mg"},{"bike_id":"9d0de974-8143-4260-8c90-8e26cc33d946","system_id":"levelo_inurba_marseille","lat":43.26014,"lon":5.37571,"is_reserved":false,"is_disabled":false,"rental_uris":{"android":"levelo://app?vid=9d0de974-8143-4260-8c90-8e26cc33d946","ios":"levelo://app?vid=9d0de974-8143-4260-8c90-8e26cc33d946"},"vehicle_type_id":"4","last_reported":1738757842,"current_range_meters":38800,"station_id":"ce4bhgh2rcd13ifvqfa0","pricing_plan_id":"cebpf4jnsgd1na2vs0mg"},{"bike_id":"1a78f126-15bb-40e4-a379-1a33eae10b94","system_id":"levelo_inurba_marseille","lat":43.32107,"lon":5.36797,"is_reserved":false,"is_disabled":false,"rental_uris":{"android":"levelo://app?vid=1a78f126-15bb-40e4-a379-1a33eae10b94","ios":"levelo://app?vid=1a78f126-15bb-40e4-a379-1a33eae10b94"},"vehicle_type_id":"4","last_reported":1738757842,"current_range_meters":36400,"station_id":"ce4bhrh2rcd13ifvqhug","pricing_plan_id":"cebpf4jnsgd1na2vs0mg"},{"bike_id":"c0681d93-6529-4602-8f39-077bbbcffd59","system_id":"levelo_inurba_marseille","lat":43.30476,"lon":5.37911,"is_reserved":false,"is_disabled":false,"rental_uris":{"android":"levelo://app?vid=c0681d93-6529-4602-8f39-077bbbcffd59","ios":"levelo://app?vid=c0681d93-6529-4602-8f39-077bbbcffd59"},"vehicle_type_id":"4","last_reported":1738757842,"current_range_meters":32800,"station_id":"ce4bgup2rcd13ifvqcn0","pricing_plan_id":"cebpf4jnsgd1na2vs0mg"},{"bike_id":"f49db839-cde4-4b48-8e5e-2b64dac550bb","system_id":"levelo_inurba_marseille","lat":43.24167,"lon":5.39739,"is_reserved":false,"is_disabled":false,"rental_uris":{"android":"levelo://app?vid=f49db839-cde4-4b48-8e5e-2b64dac550bb","ios":"levelo://app?vid=f49db839-cde4-4b48-8e5e-2b64dac550bb"},"vehicle_type_id":"4","last_reported":1738757842,"current_range_meters":12400,"station_id":"ce4bhn12rcd13ifvqgpg","pricing_plan_id":"cebpf4jnsgd1na2vs0mg"},{"bike_id":"a31da492-d404-42a4-a173-3e8c75aeef5d","system_id":"levelo_inurba_marseille","lat":43.24392,"lon":5.37054,"is_reserved":false,"is_disabled":false,"rental_uris":{"android":"levelo://app?vid=a31da492-d404-42a4-a173-3e8c75aeef5d","ios":"levelo://app?vid=a31da492-d404-42a4-a173-3e8c75aeef5d"},"vehicle_type_id":"4","last_reported":1738757842,"current_range_meters":38800,"station_id":"ce4bhhh2rcd13ifvqfk0","pricing_plan_id":"cebpf4jnsgd1na2vs0mg"},{"bike_id":"cb993cc7-8249-4238-82ff-391a11ace545","system_id":"levelo_inurba_marseille","lat":43.25823,"lon":5.39438,"is_reserved":false,"is_disabled":false,"rental_uris":{"android":"levelo://app?vid=cb993cc7-8249-4238-82ff-391a11ace545","ios":"levelo://app?vid=cb993cc7-8249-4238-82ff-391a11ace545"},"vehicle_type_id":"4","last_reported":1738757842,"current_range_meters":33200,"station_id":"ce4bhip2rcd13ifvqft0","pricing_plan_id":"cebpf4jnsgd1na2vs0mg"},{"bike_id":"a1a7079b-68b5-45ca-9af8-b6bc9f7cd559","system_id":"levelo_inurba_marseille","lat":43.2294,"lon":5.35382,"is_reserved":false,"is_disabled":false,"rental_uris":{"android":"levelo://app?vid=a1a7079b-68b5-45ca-9af8-b6bc9f7cd559","ios":"levelo://app?vid=a1a7079b-68b5-45ca-9af8-b6bc9f7cd559"},"vehicle_type_id":"4","last_reported":1738757842,"current_range_meters":38800,"station_id":"cpo3532slgdg3j2ikp40","pricing_plan_id":"cebpf4jnsgd1na2vs0mg"},{"bike_id":"4cff4c18-6936-40ba-b1b4-9d0ae4647e78","system_id":"levelo_inurba_marseille","lat":43.27587,"lon":5.38408,"is_reserved":false,"is_disabled":false,"rental_uris":{"android":"levelo://app?vid=4cff4c18-6936-40ba-b1b4-9d0ae4647e78","ios":"levelo://app?vid=4cff4c18-6936-40ba-b1b4-9d0ae4647e78"},"vehicle_type_id":"4","last_reported":1738757842,"current_range_meters":28800,"station_id":"ce4bhh92rcd13ifvqfi0","pricing_plan_id":"cebpf4jnsgd1na2vs0mg"},{"bike_id":"29805978-3f90-4e1f-a2f8-4f8391d994c3","system_id":"levelo_inurba_marseille","lat":43.2418,"lon":5.39731,"is_reserved":false,"is_disabled":false,"rental_uris":{"android":"levelo://app?vid=29805978-3f90-4e1f-a2f8-4f8391d994c3","ios":"levelo://app?vid=29805978-3f90-4e1f-a2f8-4f8391d994c3"},"vehicle_type_id":"4","last_reported":1738757842,"current_range_meters":18000,"station_id":"ce4bhn12rcd13ifvqgpg","pricing_plan_id":"cebpf4jnsgd1na2vs0mg"},{"bike_id":"e900f4fe-f287-4f7a-a111-e62d22c31fb5","system_id":"levelo_inurba_marseille","lat":43.25582,"lon":5.38239,"is_reserved":false,"is_disabled":false,"rental_uris":{"android":"levelo://app?vid=e900f4fe-f287-4f7a-a111-e62d22c31fb5","ios":"levelo://app?vid=e900f4fe-f287-4f7a-a111-e62d22c31fb5"},"vehicle_type_id":"4","last_reported":1738757842,"current_range_meters":28400,"station_id":"ce4bhih2rcd13ifvqfs0","pricing_plan_id":"cebpf4jnsgd1na2vs0mg"},{"bike_id":"2f48acad-af82-4a15-94c6-f0f82402ac60","system_id":"levelo_inurba_marseille","lat":43.29261,"lon":5.40895,"is_reserved":false,"is_disabled":false,"rental_uris":{"android":"levelo://app?vid=2f48acad-af82-4a15-94c6-f0f82402ac60","ios":"levelo://app?vid=2f48acad-af82-4a15-94c6-f0f82402ac60"},"vehicle_type_id":"4","last_reported":1738757842,"current_range_meters":35200,"station_id":"ce4bh192rcd13ifvqdc0","pricing_plan_id":"cebpf4jnsgd1na2vs0mg"},{"bike_id":"3726dff5-00e4-45e5-9db7-c906f7e13ea9","system_id":"levelo_inurba_marseille","lat":43.27187,"lon":5.41012,"is_reserved":false,"is_disabled":false,"rental_uris":{"android":"levelo://app?vid=3726dff5-00e4-45e5-9db7-c906f7e13ea9","ios":"levelo://app?vid=3726dff5-00e4-45e5-9db7-c906f7e13ea9"},"vehicle_type_id":"4","last_reported":1738757842,"current_range_meters":38800,"station_id":"ce4bhl12rcd13ifvqgf0","pricing_plan_id":"cebpf4jnsgd1na2vs0mg"},{"bike_id":"a328a08b-d655-414a-9313-b094b6f8080a","system_id":"levelo_inurba_marseille","lat":43.283569,"lon":5.381095,"is_reserved":false,"is_disabled":false,"rental_uris":{"android":"levelo://app?vid=a328a08b-d655-414a-9313-b094b6f8080a","ios":"levelo://app?vid=a328a08b-d655-414a-9313-b094b6f8080a"},"vehicle_type_id":"4","last_reported":1738757842,"current_range_meters":19200,"station_id":"ce4bh412rcd13ifvqdr0","pricing_plan_id":"cebpf4jnsgd1na2vs0mg"},{"bike_id":"101a3db2-bd4e-4e61-bcd9-4cd3d1af1d3a","system_id":"levelo_inurba_marseille","lat":43.25883,"lon":5.40899,"is_reserved":false,"is_disabled":false,"rental_uris":{"android":"levelo://app?vid=101a3db2-bd4e-4e61-bcd9-4cd3d1af1d3a","ios":"levelo://app?vid=101a3db2-bd4e-4e61-bcd9-4cd3d1af1d3a"},"vehicle_type_id":"4","last_reported":1738757842,"current_range_meters":24800,"station_id":"ce4bhm92rcd13ifvqglg","pricing_plan_id":"cebpf4jnsgd1na2vs0mg"},{"bike_id":"efeedd80-0c81-42fa-8a36-3e98e49e5526","system_id":"levelo_inurba_marseille","lat":43.30271,"lon":5.37718,"is_reserved":false,"is_disabled":false,"rental_uris":{"android":"levelo://app?vid=efeedd80-0c81-42fa-8a36-3e98e49e5526","ios":"levelo://app?vid=efeedd80-0c81-42fa-8a36-3e98e49e5526"},"vehicle_type_id":"4","last_reported":1738757842,"current_range_meters":35600,"station_id":"ce4bguh2rcd13ifvqcj0","pricing_plan_id":"cebpf4jnsgd1na2vs0mg"},{"bike_id":"272335b6-dc24-496f-b8c5-36817206bf50","system_id":"levelo_inurba_marseille","lat":43.29896,"lon":5.4368,"is_reserved":false,"is_disabled":false,"rental_uris":{"android":"levelo://app?vid=272335b6-dc24-496f-b8c5-36817206bf50","ios":"levelo://app?vid=272335b6-dc24-496f-b8c5-36817206bf50"},"vehicle_type_id":"4","last_reported":1738757842,"current_range_meters":38400,"station_id":"ce4bhpp2rcd13ifvqhfg","pricing_plan_id":"cebpf4jnsgd1na2vs0mg"},{"bike_id":"30ad2c1b-d91a-4c69-b941-7d3c940f9ac5","system_id":"levelo_inurba_marseille","lat":43.3054,"lon":5.36702,"is_reserved":false,"is_disabled":false,"rental_uris":{"android":"levelo://app?vid=30ad2c1b-d91a-4c69-b941-7d3c940f9ac5","ios":"levelo://app?vid=30ad2c1b-d91a-4c69-b941-7d3c940f9ac5"},"vehicle_type_id":"4","last_reported":1738757842,"current_range_meters":39200,"station_id":"ce4bgrp2rcd13ifvqc9g","pricing_plan_id":"cebpf4jnsgd1na2vs0mg"},{"bike_id":"952e6e12-213f-4bcf-8828-6f9ea8db246a","system_id":"levelo_inurba_marseille","lat":43.29802,"lon":5.40399,"is_reserved":false,"is_disabled":false,"rental_uris":{"android":"levelo://app?vid=952e6e12-213f-4bcf-8828-6f9ea8db246a","ios":"levelo://app?vid=952e6e12-213f-4bcf-8828-6f9ea8db246a"},"vehicle_type_id":"4","last_reported":1738757842,"current_range_meters":25200,"station_id":"ce4bh112rcd13ifvqd90","pricing_plan_id":"cebpf4jnsgd1na2vs0mg"},{"bike_id":"3da5457c-cdb4-4aeb-957b-2e6717ef6025","system_id":"levelo_inurba_marseille","lat":43.29277,"lon":5.40122,"is_reserved":false,"is_disabled":false,"rental_uris":{"android":"levelo://app?vid=3da5457c-cdb4-4aeb-957b-2e6717ef6025","ios":"levelo://app?vid=3da5457c-cdb4-4aeb-957b-2e6717ef6025"},"vehicle_type_id":"4","last_reported":1738757842,"current_range_meters":8000,"station_id":"ce4bh312rcd13ifvqdk0","pricing_plan_id":"cebpf4jnsgd1na2vs0mg"},{"bike_id":"f307f8ea-df8b-425d-97d7-c4f570c0ee32","system_id":"levelo_inurba_marseille","lat":43.23968,"lon":5.36632,"is_reserved":false,"is_disabled":false,"rental_uris":{"android":"levelo://app?vid=f307f8ea-df8b-425d-97d7-c4f570c0ee32","ios":"levelo://app?vid=f307f8ea-df8b-425d-97d7-c4f570c0ee32"},"vehicle_type_id":"4","last_reported":1738757842,"current_range_meters":22000,"station_id":"ce4bhi12rcd13ifvqfp0","pricing_plan_id":"cebpf4jnsgd1na2vs0mg"},{"bike_id":"4873a298-537f-4b01-ad4d-faf422dc98cf","system_id":"levelo_inurba_marseille","lat":43.24073,"lon":5.37764,"is_reserved":false,"is_disabled":false,"rental_uris":{"android":"levelo://app?vid=4873a298-537f-4b01-ad4d-faf422dc98cf","ios":"levelo://app?vid=4873a298-537f-4b01-ad4d-faf422dc98cf"},"vehicle_type_id":"4","last_reported":1738757842,"current_range_meters":36800,"station_id":"ce4bhnp2rcd13ifvqgvg","pricing_plan_id":"cebpf4jnsgd1na2vs0mg"},{"bike_id":"1a0a1318-2eaf-4c5e-8997-d9853050b307","system_id":"levelo_inurba_marseille","lat":43.28393,"lon":5.37539,"is_reserved":false,"is_disabled":false,"rental_uris":{"android":"levelo://app?vid=1a0a1318-2eaf-4c5e-8997-d9853050b307","ios":"levelo://app?vid=1a0a1318-2eaf-4c5e-8997-d9853050b307"},"vehicle_type_id":"4","last_reported":1738757842,"current_range_meters":36800,"station_id":"ce4bh412rcd13ifvqds0","pricing_plan_id":"cebpf4jnsgd1na2vs0mg"},{"bike_id":"97b9c541-f7d7-4d87-8a62-8efbf594f545","system_id":"levelo_inurba_marseille","lat":43.2962,"lon":5.37157,"is_reserved":false,"is_disabled":false,"rental_uris":{"android":"levelo://app?vid=97b9c541-f7d7-4d87-8a62-8efbf594f545","ios":"levelo://app?vid=97b9c541-f7d7-4d87-8a62-8efbf594f545"},"vehicle_type_id":"4","last_reported":1738757842,"current_range_meters":38400,"station_id":"ce4bgnh2rcd13ifvqc0g","pricing_plan_id":"cebpf4jnsgd1na2vs0mg"},{"bike_id":"3a5aa9c9-bc8f-448e-aeb5-c9e98d56970c","system_id":"levelo_inurba_marseille","lat":43.33629,"lon":5.41064,"is_reserved":false,"is_disabled":false,"rental_uris":{"android":"levelo://app?vid=3a5aa9c9-bc8f-448e-aeb5-c9e98d56970c","ios":"levelo://app?vid=3a5aa9c9-bc8f-448e-aeb5-c9e98d56970c"},"vehicle_type_id":"4","last_reported":1738757842,"current_range_meters":38800,"station_id":"ce4bhqh2rcd13ifvqhmg","pricing_plan_id":"cebpf4jnsgd1na2vs0mg"},{"bike_id":"ac251f54-af43-45a8-8c07-60983b7767db","system_id":"levelo_inurba_marseille","lat":43.29261,"lon":5.40898,"is_reserved":false,"is_disabled":false,"rental_uris":{"android":"levelo://app?vid=ac251f54-af43-45a8-8c07-60983b7767db","ios":"levelo://app?vid=ac251f54-af43-45a8-8c07-60983b7767db"},"vehicle_type_id":"4","last_reported":1738757842,"current_range_meters":27200,"station_id":"ce4bh192rcd13ifvqdc0","pricing_plan_id":"cebpf4jnsgd1na2vs0mg"},{"bike_id":"ca3721f7-080c-44bf-8f62-de54b11f91f0","system_id":"levelo_inurba_marseille","lat":43.34154,"lon":5.40904,"is_reserved":false,"is_disabled":false,"rental_uris":{"android":"levelo://app?vid=ca3721f7-080c-44bf-8f62-de54b11f91f0","ios":"levelo://app?vid=ca3721f7-080c-44bf-8f62-de54b11f91f0"},"vehicle_type_id":"4","last_reported":1738757842,"current_range_meters":38000,"station_id":"ce4bhqh2rcd13ifvqhlg","pricing_plan_id":"cebpf4jnsgd1na2vs0mg"},{"bike_id":"d7612fe3-c24f-460a-978f-01663b32ea49","system_id":"levelo_inurba_marseille","lat":43.30526,"lon":5.36708,"is_reserved":false,"is_disabled":false,"rental_uris":{"android":"levelo://app?vid=d7612fe3-c24f-460a-978f-01663b32ea49","ios":"levelo://app?vid=d7612fe3-c24f-460a-978f-01663b32ea49"},"vehicle_type_id":"4","last_reported":1738757842,"current_range_meters":39200,"station_id":"ce4bgrp2rcd13ifvqc9g","pricing_plan_id":"cebpf4jnsgd1na2vs0mg"},{"bike_id":"653436b1-1b8b-4453-82bf-cecf51b0d3ee","system_id":"levelo_inurba_marseille","lat":43.28264,"lon":5.35076,"is_reserved":false,"is_disabled":false,"rental_uris":{"android":"levelo://app?vid=653436b1-1b8b-4453-82bf-cecf51b0d3ee","ios":"levelo://app?vid=653436b1-1b8b-4453-82bf-cecf51b0d3ee"},"vehicle_type_id":"4","last_reported":1738757842,"current_range_meters":24400,"station_id":"ce4bhbp2rcd13ifvqerg","pricing_plan_id":"cebpf4jnsgd1na2vs0mg"},{"bike_id":"2cd60774-c2f8-4e8f-9236-a6b0c03a1062","system_id":"levelo_inurba_marseille","lat":43.28075,"lon":5.39659,"is_reserved":false,"is_disabled":false,"rental_uris":{"android":"levelo://app?vid=2cd60774-c2f8-4e8f-9236-a6b0c03a1062","ios":"levelo://app?vid=2cd60774-c2f8-4e8f-9236-a6b0c03a1062"},"vehicle_type_id":"4","last_reported":1738757842,"current_range_meters":14000,"station_id":"ce4bho12rcd13ifvqh2g","pricing_plan_id":"cebpf4jnsgd1na2vs0mg"},{"bike_id":"d5398a11-b971-4a82-be89-062640bc35cf","system_id":"levelo_inurba_marseille","lat":43.29156,"lon":5.3716,"is_reserved":false,"is_disabled":false,"rental_uris":{"android":"levelo://app?vid=d5398a11-b971-4a82-be89-062640bc35cf","ios":"levelo://app?vid=d5398a11-b971-4a82-be89-062640bc35cf"},"vehicle_type_id":"4","last_reported":1738757842,"current_range_meters":21600,"station_id":"ce4bha92rcd13ifvqeh0","pricing_plan_id":"cebpf4jnsgd1na2vs0mg"},{"bike_id":"c132f3a2-7282-4e51-a347-2a5cf3fc73b5","system_id":"levelo_inurba_marseille","lat":43.28853,"lon":5.35855,"is_reserved":false,"is_disabled":false,"rental_uris":{"android":"levelo://app?vid=c132f3a2-7282-4e51-a347-2a5cf3fc73b5","ios":"levelo://app?vid=c132f3a2-7282-4e51-a347-2a5cf3fc73b5"},"vehicle_type_id":"4","last_reported":1738757842,"current_range_meters":29600,"station_id":"ce4bhb12rcd13ifvqem0","pricing_plan_id":"cebpf4jnsgd1na2vs0mg"},{"bike_id":"e040da88-b421-4173-9ede-61ba1a6ca5b4","system_id":"levelo_inurba_marseille","lat":43.241801,"lon":5.39725,"is_reserved":false,"is_disabled":false,"rental_uris":{"android":"levelo://app?vid=e040da88-b421-4173-9ede-61ba1a6ca5b4","ios":"levelo://app?vid=e040da88-b421-4173-9ede-61ba1a6ca5b4"},"vehicle_type_id":"4","last_reported":1738757842,"current_range_meters":18000,"station_id":"ce4bhn12rcd13ifvqgpg","pricing_plan_id":"cebpf4jnsgd1na2vs0mg"},{"bike_id":"6712f04b-f35d-4e3a-a70d-c89aec85d9b2","system_id":"levelo_inurba_marseille","lat":43.229269,"lon":5.353865,"is_reserved":false,"is_disabled":false,"rental_uris":{"android":"levelo://app?vid=6712f04b-f35d-4e3a-a70d-c89aec85d9b2","ios":"levelo://app?vid=6712f04b-f35d-4e3a-a70d-c89aec85d9b2"},"vehicle_type_id":"4","last_reported":1738757842,"current_range_meters":38800,"station_id":"cpo3532slgdg3j2ikp40","pricing_plan_id":"cebpf4jnsgd1na2vs0mg"},{"bike_id":"29dfd09b-926a-4021-a747-3f3d5c88979b","system_id":"levelo_inurba_marseille","lat":43.29229,"lon":5.36071,"is_reserved":false,"is_disabled":false,"rental_uris":{"android":"levelo://app?vid=29dfd09b-926a-4021-a747-3f3d5c88979b","ios":"levelo://app?vid=29dfd09b-926a-4021-a747-3f3d5c88979b"},"vehicle_type_id":"4","last_reported":1738757842,"current_range_meters":22000,"station_id":"ce4bhbh2rcd13ifvqeqg","pricing_plan_id":"cebpf4jnsgd1na2vs0mg"},{"bike_id":"4f35438d-9f37-4c00-b460-49b0bc0ce787","system_id":"levelo_inurba_marseille","lat":43.29722,"lon":5.37689,"is_reserved":false,"is_disabled":false,"rental_uris":{"android":"levelo://app?vid=4f35438d-9f37-4c00-b460-49b0bc0ce787","ios":"levelo://app?vid=4f35438d-9f37-4c00-b460-49b0bc0ce787"},"vehicle_type_id":"4","last_reported":1738757842,"current_range_meters":21600,"station_id":"ce4bgkh2rcd13ifvqbl0","pricing_plan_id":"cebpf4jnsgd1na2vs0mg"},{"bike_id":"5ea2a550-3391-42ff-9a63-a359ef251c82","system_id":"levelo_inurba_marseille","lat":43.29552,"lon":5.3753,"is_reserved":false,"is_disabled":false,"rental_uris":{"android":"levelo://app?vid=5ea2a550-3391-42ff-9a63-a359ef251c82","ios":"levelo://app?vid=5ea2a550-3391-42ff-9a63-a359ef251c82"},"vehicle_type_id":"4","last_reported":1738757842,"current_range_meters":30400,"station_id":"ce4bgh92rcd13ifvqb50","pricing_plan_id":"cebpf4jnsgd1na2vs0mg"},{"bike_id":"77437042-6ea6-40e2-8057-29357ea0de65","system_id":"levelo_inurba_marseille","lat":43.298392,"lon":5.376519,"is_reserved":false,"is_disabled":false,"rental_uris":{"android":"levelo://app?vid=77437042-6ea6-40e2-8057-29357ea0de65","ios":"levelo://app?vid=77437042-6ea6-40e2-8057-29357ea0de65"},"vehicle_type_id":"4","last_reported":1738757842,"current_range_meters":24800,"station_id":"ce4bh192rcd13ifvqdb0","pricing_plan_id":"cebpf4jnsgd1na2vs0mg"},{"bike_id":"bcc8494f-f711-4028-b967-14ccd0896ec6","system_id":"levelo_inurba_marseille","lat":43.29269,"lon":5.36841,"is_reserved":false,"is_disabled":false,"rental_uris":{"android":"levelo://app?vid=bcc8494f-f711-4028-b967-14ccd0896ec6","ios":"levelo://app?vid=bcc8494f-f711-4028-b967-14ccd0896ec6"},"vehicle_type_id":"4","last_reported":1738757842,"current_range_meters":36800,"station_id":"ce4bhbp2rcd13ifvqesg","pricing_plan_id":"cebpf4jnsgd1na2vs0mg"},{"bike_id":"d044d032-8863-41d8-9a88-2dbf40dcd03f","system_id":"levelo_inurba_marseille","lat":43.30139,"lon":5.37423,"is_reserved":false,"is_disabled":false,"rental_uris":{"android":"levelo://app?vid=d044d032-8863-41d8-9a88-2dbf40dcd03f","ios":"levelo://app?vid=d044d032-8863-41d8-9a88-2dbf40dcd03f"},"vehicle_type_id":"4","last_reported":1738757842,"current_range_meters":22400,"station_id":"ce4bgs92rcd13ifvqcc0","pricing_plan_id":"cebpf4jnsgd1na2vs0mg"},{"bike_id":"0a340a50-c9b3-4c87-88da-a62208ff40c7","system_id":"levelo_inurba_marseille","lat":43.30545,"lon":5.36714,"is_reserved":false,"is_disabled":false,"rental_uris":{"android":"levelo://app?vid=0a340a50-c9b3-4c87-88da-a62208ff40c7","ios":"levelo://app?vid=0a340a50-c9b3-4c87-88da-a62208ff40c7"},"vehicle_type_id":"4","last_reported":1738757842,"current_range_meters":38400,"station_id":"ce4bgrp2rcd13ifvqc9g","pricing_plan_id":"cebpf4jnsgd1na2vs0mg"},{"bike_id":"de694774-9793-4667-8df6-e704d7e12d31","system_id":"levelo_inurba_marseille","lat":43.29316,"lon":5.37437,"is_reserved":false,"is_disabled":false,"rental_uris":{"android":"levelo://app?vid=de694774-9793-4667-8df6-e704d7e12d31","ios":"levelo://app?vid=de694774-9793-4667-8df6-e704d7e12d31"},"vehicle_type_id":"4","last_reported":1738757842,"current_range_meters":27200,"station_id":"ce4bgi12rcd13ifvqb70","pricing_plan_id":"cebpf4jnsgd1na2vs0mg"},{"bike_id":"a40aacc6-415e-4488-b378-adb168d6f7f3","system_id":"levelo_inurba_marseille","lat":43.29052,"lon":5.35923,"is_reserved":false,"is_disabled":false,"rental_uris":{"android":"levelo://app?vid=a40aacc6-415e-4488-b378-adb168d6f7f3","ios":"levelo://app?vid=a40aacc6-415e-4488-b378-adb168d6f7f3"},"vehicle_type_id":"4","last_reported":1738757842,"current_range_meters":38800,"station_id":"ce4bha92rcd13ifvqeg0","pricing_plan_id":"cebpf4jnsgd1na2vs0mg"},{"bike_id":"37f58142-e4da-4fa5-b6ac-f1f84075e5c0","system_id":"levelo_inurba_marseille","lat":43.29629,"lon":5.37151,"is_reserved":false,"is_disabled":true,"rental_uris":{"android":"levelo://app?vid=37f58142-e4da-4fa5-b6ac-f1f84075e5c0","ios":"levelo://app?vid=37f58142-e4da-4fa5-b6ac-f1f84075e5c0"},"vehicle_type_id":"4","last_reported":1738757842,"current_range_meters":38000,"station_id":"ce4bgnh2rcd13ifvqc0g","pricing_plan_id":"cebpf4jnsgd1na2vs0mg"},{"bike_id":"418a6265-78aa-49e8-9c6b-9f8f3ecea02a","system_id":"levelo_inurba_marseille","lat":43.28435,"lon":5.39207,"is_reserved":false,"is_disabled":false,"rental_uris":{"android":"levelo://app?vid=418a6265-78aa-49e8-9c6b-9f8f3ecea02a","ios":"levelo://app?vid=418a6265-78aa-49e8-9c6b-9f8f3ecea02a"},"vehicle_type_id":"4","last_reported":1738757842,"current_range_meters":32400,"station_id":"ce4bhoh2rcd13ifvqh5g","pricing_plan_id":"cebpf4jnsgd1na2vs0mg"},{"bike_id":"415e88c0-043a-4f21-acfb-bf5f3e9a1eb7","system_id":"levelo_inurba_marseille","lat":43.30586,"lon":5.39363,"is_reserved":false,"is_disabled":false,"rental_uris":{"android":"levelo://app?vid=415e88c0-043a-4f21-acfb-bf5f3e9a1eb7","ios":"levelo://app?vid=415e88c0-043a-4f21-acfb-bf5f3e9a1eb7"},"vehicle_type_id":"4","last_reported":1738757842,"current_range_meters":26800,"station_id":"ce4bh0p2rcd13ifvqd80","pricing_plan_id":"cebpf4jnsgd1na2vs0mg"},{"bike_id":"99101bb2-676f-4e90-aea8-a8cd02d62c71","system_id":"levelo_inurba_marseille","lat":43.25732,"lon":5.411,"is_reserved":false,"is_disabled":false,"rental_uris":{"android":"levelo://app?vid=99101bb2-676f-4e90-aea8-a8cd02d62c71","ios":"levelo://app?vid=99101bb2-676f-4e90-aea8-a8cd02d62c71"},"vehicle_type_id":"4","last_reported":1738757842,"current_range_meters":35600,"station_id":"ce4bhkp2rcd13ifvqgd0","pricing_plan_id":"cebpf4jnsgd1na2vs0mg"},{"bike_id":"9fa6de76-e609-4c72-8e60-948046040770","system_id":"levelo_inurba_marseille","lat":43.26714,"lon":5.38262,"is_reserved":false,"is_disabled":false,"rental_uris":{"android":"levelo://app?vid=9fa6de76-e609-4c72-8e60-948046040770","ios":"levelo://app?vid=9fa6de76-e609-4c72-8e60-948046040770"},"vehicle_type_id":"4","last_reported":1738757842,"current_range_meters":39200,"station_id":"ce4bhg92rcd13ifvqf90","pricing_plan_id":"cebpf4jnsgd1na2vs0mg"},{"bike_id":"96db26f3-6182-45b1-98ca-6576a1e2e797","system_id":"levelo_inurba_marseille","lat":43.25498,"lon":5.37658,"is_reserved":false,"is_disabled":false,"rental_uris":{"android":"levelo://app?vid=96db26f3-6182-45b1-98ca-6576a1e2e797","ios":"levelo://app?vid=96db26f3-6182-45b1-98ca-6576a1e2e797"},"vehicle_type_id":"4","last_reported":1738757842,"current_range_meters":18800,"station_id":"ce4bhh12rcd13ifvqff0","pricing_plan_id":"cebpf4jnsgd1na2vs0mg"},{"bike_id":"cf7204b7-a08d-4e6f-b3cc-3bbf4a4eb7a5","system_id":"levelo_inurba_marseille","lat":43.29354,"lon":5.37862,"is_reserved":false,"is_disabled":false,"rental_uris":{"android":"levelo://app?vid=cf7204b7-a08d-4e6f-b3cc-3bbf4a4eb7a5","ios":"levelo://app?vid=cf7204b7-a08d-4e6f-b3cc-3bbf4a4eb7a5"},"vehicle_type_id":"4","last_reported":1738757842,"current_range_meters":38800,"station_id":"ce4bgjh2rcd13ifvqbf0","pricing_plan_id":"cebpf4jnsgd1na2vs0mg"},{"bike_id":"3ab0ceb6-cd89-477f-8038-1be761eb4bda","system_id":"levelo_inurba_marseille","lat":43.29517,"lon":5.37506,"is_reserved":false,"is_disabled":true,"rental_uris":{"android":"levelo://app?vid=3ab0ceb6-cd89-477f-8038-1be761eb4bda","ios":"levelo://app?vid=3ab0ceb6-cd89-477f-8038-1be761eb4bda"},"vehicle_type_id":"4","last_reported":1738757842,"current_range_meters":38800,"station_id":"ce4bgkp2rcd13ifvqbmg","pricing_plan_id":"cebpf4jnsgd1na2vs0mg"},{"bike_id":"496310f9-20d4-472f-8dcd-1fcbf1a417a3","system_id":"levelo_inurba_marseille","lat":43.24379,"lon":5.37076,"is_reserved":false,"is_disabled":false,"rental_uris":{"android":"levelo://app?vid=496310f9-20d4-472f-8dcd-1fcbf1a417a3","ios":"levelo://app?vid=496310f9-20d4-472f-8dcd-1fcbf1a417a3"},"vehicle_type_id":"4","last_reported":1738757842,"current_range_meters":38800,"station_id":"ce4bhhh2rcd13ifvqfk0","pricing_plan_id":"cebpf4jnsgd1na2vs0mg"},{"bike_id":"74428db9-8b35-4d93-bd8a-dfbe302fe6c7","system_id":"levelo_inurba_marseille","lat":43.26945,"lon":5.40257,"is_reserved":false,"is_disabled":false,"rental_uris":{"android":"levelo://app?vid=74428db9-8b35-4d93-bd8a-dfbe302fe6c7","ios":"levelo://app?vid=74428db9-8b35-4d93-bd8a-dfbe302fe6c7"},"vehicle_type_id":"4","last_reported":1738757842,"current_range_meters":27600,"station_id":"cjm6bp8fraef2m0cb0m0","pricing_plan_id":"cebpf4jnsgd1na2vs0mg"},{"bike_id":"c85a26e1-f53e-4ec1-b1ea-8b32d23f1f4d","system_id":"levelo_inurba_marseille","lat":43.230524,"lon":5.355008,"is_reserved":false,"is_disabled":false,"rental_uris":{"android":"levelo://app?vid=c85a26e1-f53e-4ec1-b1ea-8b32d23f1f4d","ios":"levelo://app?vid=c85a26e1-f53e-4ec1-b1ea-8b32d23f1f4d"},"vehicle_type_id":"4","last_reported":1738757842,"current_range_meters":22800,"station_id":"cpo3342slgdg3j2ifvpg","pricing_plan_id":"cebpf4jnsgd1na2vs0mg"},{"bike_id":"512a3a23-b079-4568-bc04-d9235c65b5d3","system_id":"levelo_inurba_marseille","lat":43.23965,"lon":5.36633,"is_reserved":false,"is_disabled":false,"rental_uris":{"android":"levelo://app?vid=512a3a23-b079-4568-bc04-d9235c65b5d3","ios":"levelo://app?vid=512a3a23-b079-4568-bc04-d9235c65b5d3"},"vehicle_type_id":"4","last_reported":1738757842,"current_range_meters":38800,"station_id":"ce4bhi12rcd13ifvqfp0","pricing_plan_id":"cebpf4jnsgd1na2vs0mg"},{"bike_id":"bd2c8631-5885-47e9-a4c3-f8cf7762eef5","system_id":"levelo_inurba_marseille","lat":43.24175,"lon":5.39731,"is_reserved":false,"is_disabled":false,"rental_uris":{"android":"levelo://app?vid=bd2c8631-5885-47e9-a4c3-f8cf7762eef5","ios":"levelo://app?vid=bd2c8631-5885-47e9-a4c3-f8cf7762eef5"},"vehicle_type_id":"4","last_reported":1738757842,"current_range_meters":38800,"station_id":"ce4bhn12rcd13ifvqgpg","pricing_plan_id":"cebpf4jnsgd1na2vs0mg"},{"bike_id":"3a8e027c-0654-4850-bb93-ff1d8db3dc3e","system_id":"levelo_inurba_marseille","lat":43.31216,"lon":5.36863,"is_reserved":false,"is_disabled":false,"rental_uris":{"android":"levelo://app?vid=3a8e027c-0654-4850-bb93-ff1d8db3dc3e","ios":"levelo://app?vid=3a8e027c-0654-4850-bb93-ff1d8db3dc3e"},"vehicle_type_id":"4","last_reported":1738757842,"current_range_meters":38800,"station_id":"ce4bgl92rcd13ifvqbq0","pricing_plan_id":"cebpf4jnsgd1na2vs0mg"},{"bike_id":"5ea5eb05-5bd6-4282-99db-c909d570cbdb","system_id":"levelo_inurba_marseille","lat":43.27813,"lon":5.40728,"is_reserved":false,"is_disabled":false,"rental_uris":{"android":"levelo://app?vid=5ea5eb05-5bd6-4282-99db-c909d570cbdb","ios":"levelo://app?vid=5ea5eb05-5bd6-4282-99db-c909d570cbdb"},"vehicle_type_id":"4","last_reported":1738757842,"current_range_meters":15200,"station_id":"ce4bhnh2rcd13ifvqgtg","pricing_plan_id":"cebpf4jnsgd1na2vs0mg"},{"bike_id":"10f65f88-bf3b-4c22-b65b-bc92d9c2c8d3","system_id":"levelo_inurba_marseille","lat":43.29376,"lon":5.37859,"is_reserved":false,"is_disabled":false,"rental_uris":{"android":"levelo://app?vid=10f65f88-bf3b-4c22-b65b-bc92d9c2c8d3","ios":"levelo://app?vid=10f65f88-bf3b-4c22-b65b-bc92d9c2c8d3"},"vehicle_type_id":"4","last_reported":1738757842,"current_range_meters":38800,"station_id":"ce4bgjh2rcd13ifvqbf0","pricing_plan_id":"cebpf4jnsgd1na2vs0mg"},{"bike_id":"61ce449a-c0d5-47da-b89f-b234e70ba1cc","system_id":"levelo_inurba_marseille","lat":43.26194,"lon":5.37935,"is_reserved":false,"is_disabled":false,"rental_uris":{"android":"levelo://app?vid=61ce449a-c0d5-47da-b89f-b234e70ba1cc","ios":"levelo://app?vid=61ce449a-c0d5-47da-b89f-b234e70ba1cc"},"vehicle_type_id":"4","last_reported":1738757842,"current_range_meters":36800,"station_id":"ce4bhjp2rcd13ifvqg90","pricing_plan_id":"cebpf4jnsgd1na2vs0mg"},{"bike_id":"63c732f1-6e14-42c0-89fa-de14ad6b19d9","system_id":"levelo_inurba_marseille","lat":43.27068,"lon":5.40262,"is_reserved":false,"is_disabled":false,"rental_uris":{"android":"levelo://app?vid=63c732f1-6e14-42c0-89fa-de14ad6b19d9","ios":"levelo://app?vid=63c732f1-6e14-42c0-89fa-de14ad6b19d9"},"vehicle_type_id":"4","last_reported":1738757842,"current_range_meters":28000,"station_id":"ce4bhk92rcd13ifvqgc0","pricing_plan_id":"cebpf4jnsgd1na2vs0mg"},{"bike_id":"c644fe7c-e90b-45f3-8ac2-8bc5eae3a4cf","system_id":"levelo_inurba_marseille","lat":43.304719,"lon":5.37909,"is_reserved":false,"is_disabled":false,"rental_uris":{"android":"levelo://app?vid=c644fe7c-e90b-45f3-8ac2-8bc5eae3a4cf","ios":"levelo://app?vid=c644fe7c-e90b-45f3-8ac2-8bc5eae3a4cf"},"vehicle_type_id":"4","last_reported":1738757842,"current_range_meters":36800,"station_id":"ce4bgup2rcd13ifvqcn0","pricing_plan_id":"cebpf4jnsgd1na2vs0mg"},{"bike_id":"7bf1dd2a-42c4-4b8e-ad09-ace0d60f7028","system_id":"levelo_inurba_marseille","lat":43.30558,"lon":5.36542,"is_reserved":false,"is_disabled":false,"rental_uris":{"android":"levelo://app?vid=7bf1dd2a-42c4-4b8e-ad09-ace0d60f7028","ios":"levelo://app?vid=7bf1dd2a-42c4-4b8e-ad09-ace0d60f7028"},"vehicle_type_id":"4","last_reported":1738757842,"current_range_meters":38400,"station_id":"ce4bgs12rcd13ifvqcag","pricing_plan_id":"cebpf4jnsgd1na2vs0mg"},{"bike_id":"2e1fd84a-93c0-4e60-908d-3675bdd34c0e","system_id":"levelo_inurba_marseille","lat":43.22932,"lon":5.35382,"is_reserved":false,"is_disabled":false,"rental_uris":{"android":"levelo://app?vid=2e1fd84a-93c0-4e60-908d-3675bdd34c0e","ios":"levelo://app?vid=2e1fd84a-93c0-4e60-908d-3675bdd34c0e"},"vehicle_type_id":"4","last_reported":1738757842,"current_range_meters":4800,"station_id":"cpo3532slgdg3j2ikp40","pricing_plan_id":"cebpf4jnsgd1na2vs0mg"},{"bike_id":"589a0d6a-3f59-4c10-b4aa-574eabb1c9aa","system_id":"levelo_inurba_marseille","lat":43.30453,"lon":5.37915,"is_reserved":false,"is_disabled":false,"rental_uris":{"android":"levelo://app?vid=589a0d6a-3f59-4c10-b4aa-574eabb1c9aa","ios":"levelo://app?vid=589a0d6a-3f59-4c10-b4aa-574eabb1c9aa"},"vehicle_type_id":"4","last_reported":1738757842,"current_range_meters":10000,"station_id":"ce4bgup2rcd13ifvqcn0","pricing_plan_id":"cebpf4jnsgd1na2vs0mg"},{"bike_id":"962646f7-90d3-45dd-b3f9-254502912c1d","system_id":"levelo_inurba_marseille","lat":43.29307,"lon":5.37432,"is_reserved":false,"is_disabled":false,"rental_uris":{"android":"levelo://app?vid=962646f7-90d3-45dd-b3f9-254502912c1d","ios":"levelo://app?vid=962646f7-90d3-45dd-b3f9-254502912c1d"},"vehicle_type_id":"4","last_reported":1738757842,"current_range_meters":38800,"station_id":"ce4bgi12rcd13ifvqb70","pricing_plan_id":"cebpf4jnsgd1na2vs0mg"},{"bike_id":"19dd9c2e-cef0-4d2b-a66c-51d7760c52c3","system_id":"levelo_inurba_marseille","lat":43.30536,"lon":5.36535,"is_reserved":false,"is_disabled":false,"rental_uris":{"android":"levelo://app?vid=19dd9c2e-cef0-4d2b-a66c-51d7760c52c3","ios":"levelo://app?vid=19dd9c2e-cef0-4d2b-a66c-51d7760c52c3"},"vehicle_type_id":"4","last_reported":1738757842,"current_range_meters":34800,"station_id":"ce4bgs12rcd13ifvqcag","pricing_plan_id":"cebpf4jnsgd1na2vs0mg"},{"bike_id":"d2b2e907-7a69-440c-88ca-229f2450e34a","system_id":"levelo_inurba_marseille","lat":43.25864,"lon":5.39907,"is_reserved":false,"is_disabled":false,"rental_uris":{"android":"levelo://app?vid=d2b2e907-7a69-440c-88ca-229f2450e34a","ios":"levelo://app?vid=d2b2e907-7a69-440c-88ca-229f2450e34a"},"vehicle_type_id":"4","last_reported":1738757842,"current_range_meters":38800,"station_id":"ce4bhl92rcd13ifvqghg","pricing_plan_id":"cebpf4jnsgd1na2vs0mg"},{"bike_id":"2039c178-8e51-43d4-b13f-17a2fd3cc418","system_id":"levelo_inurba_marseille","lat":43.28726,"lon":5.36086,"is_reserved":false,"is_disabled":false,"rental_uris":{"android":"levelo://app?vid=2039c178-8e51-43d4-b13f-17a2fd3cc418","ios":"levelo://app?vid=2039c178-8e51-43d4-b13f-17a2fd3cc418"},"vehicle_type_id":"4","last_reported":1738757842,"current_range_meters":30800,"station_id":"cki0cbj6b192h4jlfktg","pricing_plan_id":"cebpf4jnsgd1na2vs0mg"},{"bike_id":"35b0fbe6-22db-46fb-a54a-76af362a8729","system_id":"levelo_inurba_marseille","lat":43.29975,"lon":5.41328,"is_reserved":false,"is_disabled":false,"rental_uris":{"android":"levelo://app?vid=35b0fbe6-22db-46fb-a54a-76af362a8729","ios":"levelo://app?vid=35b0fbe6-22db-46fb-a54a-76af362a8729"},"vehicle_type_id":"4","last_reported":1738757842,"current_range_meters":38000,"station_id":"ce4bhp12rcd13ifvqh9g","pricing_plan_id":"cebpf4jnsgd1na2vs0mg"},{"bike_id":"e0f7f9ed-22a0-47a7-b08f-334aecb96c7a","system_id":"levelo_inurba_marseille","lat":43.30307,"lon":5.36918,"is_reserved":false,"is_disabled":false,"rental_uris":{"android":"levelo://app?vid=e0f7f9ed-22a0-47a7-b08f-334aecb96c7a","ios":"levelo://app?vid=e0f7f9ed-22a0-47a7-b08f-334aecb96c7a"},"vehicle_type_id":"4","last_reported":1738757842,"current_range_meters":10800,"station_id":"ce4bgqh2rcd13ifvqc5g","pricing_plan_id":"cebpf4jnsgd1na2vs0mg"},{"bike_id":"857707e2-f97f-4393-895f-aef91c3932b1","system_id":"levelo_inurba_marseille","lat":43.30001,"lon":5.3717,"is_reserved":false,"is_disabled":false,"rental_uris":{"android":"levelo://app?vid=857707e2-f97f-4393-895f-aef91c3932b1","ios":"levelo://app?vid=857707e2-f97f-4393-895f-aef91c3932b1"},"vehicle_type_id":"4","last_reported":1738757842,"current_range_meters":39200,"station_id":"ce4bgr92rcd13ifvqc7g","pricing_plan_id":"cebpf4jnsgd1na2vs0mg"},{"bike_id":"0b1b75a1-0ce5-4184-82d2-fae6b81d6c22","system_id":"levelo_inurba_marseille","lat":43.29779,"lon":5.3936,"is_reserved":false,"is_disabled":false,"rental_uris":{"android":"levelo://app?vid=0b1b75a1-0ce5-4184-82d2-fae6b81d6c22","ios":"levelo://app?vid=0b1b75a1-0ce5-4184-82d2-fae6b81d6c22"},"vehicle_type_id":"4","last_reported":1738757842,"current_range_meters":14400,"station_id":"chh1huq6cuj3fo74tm60","pricing_plan_id":"cebpf4jnsgd1na2vs0mg"},{"bike_id":"8b27c785-e8a4-4099-a8e3-d9ab004ead95","system_id":"levelo_inurba_marseille","lat":43.29607,"lon":5.37726,"is_reserved":false,"is_disabled":false,"rental_uris":{"android":"levelo://app?vid=8b27c785-e8a4-4099-a8e3-d9ab004ead95","ios":"levelo://app?vid=8b27c785-e8a4-4099-a8e3-d9ab004ead95"},"vehicle_type_id":"4","last_reported":1738757842,"current_range_meters":26000,"station_id":"ce4bgi92rcd13ifvqb90","pricing_plan_id":"cebpf4jnsgd1na2vs0mg"},{"bike_id":"2f9a6647-bfb0-4c5f-b2d5-6b23d0794b76","system_id":"levelo_inurba_marseille","lat":43.25565,"lon":5.38222,"is_reserved":false,"is_disabled":true,"rental_uris":{"android":"levelo://app?vid=2f9a6647-bfb0-4c5f-b2d5-6b23d0794b76","ios":"levelo://app?vid=2f9a6647-bfb0-4c5f-b2d5-6b23d0794b76"},"vehicle_type_id":"4","last_reported":1738757842,"current_range_meters":38000,"station_id":"ce4bhih2rcd13ifvqfs0","pricing_plan_id":"cebpf4jnsgd1na2vs0mg"},{"bike_id":"c8cee3c4-e922-472f-b388-6c63ff351d10","system_id":"levelo_inurba_marseille","lat":43.31092,"lon":5.38353,"is_reserved":false,"is_disabled":false,"rental_uris":{"android":"levelo://app?vid=c8cee3c4-e922-472f-b388-6c63ff351d10","ios":"levelo://app?vid=c8cee3c4-e922-472f-b388-6c63ff351d10"},"vehicle_type_id":"4","last_reported":1738757842,"current_range_meters":32000,"station_id":"ce4bgv92rcd13ifvqcr0","pricing_plan_id":"cebpf4jnsgd1na2vs0mg"},{"bike_id":"ea6909c8-24f9-4bcf-8882-99e672644073","system_id":"levelo_inurba_marseille","lat":43.24707,"lon":5.38151,"is_reserved":false,"is_disabled":false,"rental_uris":{"android":"levelo://app?vid=ea6909c8-24f9-4bcf-8882-99e672644073","ios":"levelo://app?vid=ea6909c8-24f9-4bcf-8882-99e672644073"},"vehicle_type_id":"4","last_reported":1738757842,"current_range_meters":30400,"station_id":"","pricing_plan_id":"cebpf4jnsgd1na2vs0mg"},{"bike_id":"8989d86a-2936-4947-91c6-699fd4e9161c","system_id":"levelo_inurba_marseille","lat":43.28157,"lon":5.42647,"is_reserved":false,"is_disabled":false,"rental_uris":{"android":"levelo://app?vid=8989d86a-2936-4947-91c6-699fd4e9161c","ios":"levelo://app?vid=8989d86a-2936-4947-91c6-699fd4e9161c"},"vehicle_type_id":"4","last_reported":1738757842,"current_range_meters":32800,"station_id":"ce4bhnh2rcd13ifvqgug","pricing_plan_id":"cebpf4jnsgd1na2vs0mg"},{"bike_id":"918cd003-67b8-472e-a6c6-83ef5c6b9293","system_id":"levelo_inurba_marseille","lat":43.29203,"lon":5.3581,"is_reserved":false,"is_disabled":false,"rental_uris":{"android":"levelo://app?vid=918cd003-67b8-472e-a6c6-83ef5c6b9293","ios":"levelo://app?vid=918cd003-67b8-472e-a6c6-83ef5c6b9293"},"vehicle_type_id":"4","last_reported":1738757842,"current_range_meters":38800,"station_id":"ce4bhb12rcd13ifvqel0","pricing_plan_id":"cebpf4jnsgd1na2vs0mg"},{"bike_id":"ff52f4b1-a06d-475c-b0fc-ce6749154097","system_id":"levelo_inurba_marseille","lat":43.27056,"lon":5.40267,"is_reserved":false,"is_disabled":false,"rental_uris":{"android":"levelo://app?vid=ff52f4b1-a06d-475c-b0fc-ce6749154097","ios":"levelo://app?vid=ff52f4b1-a06d-475c-b0fc-ce6749154097"},"vehicle_type_id":"4","last_reported":1738757842,"current_range_meters":8400,"station_id":"ce4bhk92rcd13ifvqgc0","pricing_plan_id":"cebpf4jnsgd1na2vs0mg"},{"bike_id":"0945cc57-f6c6-40a1-9efe-22ef3d055290","system_id":"levelo_inurba_marseille","lat":43.31352,"lon":5.38507,"is_reserved":false,"is_disabled":false,"rental_uris":{"android":"levelo://app?vid=0945cc57-f6c6-40a1-9efe-22ef3d055290","ios":"levelo://app?vid=0945cc57-f6c6-40a1-9efe-22ef3d055290"},"vehicle_type_id":"4","last_reported":1738757842,"current_range_meters":11600,"station_id":"ce4bgt92rcd13ifvqcf0","pricing_plan_id":"cebpf4jnsgd1na2vs0mg"},{"bike_id":"ed23ba12-9a7f-4d3e-8d39-fe22944d264f","system_id":"levelo_inurba_marseille","lat":43.27325,"lon":5.39126,"is_reserved":false,"is_disabled":false,"rental_uris":{"android":"levelo://app?vid=ed23ba12-9a7f-4d3e-8d39-fe22944d264f","ios":"levelo://app?vid=ed23ba12-9a7f-4d3e-8d39-fe22944d264f"},"vehicle_type_id":"4","last_reported":1738757842,"current_range_meters":36800,"station_id":"ce4bhgp2rcd13ifvqfe0","pricing_plan_id":"cebpf4jnsgd1na2vs0mg"},{"bike_id":"7d5a071b-33d0-4a99-a7a2-905e423e155c","system_id":"levelo_inurba_marseille","lat":43.2396,"lon":5.36654,"is_reserved":false,"is_disabled":false,"rental_uris":{"android":"levelo://app?vid=7d5a071b-33d0-4a99-a7a2-905e423e155c","ios":"levelo://app?vid=7d5a071b-33d0-4a99-a7a2-905e423e155c"},"vehicle_type_id":"4","last_reported":1738757842,"current_range_meters":36800,"station_id":"ce4bhi12rcd13ifvqfp0","pricing_plan_id":"cebpf4jnsgd1na2vs0mg"},{"bike_id":"fbd766c0-6681-45ed-80c8-184f3306d736","system_id":"levelo_inurba_marseille","lat":43.28269,"lon":5.35076,"is_reserved":false,"is_disabled":false,"rental_uris":{"android":"levelo://app?vid=fbd766c0-6681-45ed-80c8-184f3306d736","ios":"levelo://app?vid=fbd766c0-6681-45ed-80c8-184f3306d736"},"vehicle_type_id":"4","last_reported":1738757842,"current_range_meters":38800,"station_id":"ce4bhbp2rcd13ifvqerg","pricing_plan_id":"cebpf4jnsgd1na2vs0mg"},{"bike_id":"89b32141-deec-4ab8-b516-3ba379978149","system_id":"levelo_inurba_marseille","lat":43.28611,"lon":5.35112,"is_reserved":false,"is_disabled":false,"rental_uris":{"android":"levelo://app?vid=89b32141-deec-4ab8-b516-3ba379978149","ios":"levelo://app?vid=89b32141-deec-4ab8-b516-3ba379978149"},"vehicle_type_id":"4","last_reported":1738757842,"current_range_meters":26800,"station_id":"ce4bhch2rcd13ifvqeug","pricing_plan_id":"cebpf4jnsgd1na2vs0mg"},{"bike_id":"931c3b97-cce1-4ebe-a291-6c50a6f2810e","system_id":"levelo_inurba_marseille","lat":43.31793,"lon":5.37435,"is_reserved":false,"is_disabled":false,"rental_uris":{"android":"levelo://app?vid=931c3b97-cce1-4ebe-a291-6c50a6f2810e","ios":"levelo://app?vid=931c3b97-cce1-4ebe-a291-6c50a6f2810e"},"vehicle_type_id":"4","last_reported":1738757842,"current_range_meters":6800,"station_id":"","pricing_plan_id":"cebpf4jnsgd1na2vs0mg"},{"bike_id":"d1d51ec2-e1ab-4b92-9a4b-f935b04ef436","system_id":"levelo_inurba_marseille","lat":43.25012,"lon":5.38919,"is_reserved":false,"is_disabled":false,"rental_uris":{"android":"levelo://app?vid=d1d51ec2-e1ab-4b92-9a4b-f935b04ef436","ios":"levelo://app?vid=d1d51ec2-e1ab-4b92-9a4b-f935b04ef436"},"vehicle_type_id":"4","last_reported":1738757842,"current_range_meters":19200,"station_id":"ce4bhgp2rcd13ifvqfd0","pricing_plan_id":"cebpf4jnsgd1na2vs0mg"},{"bike_id":"7d44cb31-d01e-4547-9973-dcd3966d8338","system_id":"levelo_inurba_marseille","lat":43.29341,"lon":5.37858,"is_reserved":false,"is_disabled":false,"rental_uris":{"android":"levelo://app?vid=7d44cb31-d01e-4547-9973-dcd3966d8338","ios":"levelo://app?vid=7d44cb31-d01e-4547-9973-dcd3966d8338"},"vehicle_type_id":"4","last_reported":1738757842,"current_range_meters":38800,"station_id":"ce4bgjh2rcd13ifvqbf0","pricing_plan_id":"cebpf4jnsgd1na2vs0mg"},{"bike_id":"7a2080c9-d44a-471c-9acd-526428e8e5dc","system_id":"levelo_inurba_marseille","lat":43.22935,"lon":5.35383,"is_reserved":false,"is_disabled":false,"rental_uris":{"android":"levelo://app?vid=7a2080c9-d44a-471c-9acd-526428e8e5dc","ios":"levelo://app?vid=7a2080c9-d44a-471c-9acd-526428e8e5dc"},"vehicle_type_id":"4","last_reported":1738757842,"current_range_meters":38800,"station_id":"cpo3532slgdg3j2ikp40","pricing_plan_id":"cebpf4jnsgd1na2vs0mg"},{"bike_id":"5e7872bf-6d44-4209-9e94-a728a908b09f","system_id":"levelo_inurba_marseille","lat":43.31325,"lon":5.39713,"is_reserved":false,"is_disabled":false,"rental_uris":{"android":"levelo://app?vid=5e7872bf-6d44-4209-9e94-a728a908b09f","ios":"levelo://app?vid=5e7872bf-6d44-4209-9e94-a728a908b09f"},"vehicle_type_id":"4","last_reported":1738757842,"current_range_meters":18000,"station_id":"ce4bgvp2rcd13ifvqcu0","pricing_plan_id":"cebpf4jnsgd1na2vs0mg"},{"bike_id":"3cffe561-5575-4d5f-9a3c-4ee740a5b122","system_id":"levelo_inurba_marseille","lat":43.27963,"lon":5.41048,"is_reserved":false,"is_disabled":false,"rental_uris":{"android":"levelo://app?vid=3cffe561-5575-4d5f-9a3c-4ee740a5b122","ios":"levelo://app?vid=3cffe561-5575-4d5f-9a3c-4ee740a5b122"},"vehicle_type_id":"4","last_reported":1738757842,"current_range_meters":24800,"station_id":"ce4bhnp2rcd13ifvqh0g","pricing_plan_id":"cebpf4jnsgd1na2vs0mg"},{"bike_id":"f307dfc9-492f-427c-886b-0aebd0c4a217","system_id":"levelo_inurba_marseille","lat":43.241672,"lon":5.363987,"is_reserved":false,"is_disabled":false,"rental_uris":{"android":"levelo://app?vid=f307dfc9-492f-427c-886b-0aebd0c4a217","ios":"levelo://app?vid=f307dfc9-492f-427c-886b-0aebd0c4a217"},"vehicle_type_id":"4","last_reported":1738757842,"current_range_meters":38800,"station_id":"cpo36qri1sfpv3e86is0","pricing_plan_id":"cebpf4jnsgd1na2vs0mg"},{"bike_id":"d072c010-73fa-400d-8636-51b04a852a25","system_id":"levelo_inurba_marseille","lat":43.2904,"lon":5.39955,"is_reserved":false,"is_disabled":false,"rental_uris":{"android":"levelo://app?vid=d072c010-73fa-400d-8636-51b04a852a25","ios":"levelo://app?vid=d072c010-73fa-400d-8636-51b04a852a25"},"vehicle_type_id":"4","last_reported":1738757842,"current_range_meters":38800,"station_id":"ce4bh392rcd13ifvqdm0","pricing_plan_id":"cebpf4jnsgd1na2vs0mg"},{"bike_id":"246926c2-4963-42b8-9129-7edcdb3dd594","system_id":"levelo_inurba_marseille","lat":43.24667,"lon":5.38143,"is_reserved":false,"is_disabled":false,"rental_uris":{"android":"levelo://app?vid=246926c2-4963-42b8-9129-7edcdb3dd594","ios":"levelo://app?vid=246926c2-4963-42b8-9129-7edcdb3dd594"},"vehicle_type_id":"4","last_reported":1738757842,"current_range_meters":29600,"station_id":"ce4bhih2rcd13ifvqfr0","pricing_plan_id":"cebpf4jnsgd1na2vs0mg"},{"bike_id":"105d373f-59ec-404c-812c-8dc6f147012e","system_id":"levelo_inurba_marseille","lat":43.30142,"lon":5.38764,"is_reserved":false,"is_disabled":false,"rental_uris":{"android":"levelo://app?vid=105d373f-59ec-404c-812c-8dc6f147012e","ios":"levelo://app?vid=105d373f-59ec-404c-812c-8dc6f147012e"},"vehicle_type_id":"4","last_reported":1738757842,"current_range_meters":38400,"station_id":"ce4bhoh2rcd13ifvqh6g","pricing_plan_id":"cebpf4jnsgd1na2vs0mg"},{"bike_id":"4474def6-45ac-40e3-b9b5-6505df2c0234","system_id":"levelo_inurba_marseille","lat":43.30142,"lon":5.3741,"is_reserved":false,"is_disabled":false,"rental_uris":{"android":"levelo://app?vid=4474def6-45ac-40e3-b9b5-6505df2c0234","ios":"levelo://app?vid=4474def6-45ac-40e3-b9b5-6505df2c0234"},"vehicle_type_id":"4","last_reported":1738757842,"current_range_meters":28000,"station_id":"ce4bgs92rcd13ifvqcc0","pricing_plan_id":"cebpf4jnsgd1na2vs0mg"},{"bike_id":"fc34d4a5-d155-4e65-9b57-5b5b88ec9869","system_id":"levelo_inurba_marseille","lat":43.27429,"lon":5.3942,"is_reserved":false,"is_disabled":false,"rental_uris":{"android":"levelo://app?vid=fc34d4a5-d155-4e65-9b57-5b5b88ec9869","ios":"levelo://app?vid=fc34d4a5-d155-4e65-9b57-5b5b88ec9869"},"vehicle_type_id":"4","last_reported":1738757842,"current_range_meters":38400,"station_id":"ce4bhdp2rcd13ifvqf20","pricing_plan_id":"cebpf4jnsgd1na2vs0mg"},{"bike_id":"448a689e-af6c-4f92-9f89-b02f7ed2ec01","system_id":"levelo_inurba_marseille","lat":43.28122,"lon":5.3786,"is_reserved":false,"is_disabled":true,"rental_uris":{"android":"levelo://app?vid=448a689e-af6c-4f92-9f89-b02f7ed2ec01","ios":"levelo://app?vid=448a689e-af6c-4f92-9f89-b02f7ed2ec01"},"vehicle_type_id":"4","last_reported":1738757842,"current_range_meters":12000,"station_id":"ce4bha12rcd13ifvqee0","pricing_plan_id":"cebpf4jnsgd1na2vs0mg"},{"bike_id":"8e0a0553-d4ce-4a58-bdf9-cddf2b79af95","system_id":"levelo_inurba_marseille","lat":43.27992,"lon":5.40012,"is_reserved":false,"is_disabled":false,"rental_uris":{"android":"levelo://app?vid=8e0a0553-d4ce-4a58-bdf9-cddf2b79af95","ios":"levelo://app?vid=8e0a0553-d4ce-4a58-bdf9-cddf2b79af95"},"vehicle_type_id":"4","last_reported":1738757842,"current_range_meters":38400,"station_id":"ce4bho92rcd13ifvqh4g","pricing_plan_id":"cebpf4jnsgd1na2vs0mg"},{"bike_id":"abd07a97-530b-4fc0-93db-ff4b041bb8b9","system_id":"levelo_inurba_marseille","lat":43.30248,"lon":5.3664,"is_reserved":false,"is_disabled":false,"rental_uris":{"android":"levelo://app?vid=abd07a97-530b-4fc0-93db-ff4b041bb8b9","ios":"levelo://app?vid=abd07a97-530b-4fc0-93db-ff4b041bb8b9"},"vehicle_type_id":"4","last_reported":1738757842,"current_range_meters":30400,"station_id":"ce4bgrh2rcd13ifvqc8g","pricing_plan_id":"cebpf4jnsgd1na2vs0mg"},{"bike_id":"f1220f4e-b70d-4edc-947e-272ae3d4c0d7","system_id":"levelo_inurba_marseille","lat":43.33598,"lon":5.41036,"is_reserved":false,"is_disabled":false,"rental_uris":{"android":"levelo://app?vid=f1220f4e-b70d-4edc-947e-272ae3d4c0d7","ios":"levelo://app?vid=f1220f4e-b70d-4edc-947e-272ae3d4c0d7"},"vehicle_type_id":"4","last_reported":1738757842,"current_range_meters":22800,"station_id":"ce4bhqh2rcd13ifvqhmg","pricing_plan_id":"cebpf4jnsgd1na2vs0mg"},{"bike_id":"3ed2f346-3cdc-4051-b18a-2a05168e6e32","system_id":"levelo_inurba_marseille","lat":43.31087,"lon":5.40078,"is_reserved":false,"is_disabled":false,"rental_uris":{"android":"levelo://app?vid=3ed2f346-3cdc-4051-b18a-2a05168e6e32","ios":"levelo://app?vid=3ed2f346-3cdc-4051-b18a-2a05168e6e32"},"vehicle_type_id":"4","last_reported":1738757842,"current_range_meters":33200,"station_id":"","pricing_plan_id":"cebpf4jnsgd1na2vs0mg"},{"bike_id":"bc4186b3-1073-492b-ab95-0326a7b12d0e","system_id":"levelo_inurba_marseille","lat":43.28405,"lon":5.34998,"is_reserved":false,"is_disabled":false,"rental_uris":{"android":"levelo://app?vid=bc4186b3-1073-492b-ab95-0326a7b12d0e","ios":"levelo://app?vid=bc4186b3-1073-492b-ab95-0326a7b12d0e"},"vehicle_type_id":"4","last_reported":1738757842,"current_range_meters":36400,"station_id":"ce4bhbh2rcd13ifvqepg","pricing_plan_id":"cebpf4jnsgd1na2vs0mg"},{"bike_id":"250c053a-2ed4-4f30-a613-a41a8404b3b5","system_id":"levelo_inurba_marseille","lat":43.2705,"lon":5.40267,"is_reserved":false,"is_disabled":false,"rental_uris":{"android":"levelo://app?vid=250c053a-2ed4-4f30-a613-a41a8404b3b5","ios":"levelo://app?vid=250c053a-2ed4-4f30-a613-a41a8404b3b5"},"vehicle_type_id":"4","last_reported":1738757842,"current_range_meters":10000,"station_id":"ce4bhk92rcd13ifvqgc0","pricing_plan_id":"cebpf4jnsgd1na2vs0mg"},{"bike_id":"0389b0e3-bb7d-4743-89c2-0175efe92f67","system_id":"levelo_inurba_marseille","lat":43.32443,"lon":5.36588,"is_reserved":false,"is_disabled":false,"rental_uris":{"android":"levelo://app?vid=0389b0e3-bb7d-4743-89c2-0175efe92f67","ios":"levelo://app?vid=0389b0e3-bb7d-4743-89c2-0175efe92f67"},"vehicle_type_id":"4","last_reported":1738757842,"current_range_meters":26800,"station_id":"ce4bhs12rcd13ifvqhvg","pricing_plan_id":"cebpf4jnsgd1na2vs0mg"},{"bike_id":"0ba40ab8-9849-4ead-ad0d-88b309d7b65e","system_id":"levelo_inurba_marseille","lat":43.29846,"lon":5.36279,"is_reserved":false,"is_disabled":false,"rental_uris":{"android":"levelo://app?vid=0ba40ab8-9849-4ead-ad0d-88b309d7b65e","ios":"levelo://app?vid=0ba40ab8-9849-4ead-ad0d-88b309d7b65e"},"vehicle_type_id":"4","last_reported":1738757842,"current_range_meters":36000,"station_id":"ce4bgpp2rcd13ifvqc3g","pricing_plan_id":"cebpf4jnsgd1na2vs0mg"},{"bike_id":"0a287503-4bf2-4506-8970-2887ee5ee9b1","system_id":"levelo_inurba_marseille","lat":43.27913,"lon":5.3957,"is_reserved":false,"is_disabled":true,"rental_uris":{"android":"levelo://app?vid=0a287503-4bf2-4506-8970-2887ee5ee9b1","ios":"levelo://app?vid=0a287503-4bf2-4506-8970-2887ee5ee9b1"},"vehicle_type_id":"4","last_reported":1738757842,"current_range_meters":1600,"station_id":"ce4bhf92rcd13ifvqf40","pricing_plan_id":"cebpf4jnsgd1na2vs0mg"},{"bike_id":"2b52254f-933d-4903-ac07-21eb27a1e798","system_id":"levelo_inurba_marseille","lat":43.27215,"lon":5.4096,"is_reserved":false,"is_disabled":false,"rental_uris":{"android":"levelo://app?vid=2b52254f-933d-4903-ac07-21eb27a1e798","ios":"levelo://app?vid=2b52254f-933d-4903-ac07-21eb27a1e798"},"vehicle_type_id":"4","last_reported":1738757842,"current_range_meters":6400,"station_id":"ce4bhl12rcd13ifvqgf0","pricing_plan_id":"cebpf4jnsgd1na2vs0mg"},{"bike_id":"b7bd13e5-c5d1-49ba-b847-6300a66edeb5","system_id":"levelo_inurba_marseille","lat":43.30459,"lon":5.37918,"is_reserved":false,"is_disabled":false,"rental_uris":{"android":"levelo://app?vid=b7bd13e5-c5d1-49ba-b847-6300a66edeb5","ios":"levelo://app?vid=b7bd13e5-c5d1-49ba-b847-6300a66edeb5"},"vehicle_type_id":"4","last_reported":1738757842,"current_range_meters":3200,"station_id":"ce4bgup2rcd13ifvqcn0","pricing_plan_id":"cebpf4jnsgd1na2vs0mg"},{"bike_id":"c156d534-867c-4cb8-85fa-d4dea88aaa79","system_id":"levelo_inurba_marseille","lat":43.30554,"lon":5.36696,"is_reserved":false,"is_disabled":false,"rental_uris":{"android":"levelo://app?vid=c156d534-867c-4cb8-85fa-d4dea88aaa79","ios":"levelo://app?vid=c156d534-867c-4cb8-85fa-d4dea88aaa79"},"vehicle_type_id":"4","last_reported":1738757842,"current_range_meters":10000,"station_id":"ce4bgrp2rcd13ifvqc9g","pricing_plan_id":"cebpf4jnsgd1na2vs0mg"},{"bike_id":"5446a734-e212-4c3d-97c0-7e16b7a456b9","system_id":"levelo_inurba_marseille","lat":43.23151,"lon":5.4371,"is_reserved":false,"is_disabled":false,"rental_uris":{"android":"levelo://app?vid=5446a734-e212-4c3d-97c0-7e16b7a456b9","ios":"levelo://app?vid=5446a734-e212-4c3d-97c0-7e16b7a456b9"},"vehicle_type_id":"4","last_reported":1738757842,"current_range_meters":23200,"station_id":"ce4bhmp2rcd13ifvqgog","pricing_plan_id":"cebpf4jnsgd1na2vs0mg"},{"bike_id":"f6b85522-242c-4809-89c8-c383bf89aa65","system_id":"levelo_inurba_marseille","lat":43.301605,"lon":5.374256,"is_reserved":false,"is_disabled":false,"rental_uris":{"android":"levelo://app?vid=f6b85522-242c-4809-89c8-c383bf89aa65","ios":"levelo://app?vid=f6b85522-242c-4809-89c8-c383bf89aa65"},"vehicle_type_id":"4","last_reported":1738757842,"current_range_meters":22400,"station_id":"ce4bgs92rcd13ifvqcc0","pricing_plan_id":"cebpf4jnsgd1na2vs0mg"},{"bike_id":"4059cd97-6ec8-473b-b967-c2a9ac5b5dc7","system_id":"levelo_inurba_marseille","lat":43.25113,"lon":5.40319,"is_reserved":false,"is_disabled":false,"rental_uris":{"android":"levelo://app?vid=4059cd97-6ec8-473b-b967-c2a9ac5b5dc7","ios":"levelo://app?vid=4059cd97-6ec8-473b-b967-c2a9ac5b5dc7"},"vehicle_type_id":"4","last_reported":1738757842,"current_range_meters":25200,"station_id":"ce4bhlh2rcd13ifvqgig","pricing_plan_id":"cebpf4jnsgd1na2vs0mg"},{"bike_id":"2551b22b-c2b7-4ff0-a854-ef42bd591a2f","system_id":"levelo_inurba_marseille","lat":43.23154,"lon":5.43715,"is_reserved":false,"is_disabled":true,"rental_uris":{"android":"levelo://app?vid=2551b22b-c2b7-4ff0-a854-ef42bd591a2f","ios":"levelo://app?vid=2551b22b-c2b7-4ff0-a854-ef42bd591a2f"},"vehicle_type_id":"4","last_reported":1738757842,"current_range_meters":0,"station_id":"ce4bhmp2rcd13ifvqgog","pricing_plan_id":"cebpf4jnsgd1na2vs0mg"},{"bike_id":"df4300bf-56fe-4f1e-b38a-69d54becef9d","system_id":"levelo_inurba_marseille","lat":43.29051,"lon":5.35917,"is_reserved":false,"is_disabled":false,"rental_uris":{"android":"levelo://app?vid=df4300bf-56fe-4f1e-b38a-69d54becef9d","ios":"levelo://app?vid=df4300bf-56fe-4f1e-b38a-69d54becef9d"},"vehicle_type_id":"4","last_reported":1738757842,"current_range_meters":38800,"station_id":"ce4bha92rcd13ifvqeg0","pricing_plan_id":"cebpf4jnsgd1na2vs0mg"},{"bike_id":"e56f7173-ecda-4202-ba3f-0634ea7af8a9","system_id":"levelo_inurba_marseille","lat":43.25582,"lon":5.38234,"is_reserved":false,"is_disabled":false,"rental_uris":{"android":"levelo://app?vid=e56f7173-ecda-4202-ba3f-0634ea7af8a9","ios":"levelo://app?vid=e56f7173-ecda-4202-ba3f-0634ea7af8a9"},"vehicle_type_id":"4","last_reported":1738757842,"current_range_meters":19200,"station_id":"ce4bhih2rcd13ifvqfs0","pricing_plan_id":"cebpf4jnsgd1na2vs0mg"},{"bike_id":"cbc65456-707b-4ddd-b341-f003b676778a","system_id":"levelo_inurba_marseille","lat":43.27806,"lon":5.40728,"is_reserved":false,"is_disabled":false,"rental_uris":{"android":"levelo://app?vid=cbc65456-707b-4ddd-b341-f003b676778a","ios":"levelo://app?vid=cbc65456-707b-4ddd-b341-f003b676778a"},"vehicle_type_id":"4","last_reported":1738757842,"current_range_meters":30000,"station_id":"ce4bhnh2rcd13ifvqgtg","pricing_plan_id":"cebpf4jnsgd1na2vs0mg"},{"bike_id":"afb24665-29eb-4b84-b727-dcf974a337f4","system_id":"levelo_inurba_marseille","lat":43.29232,"lon":5.360577,"is_reserved":false,"is_disabled":false,"rental_uris":{"android":"levelo://app?vid=afb24665-29eb-4b84-b727-dcf974a337f4","ios":"levelo://app?vid=afb24665-29eb-4b84-b727-dcf974a337f4"},"vehicle_type_id":"4","last_reported":1738757842,"current_range_meters":38800,"station_id":"ce4bhbh2rcd13ifvqeqg","pricing_plan_id":"cebpf4jnsgd1na2vs0mg"},{"bike_id":"26d397a9-61ee-400d-a6b0-dc8b026ea3e4","system_id":"levelo_inurba_marseille","lat":43.29625,"lon":5.3717,"is_reserved":false,"is_disabled":false,"rental_uris":{"android":"levelo://app?vid=26d397a9-61ee-400d-a6b0-dc8b026ea3e4","ios":"levelo://app?vid=26d397a9-61ee-400d-a6b0-dc8b026ea3e4"},"vehicle_type_id":"4","last_reported":1738757842,"current_range_meters":30800,"station_id":"ce4bgnh2rcd13ifvqc0g","pricing_plan_id":"cebpf4jnsgd1na2vs0mg"},{"bike_id":"ab2bebbc-c591-4173-a2cd-e741bc7570d0","system_id":"levelo_inurba_marseille","lat":43.28928,"lon":5.36404,"is_reserved":false,"is_disabled":false,"rental_uris":{"android":"levelo://app?vid=ab2bebbc-c591-4173-a2cd-e741bc7570d0","ios":"levelo://app?vid=ab2bebbc-c591-4173-a2cd-e741bc7570d0"},"vehicle_type_id":"4","last_reported":1738757842,"current_range_meters":38800,"station_id":"ce4bhc92rcd13ifvqetg","pricing_plan_id":"cebpf4jnsgd1na2vs0mg"},{"bike_id":"8dcb5648-f815-40ee-a1ef-63cb7b60c563","system_id":"levelo_inurba_marseille","lat":43.31995,"lon":5.38164,"is_reserved":false,"is_disabled":false,"rental_uris":{"android":"levelo://app?vid=8dcb5648-f815-40ee-a1ef-63cb7b60c563","ios":"levelo://app?vid=8dcb5648-f815-40ee-a1ef-63cb7b60c563"},"vehicle_type_id":"4","last_reported":1738757842,"current_range_meters":33200,"station_id":"ce4bhr12rcd13ifvqhpg","pricing_plan_id":"cebpf4jnsgd1na2vs0mg"},{"bike_id":"9c7a4285-87fe-4895-bacb-2b09594c498c","system_id":"levelo_inurba_marseille","lat":43.33024,"lon":5.39044,"is_reserved":false,"is_disabled":false,"rental_uris":{"android":"levelo://app?vid=9c7a4285-87fe-4895-bacb-2b09594c498c","ios":"levelo://app?vid=9c7a4285-87fe-4895-bacb-2b09594c498c"},"vehicle_type_id":"4","last_reported":1738757842,"current_range_meters":38800,"station_id":"ce4bhr92rcd13ifvqhrg","pricing_plan_id":"cebpf4jnsgd1na2vs0mg"},{"bike_id":"a9ee38d0-21e8-4d99-8e3f-cc643e32473e","system_id":"levelo_inurba_marseille","lat":43.27811,"lon":5.40731,"is_reserved":false,"is_disabled":false,"rental_uris":{"android":"levelo://app?vid=a9ee38d0-21e8-4d99-8e3f-cc643e32473e","ios":"levelo://app?vid=a9ee38d0-21e8-4d99-8e3f-cc643e32473e"},"vehicle_type_id":"4","last_reported":1738757842,"current_range_meters":38000,"station_id":"ce4bhnh2rcd13ifvqgtg","pricing_plan_id":"cebpf4jnsgd1na2vs0mg"},{"bike_id":"434bfbd5-da5e-4244-9828-ea3ac5f3e3d5","system_id":"levelo_inurba_marseille","lat":43.27809,"lon":5.407,"is_reserved":false,"is_disabled":false,"rental_uris":{"android":"levelo://app?vid=434bfbd5-da5e-4244-9828-ea3ac5f3e3d5","ios":"levelo://app?vid=434bfbd5-da5e-4244-9828-ea3ac5f3e3d5"},"vehicle_type_id":"4","last_reported":1738757842,"current_range_meters":33600,"station_id":"ce4bhnh2rcd13ifvqgtg","pricing_plan_id":"cebpf4jnsgd1na2vs0mg"},{"bike_id":"630dd466-e4dd-4ada-8a39-01e92abf0818","system_id":"levelo_inurba_marseille","lat":43.26191,"lon":5.3746,"is_reserved":false,"is_disabled":false,"rental_uris":{"android":"levelo://app?vid=630dd466-e4dd-4ada-8a39-01e92abf0818","ios":"levelo://app?vid=630dd466-e4dd-4ada-8a39-01e92abf0818"},"vehicle_type_id":"4","last_reported":1738757842,"current_range_meters":29600,"station_id":"ce4bhgp2rcd13ifvqfc0","pricing_plan_id":"cebpf4jnsgd1na2vs0mg"},{"bike_id":"3c496b65-7c8b-4066-8f78-bbd3dbe046a0","system_id":"levelo_inurba_marseille","lat":43.31221,"lon":5.3685,"is_reserved":false,"is_disabled":false,"rental_uris":{"android":"levelo://app?vid=3c496b65-7c8b-4066-8f78-bbd3dbe046a0","ios":"levelo://app?vid=3c496b65-7c8b-4066-8f78-bbd3dbe046a0"},"vehicle_type_id":"4","last_reported":1738757842,"current_range_meters":38800,"station_id":"ce4bgl92rcd13ifvqbq0","pricing_plan_id":"cebpf4jnsgd1na2vs0mg"},{"bike_id":"cd729f78-86aa-41c6-add3-ce59e1b9dee3","system_id":"levelo_inurba_marseille","lat":43.2439,"lon":5.37064,"is_reserved":false,"is_disabled":false,"rental_uris":{"android":"levelo://app?vid=cd729f78-86aa-41c6-add3-ce59e1b9dee3","ios":"levelo://app?vid=cd729f78-86aa-41c6-add3-ce59e1b9dee3"},"vehicle_type_id":"4","last_reported":1738757842,"current_range_meters":24400,"station_id":"ce4bhhh2rcd13ifvqfk0","pricing_plan_id":"cebpf4jnsgd1na2vs0mg"},{"bike_id":"164d0caf-4978-4f80-b0b9-9a8f2b0ab9d7","system_id":"levelo_inurba_marseille","lat":43.296378,"lon":5.40606,"is_reserved":false,"is_disabled":true,"rental_uris":{"android":"levelo://app?vid=164d0caf-4978-4f80-b0b9-9a8f2b0ab9d7","ios":"levelo://app?vid=164d0caf-4978-4f80-b0b9-9a8f2b0ab9d7"},"vehicle_type_id":"4","last_reported":1738757842,"current_range_meters":30000,"station_id":"ce4bh0h2rcd13ifvqd60","pricing_plan_id":"cebpf4jnsgd1na2vs0mg"},{"bike_id":"41ad3d36-51d8-4204-ae3d-d7c8884b6fab","system_id":"levelo_inurba_marseille","lat":43.2559,"lon":5.38254,"is_reserved":false,"is_disabled":false,"rental_uris":{"android":"levelo://app?vid=41ad3d36-51d8-4204-ae3d-d7c8884b6fab","ios":"levelo://app?vid=41ad3d36-51d8-4204-ae3d-d7c8884b6fab"},"vehicle_type_id":"4","last_reported":1738757842,"current_range_meters":36400,"station_id":"ce4bhih2rcd13ifvqfs0","pricing_plan_id":"cebpf4jnsgd1na2vs0mg"},{"bike_id":"1b9214f8-12f2-4278-99cc-87bfa0cd0c04","system_id":"levelo_inurba_marseille","lat":43.2971,"lon":5.37689,"is_reserved":false,"is_disabled":false,"rental_uris":{"android":"levelo://app?vid=1b9214f8-12f2-4278-99cc-87bfa0cd0c04","ios":"levelo://app?vid=1b9214f8-12f2-4278-99cc-87bfa0cd0c04"},"vehicle_type_id":"4","last_reported":1738757842,"current_range_meters":36800,"station_id":"ce4bgkh2rcd13ifvqbl0","pricing_plan_id":"cebpf4jnsgd1na2vs0mg"},{"bike_id":"a2ba7768-e6f8-4ccb-9b3a-ceb62a2b692a","system_id":"levelo_inurba_marseille","lat":43.28622,"lon":5.35087,"is_reserved":false,"is_disabled":false,"rental_uris":{"android":"levelo://app?vid=a2ba7768-e6f8-4ccb-9b3a-ceb62a2b692a","ios":"levelo://app?vid=a2ba7768-e6f8-4ccb-9b3a-ceb62a2b692a"},"vehicle_type_id":"4","last_reported":1738757842,"current_range_meters":38800,"station_id":"ce4bhch2rcd13ifvqeug","pricing_plan_id":"cebpf4jnsgd1na2vs0mg"},{"bike_id":"e1fd63af-2ded-46aa-b95c-acb582af5c06","system_id":"levelo_inurba_marseille","lat":43.287,"lon":5.39972,"is_reserved":false,"is_disabled":true,"rental_uris":{"android":"levelo://app?vid=e1fd63af-2ded-46aa-b95c-acb582af5c06","ios":"levelo://app?vid=e1fd63af-2ded-46aa-b95c-acb582af5c06"},"vehicle_type_id":"4","last_reported":1738757842,"current_range_meters":0,"station_id":"ce4bho92rcd13ifvqh3g","pricing_plan_id":"cebpf4jnsgd1na2vs0mg"},{"bike_id":"9a8590c5-e934-4c10-a796-7e187c1e4a7c","system_id":"levelo_inurba_marseille","lat":43.320488,"lon":5.41563,"is_reserved":false,"is_disabled":false,"rental_uris":{"android":"levelo://app?vid=9a8590c5-e934-4c10-a796-7e187c1e4a7c","ios":"levelo://app?vid=9a8590c5-e934-4c10-a796-7e187c1e4a7c"},"vehicle_type_id":"4","last_reported":1738757842,"current_range_meters":32400,"station_id":"ce4bhq92rcd13ifvqhkg","pricing_plan_id":"cebpf4jnsgd1na2vs0mg"},{"bike_id":"d374f9a3-8451-45a9-8785-4ba74538d9b0","system_id":"levelo_inurba_marseille","lat":43.28732,"lon":5.40009,"is_reserved":false,"is_disabled":false,"rental_uris":{"android":"levelo://app?vid=d374f9a3-8451-45a9-8785-4ba74538d9b0","ios":"levelo://app?vid=d374f9a3-8451-45a9-8785-4ba74538d9b0"},"vehicle_type_id":"4","last_reported":1738757842,"current_range_meters":34000,"station_id":"ce4bho92rcd13ifvqh3g","pricing_plan_id":"cebpf4jnsgd1na2vs0mg"},{"bike_id":"a1494ae7-67ef-44a8-9c70-bd94083e0e97","system_id":"levelo_inurba_marseille","lat":43.31355,"lon":5.38503,"is_reserved":false,"is_disabled":false,"rental_uris":{"android":"levelo://app?vid=a1494ae7-67ef-44a8-9c70-bd94083e0e97","ios":"levelo://app?vid=a1494ae7-67ef-44a8-9c70-bd94083e0e97"},"vehicle_type_id":"4","last_reported":1738757842,"current_range_meters":22400,"station_id":"ce4bgt92rcd13ifvqcf0","pricing_plan_id":"cebpf4jnsgd1na2vs0mg"},{"bike_id":"d9a60c91-dff2-440d-8b10-c7b78047f228","system_id":"levelo_inurba_marseille","lat":43.272995,"lon":5.391145,"is_reserved":false,"is_disabled":false,"rental_uris":{"android":"levelo://app?vid=d9a60c91-dff2-440d-8b10-c7b78047f228","ios":"levelo://app?vid=d9a60c91-dff2-440d-8b10-c7b78047f228"},"vehicle_type_id":"4","last_reported":1738757842,"current_range_meters":38800,"station_id":"ce4bhgp2rcd13ifvqfe0","pricing_plan_id":"cebpf4jnsgd1na2vs0mg"},{"bike_id":"e7d31327-323a-443c-bb67-39186722e63f","system_id":"levelo_inurba_marseille","lat":43.337773,"lon":5.374352,"is_reserved":false,"is_disabled":false,"rental_uris":{"android":"levelo://app?vid=e7d31327-323a-443c-bb67-39186722e63f","ios":"levelo://app?vid=e7d31327-323a-443c-bb67-39186722e63f"},"vehicle_type_id":"4","last_reported":1738757842,"current_range_meters":22000,"station_id":"","pricing_plan_id":"cebpf4jnsgd1na2vs0mg"},{"bike_id":"68e5a829-ff54-4947-8e53-276919934545","system_id":"levelo_inurba_marseille","lat":43.29029,"lon":5.38655,"is_reserved":false,"is_disabled":false,"rental_uris":{"android":"levelo://app?vid=68e5a829-ff54-4947-8e53-276919934545","ios":"levelo://app?vid=68e5a829-ff54-4947-8e53-276919934545"},"vehicle_type_id":"4","last_reported":1738757842,"current_range_meters":20400,"station_id":"ce4bh4p2rcd13ifvqe0g","pricing_plan_id":"cebpf4jnsgd1na2vs0mg"},{"bike_id":"c4b08fde-c2a2-4986-92a0-5fd948cf1d66","system_id":"levelo_inurba_marseille","lat":43.29529,"lon":5.37505,"is_reserved":false,"is_disabled":false,"rental_uris":{"android":"levelo://app?vid=c4b08fde-c2a2-4986-92a0-5fd948cf1d66","ios":"levelo://app?vid=c4b08fde-c2a2-4986-92a0-5fd948cf1d66"},"vehicle_type_id":"4","last_reported":1738757842,"current_range_meters":12400,"station_id":"ce4bgkp2rcd13ifvqbmg","pricing_plan_id":"cebpf4jnsgd1na2vs0mg"},{"bike_id":"d6e917f0-24c9-4380-972e-b234f5051863","system_id":"levelo_inurba_marseille","lat":43.25119,"lon":5.4032,"is_reserved":false,"is_disabled":false,"rental_uris":{"android":"levelo://app?vid=d6e917f0-24c9-4380-972e-b234f5051863","ios":"levelo://app?vid=d6e917f0-24c9-4380-972e-b234f5051863"},"vehicle_type_id":"4","last_reported":1738757842,"current_range_meters":23200,"station_id":"ce4bhlh2rcd13ifvqgig","pricing_plan_id":"cebpf4jnsgd1na2vs0mg"},{"bike_id":"4ae4a6b1-e3e1-40b8-99c7-f908ec166a85","system_id":"levelo_inurba_marseille","lat":43.26229,"lon":5.4045,"is_reserved":false,"is_disabled":false,"rental_uris":{"android":"levelo://app?vid=4ae4a6b1-e3e1-40b8-99c7-f908ec166a85","ios":"levelo://app?vid=4ae4a6b1-e3e1-40b8-99c7-f908ec166a85"},"vehicle_type_id":"4","last_reported":1738757842,"current_range_meters":36000,"station_id":"ce4bhmh2rcd13ifvqgmg","pricing_plan_id":"cebpf4jnsgd1na2vs0mg"},{"bike_id":"92a20b12-7e57-4201-9f24-507bd1c4a6fe","system_id":"levelo_inurba_marseille","lat":43.287,"lon":5.37387,"is_reserved":false,"is_disabled":false,"rental_uris":{"android":"levelo://app?vid=92a20b12-7e57-4201-9f24-507bd1c4a6fe","ios":"levelo://app?vid=92a20b12-7e57-4201-9f24-507bd1c4a6fe"},"vehicle_type_id":"4","last_reported":1738757842,"current_range_meters":36800,"station_id":"ce4bh3p2rcd13ifvqdq0","pricing_plan_id":"cebpf4jnsgd1na2vs0mg"},{"bike_id":"ee69606c-4c97-488d-8e98-0dc265462512","system_id":"levelo_inurba_marseille","lat":43.28685,"lon":5.38659,"is_reserved":false,"is_disabled":false,"rental_uris":{"android":"levelo://app?vid=ee69606c-4c97-488d-8e98-0dc265462512","ios":"levelo://app?vid=ee69606c-4c97-488d-8e98-0dc265462512"},"vehicle_type_id":"4","last_reported":1738757842,"current_range_meters":39200,"station_id":"ce4bh492rcd13ifvqdug","pricing_plan_id":"cebpf4jnsgd1na2vs0mg"},{"bike_id":"fe89e823-6d60-4a47-9dba-2226014b6cd6","system_id":"levelo_inurba_marseille","lat":43.2968,"lon":5.37298,"is_reserved":false,"is_disabled":false,"rental_uris":{"android":"levelo://app?vid=fe89e823-6d60-4a47-9dba-2226014b6cd6","ios":"levelo://app?vid=fe89e823-6d60-4a47-9dba-2226014b6cd6"},"vehicle_type_id":"4","last_reported":1738757842,"current_range_meters":5600,"station_id":"ce4bgk12rcd13ifvqbj0","pricing_plan_id":"cebpf4jnsgd1na2vs0mg"},{"bike_id":"4e59ede4-6ceb-4f8f-9433-a458be89dd50","system_id":"levelo_inurba_marseille","lat":43.29433,"lon":5.39763,"is_reserved":false,"is_disabled":false,"rental_uris":{"android":"levelo://app?vid=4e59ede4-6ceb-4f8f-9433-a458be89dd50","ios":"levelo://app?vid=4e59ede4-6ceb-4f8f-9433-a458be89dd50"},"vehicle_type_id":"4","last_reported":1738757842,"current_range_meters":9200,"station_id":"ce4bh3h2rcd13ifvqdo0","pricing_plan_id":"cebpf4jnsgd1na2vs0mg"},{"bike_id":"cd07e062-2af1-406e-bcb9-5f1ec4730937","system_id":"levelo_inurba_marseille","lat":43.23067,"lon":5.35496,"is_reserved":false,"is_disabled":false,"rental_uris":{"android":"levelo://app?vid=cd07e062-2af1-406e-bcb9-5f1ec4730937","ios":"levelo://app?vid=cd07e062-2af1-406e-bcb9-5f1ec4730937"},"vehicle_type_id":"4","last_reported":1738757842,"current_range_meters":38800,"station_id":"cpo3342slgdg3j2ifvpg","pricing_plan_id":"cebpf4jnsgd1na2vs0mg"},{"bike_id":"c3644d12-8427-4602-9945-9ef42c46feca","system_id":"levelo_inurba_marseille","lat":43.24166,"lon":5.36407,"is_reserved":false,"is_disabled":false,"rental_uris":{"android":"levelo://app?vid=c3644d12-8427-4602-9945-9ef42c46feca","ios":"levelo://app?vid=c3644d12-8427-4602-9945-9ef42c46feca"},"vehicle_type_id":"4","last_reported":1738757842,"current_range_meters":38800,"station_id":"cpo36qri1sfpv3e86is0","pricing_plan_id":"cebpf4jnsgd1na2vs0mg"},{"bike_id":"6b38d43d-337c-4149-9167-ccfdd61c33a4","system_id":"levelo_inurba_marseille","lat":43.2923,"lon":5.36075,"is_reserved":false,"is_disabled":false,"rental_uris":{"android":"levelo://app?vid=6b38d43d-337c-4149-9167-ccfdd61c33a4","ios":"levelo://app?vid=6b38d43d-337c-4149-9167-ccfdd61c33a4"},"vehicle_type_id":"4","last_reported":1738757842,"current_range_meters":36400,"station_id":"ce4bhbh2rcd13ifvqeqg","pricing_plan_id":"cebpf4jnsgd1na2vs0mg"},{"bike_id":"7d23596a-00e6-4e56-ad39-46bb5cb1e3dd","system_id":"levelo_inurba_marseille","lat":43.28354,"lon":5.38105,"is_reserved":false,"is_disabled":false,"rental_uris":{"android":"levelo://app?vid=7d23596a-00e6-4e56-ad39-46bb5cb1e3dd","ios":"levelo://app?vid=7d23596a-00e6-4e56-ad39-46bb5cb1e3dd"},"vehicle_type_id":"4","last_reported":1738757842,"current_range_meters":6800,"station_id":"ce4bh412rcd13ifvqdr0","pricing_plan_id":"cebpf4jnsgd1na2vs0mg"},{"bike_id":"1e7bde43-ab8f-4755-b59a-acd0a53ae759","system_id":"levelo_inurba_marseille","lat":43.31716,"lon":5.42406,"is_reserved":false,"is_disabled":true,"rental_uris":{"android":"levelo://app?vid=1e7bde43-ab8f-4755-b59a-acd0a53ae759","ios":"levelo://app?vid=1e7bde43-ab8f-4755-b59a-acd0a53ae759"},"vehicle_type_id":"4","last_reported":1738757842,"current_range_meters":0,"station_id":"ce4bhp92rcd13ifvqhbg","pricing_plan_id":"cebpf4jnsgd1na2vs0mg"},{"bike_id":"144d5ef4-9c7a-41fb-b06b-1f4330eee933","system_id":"levelo_inurba_marseille","lat":43.29599,"lon":5.37741,"is_reserved":false,"is_disabled":false,"rental_uris":{"android":"levelo://app?vid=144d5ef4-9c7a-41fb-b06b-1f4330eee933","ios":"levelo://app?vid=144d5ef4-9c7a-41fb-b06b-1f4330eee933"},"vehicle_type_id":"4","last_reported":1738757842,"current_range_meters":39200,"station_id":"ce4bgi92rcd13ifvqb90","pricing_plan_id":"cebpf4jnsgd1na2vs0mg"},{"bike_id":"01e2f24c-572d-4729-bb25-c0cee3de21b4","system_id":"levelo_inurba_marseille","lat":43.30905,"lon":5.36846,"is_reserved":false,"is_disabled":false,"rental_uris":{"android":"levelo://app?vid=01e2f24c-572d-4729-bb25-c0cee3de21b4","ios":"levelo://app?vid=01e2f24c-572d-4729-bb25-c0cee3de21b4"},"vehicle_type_id":"4","last_reported":1738757842,"current_range_meters":38800,"station_id":"ce4bgn92rcd13ifvqbvg","pricing_plan_id":"cebpf4jnsgd1na2vs0mg"},{"bike_id":"85e17bdf-ae6f-4aa8-96f8-6085cf383430","system_id":"levelo_inurba_marseille","lat":43.31221,"lon":5.36829,"is_reserved":false,"is_disabled":false,"rental_uris":{"android":"levelo://app?vid=85e17bdf-ae6f-4aa8-96f8-6085cf383430","ios":"levelo://app?vid=85e17bdf-ae6f-4aa8-96f8-6085cf383430"},"vehicle_type_id":"4","last_reported":1738757842,"current_range_meters":19200,"station_id":"ce4bgl92rcd13ifvqbq0","pricing_plan_id":"cebpf4jnsgd1na2vs0mg"},{"bike_id":"366699a6-df06-42ed-baf0-fee0b43104f1","system_id":"levelo_inurba_marseille","lat":43.24801,"lon":5.37461,"is_reserved":false,"is_disabled":false,"rental_uris":{"android":"levelo://app?vid=366699a6-df06-42ed-baf0-fee0b43104f1","ios":"levelo://app?vid=366699a6-df06-42ed-baf0-fee0b43104f1"},"vehicle_type_id":"4","last_reported":1738757842,"current_range_meters":35600,"station_id":"ce4bhgh2rcd13ifvqfb0","pricing_plan_id":"cebpf4jnsgd1na2vs0mg"},{"bike_id":"dc735b7a-0b82-40a5-96c6-e4633dbfb502","system_id":"levelo_inurba_marseille","lat":43.32478,"lon":5.3657,"is_reserved":false,"is_disabled":false,"rental_uris":{"android":"levelo://app?vid=dc735b7a-0b82-40a5-96c6-e4633dbfb502","ios":"levelo://app?vid=dc735b7a-0b82-40a5-96c6-e4633dbfb502"},"vehicle_type_id":"4","last_reported":1738757842,"current_range_meters":24400,"station_id":"ce4bhs12rcd13ifvqhvg","pricing_plan_id":"cebpf4jnsgd1na2vs0mg"},{"bike_id":"45a7daa2-2a2e-4454-90c3-1009aaecc5bd","system_id":"levelo_inurba_marseille","lat":43.232,"lon":5.35553,"is_reserved":false,"is_disabled":false,"rental_uris":{"android":"levelo://app?vid=45a7daa2-2a2e-4454-90c3-1009aaecc5bd","ios":"levelo://app?vid=45a7daa2-2a2e-4454-90c3-1009aaecc5bd"},"vehicle_type_id":"4","last_reported":1738757842,"current_range_meters":2800,"station_id":"ce4bhu92rcd13ifvqi70","pricing_plan_id":"cebpf4jnsgd1na2vs0mg"},{"bike_id":"aece1634-918f-4f68-8bc7-9a7b7abafc1f","system_id":"levelo_inurba_marseille","lat":43.28147,"lon":5.42667,"is_reserved":false,"is_disabled":true,"rental_uris":{"android":"levelo://app?vid=aece1634-918f-4f68-8bc7-9a7b7abafc1f","ios":"levelo://app?vid=aece1634-918f-4f68-8bc7-9a7b7abafc1f"},"vehicle_type_id":"4","last_reported":1738757842,"current_range_meters":30400,"station_id":"ce4bhnh2rcd13ifvqgug","pricing_plan_id":"cebpf4jnsgd1na2vs0mg"},{"bike_id":"c06f99e6-43d4-44a7-8951-7c8d2c47ddf8","system_id":"levelo_inurba_marseille","lat":43.30733,"lon":5.37175,"is_reserved":false,"is_disabled":false,"rental_uris":{"android":"levelo://app?vid=c06f99e6-43d4-44a7-8951-7c8d2c47ddf8","ios":"levelo://app?vid=c06f99e6-43d4-44a7-8951-7c8d2c47ddf8"},"vehicle_type_id":"4","last_reported":1738757842,"current_range_meters":29600,"station_id":"","pricing_plan_id":"cebpf4jnsgd1na2vs0mg"},{"bike_id":"f8a541f0-e4a8-4639-8d63-84a9a76b70b4","system_id":"levelo_inurba_marseille","lat":43.30283,"lon":5.37684,"is_reserved":false,"is_disabled":false,"rental_uris":{"android":"levelo://app?vid=f8a541f0-e4a8-4639-8d63-84a9a76b70b4","ios":"levelo://app?vid=f8a541f0-e4a8-4639-8d63-84a9a76b70b4"},"vehicle_type_id":"4","last_reported":1738757842,"current_range_meters":37600,"station_id":"ce4bguh2rcd13ifvqcj0","pricing_plan_id":"cebpf4jnsgd1na2vs0mg"},{"bike_id":"3b1d5f28-8e2f-4cd2-84ee-32e60c8bc1d4","system_id":"levelo_inurba_marseille","lat":43.2796,"lon":5.38711,"is_reserved":false,"is_disabled":true,"rental_uris":{"android":"levelo://app?vid=3b1d5f28-8e2f-4cd2-84ee-32e60c8bc1d4","ios":"levelo://app?vid=3b1d5f28-8e2f-4cd2-84ee-32e60c8bc1d4"},"vehicle_type_id":"4","last_reported":1738757842,"current_range_meters":0,"station_id":"ce4bhg12rcd13ifvqf80","pricing_plan_id":"cebpf4jnsgd1na2vs0mg"},{"bike_id":"a21453e1-7dd1-439a-9411-5be2637f52a4","system_id":"levelo_inurba_marseille","lat":43.2976,"lon":5.38117,"is_reserved":false,"is_disabled":true,"rental_uris":{"android":"levelo://app?vid=a21453e1-7dd1-439a-9411-5be2637f52a4","ios":"levelo://app?vid=a21453e1-7dd1-439a-9411-5be2637f52a4"},"vehicle_type_id":"4","last_reported":1738757842,"current_range_meters":0,"station_id":"ce4bgip2rcd13ifvqbb0","pricing_plan_id":"cebpf4jnsgd1na2vs0mg"},{"bike_id":"11e7aaa1-d26a-492a-bde3-9653acfc86da","system_id":"levelo_inurba_marseille","lat":43.25725,"lon":5.41108,"is_reserved":false,"is_disabled":false,"rental_uris":{"android":"levelo://app?vid=11e7aaa1-d26a-492a-bde3-9653acfc86da","ios":"levelo://app?vid=11e7aaa1-d26a-492a-bde3-9653acfc86da"},"vehicle_type_id":"4","last_reported":1738757842,"current_range_meters":34000,"station_id":"ce4bhkp2rcd13ifvqgd0","pricing_plan_id":"cebpf4jnsgd1na2vs0mg"},{"bike_id":"7941e5b7-52aa-44cc-811c-2c9582906bd0","system_id":"levelo_inurba_marseille","lat":43.31092,"lon":5.42433,"is_reserved":false,"is_disabled":false,"rental_uris":{"android":"levelo://app?vid=7941e5b7-52aa-44cc-811c-2c9582906bd0","ios":"levelo://app?vid=7941e5b7-52aa-44cc-811c-2c9582906bd0"},"vehicle_type_id":"4","last_reported":1738757842,"current_range_meters":14000,"station_id":"ce4bhp92rcd13ifvqhag","pricing_plan_id":"cebpf4jnsgd1na2vs0mg"},{"bike_id":"7692c51a-95a8-4b59-b4af-1242c7d2dc71","system_id":"levelo_inurba_marseille","lat":43.27203,"lon":5.39185,"is_reserved":false,"is_disabled":false,"rental_uris":{"android":"levelo://app?vid=7692c51a-95a8-4b59-b4af-1242c7d2dc71","ios":"levelo://app?vid=7692c51a-95a8-4b59-b4af-1242c7d2dc71"},"vehicle_type_id":"4","last_reported":1738757842,"current_range_meters":9200,"station_id":"ce4bhhp2rcd13ifvqfm0","pricing_plan_id":"cebpf4jnsgd1na2vs0mg"},{"bike_id":"865c4778-4a7b-4fbe-8065-d6d03e0c3186","system_id":"levelo_inurba_marseille","lat":43.282624,"lon":5.350812,"is_reserved":false,"is_disabled":false,"rental_uris":{"android":"levelo://app?vid=865c4778-4a7b-4fbe-8065-d6d03e0c3186","ios":"levelo://app?vid=865c4778-4a7b-4fbe-8065-d6d03e0c3186"},"vehicle_type_id":"4","last_reported":1738757842,"current_range_meters":29600,"station_id":"ce4bhbp2rcd13ifvqerg","pricing_plan_id":"cebpf4jnsgd1na2vs0mg"},{"bike_id":"92b0bd15-e79d-41be-ab44-a67f0bab55bd","system_id":"levelo_inurba_marseille","lat":43.29195,"lon":5.35811,"is_reserved":false,"is_disabled":false,"rental_uris":{"android":"levelo://app?vid=92b0bd15-e79d-41be-ab44-a67f0bab55bd","ios":"levelo://app?vid=92b0bd15-e79d-41be-ab44-a67f0bab55bd"},"vehicle_type_id":"4","last_reported":1738757842,"current_range_meters":22400,"station_id":"ce4bhb12rcd13ifvqel0","pricing_plan_id":"cebpf4jnsgd1na2vs0mg"},{"bike_id":"8dbe8a6e-72e2-42be-91e2-483b6f8206f0","system_id":"levelo_inurba_marseille","lat":43.259,"lon":5.40906,"is_reserved":false,"is_disabled":false,"rental_uris":{"android":"levelo://app?vid=8dbe8a6e-72e2-42be-91e2-483b6f8206f0","ios":"levelo://app?vid=8dbe8a6e-72e2-42be-91e2-483b6f8206f0"},"vehicle_type_id":"4","last_reported":1738757842,"current_range_meters":25600,"station_id":"ce4bhm92rcd13ifvqglg","pricing_plan_id":"cebpf4jnsgd1na2vs0mg"},{"bike_id":"814857a6-7cf2-435a-b979-948527f944d7","system_id":"levelo_inurba_marseille","lat":43.30527,"lon":5.36558,"is_reserved":false,"is_disabled":false,"rental_uris":{"android":"levelo://app?vid=814857a6-7cf2-435a-b979-948527f944d7","ios":"levelo://app?vid=814857a6-7cf2-435a-b979-948527f944d7"},"vehicle_type_id":"4","last_reported":1738757842,"current_range_meters":24400,"station_id":"ce4bgs12rcd13ifvqcag","pricing_plan_id":"cebpf4jnsgd1na2vs0mg"},{"bike_id":"0a1d80a5-8567-473e-862c-e2d2e710157a","system_id":"levelo_inurba_marseille","lat":43.28589,"lon":5.35099,"is_reserved":false,"is_disabled":false,"rental_uris":{"android":"levelo://app?vid=0a1d80a5-8567-473e-862c-e2d2e710157a","ios":"levelo://app?vid=0a1d80a5-8567-473e-862c-e2d2e710157a"},"vehicle_type_id":"4","last_reported":1738757842,"current_range_meters":34000,"station_id":"ce4bhch2rcd13ifvqeug","pricing_plan_id":"cebpf4jnsgd1na2vs0mg"},{"bike_id":"ce53a5b4-e7e8-4a17-81c3-783bad54ac2b","system_id":"levelo_inurba_marseille","lat":43.29841,"lon":5.38083,"is_reserved":false,"is_disabled":false,"rental_uris":{"android":"levelo://app?vid=ce53a5b4-e7e8-4a17-81c3-783bad54ac2b","ios":"levelo://app?vid=ce53a5b4-e7e8-4a17-81c3-783bad54ac2b"},"vehicle_type_id":"4","last_reported":1738757842,"current_range_meters":30400,"station_id":"ce4bgip2rcd13ifvqbb0","pricing_plan_id":"cebpf4jnsgd1na2vs0mg"},{"bike_id":"7b2bab09-6da9-41c3-a8ef-a335724ee538","system_id":"levelo_inurba_marseille","lat":43.30161,"lon":5.38089,"is_reserved":false,"is_disabled":false,"rental_uris":{"android":"levelo://app?vid=7b2bab09-6da9-41c3-a8ef-a335724ee538","ios":"levelo://app?vid=7b2bab09-6da9-41c3-a8ef-a335724ee538"},"vehicle_type_id":"4","last_reported":1738757842,"current_range_meters":39200,"station_id":"ce4bgjp2rcd13ifvqbh0","pricing_plan_id":"cebpf4jnsgd1na2vs0mg"},{"bike_id":"1c5e68e6-d251-403b-bd69-cca268dfbae9","system_id":"levelo_inurba_marseille","lat":43.28668,"lon":5.38667,"is_reserved":false,"is_disabled":false,"rental_uris":{"android":"levelo://app?vid=1c5e68e6-d251-403b-bd69-cca268dfbae9","ios":"levelo://app?vid=1c5e68e6-d251-403b-bd69-cca268dfbae9"},"vehicle_type_id":"4","last_reported":1738757842,"current_range_meters":8400,"station_id":"ce4bh492rcd13ifvqdug","pricing_plan_id":"cebpf4jnsgd1na2vs0mg"},{"bike_id":"787b7837-f258-4886-bbf5-841ee39c0166","system_id":"levelo_inurba_marseille","lat":43.28269,"lon":5.35095,"is_reserved":false,"is_disabled":false,"rental_uris":{"android":"levelo://app?vid=787b7837-f258-4886-bbf5-841ee39c0166","ios":"levelo://app?vid=787b7837-f258-4886-bbf5-841ee39c0166"},"vehicle_type_id":"4","last_reported":1738757842,"current_range_meters":38800,"station_id":"ce4bhbp2rcd13ifvqerg","pricing_plan_id":"cebpf4jnsgd1na2vs0mg"},{"bike_id":"25d556ce-3f32-408f-bbd6-29b976ef448a","system_id":"levelo_inurba_marseille","lat":43.23193,"lon":5.39989,"is_reserved":false,"is_disabled":false,"rental_uris":{"android":"levelo://app?vid=25d556ce-3f32-408f-bbd6-29b976ef448a","ios":"levelo://app?vid=25d556ce-3f32-408f-bbd6-29b976ef448a"},"vehicle_type_id":"4","last_reported":1738757842,"current_range_meters":12800,"station_id":"ce4bhn12rcd13ifvqgqg","pricing_plan_id":"cebpf4jnsgd1na2vs0mg"},{"bike_id":"7e827b7a-e731-4daf-83c0-fa33ba87bdaf","system_id":"levelo_inurba_marseille","lat":43.30377,"lon":5.37922,"is_reserved":false,"is_disabled":false,"rental_uris":{"android":"levelo://app?vid=7e827b7a-e731-4daf-83c0-fa33ba87bdaf","ios":"levelo://app?vid=7e827b7a-e731-4daf-83c0-fa33ba87bdaf"},"vehicle_type_id":"4","last_reported":1738757842,"current_range_meters":38800,"station_id":"ce4bgup2rcd13ifvqcn0","pricing_plan_id":"cebpf4jnsgd1na2vs0mg"},{"bike_id":"4bcec93a-5b9b-4c4d-bc0d-cfd7d1a21403","system_id":"levelo_inurba_marseille","lat":43.23181,"lon":5.39993,"is_reserved":false,"is_disabled":false,"rental_uris":{"android":"levelo://app?vid=4bcec93a-5b9b-4c4d-bc0d-cfd7d1a21403","ios":"levelo://app?vid=4bcec93a-5b9b-4c4d-bc0d-cfd7d1a21403"},"vehicle_type_id":"4","last_reported":1738757842,"current_range_meters":36400,"station_id":"ce4bhn12rcd13ifvqgqg","pricing_plan_id":"cebpf4jnsgd1na2vs0mg"},{"bike_id":"f3bc084b-a715-4c9b-b29e-afa94226512f","system_id":"levelo_inurba_marseille","lat":43.27557,"lon":5.38438,"is_reserved":false,"is_disabled":false,"rental_uris":{"android":"levelo://app?vid=f3bc084b-a715-4c9b-b29e-afa94226512f","ios":"levelo://app?vid=f3bc084b-a715-4c9b-b29e-afa94226512f"},"vehicle_type_id":"4","last_reported":1738757842,"current_range_meters":38800,"station_id":"ce4bhh92rcd13ifvqfi0","pricing_plan_id":"cebpf4jnsgd1na2vs0mg"},{"bike_id":"a2f6c3ee-cde6-4fde-b78f-92cfd29c1bfd","system_id":"levelo_inurba_marseille","lat":43.25498,"lon":5.37645,"is_reserved":false,"is_disabled":false,"rental_uris":{"android":"levelo://app?vid=a2f6c3ee-cde6-4fde-b78f-92cfd29c1bfd","ios":"levelo://app?vid=a2f6c3ee-cde6-4fde-b78f-92cfd29c1bfd"},"vehicle_type_id":"4","last_reported":1738757842,"current_range_meters":39200,"station_id":"ce4bhh12rcd13ifvqff0","pricing_plan_id":"cebpf4jnsgd1na2vs0mg"},{"bike_id":"5efca5f2-64a5-4259-a7b6-3379d60b248a","system_id":"levelo_inurba_marseille","lat":43.26123,"lon":5.41701,"is_reserved":false,"is_disabled":false,"rental_uris":{"android":"levelo://app?vid=5efca5f2-64a5-4259-a7b6-3379d60b248a","ios":"levelo://app?vid=5efca5f2-64a5-4259-a7b6-3379d60b248a"},"vehicle_type_id":"4","last_reported":1738757842,"current_range_meters":28400,"station_id":"","pricing_plan_id":"cebpf4jnsgd1na2vs0mg"},{"bike_id":"44a30f83-4304-4f9f-be85-a99271585cc5","system_id":"levelo_inurba_marseille","lat":43.24167,"lon":5.36428,"is_reserved":false,"is_disabled":false,"rental_uris":{"android":"levelo://app?vid=44a30f83-4304-4f9f-be85-a99271585cc5","ios":"levelo://app?vid=44a30f83-4304-4f9f-be85-a99271585cc5"},"vehicle_type_id":"4","last_reported":1738757842,"current_range_meters":16800,"station_id":"cpo36qri1sfpv3e86is0","pricing_plan_id":"cebpf4jnsgd1na2vs0mg"},{"bike_id":"eac8e106-76e0-4f1b-81af-4eaefecd2501","system_id":"levelo_inurba_marseille","lat":43.25014,"lon":5.38914,"is_reserved":false,"is_disabled":false,"rental_uris":{"android":"levelo://app?vid=eac8e106-76e0-4f1b-81af-4eaefecd2501","ios":"levelo://app?vid=eac8e106-76e0-4f1b-81af-4eaefecd2501"},"vehicle_type_id":"4","last_reported":1738757842,"current_range_meters":11200,"station_id":"ce4bhgp2rcd13ifvqfd0","pricing_plan_id":"cebpf4jnsgd1na2vs0mg"},{"bike_id":"0bbb9a2e-65d2-4ce4-afaf-6a55b7cd812d","system_id":"levelo_inurba_marseille","lat":43.3122,"lon":5.36868,"is_reserved":false,"is_disabled":true,"rental_uris":{"android":"levelo://app?vid=0bbb9a2e-65d2-4ce4-afaf-6a55b7cd812d","ios":"levelo://app?vid=0bbb9a2e-65d2-4ce4-afaf-6a55b7cd812d"},"vehicle_type_id":"4","last_reported":1738757842,"current_range_meters":34000,"station_id":"ce4bgl92rcd13ifvqbq0","pricing_plan_id":"cebpf4jnsgd1na2vs0mg"},{"bike_id":"3e06e735-9c4d-48d7-82e1-4b743711b119","system_id":"levelo_inurba_marseille","lat":43.29565,"lon":5.37495,"is_reserved":false,"is_disabled":true,"rental_uris":{"android":"levelo://app?vid=3e06e735-9c4d-48d7-82e1-4b743711b119","ios":"levelo://app?vid=3e06e735-9c4d-48d7-82e1-4b743711b119"},"vehicle_type_id":"4","last_reported":1738757842,"current_range_meters":34800,"station_id":"ce4bgh92rcd13ifvqb50","pricing_plan_id":"cebpf4jnsgd1na2vs0mg"},{"bike_id":"5e00cc7e-9bb2-4f5e-bf28-bd1fe19b43a5","system_id":"levelo_inurba_marseille","lat":43.28712,"lon":5.39974,"is_reserved":false,"is_disabled":false,"rental_uris":{"android":"levelo://app?vid=5e00cc7e-9bb2-4f5e-bf28-bd1fe19b43a5","ios":"levelo://app?vid=5e00cc7e-9bb2-4f5e-bf28-bd1fe19b43a5"},"vehicle_type_id":"4","last_reported":1738757842,"current_range_meters":30000,"station_id":"ce4bho92rcd13ifvqh3g","pricing_plan_id":"cebpf4jnsgd1na2vs0mg"},{"bike_id":"61ceb31b-03f6-4213-9b34-0374ee45b479","system_id":"levelo_inurba_marseille","lat":43.321129,"lon":5.367859,"is_reserved":false,"is_disabled":false,"rental_uris":{"android":"levelo://app?vid=61ceb31b-03f6-4213-9b34-0374ee45b479","ios":"levelo://app?vid=61ceb31b-03f6-4213-9b34-0374ee45b479"},"vehicle_type_id":"4","last_reported":1738757842,"current_range_meters":21600,"station_id":"ce4bhrh2rcd13ifvqhug","pricing_plan_id":"cebpf4jnsgd1na2vs0mg"},{"bike_id":"1489c8c8-a04b-479f-95b4-a81e60a2c685","system_id":"levelo_inurba_marseille","lat":43.3118,"lon":5.38708,"is_reserved":false,"is_disabled":false,"rental_uris":{"android":"levelo://app?vid=1489c8c8-a04b-479f-95b4-a81e60a2c685","ios":"levelo://app?vid=1489c8c8-a04b-479f-95b4-a81e60a2c685"},"vehicle_type_id":"4","last_reported":1738757842,"current_range_meters":37600,"station_id":"ce4bgv12rcd13ifvqcp0","pricing_plan_id":"cebpf4jnsgd1na2vs0mg"},{"bike_id":"0bca0e5e-0f54-4a8b-9235-8c20b1d6fc50","system_id":"levelo_inurba_marseille","lat":43.27319,"lon":5.3909,"is_reserved":false,"is_disabled":false,"rental_uris":{"android":"levelo://app?vid=0bca0e5e-0f54-4a8b-9235-8c20b1d6fc50","ios":"levelo://app?vid=0bca0e5e-0f54-4a8b-9235-8c20b1d6fc50"},"vehicle_type_id":"4","last_reported":1738757842,"current_range_meters":3600,"station_id":"ce4bhgp2rcd13ifvqfe0","pricing_plan_id":"cebpf4jnsgd1na2vs0mg"},{"bike_id":"d65a6f64-e90e-4525-b52f-522825cb85d2","system_id":"levelo_inurba_marseille","lat":43.29918,"lon":5.37478,"is_reserved":false,"is_disabled":false,"rental_uris":{"android":"levelo://app?vid=d65a6f64-e90e-4525-b52f-522825cb85d2","ios":"levelo://app?vid=d65a6f64-e90e-4525-b52f-522825cb85d2"},"vehicle_type_id":"4","last_reported":1738757842,"current_range_meters":10000,"station_id":"ce4bgjh2rcd13ifvqbg0","pricing_plan_id":"cebpf4jnsgd1na2vs0mg"},{"bike_id":"354817af-9f36-407c-a10a-38b47f6e88d6","system_id":"levelo_inurba_marseille","lat":43.25112,"lon":5.40325,"is_reserved":false,"is_disabled":false,"rental_uris":{"android":"levelo://app?vid=354817af-9f36-407c-a10a-38b47f6e88d6","ios":"levelo://app?vid=354817af-9f36-407c-a10a-38b47f6e88d6"},"vehicle_type_id":"4","last_reported":1738757842,"current_range_meters":38800,"station_id":"ce4bhlh2rcd13ifvqgig","pricing_plan_id":"cebpf4jnsgd1na2vs0mg"},{"bike_id":"c322498b-971c-4774-a775-9df1558e42d2","system_id":"levelo_inurba_marseille","lat":43.29379,"lon":5.37859,"is_reserved":false,"is_disabled":false,"rental_uris":{"android":"levelo://app?vid=c322498b-971c-4774-a775-9df1558e42d2","ios":"levelo://app?vid=c322498b-971c-4774-a775-9df1558e42d2"},"vehicle_type_id":"4","last_reported":1738757842,"current_range_meters":27200,"station_id":"ce4bgjh2rcd13ifvqbf0","pricing_plan_id":"cebpf4jnsgd1na2vs0mg"},{"bike_id":"dd6d0735-a7d8-47bd-a58b-c2ac1cc0a2cb","system_id":"levelo_inurba_marseille","lat":43.30313,"lon":5.36899,"is_reserved":false,"is_disabled":false,"rental_uris":{"android":"levelo://app?vid=dd6d0735-a7d8-47bd-a58b-c2ac1cc0a2cb","ios":"levelo://app?vid=dd6d0735-a7d8-47bd-a58b-c2ac1cc0a2cb"},"vehicle_type_id":"4","last_reported":1738757842,"current_range_meters":28000,"station_id":"ce4bgqh2rcd13ifvqc5g","pricing_plan_id":"cebpf4jnsgd1na2vs0mg"},{"bike_id":"fec5c6d4-eb02-464f-99e5-b783b5e6b9a8","system_id":"levelo_inurba_marseille","lat":43.27944,"lon":5.41045,"is_reserved":false,"is_disabled":false,"rental_uris":{"android":"levelo://app?vid=fec5c6d4-eb02-464f-99e5-b783b5e6b9a8","ios":"levelo://app?vid=fec5c6d4-eb02-464f-99e5-b783b5e6b9a8"},"vehicle_type_id":"4","last_reported":1738757842,"current_range_meters":23200,"station_id":"ce4bhnp2rcd13ifvqh0g","pricing_plan_id":"cebpf4jnsgd1na2vs0mg"},{"bike_id":"5aa435ab-51b5-4420-a514-8b4ccb95f297","system_id":"levelo_inurba_marseille","lat":43.26925,"lon":5.40258,"is_reserved":false,"is_disabled":false,"rental_uris":{"android":"levelo://app?vid=5aa435ab-51b5-4420-a514-8b4ccb95f297","ios":"levelo://app?vid=5aa435ab-51b5-4420-a514-8b4ccb95f297"},"vehicle_type_id":"4","last_reported":1738757842,"current_range_meters":38800,"station_id":"cjm6bp8fraef2m0cb0m0","pricing_plan_id":"cebpf4jnsgd1na2vs0mg"},{"bike_id":"e5f34f7c-c503-40c2-aeb7-a92c676b8443","system_id":"levelo_inurba_marseille","lat":43.28718,"lon":5.39976,"is_reserved":false,"is_disabled":true,"rental_uris":{"android":"levelo://app?vid=e5f34f7c-c503-40c2-aeb7-a92c676b8443","ios":"levelo://app?vid=e5f34f7c-c503-40c2-aeb7-a92c676b8443"},"vehicle_type_id":"4","last_reported":1738757842,"current_range_meters":0,"station_id":"ce4bho92rcd13ifvqh3g","pricing_plan_id":"cebpf4jnsgd1na2vs0mg"},{"bike_id":"915c02a9-43eb-435e-93bf-81a431a741d0","system_id":"levelo_inurba_marseille","lat":43.30756,"lon":5.36789,"is_reserved":false,"is_disabled":false,"rental_uris":{"android":"levelo://app?vid=915c02a9-43eb-435e-93bf-81a431a741d0","ios":"levelo://app?vid=915c02a9-43eb-435e-93bf-81a431a741d0"},"vehicle_type_id":"4","last_reported":1738757842,"current_range_meters":35600,"station_id":"","pricing_plan_id":"cebpf4jnsgd1na2vs0mg"},{"bike_id":"58330ef1-cb04-494b-91e5-c2780bb002d9","system_id":"levelo_inurba_marseille","lat":43.29838,"lon":5.3628,"is_reserved":false,"is_disabled":false,"rental_uris":{"android":"levelo://app?vid=58330ef1-cb04-494b-91e5-c2780bb002d9","ios":"levelo://app?vid=58330ef1-cb04-494b-91e5-c2780bb002d9"},"vehicle_type_id":"4","last_reported":1738757842,"current_range_meters":38400,"station_id":"ce4bgpp2rcd13ifvqc3g","pricing_plan_id":"cebpf4jnsgd1na2vs0mg"},