{"last_updated":1739625071,"ttl":60,"version":"2.2","data":{"bikes":[{"bike_id":"ac807688-4835-49fb-a71d-b04961f2920f","system_id":"levelo_inurba_marseille","lat":43.28431,"lon":5.34998,"is_reserved":false,"is_disabled":false,"rental_uris":{"android":"levelo://app?vid=ac807688-4835-49fb-a71d-b04961f2920f","ios":"levelo://app?vid=ac807688-4835-49fb-a71d-b04961f2920f"},"vehicle_type_id":"4","last_reported":1739625071,"current_range_meters":24400,"station_id":"ce4bhbh2rcd13ifvqepg","pricing_plan_id":"cebpf4jnsgd1na2vs0mg"},{"bike_id":"9f2ca7d8-6e7b-463d-8479-a581b861c705","system_id":"levelo_inurba_marseille","lat":43.30249,"lon":5.40074,"is_reserved":false,"is_disabled":false,"rental_uris":{"android":"levelo://app?vid=9f2ca7d8-6e7b-463d-8479-a581b861c705","ios":"levelo://app?vid=9f2ca7d8-6e7b-463d-8479-a581b861c705"},"vehicle_type_id":"4","last_reported":1739625071,"current_range_meters":16400,"station_id":"ce4bgvh2rcd13ifvqcs0","pricing_plan_id":"cebpf4jnsgd1na2vs0mg"},{"bike_id":"52044b8d-0fbc-43db-a4d0-c850ae1d7eef","system_id":"levelo_inurba_marseille","lat":43.29377,"lon":5.401,"is_reserved":false,"is_disabled":false,"rental_uris":{"android":"levelo://app?vid=52044b8d-0fbc-43db-a4d0-c850ae1d7eef","ios":"levelo://app?vid=52044b8d-0fbc-43db-a4d0-c850ae1d7eef"},"vehicle_type_id":"4","last_reported":1739625071,"current_range_meters":14000,"station_id":"","pricing_plan_id":"cebpf4jnsgd1na2vs0mg"},{"bike_id":"b2a723f0-af0f-41fc-b78e-25ccb7fcbffa","system_id":"levelo_inurba_marseille","lat":43.299086,"lon":5.381545,"is_reserved":false,"is_disabled":false,"rental_uris":{"android":"levelo://app?vid=b2a723f0-af0f-41fc-b78e-25ccb7fcbffa","ios":"levelo://app?vid=b2a723f0-af0f-41fc-b78e-25ccb7fcbffa"},"vehicle_type_id":"4","last_reported":1739625071,"current_range_meters":37600,"station_id":"ce4bgj12rcd13ifvqbc0","pricing_plan_id":"cebpf4jnsgd1na2vs0mg"},{"bike_id":"0d798fe6-a78c-4e7c-9f5c-031ea29f972c","system_id":"levelo_inurba_marseille","lat":43.26202,"lon":5.37923,"is_reserved":false,"is_disabled":false,"rental_uris":{"android":"levelo://app?vid=0d798fe6-a78c-4e7c-9f5c-031ea29f972c","ios":"levelo://app?vid=0d798fe6-a78c-4e7c-9f5c-031ea29f972c"},"vehicle_type_id":"4","last_reported":1739625071,"current_range_meters":39200,"station_id":"ce4bhjp2rcd13ifvqg90","pricing_plan_id":"cebpf4jnsgd1na2vs0mg"},{"bike_id":"aeeb603c-9e21-471f-a3b4-471a46d5c228","system_id":"levelo_inurba_marseille","lat":43.24169,"lon":5.36382,"is_reserved":false,"is_disabled":false,"rental_uris":{"android":"levelo://app?vid=aeeb603c-9e21-471f-a3b4-471a46d5c228","ios":"levelo://app?vid=aeeb603c-9e21-471f-a3b4-471a46d5c228"},"vehicle_type_id":"4","last_reported":1739625071,"current_range_meters":17200,"station_id":"cpo36qri1sfpv3e86is0","pricing_plan_id":"cebpf4jnsgd1na2vs0mg"},{"bike_id":"1d4165b9-e8af-42e7-8e88-54a0f84b4f26","system_id":"levelo_inurba_marseille","lat":43.23193,"lon":5.39979,"is_reserved":false,"is_disabled":false,"rental_uris":{"android":"levelo://app?vid=1d4165b9-e8af-42e7-8e88-54a0f84b4f26","ios":"levelo://app?vid=1d4165b9-e8af-42e7-8e88-54a0f84b4f26"},"vehicle_type_id":"4","last_reported":1739625071,"current_range_meters":25200,"station_id":"ce4bhn12rcd13ifvqgqg","pricing_plan_id":"cebpf4jnsgd1na2vs0mg"},{"bike_id":"c1e76274-801b-4893-b793-e635178d8b86","system_id":"levelo_inurba_marseille","lat":43.23966,"lon":5.3663,"is_reserved":false,"is_disabled":false,"rental_uris":{"android":"levelo://app?vid=c1e76274-801b-4893-b793-e635178d8b86","ios":"levelo://app?vid=c1e76274-801b-4893-b793-e635178d8b86"},"vehicle_type_id":"4","last_reported":1739625071,"current_range_meters":38000,"station_id":"ce4bhi12rcd13ifvqfp0","pricing_plan_id":"cebpf4jnsgd1na2vs0mg"},{"bike_id":"af1c93b6-01b9-4955-8ba8-945dcd85101e","system_id":"levelo_inurba_marseille","lat":43.30254,"lon":5.37483,"is_reserved":false,"is_disabled":false,"rental_uris":{"android":"levelo://app?vid=af1c93b6-01b9-4955-8ba8-945dcd85101e","ios":"levelo://app?vid=af1c93b6-01b9-4955-8ba8-945dcd85101e"},"vehicle_type_id":"4","last_reported":1739625071,"current_range_meters":38800,"station_id":"","pricing_plan_id":"cebpf4jnsgd1na2vs0mg"},{"bike_id":"cefb3533-cae4-4c4e-88f0-3fef707463aa","system_id":"levelo_inurba_marseille","lat":43.30514,"lon":5.36502,"is_reserved":false,"is_disabled":false,"rental_uris":{"android":"levelo://app?vid=cefb3533-cae4-4c4e-88f0-3fef707463aa","ios":"levelo://app?vid=cefb3533-cae4-4c4e-88f0-3fef707463aa"},"vehicle_type_id":"4","last_reported":1739625071,"current_range_meters":20400,"station_id":"","pricing_plan_id":"cebpf4jnsgd1na2vs0mg"},{"bike_id":"484527d8-0820-40f5-8186-1686fa6584d4","system_id":"levelo_inurba_marseille","lat":43.28272,"lon":5.35064,"is_reserved":false,"is_disabled":false,"rental_uris":{"android":"levelo://app?vid=484527d8-0820-40f5-8186-1686fa6584d4","ios":"levelo://app?vid=484527d8-0820-40f5-8186-1686fa6584d4"},"vehicle_type_id":"4","last_reported":1739625071,"current_range_meters":39200,"station_id":"ce4bhbp2rcd13ifvqerg","pricing_plan_id":"cebpf4jnsgd1na2vs0mg"},{"bike_id":"c74f8124-73dc-4bd8-a98e-9fa42c510bc4","system_id":"levelo_inurba_marseille","lat":43.23193,"lon":5.39978,"is_reserved":false,"is_disabled":false,"rental_uris":{"android":"levelo://app?vid=c74f8124-73dc-4bd8-a98e-9fa42c510bc4","ios":"levelo://app?vid=c74f8124-73dc-4bd8-a98e-9fa42c510bc4"},"vehicle_type_id":"4","last_reported":1739625071,"current_range_meters":25200,"station_id":"ce4bhn12rcd13ifvqgqg","pricing_plan_id":"cebpf4jnsgd1na2vs0mg"},{"bike_id":"eace11fc-366d-49db-ab9f-2f957d528477","system_id":"levelo_inurba_marseille","lat":43.25544,"lon":5.37675,"is_reserved":false,"is_disabled":false,"rental_uris":{"android":"levelo://app?vid=eace11fc-366d-49db-ab9f-2f957d528477","ios":"levelo://app?vid=eace11fc-366d-49db-ab9f-2f957d528477"},"vehicle_type_id":"4","last_reported":1739625071,"current_range_meters":39200,"station_id":"ce4bhh12rcd13ifvqff0","pricing_plan_id":"cebpf4jnsgd1na2vs0mg"},{"bike_id":"c7322498-81a4-46c8-b4c9-ec796bfac1e6","system_id":"levelo_inurba_marseille","lat":43.24174,"lon":5.36395,"is_reserved":false,"is_disabled":false,"rental_uris":{"android":"levelo://app?vid=c7322498-81a4-46c8-b4c9-ec796bfac1e6","ios":"levelo://app?vid=c7322498-81a4-46c8-b4c9-ec796bfac1e6"},"vehicle_type_id":"4","last_reported":1739625071,"current_range_meters":38800,"station_id":"cpo36qri1sfpv3e86is0","pricing_plan_id":"cebpf4jnsgd1na2vs0mg"},{"bike_id":"5d2484e8-d08f-4bba-ae77-36cb31e97e9b","system_id":"levelo_inurba_marseille","lat":43.29551,"lon":5.42271,"is_reserved":false,"is_disabled":false,"rental_uris":{"android":"levelo://app?vid=5d2484e8-d08f-4bba-ae77-36cb31e97e9b","ios":"levelo://app?vid=5d2484e8-d08f-4bba-ae77-36cb31e97e9b"},"vehicle_type_id":"4","last_reported":1739625071,"current_range_meters":39200,"station_id":"ce4bhph2rcd13ifvqhdg","pricing_plan_id":"cebpf4jnsgd1na2vs0mg"},{"bike_id":"6b42f4f1-2360-420a-81a5-fa8f868ac30d","system_id":"levelo_inurba_marseille","lat":43.27196,"lon":5.39006,"is_reserved":false,"is_disabled":false,"rental_uris":{"android":"levelo://app?vid=6b42f4f1-2360-420a-81a5-fa8f868ac30d","ios":"levelo://app?vid=6b42f4f1-2360-420a-81a5-fa8f868ac30d"},"vehicle_type_id":"4","last_reported":1739625071,"current_range_meters":33200,"station_id":"","pricing_plan_id":"cebpf4jnsgd1na2vs0mg"},{"bike_id":"6e450ab7-9a7a-4da8-9ff6-1baeb977c881","system_id":"levelo_inurba_marseille","lat":43.30814,"lon":5.38147,"is_reserved":false,"is_disabled":false,"rental_uris":{"android":"levelo://app?vid=6e450ab7-9a7a-4da8-9ff6-1baeb977c881","ios":"levelo://app?vid=6e450ab7-9a7a-4da8-9ff6-1baeb977c881"},"vehicle_type_id":"4","last_reported":1739625071,"current_range_meters":30000,"station_id":"ce4bgt12rcd13ifvqce0","pricing_plan_id":"cebpf4jnsgd1na2vs0mg"},{"bike_id":"3c65401e-b701-4310-9227-bb4163f16dd4","system_id":"levelo_inurba_marseille","lat":43.29577,"lon":5.3751,"is_reserved":false,"is_disabled":false,"rental_uris":{"android":"levelo://app?vid=3c65401e-b701-4310-9227-bb4163f16dd4","ios":"levelo://app?vid=3c65401e-b701-4310-9227-bb4163f16dd4"},"vehicle_type_id":"4","last_reported":1739625071,"current_range_meters":38800,"station_id":"ce4bgh92rcd13ifvqb50","pricing_plan_id":"cebpf4jnsgd1na2vs0mg"},{"bike_id":"b34c6303-752a-46a1-93ad-ddbc991e20b6","system_id":"levelo_inurba_marseille","lat":43.2306,"lon":5.35493,"is_reserved":false,"is_disabled":false,"rental_uris":{"android":"levelo://app?vid=b34c6303-752a-46a1-93ad-ddbc991e20b6","ios":"levelo://app?vid=b34c6303-752a-46a1-93ad-ddbc991e20b6"},"vehicle_type_id":"4","last_reported":1739625071,"current_range_meters":37600,"station_id":"cpo3342slgdg3j2ifvpg","pricing_plan_id":"cebpf4jnsgd1na2vs0mg"},{"bike_id":"d814ee26-050b-424e-b737-d3f6d8a14099","system_id":"levelo_inurba_marseille","lat":43.29241,"lon":5.38429,"is_reserved":false,"is_disabled":true,"rental_uris":{"android":"levelo://app?vid=d814ee26-050b-424e-b737-d3f6d8a14099","ios":"levelo://app?vid=d814ee26-050b-424e-b737-d3f6d8a14099"},"vehicle_type_id":"4","last_reported":1739625071,"current_range_meters":27200,"station_id":"ce4bh692rcd13ifvqea0","pricing_plan_id":"cebpf4jnsgd1na2vs0mg"},{"bike_id":"7fb57a20-9ded-4ac0-a023-add70f4c6d00","system_id":"levelo_inurba_marseille","lat":43.29574,"lon":5.39957,"is_reserved":false,"is_disabled":false,"rental_uris":{"android":"levelo://app?vid=7fb57a20-9ded-4ac0-a023-add70f4c6d00","ios":"levelo://app?vid=7fb57a20-9ded-4ac0-a023-add70f4c6d00"},"vehicle_type_id":"4","last_reported":1739625071,"current_range_meters":36800,"station_id":"ce4bh312rcd13ifvqdj0","pricing_plan_id":"cebpf4jnsgd1na2vs0mg"},{"bike_id":"1300f95a-15ad-4299-a221-177495e93e42","system_id":"levelo_inurba_marseille","lat":43.32648,"lon":5.40986,"is_reserved":false,"is_disabled":false,"rental_uris":{"android":"levelo://app?vid=1300f95a-15ad-4299-a221-177495e93e42","ios":"levelo://app?vid=1300f95a-15ad-4299-a221-177495e93e42"},"vehicle_type_id":"4","last_reported":1739625071,"current_range_meters":22400,"station_id":"ce4bhpp2rcd13ifvqhgg","pricing_plan_id":"cebpf4jnsgd1na2vs0mg"},{"bike_id":"870b3254-48a3-4cfb-ae0d-922e0d652a55","system_id":"levelo_inurba_marseille","lat":43.30183,"lon":5.366,"is_reserved":false,"is_disabled":false,"rental_uris":{"android":"levelo://app?vid=870b3254-48a3-4cfb-ae0d-922e0d652a55","ios":"levelo://app?vid=870b3254-48a3-4cfb-ae0d-922e0d652a55"},"vehicle_type_id":"4","last_reported":1739625071,"current_range_meters":35200,"station_id":"ce4bgrh2rcd13ifvqc8g","pricing_plan_id":"cebpf4jnsgd1na2vs0mg"},{"bike_id":"1d966f65-a449-4943-aedb-1efd519bfa12","system_id":"levelo_inurba_marseille","lat":43.32108,"lon":5.36778,"is_reserved":false,"is_disabled":false,"rental_uris":{"android":"levelo://app?vid=1d966f65-a449-4943-aedb-1efd519bfa12","ios":"levelo://app?vid=1d966f65-a449-4943-aedb-1efd519bfa12"},"vehicle_type_id":"4","last_reported":1739625071,"current_range_meters":4800,"station_id":"ce4bhrh2rcd13ifvqhug","pricing_plan_id":"cebpf4jnsgd1na2vs0mg"},{"bike_id":"63d1a1a6-4ec1-406e-9020-1477db8b9d26","system_id":"levelo_inurba_marseille","lat":43.26052,"lon":5.39393,"is_reserved":false,"is_disabled":false,"rental_uris":{"android":"levelo://app?vid=63d1a1a6-4ec1-406e-9020-1477db8b9d26","ios":"levelo://app?vid=63d1a1a6-4ec1-406e-9020-1477db8b9d26"},"vehicle_type_id":"4","last_reported":1739625071,"current_range_meters":12000,"station_id":"ce4bhh92rcd13ifvqfj0","pricing_plan_id":"cebpf4jnsgd1na2vs0mg"},{"bike_id":"2e790753-4f3c-430a-9301-432d05772d9d","system_id":"levelo_inurba_marseille","lat":43.305288,"lon":5.365357,"is_reserved":false,"is_disabled":false,"rental_uris":{"android":"levelo://app?vid=2e790753-4f3c-430a-9301-432d05772d9d","ios":"levelo://app?vid=2e790753-4f3c-430a-9301-432d05772d9d"},"vehicle_type_id":"4","last_reported":1739625071,"current_range_meters":3200,"station_id":"ce4bgs12rcd13ifvqcag","pricing_plan_id":"cebpf4jnsgd1na2vs0mg"},{"bike_id":"27feb435-c99b-4f80-867b-2866d50d7db7","system_id":"levelo_inurba_marseille","lat":43.23069,"lon":5.35496,"is_reserved":false,"is_disabled":false,"rental_uris":{"android":"levelo://app?vid=27feb435-c99b-4f80-867b-2866d50d7db7","ios":"levelo://app?vid=27feb435-c99b-4f80-867b-2866d50d7db7"},"vehicle_type_id":"4","last_reported":1739625071,"current_range_meters":20000,"station_id":"cpo3342slgdg3j2ifvpg","pricing_plan_id":"cebpf4jnsgd1na2vs0mg"},{"bike_id":"26f43ae5-d881-4e4f-8602-a753b45325c8","system_id":"levelo_inurba_marseille","lat":43.30607,"lon":5.37226,"is_reserved":false,"is_disabled":false,"rental_uris":{"android":"levelo://app?vid=26f43ae5-d881-4e4f-8602-a753b45325c8","ios":"levelo://app?vid=26f43ae5-d881-4e4f-8602-a753b45325c8"},"vehicle_type_id":"4","last_reported":1739625071,"current_range_meters":20400,"station_id":"ce4bgqh2rcd13ifvqc4g","pricing_plan_id":"cebpf4jnsgd1na2vs0mg"},{"bike_id":"2b1d1a1b-78e8-4065-a46a-ee0030719138","system_id":"levelo_inurba_marseille","lat":43.28415,"lon":5.34985,"is_reserved":false,"is_disabled":false,"rental_uris":{"android":"levelo://app?vid=2b1d1a1b-78e8-4065-a46a-ee0030719138","ios":"levelo://app?vid=2b1d1a1b-78e8-4065-a46a-ee0030719138"},"vehicle_type_id":"4","last_reported":1739625071,"current_range_meters":19200,"station_id":"ce4bhbh2rcd13ifvqepg","pricing_plan_id":"cebpf4jnsgd1na2vs0mg"},{"bike_id":"5ac1b3e9-6624-4bab-a598-45ab544a1b2f","system_id":"levelo_inurba_marseille","lat":43.2667,"lon":5.38251,"is_reserved":false,"is_disabled":false,"rental_uris":{"android":"levelo://app?vid=5ac1b3e9-6624-4bab-a598-45ab544a1b2f","ios":"levelo://app?vid=5ac1b3e9-6624-4bab-a598-45ab544a1b2f"},"vehicle_type_id":"4","last_reported":1739625071,"current_range_meters":8400,"station_id":"ce4bhg92rcd13ifvqf90","pricing_plan_id":"cebpf4jnsgd1na2vs0mg"},{"bike_id":"c6466d48-f23e-4536-b49d-9c6eab50a552","system_id":"levelo_inurba_marseille","lat":43.28609,"lon":5.35106,"is_reserved":false,"is_disabled":false,"rental_uris":{"android":"levelo://app?vid=c6466d48-f23e-4536-b49d-9c6eab50a552","ios":"levelo://app?vid=c6466d48-f23e-4536-b49d-9c6eab50a552"},"vehicle_type_id":"4","last_reported":1739625071,"current_range_meters":27600,"station_id":"ce4bhch2rcd13ifvqeug","pricing_plan_id":"cebpf4jnsgd1na2vs0mg"},{"bike_id":"76564f9c-b768-43c9-9d19-35975b91936d","system_id":"levelo_inurba_marseille","lat":43.32045,"lon":5.37714,"is_reserved":false,"is_disabled":false,"rental_uris":{"android":"levelo://app?vid=76564f9c-b768-43c9-9d19-35975b91936d","ios":"levelo://app?vid=76564f9c-b768-43c9-9d19-35975b91936d"},"vehicle_type_id":"4","last_reported":1739625071,"current_range_meters":30000,"station_id":"","pricing_plan_id":"cebpf4jnsgd1na2vs0mg"},{"bike_id":"1f0657bb-7196-41de-84fc-c834bbf90b28","system_id":"levelo_inurba_marseille","lat":43.28072,"lon":5.39656,"is_reserved":false,"is_disabled":true,"rental_uris":{"android":"levelo://app?vid=1f0657bb-7196-41de-84fc-c834bbf90b28","ios":"levelo://app?vid=1f0657bb-7196-41de-84fc-c834bbf90b28"},"vehicle_type_id":"4","last_reported":1739625071,"current_range_meters":36400,"station_id":"ce4bho12rcd13ifvqh2g","pricing_plan_id":"cebpf4jnsgd1na2vs0mg"},{"bike_id":"4085957e-a34f-48ec-8023-d0e7a9e56b71","system_id":"levelo_inurba_marseille","lat":43.23059,"lon":5.35487,"is_reserved":false,"is_disabled":false,"rental_uris":{"android":"levelo://app?vid=4085957e-a34f-48ec-8023-d0e7a9e56b71","ios":"levelo://app?vid=4085957e-a34f-48ec-8023-d0e7a9e56b71"},"vehicle_type_id":"4","last_reported":1739625071,"current_range_meters":38800,"station_id":"cpo3342slgdg3j2ifvpg","pricing_plan_id":"cebpf4jnsgd1na2vs0mg"},{"bike_id":"1eaaa93a-5c29-40ae-a6a7-dc10bd39dcd0","system_id":"levelo_inurba_marseille","lat":43.27558,"lon":5.38416,"is_reserved":false,"is_disabled":false,"rental_uris":{"android":"levelo://app?vid=1eaaa93a-5c29-40ae-a6a7-dc10bd39dcd0","ios":"levelo://app?vid=1eaaa93a-5c29-40ae-a6a7-dc10bd39dcd0"},"vehicle_type_id":"4","last_reported":1739625071,"current_range_meters":39200,"station_id":"ce4bhh92rcd13ifvqfi0","pricing_plan_id":"cebpf4jnsgd1na2vs0mg"},{"bike_id":"eb76b568-2c76-47ff-9c1c-4d8d8150add3","system_id":"levelo_inurba_marseille","lat":43.26941,"lon":5.40251,"is_reserved":false,"is_disabled":false,"rental_uris":{"android":"levelo://app?vid=eb76b568-2c76-47ff-9c1c-4d8d8150add3","ios":"levelo://app?vid=eb76b568-2c76-47ff-9c1c-4d8d8150add3"},"vehicle_type_id":"4","last_reported":1739625071,"current_range_meters":31200,"station_id":"cjm6bp8fraef2m0cb0m0","pricing_plan_id":"cebpf4jnsgd1na2vs0mg"},{"bike_id":"a422c461-92a6-4632-9acb-761556b4e936","system_id":"levelo_inurba_marseille","lat":43.27054,"lon":5.40256,"is_reserved":false,"is_disabled":false,"rental_uris":{"android":"levelo://app?vid=a422c461-92a6-4632-9acb-761556b4e936","ios":"levelo://app?vid=a422c461-92a6-4632-9acb-761556b4e936"},"vehicle_type_id":"4","last_reported":1739625071,"current_range_meters":10800,"station_id":"ce4bhk92rcd13ifvqgc0","pricing_plan_id":"cebpf4jnsgd1na2vs0mg"},{"bike_id":"62f74766-31bc-4de9-affc-de7ef7c2d2d2","system_id":"levelo_inurba_marseille","lat":43.30209,"lon":5.39471,"is_reserved":false,"is_disabled":false,"rental_uris":{"android":"levelo://app?vid=62f74766-31bc-4de9-affc-de7ef7c2d2d2","ios":"levelo://app?vid=62f74766-31bc-4de9-affc-de7ef7c2d2d2"},"vehicle_type_id":"4","last_reported":1739625071,"current_range_meters":12000,"station_id":"ce4bh0p2rcd13ifvqd70","pricing_plan_id":"cebpf4jnsgd1na2vs0mg"},{"bike_id":"ae5fef56-5863-4d4b-a1a7-4181deb667e6","system_id":"levelo_inurba_marseille","lat":43.31164,"lon":5.38721,"is_reserved":false,"is_disabled":false,"rental_uris":{"android":"levelo://app?vid=ae5fef56-5863-4d4b-a1a7-4181deb667e6","ios":"levelo://app?vid=ae5fef56-5863-4d4b-a1a7-4181deb667e6"},"vehicle_type_id":"4","last_reported":1739625071,"current_range_meters":24400,"station_id":"ce4bgv12rcd13ifvqcp0","pricing_plan_id":"cebpf4jnsgd1na2vs0mg"},{"bike_id":"2e4b5732-e038-4613-a767-0f7b20df89d5","system_id":"levelo_inurba_marseille","lat":43.27216,"lon":5.39182,"is_reserved":false,"is_disabled":false,"rental_uris":{"android":"levelo://app?vid=2e4b5732-e038-4613-a767-0f7b20df89d5","ios":"levelo://app?vid=2e4b5732-e038-4613-a767-0f7b20df89d5"},"vehicle_type_id":"4","last_reported":1739625071,"current_range_meters":39200,"station_id":"ce4bhhp2rcd13ifvqfm0","pricing_plan_id":"cebpf4jnsgd1na2vs0mg"},{"bike_id":"0fadbc40-6831-48fd-b8ba-7929cacb1de4","system_id":"levelo_inurba_marseille","lat":43.29307,"lon":5.37452,"is_reserved":false,"is_disabled":false,"rental_uris":{"android":"levelo://app?vid=0fadbc40-6831-48fd-b8ba-7929cacb1de4","ios":"levelo://app?vid=0fadbc40-6831-48fd-b8ba-7929cacb1de4"},"vehicle_type_id":"4","last_reported":1739625071,"current_range_meters":33600,"station_id":"ce4bgi12rcd13ifvqb70","pricing_plan_id":"cebpf4jnsgd1na2vs0mg"},{"bike_id":"e0ac3828-c26c-4b02-8a79-aff116cdccd8","system_id":"levelo_inurba_marseille","lat":43.29536,"lon":5.37493,"is_reserved":false,"is_disabled":false,"rental_uris":{"android":"levelo://app?vid=e0ac3828-c26c-4b02-8a79-aff116cdccd8","ios":"levelo://app?vid=e0ac3828-c26c-4b02-8a79-aff116cdccd8"},"vehicle_type_id":"4","last_reported":1739625071,"current_range_meters":33600,"station_id":"ce4bgkp2rcd13ifvqbmg","pricing_plan_id":"cebpf4jnsgd1na2vs0mg"},{"bike_id":"f92e748a-9f9b-4e54-8084-07e33515f3d5","system_id":"levelo_inurba_marseille","lat":43.27071,"lon":5.39347,"is_reserved":false,"is_disabled":true,"rental_uris":{"android":"levelo://app?vid=f92e748a-9f9b-4e54-8084-07e33515f3d5","ios":"levelo://app?vid=f92e748a-9f9b-4e54-8084-07e33515f3d5"},"vehicle_type_id":"4","last_reported":1739625071,"current_range_meters":0,"station_id":"","pricing_plan_id":"cebpf4jnsgd1na2vs0mg"},{"bike_id":"e37cd727-54ed-4ebd-b616-8e4019f8eb2c","system_id":"levelo_inurba_marseille","lat":43.2511,"lon":5.40316,"is_reserved":false,"is_disabled":false,"rental_uris":{"android":"levelo://app?vid=e37cd727-54ed-4ebd-b616-8e4019f8eb2c","ios":"levelo://app?vid=e37cd727-54ed-4ebd-b616-8e4019f8eb2c"},"vehicle_type_id":"4","last_reported":1739625071,"current_range_meters":38000,"station_id":"ce4bhlh2rcd13ifvqgig","pricing_plan_id":"cebpf4jnsgd1na2vs0mg"},{"bike_id":"bdf75248-8f53-404d-b026-21541069f11c","system_id":"levelo_inurba_marseille","lat":43.28154,"lon":5.42637,"is_reserved":false,"is_disabled":false,"rental_uris":{"android":"levelo://app?vid=bdf75248-8f53-404d-b026-21541069f11c","ios":"levelo://app?vid=bdf75248-8f53-404d-b026-21541069f11c"},"vehicle_type_id":"4","last_reported":1739625071,"current_range_meters":8400,"station_id":"ce4bhnh2rcd13ifvqgug","pricing_plan_id":"cebpf4jnsgd1na2vs0mg"},{"bike_id":"7952817a-f953-4777-b984-7a113c67295e","system_id":"levelo_inurba_marseille","lat":43.26944,"lon":5.40244,"is_reserved":false,"is_disabled":false,"rental_uris":{"android":"levelo://app?vid=7952817a-f953-4777-b984-7a113c67295e","ios":"levelo://app?vid=7952817a-f953-4777-b984-7a113c67295e"},"vehicle_type_id":"4","last_reported":1739625071,"current_range_meters":32000,"station_id":"cjm6bp8fraef2m0cb0m0","pricing_plan_id":"cebpf4jnsgd1na2vs0mg"},{"bike_id":"1b93b707-8637-4b7f-af28-6eb8a6acbe7b","system_id":"levelo_inurba_marseille","lat":43.26214,"lon":5.37438,"is_reserved":false,"is_disabled":false,"rental_uris":{"android":"levelo://app?vid=1b93b707-8637-4b7f-af28-6eb8a6acbe7b","ios":"levelo://app?vid=1b93b707-8637-4b7f-af28-6eb8a6acbe7b"},"vehicle_type_id":"4","last_reported":1739625071,"current_range_meters":26800,"station_id":"ce4bhgp2rcd13ifvqfc0","pricing_plan_id":"cebpf4jnsgd1na2vs0mg"},{"bike_id":"cd73739e-6850-4923-81be-52053efe4bcd","system_id":"levelo_inurba_marseille","lat":43.286113,"lon":5.351112,"is_reserved":false,"is_disabled":false,"rental_uris":{"android":"levelo://app?vid=cd73739e-6850-4923-81be-52053efe4bcd","ios":"levelo://app?vid=cd73739e-6850-4923-81be-52053efe4bcd"},"vehicle_type_id":"4","last_reported":1739625071,"current_range_meters":26000,"station_id":"ce4bhch2rcd13ifvqeug","pricing_plan_id":"cebpf4jnsgd1na2vs0mg"},{"bike_id":"9cf8e6d9-67b8-441b-8ab4-08ef8560d2b0","system_id":"levelo_inurba_marseille","lat":43.33514,"lon":5.35585,"is_reserved":false,"is_disabled":true,"rental_uris":{"android":"levelo://app?vid=9cf8e6d9-67b8-441b-8ab4-08ef8560d2b0","ios":"levelo://app?vid=9cf8e6d9-67b8-441b-8ab4-08ef8560d2b0"},"vehicle_type_id":"4","last_reported":1739625071,"current_range_meters":0,"station_id":"","pricing_plan_id":"cebpf4jnsgd1na2vs0mg"},{"bike_id":"8faf12d7-d491-4b7a-966e-134b7a0502a5","system_id":"levelo_inurba_marseille","lat":43.24404,"lon":5.37085,"is_reserved":false,"is_disabled":false,"rental_uris":{"android":"levelo://app?vid=8faf12d7-d491-4b7a-966e-134b7a0502a5","ios":"levelo://app?vid=8faf12d7-d491-4b7a-966e-134b7a0502a5"},"vehicle_type_id":"4","last_reported":1739625071,"current_range_meters":20800,"station_id":"ce4bhhh2rcd13ifvqfk0","pricing_plan_id":"cebpf4jnsgd1na2vs0mg"},{"bike_id":"811b63d6-9c3c-4b06-849e-3b400f65e795","system_id":"levelo_inurba_marseille","lat":43.24632,"lon":5.38911,"is_reserved":false,"is_disabled":false,"rental_uris":{"android":"levelo://app?vid=811b63d6-9c3c-4b06-849e-3b400f65e795","ios":"levelo://app?vid=811b63d6-9c3c-4b06-849e-3b400f65e795"},"vehicle_type_id":"4","last_reported":1739625071,"current_range_meters":10000,"station_id":"ce4bhg12rcd13ifvqf60","pricing_plan_id":"cebpf4jnsgd1na2vs0mg"},{"bike_id":"57491ed9-edf1-4c79-8d0a-30014af40ce1","system_id":"levelo_inurba_marseille","lat":43.28268,"lon":5.35069,"is_reserved":false,"is_disabled":false,"rental_uris":{"android":"levelo://app?vid=57491ed9-edf1-4c79-8d0a-30014af40ce1","ios":"levelo://app?vid=57491ed9-edf1-4c79-8d0a-30014af40ce1"},"vehicle_type_id":"4","last_reported":1739625071,"current_range_meters":19200,"station_id":"ce4bhbp2rcd13ifvqerg","pricing_plan_id":"cebpf4jnsgd1na2vs0mg"},{"bike_id":"d653e854-459c-44ab-b1f2-51d766b5118d","system_id":"levelo_inurba_marseille","lat":43.27205,"lon":5.3917,"is_reserved":false,"is_disabled":false,"rental_uris":{"android":"levelo://app?vid=d653e854-459c-44ab-b1f2-51d766b5118d","ios":"levelo://app?vid=d653e854-459c-44ab-b1f2-51d766b5118d"},"vehicle_type_id":"4","last_reported":1739625071,"current_range_meters":10800,"station_id":"ce4bhhp2rcd13ifvqfm0","pricing_plan_id":"cebpf4jnsgd1na2vs0mg"},{"bike_id":"802a448c-de1b-42dc-9c21-98125d5e9bce","system_id":"levelo_inurba_marseille","lat":43.27616,"lon":5.36104,"is_reserved":false,"is_disabled":false,"rental_uris":{"android":"levelo://app?vid=802a448c-de1b-42dc-9c21-98125d5e9bce","ios":"levelo://app?vid=802a448c-de1b-42dc-9c21-98125d5e9bce"},"vehicle_type_id":"4","last_reported":1739625071,"current_range_meters":22000,"station_id":"ce4bgj92rcd13ifvqbe0","pricing_plan_id":"cebpf4jnsgd1na2vs0mg"},{"bike_id":"be9f3d93-6f26-425f-8b47-54b5e242f5cd","system_id":"levelo_inurba_marseille","lat":43.3042,"lon":5.3975,"is_reserved":false,"is_disabled":false,"rental_uris":{"android":"levelo://app?vid=be9f3d93-6f26-425f-8b47-54b5e242f5cd","ios":"levelo://app?vid=be9f3d93-6f26-425f-8b47-54b5e242f5cd"},"vehicle_type_id":"4","last_reported":1739625071,"current_range_meters":38800,"station_id":"ce4bh092rcd13ifvqd20","pricing_plan_id":"cebpf4jnsgd1na2vs0mg"},{"bike_id":"92852921-6c0f-4e80-9892-5002c3277bec","system_id":"levelo_inurba_marseille","lat":43.29551,"lon":5.4228,"is_reserved":false,"is_disabled":false,"rental_uris":{"android":"levelo://app?vid=92852921-6c0f-4e80-9892-5002c3277bec","ios":"levelo://app?vid=92852921-6c0f-4e80-9892-5002c3277bec"},"vehicle_type_id":"4","last_reported":1739625071,"current_range_meters":18800,"station_id":"ce4bhph2rcd13ifvqhdg","pricing_plan_id":"cebpf4jnsgd1na2vs0mg"},{"bike_id":"51ab7186-5043-4bed-baca-73708608a302","system_id":"levelo_inurba_marseille","lat":43.29584,"lon":5.37026,"is_reserved":false,"is_disabled":true,"rental_uris":{"android":"levelo://app?vid=51ab7186-5043-4bed-baca-73708608a302","ios":"levelo://app?vid=51ab7186-5043-4bed-baca-73708608a302"},"vehicle_type_id":"4","last_reported":1739625071,"current_range_meters":0,"station_id":"","pricing_plan_id":"cebpf4jnsgd1na2vs0mg"},{"bike_id":"f5711f88-ce1b-4dc3-8afb-b4980d137121","system_id":"levelo_inurba_marseille","lat":43.29503,"lon":5.37501,"is_reserved":false,"is_disabled":false,"rental_uris":{"android":"levelo://app?vid=f5711f88-ce1b-4dc3-8afb-b4980d137121","ios":"levelo://app?vid=f5711f88-ce1b-4dc3-8afb-b4980d137121"},"vehicle_type_id":"4","last_reported":1739625071,"current_range_meters":25200,"station_id":"ce4bgkp2rcd13ifvqbmg","pricing_plan_id":"cebpf4jnsgd1na2vs0mg"},{"bike_id":"7917314d-8c06-4629-b9de-b3e419a0622a","system_id":"levelo_inurba_marseille","lat":43.23058,"lon":5.35488,"is_reserved":false,"is_disabled":false,"rental_uris":{"android":"levelo://app?vid=7917314d-8c06-4629-b9de-b3e419a0622a","ios":"levelo://app?vid=7917314d-8c06-4629-b9de-b3e419a0622a"},"vehicle_type_id":"4","last_reported":1739625071,"current_range_meters":17600,"station_id":"cpo3342slgdg3j2ifvpg","pricing_plan_id":"cebpf4jnsgd1na2vs0mg"},{"bike_id":"78948909-7dfc-4a5a-a38d-28bdd6cb794c","system_id":"levelo_inurba_marseille","lat":43.31684,"lon":5.40476,"is_reserved":false,"is_disabled":false,"rental_uris":{"android":"levelo://app?vid=78948909-7dfc-4a5a-a38d-28bdd6cb794c","ios":"levelo://app?vid=78948909-7dfc-4a5a-a38d-28bdd6cb794c"},"vehicle_type_id":"4","last_reported":1739625071,"current_range_meters":38000,"station_id":"ce4bh012rcd13ifvqd00","pricing_plan_id":"cebpf4jnsgd1na2vs0mg"},{"bike_id":"5fbe50a8-885b-4657-b77c-df4181249707","system_id":"levelo_inurba_marseille","lat":43.30074,"lon":5.40479,"is_reserved":false,"is_disabled":false,"rental_uris":{"android":"levelo://app?vid=5fbe50a8-885b-4657-b77c-df4181249707","ios":"levelo://app?vid=5fbe50a8-885b-4657-b77c-df4181249707"},"vehicle_type_id":"4","last_reported":1739625071,"current_range_meters":34000,"station_id":"","pricing_plan_id":"cebpf4jnsgd1na2vs0mg"},{"bike_id":"c40e2cb9-b89c-4dbd-956b-535ef79f1d37","system_id":"levelo_inurba_marseille","lat":43.24813,"lon":5.37445,"is_reserved":false,"is_disabled":false,"rental_uris":{"android":"levelo://app?vid=c40e2cb9-b89c-4dbd-956b-535ef79f1d37","ios":"levelo://app?vid=c40e2cb9-b89c-4dbd-956b-535ef79f1d37"},"vehicle_type_id":"4","last_reported":1739625071,"current_range_meters":24400,"station_id":"ce4bhgh2rcd13ifvqfb0","pricing_plan_id":"cebpf4jnsgd1na2vs0mg"},{"bike_id":"8c1e1fd5-7f9d-4029-b4a7-6e476c840714","system_id":"levelo_inurba_marseille","lat":43.29196,"lon":5.35807,"is_reserved":false,"is_disabled":true,"rental_uris":{"android":"levelo://app?vid=8c1e1fd5-7f9d-4029-b4a7-6e476c840714","ios":"levelo://app?vid=8c1e1fd5-7f9d-4029-b4a7-6e476c840714"},"vehicle_type_id":"4","last_reported":1739625071,"current_range_meters":36400,"station_id":"ce4bhb12rcd13ifvqel0","pricing_plan_id":"cebpf4jnsgd1na2vs0mg"},{"bike_id":"3bd9eca9-e174-470e-baa8-92ee491ef429","system_id":"levelo_inurba_marseille","lat":43.24074,"lon":5.3776,"is_reserved":false,"is_disabled":false,"rental_uris":{"android":"levelo://app?vid=3bd9eca9-e174-470e-baa8-92ee491ef429","ios":"levelo://app?vid=3bd9eca9-e174-470e-baa8-92ee491ef429"},"vehicle_type_id":"4","last_reported":1739625071,"current_range_meters":32000,"station_id":"ce4bhnp2rcd13ifvqgvg","pricing_plan_id":"cebpf4jnsgd1na2vs0mg"},{"bike_id":"6d14ffd0-8cb0-40f3-8b6f-5b79b4098bae","system_id":"levelo_inurba_marseille","lat":43.28107,"lon":5.37837,"is_reserved":false,"is_disabled":false,"rental_uris":{"android":"levelo://app?vid=6d14ffd0-8cb0-40f3-8b6f-5b79b4098bae","ios":"levelo://app?vid=6d14ffd0-8cb0-40f3-8b6f-5b79b4098bae"},"vehicle_type_id":"4","last_reported":1739625071,"current_range_meters":32000,"station_id":"ce4bha12rcd13ifvqee0","pricing_plan_id":"cebpf4jnsgd1na2vs0mg"},{"bike_id":"acb44724-4345-4854-85c0-ea9f022059bb","system_id":"levelo_inurba_marseille","lat":43.24821,"lon":5.37422,"is_reserved":false,"is_disabled":false,"rental_uris":{"android":"levelo://app?vid=acb44724-4345-4854-85c0-ea9f022059bb","ios":"levelo://app?vid=acb44724-4345-4854-85c0-ea9f022059bb"},"vehicle_type_id":"4","last_reported":1739625071,"current_range_meters":39200,"station_id":"ce4bhgh2rcd13ifvqfb0","pricing_plan_id":"cebpf4jnsgd1na2vs0mg"},{"bike_id":"4afd05b5-41e1-4012-b907-304d88773920","system_id":"levelo_inurba_marseille","lat":43.23965,"lon":5.36621,"is_reserved":false,"is_disabled":false,"rental_uris":{"android":"levelo://app?vid=4afd05b5-41e1-4012-b907-304d88773920","ios":"levelo://app?vid=4afd05b5-41e1-4012-b907-304d88773920"},"vehicle_type_id":"4","last_reported":1739625071,"current_range_meters":38800,"station_id":"ce4bhi12rcd13ifvqfp0","pricing_plan_id":"cebpf4jnsgd1na2vs0mg"},{"bike_id":"d14e7467-3347-4ba6-812b-f392fe8a9151","system_id":"levelo_inurba_marseille","lat":43.29369,"lon":5.3782,"is_reserved":false,"is_disabled":false,"rental_uris":{"android":"levelo://app?vid=d14e7467-3347-4ba6-812b-f392fe8a9151","ios":"levelo://app?vid=d14e7467-3347-4ba6-812b-f392fe8a9151"},"vehicle_type_id":"4","last_reported":1739625071,"current_range_meters":23200,"station_id":"ce4bgjh2rcd13ifvqbf0","pricing_plan_id":"cebpf4jnsgd1na2vs0mg"},{"bike_id":"899e44e7-60b0-44a7-9ff3-d0219b681de2","system_id":"levelo_inurba_marseille","lat":43.28164,"lon":5.42652,"is_reserved":false,"is_disabled":false,"rental_uris":{"android":"levelo://app?vid=899e44e7-60b0-44a7-9ff3-d0219b681de2","ios":"levelo://app?vid=899e44e7-60b0-44a7-9ff3-d0219b681de2"},"vehicle_type_id":"4","last_reported":1739625071,"current_range_meters":35200,"station_id":"ce4bhnh2rcd13ifvqgug","pricing_plan_id":"cebpf4jnsgd1na2vs0mg"},{"bike_id":"e1d59543-b151-4dfc-8779-bec6f00f87d8","system_id":"levelo_inurba_marseille","lat":43.26205,"lon":5.37933,"is_reserved":false,"is_disabled":false,"rental_uris":{"android":"levelo://app?vid=e1d59543-b151-4dfc-8779-bec6f00f87d8","ios":"levelo://app?vid=e1d59543-b151-4dfc-8779-bec6f00f87d8"},"vehicle_type_id":"4","last_reported":1739625071,"current_range_meters":38000,"station_id":"ce4bhjp2rcd13ifvqg90","pricing_plan_id":"cebpf4jnsgd1na2vs0mg"},{"bike_id":"0c8f77b4-e2d3-4959-9595-23898a9b76cd","system_id":"levelo_inurba_marseille","lat":43.30424,"lon":5.39751,"is_reserved":false,"is_disabled":false,"rental_uris":{"android":"levelo://app?vid=0c8f77b4-e2d3-4959-9595-23898a9b76cd","ios":"levelo://app?vid=0c8f77b4-e2d3-4959-9595-23898a9b76cd"},"vehicle_type_id":"4","last_reported":1739625071,"current_range_meters":25600,"station_id":"ce4bh092rcd13ifvqd20","pricing_plan_id":"cebpf4jnsgd1na2vs0mg"},{"bike_id":"03b02bf5-5e6d-4b1c-abfe-96890ec6cf4f","system_id":"levelo_inurba_marseille","lat":43.2842,"lon":5.34989,"is_reserved":false,"is_disabled":false,"rental_uris":{"android":"levelo://app?vid=03b02bf5-5e6d-4b1c-abfe-96890ec6cf4f","ios":"levelo://app?vid=03b02bf5-5e6d-4b1c-abfe-96890ec6cf4f"},"vehicle_type_id":"4","last_reported":1739625071,"current_range_meters":8000,"station_id":"ce4bhbh2rcd13ifvqepg","pricing_plan_id":"cebpf4jnsgd1na2vs0mg"},{"bike_id":"dee3601d-ddca-408e-b8e5-fdf3429aa605","system_id":"levelo_inurba_marseille","lat":43.29013,"lon":5.35587,"is_reserved":false,"is_disabled":false,"rental_uris":{"android":"levelo://app?vid=dee3601d-ddca-408e-b8e5-fdf3429aa605","ios":"levelo://app?vid=dee3601d-ddca-408e-b8e5-fdf3429aa605"},"vehicle_type_id":"4","last_reported":1739625071,"current_range_meters":38800,"station_id":"ce4bhb92rcd13ifvqen0","pricing_plan_id":"cebpf4jnsgd1na2vs0mg"},{"bike_id":"29cf4d1a-ccab-47b7-95f1-f6a1fd28b7c1","system_id":"levelo_inurba_marseille","lat":43.30561,"lon":5.36523,"is_reserved":false,"is_disabled":false,"rental_uris":{"android":"levelo://app?vid=29cf4d1a-ccab-47b7-95f1-f6a1fd28b7c1","ios":"levelo://app?vid=29cf4d1a-ccab-47b7-95f1-f6a1fd28b7c1"},"vehicle_type_id":"4","last_reported":1739625071,"current_range_meters":36000,"station_id":"ce4bgs12rcd13ifvqcag","pricing_plan_id":"cebpf4jnsgd1na2vs0mg"},{"bike_id":"397f7144-3e20-4f61-9149-2720265fc375","system_id":"levelo_inurba_marseille","lat":43.24071,"lon":5.3774,"is_reserved":false,"is_disabled":false,"rental_uris":{"android":"levelo://app?vid=397f7144-3e20-4f61-9149-2720265fc375","ios":"levelo://app?vid=397f7144-3e20-4f61-9149-2720265fc375"},"vehicle_type_id":"4","last_reported":1739625071,"current_range_meters":38000,"station_id":"ce4bhnp2rcd13ifvqgvg","pricing_plan_id":"cebpf4jnsgd1na2vs0mg"},{"bike_id":"a631f734-4aa1-4ec4-bfa7-ef8429122ef0","system_id":"levelo_inurba_marseille","lat":43.257193,"lon":5.411059,"is_reserved":false,"is_disabled":false,"rental_uris":{"android":"levelo://app?vid=a631f734-4aa1-4ec4-bfa7-ef8429122ef0","ios":"levelo://app?vid=a631f734-4aa1-4ec4-bfa7-ef8429122ef0"},"vehicle_type_id":"4","last_reported":1739625071,"current_range_meters":17600,"station_id":"ce4bhkp2rcd13ifvqgd0","pricing_plan_id":"cebpf4jnsgd1na2vs0mg"},{"bike_id":"9c5a9138-5c3d-41ea-947f-4245b3af750a","system_id":"levelo_inurba_marseille","lat":43.2973,"lon":5.3767,"is_reserved":false,"is_disabled":false,"rental_uris":{"android":"levelo://app?vid=9c5a9138-5c3d-41ea-947f-4245b3af750a","ios":"levelo://app?vid=9c5a9138-5c3d-41ea-947f-4245b3af750a"},"vehicle_type_id":"4","last_reported":1739625071,"current_range_meters":38800,"station_id":"ce4bgkh2rcd13ifvqbl0","pricing_plan_id":"cebpf4jnsgd1na2vs0mg"},{"bike_id":"addfb2b6-c9a1-47f5-bfe0-3c3e7b223f7e","system_id":"levelo_inurba_marseille","lat":43.27624,"lon":5.3609,"is_reserved":false,"is_disabled":false,"rental_uris":{"android":"levelo://app?vid=addfb2b6-c9a1-47f5-bfe0-3c3e7b223f7e","ios":"levelo://app?vid=addfb2b6-c9a1-47f5-bfe0-3c3e7b223f7e"},"vehicle_type_id":"4","last_reported":1739625071,"current_range_meters":33200,"station_id":"ce4bgj92rcd13ifvqbe0","pricing_plan_id":"cebpf4jnsgd1na2vs0mg"},{"bike_id":"e2b6f8ca-f3b3-4e48-b127-0ec322c43b22","system_id":"levelo_inurba_marseille","lat":43.2743,"lon":5.394,"is_reserved":false,"is_disabled":false,"rental_uris":{"android":"levelo://app?vid=e2b6f8ca-f3b3-4e48-b127-0ec322c43b22","ios":"levelo://app?vid=e2b6f8ca-f3b3-4e48-b127-0ec322c43b22"},"vehicle_type_id":"4","last_reported":1739625071,"current_range_meters":38000,"station_id":"ce4bhdp2rcd13ifvqf20","pricing_plan_id":"cebpf4jnsgd1na2vs0mg"},{"bike_id":"907da6ac-e466-4f41-bfeb-cfec118a1581","system_id":"levelo_inurba_marseille","lat":43.24807,"lon":5.37456,"is_reserved":false,"is_disabled":false,"rental_uris":{"android":"levelo://app?vid=907da6ac-e466-4f41-bfeb-cfec118a1581","ios":"levelo://app?vid=907da6ac-e466-4f41-bfeb-cfec118a1581"},"vehicle_type_id":"4","last_reported":1739625071,"current_range_meters":20400,"station_id":"ce4bhgh2rcd13ifvqfb0","pricing_plan_id":"cebpf4jnsgd1na2vs0mg"},{"bike_id":"9d7c84b1-5e85-40b5-9214-0ea5f354ecac","system_id":"levelo_inurba_marseille","lat":43.28623,"lon":5.38441,"is_reserved":false,"is_disabled":false,"rental_uris":{"android":"levelo://app?vid=9d7c84b1-5e85-40b5-9214-0ea5f354ecac","ios":"levelo://app?vid=9d7c84b1-5e85-40b5-9214-0ea5f354ecac"},"vehicle_type_id":"4","last_reported":1739625071,"current_range_meters":16000,"station_id":"","pricing_plan_id":"cebpf4jnsgd1na2vs0mg"},{"bike_id":"399d0657-6459-44a5-9fa4-da6f3d13ef04","system_id":"levelo_inurba_marseille","lat":43.313326,"lon":5.39692,"is_reserved":false,"is_disabled":false,"rental_uris":{"android":"levelo://app?vid=399d0657-6459-44a5-9fa4-da6f3d13ef04","ios":"levelo://app?vid=399d0657-6459-44a5-9fa4-da6f3d13ef04"},"vehicle_type_id":"4","last_reported":1739625071,"current_range_meters":14800,"station_id":"ce4bgvp2rcd13ifvqcu0","pricing_plan_id":"cebpf4jnsgd1na2vs0mg"},{"bike_id":"431470e3-8ba8-45e5-9290-338e5bcf2691","system_id":"levelo_inurba_marseille","lat":43.28262,"lon":5.35032,"is_reserved":false,"is_disabled":false,"rental_uris":{"android":"levelo://app?vid=431470e3-8ba8-45e5-9290-338e5bcf2691","ios":"levelo://app?vid=431470e3-8ba8-45e5-9290-338e5bcf2691"},"vehicle_type_id":"4","last_reported":1739625071,"current_range_meters":4400,"station_id":"ce4bhbp2rcd13ifvqerg","pricing_plan_id":"cebpf4jnsgd1na2vs0mg"},{"bike_id":"258f2806-7b6c-4de8-8a7d-3a791724ae3d","system_id":"levelo_inurba_marseille","lat":43.28002,"lon":5.4167,"is_reserved":false,"is_disabled":false,"rental_uris":{"android":"levelo://app?vid=258f2806-7b6c-4de8-8a7d-3a791724ae3d","ios":"levelo://app?vid=258f2806-7b6c-4de8-8a7d-3a791724ae3d"},"vehicle_type_id":"4","last_reported":1739625071,"current_range_meters":38800,"station_id":"ce4bho12rcd13ifvqh1g","pricing_plan_id":"cebpf4jnsgd1na2vs0mg"},{"bike_id":"4d6e49dc-0217-4c48-81e3-a41ee9974ed0","system_id":"levelo_inurba_marseille","lat":43.29275,"lon":5.36842,"is_reserved":false,"is_disabled":false,"rental_uris":{"android":"levelo://app?vid=4d6e49dc-0217-4c48-81e3-a41ee9974ed0","ios":"levelo://app?vid=4d6e49dc-0217-4c48-81e3-a41ee9974ed0"},"vehicle_type_id":"4","last_reported":1739625071,"current_range_meters":26000,"station_id":"ce4bhbp2rcd13ifvqesg","pricing_plan_id":"cebpf4jnsgd1na2vs0mg"},{"bike_id":"c563d63c-4647-411d-9ead-dba451cb2662","system_id":"levelo_inurba_marseille","lat":43.28271,"lon":5.3509,"is_reserved":false,"is_disabled":false,"rental_uris":{"android":"levelo://app?vid=c563d63c-4647-411d-9ead-dba451cb2662","ios":"levelo://app?vid=c563d63c-4647-411d-9ead-dba451cb2662"},"vehicle_type_id":"4","last_reported":1739625071,"current_range_meters":38800,"station_id":"ce4bhbp2rcd13ifvqerg","pricing_plan_id":"cebpf4jnsgd1na2vs0mg"},{"bike_id":"5441eb2e-187a-49aa-bff7-8eada0ab5d7d","system_id":"levelo_inurba_marseille","lat":43.28414,"lon":5.34987,"is_reserved":false,"is_disabled":false,"rental_uris":{"android":"levelo://app?vid=5441eb2e-187a-49aa-bff7-8eada0ab5d7d","ios":"levelo://app?vid=5441eb2e-187a-49aa-bff7-8eada0ab5d7d"},"vehicle_type_id":"4","last_reported":1739625071,"current_range_meters":16800,"station_id":"ce4bhbh2rcd13ifvqepg","pricing_plan_id":"cebpf4jnsgd1na2vs0mg"},{"bike_id":"ea97ac5e-3549-4466-a935-a370db5cd759","system_id":"levelo_inurba_marseille","lat":43.27942,"lon":5.41034,"is_reserved":false,"is_disabled":false,"rental_uris":{"android":"levelo://app?vid=ea97ac5e-3549-4466-a935-a370db5cd759","ios":"levelo://app?vid=ea97ac5e-3549-4466-a935-a370db5cd759"},"vehicle_type_id":"4","last_reported":1739625071,"current_range_meters":29600,"station_id":"ce4bhnp2rcd13ifvqh0g","pricing_plan_id":"cebpf4jnsgd1na2vs0mg"},{"bike_id":"d0366eab-598a-4252-a062-ddcd4c837443","system_id":"levelo_inurba_marseille","lat":43.269307,"lon":5.389159,"is_reserved":false,"is_disabled":false,"rental_uris":{"android":"levelo://app?vid=d0366eab-598a-4252-a062-ddcd4c837443","ios":"levelo://app?vid=d0366eab-598a-4252-a062-ddcd4c837443"},"vehicle_type_id":"4","last_reported":1739625071,"current_range_meters":38800,"station_id":"ce4bhhh2rcd13ifvqfl0","pricing_plan_id":"cebpf4jnsgd1na2vs0mg"},{"bike_id":"4246b54a-29ef-4d8c-8fd0-796f71091241","system_id":"levelo_inurba_marseille","lat":43.26206,"lon":5.3792,"is_reserved":false,"is_disabled":true,"rental_uris":{"android":"levelo://app?vid=4246b54a-29ef-4d8c-8fd0-796f71091241","ios":"levelo://app?vid=4246b54a-29ef-4d8c-8fd0-796f71091241"},"vehicle_type_id":"4","last_reported":1739625071,"current_range_meters":0,"station_id":"ce4bhjp2rcd13ifvqg90","pricing_plan_id":"cebpf4jnsgd1na2vs0mg"},{"bike_id":"d1b7e7c3-d876-4585-aa93-a701646b8c19","system_id":"levelo_inurba_marseille","lat":43.2319,"lon":5.39996,"is_reserved":false,"is_disabled":false,"rental_uris":{"android":"levelo://app?vid=d1b7e7c3-d876-4585-aa93-a701646b8c19","ios":"levelo://app?vid=d1b7e7c3-d876-4585-aa93-a701646b8c19"},"vehicle_type_id":"4","last_reported":1739625071,"current_range_meters":39200,"station_id":"ce4bhn12rcd13ifvqgqg","pricing_plan_id":"cebpf4jnsgd1na2vs0mg"},{"bike_id":"dc4fc55f-0ea9-49a1-bb39-4722eda2c2cd","system_id":"levelo_inurba_marseille","lat":43.29913,"lon":5.376587,"is_reserved":false,"is_disabled":false,"rental_uris":{"android":"levelo://app?vid=dc4fc55f-0ea9-49a1-bb39-4722eda2c2cd","ios":"levelo://app?vid=dc4fc55f-0ea9-49a1-bb39-4722eda2c2cd"},"vehicle_type_id":"4","last_reported":1739625071,"current_range_meters":18000,"station_id":"","pricing_plan_id":"cebpf4jnsgd1na2vs0mg"},{"bike_id":"151b4b94-201a-42b7-9cd0-0a3bdd281af1","system_id":"levelo_inurba_marseille","lat":43.28409,"lon":5.34982,"is_reserved":false,"is_disabled":false,"rental_uris":{"android":"levelo://app?vid=151b4b94-201a-42b7-9cd0-0a3bdd281af1","ios":"levelo://app?vid=151b4b94-201a-42b7-9cd0-0a3bdd281af1"},"vehicle_type_id":"4","last_reported":1739625071,"current_range_meters":32000,"station_id":"ce4bhbh2rcd13ifvqepg","pricing_plan_id":"cebpf4jnsgd1na2vs0mg"},{"bike_id":"10410a5f-c872-4cbc-84fb-fe2ad13b1e20","system_id":"levelo_inurba_marseille","lat":43.28429,"lon":5.34997,"is_reserved":false,"is_disabled":false,"rental_uris":{"android":"levelo://app?vid=10410a5f-c872-4cbc-84fb-fe2ad13b1e20","ios":"levelo://app?vid=10410a5f-c872-4cbc-84fb-fe2ad13b1e20"},"vehicle_type_id":"4","last_reported":1739625071,"current_range_meters":28800,"station_id":"ce4bhbh2rcd13ifvqepg","pricing_plan_id":"cebpf4jnsgd1na2vs0mg"},{"bike_id":"20291502-ee6b-4666-848b-50e2c2484636","system_id":"levelo_inurba_marseille","lat":43.29191,"lon":5.35799,"is_reserved":false,"is_disabled":false,"rental_uris":{"android":"levelo://app?vid=20291502-ee6b-4666-848b-50e2c2484636","ios":"levelo://app?vid=20291502-ee6b-4666-848b-50e2c2484636"},"vehicle_type_id":"4","last_reported":1739625071,"current_range_meters":30000,"station_id":"ce4bhb12rcd13ifvqel0","pricing_plan_id":"cebpf4jnsgd1na2vs0mg"},{"bike_id":"d2c98906-95e6-41f0-887e-addf55786d50","system_id":"levelo_inurba_marseille","lat":43.27943,"lon":5.41037,"is_reserved":false,"is_disabled":false,"rental_uris":{"android":"levelo://app?vid=d2c98906-95e6-41f0-887e-addf55786d50","ios":"levelo://app?vid=d2c98906-95e6-41f0-887e-addf55786d50"},"vehicle_type_id":"4","last_reported":1739625071,"current_range_meters":25200,"station_id":"ce4bhnp2rcd13ifvqh0g","pricing_plan_id":"cebpf4jnsgd1na2vs0mg"},{"bike_id":"72526c7a-bad2-48be-9eb5-30027376ec95","system_id":"levelo_inurba_marseille","lat":43.23206,"lon":5.35576,"is_reserved":false,"is_disabled":false,"rental_uris":{"android":"levelo://app?vid=72526c7a-bad2-48be-9eb5-30027376ec95","ios":"levelo://app?vid=72526c7a-bad2-48be-9eb5-30027376ec95"},"vehicle_type_id":"4","last_reported":1739625071,"current_range_meters":8400,"station_id":"ce4bhu92rcd13ifvqi70","pricing_plan_id":"cebpf4jnsgd1na2vs0mg"},{"bike_id":"ce8309f3-6192-477b-8120-f3499f1a1bd7","system_id":"levelo_inurba_marseille","lat":43.29363,"lon":5.37849,"is_reserved":false,"is_disabled":false,"rental_uris":{"android":"levelo://app?vid=ce8309f3-6192-477b-8120-f3499f1a1bd7","ios":"levelo://app?vid=ce8309f3-6192-477b-8120-f3499f1a1bd7"},"vehicle_type_id":"4","last_reported":1739625071,"current_range_meters":8800,"station_id":"ce4bgjh2rcd13ifvqbf0","pricing_plan_id":"cebpf4jnsgd1na2vs0mg"},{"bike_id":"9af4b56b-cb93-463a-9889-79218f110253","system_id":"levelo_inurba_marseille","lat":43.30887,"lon":5.39651,"is_reserved":false,"is_disabled":false,"rental_uris":{"android":"levelo://app?vid=9af4b56b-cb93-463a-9889-79218f110253","ios":"levelo://app?vid=9af4b56b-cb93-463a-9889-79218f110253"},"vehicle_type_id":"4","last_reported":1739625071,"current_range_meters":6800,"station_id":"ce4bh012rcd13ifvqcv0","pricing_plan_id":"cebpf4jnsgd1na2vs0mg"},{"bike_id":"7c9cc0df-5b48-4e07-aba2-fde33187e3a7","system_id":"levelo_inurba_marseille","lat":43.30091,"lon":5.39077,"is_reserved":false,"is_disabled":false,"rental_uris":{"android":"levelo://app?vid=7c9cc0df-5b48-4e07-aba2-fde33187e3a7","ios":"levelo://app?vid=7c9cc0df-5b48-4e07-aba2-fde33187e3a7"},"vehicle_type_id":"4","last_reported":1739625071,"current_range_meters":32000,"station_id":"ce4bh192rcd13ifvqdb0","pricing_plan_id":"cebpf4jnsgd1na2vs0mg"},{"bike_id":"03eba1d0-92c1-4e6e-a4d0-7c546f2439c0","system_id":"levelo_inurba_marseille","lat":43.337444,"lon":5.374475,"is_reserved":false,"is_disabled":true,"rental_uris":{"android":"levelo://app?vid=03eba1d0-92c1-4e6e-a4d0-7c546f2439c0","ios":"levelo://app?vid=03eba1d0-92c1-4e6e-a4d0-7c546f2439c0"},"vehicle_type_id":"4","last_reported":1739625071,"current_range_meters":0,"station_id":"","pricing_plan_id":"cebpf4jnsgd1na2vs0mg"},{"bike_id":"3ce9ce58-7c99-4dbb-a109-d0a36243ebfb","system_id":"levelo_inurba_marseille","lat":43.28443,"lon":5.39172,"is_reserved":false,"is_disabled":true,"rental_uris":{"android":"levelo://app?vid=3ce9ce58-7c99-4dbb-a109-d0a36243ebfb","ios":"levelo://app?vid=3ce9ce58-7c99-4dbb-a109-d0a36243ebfb"},"vehicle_type_id":"4","last_reported":1739625071,"current_range_meters":32400,"station_id":"ce4bhoh2rcd13ifvqh5g","pricing_plan_id":"cebpf4jnsgd1na2vs0mg"},{"bike_id":"37d274bc-7488-45e2-be26-b72715489ecd","system_id":"levelo_inurba_marseille","lat":43.28449,"lon":5.39188,"is_reserved":false,"is_disabled":true,"rental_uris":{"android":"levelo://app?vid=37d274bc-7488-45e2-be26-b72715489ecd","ios":"levelo://app?vid=37d274bc-7488-45e2-be26-b72715489ecd"},"vehicle_type_id":"4","last_reported":1739625071,"current_range_meters":36800,"station_id":"ce4bhoh2rcd13ifvqh5g","pricing_plan_id":"cebpf4jnsgd1na2vs0mg"},{"bike_id":"cee01093-5c3c-4659-b3ca-1143caf81825","system_id":"levelo_inurba_marseille","lat":43.26552,"lon":5.37286,"is_reserved":false,"is_disabled":false,"rental_uris":{"android":"levelo://app?vid=cee01093-5c3c-4659-b3ca-1143caf81825","ios":"levelo://app?vid=cee01093-5c3c-4659-b3ca-1143caf81825"},"vehicle_type_id":"4","last_reported":1739625071,"current_range_meters":37600,"station_id":"ce4bhg12rcd13ifvqf70","pricing_plan_id":"cebpf4jnsgd1na2vs0mg"},{"bike_id":"3238c627-e4e2-46f4-87d6-ad32ab687642","system_id":"levelo_inurba_marseille","lat":43.29418,"lon":5.38638,"is_reserved":false,"is_disabled":false,"rental_uris":{"android":"levelo://app?vid=3238c627-e4e2-46f4-87d6-ad32ab687642","ios":"levelo://app?vid=3238c627-e4e2-46f4-87d6-ad32ab687642"},"vehicle_type_id":"4","last_reported":1739625071,"current_range_meters":38400,"station_id":"ce4bh2h2rcd13ifvqdh0","pricing_plan_id":"cebpf4jnsgd1na2vs0mg"},{"bike_id":"306a4d04-07c8-410b-8655-167e5846186c","system_id":"levelo_inurba_marseille","lat":43.31491,"lon":5.37238,"is_reserved":false,"is_disabled":false,"rental_uris":{"android":"levelo://app?vid=306a4d04-07c8-410b-8655-167e5846186c","ios":"levelo://app?vid=306a4d04-07c8-410b-8655-167e5846186c"},"vehicle_type_id":"4","last_reported":1739625071,"current_range_meters":26800,"station_id":"ce4bgt12rcd13ifvqcd0","pricing_plan_id":"cebpf4jnsgd1na2vs0mg"},{"bike_id":"5016e875-414a-41bd-8f00-6a5845e39ba6","system_id":"levelo_inurba_marseille","lat":43.30798,"lon":5.43525,"is_reserved":false,"is_disabled":false,"rental_uris":{"android":"levelo://app?vid=5016e875-414a-41bd-8f00-6a5845e39ba6","ios":"levelo://app?vid=5016e875-414a-41bd-8f00-6a5845e39ba6"},"vehicle_type_id":"4","last_reported":1739625071,"current_range_meters":29600,"station_id":"ce4bhph2rcd13ifvqheg","pricing_plan_id":"cebpf4jnsgd1na2vs0mg"},{"bike_id":"d05b6a95-cdee-4138-a73d-03528f55d352","system_id":"levelo_inurba_marseille","lat":43.29554,"lon":5.42289,"is_reserved":false,"is_disabled":false,"rental_uris":{"android":"levelo://app?vid=d05b6a95-cdee-4138-a73d-03528f55d352","ios":"levelo://app?vid=d05b6a95-cdee-4138-a73d-03528f55d352"},"vehicle_type_id":"4","last_reported":1739625071,"current_range_meters":33200,"station_id":"ce4bhph2rcd13ifvqhdg","pricing_plan_id":"cebpf4jnsgd1na2vs0mg"},{"bike_id":"683dd2bd-1e81-48dd-a1eb-4b7a7378e30c","system_id":"levelo_inurba_marseille","lat":43.24386,"lon":5.37051,"is_reserved":false,"is_disabled":false,"rental_uris":{"android":"levelo://app?vid=683dd2bd-1e81-48dd-a1eb-4b7a7378e30c","ios":"levelo://app?vid=683dd2bd-1e81-48dd-a1eb-4b7a7378e30c"},"vehicle_type_id":"4","last_reported":1739625071,"current_range_meters":39200,"station_id":"ce4bhhh2rcd13ifvqfk0","pricing_plan_id":"cebpf4jnsgd1na2vs0mg"},{"bike_id":"bc8f8c2f-8301-4cf3-92c3-cc9f07ac1a74","system_id":"levelo_inurba_marseille","lat":43.29005,"lon":5.35608,"is_reserved":false,"is_disabled":false,"rental_uris":{"android":"levelo://app?vid=bc8f8c2f-8301-4cf3-92c3-cc9f07ac1a74","ios":"levelo://app?vid=bc8f8c2f-8301-4cf3-92c3-cc9f07ac1a74"},"vehicle_type_id":"4","last_reported":1739625071,"current_range_meters":23200,"station_id":"ce4bhb92rcd13ifvqen0","pricing_plan_id":"cebpf4jnsgd1na2vs0mg"},{"bike_id":"bd8ecd74-5502-4a33-aa50-324d14f9caf3","system_id":"levelo_inurba_marseille","lat":43.262,"lon":5.37919,"is_reserved":false,"is_disabled":false,"rental_uris":{"android":"levelo://app?vid=bd8ecd74-5502-4a33-aa50-324d14f9caf3","ios":"levelo://app?vid=bd8ecd74-5502-4a33-aa50-324d14f9caf3"},"vehicle_type_id":"4","last_reported":1739625071,"current_range_meters":31200,"station_id":"ce4bhjp2rcd13ifvqg90","pricing_plan_id":"cebpf4jnsgd1na2vs0mg"},{"bike_id":"bd1fbd17-5ecd-4c2a-9290-d1ffd1a70214","system_id":"levelo_inurba_marseille","lat":43.29545,"lon":5.42288,"is_reserved":false,"is_disabled":false,"rental_uris":{"android":"levelo://app?vid=bd1fbd17-5ecd-4c2a-9290-d1ffd1a70214","ios":"levelo://app?vid=bd1fbd17-5ecd-4c2a-9290-d1ffd1a70214"},"vehicle_type_id":"4","last_reported":1739625071,"current_range_meters":32800,"station_id":"ce4bhph2rcd13ifvqhdg","pricing_plan_id":"cebpf4jnsgd1na2vs0mg"},{"bike_id":"e492bf36-b9da-4024-88d1-1b3161c4bdab","system_id":"levelo_inurba_marseille","lat":43.2695,"lon":5.4027,"is_reserved":false,"is_disabled":false,"rental_uris":{"android":"levelo://app?vid=e492bf36-b9da-4024-88d1-1b3161c4bdab","ios":"levelo://app?vid=e492bf36-b9da-4024-88d1-1b3161c4bdab"},"vehicle_type_id":"4","last_reported":1739625071,"current_range_meters":39200,"station_id":"cjm6bp8fraef2m0cb0m0","pricing_plan_id":"cebpf4jnsgd1na2vs0mg"},{"bike_id":"d43528c0-bc71-47e5-95e7-fda200b40a43","system_id":"levelo_inurba_marseille","lat":43.30157,"lon":5.38099,"is_reserved":false,"is_disabled":false,"rental_uris":{"android":"levelo://app?vid=d43528c0-bc71-47e5-95e7-fda200b40a43","ios":"levelo://app?vid=d43528c0-bc71-47e5-95e7-fda200b40a43"},"vehicle_type_id":"4","last_reported":1739625071,"current_range_meters":32800,"station_id":"ce4bgjp2rcd13ifvqbh0","pricing_plan_id":"cebpf4jnsgd1na2vs0mg"},{"bike_id":"4f34ac20-13f8-4bff-8fa6-5425328bb98e","system_id":"levelo_inurba_marseille","lat":43.30261,"lon":5.40052,"is_reserved":false,"is_disabled":true,"rental_uris":{"android":"levelo://app?vid=4f34ac20-13f8-4bff-8fa6-5425328bb98e","ios":"levelo://app?vid=4f34ac20-13f8-4bff-8fa6-5425328bb98e"},"vehicle_type_id":"4","last_reported":1739625071,"current_range_meters":28000,"station_id":"ce4bgvh2rcd13ifvqcs0","pricing_plan_id":"cebpf4jnsgd1na2vs0mg"},{"bike_id":"95b44814-f984-47a7-9d5d-b7aa69f907c9","system_id":"levelo_inurba_marseille","lat":43.28415,"lon":5.37512,"is_reserved":false,"is_disabled":true,"rental_uris":{"android":"levelo://app?vid=95b44814-f984-47a7-9d5d-b7aa69f907c9","ios":"levelo://app?vid=95b44814-f984-47a7-9d5d-b7aa69f907c9"},"vehicle_type_id":"4","last_reported":1739625071,"current_range_meters":11200,"station_id":"ce4bh412rcd13ifvqds0","pricing_plan_id":"cebpf4jnsgd1na2vs0mg"},{"bike_id":"f34a7b42-53a4-4421-8d12-005557cc565c","system_id":"levelo_inurba_marseille","lat":43.25,"lon":5.38925,"is_reserved":false,"is_disabled":false,"rental_uris":{"android":"levelo://app?vid=f34a7b42-53a4-4421-8d12-005557cc565c","ios":"levelo://app?vid=f34a7b42-53a4-4421-8d12-005557cc565c"},"vehicle_type_id":"4","last_reported":1739625071,"current_range_meters":3600,"station_id":"ce4bhgp2rcd13ifvqfd0","pricing_plan_id":"cebpf4jnsgd1na2vs0mg"},{"bike_id":"7ce19e4f-c127-4895-9ad8-43c92fc3fc8b","system_id":"levelo_inurba_marseille","lat":43.23057,"lon":5.35491,"is_reserved":false,"is_disabled":false,"rental_uris":{"android":"levelo://app?vid=7ce19e4f-c127-4895-9ad8-43c92fc3fc8b","ios":"levelo://app?vid=7ce19e4f-c127-4895-9ad8-43c92fc3fc8b"},"vehicle_type_id":"4","last_reported":1739625071,"current_range_meters":16400,"station_id":"cpo3342slgdg3j2ifvpg","pricing_plan_id":"cebpf4jnsgd1na2vs0mg"},{"bike_id":"1ceb3fc3-67ac-401a-b607-48e566d19a0d","system_id":"levelo_inurba_marseille","lat":43.25498,"lon":5.37648,"is_reserved":false,"is_disabled":false,"rental_uris":{"android":"levelo://app?vid=1ceb3fc3-67ac-401a-b607-48e566d19a0d","ios":"levelo://app?vid=1ceb3fc3-67ac-401a-b607-48e566d19a0d"},"vehicle_type_id":"4","last_reported":1739625071,"current_range_meters":9600,"station_id":"ce4bhh12rcd13ifvqff0","pricing_plan_id":"cebpf4jnsgd1na2vs0mg"},{"bike_id":"17e4f440-e83b-482c-adcf-1dfa2f498c2f","system_id":"levelo_inurba_marseille","lat":43.30608,"lon":5.37207,"is_reserved":false,"is_disabled":false,"rental_uris":{"android":"levelo://app?vid=17e4f440-e83b-482c-adcf-1dfa2f498c2f","ios":"levelo://app?vid=17e4f440-e83b-482c-adcf-1dfa2f498c2f"},"vehicle_type_id":"4","last_reported":1739625071,"current_range_meters":8800,"station_id":"ce4bgqh2rcd13ifvqc4g","pricing_plan_id":"cebpf4jnsgd1na2vs0mg"},{"bike_id":"312ffda6-57ec-493a-a409-1ceba4974ee9","system_id":"levelo_inurba_marseille","lat":43.311774,"lon":5.387211,"is_reserved":false,"is_disabled":false,"rental_uris":{"android":"levelo://app?vid=312ffda6-57ec-493a-a409-1ceba4974ee9","ios":"levelo://app?vid=312ffda6-57ec-493a-a409-1ceba4974ee9"},"vehicle_type_id":"4","last_reported":1739625071,"current_range_meters":29600,"station_id":"ce4bgv12rcd13ifvqcp0","pricing_plan_id":"cebpf4jnsgd1na2vs0mg"},{"bike_id":"3b2bde9a-e21b-4f53-b40f-a6b97bfabe92","system_id":"levelo_inurba_marseille","lat":43.290283,"lon":5.386689,"is_reserved":false,"is_disabled":false,"rental_uris":{"android":"levelo://app?vid=3b2bde9a-e21b-4f53-b40f-a6b97bfabe92","ios":"levelo://app?vid=3b2bde9a-e21b-4f53-b40f-a6b97bfabe92"},"vehicle_type_id":"4","last_reported":1739625071,"current_range_meters":16400,"station_id":"ce4bh4p2rcd13ifvqe0g","pricing_plan_id":"cebpf4jnsgd1na2vs0mg"},{"bike_id":"d4ccd934-9aa2-454a-99b4-3f200842e229","system_id":"levelo_inurba_marseille","lat":43.28415,"lon":5.34976,"is_reserved":false,"is_disabled":false,"rental_uris":{"android":"levelo://app?vid=d4ccd934-9aa2-454a-99b4-3f200842e229","ios":"levelo://app?vid=d4ccd934-9aa2-454a-99b4-3f200842e229"},"vehicle_type_id":"4","last_reported":1739625071,"current_range_meters":32000,"station_id":"ce4bhbh2rcd13ifvqepg","pricing_plan_id":"cebpf4jnsgd1na2vs0mg"},{"bike_id":"0f32b8ad-b51b-4fa8-b514-c3864f969699","system_id":"levelo_inurba_marseille","lat":43.30088,"lon":5.3906,"is_reserved":false,"is_disabled":false,"rental_uris":{"android":"levelo://app?vid=0f32b8ad-b51b-4fa8-b514-c3864f969699","ios":"levelo://app?vid=0f32b8ad-b51b-4fa8-b514-c3864f969699"},"vehicle_type_id":"4","last_reported":1739625071,"current_range_meters":17200,"station_id":"ce4bh192rcd13ifvqdb0","pricing_plan_id":"cebpf4jnsgd1na2vs0mg"},{"bike_id":"435c433c-2207-4ccf-a828-7db6d5a915cd","system_id":"levelo_inurba_marseille","lat":43.29369,"lon":5.3784,"is_reserved":false,"is_disabled":false,"rental_uris":{"android":"levelo://app?vid=435c433c-2207-4ccf-a828-7db6d5a915cd","ios":"levelo://app?vid=435c433c-2207-4ccf-a828-7db6d5a915cd"},"vehicle_type_id":"4","last_reported":1739625071,"current_range_meters":4000,"station_id":"ce4bgjh2rcd13ifvqbf0","pricing_plan_id":"cebpf4jnsgd1na2vs0mg"},{"bike_id":"e97a32f3-d9f0-461e-8bf0-5b4c60a8957a","system_id":"levelo_inurba_marseille","lat":43.28974,"lon":5.37839,"is_reserved":false,"is_disabled":false,"rental_uris":{"android":"levelo://app?vid=e97a32f3-d9f0-461e-8bf0-5b4c60a8957a","ios":"levelo://app?vid=e97a32f3-d9f0-461e-8bf0-5b4c60a8957a"},"vehicle_type_id":"4","last_reported":1739625071,"current_range_meters":30400,"station_id":"ce4bh9p2rcd13ifvqed0","pricing_plan_id":"cebpf4jnsgd1na2vs0mg"},{"bike_id":"d2f3f409-5d9d-475b-905c-c0aa09252e0f","system_id":"levelo_inurba_marseille","lat":43.29787,"lon":5.37107,"is_reserved":false,"is_disabled":false,"rental_uris":{"android":"levelo://app?vid=d2f3f409-5d9d-475b-905c-c0aa09252e0f","ios":"levelo://app?vid=d2f3f409-5d9d-475b-905c-c0aa09252e0f"},"vehicle_type_id":"4","last_reported":1739625071,"current_range_meters":36000,"station_id":"ce4bgop2rcd13ifvqc1g","pricing_plan_id":"cebpf4jnsgd1na2vs0mg"},{"bike_id":"fe0f12a8-8d62-4d79-b629-bda6901e6297","system_id":"levelo_inurba_marseille","lat":43.26957,"lon":5.40323,"is_reserved":false,"is_disabled":true,"rental_uris":{"android":"levelo://app?vid=fe0f12a8-8d62-4d79-b629-bda6901e6297","ios":"levelo://app?vid=fe0f12a8-8d62-4d79-b629-bda6901e6297"},"vehicle_type_id":"4","last_reported":1739625071,"current_range_meters":31200,"station_id":"cjm6bp8fraef2m0cb0m0","pricing_plan_id":"cebpf4jnsgd1na2vs0mg"},{"bike_id":"32dc0a9b-13a7-466e-a5f6-a57bb4d27511","system_id":"levelo_inurba_marseille","lat":43.28438,"lon":5.3499,"is_reserved":false,"is_disabled":false,"rental_uris":{"android":"levelo://app?vid=32dc0a9b-13a7-466e-a5f6-a57bb4d27511","ios":"levelo://app?vid=32dc0a9b-13a7-466e-a5f6-a57bb4d27511"},"vehicle_type_id":"4","last_reported":1739625071,"current_range_meters":26000,"station_id":"ce4bhbh2rcd13ifvqepg","pricing_plan_id":"cebpf4jnsgd1na2vs0mg"},{"bike_id":"b9be0fd3-ea1a-4c98-9f5b-ddcc11ee66aa","system_id":"levelo_inurba_marseille","lat":43.29525,"lon":5.37501,"is_reserved":false,"is_disabled":false,"rental_uris":{"android":"levelo://app?vid=b9be0fd3-ea1a-4c98-9f5b-ddcc11ee66aa","ios":"levelo://app?vid=b9be0fd3-ea1a-4c98-9f5b-ddcc11ee66aa"},"vehicle_type_id":"4","last_reported":1739625071,"current_range_meters":9600,"station_id":"ce4bgkp2rcd13ifvqbmg","pricing_plan_id":"cebpf4jnsgd1na2vs0mg"},{"bike_id":"5429a055-5c17-4863-ac08-ee7234bc7af8","system_id":"levelo_inurba_marseille","lat":43.32362,"lon":5.36776,"is_reserved":false,"is_disabled":false,"rental_uris":{"android":"levelo://app?vid=5429a055-5c17-4863-ac08-ee7234bc7af8","ios":"levelo://app?vid=5429a055-5c17-4863-ac08-ee7234bc7af8"},"vehicle_type_id":"4","last_reported":1739625071,"current_range_meters":33200,"station_id":"ce4bhsh2rcd13ifvqi2g","pricing_plan_id":"cebpf4jnsgd1na2vs0mg"},{"bike_id":"0fcf3085-7420-4bff-abb7-25bd0558f141","system_id":"levelo_inurba_marseille","lat":43.29618,"lon":5.37152,"is_reserved":false,"is_disabled":false,"rental_uris":{"android":"levelo://app?vid=0fcf3085-7420-4bff-abb7-25bd0558f141","ios":"levelo://app?vid=0fcf3085-7420-4bff-abb7-25bd0558f141"},"vehicle_type_id":"4","last_reported":1739625071,"current_range_meters":38800,"station_id":"ce4bgnh2rcd13ifvqc0g","pricing_plan_id":"cebpf4jnsgd1na2vs0mg"},{"bike_id":"74f3d028-ef7a-4285-9a51-c39538f1bfb0","system_id":"levelo_inurba_marseille","lat":43.28998,"lon":5.35611,"is_reserved":false,"is_disabled":false,"rental_uris":{"android":"levelo://app?vid=74f3d028-ef7a-4285-9a51-c39538f1bfb0","ios":"levelo://app?vid=74f3d028-ef7a-4285-9a51-c39538f1bfb0"},"vehicle_type_id":"4","last_reported":1739625071,"current_range_meters":28800,"station_id":"ce4bhb92rcd13ifvqen0","pricing_plan_id":"cebpf4jnsgd1na2vs0mg"},{"bike_id":"dde81c97-cef1-4c60-8d11-baa91a7dce85","system_id":"levelo_inurba_marseille","lat":43.23961,"lon":5.36624,"is_reserved":false,"is_disabled":false,"rental_uris":{"android":"levelo://app?vid=dde81c97-cef1-4c60-8d11-baa91a7dce85","ios":"levelo://app?vid=dde81c97-cef1-4c60-8d11-baa91a7dce85"},"vehicle_type_id":"4","last_reported":1739625071,"current_range_meters":31200,"station_id":"ce4bhi12rcd13ifvqfp0","pricing_plan_id":"cebpf4jnsgd1na2vs0mg"},{"bike_id":"02307a38-6f30-4b41-9eee-47e5d24ecd4d","system_id":"levelo_inurba_marseille","lat":43.29615,"lon":5.37726,"is_reserved":false,"is_disabled":false,"rental_uris":{"android":"levelo://app?vid=02307a38-6f30-4b41-9eee-47e5d24ecd4d","ios":"levelo://app?vid=02307a38-6f30-4b41-9eee-47e5d24ecd4d"},"vehicle_type_id":"4","last_reported":1739625071,"current_range_meters":22400,"station_id":"ce4bgi92rcd13ifvqb90","pricing_plan_id":"cebpf4jnsgd1na2vs0mg"},{"bike_id":"981f0c84-c763-4744-ab7e-6d6374d30546","system_id":"levelo_inurba_marseille","lat":43.25476,"lon":5.37671,"is_reserved":false,"is_disabled":false,"rental_uris":{"android":"levelo://app?vid=981f0c84-c763-4744-ab7e-6d6374d30546","ios":"levelo://app?vid=981f0c84-c763-4744-ab7e-6d6374d30546"},"vehicle_type_id":"4","last_reported":1739625071,"current_range_meters":39200,"station_id":"ce4bhh12rcd13ifvqff0","pricing_plan_id":"cebpf4jnsgd1na2vs0mg"},{"bike_id":"8876d267-3234-4137-a24e-f730f5080d71","system_id":"levelo_inurba_marseille","lat":43.29365,"lon":5.37863,"is_reserved":false,"is_disabled":false,"rental_uris":{"android":"levelo://app?vid=8876d267-3234-4137-a24e-f730f5080d71","ios":"levelo://app?vid=8876d267-3234-4137-a24e-f730f5080d71"},"vehicle_type_id":"4","last_reported":1739625071,"current_range_meters":10000,"station_id":"ce4bgjh2rcd13ifvqbf0","pricing_plan_id":"cebpf4jnsgd1na2vs0mg"},{"bike_id":"bf0b3e15-232d-4329-8d76-62ec2d61fd50","system_id":"levelo_inurba_marseille","lat":43.31155,"lon":5.38729,"is_reserved":false,"is_disabled":false,"rental_uris":{"android":"levelo://app?vid=bf0b3e15-232d-4329-8d76-62ec2d61fd50","ios":"levelo://app?vid=bf0b3e15-232d-4329-8d76-62ec2d61fd50"},"vehicle_type_id":"4","last_reported":1739625071,"current_range_meters":34000,"station_id":"ce4bgv12rcd13ifvqcp0","pricing_plan_id":"cebpf4jnsgd1na2vs0mg"},{"bike_id":"0940bc76-06ec-48d0-8734-75e1fc848a06","system_id":"levelo_inurba_marseille","lat":43.29575,"lon":5.37503,"is_reserved":false,"is_disabled":false,"rental_uris":{"android":"levelo://app?vid=0940bc76-06ec-48d0-8734-75e1fc848a06","ios":"levelo://app?vid=0940bc76-06ec-48d0-8734-75e1fc848a06"},"vehicle_type_id":"4","last_reported":1739625071,"current_range_meters":21600,"station_id":"ce4bgh92rcd13ifvqb50","pricing_plan_id":"cebpf4jnsgd1na2vs0mg"},{"bike_id":"4b62bbbb-494a-4d7f-8e9a-376ca0015718","system_id":"levelo_inurba_marseille","lat":43.28616,"lon":5.35101,"is_reserved":false,"is_disabled":false,"rental_uris":{"android":"levelo://app?vid=4b62bbbb-494a-4d7f-8e9a-376ca0015718","ios":"levelo://app?vid=4b62bbbb-494a-4d7f-8e9a-376ca0015718"},"vehicle_type_id":"4","last_reported":1739625071,"current_range_meters":35600,"station_id":"ce4bhch2rcd13ifvqeug","pricing_plan_id":"cebpf4jnsgd1na2vs0mg"},{"bike_id":"cc06cad4-1ba5-4b99-a089-1e5671255834","system_id":"levelo_inurba_marseille","lat":43.29604,"lon":5.37726,"is_reserved":false,"is_disabled":false,"rental_uris":{"android":"levelo://app?vid=cc06cad4-1ba5-4b99-a089-1e5671255834","ios":"levelo://app?vid=cc06cad4-1ba5-4b99-a089-1e5671255834"},"vehicle_type_id":"4","last_reported":1739625071,"current_range_meters":38000,"station_id":"ce4bgi92rcd13ifvqb90","pricing_plan_id":"cebpf4jnsgd1na2vs0mg"},{"bike_id":"b3b0121c-d2f5-4bcd-aae6-f236573eef32","system_id":"levelo_inurba_marseille","lat":43.2707,"lon":5.40251,"is_reserved":false,"is_disabled":false,"rental_uris":{"android":"levelo://app?vid=b3b0121c-d2f5-4bcd-aae6-f236573eef32","ios":"levelo://app?vid=b3b0121c-d2f5-4bcd-aae6-f236573eef32"},"vehicle_type_id":"4","last_reported":1739625071,"current_range_meters":38800,"station_id":"ce4bhk92rcd13ifvqgc0","pricing_plan_id":"cebpf4jnsgd1na2vs0mg"},{"bike_id":"53b5f8d9-591b-4722-8b93-d03568f78034","system_id":"levelo_inurba_marseille","lat":43.28453,"lon":5.359037,"is_reserved":false,"is_disabled":false,"rental_uris":{"android":"levelo://app?vid=53b5f8d9-591b-4722-8b93-d03568f78034","ios":"levelo://app?vid=53b5f8d9-591b-4722-8b93-d03568f78034"},"vehicle_type_id":"4","last_reported":1739625071,"current_range_meters":25200,"station_id":"ce4bhah2rcd13ifvqei0","pricing_plan_id":"cebpf4jnsgd1na2vs0mg"},{"bike_id":"a8bece93-dbfc-4d1b-8ded-6678975fba2d","system_id":"levelo_inurba_marseille","lat":43.29578,"lon":5.36742,"is_reserved":false,"is_disabled":false,"rental_uris":{"android":"levelo://app?vid=a8bece93-dbfc-4d1b-8ded-6678975fba2d","ios":"levelo://app?vid=a8bece93-dbfc-4d1b-8ded-6678975fba2d"},"vehicle_type_id":"4","last_reported":1739625071,"current_range_meters":37600,"station_id":"ce4bgph2rcd13ifvqc2g","pricing_plan_id":"cebpf4jnsgd1na2vs0mg"},{"bike_id":"2df4aa62-d057-4b30-83f5-2c6a563e008d","system_id":"levelo_inurba_marseille","lat":43.31331,"lon":5.39696,"is_reserved":false,"is_disabled":false,"rental_uris":{"android":"levelo://app?vid=2df4aa62-d057-4b30-83f5-2c6a563e008d","ios":"levelo://app?vid=2df4aa62-d057-4b30-83f5-2c6a563e008d"},"vehicle_type_id":"4","last_reported":1739625071,"current_range_meters":6400,"station_id":"ce4bgvp2rcd13ifvqcu0","pricing_plan_id":"cebpf4jnsgd1na2vs0mg"},{"bike_id":"9f632daa-0745-4054-86b6-a68b5f988914","system_id":"levelo_inurba_marseille","lat":43.23175,"lon":5.39997,"is_reserved":false,"is_disabled":false,"rental_uris":{"android":"levelo://app?vid=9f632daa-0745-4054-86b6-a68b5f988914","ios":"levelo://app?vid=9f632daa-0745-4054-86b6-a68b5f988914"},"vehicle_type_id":"4","last_reported":1739625071,"current_range_meters":9200,"station_id":"ce4bhn12rcd13ifvqgqg","pricing_plan_id":"cebpf4jnsgd1na2vs0mg"},{"bike_id":"66126988-d5f0-4761-8aef-8a4c6e770fcc","system_id":"levelo_inurba_marseille","lat":43.25584,"lon":5.38228,"is_reserved":false,"is_disabled":false,"rental_uris":{"android":"levelo://app?vid=66126988-d5f0-4761-8aef-8a4c6e770fcc","ios":"levelo://app?vid=66126988-d5f0-4761-8aef-8a4c6e770fcc"},"vehicle_type_id":"4","last_reported":1739625071,"current_range_meters":36000,"station_id":"ce4bhih2rcd13ifvqfs0","pricing_plan_id":"cebpf4jnsgd1na2vs0mg"},{"bike_id":"10ff71fe-52e2-486e-8bf8-d94f4482220a","system_id":"levelo_inurba_marseille","lat":43.26061,"lon":5.39395,"is_reserved":false,"is_disabled":false,"rental_uris":{"android":"levelo://app?vid=10ff71fe-52e2-486e-8bf8-d94f4482220a","ios":"levelo://app?vid=10ff71fe-52e2-486e-8bf8-d94f4482220a"},"vehicle_type_id":"4","last_reported":1739625071,"current_range_meters":25200,"station_id":"ce4bhh92rcd13ifvqfj0","pricing_plan_id":"cebpf4jnsgd1na2vs0mg"},{"bike_id":"ddf1d674-41d6-443f-b0f1-1da7df267862","system_id":"levelo_inurba_marseille","lat":43.230553,"lon":5.355004,"is_reserved":false,"is_disabled":false,"rental_uris":{"android":"levelo://app?vid=ddf1d674-41d6-443f-b0f1-1da7df267862","ios":"levelo://app?vid=ddf1d674-41d6-443f-b0f1-1da7df267862"},"vehicle_type_id":"4","last_reported":1739625071,"current_range_meters":20800,"station_id":"cpo3342slgdg3j2ifvpg","pricing_plan_id":"cebpf4jnsgd1na2vs0mg"},{"bike_id":"b2850029-dc86-43ec-800e-0b100e3cac44","system_id":"levelo_inurba_marseille","lat":43.25122,"lon":5.40337,"is_reserved":false,"is_disabled":false,"rental_uris":{"android":"levelo://app?vid=b2850029-dc86-43ec-800e-0b100e3cac44","ios":"levelo://app?vid=b2850029-dc86-43ec-800e-0b100e3cac44"},"vehicle_type_id":"4","last_reported":1739625071,"current_range_meters":31200,"station_id":"ce4bhlh2rcd13ifvqgig","pricing_plan_id":"cebpf4jnsgd1na2vs0mg"},{"bike_id":"46f7dd7f-3698-4a4b-84b6-cdfa84e75594","system_id":"levelo_inurba_marseille","lat":43.2396,"lon":5.36631,"is_reserved":false,"is_disabled":false,"rental_uris":{"android":"levelo://app?vid=46f7dd7f-3698-4a4b-84b6-cdfa84e75594","ios":"levelo://app?vid=46f7dd7f-3698-4a4b-84b6-cdfa84e75594"},"vehicle_type_id":"4","last_reported":1739625071,"current_range_meters":27200,"station_id":"ce4bhi12rcd13ifvqfp0","pricing_plan_id":"cebpf4jnsgd1na2vs0mg"},{"bike_id":"d4fede80-356a-41a3-906f-1aa00c14c59d","system_id":"levelo_inurba_marseille","lat":43.25525,"lon":5.37645,"is_reserved":false,"is_disabled":false,"rental_uris":{"android":"levelo://app?vid=d4fede80-356a-41a3-906f-1aa00c14c59d","ios":"levelo://app?vid=d4fede80-356a-41a3-906f-1aa00c14c59d"},"vehicle_type_id":"4","last_reported":1739625071,"current_range_meters":39200,"station_id":"ce4bhh12rcd13ifvqff0","pricing_plan_id":"cebpf4jnsgd1na2vs0mg"},{"bike_id":"4099fe53-28e1-4b16-a9d0-fc1206e6c55b","system_id":"levelo_inurba_marseille","lat":43.30204,"lon":5.36613,"is_reserved":false,"is_disabled":false,"rental_uris":{"android":"levelo://app?vid=4099fe53-28e1-4b16-a9d0-fc1206e6c55b","ios":"levelo://app?vid=4099fe53-28e1-4b16-a9d0-fc1206e6c55b"},"vehicle_type_id":"4","last_reported":1739625071,"current_range_meters":35600,"station_id":"ce4bgrh2rcd13ifvqc8g","pricing_plan_id":"cebpf4jnsgd1na2vs0mg"},{"bike_id":"48d56f4c-3e24-4bb9-9cf4-60a9d5f6b586","system_id":"levelo_inurba_marseille","lat":43.30137,"lon":5.39871,"is_reserved":false,"is_disabled":false,"rental_uris":{"android":"levelo://app?vid=48d56f4c-3e24-4bb9-9cf4-60a9d5f6b586","ios":"levelo://app?vid=48d56f4c-3e24-4bb9-9cf4-60a9d5f6b586"},"vehicle_type_id":"4","last_reported":1739625071,"current_range_meters":27600,"station_id":"ce4bh0h2rcd13ifvqd40","pricing_plan_id":"cebpf4jnsgd1na2vs0mg"},{"bike_id":"303b795a-23b0-49a1-980b-c256a316baf1","system_id":"levelo_inurba_marseille","lat":43.30141,"lon":5.38773,"is_reserved":false,"is_disabled":false,"rental_uris":{"android":"levelo://app?vid=303b795a-23b0-49a1-980b-c256a316baf1","ios":"levelo://app?vid=303b795a-23b0-49a1-980b-c256a316baf1"},"vehicle_type_id":"4","last_reported":1739625071,"current_range_meters":2800,"station_id":"ce4bhoh2rcd13ifvqh6g","pricing_plan_id":"cebpf4jnsgd1na2vs0mg"},{"bike_id":"43781eb1-2889-4ba8-a4f2-208a747d81be","system_id":"levelo_inurba_marseille","lat":43.26943,"lon":5.40255,"is_reserved":false,"is_disabled":false,"rental_uris":{"android":"levelo://app?vid=43781eb1-2889-4ba8-a4f2-208a747d81be","ios":"levelo://app?vid=43781eb1-2889-4ba8-a4f2-208a747d81be"},"vehicle_type_id":"4","last_reported":1739625071,"current_range_meters":3600,"station_id":"cjm6bp8fraef2m0cb0m0","pricing_plan_id":"cebpf4jnsgd1na2vs0mg"},{"bike_id":"2f79e81a-7027-4c82-8b0a-92ebacbe6365","system_id":"levelo_inurba_marseille","lat":43.26809,"lon":5.40249,"is_reserved":false,"is_disabled":false,"rental_uris":{"android":"levelo://app?vid=2f79e81a-7027-4c82-8b0a-92ebacbe6365","ios":"levelo://app?vid=2f79e81a-7027-4c82-8b0a-92ebacbe6365"},"vehicle_type_id":"4","last_reported":1739625071,"current_range_meters":33600,"station_id":"ce501612rcd8frsf0b60","pricing_plan_id":"cebpf4jnsgd1na2vs0mg"},{"bike_id":"a8bc8483-ceef-456e-92ec-efcc9ae8cb95","system_id":"levelo_inurba_marseille","lat":43.27628,"lon":5.36112,"is_reserved":false,"is_disabled":false,"rental_uris":{"android":"levelo://app?vid=a8bc8483-ceef-456e-92ec-efcc9ae8cb95","ios":"levelo://app?vid=a8bc8483-ceef-456e-92ec-efcc9ae8cb95"},"vehicle_type_id":"4","last_reported":1739625071,"current_range_meters":36000,"station_id":"ce4bgj92rcd13ifvqbe0","pricing_plan_id":"cebpf4jnsgd1na2vs0mg"},{"bike_id":"4aaa0363-f313-42f1-83f9-2f2886c48346","system_id":"levelo_inurba_marseille","lat":43.313902,"lon":5.388037,"is_reserved":false,"is_disabled":true,"rental_uris":{"android":"levelo://app?vid=4aaa0363-f313-42f1-83f9-2f2886c48346","ios":"levelo://app?vid=4aaa0363-f313-42f1-83f9-2f2886c48346"},"vehicle_type_id":"4","last_reported":1739625071,"current_range_meters":0,"station_id":"","pricing_plan_id":"cebpf4jnsgd1na2vs0mg"},{"bike_id":"7c1ef472-42b4-419f-ab5c-b94d789aed3c","system_id":"levelo_inurba_marseille","lat":43.23056,"lon":5.35489,"is_reserved":false,"is_disabled":false,"rental_uris":{"android":"levelo://app?vid=7c1ef472-42b4-419f-ab5c-b94d789aed3c","ios":"levelo://app?vid=7c1ef472-42b4-419f-ab5c-b94d789aed3c"},"vehicle_type_id":"4","last_reported":1739625071,"current_range_meters":27200,"station_id":"cpo3342slgdg3j2ifvpg","pricing_plan_id":"cebpf4jnsgd1na2vs0mg"},{"bike_id":"43dc5574-eed0-4b1d-9289-f32002400d84","system_id":"levelo_inurba_marseille","lat":43.24171,"lon":5.3641,"is_reserved":false,"is_disabled":false,"rental_uris":{"android":"levelo://app?vid=43dc5574-eed0-4b1d-9289-f32002400d84","ios":"levelo://app?vid=43dc5574-eed0-4b1d-9289-f32002400d84"},"vehicle_type_id":"4","last_reported":1739625071,"current_range_meters":11200,"station_id":"cpo36qri1sfpv3e86is0","pricing_plan_id":"cebpf4jnsgd1na2vs0mg"},{"bike_id":"b7675672-ea91-4212-a3c2-1e75ea117425","system_id":"levelo_inurba_marseille","lat":43.28152,"lon":5.42622,"is_reserved":false,"is_disabled":true,"rental_uris":{"android":"levelo://app?vid=b7675672-ea91-4212-a3c2-1e75ea117425","ios":"levelo://app?vid=b7675672-ea91-4212-a3c2-1e75ea117425"},"vehicle_type_id":"4","last_reported":1739625071,"current_range_meters":0,"station_id":"ce4bhnh2rcd13ifvqgug","pricing_plan_id":"cebpf4jnsgd1na2vs0mg"},{"bike_id":"90ee741f-dc36-43ba-a93f-115ce104ab5f","system_id":"levelo_inurba_marseille","lat":43.24163,"lon":5.36401,"is_reserved":false,"is_disabled":false,"rental_uris":{"android":"levelo://app?vid=90ee741f-dc36-43ba-a93f-115ce104ab5f","ios":"levelo://app?vid=90ee741f-dc36-43ba-a93f-115ce104ab5f"},"vehicle_type_id":"4","last_reported":1739625071,"current_range_meters":38800,"station_id":"cpo36qri1sfpv3e86is0","pricing_plan_id":"cebpf4jnsgd1na2vs0mg"},{"bike_id":"242154d3-d6a4-48f9-bc86-84722cc98156","system_id":"levelo_inurba_marseille","lat":43.27833,"lon":5.39204,"is_reserved":false,"is_disabled":false,"rental_uris":{"android":"levelo://app?vid=242154d3-d6a4-48f9-bc86-84722cc98156","ios":"levelo://app?vid=242154d3-d6a4-48f9-bc86-84722cc98156"},"vehicle_type_id":"4","last_reported":1739625071,"current_range_meters":38000,"station_id":"ce4bhjp2rcd13ifvqga0","pricing_plan_id":"cebpf4jnsgd1na2vs0mg"},{"bike_id":"008ed16f-d916-42dc-9845-48f81c518e29","system_id":"levelo_inurba_marseille","lat":43.30205,"lon":5.36642,"is_reserved":false,"is_disabled":false,"rental_uris":{"android":"levelo://app?vid=008ed16f-d916-42dc-9845-48f81c518e29","ios":"levelo://app?vid=008ed16f-d916-42dc-9845-48f81c518e29"},"vehicle_type_id":"4","last_reported":1739625071,"current_range_meters":38800,"station_id":"ce4bgrh2rcd13ifvqc8g","pricing_plan_id":"cebpf4jnsgd1na2vs0mg"},{"bike_id":"4235ce89-19ca-4588-835f-77ed16dc3abc","system_id":"levelo_inurba_marseille","lat":43.28162,"lon":5.42642,"is_reserved":false,"is_disabled":false,"rental_uris":{"android":"levelo://app?vid=4235ce89-19ca-4588-835f-77ed16dc3abc","ios":"levelo://app?vid=4235ce89-19ca-4588-835f-77ed16dc3abc"},"vehicle_type_id":"4","last_reported":1739625071,"current_range_meters":38000,"station_id":"ce4bhnh2rcd13ifvqgug","pricing_plan_id":"cebpf4jnsgd1na2vs0mg"},{"bike_id":"a40ecc08-bf05-4a6f-ad20-96a1ea035de9","system_id":"levelo_inurba_marseille","lat":43.29585,"lon":5.37508,"is_reserved":false,"is_disabled":false,"rental_uris":{"android":"levelo://app?vid=a40ecc08-bf05-4a6f-ad20-96a1ea035de9","ios":"levelo://app?vid=a40ecc08-bf05-4a6f-ad20-96a1ea035de9"},"vehicle_type_id":"4","last_reported":1739625071,"current_range_meters":36400,"station_id":"ce4bgh92rcd13ifvqb50","pricing_plan_id":"cebpf4jnsgd1na2vs0mg"},{"bike_id":"9bcc3779-160f-4f11-a908-15bc41b1ac43","system_id":"levelo_inurba_marseille","lat":43.27976,"lon":5.40011,"is_reserved":false,"is_disabled":true,"rental_uris":{"android":"levelo://app?vid=9bcc3779-160f-4f11-a908-15bc41b1ac43","ios":"levelo://app?vid=9bcc3779-160f-4f11-a908-15bc41b1ac43"},"vehicle_type_id":"4","last_reported":1739625071,"current_range_meters":6800,"station_id":"ce4bho92rcd13ifvqh4g","pricing_plan_id":"cebpf4jnsgd1na2vs0mg"},{"bike_id":"3c64c24f-16f7-46ec-b068-15fe4ebda356","system_id":"levelo_inurba_marseille","lat":43.29493,"lon":5.36395,"is_reserved":false,"is_disabled":true,"rental_uris":{"android":"levelo://app?vid=3c64c24f-16f7-46ec-b068-15fe4ebda356","ios":"levelo://app?vid=3c64c24f-16f7-46ec-b068-15fe4ebda356"},"vehicle_type_id":"4","last_reported":1739625071,"current_range_meters":22000,"station_id":"","pricing_plan_id":"cebpf4jnsgd1na2vs0mg"},{"bike_id":"cdd1fdb7-7fe8-4898-9ebe-bcd24fce3f55","system_id":"levelo_inurba_marseille","lat":43.26211,"lon":5.37441,"is_reserved":false,"is_disabled":false,"rental_uris":{"android":"levelo://app?vid=cdd1fdb7-7fe8-4898-9ebe-bcd24fce3f55","ios":"levelo://app?vid=cdd1fdb7-7fe8-4898-9ebe-bcd24fce3f55"},"vehicle_type_id":"4","last_reported":1739625071,"current_range_meters":33200,"station_id":"ce4bhgp2rcd13ifvqfc0","pricing_plan_id":"cebpf4jnsgd1na2vs0mg"},{"bike_id":"4e9282f9-7cf5-4d77-a571-f75c9d685710","system_id":"levelo_inurba_marseille","lat":43.26551,"lon":5.3728,"is_reserved":false,"is_disabled":false,"rental_uris":{"android":"levelo://app?vid=4e9282f9-7cf5-4d77-a571-f75c9d685710","ios":"levelo://app?vid=4e9282f9-7cf5-4d77-a571-f75c9d685710"},"vehicle_type_id":"4","last_reported":1739625071,"current_range_meters":26000,"station_id":"ce4bhg12rcd13ifvqf70","pricing_plan_id":"cebpf4jnsgd1na2vs0mg"},{"bike_id":"5f431628-1b2d-4a9e-9493-29ef6605563f","system_id":"levelo_inurba_marseille","lat":43.29511,"lon":5.39016,"is_reserved":false,"is_disabled":true,"rental_uris":{"android":"levelo://app?vid=5f431628-1b2d-4a9e-9493-29ef6605563f","ios":"levelo://app?vid=5f431628-1b2d-4a9e-9493-29ef6605563f"},"vehicle_type_id":"4","last_reported":1739625071,"current_range_meters":37600,"station_id":"ce4bh3p2rcd13ifvqdp0","pricing_plan_id":"cebpf4jnsgd1na2vs0mg"},{"bike_id":"fdd18f85-a25b-4091-b937-9635dc59efae","system_id":"levelo_inurba_marseille","lat":43.24387,"lon":5.37041,"is_reserved":false,"is_disabled":false,"rental_uris":{"android":"levelo://app?vid=fdd18f85-a25b-4091-b937-9635dc59efae","ios":"levelo://app?vid=fdd18f85-a25b-4091-b937-9635dc59efae"},"vehicle_type_id":"4","last_reported":1739625071,"current_range_meters":31200,"station_id":"ce4bhhh2rcd13ifvqfk0","pricing_plan_id":"cebpf4jnsgd1na2vs0mg"},{"bike_id":"c574f374-d935-404f-984f-b6312434a990","system_id":"levelo_inurba_marseille","lat":43.27917,"lon":5.39578,"is_reserved":false,"is_disabled":false,"rental_uris":{"android":"levelo://app?vid=c574f374-d935-404f-984f-b6312434a990","ios":"levelo://app?vid=c574f374-d935-404f-984f-b6312434a990"},"vehicle_type_id":"4","last_reported":1739625071,"current_range_meters":10800,"station_id":"ce4bhf92rcd13ifvqf40","pricing_plan_id":"cebpf4jnsgd1na2vs0mg"},{"bike_id":"f66f74df-96d8-4ce3-87c1-7f9b86778635","system_id":"levelo_inurba_marseille","lat":43.22939,"lon":5.35383,"is_reserved":false,"is_disabled":false,"rental_uris":{"android":"levelo://app?vid=f66f74df-96d8-4ce3-87c1-7f9b86778635","ios":"levelo://app?vid=f66f74df-96d8-4ce3-87c1-7f9b86778635"},"vehicle_type_id":"4","last_reported":1739625071,"current_range_meters":22800,"station_id":"cpo3532slgdg3j2ikp40","pricing_plan_id":"cebpf4jnsgd1na2vs0mg"},{"bike_id":"e031351b-efdb-4640-8255-b69e1640bbff","system_id":"levelo_inurba_marseille","lat":43.24165,"lon":5.364,"is_reserved":false,"is_disabled":false,"rental_uris":{"android":"levelo://app?vid=e031351b-efdb-4640-8255-b69e1640bbff","ios":"levelo://app?vid=e031351b-efdb-4640-8255-b69e1640bbff"},"vehicle_type_id":"4","last_reported":1739625071,"current_range_meters":30000,"station_id":"cpo36qri1sfpv3e86is0","pricing_plan_id":"cebpf4jnsgd1na2vs0mg"},{"bike_id":"1305dbf1-4bcd-45fd-878c-22f43df5ef14","system_id":"levelo_inurba_marseille","lat":43.29776,"lon":5.37094,"is_reserved":false,"is_disabled":false,"rental_uris":{"android":"levelo://app?vid=1305dbf1-4bcd-45fd-878c-22f43df5ef14","ios":"levelo://app?vid=1305dbf1-4bcd-45fd-878c-22f43df5ef14"},"vehicle_type_id":"4","last_reported":1739625071,"current_range_meters":35200,"station_id":"ce4bgop2rcd13ifvqc1g","pricing_plan_id":"cebpf4jnsgd1na2vs0mg"},{"bike_id":"21449246-1b72-4a66-b668-eea7aa0f38d7","system_id":"levelo_inurba_marseille","lat":43.29037,"lon":5.37561,"is_reserved":false,"is_disabled":true,"rental_uris":{"android":"levelo://app?vid=21449246-1b72-4a66-b668-eea7aa0f38d7","ios":"levelo://app?vid=21449246-1b72-4a66-b668-eea7aa0f38d7"},"vehicle_type_id":"4","last_reported":1739625071,"current_range_meters":0,"station_id":"ce4bh692rcd13ifvqe90","pricing_plan_id":"cebpf4jnsgd1na2vs0mg"},{"bike_id":"abc5a5d7-7aaa-4f21-90f0-4be14faa3a2a","system_id":"levelo_inurba_marseille","lat":43.23055,"lon":5.35496,"is_reserved":false,"is_disabled":false,"rental_uris":{"android":"levelo://app?vid=abc5a5d7-7aaa-4f21-90f0-4be14faa3a2a","ios":"levelo://app?vid=abc5a5d7-7aaa-4f21-90f0-4be14faa3a2a"},"vehicle_type_id":"4","last_reported":1739625071,"current_range_meters":17200,"station_id":"cpo3342slgdg3j2ifvpg","pricing_plan_id":"cebpf4jnsgd1na2vs0mg"},{"bike_id":"fb672f0d-0f77-4481-9ce0-c8ca1d8b710e","system_id":"levelo_inurba_marseille","lat":43.313,"lon":5.36662,"is_reserved":false,"is_disabled":false,"rental_uris":{"android":"levelo://app?vid=fb672f0d-0f77-4481-9ce0-c8ca1d8b710e","ios":"levelo://app?vid=fb672f0d-0f77-4481-9ce0-c8ca1d8b710e"},"vehicle_type_id":"4","last_reported":1739625071,"current_range_meters":24400,"station_id":"","pricing_plan_id":"cebpf4jnsgd1na2vs0mg"},{"bike_id":"eeb183ab-8558-448d-af48-048fbdd7b938","system_id":"levelo_inurba_marseille","lat":43.29006,"lon":5.35607,"is_reserved":false,"is_disabled":false,"rental_uris":{"android":"levelo://app?vid=eeb183ab-8558-448d-af48-048fbdd7b938","ios":"levelo://app?vid=eeb183ab-8558-448d-af48-048fbdd7b938"},"vehicle_type_id":"4","last_reported":1739625071,"current_range_meters":32800,"station_id":"ce4bhb92rcd13ifvqen0","pricing_plan_id":"cebpf4jnsgd1na2vs0mg"},{"bike_id":"51c0c16f-9d51-4d33-8910-1e5f944ae054","system_id":"levelo_inurba_marseille","lat":43.24164,"lon":5.36388,"is_reserved":false,"is_disabled":false,"rental_uris":{"android":"levelo://app?vid=51c0c16f-9d51-4d33-8910-1e5f944ae054","ios":"levelo://app?vid=51c0c16f-9d51-4d33-8910-1e5f944ae054"},"vehicle_type_id":"4","last_reported":1739625071,"current_range_meters":18000,"station_id":"cpo36qri1sfpv3e86is0","pricing_plan_id":"cebpf4jnsgd1na2vs0mg"},{"bike_id":"ad4af932-f51b-41b8-983b-7e431dcc24a9","system_id":"levelo_inurba_marseille","lat":43.31131,"lon":5.38261,"is_reserved":false,"is_disabled":true,"rental_uris":{"android":"levelo://app?vid=ad4af932-f51b-41b8-983b-7e431dcc24a9","ios":"levelo://app?vid=ad4af932-f51b-41b8-983b-7e431dcc24a9"},"vehicle_type_id":"4","last_reported":1739625071,"current_range_meters":0,"station_id":"","pricing_plan_id":"cebpf4jnsgd1na2vs0mg"},{"bike_id":"95d42703-1a37-4cb4-8b06-69616f6b8e6d","system_id":"levelo_inurba_marseille","lat":43.27673,"lon":5.38906,"is_reserved":false,"is_disabled":true,"rental_uris":{"android":"levelo://app?vid=95d42703-1a37-4cb4-8b06-69616f6b8e6d","ios":"levelo://app?vid=95d42703-1a37-4cb4-8b06-69616f6b8e6d"},"vehicle_type_id":"4","last_reported":1739625071,"current_range_meters":37600,"station_id":"ce4bhi12rcd13ifvqfo0","pricing_plan_id":"cebpf4jnsgd1na2vs0mg"},{"bike_id":"492bcbb6-9023-4459-9b9d-6ec125624bb4","system_id":"levelo_inurba_marseille","lat":43.255013,"lon":5.37648,"is_reserved":false,"is_disabled":false,"rental_uris":{"android":"levelo://app?vid=492bcbb6-9023-4459-9b9d-6ec125624bb4","ios":"levelo://app?vid=492bcbb6-9023-4459-9b9d-6ec125624bb4"},"vehicle_type_id":"4","last_reported":1739625071,"current_range_meters":38800,"station_id":"ce4bhh12rcd13ifvqff0","pricing_plan_id":"cebpf4jnsgd1na2vs0mg"},{"bike_id":"dfb8b4bf-66b7-4f69-91ef-2703e7099d0d","system_id":"levelo_inurba_marseille","lat":43.26785,"lon":5.39429,"is_reserved":false,"is_disabled":true,"rental_uris":{"android":"levelo://app?vid=dfb8b4bf-66b7-4f69-91ef-2703e7099d0d","ios":"levelo://app?vid=dfb8b4bf-66b7-4f69-91ef-2703e7099d0d"},"vehicle_type_id":"4","last_reported":1739625071,"current_range_meters":4800,"station_id":"ce4bhh12rcd13ifvqfg0","pricing_plan_id":"cebpf4jnsgd1na2vs0mg"},{"bike_id":"0bbfac10-35d9-4a62-a88d-1e4a98fee6b9","system_id":"levelo_inurba_marseille","lat":43.30359,"lon":5.41869,"is_reserved":false,"is_disabled":false,"rental_uris":{"android":"levelo://app?vid=0bbfac10-35d9-4a62-a88d-1e4a98fee6b9","ios":"levelo://app?vid=0bbfac10-35d9-4a62-a88d-1e4a98fee6b9"},"vehicle_type_id":"4","last_reported":1739625071,"current_range_meters":38000,"station_id":"ce4bhop2rcd13ifvqh7g","pricing_plan_id":"cebpf4jnsgd1na2vs0mg"},{"bike_id":"478b7172-31a9-4953-b759-6dc978e5ea1f","system_id":"levelo_inurba_marseille","lat":43.28266,"lon":5.35078,"is_reserved":false,"is_disabled":false,"rental_uris":{"android":"levelo://app?vid=478b7172-31a9-4953-b759-6dc978e5ea1f","ios":"levelo://app?vid=478b7172-31a9-4953-b759-6dc978e5ea1f"},"vehicle_type_id":"4","last_reported":1739625071,"current_range_meters":22800,"station_id":"ce4bhbp2rcd13ifvqerg","pricing_plan_id":"cebpf4jnsgd1na2vs0mg"},{"bike_id":"3893b19f-ff96-4eec-9ace-a6c59815c4d1","system_id":"levelo_inurba_marseille","lat":43.29001,"lon":5.35605,"is_reserved":false,"is_disabled":false,"rental_uris":{"android":"levelo://app?vid=3893b19f-ff96-4eec-9ace-a6c59815c4d1","ios":"levelo://app?vid=3893b19f-ff96-4eec-9ace-a6c59815c4d1"},"vehicle_type_id":"4","last_reported":1739625071,"current_range_meters":39200,"station_id":"ce4bhb92rcd13ifvqen0","pricing_plan_id":"cebpf4jnsgd1na2vs0mg"},{"bike_id":"b51a6812-f614-4524-bb01-dea4a50182aa","system_id":"levelo_inurba_marseille","lat":43.30518,"lon":5.38417,"is_reserved":false,"is_disabled":false,"rental_uris":{"android":"levelo://app?vid=b51a6812-f614-4524-bb01-dea4a50182aa","ios":"levelo://app?vid=b51a6812-f614-4524-bb01-dea4a50182aa"},"vehicle_type_id":"4","last_reported":1739625071,"current_range_meters":19200,"station_id":"ce4bgg92rcd13ifvqb30","pricing_plan_id":"cebpf4jnsgd1na2vs0mg"},{"bike_id":"aeb403d4-9cef-44b2-b32c-cb912f49efa3","system_id":"levelo_inurba_marseille","lat":43.23196,"lon":5.35557,"is_reserved":false,"is_disabled":false,"rental_uris":{"android":"levelo://app?vid=aeb403d4-9cef-44b2-b32c-cb912f49efa3","ios":"levelo://app?vid=aeb403d4-9cef-44b2-b32c-cb912f49efa3"},"vehicle_type_id":"4","last_reported":1739625071,"current_range_meters":33600,"station_id":"ce4bhu92rcd13ifvqi70","pricing_plan_id":"cebpf4jnsgd1na2vs0mg"},{"bike_id":"feac70b9-99fb-4791-993e-e7bd42ec6943","system_id":"levelo_inurba_marseille","lat":43.289253,"lon":5.354867,"is_reserved":false,"is_disabled":false,"rental_uris":{"android":"levelo://app?vid=feac70b9-99fb-4791-993e-e7bd42ec6943","ios":"levelo://app?vid=feac70b9-99fb-4791-993e-e7bd42ec6943"},"vehicle_type_id":"4","last_reported":1739625071,"current_range_meters":6400,"station_id":"ce4bhb92rcd13ifvqen0","pricing_plan_id":"cebpf4jnsgd1na2vs0mg"},{"bike_id":"f00a432d-6e5e-4ca0-a2b9-2ac1fcc4c4f4","system_id":"levelo_inurba_marseille","lat":43.27986,"lon":5.40014,"is_reserved":false,"is_disabled":false,"rental_uris":{"android":"levelo://app?vid=f00a432d-6e5e-4ca0-a2b9-2ac1fcc4c4f4","ios":"levelo://app?vid=f00a432d-6e5e-4ca0-a2b9-2ac1fcc4c4f4"},"vehicle_type_id":"4","last_reported":1739625071,"current_range_meters":38800,"station_id":"ce4bho92rcd13ifvqh4g","pricing_plan_id":"cebpf4jnsgd1na2vs0mg"},{"bike_id":"a750a14f-62f9-42fb-ab51-ebfcb3c0fbfb","system_id":"levelo_inurba_marseille","lat":43.29576,"lon":5.37499,"is_reserved":false,"is_disabled":false,"rental_uris":{"android":"levelo://app?vid=a750a14f-62f9-42fb-ab51-ebfcb3c0fbfb","ios":"levelo://app?vid=a750a14f-62f9-42fb-ab51-ebfcb3c0fbfb"},"vehicle_type_id":"4","last_reported":1739625071,"current_range_meters":36000,"station_id":"ce4bgh92rcd13ifvqb50","pricing_plan_id":"cebpf4jnsgd1na2vs0mg"},{"bike_id":"201b0315-f60e-45b0-a64d-ce13682f54e1","system_id":"levelo_inurba_marseille","lat":43.29007,"lon":5.35918,"is_reserved":false,"is_disabled":false,"rental_uris":{"android":"levelo://app?vid=201b0315-f60e-45b0-a64d-ce13682f54e1","ios":"levelo://app?vid=201b0315-f60e-45b0-a64d-ce13682f54e1"},"vehicle_type_id":"4","last_reported":1739625071,"current_range_meters":38800,"station_id":"ce4bha92rcd13ifvqeg0","pricing_plan_id":"cebpf4jnsgd1na2vs0mg"},{"bike_id":"63ea1146-6635-4ab9-8ded-196ccb45282d","system_id":"levelo_inurba_marseille","lat":43.23058,"lon":5.35496,"is_reserved":false,"is_disabled":false,"rental_uris":{"android":"levelo://app?vid=63ea1146-6635-4ab9-8ded-196ccb45282d","ios":"levelo://app?vid=63ea1146-6635-4ab9-8ded-196ccb45282d"},"vehicle_type_id":"4","last_reported":1739625071,"current_range_meters":17600,"station_id":"cpo3342slgdg3j2ifvpg","pricing_plan_id":"cebpf4jnsgd1na2vs0mg"},{"bike_id":"bc90c7cf-ea86-4f5d-b932-962175d195d3","system_id":"levelo_inurba_marseille","lat":43.28614,"lon":5.35102,"is_reserved":false,"is_disabled":false,"rental_uris":{"android":"levelo://app?vid=bc90c7cf-ea86-4f5d-b932-962175d195d3","ios":"levelo://app?vid=bc90c7cf-ea86-4f5d-b932-962175d195d3"},"vehicle_type_id":"4","last_reported":1739625071,"current_range_meters":30400,"station_id":"ce4bhch2rcd13ifvqeug","pricing_plan_id":"cebpf4jnsgd1na2vs0mg"},{"bike_id":"076459a0-f045-4288-b5e6-f76a8dd2fa74","system_id":"levelo_inurba_marseille","lat":43.26939,"lon":5.40251,"is_reserved":false,"is_disabled":false,"rental_uris":{"android":"levelo://app?vid=076459a0-f045-4288-b5e6-f76a8dd2fa74","ios":"levelo://app?vid=076459a0-f045-4288-b5e6-f76a8dd2fa74"},"vehicle_type_id":"4","last_reported":1739625071,"current_range_meters":18800,"station_id":"cjm6bp8fraef2m0cb0m0","pricing_plan_id":"cebpf4jnsgd1na2vs0mg"},{"bike_id":"f89b0c27-a551-4ff1-bfe8-4c06f0886ba0","system_id":"levelo_inurba_marseille","lat":43.30793,"lon":5.38155,"is_reserved":false,"is_disabled":false,"rental_uris":{"android":"levelo://app?vid=f89b0c27-a551-4ff1-bfe8-4c06f0886ba0","ios":"levelo://app?vid=f89b0c27-a551-4ff1-bfe8-4c06f0886ba0"},"vehicle_type_id":"4","last_reported":1739625071,"current_range_meters":30000,"station_id":"ce4bgt12rcd13ifvqce0","pricing_plan_id":"cebpf4jnsgd1na2vs0mg"},{"bike_id":"11138ea4-80af-4eeb-85e3-972c419a858a","system_id":"levelo_inurba_marseille","lat":43.29524,"lon":5.37519,"is_reserved":false,"is_disabled":false,"rental_uris":{"android":"levelo://app?vid=11138ea4-80af-4eeb-85e3-972c419a858a","ios":"levelo://app?vid=11138ea4-80af-4eeb-85e3-972c419a858a"},"vehicle_type_id":"4","last_reported":1739625071,"current_range_meters":38800,"station_id":"ce4bgkp2rcd13ifvqbmg","pricing_plan_id":"cebpf4jnsgd1na2vs0mg"},{"bike_id":"72cfe393-d484-477d-aa91-160b5d79e04d","system_id":"levelo_inurba_marseille","lat":43.28847,"lon":5.35834,"is_reserved":false,"is_disabled":false,"rental_uris":{"android":"levelo://app?vid=72cfe393-d484-477d-aa91-160b5d79e04d","ios":"levelo://app?vid=72cfe393-d484-477d-aa91-160b5d79e04d"},"vehicle_type_id":"4","last_reported":1739625071,"current_range_meters":31200,"station_id":"ce4bhb12rcd13ifvqem0","pricing_plan_id":"cebpf4jnsgd1na2vs0mg"},{"bike_id":"caec9f61-b6a4-40a8-847e-7b907ae08f34","system_id":"levelo_inurba_marseille","lat":43.2481,"lon":5.37458,"is_reserved":false,"is_disabled":false,"rental_uris":{"android":"levelo://app?vid=caec9f61-b6a4-40a8-847e-7b907ae08f34","ios":"levelo://app?vid=caec9f61-b6a4-40a8-847e-7b907ae08f34"},"vehicle_type_id":"4","last_reported":1739625071,"current_range_meters":34800,"station_id":"ce4bhgh2rcd13ifvqfb0","pricing_plan_id":"cebpf4jnsgd1na2vs0mg"},{"bike_id":"c1665b9a-8804-49fb-a2e7-87ab5bdd8b6d","system_id":"levelo_inurba_marseille","lat":43.337302,"lon":5.391859,"is_reserved":false,"is_disabled":false,"rental_uris":{"android":"levelo://app?vid=c1665b9a-8804-49fb-a2e7-87ab5bdd8b6d","ios":"levelo://app?vid=c1665b9a-8804-49fb-a2e7-87ab5bdd8b6d"},"vehicle_type_id":"4","last_reported":1739625071,"current_range_meters":38800,"station_id":"ce4bhr92rcd13ifvqhsg","pricing_plan_id":"cebpf4jnsgd1na2vs0mg"},{"bike_id":"69104ce2-7a46-41f5-8e26-e48804d58d7a","system_id":"levelo_inurba_marseille","lat":43.29001,"lon":5.35602,"is_reserved":false,"is_disabled":false,"rental_uris":{"android":"levelo://app?vid=69104ce2-7a46-41f5-8e26-e48804d58d7a","ios":"levelo://app?vid=69104ce2-7a46-41f5-8e26-e48804d58d7a"},"vehicle_type_id":"4","last_reported":1739625071,"current_range_meters":36000,"station_id":"ce4bhb92rcd13ifvqen0","pricing_plan_id":"cebpf4jnsgd1na2vs0mg"},{"bike_id":"5c381eca-4257-4fd5-9296-339ca91bf680","system_id":"levelo_inurba_marseille","lat":43.32013,"lon":5.38135,"is_reserved":false,"is_disabled":true,"rental_uris":{"android":"levelo://app?vid=5c381eca-4257-4fd5-9296-339ca91bf680","ios":"levelo://app?vid=5c381eca-4257-4fd5-9296-339ca91bf680"},"vehicle_type_id":"4","last_reported":1739625071,"current_range_meters":800,"station_id":"ce4bhr12rcd13ifvqhpg","pricing_plan_id":"cebpf4jnsgd1na2vs0mg"},{"bike_id":"33178c2e-b838-4d1c-9737-438007577320","system_id":"levelo_inurba_marseille","lat":43.27056,"lon":5.40259,"is_reserved":false,"is_disabled":false,"rental_uris":{"android":"levelo://app?vid=33178c2e-b838-4d1c-9737-438007577320","ios":"levelo://app?vid=33178c2e-b838-4d1c-9737-438007577320"},"vehicle_type_id":"4","last_reported":1739625071,"current_range_meters":16000,"station_id":"ce4bhk92rcd13ifvqgc0","pricing_plan_id":"cebpf4jnsgd1na2vs0mg"},{"bike_id":"282211ad-bbca-4d13-9801-d0ebb9c1483d","system_id":"levelo_inurba_marseille","lat":43.29558,"lon":5.42282,"is_reserved":false,"is_disabled":false,"rental_uris":{"android":"levelo://app?vid=282211ad-bbca-4d13-9801-d0ebb9c1483d","ios":"levelo://app?vid=282211ad-bbca-4d13-9801-d0ebb9c1483d"},"vehicle_type_id":"4","last_reported":1739625071,"current_range_meters":25600,"station_id":"ce4bhph2rcd13ifvqhdg","pricing_plan_id":"cebpf4jnsgd1na2vs0mg"},{"bike_id":"7f775eba-7304-4cdf-8047-edf74d1d8606","system_id":"levelo_inurba_marseille","lat":43.30536,"lon":5.36548,"is_reserved":false,"is_disabled":false,"rental_uris":{"android":"levelo://app?vid=7f775eba-7304-4cdf-8047-edf74d1d8606","ios":"levelo://app?vid=7f775eba-7304-4cdf-8047-edf74d1d8606"},"vehicle_type_id":"4","last_reported":1739625071,"current_range_meters":26800,"station_id":"ce4bgs12rcd13ifvqcag","pricing_plan_id":"cebpf4jnsgd1na2vs0mg"},{"bike_id":"d157203c-3a5b-4bbc-9638-6eefce740d5e","system_id":"levelo_inurba_marseille","lat":43.23193,"lon":5.35555,"is_reserved":false,"is_disabled":false,"rental_uris":{"android":"levelo://app?vid=d157203c-3a5b-4bbc-9638-6eefce740d5e","ios":"levelo://app?vid=d157203c-3a5b-4bbc-9638-6eefce740d5e"},"vehicle_type_id":"4","last_reported":1739625071,"current_range_meters":24800,"station_id":"ce4bhu92rcd13ifvqi70","pricing_plan_id":"cebpf4jnsgd1na2vs0mg"},{"bike_id":"ab761f08-1e0a-4231-9bcc-bde3a6c90930","system_id":"levelo_inurba_marseille","lat":43.29955,"lon":5.41343,"is_reserved":false,"is_disabled":false,"rental_uris":{"android":"levelo://app?vid=ab761f08-1e0a-4231-9bcc-bde3a6c90930","ios":"levelo://app?vid=ab761f08-1e0a-4231-9bcc-bde3a6c90930"},"vehicle_type_id":"4","last_reported":1739625071,"current_range_meters":38800,"station_id":"ce4bhp12rcd13ifvqh9g","pricing_plan_id":"cebpf4jnsgd1na2vs0mg"},{"bike_id":"3067cc11-ea3d-4497-a8fa-3717c9b08d94","system_id":"levelo_inurba_marseille","lat":43.273064,"lon":5.391279,"is_reserved":false,"is_disabled":true,"rental_uris":{"android":"levelo://app?vid=3067cc11-ea3d-4497-a8fa-3717c9b08d94","ios":"levelo://app?vid=3067cc11-ea3d-4497-a8fa-3717c9b08d94"},"vehicle_type_id":"4","last_reported":1739625071,"current_range_meters":38000,"station_id":"ce4bhgp2rcd13ifvqfe0","pricing_plan_id":"cebpf4jnsgd1na2vs0mg"},{"bike_id":"6a2bb3c9-0567-4da7-8fd1-380f62448aab","system_id":"levelo_inurba_marseille","lat":43.22943,"lon":5.35373,"is_reserved":false,"is_disabled":false,"rental_uris":{"android":"levelo://app?vid=6a2bb3c9-0567-4da7-8fd1-380f62448aab","ios":"levelo://app?vid=6a2bb3c9-0567-4da7-8fd1-380f62448aab"},"vehicle_type_id":"4","last_reported":1739625071,"current_range_meters":20400,"station_id":"cpo3532slgdg3j2ikp40","pricing_plan_id":"cebpf4jnsgd1na2vs0mg"},{"bike_id":"e0a7e71d-dc2f-4b1e-9aa8-6dab872d7df0","system_id":"levelo_inurba_marseille","lat":43.246618,"lon":5.389416,"is_reserved":false,"is_disabled":false,"rental_uris":{"android":"levelo://app?vid=e0a7e71d-dc2f-4b1e-9aa8-6dab872d7df0","ios":"levelo://app?vid=e0a7e71d-dc2f-4b1e-9aa8-6dab872d7df0"},"vehicle_type_id":"4","last_reported":1739625071,"current_range_meters":38800,"station_id":"ce4bhg12rcd13ifvqf60","pricing_plan_id":"cebpf4jnsgd1na2vs0mg"},{"bike_id":"d80860fa-7cf7-4ae7-befb-26e8065381a1","system_id":"levelo_inurba_marseille","lat":43.23201,"lon":5.35544,"is_reserved":false,"is_disabled":false,"rental_uris":{"android":"levelo://app?vid=d80860fa-7cf7-4ae7-befb-26e8065381a1","ios":"levelo://app?vid=d80860fa-7cf7-4ae7-befb-26e8065381a1"},"vehicle_type_id":"4","last_reported":1739625071,"current_range_meters":22400,"station_id":"ce4bhu92rcd13ifvqi70","pricing_plan_id":"cebpf4jnsgd1na2vs0mg"},{"bike_id":"105d9f63-3158-4a58-8927-d8e5c0881db6","system_id":"levelo_inurba_marseille","lat":43.31708,"lon":5.43702,"is_reserved":false,"is_disabled":false,"rental_uris":{"android":"levelo://app?vid=105d9f63-3158-4a58-8927-d8e5c0881db6","ios":"levelo://app?vid=105d9f63-3158-4a58-8927-d8e5c0881db6"},"vehicle_type_id":"4","last_reported":1739625071,"current_range_meters":24000,"station_id":"ce4bhp92rcd13ifvqhcg","pricing_plan_id":"cebpf4jnsgd1na2vs0mg"},{"bike_id":"d11b94f6-e46e-4cb9-8c5a-a5b56a732eb0","system_id":"levelo_inurba_marseille","lat":43.32012,"lon":5.37691,"is_reserved":false,"is_disabled":false,"rental_uris":{"android":"levelo://app?vid=d11b94f6-e46e-4cb9-8c5a-a5b56a732eb0","ios":"levelo://app?vid=d11b94f6-e46e-4cb9-8c5a-a5b56a732eb0"},"vehicle_type_id":"4","last_reported":1739625071,"current_range_meters":38800,"station_id":"","pricing_plan_id":"cebpf4jnsgd1na2vs0mg"},{"bike_id":"dcb69e46-c70b-46b4-b4ff-79b0e58babee","system_id":"levelo_inurba_marseille","lat":43.25912,"lon":5.40877,"is_reserved":false,"is_disabled":false,"rental_uris":{"android":"levelo://app?vid=dcb69e46-c70b-46b4-b4ff-79b0e58babee","ios":"levelo://app?vid=dcb69e46-c70b-46b4-b4ff-79b0e58babee"},"vehicle_type_id":"4","last_reported":1739625071,"current_range_meters":35200,"station_id":"ce4bhm92rcd13ifvqglg","pricing_plan_id":"cebpf4jnsgd1na2vs0mg"},{"bike_id":"47ef3a27-cf04-4369-bc44-2fee4bbfaa10","system_id":"levelo_inurba_marseille","lat":43.24661,"lon":5.38168,"is_reserved":false,"is_disabled":true,"rental_uris":{"android":"levelo://app?vid=47ef3a27-cf04-4369-bc44-2fee4bbfaa10","ios":"levelo://app?vid=47ef3a27-cf04-4369-bc44-2fee4bbfaa10"},"vehicle_type_id":"4","last_reported":1739625071,"current_range_meters":14400,"station_id":"ce4bhih2rcd13ifvqfr0","pricing_plan_id":"cebpf4jnsgd1na2vs0mg"},{"bike_id":"c65aa313-5305-4999-994d-ab8e14fc50d8","system_id":"levelo_inurba_marseille","lat":43.2861,"lon":5.35101,"is_reserved":false,"is_disabled":false,"rental_uris":{"android":"levelo://app?vid=c65aa313-5305-4999-994d-ab8e14fc50d8","ios":"levelo://app?vid=c65aa313-5305-4999-994d-ab8e14fc50d8"},"vehicle_type_id":"4","last_reported":1739625071,"current_range_meters":6000,"station_id":"ce4bhch2rcd13ifvqeug","pricing_plan_id":"cebpf4jnsgd1na2vs0mg"},