{"last_updated":1752368621,"ttl":60,"version":"2.2","data":{"bikes":[{"bike_id":"ce4ad072-e3a3-46a1-8d7a-9fac9b5303d3","system_id":"levelo_inurba_marseille","lat":43.29531,"lon":5.42307,"is_reserved":false,"is_disabled":false,"rental_uris":{"android":"levelo://app?vid=ce4ad072-e3a3-46a1-8d7a-9fac9b5303d3","ios":"levelo://app?vid=ce4ad072-e3a3-46a1-8d7a-9fac9b5303d3"},"vehicle_type_id":"4","last_reported":1752368621,"current_range_meters":2800,"station_id":"ce4bhph2rcd13ifvqhdg","pricing_plan_id":"cebpf4jnsgd1na2vs0mg"},{"bike_id":"e65e5099-bbe2-4ddf-8548-a155bb198ed2","system_id":"levelo_inurba_marseille","lat":43.30928,"lon":5.40141,"is_reserved":false,"is_disabled":false,"rental_uris":{"android":"levelo://app?vid=e65e5099-bbe2-4ddf-8548-a155bb198ed2","ios":"levelo://app?vid=e65e5099-bbe2-4ddf-8548-a155bb198ed2"},"vehicle_type_id":"4","last_reported":1752368621,"current_range_meters":3200,"station_id":"ce4bgvp2rcd13ifvqct0","pricing_plan_id":"cebpf4jnsgd1na2vs0mg"},{"bike_id":"90cce311-83d5-40a7-8868-e2102ee388ce","system_id":"levelo_inurba_marseille","lat":43.29626,"lon":5.40601,"is_reserved":false,"is_disabled":false,"rental_uris":{"android":"levelo://app?vid=90cce311-83d5-40a7-8868-e2102ee388ce","ios":"levelo://app?vid=90cce311-83d5-40a7-8868-e2102ee388ce"},"vehicle_type_id":"4","last_reported":1752368621,"current_range_meters":4400,"station_id":"ce4bh0h2rcd13ifvqd60","pricing_plan_id":"cebpf4jnsgd1na2vs0mg"},{"bike_id":"b25e716b-466d-4073-bda9-c1fa6de3ef16","system_id":"levelo_inurba_marseille","lat":43.29327,"lon":5.37424,"is_reserved":false,"is_disabled":true,"rental_uris":{"android":"levelo://app?vid=b25e716b-466d-4073-bda9-c1fa6de3ef16","ios":"levelo://app?vid=b25e716b-466d-4073-bda9-c1fa6de3ef16"},"vehicle_type_id":"4","last_reported":1752368621,"current_range_meters":4800,"station_id":"ce4bgi12rcd13ifvqb70","pricing_plan_id":"cebpf4jnsgd1na2vs0mg"},{"bike_id":"bbc4683c-1e55-4e3d-ace4-4f2a6419c9e3","system_id":"levelo_inurba_marseille","lat":43.29638,"lon":5.40592,"is_reserved":false,"is_disabled":false,"rental_uris":{"android":"levelo://app?vid=bbc4683c-1e55-4e3d-ace4-4f2a6419c9e3","ios":"levelo://app?vid=bbc4683c-1e55-4e3d-ace4-4f2a6419c9e3"},"vehicle_type_id":"4","last_reported":1752368621,"current_range_meters":5600,"station_id":"ce4bh0h2rcd13ifvqd60","pricing_plan_id":"cebpf4jnsgd1na2vs0mg"},{"bike_id":"582ecfc0-a478-4edd-b560-7e5c7bba9f1d","system_id":"levelo_inurba_marseille","lat":43.28616,"lon":5.35104,"is_reserved":false,"is_disabled":false,"rental_uris":{"android":"levelo://app?vid=582ecfc0-a478-4edd-b560-7e5c7bba9f1d","ios":"levelo://app?vid=582ecfc0-a478-4edd-b560-7e5c7bba9f1d"},"vehicle_type_id":"4","last_reported":1752368621,"current_range_meters":5600,"station_id":"ce4bhch2rcd13ifvqeug","pricing_plan_id":"cebpf4jnsgd1na2vs0mg"},{"bike_id":"8822b429-f8c6-418b-9a42-03cdd9537272","system_id":"levelo_inurba_marseille","lat":43.30533,"lon":5.38445,"is_reserved":false,"is_disabled":false,"rental_uris":{"android":"levelo://app?vid=8822b429-f8c6-418b-9a42-03cdd9537272","ios":"levelo://app?vid=8822b429-f8c6-418b-9a42-03cdd9537272"},"vehicle_type_id":"4","last_reported":1752368621,"current_range_meters":5600,"station_id":"ce4bgg92rcd13ifvqb30","pricing_plan_id":"cebpf4jnsgd1na2vs0mg"},{"bike_id":"534ed68d-5ceb-43a8-968b-be30f01dfa74","system_id":"levelo_inurba_marseille","lat":43.282221,"lon":5.390785,"is_reserved":false,"is_disabled":false,"rental_uris":{"android":"levelo://app?vid=534ed68d-5ceb-43a8-968b-be30f01dfa74","ios":"levelo://app?vid=534ed68d-5ceb-43a8-968b-be30f01dfa74"},"vehicle_type_id":"4","last_reported":1752368621,"current_range_meters":6000,"station_id":"","pricing_plan_id":"cebpf4jnsgd1na2vs0mg"},{"bike_id":"52018674-ffd4-42f4-bcf5-c1520e187d2e","system_id":"levelo_inurba_marseille","lat":43.31083,"lon":5.42431,"is_reserved":false,"is_disabled":false,"rental_uris":{"android":"levelo://app?vid=52018674-ffd4-42f4-bcf5-c1520e187d2e","ios":"levelo://app?vid=52018674-ffd4-42f4-bcf5-c1520e187d2e"},"vehicle_type_id":"4","last_reported":1752368621,"current_range_meters":6000,"station_id":"ce4bhp92rcd13ifvqhag","pricing_plan_id":"cebpf4jnsgd1na2vs0mg"},{"bike_id":"76e4eae8-fc5f-4d6c-a6b4-30ee2101ee68","system_id":"levelo_inurba_marseille","lat":43.30925,"lon":5.40141,"is_reserved":false,"is_disabled":false,"rental_uris":{"android":"levelo://app?vid=76e4eae8-fc5f-4d6c-a6b4-30ee2101ee68","ios":"levelo://app?vid=76e4eae8-fc5f-4d6c-a6b4-30ee2101ee68"},"vehicle_type_id":"4","last_reported":1752368621,"current_range_meters":6000,"station_id":"ce4bgvp2rcd13ifvqct0","pricing_plan_id":"cebpf4jnsgd1na2vs0mg"},{"bike_id":"9fb5e395-c04a-4b49-b97b-f32b0fb41986","system_id":"levelo_inurba_marseille","lat":43.28655,"lon":5.36367,"is_reserved":false,"is_disabled":false,"rental_uris":{"android":"levelo://app?vid=9fb5e395-c04a-4b49-b97b-f32b0fb41986","ios":"levelo://app?vid=9fb5e395-c04a-4b49-b97b-f32b0fb41986"},"vehicle_type_id":"4","last_reported":1752368621,"current_range_meters":6000,"station_id":"ce4bhah2rcd13ifvqej0","pricing_plan_id":"cebpf4jnsgd1na2vs0mg"},{"bike_id":"cb9282c9-0a04-426f-af4a-9dc494a82650","system_id":"levelo_inurba_marseille","lat":43.225037,"lon":5.347922,"is_reserved":false,"is_disabled":false,"rental_uris":{"android":"levelo://app?vid=cb9282c9-0a04-426f-af4a-9dc494a82650","ios":"levelo://app?vid=cb9282c9-0a04-426f-af4a-9dc494a82650"},"vehicle_type_id":"4","last_reported":1752368621,"current_range_meters":6000,"station_id":"","pricing_plan_id":"cebpf4jnsgd1na2vs0mg"},{"bike_id":"bfb96369-aa8d-496b-a35f-6373e8d8633d","system_id":"levelo_inurba_marseille","lat":43.28351,"lon":5.38102,"is_reserved":false,"is_disabled":false,"rental_uris":{"android":"levelo://app?vid=bfb96369-aa8d-496b-a35f-6373e8d8633d","ios":"levelo://app?vid=bfb96369-aa8d-496b-a35f-6373e8d8633d"},"vehicle_type_id":"4","last_reported":1752368621,"current_range_meters":6400,"station_id":"ce4bh412rcd13ifvqdr0","pricing_plan_id":"cebpf4jnsgd1na2vs0mg"},{"bike_id":"44f0f9aa-b98e-4e25-8993-00ca18285603","system_id":"levelo_inurba_marseille","lat":43.29061,"lon":5.3998,"is_reserved":false,"is_disabled":false,"rental_uris":{"android":"levelo://app?vid=44f0f9aa-b98e-4e25-8993-00ca18285603","ios":"levelo://app?vid=44f0f9aa-b98e-4e25-8993-00ca18285603"},"vehicle_type_id":"4","last_reported":1752368621,"current_range_meters":6400,"station_id":"ce4bh392rcd13ifvqdm0","pricing_plan_id":"cebpf4jnsgd1na2vs0mg"},{"bike_id":"91dcba50-afc0-4ae2-b1e7-808fb0af0c67","system_id":"levelo_inurba_marseille","lat":43.288589,"lon":5.358424,"is_reserved":false,"is_disabled":false,"rental_uris":{"android":"levelo://app?vid=91dcba50-afc0-4ae2-b1e7-808fb0af0c67","ios":"levelo://app?vid=91dcba50-afc0-4ae2-b1e7-808fb0af0c67"},"vehicle_type_id":"4","last_reported":1752368621,"current_range_meters":6400,"station_id":"ce4bhb12rcd13ifvqem0","pricing_plan_id":"cebpf4jnsgd1na2vs0mg"},{"bike_id":"1ad0ec37-bc97-4796-be7a-8d866e6e8462","system_id":"levelo_inurba_marseille","lat":43.31121,"lon":5.37774,"is_reserved":false,"is_disabled":false,"rental_uris":{"android":"levelo://app?vid=1ad0ec37-bc97-4796-be7a-8d866e6e8462","ios":"levelo://app?vid=1ad0ec37-bc97-4796-be7a-8d866e6e8462"},"vehicle_type_id":"4","last_reported":1752368621,"current_range_meters":6400,"station_id":"ce4bgt92rcd13ifvqcg0","pricing_plan_id":"cebpf4jnsgd1na2vs0mg"},{"bike_id":"bced4aa7-a628-4057-a6e6-27edc27c5e17","system_id":"levelo_inurba_marseille","lat":43.212,"lon":5.35128,"is_reserved":false,"is_disabled":false,"rental_uris":{"android":"levelo://app?vid=bced4aa7-a628-4057-a6e6-27edc27c5e17","ios":"levelo://app?vid=bced4aa7-a628-4057-a6e6-27edc27c5e17"},"vehicle_type_id":"4","last_reported":1752368621,"current_range_meters":6400,"station_id":"st_cvj6sg6p6f1abm77japg","pricing_plan_id":"cebpf4jnsgd1na2vs0mg"},{"bike_id":"c0ed3a4e-0b08-4739-aee6-df5a174b758c","system_id":"levelo_inurba_marseille","lat":43.28431,"lon":5.39242,"is_reserved":false,"is_disabled":false,"rental_uris":{"android":"levelo://app?vid=c0ed3a4e-0b08-4739-aee6-df5a174b758c","ios":"levelo://app?vid=c0ed3a4e-0b08-4739-aee6-df5a174b758c"},"vehicle_type_id":"4","last_reported":1752368621,"current_range_meters":6400,"station_id":"ce4bhoh2rcd13ifvqh5g","pricing_plan_id":"cebpf4jnsgd1na2vs0mg"},{"bike_id":"364d6732-b964-47a7-a6dd-02e6a89bc8e6","system_id":"levelo_inurba_marseille","lat":43.29316,"lon":5.40118,"is_reserved":false,"is_disabled":false,"rental_uris":{"android":"levelo://app?vid=364d6732-b964-47a7-a6dd-02e6a89bc8e6","ios":"levelo://app?vid=364d6732-b964-47a7-a6dd-02e6a89bc8e6"},"vehicle_type_id":"4","last_reported":1752368621,"current_range_meters":6800,"station_id":"ce4bh312rcd13ifvqdk0","pricing_plan_id":"cebpf4jnsgd1na2vs0mg"},{"bike_id":"9a721a67-800d-41fb-b2c2-3309f63164c3","system_id":"levelo_inurba_marseille","lat":43.21208,"lon":5.35093,"is_reserved":false,"is_disabled":false,"rental_uris":{"android":"levelo://app?vid=9a721a67-800d-41fb-b2c2-3309f63164c3","ios":"levelo://app?vid=9a721a67-800d-41fb-b2c2-3309f63164c3"},"vehicle_type_id":"4","last_reported":1752368621,"current_range_meters":6800,"station_id":"st_cvj6sg6p6f1abm77japg","pricing_plan_id":"cebpf4jnsgd1na2vs0mg"},{"bike_id":"2d525522-e6dc-4040-9c4c-8e2e7a587583","system_id":"levelo_inurba_marseille","lat":43.29165,"lon":5.37516,"is_reserved":false,"is_disabled":false,"rental_uris":{"android":"levelo://app?vid=2d525522-e6dc-4040-9c4c-8e2e7a587583","ios":"levelo://app?vid=2d525522-e6dc-4040-9c4c-8e2e7a587583"},"vehicle_type_id":"4","last_reported":1752368621,"current_range_meters":7200,"station_id":"","pricing_plan_id":"cebpf4jnsgd1na2vs0mg"},{"bike_id":"6f5e9084-558f-4d95-b458-678ee4399b06","system_id":"levelo_inurba_marseille","lat":43.25493,"lon":5.37647,"is_reserved":false,"is_disabled":true,"rental_uris":{"android":"levelo://app?vid=6f5e9084-558f-4d95-b458-678ee4399b06","ios":"levelo://app?vid=6f5e9084-558f-4d95-b458-678ee4399b06"},"vehicle_type_id":"4","last_reported":1752368621,"current_range_meters":7200,"station_id":"ce4bhh12rcd13ifvqff0","pricing_plan_id":"cebpf4jnsgd1na2vs0mg"},{"bike_id":"0f1287f9-390e-4629-ab8e-ad2d35ff61ae","system_id":"levelo_inurba_marseille","lat":43.25578,"lon":5.38257,"is_reserved":false,"is_disabled":true,"rental_uris":{"android":"levelo://app?vid=0f1287f9-390e-4629-ab8e-ad2d35ff61ae","ios":"levelo://app?vid=0f1287f9-390e-4629-ab8e-ad2d35ff61ae"},"vehicle_type_id":"4","last_reported":1752368621,"current_range_meters":7200,"station_id":"ce4bhih2rcd13ifvqfs0","pricing_plan_id":"cebpf4jnsgd1na2vs0mg"},{"bike_id":"94940c9a-30d4-4e43-bec0-fc556b4da3ae","system_id":"levelo_inurba_marseille","lat":43.33606,"lon":5.41034,"is_reserved":false,"is_disabled":false,"rental_uris":{"android":"levelo://app?vid=94940c9a-30d4-4e43-bec0-fc556b4da3ae","ios":"levelo://app?vid=94940c9a-30d4-4e43-bec0-fc556b4da3ae"},"vehicle_type_id":"4","last_reported":1752368621,"current_range_meters":7200,"station_id":"ce4bhqh2rcd13ifvqhmg","pricing_plan_id":"cebpf4jnsgd1na2vs0mg"},{"bike_id":"89984386-c3bd-40c9-b04a-f205fd3424d5","system_id":"levelo_inurba_marseille","lat":43.29556,"lon":5.42311,"is_reserved":false,"is_disabled":false,"rental_uris":{"android":"levelo://app?vid=89984386-c3bd-40c9-b04a-f205fd3424d5","ios":"levelo://app?vid=89984386-c3bd-40c9-b04a-f205fd3424d5"},"vehicle_type_id":"4","last_reported":1752368621,"current_range_meters":7200,"station_id":"ce4bhph2rcd13ifvqhdg","pricing_plan_id":"cebpf4jnsgd1na2vs0mg"},{"bike_id":"06790081-2fbd-4616-be5e-229fa34e984b","system_id":"levelo_inurba_marseille","lat":43.337618,"lon":5.40925,"is_reserved":false,"is_disabled":false,"rental_uris":{"android":"levelo://app?vid=06790081-2fbd-4616-be5e-229fa34e984b","ios":"levelo://app?vid=06790081-2fbd-4616-be5e-229fa34e984b"},"vehicle_type_id":"4","last_reported":1752368621,"current_range_meters":7200,"station_id":"","pricing_plan_id":"cebpf4jnsgd1na2vs0mg"},{"bike_id":"595e9351-a7ce-45de-8995-771f7d9fe86e","system_id":"levelo_inurba_marseille","lat":43.309243,"lon":5.378088,"is_reserved":false,"is_disabled":false,"rental_uris":{"android":"levelo://app?vid=595e9351-a7ce-45de-8995-771f7d9fe86e","ios":"levelo://app?vid=595e9351-a7ce-45de-8995-771f7d9fe86e"},"vehicle_type_id":"4","last_reported":1752368621,"current_range_meters":8000,"station_id":"","pricing_plan_id":"cebpf4jnsgd1na2vs0mg"},{"bike_id":"15119183-5d1d-4395-aefb-b94d1c4e8e2a","system_id":"levelo_inurba_marseille","lat":43.30091,"lon":5.39079,"is_reserved":false,"is_disabled":false,"rental_uris":{"android":"levelo://app?vid=15119183-5d1d-4395-aefb-b94d1c4e8e2a","ios":"levelo://app?vid=15119183-5d1d-4395-aefb-b94d1c4e8e2a"},"vehicle_type_id":"4","last_reported":1752368621,"current_range_meters":8000,"station_id":"ce4bh192rcd13ifvqdb0","pricing_plan_id":"cebpf4jnsgd1na2vs0mg"},{"bike_id":"2f0ba75c-aff3-43f4-857b-fc7c66f4e426","system_id":"levelo_inurba_marseille","lat":43.309492,"lon":5.390318,"is_reserved":false,"is_disabled":true,"rental_uris":{"android":"levelo://app?vid=2f0ba75c-aff3-43f4-857b-fc7c66f4e426","ios":"levelo://app?vid=2f0ba75c-aff3-43f4-857b-fc7c66f4e426"},"vehicle_type_id":"4","last_reported":1752368621,"current_range_meters":8000,"station_id":"ce4bgup2rcd13ifvqco0","pricing_plan_id":"cebpf4jnsgd1na2vs0mg"},{"bike_id":"e3a75ee9-c614-467b-8cc2-f813bcef2ab1","system_id":"levelo_inurba_marseille","lat":43.33743,"lon":5.3919,"is_reserved":false,"is_disabled":true,"rental_uris":{"android":"levelo://app?vid=e3a75ee9-c614-467b-8cc2-f813bcef2ab1","ios":"levelo://app?vid=e3a75ee9-c614-467b-8cc2-f813bcef2ab1"},"vehicle_type_id":"4","last_reported":1752368621,"current_range_meters":8000,"station_id":"ce4bhr92rcd13ifvqhsg","pricing_plan_id":"cebpf4jnsgd1na2vs0mg"},{"bike_id":"cb2b681e-0804-4d75-9e28-22f34a652892","system_id":"levelo_inurba_marseille","lat":43.30133,"lon":5.38784,"is_reserved":false,"is_disabled":false,"rental_uris":{"android":"levelo://app?vid=cb2b681e-0804-4d75-9e28-22f34a652892","ios":"levelo://app?vid=cb2b681e-0804-4d75-9e28-22f34a652892"},"vehicle_type_id":"4","last_reported":1752368621,"current_range_meters":8000,"station_id":"ce4bghh2rcd13ifvqb60","pricing_plan_id":"cebpf4jnsgd1na2vs0mg"},{"bike_id":"05f24eb2-daa3-4f0e-944e-3b9343d3d36a","system_id":"levelo_inurba_marseille","lat":43.29543,"lon":5.42291,"is_reserved":false,"is_disabled":false,"rental_uris":{"android":"levelo://app?vid=05f24eb2-daa3-4f0e-944e-3b9343d3d36a","ios":"levelo://app?vid=05f24eb2-daa3-4f0e-944e-3b9343d3d36a"},"vehicle_type_id":"4","last_reported":1752368621,"current_range_meters":8400,"station_id":"ce4bhph2rcd13ifvqhdg","pricing_plan_id":"cebpf4jnsgd1na2vs0mg"},{"bike_id":"097106d7-0dc8-4152-8540-cae0e1de8dea","system_id":"levelo_inurba_marseille","lat":43.211964,"lon":5.350841,"is_reserved":false,"is_disabled":false,"rental_uris":{"android":"levelo://app?vid=097106d7-0dc8-4152-8540-cae0e1de8dea","ios":"levelo://app?vid=097106d7-0dc8-4152-8540-cae0e1de8dea"},"vehicle_type_id":"4","last_reported":1752368621,"current_range_meters":8400,"station_id":"st_cvj6sg6p6f1abm77japg","pricing_plan_id":"cebpf4jnsgd1na2vs0mg"},{"bike_id":"5b147f49-2e39-4ac2-b9dd-9e0a27e583f7","system_id":"levelo_inurba_marseille","lat":43.28957,"lon":5.36748,"is_reserved":false,"is_disabled":false,"rental_uris":{"android":"levelo://app?vid=5b147f49-2e39-4ac2-b9dd-9e0a27e583f7","ios":"levelo://app?vid=5b147f49-2e39-4ac2-b9dd-9e0a27e583f7"},"vehicle_type_id":"4","last_reported":1752368621,"current_range_meters":8400,"station_id":"","pricing_plan_id":"cebpf4jnsgd1na2vs0mg"},{"bike_id":"5a1aa169-e8de-4c42-8232-f9cf794c57f1","system_id":"levelo_inurba_marseille","lat":43.21208,"lon":5.35105,"is_reserved":false,"is_disabled":false,"rental_uris":{"android":"levelo://app?vid=5a1aa169-e8de-4c42-8232-f9cf794c57f1","ios":"levelo://app?vid=5a1aa169-e8de-4c42-8232-f9cf794c57f1"},"vehicle_type_id":"4","last_reported":1752368621,"current_range_meters":8400,"station_id":"st_cvj6sg6p6f1abm77japg","pricing_plan_id":"cebpf4jnsgd1na2vs0mg"},{"bike_id":"457d1f6e-4912-442b-ad7c-e5c509761be6","system_id":"levelo_inurba_marseille","lat":43.27558,"lon":5.38429,"is_reserved":false,"is_disabled":false,"rental_uris":{"android":"levelo://app?vid=457d1f6e-4912-442b-ad7c-e5c509761be6","ios":"levelo://app?vid=457d1f6e-4912-442b-ad7c-e5c509761be6"},"vehicle_type_id":"4","last_reported":1752368621,"current_range_meters":8400,"station_id":"ce4bhh92rcd13ifvqfi0","pricing_plan_id":"cebpf4jnsgd1na2vs0mg"},{"bike_id":"59e69e59-aa8e-43f6-92b2-176ba8f7ead1","system_id":"levelo_inurba_marseille","lat":43.29979,"lon":5.37176,"is_reserved":false,"is_disabled":true,"rental_uris":{"android":"levelo://app?vid=59e69e59-aa8e-43f6-92b2-176ba8f7ead1","ios":"levelo://app?vid=59e69e59-aa8e-43f6-92b2-176ba8f7ead1"},"vehicle_type_id":"4","last_reported":1752368621,"current_range_meters":8800,"station_id":"ce4bgr92rcd13ifvqc7g","pricing_plan_id":"cebpf4jnsgd1na2vs0mg"},{"bike_id":"d02812eb-8b07-4b27-8806-bc5e0e25b06e","system_id":"levelo_inurba_marseille","lat":43.2991,"lon":5.37464,"is_reserved":false,"is_disabled":false,"rental_uris":{"android":"levelo://app?vid=d02812eb-8b07-4b27-8806-bc5e0e25b06e","ios":"levelo://app?vid=d02812eb-8b07-4b27-8806-bc5e0e25b06e"},"vehicle_type_id":"4","last_reported":1752368621,"current_range_meters":8800,"station_id":"ce4bgjh2rcd13ifvqbg0","pricing_plan_id":"cebpf4jnsgd1na2vs0mg"},{"bike_id":"fa701000-ba9f-4668-9c1f-c7e6cf72af51","system_id":"levelo_inurba_marseille","lat":43.3025,"lon":5.40065,"is_reserved":false,"is_disabled":false,"rental_uris":{"android":"levelo://app?vid=fa701000-ba9f-4668-9c1f-c7e6cf72af51","ios":"levelo://app?vid=fa701000-ba9f-4668-9c1f-c7e6cf72af51"},"vehicle_type_id":"4","last_reported":1752368621,"current_range_meters":8800,"station_id":"ce4bgvh2rcd13ifvqcs0","pricing_plan_id":"cebpf4jnsgd1na2vs0mg"},{"bike_id":"03251f63-26eb-493f-9d65-8e11851ca687","system_id":"levelo_inurba_marseille","lat":43.28829,"lon":5.39328,"is_reserved":false,"is_disabled":true,"rental_uris":{"android":"levelo://app?vid=03251f63-26eb-493f-9d65-8e11851ca687","ios":"levelo://app?vid=03251f63-26eb-493f-9d65-8e11851ca687"},"vehicle_type_id":"4","last_reported":1752368621,"current_range_meters":8800,"station_id":"ce4bh2p2rcd13ifvqdi0","pricing_plan_id":"cebpf4jnsgd1na2vs0mg"},{"bike_id":"df61839a-7a72-4634-9960-e8ea0d9a8d35","system_id":"levelo_inurba_marseille","lat":43.239474,"lon":5.366089,"is_reserved":false,"is_disabled":true,"rental_uris":{"android":"levelo://app?vid=df61839a-7a72-4634-9960-e8ea0d9a8d35","ios":"levelo://app?vid=df61839a-7a72-4634-9960-e8ea0d9a8d35"},"vehicle_type_id":"4","last_reported":1752368621,"current_range_meters":8800,"station_id":"","pricing_plan_id":"cebpf4jnsgd1na2vs0mg"},{"bike_id":"75bb1dd6-50a7-47a9-9e4b-6b29bd46237a","system_id":"levelo_inurba_marseille","lat":43.21203,"lon":5.35146,"is_reserved":false,"is_disabled":false,"rental_uris":{"android":"levelo://app?vid=75bb1dd6-50a7-47a9-9e4b-6b29bd46237a","ios":"levelo://app?vid=75bb1dd6-50a7-47a9-9e4b-6b29bd46237a"},"vehicle_type_id":"4","last_reported":1752368621,"current_range_meters":8800,"station_id":"","pricing_plan_id":"cebpf4jnsgd1na2vs0mg"},{"bike_id":"3064d7db-7a51-4e85-bef4-6def601894cd","system_id":"levelo_inurba_marseille","lat":43.309487,"lon":5.390337,"is_reserved":false,"is_disabled":true,"rental_uris":{"android":"levelo://app?vid=3064d7db-7a51-4e85-bef4-6def601894cd","ios":"levelo://app?vid=3064d7db-7a51-4e85-bef4-6def601894cd"},"vehicle_type_id":"4","last_reported":1752368621,"current_range_meters":9200,"station_id":"ce4bgup2rcd13ifvqco0","pricing_plan_id":"cebpf4jnsgd1na2vs0mg"},{"bike_id":"8929c1bf-fd4d-44e4-aa66-b3eb6538c998","system_id":"levelo_inurba_marseille","lat":43.28585,"lon":5.42959,"is_reserved":false,"is_disabled":false,"rental_uris":{"android":"levelo://app?vid=8929c1bf-fd4d-44e4-aa66-b3eb6538c998","ios":"levelo://app?vid=8929c1bf-fd4d-44e4-aa66-b3eb6538c998"},"vehicle_type_id":"4","last_reported":1752368621,"current_range_meters":9200,"station_id":"","pricing_plan_id":"cebpf4jnsgd1na2vs0mg"},{"bike_id":"989cadc1-b8d5-43b8-aca5-55b69edc9395","system_id":"levelo_inurba_marseille","lat":43.30742,"lon":5.42431,"is_reserved":false,"is_disabled":false,"rental_uris":{"android":"levelo://app?vid=989cadc1-b8d5-43b8-aca5-55b69edc9395","ios":"levelo://app?vid=989cadc1-b8d5-43b8-aca5-55b69edc9395"},"vehicle_type_id":"4","last_reported":1752368621,"current_range_meters":9200,"station_id":"st_cvj6ca6bvosntc0bfgr0","pricing_plan_id":"cebpf4jnsgd1na2vs0mg"},{"bike_id":"5a71ab42-51f6-4d74-8942-e5c8339f2255","system_id":"levelo_inurba_marseille","lat":43.31756,"lon":5.39018,"is_reserved":false,"is_disabled":true,"rental_uris":{"android":"levelo://app?vid=5a71ab42-51f6-4d74-8942-e5c8339f2255","ios":"levelo://app?vid=5a71ab42-51f6-4d74-8942-e5c8339f2255"},"vehicle_type_id":"4","last_reported":1752368621,"current_range_meters":9200,"station_id":"ce4bhqp2rcd13ifvqhng","pricing_plan_id":"cebpf4jnsgd1na2vs0mg"},{"bike_id":"48812dfa-d731-463a-8ecc-dbae1e40e34d","system_id":"levelo_inurba_marseille","lat":43.3025,"lon":5.4008,"is_reserved":false,"is_disabled":false,"rental_uris":{"android":"levelo://app?vid=48812dfa-d731-463a-8ecc-dbae1e40e34d","ios":"levelo://app?vid=48812dfa-d731-463a-8ecc-dbae1e40e34d"},"vehicle_type_id":"4","last_reported":1752368621,"current_range_meters":9600,"station_id":"ce4bgvh2rcd13ifvqcs0","pricing_plan_id":"cebpf4jnsgd1na2vs0mg"},{"bike_id":"0ad0b534-1da5-456c-aa84-d2096630950d","system_id":"levelo_inurba_marseille","lat":43.29035,"lon":5.38649,"is_reserved":false,"is_disabled":false,"rental_uris":{"android":"levelo://app?vid=0ad0b534-1da5-456c-aa84-d2096630950d","ios":"levelo://app?vid=0ad0b534-1da5-456c-aa84-d2096630950d"},"vehicle_type_id":"4","last_reported":1752368621,"current_range_meters":9600,"station_id":"ce4bh4p2rcd13ifvqe0g","pricing_plan_id":"cebpf4jnsgd1na2vs0mg"},{"bike_id":"21f51f77-8b78-488b-a42e-44d2a504cf11","system_id":"levelo_inurba_marseille","lat":43.2416,"lon":5.36457,"is_reserved":false,"is_disabled":true,"rental_uris":{"android":"levelo://app?vid=21f51f77-8b78-488b-a42e-44d2a504cf11","ios":"levelo://app?vid=21f51f77-8b78-488b-a42e-44d2a504cf11"},"vehicle_type_id":"4","last_reported":1752368621,"current_range_meters":9600,"station_id":"","pricing_plan_id":"cebpf4jnsgd1na2vs0mg"},{"bike_id":"2ed93ade-80c9-4b30-a913-d555336c2928","system_id":"levelo_inurba_marseille","lat":43.29438,"lon":5.39749,"is_reserved":false,"is_disabled":false,"rental_uris":{"android":"levelo://app?vid=2ed93ade-80c9-4b30-a913-d555336c2928","ios":"levelo://app?vid=2ed93ade-80c9-4b30-a913-d555336c2928"},"vehicle_type_id":"4","last_reported":1752368621,"current_range_meters":9600,"station_id":"ce4bh3h2rcd13ifvqdo0","pricing_plan_id":"cebpf4jnsgd1na2vs0mg"},{"bike_id":"4e18f6a0-cf0a-4e54-823e-14d073e25d70","system_id":"levelo_inurba_marseille","lat":43.28034,"lon":5.36937,"is_reserved":false,"is_disabled":true,"rental_uris":{"android":"levelo://app?vid=4e18f6a0-cf0a-4e54-823e-14d073e25d70","ios":"levelo://app?vid=4e18f6a0-cf0a-4e54-823e-14d073e25d70"},"vehicle_type_id":"4","last_reported":1752368621,"current_range_meters":9600,"station_id":"ce4bha12rcd13ifvqef0","pricing_plan_id":"cebpf4jnsgd1na2vs0mg"},{"bike_id":"e6c47ddc-ff7d-409b-8151-4ebda8746898","system_id":"levelo_inurba_marseille","lat":43.29979,"lon":5.37164,"is_reserved":false,"is_disabled":false,"rental_uris":{"android":"levelo://app?vid=e6c47ddc-ff7d-409b-8151-4ebda8746898","ios":"levelo://app?vid=e6c47ddc-ff7d-409b-8151-4ebda8746898"},"vehicle_type_id":"4","last_reported":1752368621,"current_range_meters":9600,"station_id":"ce4bgr92rcd13ifvqc7g","pricing_plan_id":"cebpf4jnsgd1na2vs0mg"},{"bike_id":"3bd4f9b6-68fe-4ead-875a-8ea9ae5e82fa","system_id":"levelo_inurba_marseille","lat":43.29972,"lon":5.37158,"is_reserved":false,"is_disabled":false,"rental_uris":{"android":"levelo://app?vid=3bd4f9b6-68fe-4ead-875a-8ea9ae5e82fa","ios":"levelo://app?vid=3bd4f9b6-68fe-4ead-875a-8ea9ae5e82fa"},"vehicle_type_id":"4","last_reported":1752368621,"current_range_meters":9600,"station_id":"ce4bgr92rcd13ifvqc7g","pricing_plan_id":"cebpf4jnsgd1na2vs0mg"},{"bike_id":"46cacac0-84b7-4c70-a453-a1cb8250fb4d","system_id":"levelo_inurba_marseille","lat":43.33784,"lon":5.37439,"is_reserved":false,"is_disabled":false,"rental_uris":{"android":"levelo://app?vid=46cacac0-84b7-4c70-a453-a1cb8250fb4d","ios":"levelo://app?vid=46cacac0-84b7-4c70-a453-a1cb8250fb4d"},"vehicle_type_id":"4","last_reported":1752368621,"current_range_meters":10000,"station_id":"","pricing_plan_id":"cebpf4jnsgd1na2vs0mg"},{"bike_id":"80cd665a-3373-445b-9caf-1e2455f5e761","system_id":"levelo_inurba_marseille","lat":43.28611,"lon":5.35105,"is_reserved":false,"is_disabled":false,"rental_uris":{"android":"levelo://app?vid=80cd665a-3373-445b-9caf-1e2455f5e761","ios":"levelo://app?vid=80cd665a-3373-445b-9caf-1e2455f5e761"},"vehicle_type_id":"4","last_reported":1752368621,"current_range_meters":10000,"station_id":"ce4bhch2rcd13ifvqeug","pricing_plan_id":"cebpf4jnsgd1na2vs0mg"},{"bike_id":"61198919-e72c-4fce-bc96-126627987dc0","system_id":"levelo_inurba_marseille","lat":43.296,"lon":5.37884,"is_reserved":false,"is_disabled":false,"rental_uris":{"android":"levelo://app?vid=61198919-e72c-4fce-bc96-126627987dc0","ios":"levelo://app?vid=61198919-e72c-4fce-bc96-126627987dc0"},"vehicle_type_id":"4","last_reported":1752368621,"current_range_meters":10000,"station_id":"","pricing_plan_id":"cebpf4jnsgd1na2vs0mg"},{"bike_id":"864d1381-1e4e-40e0-8778-4669071a0310","system_id":"levelo_inurba_marseille","lat":43.303046,"lon":5.404706,"is_reserved":false,"is_disabled":false,"rental_uris":{"android":"levelo://app?vid=864d1381-1e4e-40e0-8778-4669071a0310","ios":"levelo://app?vid=864d1381-1e4e-40e0-8778-4669071a0310"},"vehicle_type_id":"4","last_reported":1752368621,"current_range_meters":10000,"station_id":"ce4bh012rcd13ifvqd10","pricing_plan_id":"cebpf4jnsgd1na2vs0mg"},{"bike_id":"c7550031-8833-442a-9c17-afc84edb0a87","system_id":"levelo_inurba_marseille","lat":43.29798,"lon":5.40412,"is_reserved":false,"is_disabled":false,"rental_uris":{"android":"levelo://app?vid=c7550031-8833-442a-9c17-afc84edb0a87","ios":"levelo://app?vid=c7550031-8833-442a-9c17-afc84edb0a87"},"vehicle_type_id":"4","last_reported":1752368621,"current_range_meters":10000,"station_id":"ce4bh112rcd13ifvqd90","pricing_plan_id":"cebpf4jnsgd1na2vs0mg"},{"bike_id":"dbba3321-20c7-4989-a7b5-ea9ab2c4b3e8","system_id":"levelo_inurba_marseille","lat":43.261935,"lon":5.374477,"is_reserved":false,"is_disabled":true,"rental_uris":{"android":"levelo://app?vid=dbba3321-20c7-4989-a7b5-ea9ab2c4b3e8","ios":"levelo://app?vid=dbba3321-20c7-4989-a7b5-ea9ab2c4b3e8"},"vehicle_type_id":"4","last_reported":1752368621,"current_range_meters":10000,"station_id":"ce4bhgp2rcd13ifvqfc0","pricing_plan_id":"cebpf4jnsgd1na2vs0mg"},{"bike_id":"d214a8f2-b034-4f85-8c2b-29f4811621af","system_id":"levelo_inurba_marseille","lat":43.288495,"lon":5.358454,"is_reserved":false,"is_disabled":false,"rental_uris":{"android":"levelo://app?vid=d214a8f2-b034-4f85-8c2b-29f4811621af","ios":"levelo://app?vid=d214a8f2-b034-4f85-8c2b-29f4811621af"},"vehicle_type_id":"4","last_reported":1752368621,"current_range_meters":10000,"station_id":"ce4bhb12rcd13ifvqem0","pricing_plan_id":"cebpf4jnsgd1na2vs0mg"},{"bike_id":"c453155a-5220-48fc-922b-600ca54f8ab5","system_id":"levelo_inurba_marseille","lat":43.28653,"lon":5.36353,"is_reserved":false,"is_disabled":true,"rental_uris":{"android":"levelo://app?vid=c453155a-5220-48fc-922b-600ca54f8ab5","ios":"levelo://app?vid=c453155a-5220-48fc-922b-600ca54f8ab5"},"vehicle_type_id":"4","last_reported":1752368621,"current_range_meters":10000,"station_id":"ce4bhah2rcd13ifvqej0","pricing_plan_id":"cebpf4jnsgd1na2vs0mg"},{"bike_id":"6b0c0999-3e36-4535-b6b8-97c0d45b9d3f","system_id":"levelo_inurba_marseille","lat":43.31125,"lon":5.37759,"is_reserved":false,"is_disabled":false,"rental_uris":{"android":"levelo://app?vid=6b0c0999-3e36-4535-b6b8-97c0d45b9d3f","ios":"levelo://app?vid=6b0c0999-3e36-4535-b6b8-97c0d45b9d3f"},"vehicle_type_id":"4","last_reported":1752368621,"current_range_meters":10000,"station_id":"ce4bgt92rcd13ifvqcg0","pricing_plan_id":"cebpf4jnsgd1na2vs0mg"},{"bike_id":"733ab126-5929-4dc3-b27c-d62e8112c232","system_id":"levelo_inurba_marseille","lat":43.29274,"lon":5.4012,"is_reserved":false,"is_disabled":false,"rental_uris":{"android":"levelo://app?vid=733ab126-5929-4dc3-b27c-d62e8112c232","ios":"levelo://app?vid=733ab126-5929-4dc3-b27c-d62e8112c232"},"vehicle_type_id":"4","last_reported":1752368621,"current_range_meters":10800,"station_id":"ce4bh312rcd13ifvqdk0","pricing_plan_id":"cebpf4jnsgd1na2vs0mg"},{"bike_id":"feca689d-e0f6-4271-98e5-fe4e2b6eef38","system_id":"levelo_inurba_marseille","lat":43.3042,"lon":5.41278,"is_reserved":false,"is_disabled":false,"rental_uris":{"android":"levelo://app?vid=feca689d-e0f6-4271-98e5-fe4e2b6eef38","ios":"levelo://app?vid=feca689d-e0f6-4271-98e5-fe4e2b6eef38"},"vehicle_type_id":"4","last_reported":1752368621,"current_range_meters":10800,"station_id":"ce4bhop2rcd13ifvqh8g","pricing_plan_id":"cebpf4jnsgd1na2vs0mg"},{"bike_id":"696aca5a-f985-42f2-b5f7-74ca3a442dcb","system_id":"levelo_inurba_marseille","lat":43.3091,"lon":5.37177,"is_reserved":false,"is_disabled":false,"rental_uris":{"android":"levelo://app?vid=696aca5a-f985-42f2-b5f7-74ca3a442dcb","ios":"levelo://app?vid=696aca5a-f985-42f2-b5f7-74ca3a442dcb"},"vehicle_type_id":"4","last_reported":1752368621,"current_range_meters":10800,"station_id":"ce4bguh2rcd13ifvqckg","pricing_plan_id":"cebpf4jnsgd1na2vs0mg"},{"bike_id":"cf7ef57a-5217-4557-99d5-746cda46e1d2","system_id":"levelo_inurba_marseille","lat":43.29715,"lon":5.36618,"is_reserved":false,"is_disabled":false,"rental_uris":{"android":"levelo://app?vid=cf7ef57a-5217-4557-99d5-746cda46e1d2","ios":"levelo://app?vid=cf7ef57a-5217-4557-99d5-746cda46e1d2"},"vehicle_type_id":"4","last_reported":1752368621,"current_range_meters":10800,"station_id":"ce4bgn12rcd13ifvqbt0","pricing_plan_id":"cebpf4jnsgd1na2vs0mg"},{"bike_id":"c816310d-8ff0-4290-b10a-aad431dd902c","system_id":"levelo_inurba_marseille","lat":43.217476,"lon":5.346069,"is_reserved":false,"is_disabled":true,"rental_uris":{"android":"levelo://app?vid=c816310d-8ff0-4290-b10a-aad431dd902c","ios":"levelo://app?vid=c816310d-8ff0-4290-b10a-aad431dd902c"},"vehicle_type_id":"4","last_reported":1752368621,"current_range_meters":11200,"station_id":"st_cvj6r9ubvosntc0bgbag","pricing_plan_id":"cebpf4jnsgd1na2vs0mg"},{"bike_id":"2854adae-f0fd-4a42-8177-b7559cca565e","system_id":"levelo_inurba_marseille","lat":43.30885,"lon":5.37196,"is_reserved":false,"is_disabled":false,"rental_uris":{"android":"levelo://app?vid=2854adae-f0fd-4a42-8177-b7559cca565e","ios":"levelo://app?vid=2854adae-f0fd-4a42-8177-b7559cca565e"},"vehicle_type_id":"4","last_reported":1752368621,"current_range_meters":11200,"station_id":"ce4bguh2rcd13ifvqckg","pricing_plan_id":"cebpf4jnsgd1na2vs0mg"},{"bike_id":"445b4033-d39a-445b-a13e-fd13b4cf3c37","system_id":"levelo_inurba_marseille","lat":43.29779,"lon":5.37099,"is_reserved":false,"is_disabled":false,"rental_uris":{"android":"levelo://app?vid=445b4033-d39a-445b-a13e-fd13b4cf3c37","ios":"levelo://app?vid=445b4033-d39a-445b-a13e-fd13b4cf3c37"},"vehicle_type_id":"4","last_reported":1752368621,"current_range_meters":11200,"station_id":"ce4bgop2rcd13ifvqc1g","pricing_plan_id":"cebpf4jnsgd1na2vs0mg"},{"bike_id":"d17410a9-9fad-4786-90da-b6ffe751ba28","system_id":"levelo_inurba_marseille","lat":43.2869,"lon":5.39994,"is_reserved":false,"is_disabled":false,"rental_uris":{"android":"levelo://app?vid=d17410a9-9fad-4786-90da-b6ffe751ba28","ios":"levelo://app?vid=d17410a9-9fad-4786-90da-b6ffe751ba28"},"vehicle_type_id":"4","last_reported":1752368621,"current_range_meters":11200,"station_id":"ce4bho92rcd13ifvqh3g","pricing_plan_id":"cebpf4jnsgd1na2vs0mg"},{"bike_id":"04d578b0-283d-4b8e-a88b-6bf22f57cc6a","system_id":"levelo_inurba_marseille","lat":43.28552,"lon":5.39491,"is_reserved":false,"is_disabled":false,"rental_uris":{"android":"levelo://app?vid=04d578b0-283d-4b8e-a88b-6bf22f57cc6a","ios":"levelo://app?vid=04d578b0-283d-4b8e-a88b-6bf22f57cc6a"},"vehicle_type_id":"4","last_reported":1752368621,"current_range_meters":11200,"station_id":"ce4bh292rcd13ifvqdg0","pricing_plan_id":"cebpf4jnsgd1na2vs0mg"},{"bike_id":"93596664-234a-4714-956a-14906a6aaad4","system_id":"levelo_inurba_marseille","lat":43.26942,"lon":5.4024,"is_reserved":false,"is_disabled":false,"rental_uris":{"android":"levelo://app?vid=93596664-234a-4714-956a-14906a6aaad4","ios":"levelo://app?vid=93596664-234a-4714-956a-14906a6aaad4"},"vehicle_type_id":"4","last_reported":1752368621,"current_range_meters":11600,"station_id":"cjm6bp8fraef2m0cb0m0","pricing_plan_id":"cebpf4jnsgd1na2vs0mg"},{"bike_id":"d335a84e-8adc-46de-a5fd-dd8e583a48b9","system_id":"levelo_inurba_marseille","lat":43.28859,"lon":5.35835,"is_reserved":false,"is_disabled":false,"rental_uris":{"android":"levelo://app?vid=d335a84e-8adc-46de-a5fd-dd8e583a48b9","ios":"levelo://app?vid=d335a84e-8adc-46de-a5fd-dd8e583a48b9"},"vehicle_type_id":"4","last_reported":1752368621,"current_range_meters":11600,"station_id":"ce4bhb12rcd13ifvqem0","pricing_plan_id":"cebpf4jnsgd1na2vs0mg"},{"bike_id":"58e19141-e686-456a-8890-cf8909689859","system_id":"levelo_inurba_marseille","lat":43.3065,"lon":5.40084,"is_reserved":false,"is_disabled":false,"rental_uris":{"android":"levelo://app?vid=58e19141-e686-456a-8890-cf8909689859","ios":"levelo://app?vid=58e19141-e686-456a-8890-cf8909689859"},"vehicle_type_id":"4","last_reported":1752368621,"current_range_meters":11600,"station_id":"ce4bh112rcd13ifvqda0","pricing_plan_id":"cebpf4jnsgd1na2vs0mg"},{"bike_id":"ee5338dd-18a1-4b48-a5b0-f8c72f7b1319","system_id":"levelo_inurba_marseille","lat":43.3188,"lon":5.36796,"is_reserved":false,"is_disabled":false,"rental_uris":{"android":"levelo://app?vid=ee5338dd-18a1-4b48-a5b0-f8c72f7b1319","ios":"levelo://app?vid=ee5338dd-18a1-4b48-a5b0-f8c72f7b1319"},"vehicle_type_id":"4","last_reported":1752368621,"current_range_meters":11600,"station_id":"","pricing_plan_id":"cebpf4jnsgd1na2vs0mg"},{"bike_id":"09fb0d2a-4289-4386-8e0d-cd1b25efabbc","system_id":"levelo_inurba_marseille","lat":43.29091,"lon":5.37161,"is_reserved":false,"is_disabled":false,"rental_uris":{"android":"levelo://app?vid=09fb0d2a-4289-4386-8e0d-cd1b25efabbc","ios":"levelo://app?vid=09fb0d2a-4289-4386-8e0d-cd1b25efabbc"},"vehicle_type_id":"4","last_reported":1752368621,"current_range_meters":11600,"station_id":"ce4bh5p2rcd13ifvqe4g","pricing_plan_id":"cebpf4jnsgd1na2vs0mg"},{"bike_id":"965a49a4-9e92-42eb-becc-1b8886b80a4e","system_id":"levelo_inurba_marseille","lat":43.26934,"lon":5.40258,"is_reserved":false,"is_disabled":false,"rental_uris":{"android":"levelo://app?vid=965a49a4-9e92-42eb-becc-1b8886b80a4e","ios":"levelo://app?vid=965a49a4-9e92-42eb-becc-1b8886b80a4e"},"vehicle_type_id":"4","last_reported":1752368621,"current_range_meters":12000,"station_id":"cjm6bp8fraef2m0cb0m0","pricing_plan_id":"cebpf4jnsgd1na2vs0mg"},{"bike_id":"7f02047d-a6cd-43f4-a617-996f2b9a8bc8","system_id":"levelo_inurba_marseille","lat":43.32365,"lon":5.36749,"is_reserved":false,"is_disabled":false,"rental_uris":{"android":"levelo://app?vid=7f02047d-a6cd-43f4-a617-996f2b9a8bc8","ios":"levelo://app?vid=7f02047d-a6cd-43f4-a617-996f2b9a8bc8"},"vehicle_type_id":"4","last_reported":1752368621,"current_range_meters":12000,"station_id":"ce4bhsh2rcd13ifvqi2g","pricing_plan_id":"cebpf4jnsgd1na2vs0mg"},{"bike_id":"f18db782-201e-4e02-9468-2a81d86bd33d","system_id":"levelo_inurba_marseille","lat":43.284241,"lon":5.375234,"is_reserved":false,"is_disabled":false,"rental_uris":{"android":"levelo://app?vid=f18db782-201e-4e02-9468-2a81d86bd33d","ios":"levelo://app?vid=f18db782-201e-4e02-9468-2a81d86bd33d"},"vehicle_type_id":"4","last_reported":1752368621,"current_range_meters":12000,"station_id":"","pricing_plan_id":"cebpf4jnsgd1na2vs0mg"},{"bike_id":"ad3a92a9-aac6-4694-a2f3-20c935fef2b6","system_id":"levelo_inurba_marseille","lat":43.292986,"lon":5.374656,"is_reserved":false,"is_disabled":false,"rental_uris":{"android":"levelo://app?vid=ad3a92a9-aac6-4694-a2f3-20c935fef2b6","ios":"levelo://app?vid=ad3a92a9-aac6-4694-a2f3-20c935fef2b6"},"vehicle_type_id":"4","last_reported":1752368621,"current_range_meters":12000,"station_id":"","pricing_plan_id":"cebpf4jnsgd1na2vs0mg"},{"bike_id":"4439f06f-e232-40e6-b17e-1a51f5a4d38d","system_id":"levelo_inurba_marseille","lat":43.26547,"lon":5.39053,"is_reserved":false,"is_disabled":false,"rental_uris":{"android":"levelo://app?vid=4439f06f-e232-40e6-b17e-1a51f5a4d38d","ios":"levelo://app?vid=4439f06f-e232-40e6-b17e-1a51f5a4d38d"},"vehicle_type_id":"4","last_reported":1752368621,"current_range_meters":12000,"station_id":"ce4bhe12rcd13ifvqf30","pricing_plan_id":"cebpf4jnsgd1na2vs0mg"},{"bike_id":"4ad0ccbc-8296-4d82-945c-691ffe26b51f","system_id":"levelo_inurba_marseille","lat":43.28724,"lon":5.36085,"is_reserved":false,"is_disabled":false,"rental_uris":{"android":"levelo://app?vid=4ad0ccbc-8296-4d82-945c-691ffe26b51f","ios":"levelo://app?vid=4ad0ccbc-8296-4d82-945c-691ffe26b51f"},"vehicle_type_id":"4","last_reported":1752368621,"current_range_meters":12000,"station_id":"cki0cbj6b192h4jlfktg","pricing_plan_id":"cebpf4jnsgd1na2vs0mg"},{"bike_id":"470d1e9d-8c05-40b8-a6b2-039f183b9f6a","system_id":"levelo_inurba_marseille","lat":43.23188,"lon":5.35579,"is_reserved":false,"is_disabled":true,"rental_uris":{"android":"levelo://app?vid=470d1e9d-8c05-40b8-a6b2-039f183b9f6a","ios":"levelo://app?vid=470d1e9d-8c05-40b8-a6b2-039f183b9f6a"},"vehicle_type_id":"4","last_reported":1752368621,"current_range_meters":12000,"station_id":"ce4bhu92rcd13ifvqi70","pricing_plan_id":"cebpf4jnsgd1na2vs0mg"},{"bike_id":"7bb2812a-b96e-400f-831c-7b8a97727eef","system_id":"levelo_inurba_marseille","lat":43.31707,"lon":5.37764,"is_reserved":false,"is_disabled":false,"rental_uris":{"android":"levelo://app?vid=7bb2812a-b96e-400f-831c-7b8a97727eef","ios":"levelo://app?vid=7bb2812a-b96e-400f-831c-7b8a97727eef"},"vehicle_type_id":"4","last_reported":1752368621,"current_range_meters":12400,"station_id":"ce4bgth2rcd13ifvqch0","pricing_plan_id":"cebpf4jnsgd1na2vs0mg"},{"bike_id":"77e2b5ea-0ac7-496e-b4d5-4beaac5d6b16","system_id":"levelo_inurba_marseille","lat":43.29525,"lon":5.39409,"is_reserved":false,"is_disabled":false,"rental_uris":{"android":"levelo://app?vid=77e2b5ea-0ac7-496e-b4d5-4beaac5d6b16","ios":"levelo://app?vid=77e2b5ea-0ac7-496e-b4d5-4beaac5d6b16"},"vehicle_type_id":"4","last_reported":1752368621,"current_range_meters":12400,"station_id":"ce4bh292rcd13ifvqdf0","pricing_plan_id":"cebpf4jnsgd1na2vs0mg"},{"bike_id":"c1ae9ff6-fde2-443e-bc2c-8995394b44f5","system_id":"levelo_inurba_marseille","lat":43.31272,"lon":5.40167,"is_reserved":false,"is_disabled":false,"rental_uris":{"android":"levelo://app?vid=c1ae9ff6-fde2-443e-bc2c-8995394b44f5","ios":"levelo://app?vid=c1ae9ff6-fde2-443e-bc2c-8995394b44f5"},"vehicle_type_id":"4","last_reported":1752368621,"current_range_meters":12400,"station_id":"ce4bh092rcd13ifvqd30","pricing_plan_id":"cebpf4jnsgd1na2vs0mg"},{"bike_id":"383a2485-518e-4235-b1cd-0ebf65ba74a5","system_id":"levelo_inurba_marseille","lat":43.29505,"lon":5.38567,"is_reserved":false,"is_disabled":true,"rental_uris":{"android":"levelo://app?vid=383a2485-518e-4235-b1cd-0ebf65ba74a5","ios":"levelo://app?vid=383a2485-518e-4235-b1cd-0ebf65ba74a5"},"vehicle_type_id":"4","last_reported":1752368621,"current_range_meters":12400,"station_id":"ce4bgih2rcd13ifvqba0","pricing_plan_id":"cebpf4jnsgd1na2vs0mg"},{"bike_id":"a2d82a2f-d37e-468c-bc43-b3bcf1bfcc9f","system_id":"levelo_inurba_marseille","lat":43.30323,"lon":5.40419,"is_reserved":false,"is_disabled":false,"rental_uris":{"android":"levelo://app?vid=a2d82a2f-d37e-468c-bc43-b3bcf1bfcc9f","ios":"levelo://app?vid=a2d82a2f-d37e-468c-bc43-b3bcf1bfcc9f"},"vehicle_type_id":"4","last_reported":1752368621,"current_range_meters":12400,"station_id":"ce4bh012rcd13ifvqd10","pricing_plan_id":"cebpf4jnsgd1na2vs0mg"},{"bike_id":"d3a6e38c-d49f-4352-88a6-de4e89f5067a","system_id":"levelo_inurba_marseille","lat":43.26192,"lon":5.4042,"is_reserved":false,"is_disabled":false,"rental_uris":{"android":"levelo://app?vid=d3a6e38c-d49f-4352-88a6-de4e89f5067a","ios":"levelo://app?vid=d3a6e38c-d49f-4352-88a6-de4e89f5067a"},"vehicle_type_id":"4","last_reported":1752368621,"current_range_meters":12400,"station_id":"ce4bhmh2rcd13ifvqgmg","pricing_plan_id":"cebpf4jnsgd1na2vs0mg"},{"bike_id":"2c01c085-a118-4b6b-9ba6-2000ce1f20ec","system_id":"levelo_inurba_marseille","lat":43.2871,"lon":5.37958,"is_reserved":false,"is_disabled":false,"rental_uris":{"android":"levelo://app?vid=2c01c085-a118-4b6b-9ba6-2000ce1f20ec","ios":"levelo://app?vid=2c01c085-a118-4b6b-9ba6-2000ce1f20ec"},"vehicle_type_id":"4","last_reported":1752368621,"current_range_meters":12400,"station_id":"ce4bh9p2rcd13ifvqec0","pricing_plan_id":"cebpf4jnsgd1na2vs0mg"},{"bike_id":"737ead6f-e608-42f1-8a55-8949c954e8e3","system_id":"levelo_inurba_marseille","lat":43.212109,"lon":5.35078,"is_reserved":false,"is_disabled":false,"rental_uris":{"android":"levelo://app?vid=737ead6f-e608-42f1-8a55-8949c954e8e3","ios":"levelo://app?vid=737ead6f-e608-42f1-8a55-8949c954e8e3"},"vehicle_type_id":"4","last_reported":1752368621,"current_range_meters":12400,"station_id":"st_cvj6sg6p6f1abm77japg","pricing_plan_id":"cebpf4jnsgd1na2vs0mg"},{"bike_id":"51890362-46b0-4ee7-9f02-afbf036d064e","system_id":"levelo_inurba_marseille","lat":43.2119,"lon":5.35074,"is_reserved":false,"is_disabled":false,"rental_uris":{"android":"levelo://app?vid=51890362-46b0-4ee7-9f02-afbf036d064e","ios":"levelo://app?vid=51890362-46b0-4ee7-9f02-afbf036d064e"},"vehicle_type_id":"4","last_reported":1752368621,"current_range_meters":12800,"station_id":"st_cvj6sg6p6f1abm77japg","pricing_plan_id":"cebpf4jnsgd1na2vs0mg"},{"bike_id":"941500d1-c287-46dd-9de2-1d6e75b1ce30","system_id":"levelo_inurba_marseille","lat":43.28667,"lon":5.38665,"is_reserved":false,"is_disabled":false,"rental_uris":{"android":"levelo://app?vid=941500d1-c287-46dd-9de2-1d6e75b1ce30","ios":"levelo://app?vid=941500d1-c287-46dd-9de2-1d6e75b1ce30"},"vehicle_type_id":"4","last_reported":1752368621,"current_range_meters":12800,"station_id":"ce4bh492rcd13ifvqdug","pricing_plan_id":"cebpf4jnsgd1na2vs0mg"},{"bike_id":"c4159d35-3997-4d22-8b07-70d50dce5087","system_id":"levelo_inurba_marseille","lat":43.24165,"lon":5.39745,"is_reserved":false,"is_disabled":false,"rental_uris":{"android":"levelo://app?vid=c4159d35-3997-4d22-8b07-70d50dce5087","ios":"levelo://app?vid=c4159d35-3997-4d22-8b07-70d50dce5087"},"vehicle_type_id":"4","last_reported":1752368621,"current_range_meters":12800,"station_id":"ce4bhn12rcd13ifvqgpg","pricing_plan_id":"cebpf4jnsgd1na2vs0mg"},{"bike_id":"e7aff35c-4ebc-4620-9732-04d18fefa3e8","system_id":"levelo_inurba_marseille","lat":43.217538,"lon":5.34607,"is_reserved":false,"is_disabled":false,"rental_uris":{"android":"levelo://app?vid=e7aff35c-4ebc-4620-9732-04d18fefa3e8","ios":"levelo://app?vid=e7aff35c-4ebc-4620-9732-04d18fefa3e8"},"vehicle_type_id":"4","last_reported":1752368621,"current_range_meters":12800,"station_id":"","pricing_plan_id":"cebpf4jnsgd1na2vs0mg"},{"bike_id":"3d606fdc-f6da-4bfc-a559-196d7d7a114e","system_id":"levelo_inurba_marseille","lat":43.25003,"lon":5.3894,"is_reserved":false,"is_disabled":true,"rental_uris":{"android":"levelo://app?vid=3d606fdc-f6da-4bfc-a559-196d7d7a114e","ios":"levelo://app?vid=3d606fdc-f6da-4bfc-a559-196d7d7a114e"},"vehicle_type_id":"4","last_reported":1752368621,"current_range_meters":13600,"station_id":"ce4bhgp2rcd13ifvqfd0","pricing_plan_id":"cebpf4jnsgd1na2vs0mg"},{"bike_id":"49801dc2-618a-44b8-84ae-416cd87fdbe9","system_id":"levelo_inurba_marseille","lat":43.33775,"lon":5.37482,"is_reserved":false,"is_disabled":false,"rental_uris":{"android":"levelo://app?vid=49801dc2-618a-44b8-84ae-416cd87fdbe9","ios":"levelo://app?vid=49801dc2-618a-44b8-84ae-416cd87fdbe9"},"vehicle_type_id":"4","last_reported":1752368621,"current_range_meters":13600,"station_id":"","pricing_plan_id":"cebpf4jnsgd1na2vs0mg"},{"bike_id":"a0137104-c9f4-434a-a5e3-80725cd5a2b4","system_id":"levelo_inurba_marseille","lat":43.211966,"lon":5.350694,"is_reserved":false,"is_disabled":false,"rental_uris":{"android":"levelo://app?vid=a0137104-c9f4-434a-a5e3-80725cd5a2b4","ios":"levelo://app?vid=a0137104-c9f4-434a-a5e3-80725cd5a2b4"},"vehicle_type_id":"4","last_reported":1752368621,"current_range_meters":13600,"station_id":"st_cvj6sg6p6f1abm77japg","pricing_plan_id":"cebpf4jnsgd1na2vs0mg"},{"bike_id":"d973ee2f-f6df-415a-aec7-69bc90b96c67","system_id":"levelo_inurba_marseille","lat":43.31774,"lon":5.39002,"is_reserved":false,"is_disabled":true,"rental_uris":{"android":"levelo://app?vid=d973ee2f-f6df-415a-aec7-69bc90b96c67","ios":"levelo://app?vid=d973ee2f-f6df-415a-aec7-69bc90b96c67"},"vehicle_type_id":"4","last_reported":1752368621,"current_range_meters":14000,"station_id":"ce4bhqp2rcd13ifvqhng","pricing_plan_id":"cebpf4jnsgd1na2vs0mg"},{"bike_id":"84761d97-9b88-4141-8a33-ed6b0e0263fe","system_id":"levelo_inurba_marseille","lat":43.261653,"lon":5.40161,"is_reserved":false,"is_disabled":false,"rental_uris":{"android":"levelo://app?vid=84761d97-9b88-4141-8a33-ed6b0e0263fe","ios":"levelo://app?vid=84761d97-9b88-4141-8a33-ed6b0e0263fe"},"vehicle_type_id":"4","last_reported":1752368621,"current_range_meters":14000,"station_id":"","pricing_plan_id":"cebpf4jnsgd1na2vs0mg"},{"bike_id":"d7d851de-d966-47dc-9bd8-1a9ae0c433a4","system_id":"levelo_inurba_marseille","lat":43.22513,"lon":5.34801,"is_reserved":false,"is_disabled":false,"rental_uris":{"android":"levelo://app?vid=d7d851de-d966-47dc-9bd8-1a9ae0c433a4","ios":"levelo://app?vid=d7d851de-d966-47dc-9bd8-1a9ae0c433a4"},"vehicle_type_id":"4","last_reported":1752368621,"current_range_meters":14000,"station_id":"st_cvj5dfep6f1abm77gieg","pricing_plan_id":"cebpf4jnsgd1na2vs0mg"},{"bike_id":"747c0a1e-be69-4fb2-8930-1177e863a846","system_id":"levelo_inurba_marseille","lat":43.30887,"lon":5.37202,"is_reserved":false,"is_disabled":false,"rental_uris":{"android":"levelo://app?vid=747c0a1e-be69-4fb2-8930-1177e863a846","ios":"levelo://app?vid=747c0a1e-be69-4fb2-8930-1177e863a846"},"vehicle_type_id":"4","last_reported":1752368621,"current_range_meters":14000,"station_id":"ce4bguh2rcd13ifvqckg","pricing_plan_id":"cebpf4jnsgd1na2vs0mg"},{"bike_id":"bcd5f92f-9d0d-4919-acc7-84ce17b87f71","system_id":"levelo_inurba_marseille","lat":43.26789,"lon":5.39412,"is_reserved":false,"is_disabled":false,"rental_uris":{"android":"levelo://app?vid=bcd5f92f-9d0d-4919-acc7-84ce17b87f71","ios":"levelo://app?vid=bcd5f92f-9d0d-4919-acc7-84ce17b87f71"},"vehicle_type_id":"4","last_reported":1752368621,"current_range_meters":14000,"station_id":"ce4bhh12rcd13ifvqfg0","pricing_plan_id":"cebpf4jnsgd1na2vs0mg"},{"bike_id":"854d5dbd-9ed2-47cd-9380-9348e08a193d","system_id":"levelo_inurba_marseille","lat":43.2991,"lon":5.37477,"is_reserved":false,"is_disabled":false,"rental_uris":{"android":"levelo://app?vid=854d5dbd-9ed2-47cd-9380-9348e08a193d","ios":"levelo://app?vid=854d5dbd-9ed2-47cd-9380-9348e08a193d"},"vehicle_type_id":"4","last_reported":1752368621,"current_range_meters":14400,"station_id":"ce4bgjh2rcd13ifvqbg0","pricing_plan_id":"cebpf4jnsgd1na2vs0mg"},{"bike_id":"00bc0b3b-e317-4a17-a011-a3a9a29d816a","system_id":"levelo_inurba_marseille","lat":43.21198,"lon":5.35076,"is_reserved":false,"is_disabled":false,"rental_uris":{"android":"levelo://app?vid=00bc0b3b-e317-4a17-a011-a3a9a29d816a","ios":"levelo://app?vid=00bc0b3b-e317-4a17-a011-a3a9a29d816a"},"vehicle_type_id":"4","last_reported":1752368621,"current_range_meters":14400,"station_id":"st_cvj6sg6p6f1abm77japg","pricing_plan_id":"cebpf4jnsgd1na2vs0mg"},{"bike_id":"11f46ca2-23ee-4f2a-83a5-008959742fbd","system_id":"levelo_inurba_marseille","lat":43.24671,"lon":5.38173,"is_reserved":false,"is_disabled":false,"rental_uris":{"android":"levelo://app?vid=11f46ca2-23ee-4f2a-83a5-008959742fbd","ios":"levelo://app?vid=11f46ca2-23ee-4f2a-83a5-008959742fbd"},"vehicle_type_id":"4","last_reported":1752368621,"current_range_meters":14400,"station_id":"ce4bhih2rcd13ifvqfr0","pricing_plan_id":"cebpf4jnsgd1na2vs0mg"},{"bike_id":"016a0553-daa1-434d-8dba-ff1fbded5db8","system_id":"levelo_inurba_marseille","lat":43.22494,"lon":5.34799,"is_reserved":false,"is_disabled":false,"rental_uris":{"android":"levelo://app?vid=016a0553-daa1-434d-8dba-ff1fbded5db8","ios":"levelo://app?vid=016a0553-daa1-434d-8dba-ff1fbded5db8"},"vehicle_type_id":"4","last_reported":1752368621,"current_range_meters":14400,"station_id":"st_cvj5dfep6f1abm77gieg","pricing_plan_id":"cebpf4jnsgd1na2vs0mg"},{"bike_id":"4ab460f6-2b13-462f-a8b8-8ee3ec6489ea","system_id":"levelo_inurba_marseille","lat":43.262315,"lon":5.404506,"is_reserved":false,"is_disabled":false,"rental_uris":{"android":"levelo://app?vid=4ab460f6-2b13-462f-a8b8-8ee3ec6489ea","ios":"levelo://app?vid=4ab460f6-2b13-462f-a8b8-8ee3ec6489ea"},"vehicle_type_id":"4","last_reported":1752368621,"current_range_meters":14400,"station_id":"ce4bhmh2rcd13ifvqgmg","pricing_plan_id":"cebpf4jnsgd1na2vs0mg"},{"bike_id":"31f76825-7b9f-439a-a66c-521eb63e58c1","system_id":"levelo_inurba_marseille","lat":43.294558,"lon":5.438558,"is_reserved":false,"is_disabled":false,"rental_uris":{"android":"levelo://app?vid=31f76825-7b9f-439a-a66c-521eb63e58c1","ios":"levelo://app?vid=31f76825-7b9f-439a-a66c-521eb63e58c1"},"vehicle_type_id":"4","last_reported":1752368621,"current_range_meters":14400,"station_id":"","pricing_plan_id":"cebpf4jnsgd1na2vs0mg"},{"bike_id":"d4d3ffbc-291c-46bd-9672-eb14edfb6310","system_id":"levelo_inurba_marseille","lat":43.29524,"lon":5.38549,"is_reserved":false,"is_disabled":false,"rental_uris":{"android":"levelo://app?vid=d4d3ffbc-291c-46bd-9672-eb14edfb6310","ios":"levelo://app?vid=d4d3ffbc-291c-46bd-9672-eb14edfb6310"},"vehicle_type_id":"4","last_reported":1752368621,"current_range_meters":14800,"station_id":"ce4bgih2rcd13ifvqba0","pricing_plan_id":"cebpf4jnsgd1na2vs0mg"},{"bike_id":"366b058e-8f35-45b7-947b-cdece4af2e52","system_id":"levelo_inurba_marseille","lat":43.292725,"lon":5.368383,"is_reserved":false,"is_disabled":false,"rental_uris":{"android":"levelo://app?vid=366b058e-8f35-45b7-947b-cdece4af2e52","ios":"levelo://app?vid=366b058e-8f35-45b7-947b-cdece4af2e52"},"vehicle_type_id":"4","last_reported":1752368621,"current_range_meters":14800,"station_id":"","pricing_plan_id":"cebpf4jnsgd1na2vs0mg"},{"bike_id":"8b37f03f-f226-4bbc-8648-b109da7ba145","system_id":"levelo_inurba_marseille","lat":43.30536,"lon":5.366999,"is_reserved":false,"is_disabled":false,"rental_uris":{"android":"levelo://app?vid=8b37f03f-f226-4bbc-8648-b109da7ba145","ios":"levelo://app?vid=8b37f03f-f226-4bbc-8648-b109da7ba145"},"vehicle_type_id":"4","last_reported":1752368621,"current_range_meters":14800,"station_id":"","pricing_plan_id":"cebpf4jnsgd1na2vs0mg"},{"bike_id":"f23760ff-ab61-4853-aa67-28aac93822c1","system_id":"levelo_inurba_marseille","lat":43.337444,"lon":5.374475,"is_reserved":false,"is_disabled":false,"rental_uris":{"android":"levelo://app?vid=f23760ff-ab61-4853-aa67-28aac93822c1","ios":"levelo://app?vid=f23760ff-ab61-4853-aa67-28aac93822c1"},"vehicle_type_id":"4","last_reported":1752368621,"current_range_meters":14800,"station_id":"","pricing_plan_id":"cebpf4jnsgd1na2vs0mg"},{"bike_id":"8f910bb0-4d17-4114-bb90-0265a46eb675","system_id":"levelo_inurba_marseille","lat":43.31713,"lon":5.37771,"is_reserved":false,"is_disabled":false,"rental_uris":{"android":"levelo://app?vid=8f910bb0-4d17-4114-bb90-0265a46eb675","ios":"levelo://app?vid=8f910bb0-4d17-4114-bb90-0265a46eb675"},"vehicle_type_id":"4","last_reported":1752368621,"current_range_meters":14800,"station_id":"ce4bgth2rcd13ifvqch0","pricing_plan_id":"cebpf4jnsgd1na2vs0mg"},{"bike_id":"6d996e89-1679-4485-be34-16fb215d82a1","system_id":"levelo_inurba_marseille","lat":43.2795,"lon":5.41041,"is_reserved":false,"is_disabled":false,"rental_uris":{"android":"levelo://app?vid=6d996e89-1679-4485-be34-16fb215d82a1","ios":"levelo://app?vid=6d996e89-1679-4485-be34-16fb215d82a1"},"vehicle_type_id":"4","last_reported":1752368621,"current_range_meters":14800,"station_id":"ce4bhnp2rcd13ifvqh0g","pricing_plan_id":"cebpf4jnsgd1na2vs0mg"},{"bike_id":"b105f991-1563-4fc4-9371-7364ce9b8c80","system_id":"levelo_inurba_marseille","lat":43.287285,"lon":5.395579,"is_reserved":false,"is_disabled":false,"rental_uris":{"android":"levelo://app?vid=b105f991-1563-4fc4-9371-7364ce9b8c80","ios":"levelo://app?vid=b105f991-1563-4fc4-9371-7364ce9b8c80"},"vehicle_type_id":"4","last_reported":1752368621,"current_range_meters":14800,"station_id":"","pricing_plan_id":"cebpf4jnsgd1na2vs0mg"},{"bike_id":"04842ccf-fd94-43eb-b570-9d4578876408","system_id":"levelo_inurba_marseille","lat":43.287134,"lon":5.383083,"is_reserved":false,"is_disabled":false,"rental_uris":{"android":"levelo://app?vid=04842ccf-fd94-43eb-b570-9d4578876408","ios":"levelo://app?vid=04842ccf-fd94-43eb-b570-9d4578876408"},"vehicle_type_id":"4","last_reported":1752368621,"current_range_meters":15200,"station_id":"ce4bhgp2rcd13ifvqfe0","pricing_plan_id":"cebpf4jnsgd1na2vs0mg"},{"bike_id":"f83a1ac2-2158-4a8d-a3a6-5f71226f0918","system_id":"levelo_inurba_marseille","lat":43.30982,"lon":5.3701,"is_reserved":false,"is_disabled":false,"rental_uris":{"android":"levelo://app?vid=f83a1ac2-2158-4a8d-a3a6-5f71226f0918","ios":"levelo://app?vid=f83a1ac2-2158-4a8d-a3a6-5f71226f0918"},"vehicle_type_id":"4","last_reported":1752368621,"current_range_meters":15200,"station_id":"","pricing_plan_id":"cebpf4jnsgd1na2vs0mg"},{"bike_id":"bb77258b-2e1b-464c-bc28-5cb9e1057245","system_id":"levelo_inurba_marseille","lat":43.2961,"lon":5.37727,"is_reserved":false,"is_disabled":false,"rental_uris":{"android":"levelo://app?vid=bb77258b-2e1b-464c-bc28-5cb9e1057245","ios":"levelo://app?vid=bb77258b-2e1b-464c-bc28-5cb9e1057245"},"vehicle_type_id":"4","last_reported":1752368621,"current_range_meters":15200,"station_id":"ce4bgi92rcd13ifvqb90","pricing_plan_id":"cebpf4jnsgd1na2vs0mg"},{"bike_id":"8ba94e03-27a8-4940-b568-a7c3963971ca","system_id":"levelo_inurba_marseille","lat":43.2868,"lon":5.39988,"is_reserved":false,"is_disabled":false,"rental_uris":{"android":"levelo://app?vid=8ba94e03-27a8-4940-b568-a7c3963971ca","ios":"levelo://app?vid=8ba94e03-27a8-4940-b568-a7c3963971ca"},"vehicle_type_id":"4","last_reported":1752368621,"current_range_meters":15200,"station_id":"ce4bho92rcd13ifvqh3g","pricing_plan_id":"cebpf4jnsgd1na2vs0mg"},{"bike_id":"9a72d1fd-ba0d-40b8-85c2-0a32bee82c5a","system_id":"levelo_inurba_marseille","lat":43.285833,"lon":5.402367,"is_reserved":false,"is_disabled":false,"rental_uris":{"android":"levelo://app?vid=9a72d1fd-ba0d-40b8-85c2-0a32bee82c5a","ios":"levelo://app?vid=9a72d1fd-ba0d-40b8-85c2-0a32bee82c5a"},"vehicle_type_id":"4","last_reported":1752368621,"current_range_meters":15200,"station_id":"","pricing_plan_id":"cebpf4jnsgd1na2vs0mg"},{"bike_id":"7419c120-5824-4734-9504-530659ebab94","system_id":"levelo_inurba_marseille","lat":43.27999,"lon":5.4001,"is_reserved":false,"is_disabled":false,"rental_uris":{"android":"levelo://app?vid=7419c120-5824-4734-9504-530659ebab94","ios":"levelo://app?vid=7419c120-5824-4734-9504-530659ebab94"},"vehicle_type_id":"4","last_reported":1752368621,"current_range_meters":16000,"station_id":"ce4bho92rcd13ifvqh4g","pricing_plan_id":"cebpf4jnsgd1na2vs0mg"},{"bike_id":"6d3f299a-d341-49bc-a1f9-7534528d9b67","system_id":"levelo_inurba_marseille","lat":43.2319,"lon":5.35559,"is_reserved":false,"is_disabled":false,"rental_uris":{"android":"levelo://app?vid=6d3f299a-d341-49bc-a1f9-7534528d9b67","ios":"levelo://app?vid=6d3f299a-d341-49bc-a1f9-7534528d9b67"},"vehicle_type_id":"4","last_reported":1752368621,"current_range_meters":16000,"station_id":"ce4bhu92rcd13ifvqi70","pricing_plan_id":"cebpf4jnsgd1na2vs0mg"},{"bike_id":"4b8da722-ee9e-48a4-a5e5-3a8a10364708","system_id":"levelo_inurba_marseille","lat":43.31286,"lon":5.37825,"is_reserved":false,"is_disabled":false,"rental_uris":{"android":"levelo://app?vid=4b8da722-ee9e-48a4-a5e5-3a8a10364708","ios":"levelo://app?vid=4b8da722-ee9e-48a4-a5e5-3a8a10364708"},"vehicle_type_id":"4","last_reported":1752368621,"current_range_meters":16000,"station_id":"","pricing_plan_id":"cebpf4jnsgd1na2vs0mg"},{"bike_id":"8577aaca-7915-49c3-b3eb-bc84fe946baf","system_id":"levelo_inurba_marseille","lat":43.275737,"lon":5.416848,"is_reserved":false,"is_disabled":false,"rental_uris":{"android":"levelo://app?vid=8577aaca-7915-49c3-b3eb-bc84fe946baf","ios":"levelo://app?vid=8577aaca-7915-49c3-b3eb-bc84fe946baf"},"vehicle_type_id":"4","last_reported":1752368621,"current_range_meters":16000,"station_id":"","pricing_plan_id":"cebpf4jnsgd1na2vs0mg"},{"bike_id":"b8cd8c38-4d88-48b2-abb3-ece961dbda2a","system_id":"levelo_inurba_marseille","lat":43.30638,"lon":5.40066,"is_reserved":false,"is_disabled":false,"rental_uris":{"android":"levelo://app?vid=b8cd8c38-4d88-48b2-abb3-ece961dbda2a","ios":"levelo://app?vid=b8cd8c38-4d88-48b2-abb3-ece961dbda2a"},"vehicle_type_id":"4","last_reported":1752368621,"current_range_meters":16000,"station_id":"ce4bh112rcd13ifvqda0","pricing_plan_id":"cebpf4jnsgd1na2vs0mg"},{"bike_id":"1246340e-7ba7-4d4f-989b-650db36f2055","system_id":"levelo_inurba_marseille","lat":43.295583,"lon":5.42299,"is_reserved":false,"is_disabled":false,"rental_uris":{"android":"levelo://app?vid=1246340e-7ba7-4d4f-989b-650db36f2055","ios":"levelo://app?vid=1246340e-7ba7-4d4f-989b-650db36f2055"},"vehicle_type_id":"4","last_reported":1752368621,"current_range_meters":16000,"station_id":"ce4bhph2rcd13ifvqhdg","pricing_plan_id":"cebpf4jnsgd1na2vs0mg"},{"bike_id":"0fa99774-805b-4b16-b49e-f2f0de50f45e","system_id":"levelo_inurba_marseille","lat":43.28667,"lon":5.36348,"is_reserved":false,"is_disabled":false,"rental_uris":{"android":"levelo://app?vid=0fa99774-805b-4b16-b49e-f2f0de50f45e","ios":"levelo://app?vid=0fa99774-805b-4b16-b49e-f2f0de50f45e"},"vehicle_type_id":"4","last_reported":1752368621,"current_range_meters":16000,"station_id":"ce4bhah2rcd13ifvqej0","pricing_plan_id":"cebpf4jnsgd1na2vs0mg"},{"bike_id":"64e0382f-4f5c-404c-ad2d-9b448c9834f1","system_id":"levelo_inurba_marseille","lat":43.31126,"lon":5.37762,"is_reserved":false,"is_disabled":false,"rental_uris":{"android":"levelo://app?vid=64e0382f-4f5c-404c-ad2d-9b448c9834f1","ios":"levelo://app?vid=64e0382f-4f5c-404c-ad2d-9b448c9834f1"},"vehicle_type_id":"4","last_reported":1752368621,"current_range_meters":16000,"station_id":"ce4bgt92rcd13ifvqcg0","pricing_plan_id":"cebpf4jnsgd1na2vs0mg"},{"bike_id":"c1d0629c-eaee-41e7-8c10-68b0ec1b077d","system_id":"levelo_inurba_marseille","lat":43.32761,"lon":5.39105,"is_reserved":false,"is_disabled":false,"rental_uris":{"android":"levelo://app?vid=c1d0629c-eaee-41e7-8c10-68b0ec1b077d","ios":"levelo://app?vid=c1d0629c-eaee-41e7-8c10-68b0ec1b077d"},"vehicle_type_id":"4","last_reported":1752368621,"current_range_meters":16000,"station_id":"","pricing_plan_id":"cebpf4jnsgd1na2vs0mg"},{"bike_id":"03a436fb-5e33-4301-9462-cda142dcc749","system_id":"levelo_inurba_marseille","lat":43.301432,"lon":5.380858,"is_reserved":false,"is_disabled":false,"rental_uris":{"android":"levelo://app?vid=03a436fb-5e33-4301-9462-cda142dcc749","ios":"levelo://app?vid=03a436fb-5e33-4301-9462-cda142dcc749"},"vehicle_type_id":"4","last_reported":1752368621,"current_range_meters":16000,"station_id":"ce4bgjp2rcd13ifvqbh0","pricing_plan_id":"cebpf4jnsgd1na2vs0mg"},{"bike_id":"26d56d20-32ec-48ee-9a5e-f8a22ada0690","system_id":"levelo_inurba_marseille","lat":43.25122,"lon":5.40317,"is_reserved":false,"is_disabled":false,"rental_uris":{"android":"levelo://app?vid=26d56d20-32ec-48ee-9a5e-f8a22ada0690","ios":"levelo://app?vid=26d56d20-32ec-48ee-9a5e-f8a22ada0690"},"vehicle_type_id":"4","last_reported":1752368621,"current_range_meters":16000,"station_id":"ce4bhlh2rcd13ifvqgig","pricing_plan_id":"cebpf4jnsgd1na2vs0mg"},{"bike_id":"3997693c-4aff-4e63-ab79-ea36c5970ef4","system_id":"levelo_inurba_marseille","lat":43.301253,"lon":5.387847,"is_reserved":false,"is_disabled":false,"rental_uris":{"android":"levelo://app?vid=3997693c-4aff-4e63-ab79-ea36c5970ef4","ios":"levelo://app?vid=3997693c-4aff-4e63-ab79-ea36c5970ef4"},"vehicle_type_id":"4","last_reported":1752368621,"current_range_meters":16000,"station_id":"ce4bghh2rcd13ifvqb60","pricing_plan_id":"cebpf4jnsgd1na2vs0mg"},{"bike_id":"a44f68aa-b920-4eb6-845e-df1183944a6b","system_id":"levelo_inurba_marseille","lat":43.2856,"lon":5.3507,"is_reserved":false,"is_disabled":true,"rental_uris":{"android":"levelo://app?vid=a44f68aa-b920-4eb6-845e-df1183944a6b","ios":"levelo://app?vid=a44f68aa-b920-4eb6-845e-df1183944a6b"},"vehicle_type_id":"4","last_reported":1752368621,"current_range_meters":16400,"station_id":"","pricing_plan_id":"cebpf4jnsgd1na2vs0mg"},{"bike_id":"e2ce6e8a-ef9f-4211-8776-042780e4931d","system_id":"levelo_inurba_marseille","lat":43.284219,"lon":5.349906,"is_reserved":false,"is_disabled":true,"rental_uris":{"android":"levelo://app?vid=e2ce6e8a-ef9f-4211-8776-042780e4931d","ios":"levelo://app?vid=e2ce6e8a-ef9f-4211-8776-042780e4931d"},"vehicle_type_id":"4","last_reported":1752368621,"current_range_meters":16400,"station_id":"ce4bhbh2rcd13ifvqepg","pricing_plan_id":"cebpf4jnsgd1na2vs0mg"},{"bike_id":"3dc1fbf7-9d01-4390-8d3e-a821b3da1341","system_id":"levelo_inurba_marseille","lat":43.28681,"lon":5.36332,"is_reserved":false,"is_disabled":false,"rental_uris":{"android":"levelo://app?vid=3dc1fbf7-9d01-4390-8d3e-a821b3da1341","ios":"levelo://app?vid=3dc1fbf7-9d01-4390-8d3e-a821b3da1341"},"vehicle_type_id":"4","last_reported":1752368621,"current_range_meters":16400,"station_id":"ce4bhah2rcd13ifvqej0","pricing_plan_id":"cebpf4jnsgd1na2vs0mg"},{"bike_id":"98c93d9a-5f80-4323-86dd-29ab799e83a4","system_id":"levelo_inurba_marseille","lat":43.25732,"lon":5.41101,"is_reserved":false,"is_disabled":false,"rental_uris":{"android":"levelo://app?vid=98c93d9a-5f80-4323-86dd-29ab799e83a4","ios":"levelo://app?vid=98c93d9a-5f80-4323-86dd-29ab799e83a4"},"vehicle_type_id":"4","last_reported":1752368621,"current_range_meters":16400,"station_id":"ce4bhkp2rcd13ifvqgd0","pricing_plan_id":"cebpf4jnsgd1na2vs0mg"},{"bike_id":"465e598b-b541-4804-b97e-7320e046b54b","system_id":"levelo_inurba_marseille","lat":43.29552,"lon":5.42282,"is_reserved":false,"is_disabled":false,"rental_uris":{"android":"levelo://app?vid=465e598b-b541-4804-b97e-7320e046b54b","ios":"levelo://app?vid=465e598b-b541-4804-b97e-7320e046b54b"},"vehicle_type_id":"4","last_reported":1752368621,"current_range_meters":16400,"station_id":"ce4bhph2rcd13ifvqhdg","pricing_plan_id":"cebpf4jnsgd1na2vs0mg"},{"bike_id":"c642ff8b-1936-44e4-beab-4b14aa10d0b8","system_id":"levelo_inurba_marseille","lat":43.25729,"lon":5.41108,"is_reserved":false,"is_disabled":false,"rental_uris":{"android":"levelo://app?vid=c642ff8b-1936-44e4-beab-4b14aa10d0b8","ios":"levelo://app?vid=c642ff8b-1936-44e4-beab-4b14aa10d0b8"},"vehicle_type_id":"4","last_reported":1752368621,"current_range_meters":16400,"station_id":"ce4bhkp2rcd13ifvqgd0","pricing_plan_id":"cebpf4jnsgd1na2vs0mg"},{"bike_id":"8389dcda-cd88-481d-b936-f2f7be26e4fa","system_id":"levelo_inurba_marseille","lat":43.3229,"lon":5.38268,"is_reserved":false,"is_disabled":false,"rental_uris":{"android":"levelo://app?vid=8389dcda-cd88-481d-b936-f2f7be26e4fa","ios":"levelo://app?vid=8389dcda-cd88-481d-b936-f2f7be26e4fa"},"vehicle_type_id":"4","last_reported":1752368621,"current_range_meters":16400,"station_id":"ce4bhr12rcd13ifvqhqg","pricing_plan_id":"cebpf4jnsgd1na2vs0mg"},{"bike_id":"7f9cdf24-06d5-4966-a653-209a5c486322","system_id":"levelo_inurba_marseille","lat":43.3025,"lon":5.40099,"is_reserved":false,"is_disabled":false,"rental_uris":{"android":"levelo://app?vid=7f9cdf24-06d5-4966-a653-209a5c486322","ios":"levelo://app?vid=7f9cdf24-06d5-4966-a653-209a5c486322"},"vehicle_type_id":"4","last_reported":1752368621,"current_range_meters":16400,"station_id":"ce4bgvh2rcd13ifvqcs0","pricing_plan_id":"cebpf4jnsgd1na2vs0mg"},{"bike_id":"03d40799-ba8e-4a75-bddf-f3269f9a0698","system_id":"levelo_inurba_marseille","lat":43.27951,"lon":5.41039,"is_reserved":false,"is_disabled":false,"rental_uris":{"android":"levelo://app?vid=03d40799-ba8e-4a75-bddf-f3269f9a0698","ios":"levelo://app?vid=03d40799-ba8e-4a75-bddf-f3269f9a0698"},"vehicle_type_id":"4","last_reported":1752368621,"current_range_meters":16400,"station_id":"ce4bhnp2rcd13ifvqh0g","pricing_plan_id":"cebpf4jnsgd1na2vs0mg"},{"bike_id":"0c1249a9-581f-45d5-a449-324c436c6465","system_id":"levelo_inurba_marseille","lat":43.24661,"lon":5.38167,"is_reserved":false,"is_disabled":false,"rental_uris":{"android":"levelo://app?vid=0c1249a9-581f-45d5-a449-324c436c6465","ios":"levelo://app?vid=0c1249a9-581f-45d5-a449-324c436c6465"},"vehicle_type_id":"4","last_reported":1752368621,"current_range_meters":16800,"station_id":"ce4bhih2rcd13ifvqfr0","pricing_plan_id":"cebpf4jnsgd1na2vs0mg"},{"bike_id":"64ecca09-71c3-488b-a0a9-4e4a280abe61","system_id":"levelo_inurba_marseille","lat":43.30597,"lon":5.37216,"is_reserved":false,"is_disabled":false,"rental_uris":{"android":"levelo://app?vid=64ecca09-71c3-488b-a0a9-4e4a280abe61","ios":"levelo://app?vid=64ecca09-71c3-488b-a0a9-4e4a280abe61"},"vehicle_type_id":"4","last_reported":1752368621,"current_range_meters":16800,"station_id":"ce4bgqh2rcd13ifvqc4g","pricing_plan_id":"cebpf4jnsgd1na2vs0mg"},{"bike_id":"5d2e7aad-0a21-4598-93c2-a1d014fc322f","system_id":"levelo_inurba_marseille","lat":43.24174,"lon":5.39726,"is_reserved":false,"is_disabled":false,"rental_uris":{"android":"levelo://app?vid=5d2e7aad-0a21-4598-93c2-a1d014fc322f","ios":"levelo://app?vid=5d2e7aad-0a21-4598-93c2-a1d014fc322f"},"vehicle_type_id":"4","last_reported":1752368621,"current_range_meters":16800,"station_id":"ce4bhn12rcd13ifvqgpg","pricing_plan_id":"cebpf4jnsgd1na2vs0mg"},{"bike_id":"f9924005-c8ac-4086-8e25-9a21391f65ea","system_id":"levelo_inurba_marseille","lat":43.211909,"lon":5.350738,"is_reserved":false,"is_disabled":false,"rental_uris":{"android":"levelo://app?vid=f9924005-c8ac-4086-8e25-9a21391f65ea","ios":"levelo://app?vid=f9924005-c8ac-4086-8e25-9a21391f65ea"},"vehicle_type_id":"4","last_reported":1752368621,"current_range_meters":16800,"station_id":"st_cvj6sg6p6f1abm77japg","pricing_plan_id":"cebpf4jnsgd1na2vs0mg"},{"bike_id":"77da523b-ace4-4d05-9e20-7148788972a6","system_id":"levelo_inurba_marseille","lat":43.317117,"lon":5.37782,"is_reserved":false,"is_disabled":false,"rental_uris":{"android":"levelo://app?vid=77da523b-ace4-4d05-9e20-7148788972a6","ios":"levelo://app?vid=77da523b-ace4-4d05-9e20-7148788972a6"},"vehicle_type_id":"4","last_reported":1752368621,"current_range_meters":16800,"station_id":"","pricing_plan_id":"cebpf4jnsgd1na2vs0mg"},{"bike_id":"2afd10ce-5f23-4122-9c7a-a3416be941b2","system_id":"levelo_inurba_marseille","lat":43.26024,"lon":5.37548,"is_reserved":false,"is_disabled":true,"rental_uris":{"android":"levelo://app?vid=2afd10ce-5f23-4122-9c7a-a3416be941b2","ios":"levelo://app?vid=2afd10ce-5f23-4122-9c7a-a3416be941b2"},"vehicle_type_id":"4","last_reported":1752368621,"current_range_meters":16800,"station_id":"ce4bhgh2rcd13ifvqfa0","pricing_plan_id":"cebpf4jnsgd1na2vs0mg"},{"bike_id":"8fd25955-001f-4c3e-891b-d0dda44e7aff","system_id":"levelo_inurba_marseille","lat":43.30541,"lon":5.38422,"is_reserved":false,"is_disabled":false,"rental_uris":{"android":"levelo://app?vid=8fd25955-001f-4c3e-891b-d0dda44e7aff","ios":"levelo://app?vid=8fd25955-001f-4c3e-891b-d0dda44e7aff"},"vehicle_type_id":"4","last_reported":1752368621,"current_range_meters":16400,"station_id":"ce4bgg92rcd13ifvqb30","pricing_plan_id":"cebpf4jnsgd1na2vs0mg"},{"bike_id":"03193985-a12f-4c73-a147-dd38f8bfa8a5","system_id":"levelo_inurba_marseille","lat":43.29532,"lon":5.42283,"is_reserved":false,"is_disabled":false,"rental_uris":{"android":"levelo://app?vid=03193985-a12f-4c73-a147-dd38f8bfa8a5","ios":"levelo://app?vid=03193985-a12f-4c73-a147-dd38f8bfa8a5"},"vehicle_type_id":"4","last_reported":1752368621,"current_range_meters":16800,"station_id":"ce4bhph2rcd13ifvqhdg","pricing_plan_id":"cebpf4jnsgd1na2vs0mg"},{"bike_id":"e682f9bf-20ed-45a3-9cb7-1d618b19f8ee","system_id":"levelo_inurba_marseille","lat":43.3176,"lon":5.39025,"is_reserved":false,"is_disabled":false,"rental_uris":{"android":"levelo://app?vid=e682f9bf-20ed-45a3-9cb7-1d618b19f8ee","ios":"levelo://app?vid=e682f9bf-20ed-45a3-9cb7-1d618b19f8ee"},"vehicle_type_id":"4","last_reported":1752368621,"current_range_meters":17200,"station_id":"ce4bhqp2rcd13ifvqhng","pricing_plan_id":"cebpf4jnsgd1na2vs0mg"},{"bike_id":"e676eacf-c836-4368-99dd-9b8a7d8d4529","system_id":"levelo_inurba_marseille","lat":43.30575,"lon":5.39363,"is_reserved":false,"is_disabled":false,"rental_uris":{"android":"levelo://app?vid=e676eacf-c836-4368-99dd-9b8a7d8d4529","ios":"levelo://app?vid=e676eacf-c836-4368-99dd-9b8a7d8d4529"},"vehicle_type_id":"4","last_reported":1752368621,"current_range_meters":17200,"station_id":"ce4bh0p2rcd13ifvqd80","pricing_plan_id":"cebpf4jnsgd1na2vs0mg"},{"bike_id":"afffa43f-eab4-449b-9b65-8f6bc7cf9cc3","system_id":"levelo_inurba_marseille","lat":43.31083,"lon":5.42432,"is_reserved":false,"is_disabled":false,"rental_uris":{"android":"levelo://app?vid=afffa43f-eab4-449b-9b65-8f6bc7cf9cc3","ios":"levelo://app?vid=afffa43f-eab4-449b-9b65-8f6bc7cf9cc3"},"vehicle_type_id":"4","last_reported":1752368621,"current_range_meters":17200,"station_id":"ce4bhp92rcd13ifvqhag","pricing_plan_id":"cebpf4jnsgd1na2vs0mg"},{"bike_id":"2f0ac16a-cc09-4366-806a-211db699aea0","system_id":"levelo_inurba_marseille","lat":43.31705,"lon":5.37763,"is_reserved":false,"is_disabled":false,"rental_uris":{"android":"levelo://app?vid=2f0ac16a-cc09-4366-806a-211db699aea0","ios":"levelo://app?vid=2f0ac16a-cc09-4366-806a-211db699aea0"},"vehicle_type_id":"4","last_reported":1752368621,"current_range_meters":17200,"station_id":"ce4bgth2rcd13ifvqch0","pricing_plan_id":"cebpf4jnsgd1na2vs0mg"},{"bike_id":"274cad22-8493-4b0e-ade6-d3a5d302eaaf","system_id":"levelo_inurba_marseille","lat":43.26211,"lon":5.37442,"is_reserved":false,"is_disabled":false,"rental_uris":{"android":"levelo://app?vid=274cad22-8493-4b0e-ade6-d3a5d302eaaf","ios":"levelo://app?vid=274cad22-8493-4b0e-ade6-d3a5d302eaaf"},"vehicle_type_id":"4","last_reported":1752368621,"current_range_meters":17200,"station_id":"ce4bhgp2rcd13ifvqfc0","pricing_plan_id":"cebpf4jnsgd1na2vs0mg"},{"bike_id":"d73dcb59-3933-4749-bd4c-039f617d108b","system_id":"levelo_inurba_marseille","lat":43.31268,"lon":5.40165,"is_reserved":false,"is_disabled":false,"rental_uris":{"android":"levelo://app?vid=d73dcb59-3933-4749-bd4c-039f617d108b","ios":"levelo://app?vid=d73dcb59-3933-4749-bd4c-039f617d108b"},"vehicle_type_id":"4","last_reported":1752368621,"current_range_meters":17200,"station_id":"ce4bh092rcd13ifvqd30","pricing_plan_id":"cebpf4jnsgd1na2vs0mg"},{"bike_id":"718eafe4-1059-4d0b-9935-83404501b5b5","system_id":"levelo_inurba_marseille","lat":43.31711,"lon":5.37772,"is_reserved":false,"is_disabled":false,"rental_uris":{"android":"levelo://app?vid=718eafe4-1059-4d0b-9935-83404501b5b5","ios":"levelo://app?vid=718eafe4-1059-4d0b-9935-83404501b5b5"},"vehicle_type_id":"4","last_reported":1752368621,"current_range_meters":17200,"station_id":"ce4bgth2rcd13ifvqch0","pricing_plan_id":"cebpf4jnsgd1na2vs0mg"},{"bike_id":"a7fd3005-9b39-4f05-9ec7-d00123ac98a3","system_id":"levelo_inurba_marseille","lat":43.26938,"lon":5.40247,"is_reserved":false,"is_disabled":false,"rental_uris":{"android":"levelo://app?vid=a7fd3005-9b39-4f05-9ec7-d00123ac98a3","ios":"levelo://app?vid=a7fd3005-9b39-4f05-9ec7-d00123ac98a3"},"vehicle_type_id":"4","last_reported":1752368621,"current_range_meters":17200,"station_id":"cjm6bp8fraef2m0cb0m0","pricing_plan_id":"cebpf4jnsgd1na2vs0mg"},{"bike_id":"a118002f-8dc9-49a7-901f-7902027e348c","system_id":"levelo_inurba_marseille","lat":43.2886,"lon":5.39319,"is_reserved":false,"is_disabled":false,"rental_uris":{"android":"levelo://app?vid=a118002f-8dc9-49a7-901f-7902027e348c","ios":"levelo://app?vid=a118002f-8dc9-49a7-901f-7902027e348c"},"vehicle_type_id":"4","last_reported":1752368621,"current_range_meters":17200,"station_id":"ce4bh2p2rcd13ifvqdi0","pricing_plan_id":"cebpf4jnsgd1na2vs0mg"},{"bike_id":"5ac5b646-c5b0-4fd6-a961-700983f70d31","system_id":"levelo_inurba_marseille","lat":43.292842,"lon":5.408835,"is_reserved":false,"is_disabled":false,"rental_uris":{"android":"levelo://app?vid=5ac5b646-c5b0-4fd6-a961-700983f70d31","ios":"levelo://app?vid=5ac5b646-c5b0-4fd6-a961-700983f70d31"},"vehicle_type_id":"4","last_reported":1752368621,"current_range_meters":17200,"station_id":"ce4bh192rcd13ifvqdc0","pricing_plan_id":"cebpf4jnsgd1na2vs0mg"},{"bike_id":"c2d04c62-dad5-4981-8561-9ac2acf87548","system_id":"levelo_inurba_marseille","lat":43.2997,"lon":5.3718,"is_reserved":false,"is_disabled":false,"rental_uris":{"android":"levelo://app?vid=c2d04c62-dad5-4981-8561-9ac2acf87548","ios":"levelo://app?vid=c2d04c62-dad5-4981-8561-9ac2acf87548"},"vehicle_type_id":"4","last_reported":1752368621,"current_range_meters":17200,"station_id":"ce4bgr92rcd13ifvqc7g","pricing_plan_id":"cebpf4jnsgd1na2vs0mg"},{"bike_id":"7048b274-bb73-4f78-bd84-2dffe4927289","system_id":"levelo_inurba_marseille","lat":43.29787,"lon":5.39358,"is_reserved":false,"is_disabled":true,"rental_uris":{"android":"levelo://app?vid=7048b274-bb73-4f78-bd84-2dffe4927289","ios":"levelo://app?vid=7048b274-bb73-4f78-bd84-2dffe4927289"},"vehicle_type_id":"4","last_reported":1752368621,"current_range_meters":17200,"station_id":"chh1huq6cuj3fo74tm60","pricing_plan_id":"cebpf4jnsgd1na2vs0mg"},{"bike_id":"8bcb3360-dbaa-4a6a-ae34-1ee8e5254ec4","system_id":"levelo_inurba_marseille","lat":43.24168,"lon":5.39718,"is_reserved":false,"is_disabled":false,"rental_uris":{"android":"levelo://app?vid=8bcb3360-dbaa-4a6a-ae34-1ee8e5254ec4","ios":"levelo://app?vid=8bcb3360-dbaa-4a6a-ae34-1ee8e5254ec4"},"vehicle_type_id":"4","last_reported":1752368621,"current_range_meters":17200,"station_id":"ce4bhn12rcd13ifvqgpg","pricing_plan_id":"cebpf4jnsgd1na2vs0mg"},{"bike_id":"57d30699-dd88-4a24-975a-e70923aa0f58","system_id":"levelo_inurba_marseille","lat":43.2956,"lon":5.42287,"is_reserved":false,"is_disabled":false,"rental_uris":{"android":"levelo://app?vid=57d30699-dd88-4a24-975a-e70923aa0f58","ios":"levelo://app?vid=57d30699-dd88-4a24-975a-e70923aa0f58"},"vehicle_type_id":"4","last_reported":1752368621,"current_range_meters":17200,"station_id":"ce4bhph2rcd13ifvqhdg","pricing_plan_id":"cebpf4jnsgd1na2vs0mg"},{"bike_id":"4ca03e85-5530-4c3b-a306-6d898c219ede","system_id":"levelo_inurba_marseille","lat":43.28863,"lon":5.39315,"is_reserved":false,"is_disabled":false,"rental_uris":{"android":"levelo://app?vid=4ca03e85-5530-4c3b-a306-6d898c219ede","ios":"levelo://app?vid=4ca03e85-5530-4c3b-a306-6d898c219ede"},"vehicle_type_id":"4","last_reported":1752368621,"current_range_meters":17600,"station_id":"ce4bh2p2rcd13ifvqdi0","pricing_plan_id":"cebpf4jnsgd1na2vs0mg"},{"bike_id":"ce2463f0-35d0-4816-96fb-af9bc73ca797","system_id":"levelo_inurba_marseille","lat":43.30526,"lon":5.38441,"is_reserved":false,"is_disabled":false,"rental_uris":{"android":"levelo://app?vid=ce2463f0-35d0-4816-96fb-af9bc73ca797","ios":"levelo://app?vid=ce2463f0-35d0-4816-96fb-af9bc73ca797"},"vehicle_type_id":"4","last_reported":1752368621,"current_range_meters":17600,"station_id":"ce4bgg92rcd13ifvqb30","pricing_plan_id":"cebpf4jnsgd1na2vs0mg"},{"bike_id":"9b40dc73-509b-4d2f-8a27-44696719b175","system_id":"levelo_inurba_marseille","lat":43.27074,"lon":5.42288,"is_reserved":false,"is_disabled":false,"rental_uris":{"android":"levelo://app?vid=9b40dc73-509b-4d2f-8a27-44696719b175","ios":"levelo://app?vid=9b40dc73-509b-4d2f-8a27-44696719b175"},"vehicle_type_id":"4","last_reported":1752368621,"current_range_meters":17600,"station_id":"ce4bhk92rcd13ifvqgb0","pricing_plan_id":"cebpf4jnsgd1na2vs0mg"},{"bike_id":"46ce7424-8151-41ba-a046-0c68273c2c8e","system_id":"levelo_inurba_marseille","lat":43.29233,"lon":5.36587,"is_reserved":false,"is_disabled":false,"rental_uris":{"android":"levelo://app?vid=46ce7424-8151-41ba-a046-0c68273c2c8e","ios":"levelo://app?vid=46ce7424-8151-41ba-a046-0c68273c2c8e"},"vehicle_type_id":"4","last_reported":1752368621,"current_range_meters":17600,"station_id":"","pricing_plan_id":"cebpf4jnsgd1na2vs0mg"},{"bike_id":"1adbd787-55e7-484f-8799-5e7e231f6a40","system_id":"levelo_inurba_marseille","lat":43.28653,"lon":5.36341,"is_reserved":false,"is_disabled":false,"rental_uris":{"android":"levelo://app?vid=1adbd787-55e7-484f-8799-5e7e231f6a40","ios":"levelo://app?vid=1adbd787-55e7-484f-8799-5e7e231f6a40"},"vehicle_type_id":"4","last_reported":1752368621,"current_range_meters":17600,"station_id":"ce4bhah2rcd13ifvqej0","pricing_plan_id":"cebpf4jnsgd1na2vs0mg"},{"bike_id":"68c1f4f9-3dcb-4b8c-ad5e-327e4ca87863","system_id":"levelo_inurba_marseille","lat":43.25959,"lon":5.40901,"is_reserved":false,"is_disabled":false,"rental_uris":{"android":"levelo://app?vid=68c1f4f9-3dcb-4b8c-ad5e-327e4ca87863","ios":"levelo://app?vid=68c1f4f9-3dcb-4b8c-ad5e-327e4ca87863"},"vehicle_type_id":"4","last_reported":1752368621,"current_range_meters":17600,"station_id":"ce4bhm92rcd13ifvqglg","pricing_plan_id":"cebpf4jnsgd1na2vs0mg"},{"bike_id":"f70d4eb7-0483-4b22-b4af-6857c0805839","system_id":"levelo_inurba_marseille","lat":43.29927,"lon":5.38129,"is_reserved":false,"is_disabled":true,"rental_uris":{"android":"levelo://app?vid=f70d4eb7-0483-4b22-b4af-6857c0805839","ios":"levelo://app?vid=f70d4eb7-0483-4b22-b4af-6857c0805839"},"vehicle_type_id":"4","last_reported":1752368621,"current_range_meters":17600,"station_id":"ce4bgj12rcd13ifvqbc0","pricing_plan_id":"cebpf4jnsgd1na2vs0mg"},{"bike_id":"6b3cf7b9-ad21-4145-bf0a-3a30c0497543","system_id":"levelo_inurba_marseille","lat":43.29558,"lon":5.42296,"is_reserved":false,"is_disabled":false,"rental_uris":{"android":"levelo://app?vid=6b3cf7b9-ad21-4145-bf0a-3a30c0497543","ios":"levelo://app?vid=6b3cf7b9-ad21-4145-bf0a-3a30c0497543"},"vehicle_type_id":"4","last_reported":1752368621,"current_range_meters":17600,"station_id":"ce4bhph2rcd13ifvqhdg","pricing_plan_id":"cebpf4jnsgd1na2vs0mg"},{"bike_id":"c3e3ac6f-9bdf-42be-94b7-108dfa8bf9d9","system_id":"levelo_inurba_marseille","lat":43.324771,"lon":5.36571,"is_reserved":false,"is_disabled":true,"rental_uris":{"android":"levelo://app?vid=c3e3ac6f-9bdf-42be-94b7-108dfa8bf9d9","ios":"levelo://app?vid=c3e3ac6f-9bdf-42be-94b7-108dfa8bf9d9"},"vehicle_type_id":"4","last_reported":1752368621,"current_range_meters":17600,"station_id":"ce4bhs12rcd13ifvqhvg","pricing_plan_id":"cebpf4jnsgd1na2vs0mg"},{"bike_id":"b541c96f-8fcf-427d-9150-eb89113dce83","system_id":"levelo_inurba_marseille","lat":43.30248,"lon":5.40052,"is_reserved":false,"is_disabled":false,"rental_uris":{"android":"levelo://app?vid=b541c96f-8fcf-427d-9150-eb89113dce83","ios":"levelo://app?vid=b541c96f-8fcf-427d-9150-eb89113dce83"},"vehicle_type_id":"4","last_reported":1752368621,"current_range_meters":17600,"station_id":"ce4bgvh2rcd13ifvqcs0","pricing_plan_id":"cebpf4jnsgd1na2vs0mg"},{"bike_id":"84e0b044-5cbf-4d7f-9a9b-73b338352c1b","system_id":"levelo_inurba_marseille","lat":43.24174,"lon":5.39732,"is_reserved":false,"is_disabled":false,"rental_uris":{"android":"levelo://app?vid=84e0b044-5cbf-4d7f-9a9b-73b338352c1b","ios":"levelo://app?vid=84e0b044-5cbf-4d7f-9a9b-73b338352c1b"},"vehicle_type_id":"4","last_reported":1752368621,"current_range_meters":17600,"station_id":"ce4bhn12rcd13ifvqgpg","pricing_plan_id":"cebpf4jnsgd1na2vs0mg"},{"bike_id":"658da48e-808c-42cf-8658-300de37ba77a","system_id":"levelo_inurba_marseille","lat":43.26783,"lon":5.39445,"is_reserved":false,"is_disabled":false,"rental_uris":{"android":"levelo://app?vid=658da48e-808c-42cf-8658-300de37ba77a","ios":"levelo://app?vid=658da48e-808c-42cf-8658-300de37ba77a"},"vehicle_type_id":"4","last_reported":1752368621,"current_range_meters":18000,"station_id":"ce4bhh12rcd13ifvqfg0","pricing_plan_id":"cebpf4jnsgd1na2vs0mg"},{"bike_id":"adfe8be3-1e95-4a39-ba2c-619c92879657","system_id":"levelo_inurba_marseille","lat":43.23185,"lon":5.39984,"is_reserved":false,"is_disabled":false,"rental_uris":{"android":"levelo://app?vid=adfe8be3-1e95-4a39-ba2c-619c92879657","ios":"levelo://app?vid=adfe8be3-1e95-4a39-ba2c-619c92879657"},"vehicle_type_id":"4","last_reported":1752368621,"current_range_meters":18000,"station_id":"ce4bhn12rcd13ifvqgqg","pricing_plan_id":"cebpf4jnsgd1na2vs0mg"},{"bike_id":"2a70798a-94ea-48f1-80b7-5109f0e067eb","system_id":"levelo_inurba_marseille","lat":43.29564,"lon":5.42269,"is_reserved":false,"is_disabled":false,"rental_uris":{"android":"levelo://app?vid=2a70798a-94ea-48f1-80b7-5109f0e067eb","ios":"levelo://app?vid=2a70798a-94ea-48f1-80b7-5109f0e067eb"},"vehicle_type_id":"4","last_reported":1752368621,"current_range_meters":18000,"station_id":"ce4bhph2rcd13ifvqhdg","pricing_plan_id":"cebpf4jnsgd1na2vs0mg"},{"bike_id":"e1d8944c-476c-472e-a7a3-73b2db10eb8d","system_id":"levelo_inurba_marseille","lat":43.29563,"lon":5.42285,"is_reserved":false,"is_disabled":false,"rental_uris":{"android":"levelo://app?vid=e1d8944c-476c-472e-a7a3-73b2db10eb8d","ios":"levelo://app?vid=e1d8944c-476c-472e-a7a3-73b2db10eb8d"},"vehicle_type_id":"4","last_reported":1752368621,"current_range_meters":18000,"station_id":"ce4bhph2rcd13ifvqhdg","pricing_plan_id":"cebpf4jnsgd1na2vs0mg"},{"bike_id":"8f06a490-2171-40a2-adcb-3cd303151855","system_id":"levelo_inurba_marseille","lat":43.28639,"lon":5.39999,"is_reserved":false,"is_disabled":false,"rental_uris":{"android":"levelo://app?vid=8f06a490-2171-40a2-adcb-3cd303151855","ios":"levelo://app?vid=8f06a490-2171-40a2-adcb-3cd303151855"},"vehicle_type_id":"4","last_reported":1752368621,"current_range_meters":18000,"station_id":"","pricing_plan_id":"cebpf4jnsgd1na2vs0mg"},{"bike_id":"1bf2d551-15b1-424b-b262-5e53675978dc","system_id":"levelo_inurba_marseille","lat":43.310794,"lon":5.383486,"is_reserved":false,"is_disabled":false,"rental_uris":{"android":"levelo://app?vid=1bf2d551-15b1-424b-b262-5e53675978dc","ios":"levelo://app?vid=1bf2d551-15b1-424b-b262-5e53675978dc"},"vehicle_type_id":"4","last_reported":1752368621,"current_range_meters":18000,"station_id":"ce4bgv92rcd13ifvqcr0","pricing_plan_id":"cebpf4jnsgd1na2vs0mg"},{"bike_id":"295e6a4d-69c5-484b-a7f1-75e3ccdda92a","system_id":"levelo_inurba_marseille","lat":43.28615,"lon":5.35099,"is_reserved":false,"is_disabled":false,"rental_uris":{"android":"levelo://app?vid=295e6a4d-69c5-484b-a7f1-75e3ccdda92a","ios":"levelo://app?vid=295e6a4d-69c5-484b-a7f1-75e3ccdda92a"},"vehicle_type_id":"4","last_reported":1752368621,"current_range_meters":18000,"station_id":"ce4bhch2rcd13ifvqeug","pricing_plan_id":"cebpf4jnsgd1na2vs0mg"},{"bike_id":"64748af8-28a3-4fb4-ae3a-6cf154d2bfa6","system_id":"levelo_inurba_marseille","lat":43.30458,"lon":5.3894,"is_reserved":false,"is_disabled":false,"rental_uris":{"android":"levelo://app?vid=64748af8-28a3-4fb4-ae3a-6cf154d2bfa6","ios":"levelo://app?vid=64748af8-28a3-4fb4-ae3a-6cf154d2bfa6"},"vehicle_type_id":"4","last_reported":1752368621,"current_range_meters":18800,"station_id":"ce4bgk12rcd13ifvqbi0","pricing_plan_id":"cebpf4jnsgd1na2vs0mg"},{"bike_id":"5ad093b1-23e3-45f2-b261-0489508384cb","system_id":"levelo_inurba_marseille","lat":43.29563,"lon":5.42305,"is_reserved":false,"is_disabled":false,"rental_uris":{"android":"levelo://app?vid=5ad093b1-23e3-45f2-b261-0489508384cb","ios":"levelo://app?vid=5ad093b1-23e3-45f2-b261-0489508384cb"},"vehicle_type_id":"4","last_reported":1752368621,"current_range_meters":18800,"station_id":"ce4bhph2rcd13ifvqhdg","pricing_plan_id":"cebpf4jnsgd1na2vs0mg"},{"bike_id":"436e917a-7f3e-467e-946b-136c32e6f617","system_id":"levelo_inurba_marseille","lat":43.26226,"lon":5.4045,"is_reserved":false,"is_disabled":false,"rental_uris":{"android":"levelo://app?vid=436e917a-7f3e-467e-946b-136c32e6f617","ios":"levelo://app?vid=436e917a-7f3e-467e-946b-136c32e6f617"},"vehicle_type_id":"4","last_reported":1752368621,"current_range_meters":18800,"station_id":"ce4bhmh2rcd13ifvqgmg","pricing_plan_id":"cebpf4jnsgd1na2vs0mg"},{"bike_id":"e855d089-66a8-40e2-a348-95934fc34cb7","system_id":"levelo_inurba_marseille","lat":43.30128,"lon":5.3879,"is_reserved":false,"is_disabled":false,"rental_uris":{"android":"levelo://app?vid=e855d089-66a8-40e2-a348-95934fc34cb7","ios":"levelo://app?vid=e855d089-66a8-40e2-a348-95934fc34cb7"},"vehicle_type_id":"4","last_reported":1752368621,"current_range_meters":18800,"station_id":"ce4bghh2rcd13ifvqb60","pricing_plan_id":"cebpf4jnsgd1na2vs0mg"},{"bike_id":"cc6260c7-e588-42d7-afef-96c409802ccc","system_id":"levelo_inurba_marseille","lat":43.21183,"lon":5.3508,"is_reserved":false,"is_disabled":false,"rental_uris":{"android":"levelo://app?vid=cc6260c7-e588-42d7-afef-96c409802ccc","ios":"levelo://app?vid=cc6260c7-e588-42d7-afef-96c409802ccc"},"vehicle_type_id":"4","last_reported":1752368621,"current_range_meters":18800,"station_id":"st_cvj6sg6p6f1abm77japg","pricing_plan_id":"cebpf4jnsgd1na2vs0mg"},{"bike_id":"9bfc7d3d-4e60-4f8a-9c32-ef3d0e77ec5b","system_id":"levelo_inurba_marseille","lat":43.21198,"lon":5.35052,"is_reserved":false,"is_disabled":false,"rental_uris":{"android":"levelo://app?vid=9bfc7d3d-4e60-4f8a-9c32-ef3d0e77ec5b","ios":"levelo://app?vid=9bfc7d3d-4e60-4f8a-9c32-ef3d0e77ec5b"},"vehicle_type_id":"4","last_reported":1752368621,"current_range_meters":18800,"station_id":"st_cvj6sg6p6f1abm77japg","pricing_plan_id":"cebpf4jnsgd1na2vs0mg"},{"bike_id":"c95bb05a-1a8f-4087-af38-643604ab5c08","system_id":"levelo_inurba_marseille","lat":43.30628,"lon":5.4008,"is_reserved":false,"is_disabled":false,"rental_uris":{"android":"levelo://app?vid=c95bb05a-1a8f-4087-af38-643604ab5c08","ios":"levelo://app?vid=c95bb05a-1a8f-4087-af38-643604ab5c08"},"vehicle_type_id":"4","last_reported":1752368621,"current_range_meters":18800,"station_id":"ce4bh112rcd13ifvqda0","pricing_plan_id":"cebpf4jnsgd1na2vs0mg"},{"bike_id":"7b60e2b3-fe60-4caf-8d3e-4c917054d448","system_id":"levelo_inurba_marseille","lat":43.28406,"lon":5.34997,"is_reserved":false,"is_disabled":true,"rental_uris":{"android":"levelo://app?vid=7b60e2b3-fe60-4caf-8d3e-4c917054d448","ios":"levelo://app?vid=7b60e2b3-fe60-4caf-8d3e-4c917054d448"},"vehicle_type_id":"4","last_reported":1752368621,"current_range_meters":19200,"station_id":"ce4bhbh2rcd13ifvqepg","pricing_plan_id":"cebpf4jnsgd1na2vs0mg"},{"bike_id":"f5a47db5-6fb2-46bd-a2de-efa4ad13bf60","system_id":"levelo_inurba_marseille","lat":43.211915,"lon":5.350699,"is_reserved":false,"is_disabled":false,"rental_uris":{"android":"levelo://app?vid=f5a47db5-6fb2-46bd-a2de-efa4ad13bf60","ios":"levelo://app?vid=f5a47db5-6fb2-46bd-a2de-efa4ad13bf60"},"vehicle_type_id":"4","last_reported":1752368621,"current_range_meters":19200,"station_id":"st_cvj6sg6p6f1abm77japg","pricing_plan_id":"cebpf4jnsgd1na2vs0mg"},{"bike_id":"059a4775-c8b3-4965-854c-46db5bc514d2","system_id":"levelo_inurba_marseille","lat":43.284025,"lon":5.375343,"is_reserved":false,"is_disabled":false,"rental_uris":{"android":"levelo://app?vid=059a4775-c8b3-4965-854c-46db5bc514d2","ios":"levelo://app?vid=059a4775-c8b3-4965-854c-46db5bc514d2"},"vehicle_type_id":"4","last_reported":1752368621,"current_range_meters":19200,"station_id":"ce4bh412rcd13ifvqds0","pricing_plan_id":"cebpf4jnsgd1na2vs0mg"},{"bike_id":"62447698-1237-4fb6-a1b7-6c94e0711cf4","system_id":"levelo_inurba_marseille","lat":43.292011,"lon":5.393136,"is_reserved":false,"is_disabled":false,"rental_uris":{"android":"levelo://app?vid=62447698-1237-4fb6-a1b7-6c94e0711cf4","ios":"levelo://app?vid=62447698-1237-4fb6-a1b7-6c94e0711cf4"},"vehicle_type_id":"4","last_reported":1752368621,"current_range_meters":19200,"station_id":"ce4bh192rcd13ifvqdd0","pricing_plan_id":"cebpf4jnsgd1na2vs0mg"},{"bike_id":"58375fde-ca97-4dab-be52-59caf98323d3","system_id":"levelo_inurba_marseille","lat":43.26535,"lon":5.37305,"is_reserved":false,"is_disabled":true,"rental_uris":{"android":"levelo://app?vid=58375fde-ca97-4dab-be52-59caf98323d3","ios":"levelo://app?vid=58375fde-ca97-4dab-be52-59caf98323d3"},"vehicle_type_id":"4","last_reported":1752368621,"current_range_meters":19200,"station_id":"ce4bhg12rcd13ifvqf70","pricing_plan_id":"cebpf4jnsgd1na2vs0mg"},{"bike_id":"1aedaa42-1f03-48cc-8e38-d983e72f730b","system_id":"levelo_inurba_marseille","lat":43.270713,"lon":5.4228,"is_reserved":false,"is_disabled":false,"rental_uris":{"android":"levelo://app?vid=1aedaa42-1f03-48cc-8e38-d983e72f730b","ios":"levelo://app?vid=1aedaa42-1f03-48cc-8e38-d983e72f730b"},"vehicle_type_id":"4","last_reported":1752368621,"current_range_meters":19200,"station_id":"ce4bhk92rcd13ifvqgb0","pricing_plan_id":"cebpf4jnsgd1na2vs0mg"},{"bike_id":"eabfd8df-fc21-4bf7-976b-5c600365c1d3","system_id":"levelo_inurba_marseille","lat":43.2956,"lon":5.42293,"is_reserved":false,"is_disabled":false,"rental_uris":{"android":"levelo://app?vid=eabfd8df-fc21-4bf7-976b-5c600365c1d3","ios":"levelo://app?vid=eabfd8df-fc21-4bf7-976b-5c600365c1d3"},"vehicle_type_id":"4","last_reported":1752368621,"current_range_meters":19200,"station_id":"ce4bhph2rcd13ifvqhdg","pricing_plan_id":"cebpf4jnsgd1na2vs0mg"},{"bike_id":"971b1f31-a743-4191-95a5-bf861272f744","system_id":"levelo_inurba_marseille","lat":43.29004,"lon":5.38628,"is_reserved":false,"is_disabled":false,"rental_uris":{"android":"levelo://app?vid=971b1f31-a743-4191-95a5-bf861272f744","ios":"levelo://app?vid=971b1f31-a743-4191-95a5-bf861272f744"},"vehicle_type_id":"4","last_reported":1752368621,"current_range_meters":19200,"station_id":"ce4bh4p2rcd13ifvqe0g","pricing_plan_id":"cebpf4jnsgd1na2vs0mg"},{"bike_id":"ece9d047-dc12-4ce6-82bf-fc7ad56a230c","system_id":"levelo_inurba_marseille","lat":43.28621,"lon":5.35104,"is_reserved":false,"is_disabled":true,"rental_uris":{"android":"levelo://app?vid=ece9d047-dc12-4ce6-82bf-fc7ad56a230c","ios":"levelo://app?vid=ece9d047-dc12-4ce6-82bf-fc7ad56a230c"},"vehicle_type_id":"4","last_reported":1752368621,"current_range_meters":19200,"station_id":"ce4bhch2rcd13ifvqeug","pricing_plan_id":"cebpf4jnsgd1na2vs0mg"},{"bike_id":"7d80377e-8c8b-466d-b275-5356b99e3e43","system_id":"levelo_inurba_marseille","lat":43.246535,"lon":5.389,"is_reserved":false,"is_disabled":false,"rental_uris":{"android":"levelo://app?vid=7d80377e-8c8b-466d-b275-5356b99e3e43","ios":"levelo://app?vid=7d80377e-8c8b-466d-b275-5356b99e3e43"},"vehicle_type_id":"4","last_reported":1752368621,"current_range_meters":19200,"station_id":"ce4bhg12rcd13ifvqf60","pricing_plan_id":"cebpf4jnsgd1na2vs0mg"},{"bike_id":"d438c437-0c60-41e5-a3d6-d73226271506","system_id":"levelo_inurba_marseille","lat":43.2957,"lon":5.42285,"is_reserved":false,"is_disabled":false,"rental_uris":{"android":"levelo://app?vid=d438c437-0c60-41e5-a3d6-d73226271506","ios":"levelo://app?vid=d438c437-0c60-41e5-a3d6-d73226271506"},"vehicle_type_id":"4","last_reported":1752368621,"current_range_meters":19200,"station_id":"ce4bhph2rcd13ifvqhdg","pricing_plan_id":"cebpf4jnsgd1na2vs0mg"},{"bike_id":"7a888645-4b0c-4379-98d8-380a5347b74c","system_id":"levelo_inurba_marseille","lat":43.27379,"lon":5.36262,"is_reserved":false,"is_disabled":true,"rental_uris":{"android":"levelo://app?vid=7a888645-4b0c-4379-98d8-380a5347b74c","ios":"levelo://app?vid=7a888645-4b0c-4379-98d8-380a5347b74c"},"vehicle_type_id":"4","last_reported":1752368621,"current_range_meters":19600,"station_id":"ce4bhbh2rcd13ifvqeo0","pricing_plan_id":"cebpf4jnsgd1na2vs0mg"},{"bike_id":"5c0448b2-8814-4934-b665-27ab2eac725a","system_id":"levelo_inurba_marseille","lat":43.26513,"lon":5.39541,"is_reserved":false,"is_disabled":false,"rental_uris":{"android":"levelo://app?vid=5c0448b2-8814-4934-b665-27ab2eac725a","ios":"levelo://app?vid=5c0448b2-8814-4934-b665-27ab2eac725a"},"vehicle_type_id":"4","last_reported":1752368621,"current_range_meters":19600,"station_id":"ce4bhi12rcd13ifvqfq0","pricing_plan_id":"cebpf4jnsgd1na2vs0mg"},{"bike_id":"72afe63b-6210-4a4f-84d8-f623c45e8e34","system_id":"levelo_inurba_marseille","lat":43.3032,"lon":5.40448,"is_reserved":false,"is_disabled":false,"rental_uris":{"android":"levelo://app?vid=72afe63b-6210-4a4f-84d8-f623c45e8e34","ios":"levelo://app?vid=72afe63b-6210-4a4f-84d8-f623c45e8e34"},"vehicle_type_id":"4","last_reported":1752368621,"current_range_meters":19600,"station_id":"ce4bh012rcd13ifvqd10","pricing_plan_id":"cebpf4jnsgd1na2vs0mg"},{"bike_id":"711ac624-d408-4d62-a6b0-a60e4e9b3156","system_id":"levelo_inurba_marseille","lat":43.30144,"lon":5.37419,"is_reserved":false,"is_disabled":false,"rental_uris":{"android":"levelo://app?vid=711ac624-d408-4d62-a6b0-a60e4e9b3156","ios":"levelo://app?vid=711ac624-d408-4d62-a6b0-a60e4e9b3156"},"vehicle_type_id":"4","last_reported":1752368621,"current_range_meters":19600,"station_id":"ce4bgs92rcd13ifvqcc0","pricing_plan_id":"cebpf4jnsgd1na2vs0mg"},{"bike_id":"55ad167a-528b-48c9-b380-5aecba65de9a","system_id":"levelo_inurba_marseille","lat":43.29302,"lon":5.40115,"is_reserved":false,"is_disabled":false,"rental_uris":{"android":"levelo://app?vid=55ad167a-528b-48c9-b380-5aecba65de9a","ios":"levelo://app?vid=55ad167a-528b-48c9-b380-5aecba65de9a"},"vehicle_type_id":"4","last_reported":1752368621,"current_range_meters":19600,"station_id":"ce4bh312rcd13ifvqdk0","pricing_plan_id":"cebpf4jnsgd1na2vs0mg"},{"bike_id":"e37d8eb0-d581-401b-aee8-91d7dbcf27ad","system_id":"levelo_inurba_marseille","lat":43.29553,"lon":5.42295,"is_reserved":false,"is_disabled":false,"rental_uris":{"android":"levelo://app?vid=e37d8eb0-d581-401b-aee8-91d7dbcf27ad","ios":"levelo://app?vid=e37d8eb0-d581-401b-aee8-91d7dbcf27ad"},"vehicle_type_id":"4","last_reported":1752368621,"current_range_meters":19600,"station_id":"ce4bhph2rcd13ifvqhdg","pricing_plan_id":"cebpf4jnsgd1na2vs0mg"},{"bike_id":"e66ce31b-5bb2-4056-9cd1-34ed82c3f4d4","system_id":"levelo_inurba_marseille","lat":43.31327,"lon":5.39692,"is_reserved":false,"is_disabled":false,"rental_uris":{"android":"levelo://app?vid=e66ce31b-5bb2-4056-9cd1-34ed82c3f4d4","ios":"levelo://app?vid=e66ce31b-5bb2-4056-9cd1-34ed82c3f4d4"},"vehicle_type_id":"4","last_reported":1752368621,"current_range_meters":19600,"station_id":"ce4bgvp2rcd13ifvqcu0","pricing_plan_id":"cebpf4jnsgd1na2vs0mg"},{"bike_id":"fe318ad3-5569-488a-a55f-800be9072933","system_id":"levelo_inurba_marseille","lat":43.26935,"lon":5.40256,"is_reserved":false,"is_disabled":false,"rental_uris":{"android":"levelo://app?vid=fe318ad3-5569-488a-a55f-800be9072933","ios":"levelo://app?vid=fe318ad3-5569-488a-a55f-800be9072933"},"vehicle_type_id":"4","last_reported":1752368621,"current_range_meters":19600,"station_id":"cjm6bp8fraef2m0cb0m0","pricing_plan_id":"cebpf4jnsgd1na2vs0mg"},{"bike_id":"eab9f2a0-ee49-4110-a9bf-1b4a45ecb8f7","system_id":"levelo_inurba_marseille","lat":43.30146,"lon":5.38106,"is_reserved":false,"is_disabled":false,"rental_uris":{"android":"levelo://app?vid=eab9f2a0-ee49-4110-a9bf-1b4a45ecb8f7","ios":"levelo://app?vid=eab9f2a0-ee49-4110-a9bf-1b4a45ecb8f7"},"vehicle_type_id":"4","last_reported":1752368621,"current_range_meters":19600,"station_id":"ce4bgjp2rcd13ifvqbh0","pricing_plan_id":"cebpf4jnsgd1na2vs0mg"},{"bike_id":"7c00c9c4-8baa-416f-ae9d-50bc6ff2a59f","system_id":"levelo_inurba_marseille","lat":43.25114,"lon":5.40324,"is_reserved":false,"is_disabled":false,"rental_uris":{"android":"levelo://app?vid=7c00c9c4-8baa-416f-ae9d-50bc6ff2a59f","ios":"levelo://app?vid=7c00c9c4-8baa-416f-ae9d-50bc6ff2a59f"},"vehicle_type_id":"4","last_reported":1752368621,"current_range_meters":19600,"station_id":"ce4bhlh2rcd13ifvqgig","pricing_plan_id":"cebpf4jnsgd1na2vs0mg"},{"bike_id":"c8c4de1a-846f-4f5b-aace-9fb14bf7ad52","system_id":"levelo_inurba_marseille","lat":43.21197,"lon":5.35072,"is_reserved":false,"is_disabled":false,"rental_uris":{"android":"levelo://app?vid=c8c4de1a-846f-4f5b-aace-9fb14bf7ad52","ios":"levelo://app?vid=c8c4de1a-846f-4f5b-aace-9fb14bf7ad52"},"vehicle_type_id":"4","last_reported":1752368621,"current_range_meters":19600,"station_id":"st_cvj6sg6p6f1abm77japg","pricing_plan_id":"cebpf4jnsgd1na2vs0mg"},{"bike_id":"9a8d5638-98cd-492a-94e0-c13f1f06ff99","system_id":"levelo_inurba_marseille","lat":43.30533,"lon":5.38436,"is_reserved":false,"is_disabled":false,"rental_uris":{"android":"levelo://app?vid=9a8d5638-98cd-492a-94e0-c13f1f06ff99","ios":"levelo://app?vid=9a8d5638-98cd-492a-94e0-c13f1f06ff99"},"vehicle_type_id":"4","last_reported":1752368621,"current_range_meters":19600,"station_id":"ce4bgg92rcd13ifvqb30","pricing_plan_id":"cebpf4jnsgd1na2vs0mg"},{"bike_id":"2ec427da-b403-4a7e-86be-3f48ba535d18","system_id":"levelo_inurba_marseille","lat":43.21179,"lon":5.35095,"is_reserved":false,"is_disabled":false,"rental_uris":{"android":"levelo://app?vid=2ec427da-b403-4a7e-86be-3f48ba535d18","ios":"levelo://app?vid=2ec427da-b403-4a7e-86be-3f48ba535d18"},"vehicle_type_id":"4","last_reported":1752368621,"current_range_meters":20000,"station_id":"st_cvj6sg6p6f1abm77japg","pricing_plan_id":"cebpf4jnsgd1na2vs0mg"},{"bike_id":"10388035-8e57-4e34-8ec1-559555823a7c","system_id":"levelo_inurba_marseille","lat":43.31328,"lon":5.39702,"is_reserved":false,"is_disabled":false,"rental_uris":{"android":"levelo://app?vid=10388035-8e57-4e34-8ec1-559555823a7c","ios":"levelo://app?vid=10388035-8e57-4e34-8ec1-559555823a7c"},"vehicle_type_id":"4","last_reported":1752368621,"current_range_meters":20000,"station_id":"ce4bgvp2rcd13ifvqcu0","pricing_plan_id":"cebpf4jnsgd1na2vs0mg"},{"bike_id":"91e36618-f857-45af-ac89-91d909da2db3","system_id":"levelo_inurba_marseille","lat":43.29419,"lon":5.3862,"is_reserved":false,"is_disabled":true,"rental_uris":{"android":"levelo://app?vid=91e36618-f857-45af-ac89-91d909da2db3","ios":"levelo://app?vid=91e36618-f857-45af-ac89-91d909da2db3"},"vehicle_type_id":"4","last_reported":1752368621,"current_range_meters":20000,"station_id":"ce4bh2h2rcd13ifvqdh0","pricing_plan_id":"cebpf4jnsgd1na2vs0mg"},{"bike_id":"bc8c2744-d415-457b-a318-2e4ebbaae7bc","system_id":"levelo_inurba_marseille","lat":43.31486,"lon":5.37259,"is_reserved":false,"is_disabled":false,"rental_uris":{"android":"levelo://app?vid=bc8c2744-d415-457b-a318-2e4ebbaae7bc","ios":"levelo://app?vid=bc8c2744-d415-457b-a318-2e4ebbaae7bc"},"vehicle_type_id":"4","last_reported":1752368621,"current_range_meters":20000,"station_id":"ce4bgt12rcd13ifvqcd0","pricing_plan_id":"cebpf4jnsgd1na2vs0mg"},{"bike_id":"2833d504-44eb-4559-9ba9-a31b5cf91da6","system_id":"levelo_inurba_marseille","lat":43.30319,"lon":5.40442,"is_reserved":false,"is_disabled":false,"rental_uris":{"android":"levelo://app?vid=2833d504-44eb-4559-9ba9-a31b5cf91da6","ios":"levelo://app?vid=2833d504-44eb-4559-9ba9-a31b5cf91da6"},"vehicle_type_id":"4","last_reported":1752368621,"current_range_meters":20000,"station_id":"ce4bh012rcd13ifvqd10","pricing_plan_id":"cebpf4jnsgd1na2vs0mg"},{"bike_id":"e91ced2f-2041-4b38-8446-0d5d97adec95","system_id":"levelo_inurba_marseille","lat":43.2558,"lon":5.38238,"is_reserved":false,"is_disabled":true,"rental_uris":{"android":"levelo://app?vid=e91ced2f-2041-4b38-8446-0d5d97adec95","ios":"levelo://app?vid=e91ced2f-2041-4b38-8446-0d5d97adec95"},"vehicle_type_id":"4","last_reported":1752368621,"current_range_meters":20000,"station_id":"ce4bhih2rcd13ifvqfs0","pricing_plan_id":"cebpf4jnsgd1na2vs0mg"},{"bike_id":"b053f929-7efb-49cd-9959-74ef096980bb","system_id":"levelo_inurba_marseille","lat":43.2926,"lon":5.36845,"is_reserved":false,"is_disabled":true,"rental_uris":{"android":"levelo://app?vid=b053f929-7efb-49cd-9959-74ef096980bb","ios":"levelo://app?vid=b053f929-7efb-49cd-9959-74ef096980bb"},"vehicle_type_id":"4","last_reported":1752368621,"current_range_meters":20000,"station_id":"ce4bhbp2rcd13ifvqesg","pricing_plan_id":"cebpf4jnsgd1na2vs0mg"},{"bike_id":"65e074d9-7127-4e46-91d5-363b4db5691c","system_id":"levelo_inurba_marseille","lat":43.30876,"lon":5.37191,"is_reserved":false,"is_disabled":false,"rental_uris":{"android":"levelo://app?vid=65e074d9-7127-4e46-91d5-363b4db5691c","ios":"levelo://app?vid=65e074d9-7127-4e46-91d5-363b4db5691c"},"vehicle_type_id":"4","last_reported":1752368621,"current_range_meters":20000,"station_id":"ce4bguh2rcd13ifvqckg","pricing_plan_id":"cebpf4jnsgd1na2vs0mg"},