{"last_updated":1726513597,"ttl":30,"version":"2.2","data":{"bikes":[{"bike_id":"1e4e25cc-20ca-4921-a5dd-7d0a92a2f479","system_id":"levelo_inurba_marseille","lat":43.30643,"lon":5.40091,"is_reserved":false,"is_disabled":false,"rental_uris":{"android":"levelo://app?vid=1e4e25cc-20ca-4921-a5dd-7d0a92a2f479","ios":"levelo://app?vid=1e4e25cc-20ca-4921-a5dd-7d0a92a2f479"},"vehicle_type_id":"4","last_reported":1726513598,"current_range_meters":30000,"station_id":"ce4bh112rcd13ifvqda0","pricing_plan_id":"cebpf4jnsgd1na2vs0mg"},{"bike_id":"4120fe7a-00fc-48d8-bcce-6625f8821a1c","system_id":"levelo_inurba_marseille","lat":43.29417,"lon":5.38622,"is_reserved":false,"is_disabled":false,"rental_uris":{"android":"levelo://app?vid=4120fe7a-00fc-48d8-bcce-6625f8821a1c","ios":"levelo://app?vid=4120fe7a-00fc-48d8-bcce-6625f8821a1c"},"vehicle_type_id":"4","last_reported":1726513598,"current_range_meters":19200,"station_id":"ce4bh2h2rcd13ifvqdh0","pricing_plan_id":"cebpf4jnsgd1na2vs0mg"},{"bike_id":"94093477-d3cb-4d9b-bda9-bd54e8de9360","system_id":"levelo_inurba_marseille","lat":43.32985,"lon":5.3904,"is_reserved":false,"is_disabled":false,"rental_uris":{"android":"levelo://app?vid=94093477-d3cb-4d9b-bda9-bd54e8de9360","ios":"levelo://app?vid=94093477-d3cb-4d9b-bda9-bd54e8de9360"},"vehicle_type_id":"4","last_reported":1726513598,"current_range_meters":20000,"station_id":"ce4bhr92rcd13ifvqhrg","pricing_plan_id":"cebpf4jnsgd1na2vs0mg"},{"bike_id":"43176770-eaee-4996-86c7-d408161e4ce6","system_id":"levelo_inurba_marseille","lat":43.29896,"lon":5.43673,"is_reserved":false,"is_disabled":false,"rental_uris":{"android":"levelo://app?vid=43176770-eaee-4996-86c7-d408161e4ce6","ios":"levelo://app?vid=43176770-eaee-4996-86c7-d408161e4ce6"},"vehicle_type_id":"4","last_reported":1726513598,"current_range_meters":9600,"station_id":"ce4bhpp2rcd13ifvqhfg","pricing_plan_id":"cebpf4jnsgd1na2vs0mg"},{"bike_id":"8c7d4065-508c-474b-972c-b9fd0bf7a021","system_id":"levelo_inurba_marseille","lat":43.29532,"lon":5.38542,"is_reserved":false,"is_disabled":false,"rental_uris":{"android":"levelo://app?vid=8c7d4065-508c-474b-972c-b9fd0bf7a021","ios":"levelo://app?vid=8c7d4065-508c-474b-972c-b9fd0bf7a021"},"vehicle_type_id":"4","last_reported":1726513598,"current_range_meters":27600,"station_id":"ce4bgih2rcd13ifvqba0","pricing_plan_id":"cebpf4jnsgd1na2vs0mg"},{"bike_id":"7e74ccf1-6e94-422c-bb3a-8867c576e37a","system_id":"levelo_inurba_marseille","lat":43.22928,"lon":5.35389,"is_reserved":false,"is_disabled":false,"rental_uris":{"android":"levelo://app?vid=7e74ccf1-6e94-422c-bb3a-8867c576e37a","ios":"levelo://app?vid=7e74ccf1-6e94-422c-bb3a-8867c576e37a"},"vehicle_type_id":"4","last_reported":1726513598,"current_range_meters":24400,"station_id":"cpo3532slgdg3j2ikp40","pricing_plan_id":"cebpf4jnsgd1na2vs0mg"},{"bike_id":"c9830f46-bf83-4b4d-b678-4ee524e79f6b","system_id":"levelo_inurba_marseille","lat":43.28271,"lon":5.35067,"is_reserved":false,"is_disabled":false,"rental_uris":{"android":"levelo://app?vid=c9830f46-bf83-4b4d-b678-4ee524e79f6b","ios":"levelo://app?vid=c9830f46-bf83-4b4d-b678-4ee524e79f6b"},"vehicle_type_id":"4","last_reported":1726513598,"current_range_meters":19200,"station_id":"ce4bhbp2rcd13ifvqerg","pricing_plan_id":"cebpf4jnsgd1na2vs0mg"},{"bike_id":"df3dbe50-4483-44da-aef0-b93daa5d92ad","system_id":"levelo_inurba_marseille","lat":43.29264,"lon":5.409,"is_reserved":false,"is_disabled":false,"rental_uris":{"android":"levelo://app?vid=df3dbe50-4483-44da-aef0-b93daa5d92ad","ios":"levelo://app?vid=df3dbe50-4483-44da-aef0-b93daa5d92ad"},"vehicle_type_id":"4","last_reported":1726513598,"current_range_meters":2000,"station_id":"ce4bh192rcd13ifvqdc0","pricing_plan_id":"cebpf4jnsgd1na2vs0mg"},{"bike_id":"13ec4916-f0ea-4897-8afc-596425b42c42","system_id":"levelo_inurba_marseille","lat":43.23183,"lon":5.35554,"is_reserved":false,"is_disabled":false,"rental_uris":{"android":"levelo://app?vid=13ec4916-f0ea-4897-8afc-596425b42c42","ios":"levelo://app?vid=13ec4916-f0ea-4897-8afc-596425b42c42"},"vehicle_type_id":"4","last_reported":1726513598,"current_range_meters":14000,"station_id":"ce4bhu92rcd13ifvqi70","pricing_plan_id":"cebpf4jnsgd1na2vs0mg"},{"bike_id":"3527d0cc-0181-48ce-9dd1-94e3e79cac88","system_id":"levelo_inurba_marseille","lat":43.29974,"lon":5.38488,"is_reserved":false,"is_disabled":false,"rental_uris":{"android":"levelo://app?vid=3527d0cc-0181-48ce-9dd1-94e3e79cac88","ios":"levelo://app?vid=3527d0cc-0181-48ce-9dd1-94e3e79cac88"},"vehicle_type_id":"4","last_reported":1726513598,"current_range_meters":10800,"station_id":"ce4bgj92rcd13ifvqbd0","pricing_plan_id":"cebpf4jnsgd1na2vs0mg"},{"bike_id":"3692f362-f0ec-4807-ba7c-fa68e8e3bfb1","system_id":"levelo_inurba_marseille","lat":43.31279,"lon":5.37394,"is_reserved":false,"is_disabled":false,"rental_uris":{"android":"levelo://app?vid=3692f362-f0ec-4807-ba7c-fa68e8e3bfb1","ios":"levelo://app?vid=3692f362-f0ec-4807-ba7c-fa68e8e3bfb1"},"vehicle_type_id":"4","last_reported":1726513598,"current_range_meters":35600,"station_id":"","pricing_plan_id":"cebpf4jnsgd1na2vs0mg"},{"bike_id":"a79dd2c3-3367-4c56-a1cd-a99dc180c69d","system_id":"levelo_inurba_marseille","lat":43.29043,"lon":5.386586,"is_reserved":false,"is_disabled":false,"rental_uris":{"android":"levelo://app?vid=a79dd2c3-3367-4c56-a1cd-a99dc180c69d","ios":"levelo://app?vid=a79dd2c3-3367-4c56-a1cd-a99dc180c69d"},"vehicle_type_id":"4","last_reported":1726513598,"current_range_meters":36800,"station_id":"ce4bh4p2rcd13ifvqe0g","pricing_plan_id":"cebpf4jnsgd1na2vs0mg"},{"bike_id":"e5a3b5b3-2320-4c4e-9f8b-9f6fa23846a7","system_id":"levelo_inurba_marseille","lat":43.31758,"lon":5.39016,"is_reserved":false,"is_disabled":false,"rental_uris":{"android":"levelo://app?vid=e5a3b5b3-2320-4c4e-9f8b-9f6fa23846a7","ios":"levelo://app?vid=e5a3b5b3-2320-4c4e-9f8b-9f6fa23846a7"},"vehicle_type_id":"4","last_reported":1726513598,"current_range_meters":18800,"station_id":"ce4bhqp2rcd13ifvqhng","pricing_plan_id":"cebpf4jnsgd1na2vs0mg"},{"bike_id":"66a11e96-8394-4385-9cd5-65f3f9c28446","system_id":"levelo_inurba_marseille","lat":43.31756,"lon":5.39016,"is_reserved":false,"is_disabled":false,"rental_uris":{"android":"levelo://app?vid=66a11e96-8394-4385-9cd5-65f3f9c28446","ios":"levelo://app?vid=66a11e96-8394-4385-9cd5-65f3f9c28446"},"vehicle_type_id":"4","last_reported":1726513598,"current_range_meters":8400,"station_id":"ce4bhqp2rcd13ifvqhng","pricing_plan_id":"cebpf4jnsgd1na2vs0mg"},{"bike_id":"5abbdcbd-31d8-46d4-9d5b-85dee90c9a7e","system_id":"levelo_inurba_marseille","lat":43.31358,"lon":5.38506,"is_reserved":false,"is_disabled":false,"rental_uris":{"android":"levelo://app?vid=5abbdcbd-31d8-46d4-9d5b-85dee90c9a7e","ios":"levelo://app?vid=5abbdcbd-31d8-46d4-9d5b-85dee90c9a7e"},"vehicle_type_id":"4","last_reported":1726513598,"current_range_meters":13600,"station_id":"ce4bgt92rcd13ifvqcf0","pricing_plan_id":"cebpf4jnsgd1na2vs0mg"},{"bike_id":"10c48018-a837-41a5-8d07-cff0085d0992","system_id":"levelo_inurba_marseille","lat":43.30094,"lon":5.39085,"is_reserved":false,"is_disabled":false,"rental_uris":{"android":"levelo://app?vid=10c48018-a837-41a5-8d07-cff0085d0992","ios":"levelo://app?vid=10c48018-a837-41a5-8d07-cff0085d0992"},"vehicle_type_id":"4","last_reported":1726513598,"current_range_meters":26800,"station_id":"ce4bh192rcd13ifvqdb0","pricing_plan_id":"cebpf4jnsgd1na2vs0mg"},{"bike_id":"cd02defb-2284-4b6c-a2c1-6d264de4aed5","system_id":"levelo_inurba_marseille","lat":43.30182,"lon":5.3661,"is_reserved":false,"is_disabled":false,"rental_uris":{"android":"levelo://app?vid=cd02defb-2284-4b6c-a2c1-6d264de4aed5","ios":"levelo://app?vid=cd02defb-2284-4b6c-a2c1-6d264de4aed5"},"vehicle_type_id":"4","last_reported":1726513598,"current_range_meters":11200,"station_id":"ce4bgrh2rcd13ifvqc8g","pricing_plan_id":"cebpf4jnsgd1na2vs0mg"},{"bike_id":"2502e7d6-d3bb-4eef-9bce-f650107a6156","system_id":"levelo_inurba_marseille","lat":43.29418,"lon":5.38619,"is_reserved":false,"is_disabled":false,"rental_uris":{"android":"levelo://app?vid=2502e7d6-d3bb-4eef-9bce-f650107a6156","ios":"levelo://app?vid=2502e7d6-d3bb-4eef-9bce-f650107a6156"},"vehicle_type_id":"4","last_reported":1726513598,"current_range_meters":5600,"station_id":"ce4bh2h2rcd13ifvqdh0","pricing_plan_id":"cebpf4jnsgd1na2vs0mg"},{"bike_id":"8420397d-a83c-4adc-9a3b-30db84a637f5","system_id":"levelo_inurba_marseille","lat":43.30926,"lon":5.40153,"is_reserved":false,"is_disabled":false,"rental_uris":{"android":"levelo://app?vid=8420397d-a83c-4adc-9a3b-30db84a637f5","ios":"levelo://app?vid=8420397d-a83c-4adc-9a3b-30db84a637f5"},"vehicle_type_id":"4","last_reported":1726513598,"current_range_meters":28800,"station_id":"ce4bgvp2rcd13ifvqct0","pricing_plan_id":"cebpf4jnsgd1na2vs0mg"},{"bike_id":"2a5808e5-1612-4dc1-a62b-b9c71459256c","system_id":"levelo_inurba_marseille","lat":43.34085,"lon":5.39113,"is_reserved":false,"is_disabled":false,"rental_uris":{"android":"levelo://app?vid=2a5808e5-1612-4dc1-a62b-b9c71459256c","ios":"levelo://app?vid=2a5808e5-1612-4dc1-a62b-b9c71459256c"},"vehicle_type_id":"4","last_reported":1726513598,"current_range_meters":17200,"station_id":"","pricing_plan_id":"cebpf4jnsgd1na2vs0mg"},{"bike_id":"e75bdf37-6017-4dd9-8183-f2edc970ca06","system_id":"levelo_inurba_marseille","lat":43.23192,"lon":5.35557,"is_reserved":false,"is_disabled":false,"rental_uris":{"android":"levelo://app?vid=e75bdf37-6017-4dd9-8183-f2edc970ca06","ios":"levelo://app?vid=e75bdf37-6017-4dd9-8183-f2edc970ca06"},"vehicle_type_id":"4","last_reported":1726513598,"current_range_meters":34000,"station_id":"ce4bhu92rcd13ifvqi70","pricing_plan_id":"cebpf4jnsgd1na2vs0mg"},{"bike_id":"6a0adc05-a849-4e23-8b7a-674405b13f28","system_id":"levelo_inurba_marseille","lat":43.25502,"lon":5.37663,"is_reserved":false,"is_disabled":false,"rental_uris":{"android":"levelo://app?vid=6a0adc05-a849-4e23-8b7a-674405b13f28","ios":"levelo://app?vid=6a0adc05-a849-4e23-8b7a-674405b13f28"},"vehicle_type_id":"4","last_reported":1726513598,"current_range_meters":32800,"station_id":"ce4bhh12rcd13ifvqff0","pricing_plan_id":"cebpf4jnsgd1na2vs0mg"},{"bike_id":"f8d8f13f-4c4f-4493-bb97-c0ff3d353c4f","system_id":"levelo_inurba_marseille","lat":43.28926,"lon":5.38396,"is_reserved":false,"is_disabled":false,"rental_uris":{"android":"levelo://app?vid=f8d8f13f-4c4f-4493-bb97-c0ff3d353c4f","ios":"levelo://app?vid=f8d8f13f-4c4f-4493-bb97-c0ff3d353c4f"},"vehicle_type_id":"4","last_reported":1726513598,"current_range_meters":36400,"station_id":"ce4bh612rcd13ifvqe6g","pricing_plan_id":"cebpf4jnsgd1na2vs0mg"},{"bike_id":"cfc8dfb0-c068-418d-b021-0157c860735b","system_id":"levelo_inurba_marseille","lat":43.2979,"lon":5.39352,"is_reserved":false,"is_disabled":false,"rental_uris":{"android":"levelo://app?vid=cfc8dfb0-c068-418d-b021-0157c860735b","ios":"levelo://app?vid=cfc8dfb0-c068-418d-b021-0157c860735b"},"vehicle_type_id":"4","last_reported":1726513598,"current_range_meters":14400,"station_id":"chh1huq6cuj3fo74tm60","pricing_plan_id":"cebpf4jnsgd1na2vs0mg"},{"bike_id":"12626447-24c1-44d6-83e3-b8ccda303193","system_id":"levelo_inurba_marseille","lat":43.29026,"lon":5.38651,"is_reserved":false,"is_disabled":false,"rental_uris":{"android":"levelo://app?vid=12626447-24c1-44d6-83e3-b8ccda303193","ios":"levelo://app?vid=12626447-24c1-44d6-83e3-b8ccda303193"},"vehicle_type_id":"4","last_reported":1726513598,"current_range_meters":38800,"station_id":"ce4bh4p2rcd13ifvqe0g","pricing_plan_id":"cebpf4jnsgd1na2vs0mg"},{"bike_id":"184742c0-6dc0-488e-b3ee-0b3dd762e327","system_id":"levelo_inurba_marseille","lat":43.29296,"lon":5.37164,"is_reserved":false,"is_disabled":false,"rental_uris":{"android":"levelo://app?vid=184742c0-6dc0-488e-b3ee-0b3dd762e327","ios":"levelo://app?vid=184742c0-6dc0-488e-b3ee-0b3dd762e327"},"vehicle_type_id":"4","last_reported":1726513598,"current_range_meters":10000,"station_id":"ce4bgh92rcd13ifvqb40","pricing_plan_id":"cebpf4jnsgd1na2vs0mg"},{"bike_id":"d6c709ac-d8cd-4d37-9778-c40f7cfe020f","system_id":"levelo_inurba_marseille","lat":43.23179,"lon":5.39993,"is_reserved":false,"is_disabled":false,"rental_uris":{"android":"levelo://app?vid=d6c709ac-d8cd-4d37-9778-c40f7cfe020f","ios":"levelo://app?vid=d6c709ac-d8cd-4d37-9778-c40f7cfe020f"},"vehicle_type_id":"4","last_reported":1726513598,"current_range_meters":10800,"station_id":"ce4bhn12rcd13ifvqgqg","pricing_plan_id":"cebpf4jnsgd1na2vs0mg"},{"bike_id":"e000db73-137f-4cb4-a96d-f257e682dae1","system_id":"levelo_inurba_marseille","lat":43.2738,"lon":5.3626,"is_reserved":false,"is_disabled":false,"rental_uris":{"android":"levelo://app?vid=e000db73-137f-4cb4-a96d-f257e682dae1","ios":"levelo://app?vid=e000db73-137f-4cb4-a96d-f257e682dae1"},"vehicle_type_id":"4","last_reported":1726513598,"current_range_meters":38800,"station_id":"ce4bhbh2rcd13ifvqeo0","pricing_plan_id":"cebpf4jnsgd1na2vs0mg"},{"bike_id":"8e7d9e50-f8bd-4f0f-86eb-5e55e3240436","system_id":"levelo_inurba_marseille","lat":43.27993,"lon":5.40027,"is_reserved":false,"is_disabled":false,"rental_uris":{"android":"levelo://app?vid=8e7d9e50-f8bd-4f0f-86eb-5e55e3240436","ios":"levelo://app?vid=8e7d9e50-f8bd-4f0f-86eb-5e55e3240436"},"vehicle_type_id":"4","last_reported":1726513598,"current_range_meters":28000,"station_id":"ce4bho92rcd13ifvqh4g","pricing_plan_id":"cebpf4jnsgd1na2vs0mg"},{"bike_id":"5961145c-0379-42e3-8026-979ca535d647","system_id":"levelo_inurba_marseille","lat":43.30929,"lon":5.40154,"is_reserved":false,"is_disabled":false,"rental_uris":{"android":"levelo://app?vid=5961145c-0379-42e3-8026-979ca535d647","ios":"levelo://app?vid=5961145c-0379-42e3-8026-979ca535d647"},"vehicle_type_id":"4","last_reported":1726513598,"current_range_meters":8800,"station_id":"ce4bgvp2rcd13ifvqct0","pricing_plan_id":"cebpf4jnsgd1na2vs0mg"},{"bike_id":"99af4ec8-0c52-411e-b261-058a278dc767","system_id":"levelo_inurba_marseille","lat":43.304108,"lon":5.40092,"is_reserved":false,"is_disabled":false,"rental_uris":{"android":"levelo://app?vid=99af4ec8-0c52-411e-b261-058a278dc767","ios":"levelo://app?vid=99af4ec8-0c52-411e-b261-058a278dc767"},"vehicle_type_id":"4","last_reported":1726513598,"current_range_meters":22400,"station_id":"ce4bh112rcd13ifvqda0","pricing_plan_id":"cebpf4jnsgd1na2vs0mg"},{"bike_id":"f009861c-c2a8-4e39-9d15-cbce04cde93c","system_id":"levelo_inurba_marseille","lat":43.29582,"lon":5.36739,"is_reserved":false,"is_disabled":false,"rental_uris":{"android":"levelo://app?vid=f009861c-c2a8-4e39-9d15-cbce04cde93c","ios":"levelo://app?vid=f009861c-c2a8-4e39-9d15-cbce04cde93c"},"vehicle_type_id":"4","last_reported":1726513598,"current_range_meters":25200,"station_id":"ce4bgph2rcd13ifvqc2g","pricing_plan_id":"cebpf4jnsgd1na2vs0mg"},{"bike_id":"f409a27c-3291-4d9b-ac57-9e74e75d80d1","system_id":"levelo_inurba_marseille","lat":43.32363,"lon":5.38879,"is_reserved":false,"is_disabled":false,"rental_uris":{"android":"levelo://app?vid=f409a27c-3291-4d9b-ac57-9e74e75d80d1","ios":"levelo://app?vid=f409a27c-3291-4d9b-ac57-9e74e75d80d1"},"vehicle_type_id":"4","last_reported":1726513598,"current_range_meters":18800,"station_id":"ce4bhqp2rcd13ifvqhog","pricing_plan_id":"cebpf4jnsgd1na2vs0mg"},{"bike_id":"863b7b6c-c92d-4f4a-86de-24dea08f0353","system_id":"levelo_inurba_marseille","lat":43.29971,"lon":5.38497,"is_reserved":false,"is_disabled":false,"rental_uris":{"android":"levelo://app?vid=863b7b6c-c92d-4f4a-86de-24dea08f0353","ios":"levelo://app?vid=863b7b6c-c92d-4f4a-86de-24dea08f0353"},"vehicle_type_id":"4","last_reported":1726513598,"current_range_meters":38000,"station_id":"ce4bgj92rcd13ifvqbd0","pricing_plan_id":"cebpf4jnsgd1na2vs0mg"},{"bike_id":"fc1939b6-f91d-4125-af9b-f90daad4a5ac","system_id":"levelo_inurba_marseille","lat":43.29418,"lon":5.38628,"is_reserved":false,"is_disabled":false,"rental_uris":{"android":"levelo://app?vid=fc1939b6-f91d-4125-af9b-f90daad4a5ac","ios":"levelo://app?vid=fc1939b6-f91d-4125-af9b-f90daad4a5ac"},"vehicle_type_id":"4","last_reported":1726513598,"current_range_meters":21600,"station_id":"ce4bh2h2rcd13ifvqdh0","pricing_plan_id":"cebpf4jnsgd1na2vs0mg"},{"bike_id":"f6f609a6-b84d-4a9a-8baa-51fa1757c261","system_id":"levelo_inurba_marseille","lat":43.31077,"lon":5.3834,"is_reserved":false,"is_disabled":false,"rental_uris":{"android":"levelo://app?vid=f6f609a6-b84d-4a9a-8baa-51fa1757c261","ios":"levelo://app?vid=f6f609a6-b84d-4a9a-8baa-51fa1757c261"},"vehicle_type_id":"4","last_reported":1726513598,"current_range_meters":38000,"station_id":"ce4bgv92rcd13ifvqcr0","pricing_plan_id":"cebpf4jnsgd1na2vs0mg"},{"bike_id":"4eb4ae0a-58d4-4b0e-b621-3f0553d4aae5","system_id":"levelo_inurba_marseille","lat":43.31263,"lon":5.40183,"is_reserved":false,"is_disabled":false,"rental_uris":{"android":"levelo://app?vid=4eb4ae0a-58d4-4b0e-b621-3f0553d4aae5","ios":"levelo://app?vid=4eb4ae0a-58d4-4b0e-b621-3f0553d4aae5"},"vehicle_type_id":"4","last_reported":1726513598,"current_range_meters":38800,"station_id":"ce4bh092rcd13ifvqd30","pricing_plan_id":"cebpf4jnsgd1na2vs0mg"},{"bike_id":"c7f93bf2-2b30-4c5c-aa72-447b3f4a28ea","system_id":"levelo_inurba_marseille","lat":43.29896,"lon":5.43662,"is_reserved":false,"is_disabled":false,"rental_uris":{"android":"levelo://app?vid=c7f93bf2-2b30-4c5c-aa72-447b3f4a28ea","ios":"levelo://app?vid=c7f93bf2-2b30-4c5c-aa72-447b3f4a28ea"},"vehicle_type_id":"4","last_reported":1726513598,"current_range_meters":13600,"station_id":"ce4bhpp2rcd13ifvqhfg","pricing_plan_id":"cebpf4jnsgd1na2vs0mg"},{"bike_id":"2ea39ac9-d917-4a6d-991a-7c46fff629cb","system_id":"levelo_inurba_marseille","lat":43.25577,"lon":5.38225,"is_reserved":false,"is_disabled":false,"rental_uris":{"android":"levelo://app?vid=2ea39ac9-d917-4a6d-991a-7c46fff629cb","ios":"levelo://app?vid=2ea39ac9-d917-4a6d-991a-7c46fff629cb"},"vehicle_type_id":"4","last_reported":1726513598,"current_range_meters":24800,"station_id":"ce4bhih2rcd13ifvqfs0","pricing_plan_id":"cebpf4jnsgd1na2vs0mg"},{"bike_id":"26db0265-0a91-4c66-8aa8-67a94f7eef0d","system_id":"levelo_inurba_marseille","lat":43.26941,"lon":5.40056,"is_reserved":false,"is_disabled":false,"rental_uris":{"android":"levelo://app?vid=26db0265-0a91-4c66-8aa8-67a94f7eef0d","ios":"levelo://app?vid=26db0265-0a91-4c66-8aa8-67a94f7eef0d"},"vehicle_type_id":"4","last_reported":1726513598,"current_range_meters":2800,"station_id":"","pricing_plan_id":"cebpf4jnsgd1na2vs0mg"},{"bike_id":"f1e8e47d-1f45-4ef7-bcf3-7d3b07176f65","system_id":"levelo_inurba_marseille","lat":43.29532,"lon":5.3854,"is_reserved":false,"is_disabled":false,"rental_uris":{"android":"levelo://app?vid=f1e8e47d-1f45-4ef7-bcf3-7d3b07176f65","ios":"levelo://app?vid=f1e8e47d-1f45-4ef7-bcf3-7d3b07176f65"},"vehicle_type_id":"4","last_reported":1726513598,"current_range_meters":37600,"station_id":"ce4bgih2rcd13ifvqba0","pricing_plan_id":"cebpf4jnsgd1na2vs0mg"},{"bike_id":"713e5b1b-6841-4e27-ac0b-169145e27b34","system_id":"levelo_inurba_marseille","lat":43.295725,"lon":5.39988,"is_reserved":false,"is_disabled":false,"rental_uris":{"android":"levelo://app?vid=713e5b1b-6841-4e27-ac0b-169145e27b34","ios":"levelo://app?vid=713e5b1b-6841-4e27-ac0b-169145e27b34"},"vehicle_type_id":"4","last_reported":1726513598,"current_range_meters":3600,"station_id":"ce4bgph2rcd13ifvqc2g","pricing_plan_id":"cebpf4jnsgd1na2vs0mg"},{"bike_id":"7a4d8dad-dd17-411f-abb6-29c1787d7421","system_id":"levelo_inurba_marseille","lat":43.28078,"lon":5.39664,"is_reserved":false,"is_disabled":false,"rental_uris":{"android":"levelo://app?vid=7a4d8dad-dd17-411f-abb6-29c1787d7421","ios":"levelo://app?vid=7a4d8dad-dd17-411f-abb6-29c1787d7421"},"vehicle_type_id":"4","last_reported":1726513598,"current_range_meters":16800,"station_id":"ce4bho12rcd13ifvqh2g","pricing_plan_id":"cebpf4jnsgd1na2vs0mg"},{"bike_id":"c3d6b649-15e3-4bba-8167-f82ba135df07","system_id":"levelo_inurba_marseille","lat":43.3092,"lon":5.40159,"is_reserved":false,"is_disabled":false,"rental_uris":{"android":"levelo://app?vid=c3d6b649-15e3-4bba-8167-f82ba135df07","ios":"levelo://app?vid=c3d6b649-15e3-4bba-8167-f82ba135df07"},"vehicle_type_id":"4","last_reported":1726513598,"current_range_meters":36400,"station_id":"ce4bgvp2rcd13ifvqct0","pricing_plan_id":"cebpf4jnsgd1na2vs0mg"},{"bike_id":"75f414ef-dead-4117-8b36-2c250f77c270","system_id":"levelo_inurba_marseille","lat":43.30928,"lon":5.40154,"is_reserved":false,"is_disabled":false,"rental_uris":{"android":"levelo://app?vid=75f414ef-dead-4117-8b36-2c250f77c270","ios":"levelo://app?vid=75f414ef-dead-4117-8b36-2c250f77c270"},"vehicle_type_id":"4","last_reported":1726513598,"current_range_meters":38800,"station_id":"ce4bgvp2rcd13ifvqct0","pricing_plan_id":"cebpf4jnsgd1na2vs0mg"},{"bike_id":"b62e7982-b70c-4941-92c9-09cd1d6563f1","system_id":"levelo_inurba_marseille","lat":43.26958,"lon":5.38636,"is_reserved":false,"is_disabled":false,"rental_uris":{"android":"levelo://app?vid=b62e7982-b70c-4941-92c9-09cd1d6563f1","ios":"levelo://app?vid=b62e7982-b70c-4941-92c9-09cd1d6563f1"},"vehicle_type_id":"4","last_reported":1726513598,"current_range_meters":7200,"station_id":"ce4bhh92rcd13ifvqfh0","pricing_plan_id":"cebpf4jnsgd1na2vs0mg"},{"bike_id":"4153cc51-d4e8-4e56-a8fd-c1a04ecf3fa7","system_id":"levelo_inurba_marseille","lat":43.29954,"lon":5.4134,"is_reserved":false,"is_disabled":false,"rental_uris":{"android":"levelo://app?vid=4153cc51-d4e8-4e56-a8fd-c1a04ecf3fa7","ios":"levelo://app?vid=4153cc51-d4e8-4e56-a8fd-c1a04ecf3fa7"},"vehicle_type_id":"4","last_reported":1726513598,"current_range_meters":33200,"station_id":"ce4bhp12rcd13ifvqh9g","pricing_plan_id":"cebpf4jnsgd1na2vs0mg"},{"bike_id":"ed227c0d-cea6-400a-abd2-4c8159f252ed","system_id":"levelo_inurba_marseille","lat":43.28704,"lon":5.39986,"is_reserved":false,"is_disabled":false,"rental_uris":{"android":"levelo://app?vid=ed227c0d-cea6-400a-abd2-4c8159f252ed","ios":"levelo://app?vid=ed227c0d-cea6-400a-abd2-4c8159f252ed"},"vehicle_type_id":"4","last_reported":1726513598,"current_range_meters":38800,"station_id":"ce4bho92rcd13ifvqh3g","pricing_plan_id":"cebpf4jnsgd1na2vs0mg"},{"bike_id":"8cb592d9-f82f-4171-894f-8d7ffa6525e5","system_id":"levelo_inurba_marseille","lat":43.23197,"lon":5.35547,"is_reserved":false,"is_disabled":false,"rental_uris":{"android":"levelo://app?vid=8cb592d9-f82f-4171-894f-8d7ffa6525e5","ios":"levelo://app?vid=8cb592d9-f82f-4171-894f-8d7ffa6525e5"},"vehicle_type_id":"4","last_reported":1726513598,"current_range_meters":24000,"station_id":"ce4bhu92rcd13ifvqi70","pricing_plan_id":"cebpf4jnsgd1na2vs0mg"},{"bike_id":"e8577ff1-e7d5-4bd8-af09-a820a63b8b50","system_id":"levelo_inurba_marseille","lat":43.33016,"lon":5.39056,"is_reserved":false,"is_disabled":false,"rental_uris":{"android":"levelo://app?vid=e8577ff1-e7d5-4bd8-af09-a820a63b8b50","ios":"levelo://app?vid=e8577ff1-e7d5-4bd8-af09-a820a63b8b50"},"vehicle_type_id":"4","last_reported":1726513598,"current_range_meters":18000,"station_id":"ce4bhr92rcd13ifvqhrg","pricing_plan_id":"cebpf4jnsgd1na2vs0mg"},{"bike_id":"e4ec3529-07f3-49b2-b9b6-cedd143758e5","system_id":"levelo_inurba_marseille","lat":43.29265,"lon":5.38442,"is_reserved":false,"is_disabled":false,"rental_uris":{"android":"levelo://app?vid=e4ec3529-07f3-49b2-b9b6-cedd143758e5","ios":"levelo://app?vid=e4ec3529-07f3-49b2-b9b6-cedd143758e5"},"vehicle_type_id":"4","last_reported":1726513598,"current_range_meters":38800,"station_id":"ce4bh692rcd13ifvqea0","pricing_plan_id":"cebpf4jnsgd1na2vs0mg"},{"bike_id":"20a4a91d-8541-4958-9b2e-4e75165c8a2a","system_id":"levelo_inurba_marseille","lat":43.30792,"lon":5.43526,"is_reserved":false,"is_disabled":false,"rental_uris":{"android":"levelo://app?vid=20a4a91d-8541-4958-9b2e-4e75165c8a2a","ios":"levelo://app?vid=20a4a91d-8541-4958-9b2e-4e75165c8a2a"},"vehicle_type_id":"4","last_reported":1726513598,"current_range_meters":18800,"station_id":"ce4bhph2rcd13ifvqheg","pricing_plan_id":"cebpf4jnsgd1na2vs0mg"},{"bike_id":"238d1829-b979-4346-84b5-3eafa0d79267","system_id":"levelo_inurba_marseille","lat":43.31718,"lon":5.42411,"is_reserved":false,"is_disabled":false,"rental_uris":{"android":"levelo://app?vid=238d1829-b979-4346-84b5-3eafa0d79267","ios":"levelo://app?vid=238d1829-b979-4346-84b5-3eafa0d79267"},"vehicle_type_id":"4","last_reported":1726513598,"current_range_meters":38000,"station_id":"ce4bhp92rcd13ifvqhbg","pricing_plan_id":"cebpf4jnsgd1na2vs0mg"},{"bike_id":"9689a282-10a1-4d4b-9757-128386743d65","system_id":"levelo_inurba_marseille","lat":43.30432,"lon":5.38882,"is_reserved":false,"is_disabled":false,"rental_uris":{"android":"levelo://app?vid=9689a282-10a1-4d4b-9757-128386743d65","ios":"levelo://app?vid=9689a282-10a1-4d4b-9757-128386743d65"},"vehicle_type_id":"4","last_reported":1726513598,"current_range_meters":17200,"station_id":"ce4bgk12rcd13ifvqbi0","pricing_plan_id":"cebpf4jnsgd1na2vs0mg"},{"bike_id":"1ff6c8dd-7a6b-4365-ad8d-588e36a389ed","system_id":"levelo_inurba_marseille","lat":43.297913,"lon":5.381071,"is_reserved":false,"is_disabled":false,"rental_uris":{"android":"levelo://app?vid=1ff6c8dd-7a6b-4365-ad8d-588e36a389ed","ios":"levelo://app?vid=1ff6c8dd-7a6b-4365-ad8d-588e36a389ed"},"vehicle_type_id":"4","last_reported":1726513598,"current_range_meters":3600,"station_id":"ce4bh012rcd13ifvqcv0","pricing_plan_id":"cebpf4jnsgd1na2vs0mg"},{"bike_id":"6fcb0470-5b2d-4c1d-8d35-ccfb07e79374","system_id":"levelo_inurba_marseille","lat":43.31326,"lon":5.39704,"is_reserved":false,"is_disabled":false,"rental_uris":{"android":"levelo://app?vid=6fcb0470-5b2d-4c1d-8d35-ccfb07e79374","ios":"levelo://app?vid=6fcb0470-5b2d-4c1d-8d35-ccfb07e79374"},"vehicle_type_id":"4","last_reported":1726513598,"current_range_meters":40000,"station_id":"ce4bgvp2rcd13ifvqcu0","pricing_plan_id":"cebpf4jnsgd1na2vs0mg"},{"bike_id":"00268f94-140a-43d3-a09c-c0c6951159d0","system_id":"levelo_inurba_marseille","lat":43.30536,"lon":5.384216,"is_reserved":false,"is_disabled":false,"rental_uris":{"android":"levelo://app?vid=00268f94-140a-43d3-a09c-c0c6951159d0","ios":"levelo://app?vid=00268f94-140a-43d3-a09c-c0c6951159d0"},"vehicle_type_id":"4","last_reported":1726513598,"current_range_meters":25200,"station_id":"ce4bgv12rcd13ifvqcp0","pricing_plan_id":"cebpf4jnsgd1na2vs0mg"},{"bike_id":"b0b7fa34-901e-4647-b0d8-17ab0cda955b","system_id":"levelo_inurba_marseille","lat":43.28268,"lon":5.3507,"is_reserved":false,"is_disabled":false,"rental_uris":{"android":"levelo://app?vid=b0b7fa34-901e-4647-b0d8-17ab0cda955b","ios":"levelo://app?vid=b0b7fa34-901e-4647-b0d8-17ab0cda955b"},"vehicle_type_id":"4","last_reported":1726513598,"current_range_meters":22000,"station_id":"ce4bhbp2rcd13ifvqerg","pricing_plan_id":"cebpf4jnsgd1na2vs0mg"},{"bike_id":"b1db6496-7d7b-4acc-a88c-e5406d38e100","system_id":"levelo_inurba_marseille","lat":43.23192,"lon":5.35557,"is_reserved":false,"is_disabled":false,"rental_uris":{"android":"levelo://app?vid=b1db6496-7d7b-4acc-a88c-e5406d38e100","ios":"levelo://app?vid=b1db6496-7d7b-4acc-a88c-e5406d38e100"},"vehicle_type_id":"4","last_reported":1726513598,"current_range_meters":30400,"station_id":"ce4bhu92rcd13ifvqi70","pricing_plan_id":"cebpf4jnsgd1na2vs0mg"},{"bike_id":"e458fa1c-1f23-496d-a562-e9e9eccb352b","system_id":"levelo_inurba_marseille","lat":43.27491,"lon":5.42453,"is_reserved":false,"is_disabled":false,"rental_uris":{"android":"levelo://app?vid=e458fa1c-1f23-496d-a562-e9e9eccb352b","ios":"levelo://app?vid=e458fa1c-1f23-496d-a562-e9e9eccb352b"},"vehicle_type_id":"4","last_reported":1726513598,"current_range_meters":30800,"station_id":"ce4bhn92rcd13ifvqgrg","pricing_plan_id":"cebpf4jnsgd1na2vs0mg"},{"bike_id":"dc37747b-285c-42ab-abae-6f7e6f42478a","system_id":"levelo_inurba_marseille","lat":43.27995,"lon":5.40012,"is_reserved":false,"is_disabled":false,"rental_uris":{"android":"levelo://app?vid=dc37747b-285c-42ab-abae-6f7e6f42478a","ios":"levelo://app?vid=dc37747b-285c-42ab-abae-6f7e6f42478a"},"vehicle_type_id":"4","last_reported":1726513598,"current_range_meters":14800,"station_id":"ce4bho92rcd13ifvqh4g","pricing_plan_id":"cebpf4jnsgd1na2vs0mg"},{"bike_id":"5cf4c2f1-f092-4550-b8cf-369099ebc3bc","system_id":"levelo_inurba_marseille","lat":43.2456,"lon":5.41552,"is_reserved":false,"is_disabled":false,"rental_uris":{"android":"levelo://app?vid=5cf4c2f1-f092-4550-b8cf-369099ebc3bc","ios":"levelo://app?vid=5cf4c2f1-f092-4550-b8cf-369099ebc3bc"},"vehicle_type_id":"4","last_reported":1726513598,"current_range_meters":7200,"station_id":"ce4bhlh2rcd13ifvqgig","pricing_plan_id":"cebpf4jnsgd1na2vs0mg"},{"bike_id":"f5f019af-eb8b-435a-af9d-d2772754f005","system_id":"levelo_inurba_marseille","lat":43.28156,"lon":5.42639,"is_reserved":false,"is_disabled":false,"rental_uris":{"android":"levelo://app?vid=f5f019af-eb8b-435a-af9d-d2772754f005","ios":"levelo://app?vid=f5f019af-eb8b-435a-af9d-d2772754f005"},"vehicle_type_id":"4","last_reported":1726513598,"current_range_meters":9600,"station_id":"ce4bhnh2rcd13ifvqgug","pricing_plan_id":"cebpf4jnsgd1na2vs0mg"},{"bike_id":"b645ac77-0d58-4fa9-8ad3-947af8bdb1d9","system_id":"levelo_inurba_marseille","lat":43.29897,"lon":5.43667,"is_reserved":false,"is_disabled":false,"rental_uris":{"android":"levelo://app?vid=b645ac77-0d58-4fa9-8ad3-947af8bdb1d9","ios":"levelo://app?vid=b645ac77-0d58-4fa9-8ad3-947af8bdb1d9"},"vehicle_type_id":"4","last_reported":1726513598,"current_range_meters":28000,"station_id":"ce4bhpp2rcd13ifvqhfg","pricing_plan_id":"cebpf4jnsgd1na2vs0mg"},{"bike_id":"f8bacb80-e453-4a18-9d70-ff343eb7cf84","system_id":"levelo_inurba_marseille","lat":43.33026,"lon":5.39046,"is_reserved":false,"is_disabled":false,"rental_uris":{"android":"levelo://app?vid=f8bacb80-e453-4a18-9d70-ff343eb7cf84","ios":"levelo://app?vid=f8bacb80-e453-4a18-9d70-ff343eb7cf84"},"vehicle_type_id":"4","last_reported":1726513598,"current_range_meters":8800,"station_id":"ce4bhr92rcd13ifvqhrg","pricing_plan_id":"cebpf4jnsgd1na2vs0mg"},{"bike_id":"7abc2a25-404a-4f70-a7c0-c89315b5c4bc","system_id":"levelo_inurba_marseille","lat":43.31026,"lon":5.4034,"is_reserved":false,"is_disabled":false,"rental_uris":{"android":"levelo://app?vid=7abc2a25-404a-4f70-a7c0-c89315b5c4bc","ios":"levelo://app?vid=7abc2a25-404a-4f70-a7c0-c89315b5c4bc"},"vehicle_type_id":"4","last_reported":1726513598,"current_range_meters":25600,"station_id":"","pricing_plan_id":"cebpf4jnsgd1na2vs0mg"},{"bike_id":"aa318fc8-0ff5-41fb-a65f-2aaa95ddc202","system_id":"levelo_inurba_marseille","lat":43.311108,"lon":5.378156,"is_reserved":false,"is_disabled":false,"rental_uris":{"android":"levelo://app?vid=aa318fc8-0ff5-41fb-a65f-2aaa95ddc202","ios":"levelo://app?vid=aa318fc8-0ff5-41fb-a65f-2aaa95ddc202"},"vehicle_type_id":"4","last_reported":1726513598,"current_range_meters":4800,"station_id":"ce4bgt92rcd13ifvqcg0","pricing_plan_id":"cebpf4jnsgd1na2vs0mg"},{"bike_id":"677498c9-746b-4650-9a8e-2c7479635944","system_id":"levelo_inurba_marseille","lat":43.33022,"lon":5.3905,"is_reserved":false,"is_disabled":false,"rental_uris":{"android":"levelo://app?vid=677498c9-746b-4650-9a8e-2c7479635944","ios":"levelo://app?vid=677498c9-746b-4650-9a8e-2c7479635944"},"vehicle_type_id":"4","last_reported":1726513598,"current_range_meters":26000,"station_id":"ce4bhr92rcd13ifvqhrg","pricing_plan_id":"cebpf4jnsgd1na2vs0mg"},{"bike_id":"f49b9997-05df-4280-aea3-aa321ca78ebc","system_id":"levelo_inurba_marseille","lat":43.2815,"lon":5.42647,"is_reserved":false,"is_disabled":false,"rental_uris":{"android":"levelo://app?vid=f49b9997-05df-4280-aea3-aa321ca78ebc","ios":"levelo://app?vid=f49b9997-05df-4280-aea3-aa321ca78ebc"},"vehicle_type_id":"4","last_reported":1726513598,"current_range_meters":4000,"station_id":"ce4bhnh2rcd13ifvqgug","pricing_plan_id":"cebpf4jnsgd1na2vs0mg"},{"bike_id":"3955f975-848a-4bb7-b65b-97ad2bc46030","system_id":"levelo_inurba_marseille","lat":43.30649,"lon":5.401,"is_reserved":false,"is_disabled":false,"rental_uris":{"android":"levelo://app?vid=3955f975-848a-4bb7-b65b-97ad2bc46030","ios":"levelo://app?vid=3955f975-848a-4bb7-b65b-97ad2bc46030"},"vehicle_type_id":"4","last_reported":1726513598,"current_range_meters":12400,"station_id":"ce4bh112rcd13ifvqda0","pricing_plan_id":"cebpf4jnsgd1na2vs0mg"},{"bike_id":"2576ecaf-b802-4087-9fea-1d0bb2e0396c","system_id":"levelo_inurba_marseille","lat":43.30926,"lon":5.40145,"is_reserved":false,"is_disabled":false,"rental_uris":{"android":"levelo://app?vid=2576ecaf-b802-4087-9fea-1d0bb2e0396c","ios":"levelo://app?vid=2576ecaf-b802-4087-9fea-1d0bb2e0396c"},"vehicle_type_id":"4","last_reported":1726513598,"current_range_meters":3600,"station_id":"ce4bgvp2rcd13ifvqct0","pricing_plan_id":"cebpf4jnsgd1na2vs0mg"},{"bike_id":"a09b8657-3298-4390-8dd5-f622909fc3da","system_id":"levelo_inurba_marseille","lat":43.31066,"lon":5.40091,"is_reserved":false,"is_disabled":false,"rental_uris":{"android":"levelo://app?vid=a09b8657-3298-4390-8dd5-f622909fc3da","ios":"levelo://app?vid=a09b8657-3298-4390-8dd5-f622909fc3da"},"vehicle_type_id":"4","last_reported":1726513598,"current_range_meters":38800,"station_id":"","pricing_plan_id":"cebpf4jnsgd1na2vs0mg"},{"bike_id":"12b16576-ec5e-4e4d-91ef-bfb239089e6e","system_id":"levelo_inurba_marseille","lat":43.28722,"lon":5.36079,"is_reserved":false,"is_disabled":false,"rental_uris":{"android":"levelo://app?vid=12b16576-ec5e-4e4d-91ef-bfb239089e6e","ios":"levelo://app?vid=12b16576-ec5e-4e4d-91ef-bfb239089e6e"},"vehicle_type_id":"4","last_reported":1726513598,"current_range_meters":30400,"station_id":"cki0cbj6b192h4jlfktg","pricing_plan_id":"cebpf4jnsgd1na2vs0mg"},{"bike_id":"2837a901-7b71-4727-80ed-98852d744f63","system_id":"levelo_inurba_marseille","lat":43.2736,"lon":5.36252,"is_reserved":false,"is_disabled":false,"rental_uris":{"android":"levelo://app?vid=2837a901-7b71-4727-80ed-98852d744f63","ios":"levelo://app?vid=2837a901-7b71-4727-80ed-98852d744f63"},"vehicle_type_id":"4","last_reported":1726513598,"current_range_meters":38800,"station_id":"ce4bhbh2rcd13ifvqeo0","pricing_plan_id":"cebpf4jnsgd1na2vs0mg"},{"bike_id":"5da034b1-0e7d-4091-a130-fcd56d68b83a","system_id":"levelo_inurba_marseille","lat":43.292938,"lon":5.374599,"is_reserved":false,"is_disabled":false,"rental_uris":{"android":"levelo://app?vid=5da034b1-0e7d-4091-a130-fcd56d68b83a","ios":"levelo://app?vid=5da034b1-0e7d-4091-a130-fcd56d68b83a"},"vehicle_type_id":"4","last_reported":1726513598,"current_range_meters":8400,"station_id":"ce4bgi12rcd13ifvqb70","pricing_plan_id":"cebpf4jnsgd1na2vs0mg"},{"bike_id":"0f798844-15b5-4e5a-9872-0487cce9ed14","system_id":"levelo_inurba_marseille","lat":43.30886,"lon":5.39636,"is_reserved":false,"is_disabled":false,"rental_uris":{"android":"levelo://app?vid=0f798844-15b5-4e5a-9872-0487cce9ed14","ios":"levelo://app?vid=0f798844-15b5-4e5a-9872-0487cce9ed14"},"vehicle_type_id":"4","last_reported":1726513598,"current_range_meters":36400,"station_id":"ce4bh012rcd13ifvqcv0","pricing_plan_id":"cebpf4jnsgd1na2vs0mg"},{"bike_id":"132c9a95-1852-4d87-b5f4-b638587c4830","system_id":"levelo_inurba_marseille","lat":43.24659,"lon":5.38171,"is_reserved":false,"is_disabled":false,"rental_uris":{"android":"levelo://app?vid=132c9a95-1852-4d87-b5f4-b638587c4830","ios":"levelo://app?vid=132c9a95-1852-4d87-b5f4-b638587c4830"},"vehicle_type_id":"4","last_reported":1726513598,"current_range_meters":38000,"station_id":"ce4bhih2rcd13ifvqfr0","pricing_plan_id":"cebpf4jnsgd1na2vs0mg"},{"bike_id":"94829247-daf5-4b5f-8142-20e89d959705","system_id":"levelo_inurba_marseille","lat":43.31167,"lon":5.38711,"is_reserved":false,"is_disabled":false,"rental_uris":{"android":"levelo://app?vid=94829247-daf5-4b5f-8142-20e89d959705","ios":"levelo://app?vid=94829247-daf5-4b5f-8142-20e89d959705"},"vehicle_type_id":"4","last_reported":1726513598,"current_range_meters":38800,"station_id":"ce4bgv12rcd13ifvqcp0","pricing_plan_id":"cebpf4jnsgd1na2vs0mg"},{"bike_id":"f76e7115-dcce-4dd4-9178-71d00b158324","system_id":"levelo_inurba_marseille","lat":43.25114,"lon":5.40316,"is_reserved":false,"is_disabled":false,"rental_uris":{"android":"levelo://app?vid=f76e7115-dcce-4dd4-9178-71d00b158324","ios":"levelo://app?vid=f76e7115-dcce-4dd4-9178-71d00b158324"},"vehicle_type_id":"4","last_reported":1726513598,"current_range_meters":38800,"station_id":"ce4bhlh2rcd13ifvqgig","pricing_plan_id":"cebpf4jnsgd1na2vs0mg"},{"bike_id":"f7513478-d14c-4383-9570-aa8d81b87e3a","system_id":"levelo_inurba_marseille","lat":43.308846,"lon":5.396552,"is_reserved":false,"is_disabled":false,"rental_uris":{"android":"levelo://app?vid=f7513478-d14c-4383-9570-aa8d81b87e3a","ios":"levelo://app?vid=f7513478-d14c-4383-9570-aa8d81b87e3a"},"vehicle_type_id":"4","last_reported":1726513598,"current_range_meters":8800,"station_id":"ce4bh012rcd13ifvqcv0","pricing_plan_id":"cebpf4jnsgd1na2vs0mg"},{"bike_id":"2bbe1ad3-e156-4d74-9827-29f32b904d3d","system_id":"levelo_inurba_marseille","lat":43.32276,"lon":5.40661,"is_reserved":false,"is_disabled":false,"rental_uris":{"android":"levelo://app?vid=2bbe1ad3-e156-4d74-9827-29f32b904d3d","ios":"levelo://app?vid=2bbe1ad3-e156-4d74-9827-29f32b904d3d"},"vehicle_type_id":"4","last_reported":1726513598,"current_range_meters":25200,"station_id":"ce4bhq92rcd13ifvqhjg","pricing_plan_id":"cebpf4jnsgd1na2vs0mg"},{"bike_id":"a77be139-5520-4ca5-adb9-306081b23a87","system_id":"levelo_inurba_marseille","lat":43.30916,"lon":5.40159,"is_reserved":false,"is_disabled":false,"rental_uris":{"android":"levelo://app?vid=a77be139-5520-4ca5-adb9-306081b23a87","ios":"levelo://app?vid=a77be139-5520-4ca5-adb9-306081b23a87"},"vehicle_type_id":"4","last_reported":1726513598,"current_range_meters":6800,"station_id":"ce4bgvp2rcd13ifvqct0","pricing_plan_id":"cebpf4jnsgd1na2vs0mg"},{"bike_id":"4d579e43-d134-468d-832a-405c8e9aa74b","system_id":"levelo_inurba_marseille","lat":43.27564,"lon":5.38432,"is_reserved":false,"is_disabled":false,"rental_uris":{"android":"levelo://app?vid=4d579e43-d134-468d-832a-405c8e9aa74b","ios":"levelo://app?vid=4d579e43-d134-468d-832a-405c8e9aa74b"},"vehicle_type_id":"4","last_reported":1726513598,"current_range_meters":30400,"station_id":"ce4bhh92rcd13ifvqfi0","pricing_plan_id":"cebpf4jnsgd1na2vs0mg"},{"bike_id":"99684f50-b398-427b-a4e9-7ca0a0382c79","system_id":"levelo_inurba_marseille","lat":43.23189,"lon":5.35555,"is_reserved":false,"is_disabled":false,"rental_uris":{"android":"levelo://app?vid=99684f50-b398-427b-a4e9-7ca0a0382c79","ios":"levelo://app?vid=99684f50-b398-427b-a4e9-7ca0a0382c79"},"vehicle_type_id":"4","last_reported":1726513598,"current_range_meters":38800,"station_id":"ce4bhu92rcd13ifvqi70","pricing_plan_id":"cebpf4jnsgd1na2vs0mg"},{"bike_id":"5b643a07-aa2f-4ecf-98d6-97f7a71621cb","system_id":"levelo_inurba_marseille","lat":43.30418,"lon":5.40726,"is_reserved":false,"is_disabled":false,"rental_uris":{"android":"levelo://app?vid=5b643a07-aa2f-4ecf-98d6-97f7a71621cb","ios":"levelo://app?vid=5b643a07-aa2f-4ecf-98d6-97f7a71621cb"},"vehicle_type_id":"4","last_reported":1726513598,"current_range_meters":12400,"station_id":"ce4bgh92rcd13ifvqb50","pricing_plan_id":"cebpf4jnsgd1na2vs0mg"},{"bike_id":"a30f297a-010d-449d-a7b2-e6f00a1871da","system_id":"levelo_inurba_marseille","lat":43.29305,"lon":5.37464,"is_reserved":false,"is_disabled":false,"rental_uris":{"android":"levelo://app?vid=a30f297a-010d-449d-a7b2-e6f00a1871da","ios":"levelo://app?vid=a30f297a-010d-449d-a7b2-e6f00a1871da"},"vehicle_type_id":"4","last_reported":1726513598,"current_range_meters":38000,"station_id":"ce4bgi12rcd13ifvqb70","pricing_plan_id":"cebpf4jnsgd1na2vs0mg"},{"bike_id":"1e50fdae-020a-4cb6-9b1c-d6613add5f05","system_id":"levelo_inurba_marseille","lat":43.30923,"lon":5.40145,"is_reserved":false,"is_disabled":false,"rental_uris":{"android":"levelo://app?vid=1e50fdae-020a-4cb6-9b1c-d6613add5f05","ios":"levelo://app?vid=1e50fdae-020a-4cb6-9b1c-d6613add5f05"},"vehicle_type_id":"4","last_reported":1726513598,"current_range_meters":17200,"station_id":"ce4bgvp2rcd13ifvqct0","pricing_plan_id":"cebpf4jnsgd1na2vs0mg"},{"bike_id":"51a0ef68-0a0c-4c80-8365-793323e0b2e1","system_id":"levelo_inurba_marseille","lat":43.31715,"lon":5.42405,"is_reserved":false,"is_disabled":false,"rental_uris":{"android":"levelo://app?vid=51a0ef68-0a0c-4c80-8365-793323e0b2e1","ios":"levelo://app?vid=51a0ef68-0a0c-4c80-8365-793323e0b2e1"},"vehicle_type_id":"4","last_reported":1726513598,"current_range_meters":38800,"station_id":"ce4bhp92rcd13ifvqhbg","pricing_plan_id":"cebpf4jnsgd1na2vs0mg"},{"bike_id":"2498da64-0b7d-4dfc-aa88-9f33ab0b6d4b","system_id":"levelo_inurba_marseille","lat":43.31485,"lon":5.37292,"is_reserved":false,"is_disabled":false,"rental_uris":{"android":"levelo://app?vid=2498da64-0b7d-4dfc-aa88-9f33ab0b6d4b","ios":"levelo://app?vid=2498da64-0b7d-4dfc-aa88-9f33ab0b6d4b"},"vehicle_type_id":"4","last_reported":1726513598,"current_range_meters":38800,"station_id":"ce4bgt12rcd13ifvqcd0","pricing_plan_id":"cebpf4jnsgd1na2vs0mg"},{"bike_id":"0f4569a7-8652-4d0f-a561-0e2276a437e5","system_id":"levelo_inurba_marseille","lat":43.27973,"lon":5.38735,"is_reserved":false,"is_disabled":false,"rental_uris":{"android":"levelo://app?vid=0f4569a7-8652-4d0f-a561-0e2276a437e5","ios":"levelo://app?vid=0f4569a7-8652-4d0f-a561-0e2276a437e5"},"vehicle_type_id":"4","last_reported":1726513598,"current_range_meters":32400,"station_id":"ce4bhg12rcd13ifvqf80","pricing_plan_id":"cebpf4jnsgd1na2vs0mg"},{"bike_id":"0b1e48bc-4c4b-4bc2-a249-fc51f111573f","system_id":"levelo_inurba_marseille","lat":43.28912,"lon":5.36405,"is_reserved":false,"is_disabled":false,"rental_uris":{"android":"levelo://app?vid=0b1e48bc-4c4b-4bc2-a249-fc51f111573f","ios":"levelo://app?vid=0b1e48bc-4c4b-4bc2-a249-fc51f111573f"},"vehicle_type_id":"4","last_reported":1726513598,"current_range_meters":28400,"station_id":"ce4bh492rcd13ifvqdug","pricing_plan_id":"cebpf4jnsgd1na2vs0mg"},{"bike_id":"d4a5eb26-b065-4afe-af9d-6f80f0b9f610","system_id":"levelo_inurba_marseille","lat":43.31713,"lon":5.43698,"is_reserved":false,"is_disabled":false,"rental_uris":{"android":"levelo://app?vid=d4a5eb26-b065-4afe-af9d-6f80f0b9f610","ios":"levelo://app?vid=d4a5eb26-b065-4afe-af9d-6f80f0b9f610"},"vehicle_type_id":"4","last_reported":1726513598,"current_range_meters":9200,"station_id":"ce4bhp92rcd13ifvqhcg","pricing_plan_id":"cebpf4jnsgd1na2vs0mg"},{"bike_id":"50a2b5d3-0f50-4851-bf79-9ecccd45ca06","system_id":"levelo_inurba_marseille","lat":43.27377,"lon":5.36257,"is_reserved":false,"is_disabled":false,"rental_uris":{"android":"levelo://app?vid=50a2b5d3-0f50-4851-bf79-9ecccd45ca06","ios":"levelo://app?vid=50a2b5d3-0f50-4851-bf79-9ecccd45ca06"},"vehicle_type_id":"4","last_reported":1726513598,"current_range_meters":38800,"station_id":"ce4bhbh2rcd13ifvqeo0","pricing_plan_id":"cebpf4jnsgd1na2vs0mg"},{"bike_id":"e080d034-f78a-40cf-96c2-6330e4c5a146","system_id":"levelo_inurba_marseille","lat":43.29866,"lon":5.397369,"is_reserved":false,"is_disabled":false,"rental_uris":{"android":"levelo://app?vid=e080d034-f78a-40cf-96c2-6330e4c5a146","ios":"levelo://app?vid=e080d034-f78a-40cf-96c2-6330e4c5a146"},"vehicle_type_id":"4","last_reported":1726513598,"current_range_meters":28000,"station_id":"ce4bguh2rcd13ifvqckg","pricing_plan_id":"cebpf4jnsgd1na2vs0mg"},{"bike_id":"e2d0eb8f-b91a-4f09-bd69-1eba8d59a730","system_id":"levelo_inurba_marseille","lat":43.24539,"lon":5.39544,"is_reserved":false,"is_disabled":false,"rental_uris":{"android":"levelo://app?vid=e2d0eb8f-b91a-4f09-bd69-1eba8d59a730","ios":"levelo://app?vid=e2d0eb8f-b91a-4f09-bd69-1eba8d59a730"},"vehicle_type_id":"4","last_reported":1726513598,"current_range_meters":28400,"station_id":"ce4bhlp2rcd13ifvqgjg","pricing_plan_id":"cebpf4jnsgd1na2vs0mg"},{"bike_id":"ad52bffe-b70a-42f0-a7cb-f6e89905477b","system_id":"levelo_inurba_marseille","lat":43.2987,"lon":5.39733,"is_reserved":false,"is_disabled":false,"rental_uris":{"android":"levelo://app?vid=ad52bffe-b70a-42f0-a7cb-f6e89905477b","ios":"levelo://app?vid=ad52bffe-b70a-42f0-a7cb-f6e89905477b"},"vehicle_type_id":"4","last_reported":1726513598,"current_range_meters":25200,"station_id":"ce4bh0h2rcd13ifvqd50","pricing_plan_id":"cebpf4jnsgd1na2vs0mg"},{"bike_id":"1f058fba-82c1-4255-ad26-b37ba406e459","system_id":"levelo_inurba_marseille","lat":43.28729,"lon":5.3795,"is_reserved":false,"is_disabled":false,"rental_uris":{"android":"levelo://app?vid=1f058fba-82c1-4255-ad26-b37ba406e459","ios":"levelo://app?vid=1f058fba-82c1-4255-ad26-b37ba406e459"},"vehicle_type_id":"4","last_reported":1726513598,"current_range_meters":29600,"station_id":"ce4bh9p2rcd13ifvqec0","pricing_plan_id":"cebpf4jnsgd1na2vs0mg"},{"bike_id":"77828b37-5aef-468b-af51-b3d54fd4d4e3","system_id":"levelo_inurba_marseille","lat":43.27985,"lon":5.4166,"is_reserved":false,"is_disabled":false,"rental_uris":{"android":"levelo://app?vid=77828b37-5aef-468b-af51-b3d54fd4d4e3","ios":"levelo://app?vid=77828b37-5aef-468b-af51-b3d54fd4d4e3"},"vehicle_type_id":"4","last_reported":1726513598,"current_range_meters":5600,"station_id":"ce4bho12rcd13ifvqh1g","pricing_plan_id":"cebpf4jnsgd1na2vs0mg"},{"bike_id":"268bbbf9-8f4f-4a3c-aa8d-f50dc2d7de43","system_id":"levelo_inurba_marseille","lat":43.27676,"lon":5.3887,"is_reserved":false,"is_disabled":false,"rental_uris":{"android":"levelo://app?vid=268bbbf9-8f4f-4a3c-aa8d-f50dc2d7de43","ios":"levelo://app?vid=268bbbf9-8f4f-4a3c-aa8d-f50dc2d7de43"},"vehicle_type_id":"4","last_reported":1726513598,"current_range_meters":11200,"station_id":"ce4bhi12rcd13ifvqfo0","pricing_plan_id":"cebpf4jnsgd1na2vs0mg"},{"bike_id":"b1f70e3b-d117-4faf-a4f1-4f6fb39face6","system_id":"levelo_inurba_marseille","lat":43.28836,"lon":5.3932,"is_reserved":false,"is_disabled":false,"rental_uris":{"android":"levelo://app?vid=b1f70e3b-d117-4faf-a4f1-4f6fb39face6","ios":"levelo://app?vid=b1f70e3b-d117-4faf-a4f1-4f6fb39face6"},"vehicle_type_id":"4","last_reported":1726513598,"current_range_meters":38800,"station_id":"ce4bh2p2rcd13ifvqdi0","pricing_plan_id":"cebpf4jnsgd1na2vs0mg"},{"bike_id":"f0725c4d-788f-43dc-9cb3-a928697c634a","system_id":"levelo_inurba_marseille","lat":43.2761,"lon":5.36118,"is_reserved":false,"is_disabled":false,"rental_uris":{"android":"levelo://app?vid=f0725c4d-788f-43dc-9cb3-a928697c634a","ios":"levelo://app?vid=f0725c4d-788f-43dc-9cb3-a928697c634a"},"vehicle_type_id":"4","last_reported":1726513598,"current_range_meters":38800,"station_id":"ce4bgj92rcd13ifvqbe0","pricing_plan_id":"cebpf4jnsgd1na2vs0mg"},{"bike_id":"aa5adc59-9239-4c47-aa54-d00da5446700","system_id":"levelo_inurba_marseille","lat":43.29791,"lon":5.40412,"is_reserved":false,"is_disabled":false,"rental_uris":{"android":"levelo://app?vid=aa5adc59-9239-4c47-aa54-d00da5446700","ios":"levelo://app?vid=aa5adc59-9239-4c47-aa54-d00da5446700"},"vehicle_type_id":"4","last_reported":1726513598,"current_range_meters":2800,"station_id":"ce4bh112rcd13ifvqd90","pricing_plan_id":"cebpf4jnsgd1na2vs0mg"},{"bike_id":"922259b4-799d-46c2-b36f-c36a4831d6bb","system_id":"levelo_inurba_marseille","lat":43.29815,"lon":5.40404,"is_reserved":false,"is_disabled":false,"rental_uris":{"android":"levelo://app?vid=922259b4-799d-46c2-b36f-c36a4831d6bb","ios":"levelo://app?vid=922259b4-799d-46c2-b36f-c36a4831d6bb"},"vehicle_type_id":"4","last_reported":1726513598,"current_range_meters":16000,"station_id":"ce4bh112rcd13ifvqd90","pricing_plan_id":"cebpf4jnsgd1na2vs0mg"},{"bike_id":"6ad2fe94-195b-4d58-9ac6-d3a9675a4c80","system_id":"levelo_inurba_marseille","lat":43.23061,"lon":5.35496,"is_reserved":false,"is_disabled":false,"rental_uris":{"android":"levelo://app?vid=6ad2fe94-195b-4d58-9ac6-d3a9675a4c80","ios":"levelo://app?vid=6ad2fe94-195b-4d58-9ac6-d3a9675a4c80"},"vehicle_type_id":"4","last_reported":1726513598,"current_range_meters":15200,"station_id":"cpo3342slgdg3j2ifvpg","pricing_plan_id":"cebpf4jnsgd1na2vs0mg"},{"bike_id":"6dd17a2f-59bb-4453-859d-2c09ab795824","system_id":"levelo_inurba_marseille","lat":43.33019,"lon":5.39042,"is_reserved":false,"is_disabled":false,"rental_uris":{"android":"levelo://app?vid=6dd17a2f-59bb-4453-859d-2c09ab795824","ios":"levelo://app?vid=6dd17a2f-59bb-4453-859d-2c09ab795824"},"vehicle_type_id":"4","last_reported":1726513598,"current_range_meters":36000,"station_id":"ce4bhr92rcd13ifvqhrg","pricing_plan_id":"cebpf4jnsgd1na2vs0mg"},{"bike_id":"ad0f06dd-599b-435a-9c65-29b015099757","system_id":"levelo_inurba_marseille","lat":43.28151,"lon":5.42646,"is_reserved":false,"is_disabled":false,"rental_uris":{"android":"levelo://app?vid=ad0f06dd-599b-435a-9c65-29b015099757","ios":"levelo://app?vid=ad0f06dd-599b-435a-9c65-29b015099757"},"vehicle_type_id":"4","last_reported":1726513598,"current_range_meters":19200,"station_id":"ce4bhnh2rcd13ifvqgug","pricing_plan_id":"cebpf4jnsgd1na2vs0mg"},{"bike_id":"b48a129b-4375-424c-994d-61dc602aa8f3","system_id":"levelo_inurba_marseille","lat":43.28704,"lon":5.40003,"is_reserved":false,"is_disabled":false,"rental_uris":{"android":"levelo://app?vid=b48a129b-4375-424c-994d-61dc602aa8f3","ios":"levelo://app?vid=b48a129b-4375-424c-994d-61dc602aa8f3"},"vehicle_type_id":"4","last_reported":1726513598,"current_range_meters":11200,"station_id":"ce4bho92rcd13ifvqh3g","pricing_plan_id":"cebpf4jnsgd1na2vs0mg"},{"bike_id":"a0da9788-6ad0-4bd2-9978-72c1654ca4ea","system_id":"levelo_inurba_marseille","lat":43.32362,"lon":5.38889,"is_reserved":false,"is_disabled":false,"rental_uris":{"android":"levelo://app?vid=a0da9788-6ad0-4bd2-9978-72c1654ca4ea","ios":"levelo://app?vid=a0da9788-6ad0-4bd2-9978-72c1654ca4ea"},"vehicle_type_id":"4","last_reported":1726513598,"current_range_meters":24800,"station_id":"ce4bhqp2rcd13ifvqhog","pricing_plan_id":"cebpf4jnsgd1na2vs0mg"},{"bike_id":"f11293b9-5944-418c-9cea-2087ec8521d3","system_id":"levelo_inurba_marseille","lat":43.31219,"lon":5.36844,"is_reserved":false,"is_disabled":false,"rental_uris":{"android":"levelo://app?vid=f11293b9-5944-418c-9cea-2087ec8521d3","ios":"levelo://app?vid=f11293b9-5944-418c-9cea-2087ec8521d3"},"vehicle_type_id":"4","last_reported":1726513598,"current_range_meters":21600,"station_id":"ce4bgl92rcd13ifvqbq0","pricing_plan_id":"cebpf4jnsgd1na2vs0mg"},{"bike_id":"fa9e058e-a15c-4e79-809c-07686eeec661","system_id":"levelo_inurba_marseille","lat":43.29537,"lon":5.38551,"is_reserved":false,"is_disabled":false,"rental_uris":{"android":"levelo://app?vid=fa9e058e-a15c-4e79-809c-07686eeec661","ios":"levelo://app?vid=fa9e058e-a15c-4e79-809c-07686eeec661"},"vehicle_type_id":"4","last_reported":1726513598,"current_range_meters":8000,"station_id":"ce4bgih2rcd13ifvqba0","pricing_plan_id":"cebpf4jnsgd1na2vs0mg"},{"bike_id":"ee2a6f6f-8fd5-4be5-b404-f76250f2e4dc","system_id":"levelo_inurba_marseille","lat":43.2749,"lon":5.42454,"is_reserved":false,"is_disabled":false,"rental_uris":{"android":"levelo://app?vid=ee2a6f6f-8fd5-4be5-b404-f76250f2e4dc","ios":"levelo://app?vid=ee2a6f6f-8fd5-4be5-b404-f76250f2e4dc"},"vehicle_type_id":"4","last_reported":1726513598,"current_range_meters":11600,"station_id":"ce4bhn92rcd13ifvqgrg","pricing_plan_id":"cebpf4jnsgd1na2vs0mg"},{"bike_id":"22f26e89-4ccd-47af-bb30-5f037502847c","system_id":"levelo_inurba_marseille","lat":43.23178,"lon":5.39999,"is_reserved":false,"is_disabled":false,"rental_uris":{"android":"levelo://app?vid=22f26e89-4ccd-47af-bb30-5f037502847c","ios":"levelo://app?vid=22f26e89-4ccd-47af-bb30-5f037502847c"},"vehicle_type_id":"4","last_reported":1726513598,"current_range_meters":31200,"station_id":"ce4bhn12rcd13ifvqgqg","pricing_plan_id":"cebpf4jnsgd1na2vs0mg"},{"bike_id":"93b15369-51ec-4546-bec7-157d7319fb41","system_id":"levelo_inurba_marseille","lat":43.30886,"lon":5.39653,"is_reserved":false,"is_disabled":false,"rental_uris":{"android":"levelo://app?vid=93b15369-51ec-4546-bec7-157d7319fb41","ios":"levelo://app?vid=93b15369-51ec-4546-bec7-157d7319fb41"},"vehicle_type_id":"4","last_reported":1726513598,"current_range_meters":14800,"station_id":"ce4bh012rcd13ifvqcv0","pricing_plan_id":"cebpf4jnsgd1na2vs0mg"},{"bike_id":"47da8432-6bb1-4de6-98a4-5cc3e415de33","system_id":"levelo_inurba_marseille","lat":43.28149,"lon":5.4264,"is_reserved":false,"is_disabled":false,"rental_uris":{"android":"levelo://app?vid=47da8432-6bb1-4de6-98a4-5cc3e415de33","ios":"levelo://app?vid=47da8432-6bb1-4de6-98a4-5cc3e415de33"},"vehicle_type_id":"4","last_reported":1726513598,"current_range_meters":3600,"station_id":"ce4bhnh2rcd13ifvqgug","pricing_plan_id":"cebpf4jnsgd1na2vs0mg"},{"bike_id":"dcedc4d0-5154-46be-ab26-09bd6c855628","system_id":"levelo_inurba_marseille","lat":43.32363,"lon":5.38883,"is_reserved":false,"is_disabled":false,"rental_uris":{"android":"levelo://app?vid=dcedc4d0-5154-46be-ab26-09bd6c855628","ios":"levelo://app?vid=dcedc4d0-5154-46be-ab26-09bd6c855628"},"vehicle_type_id":"4","last_reported":1726513598,"current_range_meters":36400,"station_id":"ce4bhqp2rcd13ifvqhog","pricing_plan_id":"cebpf4jnsgd1na2vs0mg"},{"bike_id":"65eecb51-7024-4f30-af20-d65f809bce2b","system_id":"levelo_inurba_marseille","lat":43.31459,"lon":5.38338,"is_reserved":false,"is_disabled":false,"rental_uris":{"android":"levelo://app?vid=65eecb51-7024-4f30-af20-d65f809bce2b","ios":"levelo://app?vid=65eecb51-7024-4f30-af20-d65f809bce2b"},"vehicle_type_id":"4","last_reported":1726513598,"current_range_meters":11200,"station_id":"ce4bgvp2rcd13ifvqcu0","pricing_plan_id":"cebpf4jnsgd1na2vs0mg"},{"bike_id":"9a67484a-b200-4c8a-8842-e924dcc44372","system_id":"levelo_inurba_marseille","lat":43.30322,"lon":5.40446,"is_reserved":false,"is_disabled":false,"rental_uris":{"android":"levelo://app?vid=9a67484a-b200-4c8a-8842-e924dcc44372","ios":"levelo://app?vid=9a67484a-b200-4c8a-8842-e924dcc44372"},"vehicle_type_id":"4","last_reported":1726513598,"current_range_meters":38800,"station_id":"ce4bh012rcd13ifvqd10","pricing_plan_id":"cebpf4jnsgd1na2vs0mg"},{"bike_id":"714bd286-0914-421a-ac78-a8aec3d8de06","system_id":"levelo_inurba_marseille","lat":43.31711,"lon":5.4371,"is_reserved":false,"is_disabled":false,"rental_uris":{"android":"levelo://app?vid=714bd286-0914-421a-ac78-a8aec3d8de06","ios":"levelo://app?vid=714bd286-0914-421a-ac78-a8aec3d8de06"},"vehicle_type_id":"4","last_reported":1726513598,"current_range_meters":8400,"station_id":"ce4bhp92rcd13ifvqhcg","pricing_plan_id":"cebpf4jnsgd1na2vs0mg"},{"bike_id":"ad00b097-47ad-4ac9-ab9e-e2cd15ec4b40","system_id":"levelo_inurba_marseille","lat":43.28606,"lon":5.37066,"is_reserved":false,"is_disabled":false,"rental_uris":{"android":"levelo://app?vid=ad00b097-47ad-4ac9-ab9e-e2cd15ec4b40","ios":"levelo://app?vid=ad00b097-47ad-4ac9-ab9e-e2cd15ec4b40"},"vehicle_type_id":"4","last_reported":1726513598,"current_range_meters":16400,"station_id":"ce4bht12rcd13ifvqi60","pricing_plan_id":"cebpf4jnsgd1na2vs0mg"},{"bike_id":"f5c0e1e2-2d50-430f-b096-cc74d6ddc37d","system_id":"levelo_inurba_marseille","lat":43.27494,"lon":5.42453,"is_reserved":false,"is_disabled":false,"rental_uris":{"android":"levelo://app?vid=f5c0e1e2-2d50-430f-b096-cc74d6ddc37d","ios":"levelo://app?vid=f5c0e1e2-2d50-430f-b096-cc74d6ddc37d"},"vehicle_type_id":"4","last_reported":1726513598,"current_range_meters":33200,"station_id":"ce4bhn92rcd13ifvqgrg","pricing_plan_id":"cebpf4jnsgd1na2vs0mg"},{"bike_id":"4a2a1899-b086-45d8-9119-eed50392528b","system_id":"levelo_inurba_marseille","lat":43.27829,"lon":5.39212,"is_reserved":false,"is_disabled":false,"rental_uris":{"android":"levelo://app?vid=4a2a1899-b086-45d8-9119-eed50392528b","ios":"levelo://app?vid=4a2a1899-b086-45d8-9119-eed50392528b"},"vehicle_type_id":"4","last_reported":1726513598,"current_range_meters":24000,"station_id":"ce4bhjp2rcd13ifvqga0","pricing_plan_id":"cebpf4jnsgd1na2vs0mg"},{"bike_id":"90070a81-11bf-4996-9173-22792ad525a3","system_id":"levelo_inurba_marseille","lat":43.28416,"lon":5.3499,"is_reserved":false,"is_disabled":false,"rental_uris":{"android":"levelo://app?vid=90070a81-11bf-4996-9173-22792ad525a3","ios":"levelo://app?vid=90070a81-11bf-4996-9173-22792ad525a3"},"vehicle_type_id":"4","last_reported":1726513598,"current_range_meters":16000,"station_id":"ce4bhbh2rcd13ifvqepg","pricing_plan_id":"cebpf4jnsgd1na2vs0mg"},{"bike_id":"307d7f37-6c0b-40fd-99fa-78063ed9b8d0","system_id":"levelo_inurba_marseille","lat":43.31171,"lon":5.38734,"is_reserved":false,"is_disabled":false,"rental_uris":{"android":"levelo://app?vid=307d7f37-6c0b-40fd-99fa-78063ed9b8d0","ios":"levelo://app?vid=307d7f37-6c0b-40fd-99fa-78063ed9b8d0"},"vehicle_type_id":"4","last_reported":1726513598,"current_range_meters":38800,"station_id":"ce4bgv12rcd13ifvqcp0","pricing_plan_id":"cebpf4jnsgd1na2vs0mg"},{"bike_id":"2a74aa2d-f8fa-4b59-af3e-57ccb051a669","system_id":"levelo_inurba_marseille","lat":43.31723,"lon":5.42404,"is_reserved":false,"is_disabled":false,"rental_uris":{"android":"levelo://app?vid=2a74aa2d-f8fa-4b59-af3e-57ccb051a669","ios":"levelo://app?vid=2a74aa2d-f8fa-4b59-af3e-57ccb051a669"},"vehicle_type_id":"4","last_reported":1726513598,"current_range_meters":16400,"station_id":"ce4bhp92rcd13ifvqhbg","pricing_plan_id":"cebpf4jnsgd1na2vs0mg"},{"bike_id":"4b416f5c-d0bb-4b83-a0d2-9152e8fdacd6","system_id":"levelo_inurba_marseille","lat":43.28465,"lon":5.35883,"is_reserved":false,"is_disabled":false,"rental_uris":{"android":"levelo://app?vid=4b416f5c-d0bb-4b83-a0d2-9152e8fdacd6","ios":"levelo://app?vid=4b416f5c-d0bb-4b83-a0d2-9152e8fdacd6"},"vehicle_type_id":"4","last_reported":1726513598,"current_range_meters":18000,"station_id":"ce4bhah2rcd13ifvqei0","pricing_plan_id":"cebpf4jnsgd1na2vs0mg"},{"bike_id":"c5cd1bc6-e936-4ea5-9eae-558c0dd88416","system_id":"levelo_inurba_marseille","lat":43.25716,"lon":5.41114,"is_reserved":false,"is_disabled":false,"rental_uris":{"android":"levelo://app?vid=c5cd1bc6-e936-4ea5-9eae-558c0dd88416","ios":"levelo://app?vid=c5cd1bc6-e936-4ea5-9eae-558c0dd88416"},"vehicle_type_id":"4","last_reported":1726513598,"current_range_meters":11200,"station_id":"ce4bhkp2rcd13ifvqgd0","pricing_plan_id":"cebpf4jnsgd1na2vs0mg"},{"bike_id":"511492e3-7121-47c4-bbb9-de0e33b01c9c","system_id":"levelo_inurba_marseille","lat":43.29258,"lon":5.40913,"is_reserved":false,"is_disabled":false,"rental_uris":{"android":"levelo://app?vid=511492e3-7121-47c4-bbb9-de0e33b01c9c","ios":"levelo://app?vid=511492e3-7121-47c4-bbb9-de0e33b01c9c"},"vehicle_type_id":"4","last_reported":1726513598,"current_range_meters":37600,"station_id":"ce4bh192rcd13ifvqdc0","pricing_plan_id":"cebpf4jnsgd1na2vs0mg"},{"bike_id":"3609d0e4-ef60-41bd-8f99-3ce402bfea12","system_id":"levelo_inurba_marseille","lat":43.29029,"lon":5.38662,"is_reserved":false,"is_disabled":false,"rental_uris":{"android":"levelo://app?vid=3609d0e4-ef60-41bd-8f99-3ce402bfea12","ios":"levelo://app?vid=3609d0e4-ef60-41bd-8f99-3ce402bfea12"},"vehicle_type_id":"4","last_reported":1726513598,"current_range_meters":38800,"station_id":"ce4bh4p2rcd13ifvqe0g","pricing_plan_id":"cebpf4jnsgd1na2vs0mg"},{"bike_id":"df4a1142-9e90-48bf-8d5c-53f4cf6d2721","system_id":"levelo_inurba_marseille","lat":43.31078,"lon":5.42432,"is_reserved":false,"is_disabled":false,"rental_uris":{"android":"levelo://app?vid=df4a1142-9e90-48bf-8d5c-53f4cf6d2721","ios":"levelo://app?vid=df4a1142-9e90-48bf-8d5c-53f4cf6d2721"},"vehicle_type_id":"4","last_reported":1726513598,"current_range_meters":16400,"station_id":"ce4bhp92rcd13ifvqhag","pricing_plan_id":"cebpf4jnsgd1na2vs0mg"},{"bike_id":"48e4601e-6307-4c10-9f41-300a2bb2d4c4","system_id":"levelo_inurba_marseille","lat":43.27999,"lon":5.40007,"is_reserved":false,"is_disabled":false,"rental_uris":{"android":"levelo://app?vid=48e4601e-6307-4c10-9f41-300a2bb2d4c4","ios":"levelo://app?vid=48e4601e-6307-4c10-9f41-300a2bb2d4c4"},"vehicle_type_id":"4","last_reported":1726513598,"current_range_meters":10800,"station_id":"ce4bho92rcd13ifvqh4g","pricing_plan_id":"cebpf4jnsgd1na2vs0mg"},{"bike_id":"2b159117-6590-4198-8131-1cf678134a47","system_id":"levelo_inurba_marseille","lat":43.289337,"lon":5.366454,"is_reserved":false,"is_disabled":false,"rental_uris":{"android":"levelo://app?vid=2b159117-6590-4198-8131-1cf678134a47","ios":"levelo://app?vid=2b159117-6590-4198-8131-1cf678134a47"},"vehicle_type_id":"4","last_reported":1726513598,"current_range_meters":8000,"station_id":"ce4bhap2rcd13ifvqek0","pricing_plan_id":"cebpf4jnsgd1na2vs0mg"},{"bike_id":"cbaf03bf-0340-4293-a424-18d0ef0b595f","system_id":"levelo_inurba_marseille","lat":43.29895,"lon":5.43667,"is_reserved":false,"is_disabled":false,"rental_uris":{"android":"levelo://app?vid=cbaf03bf-0340-4293-a424-18d0ef0b595f","ios":"levelo://app?vid=cbaf03bf-0340-4293-a424-18d0ef0b595f"},"vehicle_type_id":"4","last_reported":1726513598,"current_range_meters":26000,"station_id":"ce4bhpp2rcd13ifvqhfg","pricing_plan_id":"cebpf4jnsgd1na2vs0mg"},{"bike_id":"abd766d1-7a4d-4868-b4fb-5b84b46bf79a","system_id":"levelo_inurba_marseille","lat":43.29567,"lon":5.37527,"is_reserved":false,"is_disabled":false,"rental_uris":{"android":"levelo://app?vid=abd766d1-7a4d-4868-b4fb-5b84b46bf79a","ios":"levelo://app?vid=abd766d1-7a4d-4868-b4fb-5b84b46bf79a"},"vehicle_type_id":"4","last_reported":1726513598,"current_range_meters":14400,"station_id":"ce4bgh92rcd13ifvqb50","pricing_plan_id":"cebpf4jnsgd1na2vs0mg"},{"bike_id":"a395ccef-8afe-42de-910b-3d5d64179c32","system_id":"levelo_inurba_marseille","lat":43.30597,"lon":5.39368,"is_reserved":false,"is_disabled":false,"rental_uris":{"android":"levelo://app?vid=a395ccef-8afe-42de-910b-3d5d64179c32","ios":"levelo://app?vid=a395ccef-8afe-42de-910b-3d5d64179c32"},"vehicle_type_id":"4","last_reported":1726513598,"current_range_meters":14400,"station_id":"ce4bh0p2rcd13ifvqd80","pricing_plan_id":"cebpf4jnsgd1na2vs0mg"},{"bike_id":"5d7557eb-bdff-487d-a9e5-45d20f4ef4bb","system_id":"levelo_inurba_marseille","lat":43.28718,"lon":5.39994,"is_reserved":false,"is_disabled":false,"rental_uris":{"android":"levelo://app?vid=5d7557eb-bdff-487d-a9e5-45d20f4ef4bb","ios":"levelo://app?vid=5d7557eb-bdff-487d-a9e5-45d20f4ef4bb"},"vehicle_type_id":"4","last_reported":1726513598,"current_range_meters":39200,"station_id":"ce4bho92rcd13ifvqh3g","pricing_plan_id":"cebpf4jnsgd1na2vs0mg"},{"bike_id":"9795426a-3337-47db-9ee9-644fb77a6ae2","system_id":"levelo_inurba_marseille","lat":43.29081,"lon":5.3815,"is_reserved":false,"is_disabled":false,"rental_uris":{"android":"levelo://app?vid=9795426a-3337-47db-9ee9-644fb77a6ae2","ios":"levelo://app?vid=9795426a-3337-47db-9ee9-644fb77a6ae2"},"vehicle_type_id":"4","last_reported":1726513598,"current_range_meters":19200,"station_id":"ce4bh512rcd13ifvqe2g","pricing_plan_id":"cebpf4jnsgd1na2vs0mg"},{"bike_id":"9a86aa03-53af-4fc8-b551-5bb7ab258bc6","system_id":"levelo_inurba_marseille","lat":43.2905,"lon":5.3998,"is_reserved":false,"is_disabled":false,"rental_uris":{"android":"levelo://app?vid=9a86aa03-53af-4fc8-b551-5bb7ab258bc6","ios":"levelo://app?vid=9a86aa03-53af-4fc8-b551-5bb7ab258bc6"},"vehicle_type_id":"4","last_reported":1726513598,"current_range_meters":20000,"station_id":"ce4bh392rcd13ifvqdm0","pricing_plan_id":"cebpf4jnsgd1na2vs0mg"},{"bike_id":"de3353ae-d48a-4f39-b92c-5b1d056de8df","system_id":"levelo_inurba_marseille","lat":43.31077,"lon":5.38361,"is_reserved":false,"is_disabled":false,"rental_uris":{"android":"levelo://app?vid=de3353ae-d48a-4f39-b92c-5b1d056de8df","ios":"levelo://app?vid=de3353ae-d48a-4f39-b92c-5b1d056de8df"},"vehicle_type_id":"4","last_reported":1726513598,"current_range_meters":38800,"station_id":"ce4bgv92rcd13ifvqcr0","pricing_plan_id":"cebpf4jnsgd1na2vs0mg"},{"bike_id":"a38fce89-cec9-4d27-86a2-e6c1b8b46a2b","system_id":"levelo_inurba_marseille","lat":43.29293,"lon":5.37455,"is_reserved":false,"is_disabled":false,"rental_uris":{"android":"levelo://app?vid=a38fce89-cec9-4d27-86a2-e6c1b8b46a2b","ios":"levelo://app?vid=a38fce89-cec9-4d27-86a2-e6c1b8b46a2b"},"vehicle_type_id":"4","last_reported":1726513598,"current_range_meters":38800,"station_id":"ce4bgi12rcd13ifvqb70","pricing_plan_id":"cebpf4jnsgd1na2vs0mg"},{"bike_id":"328d45f9-980e-4811-97c0-47d761861509","system_id":"levelo_inurba_marseille","lat":43.29847,"lon":5.37836,"is_reserved":false,"is_disabled":false,"rental_uris":{"android":"levelo://app?vid=328d45f9-980e-4811-97c0-47d761861509","ios":"levelo://app?vid=328d45f9-980e-4811-97c0-47d761861509"},"vehicle_type_id":"4","last_reported":1726513598,"current_range_meters":22000,"station_id":"ce4bgkh2rcd13ifvqbl0","pricing_plan_id":"cebpf4jnsgd1na2vs0mg"},{"bike_id":"c347e0f4-7a08-4b89-9bff-9165dbd8fe4f","system_id":"levelo_inurba_marseille","lat":43.24667,"lon":5.38166,"is_reserved":false,"is_disabled":false,"rental_uris":{"android":"levelo://app?vid=c347e0f4-7a08-4b89-9bff-9165dbd8fe4f","ios":"levelo://app?vid=c347e0f4-7a08-4b89-9bff-9165dbd8fe4f"},"vehicle_type_id":"4","last_reported":1726513598,"current_range_meters":38400,"station_id":"ce4bhih2rcd13ifvqfr0","pricing_plan_id":"cebpf4jnsgd1na2vs0mg"},{"bike_id":"6f7ee213-f92f-4edb-a750-7c5eb22c28ce","system_id":"levelo_inurba_marseille","lat":43.29864,"lon":5.39742,"is_reserved":false,"is_disabled":false,"rental_uris":{"android":"levelo://app?vid=6f7ee213-f92f-4edb-a750-7c5eb22c28ce","ios":"levelo://app?vid=6f7ee213-f92f-4edb-a750-7c5eb22c28ce"},"vehicle_type_id":"4","last_reported":1726513598,"current_range_meters":38800,"station_id":"ce4bh0h2rcd13ifvqd50","pricing_plan_id":"cebpf4jnsgd1na2vs0mg"},{"bike_id":"d7b7efcd-2bae-4274-aa4b-a1e212ea3fb8","system_id":"levelo_inurba_marseille","lat":43.30599,"lon":5.37241,"is_reserved":false,"is_disabled":false,"rental_uris":{"android":"levelo://app?vid=d7b7efcd-2bae-4274-aa4b-a1e212ea3fb8","ios":"levelo://app?vid=d7b7efcd-2bae-4274-aa4b-a1e212ea3fb8"},"vehicle_type_id":"4","last_reported":1726513598,"current_range_meters":38000,"station_id":"ce4bgqh2rcd13ifvqc4g","pricing_plan_id":"cebpf4jnsgd1na2vs0mg"},{"bike_id":"9acdf472-e2e8-47ba-8975-f012d9637227","system_id":"levelo_inurba_marseille","lat":43.273791,"lon":5.362564,"is_reserved":false,"is_disabled":false,"rental_uris":{"android":"levelo://app?vid=9acdf472-e2e8-47ba-8975-f012d9637227","ios":"levelo://app?vid=9acdf472-e2e8-47ba-8975-f012d9637227"},"vehicle_type_id":"4","last_reported":1726513598,"current_range_meters":38800,"station_id":"","pricing_plan_id":"cebpf4jnsgd1na2vs0mg"},{"bike_id":"fe43840c-a2c0-45d0-a19d-4ad10017aa65","system_id":"levelo_inurba_marseille","lat":43.28031,"lon":5.36947,"is_reserved":false,"is_disabled":false,"rental_uris":{"android":"levelo://app?vid=fe43840c-a2c0-45d0-a19d-4ad10017aa65","ios":"levelo://app?vid=fe43840c-a2c0-45d0-a19d-4ad10017aa65"},"vehicle_type_id":"4","last_reported":1726513598,"current_range_meters":28000,"station_id":"ce4bha12rcd13ifvqef0","pricing_plan_id":"cebpf4jnsgd1na2vs0mg"},{"bike_id":"aed50e69-8de4-41ea-81f3-45098b008411","system_id":"levelo_inurba_marseille","lat":43.29297,"lon":5.37464,"is_reserved":false,"is_disabled":false,"rental_uris":{"android":"levelo://app?vid=aed50e69-8de4-41ea-81f3-45098b008411","ios":"levelo://app?vid=aed50e69-8de4-41ea-81f3-45098b008411"},"vehicle_type_id":"4","last_reported":1726513598,"current_range_meters":14800,"station_id":"ce4bgi12rcd13ifvqb70","pricing_plan_id":"cebpf4jnsgd1na2vs0mg"},{"bike_id":"fa690805-233a-4a70-a9f3-33f1b67cdb1f","system_id":"levelo_inurba_marseille","lat":43.32289,"lon":5.38267,"is_reserved":false,"is_disabled":false,"rental_uris":{"android":"levelo://app?vid=fa690805-233a-4a70-a9f3-33f1b67cdb1f","ios":"levelo://app?vid=fa690805-233a-4a70-a9f3-33f1b67cdb1f"},"vehicle_type_id":"4","last_reported":1726513598,"current_range_meters":36400,"station_id":"ce4bhr12rcd13ifvqhqg","pricing_plan_id":"cebpf4jnsgd1na2vs0mg"},{"bike_id":"8b608b96-fedf-4511-8d4b-09bad2606e1a","system_id":"levelo_inurba_marseille","lat":43.27735,"lon":5.41129,"is_reserved":false,"is_disabled":false,"rental_uris":{"android":"levelo://app?vid=8b608b96-fedf-4511-8d4b-09bad2606e1a","ios":"levelo://app?vid=8b608b96-fedf-4511-8d4b-09bad2606e1a"},"vehicle_type_id":"4","last_reported":1726513598,"current_range_meters":14400,"station_id":"","pricing_plan_id":"cebpf4jnsgd1na2vs0mg"},{"bike_id":"3aedbbc3-18c0-4a66-8451-02251189e001","system_id":"levelo_inurba_marseille","lat":43.28149,"lon":5.42642,"is_reserved":false,"is_disabled":false,"rental_uris":{"android":"levelo://app?vid=3aedbbc3-18c0-4a66-8451-02251189e001","ios":"levelo://app?vid=3aedbbc3-18c0-4a66-8451-02251189e001"},"vehicle_type_id":"4","last_reported":1726513598,"current_range_meters":7200,"station_id":"ce4bhnh2rcd13ifvqgug","pricing_plan_id":"cebpf4jnsgd1na2vs0mg"},{"bike_id":"70b88215-4436-4b90-8ece-7363720f248f","system_id":"levelo_inurba_marseille","lat":43.32367,"lon":5.38886,"is_reserved":false,"is_disabled":false,"rental_uris":{"android":"levelo://app?vid=70b88215-4436-4b90-8ece-7363720f248f","ios":"levelo://app?vid=70b88215-4436-4b90-8ece-7363720f248f"},"vehicle_type_id":"4","last_reported":1726513598,"current_range_meters":10000,"station_id":"ce4bhqp2rcd13ifvqhog","pricing_plan_id":"cebpf4jnsgd1na2vs0mg"},{"bike_id":"7364d898-e5b3-444a-9b50-cc968348eb6e","system_id":"levelo_inurba_marseille","lat":43.28152,"lon":5.42647,"is_reserved":false,"is_disabled":false,"rental_uris":{"android":"levelo://app?vid=7364d898-e5b3-444a-9b50-cc968348eb6e","ios":"levelo://app?vid=7364d898-e5b3-444a-9b50-cc968348eb6e"},"vehicle_type_id":"4","last_reported":1726513598,"current_range_meters":10000,"station_id":"ce4bhnh2rcd13ifvqgug","pricing_plan_id":"cebpf4jnsgd1na2vs0mg"},{"bike_id":"f1095a19-7424-40ab-90a4-0777c79bfc46","system_id":"levelo_inurba_marseille","lat":43.31363,"lon":5.3851,"is_reserved":false,"is_disabled":false,"rental_uris":{"android":"levelo://app?vid=f1095a19-7424-40ab-90a4-0777c79bfc46","ios":"levelo://app?vid=f1095a19-7424-40ab-90a4-0777c79bfc46"},"vehicle_type_id":"4","last_reported":1726513598,"current_range_meters":6400,"station_id":"ce4bgt92rcd13ifvqcf0","pricing_plan_id":"cebpf4jnsgd1na2vs0mg"},{"bike_id":"7e1c00ef-2595-4d2d-a052-6abb573319bc","system_id":"levelo_inurba_marseille","lat":43.29525,"lon":5.39406,"is_reserved":false,"is_disabled":false,"rental_uris":{"android":"levelo://app?vid=7e1c00ef-2595-4d2d-a052-6abb573319bc","ios":"levelo://app?vid=7e1c00ef-2595-4d2d-a052-6abb573319bc"},"vehicle_type_id":"4","last_reported":1726513598,"current_range_meters":16800,"station_id":"ce4bh292rcd13ifvqdf0","pricing_plan_id":"cebpf4jnsgd1na2vs0mg"},{"bike_id":"1df33d01-a0ff-48b1-9707-1c7af4ceb171","system_id":"levelo_inurba_marseille","lat":43.28447,"lon":5.39205,"is_reserved":false,"is_disabled":false,"rental_uris":{"android":"levelo://app?vid=1df33d01-a0ff-48b1-9707-1c7af4ceb171","ios":"levelo://app?vid=1df33d01-a0ff-48b1-9707-1c7af4ceb171"},"vehicle_type_id":"4","last_reported":1726513598,"current_range_meters":6400,"station_id":"ce4bhoh2rcd13ifvqh5g","pricing_plan_id":"cebpf4jnsgd1na2vs0mg"},{"bike_id":"19246a52-d0c5-4157-82ea-238f12301084","system_id":"levelo_inurba_marseille","lat":43.28721,"lon":5.36091,"is_reserved":false,"is_disabled":false,"rental_uris":{"android":"levelo://app?vid=19246a52-d0c5-4157-82ea-238f12301084","ios":"levelo://app?vid=19246a52-d0c5-4157-82ea-238f12301084"},"vehicle_type_id":"4","last_reported":1726513598,"current_range_meters":14800,"station_id":"cki0cbj6b192h4jlfktg","pricing_plan_id":"cebpf4jnsgd1na2vs0mg"},{"bike_id":"2bc00c15-b391-445f-8056-cc4a33f1972d","system_id":"levelo_inurba_marseille","lat":43.25718,"lon":5.41106,"is_reserved":false,"is_disabled":false,"rental_uris":{"android":"levelo://app?vid=2bc00c15-b391-445f-8056-cc4a33f1972d","ios":"levelo://app?vid=2bc00c15-b391-445f-8056-cc4a33f1972d"},"vehicle_type_id":"4","last_reported":1726513598,"current_range_meters":22000,"station_id":"ce4bhkp2rcd13ifvqgd0","pricing_plan_id":"cebpf4jnsgd1na2vs0mg"},{"bike_id":"051ee531-bdbb-4252-92be-0d11743f6289","system_id":"levelo_inurba_marseille","lat":43.29627,"lon":5.37305,"is_reserved":false,"is_disabled":false,"rental_uris":{"android":"levelo://app?vid=051ee531-bdbb-4252-92be-0d11743f6289","ios":"levelo://app?vid=051ee531-bdbb-4252-92be-0d11743f6289"},"vehicle_type_id":"4","last_reported":1726513598,"current_range_meters":23200,"station_id":"","pricing_plan_id":"cebpf4jnsgd1na2vs0mg"},{"bike_id":"5cd82302-8dbd-44cc-be48-0c6ddb5846ee","system_id":"levelo_inurba_marseille","lat":43.28716,"lon":5.36094,"is_reserved":false,"is_disabled":false,"rental_uris":{"android":"levelo://app?vid=5cd82302-8dbd-44cc-be48-0c6ddb5846ee","ios":"levelo://app?vid=5cd82302-8dbd-44cc-be48-0c6ddb5846ee"},"vehicle_type_id":"4","last_reported":1726513598,"current_range_meters":27200,"station_id":"cki0cbj6b192h4jlfktg","pricing_plan_id":"cebpf4jnsgd1na2vs0mg"},{"bike_id":"ace70c40-a8cc-4d4a-a27d-20af2dcaa54b","system_id":"levelo_inurba_marseille","lat":43.29536,"lon":5.38536,"is_reserved":false,"is_disabled":false,"rental_uris":{"android":"levelo://app?vid=ace70c40-a8cc-4d4a-a27d-20af2dcaa54b","ios":"levelo://app?vid=ace70c40-a8cc-4d4a-a27d-20af2dcaa54b"},"vehicle_type_id":"4","last_reported":1726513598,"current_range_meters":7200,"station_id":"ce4bgih2rcd13ifvqba0","pricing_plan_id":"cebpf4jnsgd1na2vs0mg"},{"bike_id":"5c0ce240-113d-4be3-b7d4-c92c91f91461","system_id":"levelo_inurba_marseille","lat":43.280353,"lon":5.426,"is_reserved":false,"is_disabled":false,"rental_uris":{"android":"levelo://app?vid=5c0ce240-113d-4be3-b7d4-c92c91f91461","ios":"levelo://app?vid=5c0ce240-113d-4be3-b7d4-c92c91f91461"},"vehicle_type_id":"4","last_reported":1726513598,"current_range_meters":12400,"station_id":"ce4bhnh2rcd13ifvqgug","pricing_plan_id":"cebpf4jnsgd1na2vs0mg"},{"bike_id":"e4ff2716-efaa-4292-b77b-693be63bb373","system_id":"levelo_inurba_marseille","lat":43.23198,"lon":5.35557,"is_reserved":false,"is_disabled":false,"rental_uris":{"android":"levelo://app?vid=e4ff2716-efaa-4292-b77b-693be63bb373","ios":"levelo://app?vid=e4ff2716-efaa-4292-b77b-693be63bb373"},"vehicle_type_id":"4","last_reported":1726513598,"current_range_meters":3200,"station_id":"ce4bhu92rcd13ifvqi70","pricing_plan_id":"cebpf4jnsgd1na2vs0mg"},{"bike_id":"600c41c0-8a53-4307-a301-cdcc65dac880","system_id":"levelo_inurba_marseille","lat":43.3065,"lon":5.40103,"is_reserved":false,"is_disabled":false,"rental_uris":{"android":"levelo://app?vid=600c41c0-8a53-4307-a301-cdcc65dac880","ios":"levelo://app?vid=600c41c0-8a53-4307-a301-cdcc65dac880"},"vehicle_type_id":"4","last_reported":1726513598,"current_range_meters":32800,"station_id":"ce4bh112rcd13ifvqda0","pricing_plan_id":"cebpf4jnsgd1na2vs0mg"},{"bike_id":"9340a003-e504-4150-9d7a-a4eb70b308d3","system_id":"levelo_inurba_marseille","lat":43.30248,"lon":5.40077,"is_reserved":false,"is_disabled":false,"rental_uris":{"android":"levelo://app?vid=9340a003-e504-4150-9d7a-a4eb70b308d3","ios":"levelo://app?vid=9340a003-e504-4150-9d7a-a4eb70b308d3"},"vehicle_type_id":"4","last_reported":1726513598,"current_range_meters":38800,"station_id":"ce4bgvh2rcd13ifvqcs0","pricing_plan_id":"cebpf4jnsgd1na2vs0mg"},{"bike_id":"0760be35-7535-411f-92da-2986422d5607","system_id":"levelo_inurba_marseille","lat":43.27995,"lon":5.40019,"is_reserved":false,"is_disabled":false,"rental_uris":{"android":"levelo://app?vid=0760be35-7535-411f-92da-2986422d5607","ios":"levelo://app?vid=0760be35-7535-411f-92da-2986422d5607"},"vehicle_type_id":"4","last_reported":1726513598,"current_range_meters":26800,"station_id":"ce4bho92rcd13ifvqh4g","pricing_plan_id":"cebpf4jnsgd1na2vs0mg"},{"bike_id":"6afad03a-7399-44fa-8f0b-fcf919694e67","system_id":"levelo_inurba_marseille","lat":43.31328,"lon":5.39693,"is_reserved":false,"is_disabled":false,"rental_uris":{"android":"levelo://app?vid=6afad03a-7399-44fa-8f0b-fcf919694e67","ios":"levelo://app?vid=6afad03a-7399-44fa-8f0b-fcf919694e67"},"vehicle_type_id":"4","last_reported":1726513598,"current_range_meters":39200,"station_id":"ce4bgvp2rcd13ifvqcu0","pricing_plan_id":"cebpf4jnsgd1na2vs0mg"},{"bike_id":"0b0e929e-d24f-4cf8-98d9-0d9a9b05686b","system_id":"levelo_inurba_marseille","lat":43.27993,"lon":5.40032,"is_reserved":false,"is_disabled":false,"rental_uris":{"android":"levelo://app?vid=0b0e929e-d24f-4cf8-98d9-0d9a9b05686b","ios":"levelo://app?vid=0b0e929e-d24f-4cf8-98d9-0d9a9b05686b"},"vehicle_type_id":"4","last_reported":1726513598,"current_range_meters":35200,"station_id":"ce4bho92rcd13ifvqh4g","pricing_plan_id":"cebpf4jnsgd1na2vs0mg"},{"bike_id":"ebac6849-fcc8-4885-97ee-d3226f871404","system_id":"levelo_inurba_marseille","lat":43.33019,"lon":5.39041,"is_reserved":false,"is_disabled":false,"rental_uris":{"android":"levelo://app?vid=ebac6849-fcc8-4885-97ee-d3226f871404","ios":"levelo://app?vid=ebac6849-fcc8-4885-97ee-d3226f871404"},"vehicle_type_id":"4","last_reported":1726513598,"current_range_meters":16400,"station_id":"ce4bhr92rcd13ifvqhrg","pricing_plan_id":"cebpf4jnsgd1na2vs0mg"},{"bike_id":"e857b1be-d310-4aa2-bb18-8d1909aadc07","system_id":"levelo_inurba_marseille","lat":43.29192,"lon":5.39324,"is_reserved":false,"is_disabled":false,"rental_uris":{"android":"levelo://app?vid=e857b1be-d310-4aa2-bb18-8d1909aadc07","ios":"levelo://app?vid=e857b1be-d310-4aa2-bb18-8d1909aadc07"},"vehicle_type_id":"4","last_reported":1726513598,"current_range_meters":36400,"station_id":"ce4bh192rcd13ifvqdd0","pricing_plan_id":"cebpf4jnsgd1na2vs0mg"},{"bike_id":"9a8fe674-9ddd-414c-9ae6-38140c4b4607","system_id":"levelo_inurba_marseille","lat":43.31165,"lon":5.38722,"is_reserved":false,"is_disabled":false,"rental_uris":{"android":"levelo://app?vid=9a8fe674-9ddd-414c-9ae6-38140c4b4607","ios":"levelo://app?vid=9a8fe674-9ddd-414c-9ae6-38140c4b4607"},"vehicle_type_id":"4","last_reported":1726513598,"current_range_meters":38000,"station_id":"ce4bgv12rcd13ifvqcp0","pricing_plan_id":"cebpf4jnsgd1na2vs0mg"},{"bike_id":"62175b73-f82a-44ef-800c-f03d8451ae46","system_id":"levelo_inurba_marseille","lat":43.29413,"lon":5.3863,"is_reserved":false,"is_disabled":false,"rental_uris":{"android":"levelo://app?vid=62175b73-f82a-44ef-800c-f03d8451ae46","ios":"levelo://app?vid=62175b73-f82a-44ef-800c-f03d8451ae46"},"vehicle_type_id":"4","last_reported":1726513598,"current_range_meters":30400,"station_id":"ce4bh2h2rcd13ifvqdh0","pricing_plan_id":"cebpf4jnsgd1na2vs0mg"},{"bike_id":"f4f9e145-bd55-4965-a823-b1046de8bdaf","system_id":"levelo_inurba_marseille","lat":43.282926,"lon":5.374517,"is_reserved":false,"is_disabled":false,"rental_uris":{"android":"levelo://app?vid=f4f9e145-bd55-4965-a823-b1046de8bdaf","ios":"levelo://app?vid=f4f9e145-bd55-4965-a823-b1046de8bdaf"},"vehicle_type_id":"4","last_reported":1726513598,"current_range_meters":6800,"station_id":"ce4bh412rcd13ifvqds0","pricing_plan_id":"cebpf4jnsgd1na2vs0mg"},{"bike_id":"6f387a41-1a28-4619-ac86-26875678b81b","system_id":"levelo_inurba_marseille","lat":43.29895,"lon":5.43675,"is_reserved":false,"is_disabled":false,"rental_uris":{"android":"levelo://app?vid=6f387a41-1a28-4619-ac86-26875678b81b","ios":"levelo://app?vid=6f387a41-1a28-4619-ac86-26875678b81b"},"vehicle_type_id":"4","last_reported":1726513598,"current_range_meters":25600,"station_id":"ce4bhpp2rcd13ifvqhfg","pricing_plan_id":"cebpf4jnsgd1na2vs0mg"},{"bike_id":"1e54def8-789e-4364-8924-c4141b943f1a","system_id":"levelo_inurba_marseille","lat":43.2997,"lon":5.38503,"is_reserved":false,"is_disabled":false,"rental_uris":{"android":"levelo://app?vid=1e54def8-789e-4364-8924-c4141b943f1a","ios":"levelo://app?vid=1e54def8-789e-4364-8924-c4141b943f1a"},"vehicle_type_id":"4","last_reported":1726513598,"current_range_meters":38800,"station_id":"ce4bgj92rcd13ifvqbd0","pricing_plan_id":"cebpf4jnsgd1na2vs0mg"},{"bike_id":"04b843a2-eb15-4990-a5d5-e4688af15940","system_id":"levelo_inurba_marseille","lat":43.24651,"lon":5.38894,"is_reserved":false,"is_disabled":false,"rental_uris":{"android":"levelo://app?vid=04b843a2-eb15-4990-a5d5-e4688af15940","ios":"levelo://app?vid=04b843a2-eb15-4990-a5d5-e4688af15940"},"vehicle_type_id":"4","last_reported":1726513598,"current_range_meters":12000,"station_id":"ce4bhg12rcd13ifvqf60","pricing_plan_id":"cebpf4jnsgd1na2vs0mg"},{"bike_id":"fab9d901-ef76-4cac-8183-93e7117090d0","system_id":"levelo_inurba_marseille","lat":43.28084,"lon":5.39663,"is_reserved":false,"is_disabled":false,"rental_uris":{"android":"levelo://app?vid=fab9d901-ef76-4cac-8183-93e7117090d0","ios":"levelo://app?vid=fab9d901-ef76-4cac-8183-93e7117090d0"},"vehicle_type_id":"4","last_reported":1726513598,"current_range_meters":8000,"station_id":"ce4bho12rcd13ifvqh2g","pricing_plan_id":"cebpf4jnsgd1na2vs0mg"},{"bike_id":"dff9f7cb-ecf2-47cf-8e1f-16c69a134ee1","system_id":"levelo_inurba_marseille","lat":43.29511,"lon":5.39412,"is_reserved":false,"is_disabled":false,"rental_uris":{"android":"levelo://app?vid=dff9f7cb-ecf2-47cf-8e1f-16c69a134ee1","ios":"levelo://app?vid=dff9f7cb-ecf2-47cf-8e1f-16c69a134ee1"},"vehicle_type_id":"4","last_reported":1726513598,"current_range_meters":38800,"station_id":"ce4bh292rcd13ifvqdf0","pricing_plan_id":"cebpf4jnsgd1na2vs0mg"},{"bike_id":"037efca7-ace4-4b1e-8ae6-54616f2a429b","system_id":"levelo_inurba_marseille","lat":43.30305,"lon":5.39208,"is_reserved":false,"is_disabled":false,"rental_uris":{"android":"levelo://app?vid=037efca7-ace4-4b1e-8ae6-54616f2a429b","ios":"levelo://app?vid=037efca7-ace4-4b1e-8ae6-54616f2a429b"},"vehicle_type_id":"4","last_reported":1726513598,"current_range_meters":12000,"station_id":"ce4bgkh2rcd13ifvqbk0","pricing_plan_id":"cebpf4jnsgd1na2vs0mg"},{"bike_id":"5d02e820-174a-4b65-b04d-cc4d96d2a0f2","system_id":"levelo_inurba_marseille","lat":43.28152,"lon":5.42645,"is_reserved":false,"is_disabled":false,"rental_uris":{"android":"levelo://app?vid=5d02e820-174a-4b65-b04d-cc4d96d2a0f2","ios":"levelo://app?vid=5d02e820-174a-4b65-b04d-cc4d96d2a0f2"},"vehicle_type_id":"4","last_reported":1726513598,"current_range_meters":4400,"station_id":"ce4bhnh2rcd13ifvqgug","pricing_plan_id":"cebpf4jnsgd1na2vs0mg"},{"bike_id":"d907984a-938f-48b2-8bf9-fba6816c8953","system_id":"levelo_inurba_marseille","lat":43.273376,"lon":5.393049,"is_reserved":false,"is_disabled":false,"rental_uris":{"android":"levelo://app?vid=d907984a-938f-48b2-8bf9-fba6816c8953","ios":"levelo://app?vid=d907984a-938f-48b2-8bf9-fba6816c8953"},"vehicle_type_id":"4","last_reported":1726513598,"current_range_meters":6400,"station_id":"ce4bhdp2rcd13ifvqf20","pricing_plan_id":"cebpf4jnsgd1na2vs0mg"},{"bike_id":"9106ddff-5120-4c4f-8185-d2759a87beea","system_id":"levelo_inurba_marseille","lat":43.3236,"lon":5.38884,"is_reserved":false,"is_disabled":false,"rental_uris":{"android":"levelo://app?vid=9106ddff-5120-4c4f-8185-d2759a87beea","ios":"levelo://app?vid=9106ddff-5120-4c4f-8185-d2759a87beea"},"vehicle_type_id":"4","last_reported":1726513598,"current_range_meters":16400,"station_id":"ce4bhqp2rcd13ifvqhog","pricing_plan_id":"cebpf4jnsgd1na2vs0mg"},{"bike_id":"df2cae01-2708-43bb-9355-60032dcc8823","system_id":"levelo_inurba_marseille","lat":43.31083,"lon":5.42431,"is_reserved":false,"is_disabled":false,"rental_uris":{"android":"levelo://app?vid=df2cae01-2708-43bb-9355-60032dcc8823","ios":"levelo://app?vid=df2cae01-2708-43bb-9355-60032dcc8823"},"vehicle_type_id":"4","last_reported":1726513598,"current_range_meters":9200,"station_id":"ce4bhp92rcd13ifvqhag","pricing_plan_id":"cebpf4jnsgd1na2vs0mg"},{"bike_id":"45874cf0-f413-4a9c-b5ce-46cd79d9f149","system_id":"levelo_inurba_marseille","lat":43.23177,"lon":5.3999,"is_reserved":false,"is_disabled":false,"rental_uris":{"android":"levelo://app?vid=45874cf0-f413-4a9c-b5ce-46cd79d9f149","ios":"levelo://app?vid=45874cf0-f413-4a9c-b5ce-46cd79d9f149"},"vehicle_type_id":"4","last_reported":1726513598,"current_range_meters":8800,"station_id":"ce4bhn12rcd13ifvqgqg","pricing_plan_id":"cebpf4jnsgd1na2vs0mg"},{"bike_id":"63b3292c-fdfc-47f6-901a-5d38dd642a88","system_id":"levelo_inurba_marseille","lat":43.31134,"lon":5.39334,"is_reserved":false,"is_disabled":false,"rental_uris":{"android":"levelo://app?vid=63b3292c-fdfc-47f6-901a-5d38dd642a88","ios":"levelo://app?vid=63b3292c-fdfc-47f6-901a-5d38dd642a88"},"vehicle_type_id":"4","last_reported":1726513598,"current_range_meters":8000,"station_id":"","pricing_plan_id":"cebpf4jnsgd1na2vs0mg"},{"bike_id":"0311c710-56f0-4731-9940-a1a4d867c216","system_id":"levelo_inurba_marseille","lat":43.300934,"lon":5.390763,"is_reserved":false,"is_disabled":false,"rental_uris":{"android":"levelo://app?vid=0311c710-56f0-4731-9940-a1a4d867c216","ios":"levelo://app?vid=0311c710-56f0-4731-9940-a1a4d867c216"},"vehicle_type_id":"4","last_reported":1726513598,"current_range_meters":9200,"station_id":"ce4bgqh2rcd13ifvqc5g","pricing_plan_id":"cebpf4jnsgd1na2vs0mg"},{"bike_id":"a2fb991b-0627-4421-8202-a6de79410ed8","system_id":"levelo_inurba_marseille","lat":43.30944,"lon":5.39042,"is_reserved":false,"is_disabled":false,"rental_uris":{"android":"levelo://app?vid=a2fb991b-0627-4421-8202-a6de79410ed8","ios":"levelo://app?vid=a2fb991b-0627-4421-8202-a6de79410ed8"},"vehicle_type_id":"4","last_reported":1726513598,"current_range_meters":36800,"station_id":"ce4bgup2rcd13ifvqco0","pricing_plan_id":"cebpf4jnsgd1na2vs0mg"},{"bike_id":"9eac4b7b-0fe7-4786-9c55-810077f8111b","system_id":"levelo_inurba_marseille","lat":43.24164,"lon":5.36405,"is_reserved":false,"is_disabled":false,"rental_uris":{"android":"levelo://app?vid=9eac4b7b-0fe7-4786-9c55-810077f8111b","ios":"levelo://app?vid=9eac4b7b-0fe7-4786-9c55-810077f8111b"},"vehicle_type_id":"4","last_reported":1726513598,"current_range_meters":4400,"station_id":"cpo36qri1sfpv3e86is0","pricing_plan_id":"cebpf4jnsgd1na2vs0mg"},{"bike_id":"623b5052-ce51-42b4-b601-49440444962e","system_id":"levelo_inurba_marseille","lat":43.292636,"lon":5.384349,"is_reserved":false,"is_disabled":false,"rental_uris":{"android":"levelo://app?vid=623b5052-ce51-42b4-b601-49440444962e","ios":"levelo://app?vid=623b5052-ce51-42b4-b601-49440444962e"},"vehicle_type_id":"4","last_reported":1726513598,"current_range_meters":6800,"station_id":"ce4bh412rcd13ifvqdr0","pricing_plan_id":"cebpf4jnsgd1na2vs0mg"},{"bike_id":"80ebf3a0-e6ac-408a-ac50-b259cf22a30a","system_id":"levelo_inurba_marseille","lat":43.2509,"lon":5.39517,"is_reserved":false,"is_disabled":false,"rental_uris":{"android":"levelo://app?vid=80ebf3a0-e6ac-408a-ac50-b259cf22a30a","ios":"levelo://app?vid=80ebf3a0-e6ac-408a-ac50-b259cf22a30a"},"vehicle_type_id":"4","last_reported":1726513598,"current_range_meters":6400,"station_id":"ce4bhm12rcd13ifvqgkg","pricing_plan_id":"cebpf4jnsgd1na2vs0mg"},{"bike_id":"39cb7f2e-4b54-4549-a913-7c82508dda71","system_id":"levelo_inurba_marseille","lat":43.29512,"lon":5.39409,"is_reserved":false,"is_disabled":false,"rental_uris":{"android":"levelo://app?vid=39cb7f2e-4b54-4549-a913-7c82508dda71","ios":"levelo://app?vid=39cb7f2e-4b54-4549-a913-7c82508dda71"},"vehicle_type_id":"4","last_reported":1726513598,"current_range_meters":38800,"station_id":"ce4bh292rcd13ifvqdf0","pricing_plan_id":"cebpf4jnsgd1na2vs0mg"},{"bike_id":"474daae1-531d-4ecd-9686-d3e8855839e5","system_id":"levelo_inurba_marseille","lat":43.31162,"lon":5.38731,"is_reserved":false,"is_disabled":false,"rental_uris":{"android":"levelo://app?vid=474daae1-531d-4ecd-9686-d3e8855839e5","ios":"levelo://app?vid=474daae1-531d-4ecd-9686-d3e8855839e5"},"vehicle_type_id":"4","last_reported":1726513598,"current_range_meters":30400,"station_id":"ce4bgv12rcd13ifvqcp0","pricing_plan_id":"cebpf4jnsgd1na2vs0mg"},{"bike_id":"db865793-aa7c-4f02-a065-6a457f5ad6dc","system_id":"levelo_inurba_marseille","lat":43.30082,"lon":5.36529,"is_reserved":false,"is_disabled":false,"rental_uris":{"android":"levelo://app?vid=db865793-aa7c-4f02-a065-6a457f5ad6dc","ios":"levelo://app?vid=db865793-aa7c-4f02-a065-6a457f5ad6dc"},"vehicle_type_id":"4","last_reported":1726513598,"current_range_meters":3200,"station_id":"","pricing_plan_id":"cebpf4jnsgd1na2vs0mg"},{"bike_id":"d057be16-de62-4c3e-83f8-cd0489011293","system_id":"levelo_inurba_marseille","lat":43.29096,"lon":5.38118,"is_reserved":false,"is_disabled":false,"rental_uris":{"android":"levelo://app?vid=d057be16-de62-4c3e-83f8-cd0489011293","ios":"levelo://app?vid=d057be16-de62-4c3e-83f8-cd0489011293"},"vehicle_type_id":"4","last_reported":1726513598,"current_range_meters":26800,"station_id":"ce4bh512rcd13ifvqe2g","pricing_plan_id":"cebpf4jnsgd1na2vs0mg"},{"bike_id":"00355da0-e9cc-4b48-b37e-62e2ced1d7d2","system_id":"levelo_inurba_marseille","lat":43.31162,"lon":5.38726,"is_reserved":false,"is_disabled":false,"rental_uris":{"android":"levelo://app?vid=00355da0-e9cc-4b48-b37e-62e2ced1d7d2","ios":"levelo://app?vid=00355da0-e9cc-4b48-b37e-62e2ced1d7d2"},"vehicle_type_id":"4","last_reported":1726513598,"current_range_meters":10000,"station_id":"ce4bgv12rcd13ifvqcp0","pricing_plan_id":"cebpf4jnsgd1na2vs0mg"},{"bike_id":"8e12b97f-5063-4471-9008-278458810a3a","system_id":"levelo_inurba_marseille","lat":43.28446,"lon":5.39206,"is_reserved":false,"is_disabled":false,"rental_uris":{"android":"levelo://app?vid=8e12b97f-5063-4471-9008-278458810a3a","ios":"levelo://app?vid=8e12b97f-5063-4471-9008-278458810a3a"},"vehicle_type_id":"4","last_reported":1726513598,"current_range_meters":32400,"station_id":"ce4bhoh2rcd13ifvqh5g","pricing_plan_id":"cebpf4jnsgd1na2vs0mg"},{"bike_id":"95591b84-60fe-4523-9cf2-f2f86f10c1e4","system_id":"levelo_inurba_marseille","lat":43.26214,"lon":5.37441,"is_reserved":false,"is_disabled":false,"rental_uris":{"android":"levelo://app?vid=95591b84-60fe-4523-9cf2-f2f86f10c1e4","ios":"levelo://app?vid=95591b84-60fe-4523-9cf2-f2f86f10c1e4"},"vehicle_type_id":"4","last_reported":1726513598,"current_range_meters":38800,"station_id":"ce4bhgp2rcd13ifvqfc0","pricing_plan_id":"cebpf4jnsgd1na2vs0mg"},{"bike_id":"f105816a-7179-4513-94c0-cf75f79265b4","system_id":"levelo_inurba_marseille","lat":43.25109,"lon":5.40323,"is_reserved":false,"is_disabled":false,"rental_uris":{"android":"levelo://app?vid=f105816a-7179-4513-94c0-cf75f79265b4","ios":"levelo://app?vid=f105816a-7179-4513-94c0-cf75f79265b4"},"vehicle_type_id":"4","last_reported":1726513598,"current_range_meters":3200,"station_id":"ce4bhlh2rcd13ifvqgig","pricing_plan_id":"cebpf4jnsgd1na2vs0mg"},{"bike_id":"346451ee-1f0d-4a1f-908d-db78b5735330","system_id":"levelo_inurba_marseille","lat":43.31214,"lon":5.3802,"is_reserved":false,"is_disabled":false,"rental_uris":{"android":"levelo://app?vid=346451ee-1f0d-4a1f-908d-db78b5735330","ios":"levelo://app?vid=346451ee-1f0d-4a1f-908d-db78b5735330"},"vehicle_type_id":"4","last_reported":1726513598,"current_range_meters":19600,"station_id":"","pricing_plan_id":"cebpf4jnsgd1na2vs0mg"},{"bike_id":"81851e32-7474-4c7a-b5fb-766ccef3c7d9","system_id":"levelo_inurba_marseille","lat":43.244121,"lon":5.371199,"is_reserved":false,"is_disabled":false,"rental_uris":{"android":"levelo://app?vid=81851e32-7474-4c7a-b5fb-766ccef3c7d9","ios":"levelo://app?vid=81851e32-7474-4c7a-b5fb-766ccef3c7d9"},"vehicle_type_id":"4","last_reported":1726513598,"current_range_meters":4800,"station_id":"ce4bhhh2rcd13ifvqfk0","pricing_plan_id":"cebpf4jnsgd1na2vs0mg"},{"bike_id":"f8ed77a7-49c6-40b0-bad1-e8d522ddda01","system_id":"levelo_inurba_marseille","lat":43.27673,"lon":5.38877,"is_reserved":false,"is_disabled":false,"rental_uris":{"android":"levelo://app?vid=f8ed77a7-49c6-40b0-bad1-e8d522ddda01","ios":"levelo://app?vid=f8ed77a7-49c6-40b0-bad1-e8d522ddda01"},"vehicle_type_id":"4","last_reported":1726513598,"current_range_meters":18800,"station_id":"ce4bhi12rcd13ifvqfo0","pricing_plan_id":"cebpf4jnsgd1na2vs0mg"},{"bike_id":"73ade8ef-4416-441b-987e-7a74e884fa20","system_id":"levelo_inurba_marseille","lat":43.33024,"lon":5.39039,"is_reserved":false,"is_disabled":false,"rental_uris":{"android":"levelo://app?vid=73ade8ef-4416-441b-987e-7a74e884fa20","ios":"levelo://app?vid=73ade8ef-4416-441b-987e-7a74e884fa20"},"vehicle_type_id":"4","last_reported":1726513598,"current_range_meters":19200,"station_id":"ce4bhr92rcd13ifvqhrg","pricing_plan_id":"cebpf4jnsgd1na2vs0mg"},{"bike_id":"5bb1d010-0238-448f-a470-fc44e8685316","system_id":"levelo_inurba_marseille","lat":43.23193,"lon":5.35543,"is_reserved":false,"is_disabled":false,"rental_uris":{"android":"levelo://app?vid=5bb1d010-0238-448f-a470-fc44e8685316","ios":"levelo://app?vid=5bb1d010-0238-448f-a470-fc44e8685316"},"vehicle_type_id":"4","last_reported":1726513598,"current_range_meters":38000,"station_id":"ce4bhu92rcd13ifvqi70","pricing_plan_id":"cebpf4jnsgd1na2vs0mg"},{"bike_id":"768968e8-cadf-4d2c-99f6-6a29e6846673","system_id":"levelo_inurba_marseille","lat":43.24081,"lon":5.37751,"is_reserved":false,"is_disabled":false,"rental_uris":{"android":"levelo://app?vid=768968e8-cadf-4d2c-99f6-6a29e6846673","ios":"levelo://app?vid=768968e8-cadf-4d2c-99f6-6a29e6846673"},"vehicle_type_id":"4","last_reported":1726513598,"current_range_meters":11600,"station_id":"ce4bhnp2rcd13ifvqgvg","pricing_plan_id":"cebpf4jnsgd1na2vs0mg"},{"bike_id":"1803f81b-32fa-43cc-8984-4687e59724c6","system_id":"levelo_inurba_marseille","lat":43.2865,"lon":5.38664,"is_reserved":false,"is_disabled":false,"rental_uris":{"android":"levelo://app?vid=1803f81b-32fa-43cc-8984-4687e59724c6","ios":"levelo://app?vid=1803f81b-32fa-43cc-8984-4687e59724c6"},"vehicle_type_id":"4","last_reported":1726513598,"current_range_meters":38800,"station_id":"ce4bh492rcd13ifvqdug","pricing_plan_id":"cebpf4jnsgd1na2vs0mg"},{"bike_id":"be1b4631-17da-4de8-9414-0b5e8983e302","system_id":"levelo_inurba_marseille","lat":43.290771,"lon":5.37157,"is_reserved":false,"is_disabled":false,"rental_uris":{"android":"levelo://app?vid=be1b4631-17da-4de8-9414-0b5e8983e302","ios":"levelo://app?vid=be1b4631-17da-4de8-9414-0b5e8983e302"},"vehicle_type_id":"4","last_reported":1726513598,"current_range_meters":14800,"station_id":"ce4bh5p2rcd13ifvqe4g","pricing_plan_id":"cebpf4jnsgd1na2vs0mg"},{"bike_id":"dc46025c-88e7-42cb-9163-d5b1d13e271c","system_id":"levelo_inurba_marseille","lat":43.29195,"lon":5.39331,"is_reserved":false,"is_disabled":false,"rental_uris":{"android":"levelo://app?vid=dc46025c-88e7-42cb-9163-d5b1d13e271c","ios":"levelo://app?vid=dc46025c-88e7-42cb-9163-d5b1d13e271c"},"vehicle_type_id":"4","last_reported":1726513598,"current_range_meters":36400,"station_id":"ce4bh192rcd13ifvqdd0","pricing_plan_id":"cebpf4jnsgd1na2vs0mg"},{"bike_id":"c2e5d5ee-484b-42d2-97bb-30fd992faf4b","system_id":"levelo_inurba_marseille","lat":43.23184,"lon":5.35565,"is_reserved":false,"is_disabled":false,"rental_uris":{"android":"levelo://app?vid=c2e5d5ee-484b-42d2-97bb-30fd992faf4b","ios":"levelo://app?vid=c2e5d5ee-484b-42d2-97bb-30fd992faf4b"},"vehicle_type_id":"4","last_reported":1726513598,"current_range_meters":16000,"station_id":"ce4bhu92rcd13ifvqi70","pricing_plan_id":"cebpf4jnsgd1na2vs0mg"},{"bike_id":"fffe146b-087b-482b-9ea1-3ed8940d5276","system_id":"levelo_inurba_marseille","lat":43.28717,"lon":5.36082,"is_reserved":false,"is_disabled":false,"rental_uris":{"android":"levelo://app?vid=fffe146b-087b-482b-9ea1-3ed8940d5276","ios":"levelo://app?vid=fffe146b-087b-482b-9ea1-3ed8940d5276"},"vehicle_type_id":"4","last_reported":1726513598,"current_range_meters":32000,"station_id":"ce4bhg12rcd13ifvqf80","pricing_plan_id":"cebpf4jnsgd1na2vs0mg"},{"bike_id":"1619e240-5047-49f3-bb82-a3cdcefbcac2","system_id":"levelo_inurba_marseille","lat":43.29304,"lon":5.37457,"is_reserved":false,"is_disabled":false,"rental_uris":{"android":"levelo://app?vid=1619e240-5047-49f3-bb82-a3cdcefbcac2","ios":"levelo://app?vid=1619e240-5047-49f3-bb82-a3cdcefbcac2"},"vehicle_type_id":"4","last_reported":1726513598,"current_range_meters":28400,"station_id":"ce4bgi12rcd13ifvqb70","pricing_plan_id":"cebpf4jnsgd1na2vs0mg"},{"bike_id":"adaedb32-cd33-4d46-ba64-c48e7f750546","system_id":"levelo_inurba_marseille","lat":43.30896,"lon":5.3719,"is_reserved":false,"is_disabled":false,"rental_uris":{"android":"levelo://app?vid=adaedb32-cd33-4d46-ba64-c48e7f750546","ios":"levelo://app?vid=adaedb32-cd33-4d46-ba64-c48e7f750546"},"vehicle_type_id":"4","last_reported":1726513598,"current_range_meters":28400,"station_id":"ce4bguh2rcd13ifvqckg","pricing_plan_id":"cebpf4jnsgd1na2vs0mg"},{"bike_id":"65a4ccd0-2f7c-4899-b31b-c7c5f032daeb","system_id":"levelo_inurba_marseille","lat":43.23182,"lon":5.35562,"is_reserved":false,"is_disabled":false,"rental_uris":{"android":"levelo://app?vid=65a4ccd0-2f7c-4899-b31b-c7c5f032daeb","ios":"levelo://app?vid=65a4ccd0-2f7c-4899-b31b-c7c5f032daeb"},"vehicle_type_id":"4","last_reported":1726513598,"current_range_meters":34000,"station_id":"ce4bhu92rcd13ifvqi70","pricing_plan_id":"cebpf4jnsgd1na2vs0mg"},{"bike_id":"da024c42-20f3-45be-b9ed-073cc67d4a68","system_id":"levelo_inurba_marseille","lat":43.24384,"lon":5.37058,"is_reserved":false,"is_disabled":false,"rental_uris":{"android":"levelo://app?vid=da024c42-20f3-45be-b9ed-073cc67d4a68","ios":"levelo://app?vid=da024c42-20f3-45be-b9ed-073cc67d4a68"},"vehicle_type_id":"4","last_reported":1726513598,"current_range_meters":23200,"station_id":"ce4bhhh2rcd13ifvqfk0","pricing_plan_id":"cebpf4jnsgd1na2vs0mg"},{"bike_id":"89b81ed8-88d2-4ca1-9622-b938a38be7ed","system_id":"levelo_inurba_marseille","lat":43.27988,"lon":5.41662,"is_reserved":false,"is_disabled":false,"rental_uris":{"android":"levelo://app?vid=89b81ed8-88d2-4ca1-9622-b938a38be7ed","ios":"levelo://app?vid=89b81ed8-88d2-4ca1-9622-b938a38be7ed"},"vehicle_type_id":"4","last_reported":1726513598,"current_range_meters":25200,"station_id":"ce4bho12rcd13ifvqh1g","pricing_plan_id":"cebpf4jnsgd1na2vs0mg"},{"bike_id":"6ba5361f-7827-4eac-8c8c-0a50feac89d8","system_id":"levelo_inurba_marseille","lat":43.28477,"lon":5.38414,"is_reserved":false,"is_disabled":false,"rental_uris":{"android":"levelo://app?vid=6ba5361f-7827-4eac-8c8c-0a50feac89d8","ios":"levelo://app?vid=6ba5361f-7827-4eac-8c8c-0a50feac89d8"},"vehicle_type_id":"4","last_reported":1726513598,"current_range_meters":38000,"station_id":"ce4bh512rcd13ifvqe3g","pricing_plan_id":"cebpf4jnsgd1na2vs0mg"},{"bike_id":"ec10b7c1-83fb-4c89-8439-3b56a276f7f0","system_id":"levelo_inurba_marseille","lat":43.27813,"lon":5.40711,"is_reserved":false,"is_disabled":false,"rental_uris":{"android":"levelo://app?vid=ec10b7c1-83fb-4c89-8439-3b56a276f7f0","ios":"levelo://app?vid=ec10b7c1-83fb-4c89-8439-3b56a276f7f0"},"vehicle_type_id":"4","last_reported":1726513598,"current_range_meters":11200,"station_id":"ce4bhnh2rcd13ifvqgtg","pricing_plan_id":"cebpf4jnsgd1na2vs0mg"},{"bike_id":"9bfdb6ad-6413-486c-91bb-7c4ece303b4c","system_id":"levelo_inurba_marseille","lat":43.30637,"lon":5.40086,"is_reserved":false,"is_disabled":false,"rental_uris":{"android":"levelo://app?vid=9bfdb6ad-6413-486c-91bb-7c4ece303b4c","ios":"levelo://app?vid=9bfdb6ad-6413-486c-91bb-7c4ece303b4c"},"vehicle_type_id":"4","last_reported":1726513598,"current_range_meters":38800,"station_id":"ce4bh112rcd13ifvqda0","pricing_plan_id":"cebpf4jnsgd1na2vs0mg"},{"bike_id":"488e807f-c9f7-4fca-bf67-18a1aa4784fc","system_id":"levelo_inurba_marseille","lat":43.27376,"lon":5.36259,"is_reserved":false,"is_disabled":false,"rental_uris":{"android":"levelo://app?vid=488e807f-c9f7-4fca-bf67-18a1aa4784fc","ios":"levelo://app?vid=488e807f-c9f7-4fca-bf67-18a1aa4784fc"},"vehicle_type_id":"4","last_reported":1726513598,"current_range_meters":38800,"station_id":"ce4bhbh2rcd13ifvqeo0","pricing_plan_id":"cebpf4jnsgd1na2vs0mg"},{"bike_id":"80dc6c57-ea4a-46e1-b89d-13068e6be171","system_id":"levelo_inurba_marseille","lat":43.29812,"lon":5.38103,"is_reserved":false,"is_disabled":false,"rental_uris":{"android":"levelo://app?vid=80dc6c57-ea4a-46e1-b89d-13068e6be171","ios":"levelo://app?vid=80dc6c57-ea4a-46e1-b89d-13068e6be171"},"vehicle_type_id":"4","last_reported":1726513598,"current_range_meters":4000,"station_id":"ce4bgip2rcd13ifvqbb0","pricing_plan_id":"cebpf4jnsgd1na2vs0mg"},{"bike_id":"89611f1e-76f4-4128-9739-39b1f21529c5","system_id":"levelo_inurba_marseille","lat":43.29102,"lon":5.38142,"is_reserved":false,"is_disabled":false,"rental_uris":{"android":"levelo://app?vid=89611f1e-76f4-4128-9739-39b1f21529c5","ios":"levelo://app?vid=89611f1e-76f4-4128-9739-39b1f21529c5"},"vehicle_type_id":"4","last_reported":1726513598,"current_range_meters":4400,"station_id":"ce4bh512rcd13ifvqe2g","pricing_plan_id":"cebpf4jnsgd1na2vs0mg"},{"bike_id":"54e8ca43-4be7-488f-a355-cb798c32c018","system_id":"levelo_inurba_marseille","lat":43.29898,"lon":5.43671,"is_reserved":false,"is_disabled":false,"rental_uris":{"android":"levelo://app?vid=54e8ca43-4be7-488f-a355-cb798c32c018","ios":"levelo://app?vid=54e8ca43-4be7-488f-a355-cb798c32c018"},"vehicle_type_id":"4","last_reported":1726513598,"current_range_meters":18800,"station_id":"ce4bhpp2rcd13ifvqhfg","pricing_plan_id":"cebpf4jnsgd1na2vs0mg"},