{"last_updated":1752419361,"ttl":60,"version":"2.2","data":{"bikes":[{"bike_id":"bfa68e15-1cd1-41b3-94d5-a9b098f6979f","system_id":"levelo_inurba_marseille","lat":43.2491,"lon":5.38731,"is_reserved":false,"is_disabled":false,"rental_uris":{"android":"levelo://app?vid=bfa68e15-1cd1-41b3-94d5-a9b098f6979f","ios":"levelo://app?vid=bfa68e15-1cd1-41b3-94d5-a9b098f6979f"},"vehicle_type_id":"4","last_reported":1752419361,"current_range_meters":2800,"station_id":"","pricing_plan_id":"cebpf4jnsgd1na2vs0mg"},{"bike_id":"6c9c22a3-3ee8-4932-84ea-76ccd8bf996a","system_id":"levelo_inurba_marseille","lat":43.31114,"lon":5.37765,"is_reserved":false,"is_disabled":false,"rental_uris":{"android":"levelo://app?vid=6c9c22a3-3ee8-4932-84ea-76ccd8bf996a","ios":"levelo://app?vid=6c9c22a3-3ee8-4932-84ea-76ccd8bf996a"},"vehicle_type_id":"4","last_reported":1752419361,"current_range_meters":2800,"station_id":"ce4bgt92rcd13ifvqcg0","pricing_plan_id":"cebpf4jnsgd1na2vs0mg"},{"bike_id":"262c7e76-2e28-4d55-b6be-af79e74bb9c9","system_id":"levelo_inurba_marseille","lat":43.32294,"lon":5.36942,"is_reserved":false,"is_disabled":false,"rental_uris":{"android":"levelo://app?vid=262c7e76-2e28-4d55-b6be-af79e74bb9c9","ios":"levelo://app?vid=262c7e76-2e28-4d55-b6be-af79e74bb9c9"},"vehicle_type_id":"4","last_reported":1752419361,"current_range_meters":3200,"station_id":"","pricing_plan_id":"cebpf4jnsgd1na2vs0mg"},{"bike_id":"6f5e9084-558f-4d95-b458-678ee4399b06","system_id":"levelo_inurba_marseille","lat":43.25509,"lon":5.37646,"is_reserved":false,"is_disabled":true,"rental_uris":{"android":"levelo://app?vid=6f5e9084-558f-4d95-b458-678ee4399b06","ios":"levelo://app?vid=6f5e9084-558f-4d95-b458-678ee4399b06"},"vehicle_type_id":"4","last_reported":1752419361,"current_range_meters":3600,"station_id":"ce4bhh12rcd13ifvqff0","pricing_plan_id":"cebpf4jnsgd1na2vs0mg"},{"bike_id":"5ec37187-8959-48c3-ac17-2dbe7635a5ac","system_id":"levelo_inurba_marseille","lat":43.21901,"lon":5.3455,"is_reserved":false,"is_disabled":false,"rental_uris":{"android":"levelo://app?vid=5ec37187-8959-48c3-ac17-2dbe7635a5ac","ios":"levelo://app?vid=5ec37187-8959-48c3-ac17-2dbe7635a5ac"},"vehicle_type_id":"4","last_reported":1752419361,"current_range_meters":3600,"station_id":"","pricing_plan_id":"cebpf4jnsgd1na2vs0mg"},{"bike_id":"986312cf-ab0b-4011-a251-d0642af872f5","system_id":"levelo_inurba_marseille","lat":43.2418,"lon":5.39729,"is_reserved":false,"is_disabled":false,"rental_uris":{"android":"levelo://app?vid=986312cf-ab0b-4011-a251-d0642af872f5","ios":"levelo://app?vid=986312cf-ab0b-4011-a251-d0642af872f5"},"vehicle_type_id":"4","last_reported":1752419361,"current_range_meters":4000,"station_id":"ce4bhn12rcd13ifvqgpg","pricing_plan_id":"cebpf4jnsgd1na2vs0mg"},{"bike_id":"b33949bd-8d29-44e9-b60b-468b9de5c3a0","system_id":"levelo_inurba_marseille","lat":43.21748,"lon":5.34606,"is_reserved":false,"is_disabled":false,"rental_uris":{"android":"levelo://app?vid=b33949bd-8d29-44e9-b60b-468b9de5c3a0","ios":"levelo://app?vid=b33949bd-8d29-44e9-b60b-468b9de5c3a0"},"vehicle_type_id":"4","last_reported":1752419361,"current_range_meters":4000,"station_id":"st_cvj6r9ubvosntc0bgbag","pricing_plan_id":"cebpf4jnsgd1na2vs0mg"},{"bike_id":"2f0ba75c-aff3-43f4-857b-fc7c66f4e426","system_id":"levelo_inurba_marseille","lat":43.309565,"lon":5.39036,"is_reserved":false,"is_disabled":true,"rental_uris":{"android":"levelo://app?vid=2f0ba75c-aff3-43f4-857b-fc7c66f4e426","ios":"levelo://app?vid=2f0ba75c-aff3-43f4-857b-fc7c66f4e426"},"vehicle_type_id":"4","last_reported":1752419361,"current_range_meters":4400,"station_id":"","pricing_plan_id":"cebpf4jnsgd1na2vs0mg"},{"bike_id":"6c5acb26-eb20-4768-a462-292ac9767279","system_id":"levelo_inurba_marseille","lat":43.21751,"lon":5.34611,"is_reserved":false,"is_disabled":false,"rental_uris":{"android":"levelo://app?vid=6c5acb26-eb20-4768-a462-292ac9767279","ios":"levelo://app?vid=6c5acb26-eb20-4768-a462-292ac9767279"},"vehicle_type_id":"4","last_reported":1752419361,"current_range_meters":4800,"station_id":"st_cvj6r9ubvosntc0bgbag","pricing_plan_id":"cebpf4jnsgd1na2vs0mg"},{"bike_id":"e3a75ee9-c614-467b-8cc2-f813bcef2ab1","system_id":"levelo_inurba_marseille","lat":43.33743,"lon":5.3919,"is_reserved":false,"is_disabled":true,"rental_uris":{"android":"levelo://app?vid=e3a75ee9-c614-467b-8cc2-f813bcef2ab1","ios":"levelo://app?vid=e3a75ee9-c614-467b-8cc2-f813bcef2ab1"},"vehicle_type_id":"4","last_reported":1752419361,"current_range_meters":4800,"station_id":"ce4bhr92rcd13ifvqhsg","pricing_plan_id":"cebpf4jnsgd1na2vs0mg"},{"bike_id":"8b7f7b67-f1ca-49b5-8ba7-69ccf7f392da","system_id":"levelo_inurba_marseille","lat":43.27377,"lon":5.36249,"is_reserved":false,"is_disabled":false,"rental_uris":{"android":"levelo://app?vid=8b7f7b67-f1ca-49b5-8ba7-69ccf7f392da","ios":"levelo://app?vid=8b7f7b67-f1ca-49b5-8ba7-69ccf7f392da"},"vehicle_type_id":"4","last_reported":1752419361,"current_range_meters":5600,"station_id":"ce4bhbh2rcd13ifvqeo0","pricing_plan_id":"cebpf4jnsgd1na2vs0mg"},{"bike_id":"69a98ef8-9b4f-490a-b1e7-11ae49fc387b","system_id":"levelo_inurba_marseille","lat":43.21193,"lon":5.35063,"is_reserved":false,"is_disabled":false,"rental_uris":{"android":"levelo://app?vid=69a98ef8-9b4f-490a-b1e7-11ae49fc387b","ios":"levelo://app?vid=69a98ef8-9b4f-490a-b1e7-11ae49fc387b"},"vehicle_type_id":"4","last_reported":1752419361,"current_range_meters":5600,"station_id":"st_cvj6sg6p6f1abm77japg","pricing_plan_id":"cebpf4jnsgd1na2vs0mg"},{"bike_id":"db270320-b592-4335-8d52-a2a189ea2739","system_id":"levelo_inurba_marseille","lat":43.29884,"lon":5.38911,"is_reserved":false,"is_disabled":false,"rental_uris":{"android":"levelo://app?vid=db270320-b592-4335-8d52-a2a189ea2739","ios":"levelo://app?vid=db270320-b592-4335-8d52-a2a189ea2739"},"vehicle_type_id":"4","last_reported":1752419361,"current_range_meters":4800,"station_id":"ce4bh392rcd13ifvqdl0","pricing_plan_id":"cebpf4jnsgd1na2vs0mg"},{"bike_id":"05f24eb2-daa3-4f0e-944e-3b9343d3d36a","system_id":"levelo_inurba_marseille","lat":43.295594,"lon":5.422916,"is_reserved":false,"is_disabled":false,"rental_uris":{"android":"levelo://app?vid=05f24eb2-daa3-4f0e-944e-3b9343d3d36a","ios":"levelo://app?vid=05f24eb2-daa3-4f0e-944e-3b9343d3d36a"},"vehicle_type_id":"4","last_reported":1752419361,"current_range_meters":6000,"station_id":"ce4bhph2rcd13ifvqhdg","pricing_plan_id":"cebpf4jnsgd1na2vs0mg"},{"bike_id":"bbbc7fcc-23bf-46fb-a9b2-f9b8f3f85e98","system_id":"levelo_inurba_marseille","lat":43.25002,"lon":5.3891,"is_reserved":false,"is_disabled":false,"rental_uris":{"android":"levelo://app?vid=bbbc7fcc-23bf-46fb-a9b2-f9b8f3f85e98","ios":"levelo://app?vid=bbbc7fcc-23bf-46fb-a9b2-f9b8f3f85e98"},"vehicle_type_id":"4","last_reported":1752419361,"current_range_meters":6000,"station_id":"ce4bhgp2rcd13ifvqfd0","pricing_plan_id":"cebpf4jnsgd1na2vs0mg"},{"bike_id":"df61839a-7a72-4634-9960-e8ea0d9a8d35","system_id":"levelo_inurba_marseille","lat":43.239474,"lon":5.366089,"is_reserved":false,"is_disabled":true,"rental_uris":{"android":"levelo://app?vid=df61839a-7a72-4634-9960-e8ea0d9a8d35","ios":"levelo://app?vid=df61839a-7a72-4634-9960-e8ea0d9a8d35"},"vehicle_type_id":"4","last_reported":1752419361,"current_range_meters":6000,"station_id":"","pricing_plan_id":"cebpf4jnsgd1na2vs0mg"},{"bike_id":"7dacdb7e-5502-4f41-ab9c-e4f2ace3be51","system_id":"levelo_inurba_marseille","lat":43.29364,"lon":5.378396,"is_reserved":false,"is_disabled":false,"rental_uris":{"android":"levelo://app?vid=7dacdb7e-5502-4f41-ab9c-e4f2ace3be51","ios":"levelo://app?vid=7dacdb7e-5502-4f41-ab9c-e4f2ace3be51"},"vehicle_type_id":"4","last_reported":1752419361,"current_range_meters":6000,"station_id":"ce4bgjh2rcd13ifvqbf0","pricing_plan_id":"cebpf4jnsgd1na2vs0mg"},{"bike_id":"884708cc-4b4b-4d6a-81fd-3047466d64de","system_id":"levelo_inurba_marseille","lat":43.21749,"lon":5.34597,"is_reserved":false,"is_disabled":false,"rental_uris":{"android":"levelo://app?vid=884708cc-4b4b-4d6a-81fd-3047466d64de","ios":"levelo://app?vid=884708cc-4b4b-4d6a-81fd-3047466d64de"},"vehicle_type_id":"4","last_reported":1752419361,"current_range_meters":6400,"station_id":"st_cvj6r9ubvosntc0bgbag","pricing_plan_id":"cebpf4jnsgd1na2vs0mg"},{"bike_id":"877abdda-66c1-434c-be95-9befe2a19698","system_id":"levelo_inurba_marseille","lat":43.28858,"lon":5.39346,"is_reserved":false,"is_disabled":true,"rental_uris":{"android":"levelo://app?vid=877abdda-66c1-434c-be95-9befe2a19698","ios":"levelo://app?vid=877abdda-66c1-434c-be95-9befe2a19698"},"vehicle_type_id":"4","last_reported":1752419361,"current_range_meters":6400,"station_id":"ce4bh2p2rcd13ifvqdi0","pricing_plan_id":"cebpf4jnsgd1na2vs0mg"},{"bike_id":"797cea66-af8d-46ed-9528-80a2d52a1fed","system_id":"levelo_inurba_marseille","lat":43.2175,"lon":5.34597,"is_reserved":false,"is_disabled":false,"rental_uris":{"android":"levelo://app?vid=797cea66-af8d-46ed-9528-80a2d52a1fed","ios":"levelo://app?vid=797cea66-af8d-46ed-9528-80a2d52a1fed"},"vehicle_type_id":"4","last_reported":1752419361,"current_range_meters":6800,"station_id":"st_cvj6r9ubvosntc0bgbag","pricing_plan_id":"cebpf4jnsgd1na2vs0mg"},{"bike_id":"c2988e9d-43c6-459c-88ab-e9b5a67e67da","system_id":"levelo_inurba_marseille","lat":43.27374,"lon":5.36257,"is_reserved":false,"is_disabled":false,"rental_uris":{"android":"levelo://app?vid=c2988e9d-43c6-459c-88ab-e9b5a67e67da","ios":"levelo://app?vid=c2988e9d-43c6-459c-88ab-e9b5a67e67da"},"vehicle_type_id":"4","last_reported":1752419361,"current_range_meters":6800,"station_id":"ce4bhbh2rcd13ifvqeo0","pricing_plan_id":"cebpf4jnsgd1na2vs0mg"},{"bike_id":"8929c1bf-fd4d-44e4-aa66-b3eb6538c998","system_id":"levelo_inurba_marseille","lat":43.28571,"lon":5.42962,"is_reserved":false,"is_disabled":false,"rental_uris":{"android":"levelo://app?vid=8929c1bf-fd4d-44e4-aa66-b3eb6538c998","ios":"levelo://app?vid=8929c1bf-fd4d-44e4-aa66-b3eb6538c998"},"vehicle_type_id":"4","last_reported":1752419361,"current_range_meters":6800,"station_id":"","pricing_plan_id":"cebpf4jnsgd1na2vs0mg"},{"bike_id":"bffcb9b8-f0d2-4bce-947a-729d619957a5","system_id":"levelo_inurba_marseille","lat":43.23431,"lon":5.4127,"is_reserved":false,"is_disabled":false,"rental_uris":{"android":"levelo://app?vid=bffcb9b8-f0d2-4bce-947a-729d619957a5","ios":"levelo://app?vid=bffcb9b8-f0d2-4bce-947a-729d619957a5"},"vehicle_type_id":"4","last_reported":1752419361,"current_range_meters":6800,"station_id":"","pricing_plan_id":"cebpf4jnsgd1na2vs0mg"},{"bike_id":"cb9282c9-0a04-426f-af4a-9dc494a82650","system_id":"levelo_inurba_marseille","lat":43.225,"lon":5.3478,"is_reserved":false,"is_disabled":false,"rental_uris":{"android":"levelo://app?vid=cb9282c9-0a04-426f-af4a-9dc494a82650","ios":"levelo://app?vid=cb9282c9-0a04-426f-af4a-9dc494a82650"},"vehicle_type_id":"4","last_reported":1752419361,"current_range_meters":6800,"station_id":"","pricing_plan_id":"cebpf4jnsgd1na2vs0mg"},{"bike_id":"e6bb6a21-8e3d-40db-a545-02f28e3078d3","system_id":"levelo_inurba_marseille","lat":43.31753,"lon":5.39015,"is_reserved":false,"is_disabled":false,"rental_uris":{"android":"levelo://app?vid=e6bb6a21-8e3d-40db-a545-02f28e3078d3","ios":"levelo://app?vid=e6bb6a21-8e3d-40db-a545-02f28e3078d3"},"vehicle_type_id":"4","last_reported":1752419361,"current_range_meters":7200,"station_id":"ce4bhqp2rcd13ifvqhng","pricing_plan_id":"cebpf4jnsgd1na2vs0mg"},{"bike_id":"15e6f995-8e8c-4a56-9c92-3cfd7fad0a91","system_id":"levelo_inurba_marseille","lat":43.25112,"lon":5.40321,"is_reserved":false,"is_disabled":false,"rental_uris":{"android":"levelo://app?vid=15e6f995-8e8c-4a56-9c92-3cfd7fad0a91","ios":"levelo://app?vid=15e6f995-8e8c-4a56-9c92-3cfd7fad0a91"},"vehicle_type_id":"4","last_reported":1752419361,"current_range_meters":7200,"station_id":"ce4bhlh2rcd13ifvqgig","pricing_plan_id":"cebpf4jnsgd1na2vs0mg"},{"bike_id":"302e5e3e-0082-4acb-b05c-702795c7eb68","system_id":"levelo_inurba_marseille","lat":43.21758,"lon":5.3459,"is_reserved":false,"is_disabled":false,"rental_uris":{"android":"levelo://app?vid=302e5e3e-0082-4acb-b05c-702795c7eb68","ios":"levelo://app?vid=302e5e3e-0082-4acb-b05c-702795c7eb68"},"vehicle_type_id":"4","last_reported":1752419361,"current_range_meters":7200,"station_id":"st_cvj6r9ubvosntc0bgbag","pricing_plan_id":"cebpf4jnsgd1na2vs0mg"},{"bike_id":"dbba3321-20c7-4989-a7b5-ea9ab2c4b3e8","system_id":"levelo_inurba_marseille","lat":43.261935,"lon":5.374477,"is_reserved":false,"is_disabled":true,"rental_uris":{"android":"levelo://app?vid=dbba3321-20c7-4989-a7b5-ea9ab2c4b3e8","ios":"levelo://app?vid=dbba3321-20c7-4989-a7b5-ea9ab2c4b3e8"},"vehicle_type_id":"4","last_reported":1752419361,"current_range_meters":7200,"station_id":"ce4bhgp2rcd13ifvqfc0","pricing_plan_id":"cebpf4jnsgd1na2vs0mg"},{"bike_id":"ee1a4ed1-1a3e-45bc-9f3c-ba4fafbcf087","system_id":"levelo_inurba_marseille","lat":43.26553,"lon":5.37277,"is_reserved":false,"is_disabled":false,"rental_uris":{"android":"levelo://app?vid=ee1a4ed1-1a3e-45bc-9f3c-ba4fafbcf087","ios":"levelo://app?vid=ee1a4ed1-1a3e-45bc-9f3c-ba4fafbcf087"},"vehicle_type_id":"4","last_reported":1752419361,"current_range_meters":8000,"station_id":"ce4bhg12rcd13ifvqf70","pricing_plan_id":"cebpf4jnsgd1na2vs0mg"},{"bike_id":"ae6b9bb3-31c8-4302-91c6-0e6b059eb0f3","system_id":"levelo_inurba_marseille","lat":43.33775,"lon":5.37435,"is_reserved":false,"is_disabled":true,"rental_uris":{"android":"levelo://app?vid=ae6b9bb3-31c8-4302-91c6-0e6b059eb0f3","ios":"levelo://app?vid=ae6b9bb3-31c8-4302-91c6-0e6b059eb0f3"},"vehicle_type_id":"4","last_reported":1752419361,"current_range_meters":8000,"station_id":"","pricing_plan_id":"cebpf4jnsgd1na2vs0mg"},{"bike_id":"989cadc1-b8d5-43b8-aca5-55b69edc9395","system_id":"levelo_inurba_marseille","lat":43.30733,"lon":5.42436,"is_reserved":false,"is_disabled":false,"rental_uris":{"android":"levelo://app?vid=989cadc1-b8d5-43b8-aca5-55b69edc9395","ios":"levelo://app?vid=989cadc1-b8d5-43b8-aca5-55b69edc9395"},"vehicle_type_id":"4","last_reported":1752419361,"current_range_meters":8000,"station_id":"st_cvj6ca6bvosntc0bfgr0","pricing_plan_id":"cebpf4jnsgd1na2vs0mg"},{"bike_id":"5a71ab42-51f6-4d74-8942-e5c8339f2255","system_id":"levelo_inurba_marseille","lat":43.317612,"lon":5.390198,"is_reserved":false,"is_disabled":true,"rental_uris":{"android":"levelo://app?vid=5a71ab42-51f6-4d74-8942-e5c8339f2255","ios":"levelo://app?vid=5a71ab42-51f6-4d74-8942-e5c8339f2255"},"vehicle_type_id":"4","last_reported":1752419361,"current_range_meters":8000,"station_id":"ce4bhqp2rcd13ifvqhng","pricing_plan_id":"cebpf4jnsgd1na2vs0mg"},{"bike_id":"55bc2d10-5532-4c61-b460-5b5f261cd080","system_id":"levelo_inurba_marseille","lat":43.21746,"lon":5.34609,"is_reserved":false,"is_disabled":false,"rental_uris":{"android":"levelo://app?vid=55bc2d10-5532-4c61-b460-5b5f261cd080","ios":"levelo://app?vid=55bc2d10-5532-4c61-b460-5b5f261cd080"},"vehicle_type_id":"4","last_reported":1752419361,"current_range_meters":8000,"station_id":"st_cvj6r9ubvosntc0bgbag","pricing_plan_id":"cebpf4jnsgd1na2vs0mg"},{"bike_id":"fe87f7a0-0c03-4cee-b72d-b5a1483225d9","system_id":"levelo_inurba_marseille","lat":43.2174,"lon":5.34617,"is_reserved":false,"is_disabled":false,"rental_uris":{"android":"levelo://app?vid=fe87f7a0-0c03-4cee-b72d-b5a1483225d9","ios":"levelo://app?vid=fe87f7a0-0c03-4cee-b72d-b5a1483225d9"},"vehicle_type_id":"4","last_reported":1752419361,"current_range_meters":8400,"station_id":"st_cvj6r9ubvosntc0bgbag","pricing_plan_id":"cebpf4jnsgd1na2vs0mg"},{"bike_id":"4e18f6a0-cf0a-4e54-823e-14d073e25d70","system_id":"levelo_inurba_marseille","lat":43.280363,"lon":5.369434,"is_reserved":false,"is_disabled":true,"rental_uris":{"android":"levelo://app?vid=4e18f6a0-cf0a-4e54-823e-14d073e25d70","ios":"levelo://app?vid=4e18f6a0-cf0a-4e54-823e-14d073e25d70"},"vehicle_type_id":"4","last_reported":1752419361,"current_range_meters":8400,"station_id":"ce4bha12rcd13ifvqef0","pricing_plan_id":"cebpf4jnsgd1na2vs0mg"},{"bike_id":"cd0092c2-33b9-4d78-bf56-b2d0ada460a7","system_id":"levelo_inurba_marseille","lat":43.28029,"lon":5.36936,"is_reserved":false,"is_disabled":false,"rental_uris":{"android":"levelo://app?vid=cd0092c2-33b9-4d78-bf56-b2d0ada460a7","ios":"levelo://app?vid=cd0092c2-33b9-4d78-bf56-b2d0ada460a7"},"vehicle_type_id":"4","last_reported":1752419361,"current_range_meters":8800,"station_id":"ce4bha12rcd13ifvqef0","pricing_plan_id":"cebpf4jnsgd1na2vs0mg"},{"bike_id":"5f70c285-2093-41fa-a12d-dfd6a38e0a30","system_id":"levelo_inurba_marseille","lat":43.21759,"lon":5.346,"is_reserved":false,"is_disabled":false,"rental_uris":{"android":"levelo://app?vid=5f70c285-2093-41fa-a12d-dfd6a38e0a30","ios":"levelo://app?vid=5f70c285-2093-41fa-a12d-dfd6a38e0a30"},"vehicle_type_id":"4","last_reported":1752419361,"current_range_meters":8800,"station_id":"st_cvj6r9ubvosntc0bgbag","pricing_plan_id":"cebpf4jnsgd1na2vs0mg"},{"bike_id":"696aca5a-f985-42f2-b5f7-74ca3a442dcb","system_id":"levelo_inurba_marseille","lat":43.30914,"lon":5.37162,"is_reserved":false,"is_disabled":false,"rental_uris":{"android":"levelo://app?vid=696aca5a-f985-42f2-b5f7-74ca3a442dcb","ios":"levelo://app?vid=696aca5a-f985-42f2-b5f7-74ca3a442dcb"},"vehicle_type_id":"4","last_reported":1752419361,"current_range_meters":8800,"station_id":"ce4bguh2rcd13ifvqckg","pricing_plan_id":"cebpf4jnsgd1na2vs0mg"},{"bike_id":"5fbd49a3-74ad-438a-bacb-674cdac3b67c","system_id":"levelo_inurba_marseille","lat":43.281526,"lon":5.426423,"is_reserved":false,"is_disabled":false,"rental_uris":{"android":"levelo://app?vid=5fbd49a3-74ad-438a-bacb-674cdac3b67c","ios":"levelo://app?vid=5fbd49a3-74ad-438a-bacb-674cdac3b67c"},"vehicle_type_id":"4","last_reported":1752419361,"current_range_meters":8800,"station_id":"ce4bhnh2rcd13ifvqgug","pricing_plan_id":"cebpf4jnsgd1na2vs0mg"},{"bike_id":"f34d1e0e-cbfc-4adb-bb88-19bc20a9a3f3","system_id":"levelo_inurba_marseille","lat":43.32116,"lon":5.36774,"is_reserved":false,"is_disabled":false,"rental_uris":{"android":"levelo://app?vid=f34d1e0e-cbfc-4adb-bb88-19bc20a9a3f3","ios":"levelo://app?vid=f34d1e0e-cbfc-4adb-bb88-19bc20a9a3f3"},"vehicle_type_id":"4","last_reported":1752419361,"current_range_meters":9200,"station_id":"ce4bhrh2rcd13ifvqhug","pricing_plan_id":"cebpf4jnsgd1na2vs0mg"},{"bike_id":"ee5338dd-18a1-4b48-a5b0-f8c72f7b1319","system_id":"levelo_inurba_marseille","lat":43.31901,"lon":5.36782,"is_reserved":false,"is_disabled":false,"rental_uris":{"android":"levelo://app?vid=ee5338dd-18a1-4b48-a5b0-f8c72f7b1319","ios":"levelo://app?vid=ee5338dd-18a1-4b48-a5b0-f8c72f7b1319"},"vehicle_type_id":"4","last_reported":1752419361,"current_range_meters":9200,"station_id":"","pricing_plan_id":"cebpf4jnsgd1na2vs0mg"},{"bike_id":"f3fc1940-d1b6-452e-ba7c-a6e66083eeab","system_id":"levelo_inurba_marseille","lat":43.227855,"lon":5.3525,"is_reserved":false,"is_disabled":false,"rental_uris":{"android":"levelo://app?vid=f3fc1940-d1b6-452e-ba7c-a6e66083eeab","ios":"levelo://app?vid=f3fc1940-d1b6-452e-ba7c-a6e66083eeab"},"vehicle_type_id":"4","last_reported":1752419361,"current_range_meters":9200,"station_id":"","pricing_plan_id":"cebpf4jnsgd1na2vs0mg"},{"bike_id":"89ba9824-7e9c-4c5c-8f21-7c2856899333","system_id":"levelo_inurba_marseille","lat":43.29507,"lon":5.37521,"is_reserved":false,"is_disabled":false,"rental_uris":{"android":"levelo://app?vid=89ba9824-7e9c-4c5c-8f21-7c2856899333","ios":"levelo://app?vid=89ba9824-7e9c-4c5c-8f21-7c2856899333"},"vehicle_type_id":"4","last_reported":1752419361,"current_range_meters":9200,"station_id":"ce4bgkp2rcd13ifvqbmg","pricing_plan_id":"cebpf4jnsgd1na2vs0mg"},{"bike_id":"ca1082fd-43d7-4729-ae45-e2a470c6f7d5","system_id":"levelo_inurba_marseille","lat":43.29249,"lon":5.38434,"is_reserved":false,"is_disabled":false,"rental_uris":{"android":"levelo://app?vid=ca1082fd-43d7-4729-ae45-e2a470c6f7d5","ios":"levelo://app?vid=ca1082fd-43d7-4729-ae45-e2a470c6f7d5"},"vehicle_type_id":"4","last_reported":1752419361,"current_range_meters":9200,"station_id":"ce4bh692rcd13ifvqea0","pricing_plan_id":"cebpf4jnsgd1na2vs0mg"},{"bike_id":"20cfa783-8916-4a8c-941f-612ad11aee6e","system_id":"levelo_inurba_marseille","lat":43.23176,"lon":5.40002,"is_reserved":false,"is_disabled":false,"rental_uris":{"android":"levelo://app?vid=20cfa783-8916-4a8c-941f-612ad11aee6e","ios":"levelo://app?vid=20cfa783-8916-4a8c-941f-612ad11aee6e"},"vehicle_type_id":"4","last_reported":1752419361,"current_range_meters":9200,"station_id":"ce4bhn12rcd13ifvqgqg","pricing_plan_id":"cebpf4jnsgd1na2vs0mg"},{"bike_id":"d5e129e3-707c-4b79-a8c0-87b29b485229","system_id":"levelo_inurba_marseille","lat":43.21741,"lon":5.346,"is_reserved":false,"is_disabled":false,"rental_uris":{"android":"levelo://app?vid=d5e129e3-707c-4b79-a8c0-87b29b485229","ios":"levelo://app?vid=d5e129e3-707c-4b79-a8c0-87b29b485229"},"vehicle_type_id":"4","last_reported":1752419361,"current_range_meters":9200,"station_id":"st_cvj6r9ubvosntc0bgbag","pricing_plan_id":"cebpf4jnsgd1na2vs0mg"},{"bike_id":"fdf41f87-deb0-46b3-9de1-6dd73b263487","system_id":"levelo_inurba_marseille","lat":43.254926,"lon":5.37647,"is_reserved":false,"is_disabled":true,"rental_uris":{"android":"levelo://app?vid=fdf41f87-deb0-46b3-9de1-6dd73b263487","ios":"levelo://app?vid=fdf41f87-deb0-46b3-9de1-6dd73b263487"},"vehicle_type_id":"4","last_reported":1752419361,"current_range_meters":9600,"station_id":"ce4bhh12rcd13ifvqff0","pricing_plan_id":"cebpf4jnsgd1na2vs0mg"},{"bike_id":"96d54fdb-5835-4cd8-9827-093c0b08e4ca","system_id":"levelo_inurba_marseille","lat":43.211947,"lon":5.350725,"is_reserved":false,"is_disabled":false,"rental_uris":{"android":"levelo://app?vid=96d54fdb-5835-4cd8-9827-093c0b08e4ca","ios":"levelo://app?vid=96d54fdb-5835-4cd8-9827-093c0b08e4ca"},"vehicle_type_id":"4","last_reported":1752419361,"current_range_meters":9600,"station_id":"st_cvj6sg6p6f1abm77japg","pricing_plan_id":"cebpf4jnsgd1na2vs0mg"},{"bike_id":"470d1e9d-8c05-40b8-a6b2-039f183b9f6a","system_id":"levelo_inurba_marseille","lat":43.231908,"lon":5.355514,"is_reserved":false,"is_disabled":true,"rental_uris":{"android":"levelo://app?vid=470d1e9d-8c05-40b8-a6b2-039f183b9f6a","ios":"levelo://app?vid=470d1e9d-8c05-40b8-a6b2-039f183b9f6a"},"vehicle_type_id":"4","last_reported":1752419361,"current_range_meters":9600,"station_id":"ce4bhu92rcd13ifvqi70","pricing_plan_id":"cebpf4jnsgd1na2vs0mg"},{"bike_id":"7f02047d-a6cd-43f4-a617-996f2b9a8bc8","system_id":"levelo_inurba_marseille","lat":43.32394,"lon":5.36755,"is_reserved":false,"is_disabled":false,"rental_uris":{"android":"levelo://app?vid=7f02047d-a6cd-43f4-a617-996f2b9a8bc8","ios":"levelo://app?vid=7f02047d-a6cd-43f4-a617-996f2b9a8bc8"},"vehicle_type_id":"4","last_reported":1752419361,"current_range_meters":10000,"station_id":"","pricing_plan_id":"cebpf4jnsgd1na2vs0mg"},{"bike_id":"d8b7af91-d035-47ef-81a8-b871b77bd9d4","system_id":"levelo_inurba_marseille","lat":43.299,"lon":5.43669,"is_reserved":false,"is_disabled":false,"rental_uris":{"android":"levelo://app?vid=d8b7af91-d035-47ef-81a8-b871b77bd9d4","ios":"levelo://app?vid=d8b7af91-d035-47ef-81a8-b871b77bd9d4"},"vehicle_type_id":"4","last_reported":1752419361,"current_range_meters":10000,"station_id":"ce4bhpp2rcd13ifvqhfg","pricing_plan_id":"cebpf4jnsgd1na2vs0mg"},{"bike_id":"1bfa1b76-fa6d-4cdd-aff5-612b86c512c4","system_id":"levelo_inurba_marseille","lat":43.26564,"lon":5.39027,"is_reserved":false,"is_disabled":true,"rental_uris":{"android":"levelo://app?vid=1bfa1b76-fa6d-4cdd-aff5-612b86c512c4","ios":"levelo://app?vid=1bfa1b76-fa6d-4cdd-aff5-612b86c512c4"},"vehicle_type_id":"4","last_reported":1752419361,"current_range_meters":10000,"station_id":"ce4bhe12rcd13ifvqf30","pricing_plan_id":"cebpf4jnsgd1na2vs0mg"},{"bike_id":"383a2485-518e-4235-b1cd-0ebf65ba74a5","system_id":"levelo_inurba_marseille","lat":43.29542,"lon":5.38542,"is_reserved":false,"is_disabled":true,"rental_uris":{"android":"levelo://app?vid=383a2485-518e-4235-b1cd-0ebf65ba74a5","ios":"levelo://app?vid=383a2485-518e-4235-b1cd-0ebf65ba74a5"},"vehicle_type_id":"4","last_reported":1752419361,"current_range_meters":10000,"station_id":"ce4bgih2rcd13ifvqba0","pricing_plan_id":"cebpf4jnsgd1na2vs0mg"},{"bike_id":"d637ae5f-571c-459a-aaca-024a76531440","system_id":"levelo_inurba_marseille","lat":43.21739,"lon":5.34593,"is_reserved":false,"is_disabled":false,"rental_uris":{"android":"levelo://app?vid=d637ae5f-571c-459a-aaca-024a76531440","ios":"levelo://app?vid=d637ae5f-571c-459a-aaca-024a76531440"},"vehicle_type_id":"4","last_reported":1752419361,"current_range_meters":10000,"station_id":"st_cvj6r9ubvosntc0bgbag","pricing_plan_id":"cebpf4jnsgd1na2vs0mg"},{"bike_id":"d02eccce-5206-4914-b98c-f6db2563ae64","system_id":"levelo_inurba_marseille","lat":43.27919,"lon":5.39574,"is_reserved":false,"is_disabled":false,"rental_uris":{"android":"levelo://app?vid=d02eccce-5206-4914-b98c-f6db2563ae64","ios":"levelo://app?vid=d02eccce-5206-4914-b98c-f6db2563ae64"},"vehicle_type_id":"4","last_reported":1752419361,"current_range_meters":10000,"station_id":"ce4bhf92rcd13ifvqf40","pricing_plan_id":"cebpf4jnsgd1na2vs0mg"},{"bike_id":"46ce7424-8151-41ba-a046-0c68273c2c8e","system_id":"levelo_inurba_marseille","lat":43.29254,"lon":5.36576,"is_reserved":false,"is_disabled":false,"rental_uris":{"android":"levelo://app?vid=46ce7424-8151-41ba-a046-0c68273c2c8e","ios":"levelo://app?vid=46ce7424-8151-41ba-a046-0c68273c2c8e"},"vehicle_type_id":"4","last_reported":1752419361,"current_range_meters":10800,"station_id":"","pricing_plan_id":"cebpf4jnsgd1na2vs0mg"},{"bike_id":"424ee1f0-5af5-4627-adb8-17dff3609e10","system_id":"levelo_inurba_marseille","lat":43.25,"lon":5.3893,"is_reserved":false,"is_disabled":false,"rental_uris":{"android":"levelo://app?vid=424ee1f0-5af5-4627-adb8-17dff3609e10","ios":"levelo://app?vid=424ee1f0-5af5-4627-adb8-17dff3609e10"},"vehicle_type_id":"4","last_reported":1752419361,"current_range_meters":10800,"station_id":"ce4bhgp2rcd13ifvqfd0","pricing_plan_id":"cebpf4jnsgd1na2vs0mg"},{"bike_id":"eb7975fb-da4e-4e93-bd7c-1be172bc728f","system_id":"levelo_inurba_marseille","lat":43.293071,"lon":5.371835,"is_reserved":false,"is_disabled":false,"rental_uris":{"android":"levelo://app?vid=eb7975fb-da4e-4e93-bd7c-1be172bc728f","ios":"levelo://app?vid=eb7975fb-da4e-4e93-bd7c-1be172bc728f"},"vehicle_type_id":"4","last_reported":1752419361,"current_range_meters":10800,"station_id":"ce4bgh92rcd13ifvqb40","pricing_plan_id":"cebpf4jnsgd1na2vs0mg"},{"bike_id":"49801dc2-618a-44b8-84ae-416cd87fdbe9","system_id":"levelo_inurba_marseille","lat":43.33764,"lon":5.37497,"is_reserved":false,"is_disabled":false,"rental_uris":{"android":"levelo://app?vid=49801dc2-618a-44b8-84ae-416cd87fdbe9","ios":"levelo://app?vid=49801dc2-618a-44b8-84ae-416cd87fdbe9"},"vehicle_type_id":"4","last_reported":1752419361,"current_range_meters":10800,"station_id":"","pricing_plan_id":"cebpf4jnsgd1na2vs0mg"},{"bike_id":"84761d97-9b88-4141-8a33-ed6b0e0263fe","system_id":"levelo_inurba_marseille","lat":43.2623,"lon":5.40451,"is_reserved":false,"is_disabled":false,"rental_uris":{"android":"levelo://app?vid=84761d97-9b88-4141-8a33-ed6b0e0263fe","ios":"levelo://app?vid=84761d97-9b88-4141-8a33-ed6b0e0263fe"},"vehicle_type_id":"4","last_reported":1752419361,"current_range_meters":11200,"station_id":"ce4bhmh2rcd13ifvqgmg","pricing_plan_id":"cebpf4jnsgd1na2vs0mg"},{"bike_id":"31f76825-7b9f-439a-a66c-521eb63e58c1","system_id":"levelo_inurba_marseille","lat":43.2947,"lon":5.4384,"is_reserved":false,"is_disabled":false,"rental_uris":{"android":"levelo://app?vid=31f76825-7b9f-439a-a66c-521eb63e58c1","ios":"levelo://app?vid=31f76825-7b9f-439a-a66c-521eb63e58c1"},"vehicle_type_id":"4","last_reported":1752419361,"current_range_meters":11200,"station_id":"","pricing_plan_id":"cebpf4jnsgd1na2vs0mg"},{"bike_id":"5a3a1ef2-d124-4aa4-b270-092a82c51822","system_id":"levelo_inurba_marseille","lat":43.29265,"lon":5.38442,"is_reserved":false,"is_disabled":false,"rental_uris":{"android":"levelo://app?vid=5a3a1ef2-d124-4aa4-b270-092a82c51822","ios":"levelo://app?vid=5a3a1ef2-d124-4aa4-b270-092a82c51822"},"vehicle_type_id":"4","last_reported":1752419361,"current_range_meters":11600,"station_id":"","pricing_plan_id":"cebpf4jnsgd1na2vs0mg"},{"bike_id":"4ab460f6-2b13-462f-a8b8-8ee3ec6489ea","system_id":"levelo_inurba_marseille","lat":43.26225,"lon":5.404598,"is_reserved":false,"is_disabled":false,"rental_uris":{"android":"levelo://app?vid=4ab460f6-2b13-462f-a8b8-8ee3ec6489ea","ios":"levelo://app?vid=4ab460f6-2b13-462f-a8b8-8ee3ec6489ea"},"vehicle_type_id":"4","last_reported":1752419361,"current_range_meters":11600,"station_id":"ce4bhmh2rcd13ifvqgmg","pricing_plan_id":"cebpf4jnsgd1na2vs0mg"},{"bike_id":"63063a21-aa23-4fc4-91ac-0a58f2ad7b79","system_id":"levelo_inurba_marseille","lat":43.30546,"lon":5.36547,"is_reserved":false,"is_disabled":false,"rental_uris":{"android":"levelo://app?vid=63063a21-aa23-4fc4-91ac-0a58f2ad7b79","ios":"levelo://app?vid=63063a21-aa23-4fc4-91ac-0a58f2ad7b79"},"vehicle_type_id":"4","last_reported":1752419361,"current_range_meters":11600,"station_id":"ce4bgs12rcd13ifvqcag","pricing_plan_id":"cebpf4jnsgd1na2vs0mg"},{"bike_id":"dbdb1dc9-8736-4c45-b7ed-40cf8d715073","system_id":"levelo_inurba_marseille","lat":43.28489,"lon":5.38555,"is_reserved":false,"is_disabled":false,"rental_uris":{"android":"levelo://app?vid=dbdb1dc9-8736-4c45-b7ed-40cf8d715073","ios":"levelo://app?vid=dbdb1dc9-8736-4c45-b7ed-40cf8d715073"},"vehicle_type_id":"4","last_reported":1752419361,"current_range_meters":11600,"station_id":"ce4bh8p2rcd13ifvqeb0","pricing_plan_id":"cebpf4jnsgd1na2vs0mg"},{"bike_id":"f70d4eb7-0483-4b22-b4af-6857c0805839","system_id":"levelo_inurba_marseille","lat":43.29924,"lon":5.38109,"is_reserved":false,"is_disabled":true,"rental_uris":{"android":"levelo://app?vid=f70d4eb7-0483-4b22-b4af-6857c0805839","ios":"levelo://app?vid=f70d4eb7-0483-4b22-b4af-6857c0805839"},"vehicle_type_id":"4","last_reported":1752419361,"current_range_meters":12000,"station_id":"ce4bgj12rcd13ifvqbc0","pricing_plan_id":"cebpf4jnsgd1na2vs0mg"},{"bike_id":"8b37f03f-f226-4bbc-8648-b109da7ba145","system_id":"levelo_inurba_marseille","lat":43.30536,"lon":5.366999,"is_reserved":false,"is_disabled":false,"rental_uris":{"android":"levelo://app?vid=8b37f03f-f226-4bbc-8648-b109da7ba145","ios":"levelo://app?vid=8b37f03f-f226-4bbc-8648-b109da7ba145"},"vehicle_type_id":"4","last_reported":1752419361,"current_range_meters":12000,"station_id":"","pricing_plan_id":"cebpf4jnsgd1na2vs0mg"},{"bike_id":"96d83a9f-21d9-4f35-b054-ba6b7b3cbd29","system_id":"levelo_inurba_marseille","lat":43.27379,"lon":5.36254,"is_reserved":false,"is_disabled":false,"rental_uris":{"android":"levelo://app?vid=96d83a9f-21d9-4f35-b054-ba6b7b3cbd29","ios":"levelo://app?vid=96d83a9f-21d9-4f35-b054-ba6b7b3cbd29"},"vehicle_type_id":"4","last_reported":1752419361,"current_range_meters":12000,"station_id":"ce4bhbh2rcd13ifvqeo0","pricing_plan_id":"cebpf4jnsgd1na2vs0mg"},{"bike_id":"71294ce5-41af-44e5-92e9-99caf114a8fe","system_id":"levelo_inurba_marseille","lat":43.28671,"lon":5.38672,"is_reserved":false,"is_disabled":false,"rental_uris":{"android":"levelo://app?vid=71294ce5-41af-44e5-92e9-99caf114a8fe","ios":"levelo://app?vid=71294ce5-41af-44e5-92e9-99caf114a8fe"},"vehicle_type_id":"4","last_reported":1752419361,"current_range_meters":12000,"station_id":"ce4bh492rcd13ifvqdug","pricing_plan_id":"cebpf4jnsgd1na2vs0mg"},{"bike_id":"9a72d1fd-ba0d-40b8-85c2-0a32bee82c5a","system_id":"levelo_inurba_marseille","lat":43.28587,"lon":5.40233,"is_reserved":false,"is_disabled":false,"rental_uris":{"android":"levelo://app?vid=9a72d1fd-ba0d-40b8-85c2-0a32bee82c5a","ios":"levelo://app?vid=9a72d1fd-ba0d-40b8-85c2-0a32bee82c5a"},"vehicle_type_id":"4","last_reported":1752419361,"current_range_meters":12000,"station_id":"","pricing_plan_id":"cebpf4jnsgd1na2vs0mg"},{"bike_id":"7a888645-4b0c-4379-98d8-380a5347b74c","system_id":"levelo_inurba_marseille","lat":43.27395,"lon":5.36255,"is_reserved":false,"is_disabled":true,"rental_uris":{"android":"levelo://app?vid=7a888645-4b0c-4379-98d8-380a5347b74c","ios":"levelo://app?vid=7a888645-4b0c-4379-98d8-380a5347b74c"},"vehicle_type_id":"4","last_reported":1752419361,"current_range_meters":12400,"station_id":"ce4bhbh2rcd13ifvqeo0","pricing_plan_id":"cebpf4jnsgd1na2vs0mg"},{"bike_id":"b1d1be1a-43f7-4128-a41f-1219081bd410","system_id":"levelo_inurba_marseille","lat":43.25004,"lon":5.38914,"is_reserved":false,"is_disabled":false,"rental_uris":{"android":"levelo://app?vid=b1d1be1a-43f7-4128-a41f-1219081bd410","ios":"levelo://app?vid=b1d1be1a-43f7-4128-a41f-1219081bd410"},"vehicle_type_id":"4","last_reported":1752419361,"current_range_meters":12400,"station_id":"ce4bhgp2rcd13ifvqfd0","pricing_plan_id":"cebpf4jnsgd1na2vs0mg"},{"bike_id":"b84dbfc7-2d25-4578-829d-745323564b25","system_id":"levelo_inurba_marseille","lat":43.29267,"lon":5.38439,"is_reserved":false,"is_disabled":false,"rental_uris":{"android":"levelo://app?vid=b84dbfc7-2d25-4578-829d-745323564b25","ios":"levelo://app?vid=b84dbfc7-2d25-4578-829d-745323564b25"},"vehicle_type_id":"4","last_reported":1752419361,"current_range_meters":12400,"station_id":"ce4bh692rcd13ifvqea0","pricing_plan_id":"cebpf4jnsgd1na2vs0mg"},{"bike_id":"d4f8bc5f-a298-4f84-81ba-1ff409ff2e35","system_id":"levelo_inurba_marseille","lat":43.31712,"lon":5.43704,"is_reserved":false,"is_disabled":false,"rental_uris":{"android":"levelo://app?vid=d4f8bc5f-a298-4f84-81ba-1ff409ff2e35","ios":"levelo://app?vid=d4f8bc5f-a298-4f84-81ba-1ff409ff2e35"},"vehicle_type_id":"4","last_reported":1752419361,"current_range_meters":12400,"station_id":"ce4bhp92rcd13ifvqhcg","pricing_plan_id":"cebpf4jnsgd1na2vs0mg"},{"bike_id":"f23760ff-ab61-4853-aa67-28aac93822c1","system_id":"levelo_inurba_marseille","lat":43.337444,"lon":5.374475,"is_reserved":false,"is_disabled":false,"rental_uris":{"android":"levelo://app?vid=f23760ff-ab61-4853-aa67-28aac93822c1","ios":"levelo://app?vid=f23760ff-ab61-4853-aa67-28aac93822c1"},"vehicle_type_id":"4","last_reported":1752419361,"current_range_meters":12400,"station_id":"","pricing_plan_id":"cebpf4jnsgd1na2vs0mg"},{"bike_id":"f17c947a-8a1b-42b0-a3d6-60286dc16ad2","system_id":"levelo_inurba_marseille","lat":43.241736,"lon":5.3641,"is_reserved":false,"is_disabled":false,"rental_uris":{"android":"levelo://app?vid=f17c947a-8a1b-42b0-a3d6-60286dc16ad2","ios":"levelo://app?vid=f17c947a-8a1b-42b0-a3d6-60286dc16ad2"},"vehicle_type_id":"4","last_reported":1752419361,"current_range_meters":12800,"station_id":"cpo36qri1sfpv3e86is0","pricing_plan_id":"cebpf4jnsgd1na2vs0mg"},{"bike_id":"6d3f299a-d341-49bc-a1f9-7534528d9b67","system_id":"levelo_inurba_marseille","lat":43.23197,"lon":5.35578,"is_reserved":false,"is_disabled":false,"rental_uris":{"android":"levelo://app?vid=6d3f299a-d341-49bc-a1f9-7534528d9b67","ios":"levelo://app?vid=6d3f299a-d341-49bc-a1f9-7534528d9b67"},"vehicle_type_id":"4","last_reported":1752419361,"current_range_meters":12800,"station_id":"ce4bhu92rcd13ifvqi70","pricing_plan_id":"cebpf4jnsgd1na2vs0mg"},{"bike_id":"a9fdbaa4-73a3-41f7-88d8-aa2afa099b0e","system_id":"levelo_inurba_marseille","lat":43.28663,"lon":5.38683,"is_reserved":false,"is_disabled":false,"rental_uris":{"android":"levelo://app?vid=a9fdbaa4-73a3-41f7-88d8-aa2afa099b0e","ios":"levelo://app?vid=a9fdbaa4-73a3-41f7-88d8-aa2afa099b0e"},"vehicle_type_id":"4","last_reported":1752419361,"current_range_meters":12800,"station_id":"ce4bh492rcd13ifvqdug","pricing_plan_id":"cebpf4jnsgd1na2vs0mg"},{"bike_id":"1246340e-7ba7-4d4f-989b-650db36f2055","system_id":"levelo_inurba_marseille","lat":43.29606,"lon":5.42329,"is_reserved":false,"is_disabled":false,"rental_uris":{"android":"levelo://app?vid=1246340e-7ba7-4d4f-989b-650db36f2055","ios":"levelo://app?vid=1246340e-7ba7-4d4f-989b-650db36f2055"},"vehicle_type_id":"4","last_reported":1752419361,"current_range_meters":12800,"station_id":"","pricing_plan_id":"cebpf4jnsgd1na2vs0mg"},{"bike_id":"f0f1c0dc-74da-4fca-b28a-9600cee2ba1c","system_id":"levelo_inurba_marseille","lat":43.284119,"lon":5.349826,"is_reserved":false,"is_disabled":false,"rental_uris":{"android":"levelo://app?vid=f0f1c0dc-74da-4fca-b28a-9600cee2ba1c","ios":"levelo://app?vid=f0f1c0dc-74da-4fca-b28a-9600cee2ba1c"},"vehicle_type_id":"4","last_reported":1752419361,"current_range_meters":13600,"station_id":"ce4bhbh2rcd13ifvqepg","pricing_plan_id":"cebpf4jnsgd1na2vs0mg"},{"bike_id":"7d797a69-8fb5-4129-b4c4-6b21bf0fa3be","system_id":"levelo_inurba_marseille","lat":43.27364,"lon":5.362593,"is_reserved":false,"is_disabled":false,"rental_uris":{"android":"levelo://app?vid=7d797a69-8fb5-4129-b4c4-6b21bf0fa3be","ios":"levelo://app?vid=7d797a69-8fb5-4129-b4c4-6b21bf0fa3be"},"vehicle_type_id":"4","last_reported":1752419361,"current_range_meters":13600,"station_id":"ce4bhbh2rcd13ifvqeo0","pricing_plan_id":"cebpf4jnsgd1na2vs0mg"},{"bike_id":"4035a629-fc98-43bf-bb41-6efc5ed38ae5","system_id":"levelo_inurba_marseille","lat":43.28036,"lon":5.36948,"is_reserved":false,"is_disabled":false,"rental_uris":{"android":"levelo://app?vid=4035a629-fc98-43bf-bb41-6efc5ed38ae5","ios":"levelo://app?vid=4035a629-fc98-43bf-bb41-6efc5ed38ae5"},"vehicle_type_id":"4","last_reported":1752419361,"current_range_meters":12800,"station_id":"ce4bha12rcd13ifvqef0","pricing_plan_id":"cebpf4jnsgd1na2vs0mg"},{"bike_id":"845a1a35-531a-4ceb-9ee6-b384627a4697","system_id":"levelo_inurba_marseille","lat":43.24164,"lon":5.36397,"is_reserved":false,"is_disabled":false,"rental_uris":{"android":"levelo://app?vid=845a1a35-531a-4ceb-9ee6-b384627a4697","ios":"levelo://app?vid=845a1a35-531a-4ceb-9ee6-b384627a4697"},"vehicle_type_id":"4","last_reported":1752419361,"current_range_meters":13600,"station_id":"cpo36qri1sfpv3e86is0","pricing_plan_id":"cebpf4jnsgd1na2vs0mg"},{"bike_id":"e2ce6e8a-ef9f-4211-8776-042780e4931d","system_id":"levelo_inurba_marseille","lat":43.28445,"lon":5.34981,"is_reserved":false,"is_disabled":true,"rental_uris":{"android":"levelo://app?vid=e2ce6e8a-ef9f-4211-8776-042780e4931d","ios":"levelo://app?vid=e2ce6e8a-ef9f-4211-8776-042780e4931d"},"vehicle_type_id":"4","last_reported":1752419361,"current_range_meters":13600,"station_id":"ce4bhbh2rcd13ifvqepg","pricing_plan_id":"cebpf4jnsgd1na2vs0mg"},{"bike_id":"335724c2-ae52-49a8-9891-67477ca225fd","system_id":"levelo_inurba_marseille","lat":43.22512,"lon":5.34775,"is_reserved":false,"is_disabled":false,"rental_uris":{"android":"levelo://app?vid=335724c2-ae52-49a8-9891-67477ca225fd","ios":"levelo://app?vid=335724c2-ae52-49a8-9891-67477ca225fd"},"vehicle_type_id":"4","last_reported":1752419361,"current_range_meters":13600,"station_id":"st_cvj5dfep6f1abm77gieg","pricing_plan_id":"cebpf4jnsgd1na2vs0mg"},{"bike_id":"afa7c47d-a9b4-42dc-8653-c4c76b3d52ec","system_id":"levelo_inurba_marseille","lat":43.28279,"lon":5.35076,"is_reserved":false,"is_disabled":false,"rental_uris":{"android":"levelo://app?vid=afa7c47d-a9b4-42dc-8653-c4c76b3d52ec","ios":"levelo://app?vid=afa7c47d-a9b4-42dc-8653-c4c76b3d52ec"},"vehicle_type_id":"4","last_reported":1752419361,"current_range_meters":14000,"station_id":"ce4bhbp2rcd13ifvqerg","pricing_plan_id":"cebpf4jnsgd1na2vs0mg"},{"bike_id":"60c42018-923c-4a3b-86e7-b2497a7bd9f5","system_id":"levelo_inurba_marseille","lat":43.23231,"lon":5.35583,"is_reserved":false,"is_disabled":false,"rental_uris":{"android":"levelo://app?vid=60c42018-923c-4a3b-86e7-b2497a7bd9f5","ios":"levelo://app?vid=60c42018-923c-4a3b-86e7-b2497a7bd9f5"},"vehicle_type_id":"4","last_reported":1752419361,"current_range_meters":14000,"station_id":"ce4bhu92rcd13ifvqi70","pricing_plan_id":"cebpf4jnsgd1na2vs0mg"},{"bike_id":"a44f68aa-b920-4eb6-845e-df1183944a6b","system_id":"levelo_inurba_marseille","lat":43.285703,"lon":5.350615,"is_reserved":false,"is_disabled":true,"rental_uris":{"android":"levelo://app?vid=a44f68aa-b920-4eb6-845e-df1183944a6b","ios":"levelo://app?vid=a44f68aa-b920-4eb6-845e-df1183944a6b"},"vehicle_type_id":"4","last_reported":1752419361,"current_range_meters":14000,"station_id":"","pricing_plan_id":"cebpf4jnsgd1na2vs0mg"},{"bike_id":"e19d40f7-28bd-40f0-92fa-25f0e70e5535","system_id":"levelo_inurba_marseille","lat":43.25497,"lon":5.37651,"is_reserved":false,"is_disabled":false,"rental_uris":{"android":"levelo://app?vid=e19d40f7-28bd-40f0-92fa-25f0e70e5535","ios":"levelo://app?vid=e19d40f7-28bd-40f0-92fa-25f0e70e5535"},"vehicle_type_id":"4","last_reported":1752419361,"current_range_meters":14000,"station_id":"ce4bhh12rcd13ifvqff0","pricing_plan_id":"cebpf4jnsgd1na2vs0mg"},{"bike_id":"59bd944e-8158-4d03-98d6-e97af0707782","system_id":"levelo_inurba_marseille","lat":43.211936,"lon":5.350711,"is_reserved":false,"is_disabled":false,"rental_uris":{"android":"levelo://app?vid=59bd944e-8158-4d03-98d6-e97af0707782","ios":"levelo://app?vid=59bd944e-8158-4d03-98d6-e97af0707782"},"vehicle_type_id":"4","last_reported":1752419361,"current_range_meters":14000,"station_id":"st_cvj6sg6p6f1abm77japg","pricing_plan_id":"cebpf4jnsgd1na2vs0mg"},{"bike_id":"33f66774-263d-42f8-bb82-9caf112c53e0","system_id":"levelo_inurba_marseille","lat":43.28416,"lon":5.34978,"is_reserved":false,"is_disabled":false,"rental_uris":{"android":"levelo://app?vid=33f66774-263d-42f8-bb82-9caf112c53e0","ios":"levelo://app?vid=33f66774-263d-42f8-bb82-9caf112c53e0"},"vehicle_type_id":"4","last_reported":1752419361,"current_range_meters":14400,"station_id":"ce4bhbh2rcd13ifvqepg","pricing_plan_id":"cebpf4jnsgd1na2vs0mg"},{"bike_id":"d9d63d91-160d-42d0-b9c6-42c216f308c7","system_id":"levelo_inurba_marseille","lat":43.30387,"lon":5.42477,"is_reserved":false,"is_disabled":false,"rental_uris":{"android":"levelo://app?vid=d9d63d91-160d-42d0-b9c6-42c216f308c7","ios":"levelo://app?vid=d9d63d91-160d-42d0-b9c6-42c216f308c7"},"vehicle_type_id":"4","last_reported":1752419361,"current_range_meters":14400,"station_id":"ce4bhoh2rcd13ifvqh6g","pricing_plan_id":"cebpf4jnsgd1na2vs0mg"},{"bike_id":"7048b274-bb73-4f78-bd84-2dffe4927289","system_id":"levelo_inurba_marseille","lat":43.29783,"lon":5.39351,"is_reserved":false,"is_disabled":true,"rental_uris":{"android":"levelo://app?vid=7048b274-bb73-4f78-bd84-2dffe4927289","ios":"levelo://app?vid=7048b274-bb73-4f78-bd84-2dffe4927289"},"vehicle_type_id":"4","last_reported":1752419361,"current_range_meters":14400,"station_id":"chh1huq6cuj3fo74tm60","pricing_plan_id":"cebpf4jnsgd1na2vs0mg"},{"bike_id":"b424f69c-5633-49c1-98e4-4371d65389a9","system_id":"levelo_inurba_marseille","lat":43.26569,"lon":5.39041,"is_reserved":false,"is_disabled":false,"rental_uris":{"android":"levelo://app?vid=b424f69c-5633-49c1-98e4-4371d65389a9","ios":"levelo://app?vid=b424f69c-5633-49c1-98e4-4371d65389a9"},"vehicle_type_id":"4","last_reported":1752419361,"current_range_meters":14400,"station_id":"ce4bhe12rcd13ifvqf30","pricing_plan_id":"cebpf4jnsgd1na2vs0mg"},{"bike_id":"0124c547-d1ed-414c-9d45-f0731d72f011","system_id":"levelo_inurba_marseille","lat":43.28615,"lon":5.35105,"is_reserved":false,"is_disabled":false,"rental_uris":{"android":"levelo://app?vid=0124c547-d1ed-414c-9d45-f0731d72f011","ios":"levelo://app?vid=0124c547-d1ed-414c-9d45-f0731d72f011"},"vehicle_type_id":"4","last_reported":1752419361,"current_range_meters":14400,"station_id":"ce4bhch2rcd13ifvqeug","pricing_plan_id":"cebpf4jnsgd1na2vs0mg"},{"bike_id":"cc40c06c-3cdf-462a-b74d-55fb4af16b04","system_id":"levelo_inurba_marseille","lat":43.28159,"lon":5.42648,"is_reserved":false,"is_disabled":false,"rental_uris":{"android":"levelo://app?vid=cc40c06c-3cdf-462a-b74d-55fb4af16b04","ios":"levelo://app?vid=cc40c06c-3cdf-462a-b74d-55fb4af16b04"},"vehicle_type_id":"4","last_reported":1752419361,"current_range_meters":14400,"station_id":"ce4bhnh2rcd13ifvqgug","pricing_plan_id":"cebpf4jnsgd1na2vs0mg"},{"bike_id":"e9bbd8d3-caad-4609-a312-7997513565b0","system_id":"levelo_inurba_marseille","lat":43.28419,"lon":5.34996,"is_reserved":false,"is_disabled":false,"rental_uris":{"android":"levelo://app?vid=e9bbd8d3-caad-4609-a312-7997513565b0","ios":"levelo://app?vid=e9bbd8d3-caad-4609-a312-7997513565b0"},"vehicle_type_id":"4","last_reported":1752419361,"current_range_meters":14800,"station_id":"ce4bhbh2rcd13ifvqepg","pricing_plan_id":"cebpf4jnsgd1na2vs0mg"},{"bike_id":"c88ba0bf-49d0-4904-9d53-6639c9533104","system_id":"levelo_inurba_marseille","lat":43.26552,"lon":5.39041,"is_reserved":false,"is_disabled":false,"rental_uris":{"android":"levelo://app?vid=c88ba0bf-49d0-4904-9d53-6639c9533104","ios":"levelo://app?vid=c88ba0bf-49d0-4904-9d53-6639c9533104"},"vehicle_type_id":"4","last_reported":1752419361,"current_range_meters":15200,"station_id":"ce4bhe12rcd13ifvqf30","pricing_plan_id":"cebpf4jnsgd1na2vs0mg"},{"bike_id":"8af9c5b9-33c6-49f1-b28a-3e8284d3f332","system_id":"levelo_inurba_marseille","lat":43.28279,"lon":5.35062,"is_reserved":false,"is_disabled":false,"rental_uris":{"android":"levelo://app?vid=8af9c5b9-33c6-49f1-b28a-3e8284d3f332","ios":"levelo://app?vid=8af9c5b9-33c6-49f1-b28a-3e8284d3f332"},"vehicle_type_id":"4","last_reported":1752419361,"current_range_meters":15200,"station_id":"ce4bhbp2rcd13ifvqerg","pricing_plan_id":"cebpf4jnsgd1na2vs0mg"},{"bike_id":"ffe54395-1f87-4e59-89b6-df8f45ba3ec4","system_id":"levelo_inurba_marseille","lat":43.26027,"lon":5.37552,"is_reserved":false,"is_disabled":true,"rental_uris":{"android":"levelo://app?vid=ffe54395-1f87-4e59-89b6-df8f45ba3ec4","ios":"levelo://app?vid=ffe54395-1f87-4e59-89b6-df8f45ba3ec4"},"vehicle_type_id":"4","last_reported":1752419361,"current_range_meters":15200,"station_id":"ce4bhgh2rcd13ifvqfa0","pricing_plan_id":"cebpf4jnsgd1na2vs0mg"},{"bike_id":"48ab944a-1c2d-440d-b78e-303ed8a058e0","system_id":"levelo_inurba_marseille","lat":43.241676,"lon":5.363907,"is_reserved":false,"is_disabled":false,"rental_uris":{"android":"levelo://app?vid=48ab944a-1c2d-440d-b78e-303ed8a058e0","ios":"levelo://app?vid=48ab944a-1c2d-440d-b78e-303ed8a058e0"},"vehicle_type_id":"4","last_reported":1752419361,"current_range_meters":15200,"station_id":"","pricing_plan_id":"cebpf4jnsgd1na2vs0mg"},{"bike_id":"1a469edf-5352-481f-91e3-cfaef6ee1547","system_id":"levelo_inurba_marseille","lat":43.21228,"lon":5.35056,"is_reserved":false,"is_disabled":false,"rental_uris":{"android":"levelo://app?vid=1a469edf-5352-481f-91e3-cfaef6ee1547","ios":"levelo://app?vid=1a469edf-5352-481f-91e3-cfaef6ee1547"},"vehicle_type_id":"4","last_reported":1752419361,"current_range_meters":16000,"station_id":"","pricing_plan_id":"cebpf4jnsgd1na2vs0mg"},{"bike_id":"adfe8be3-1e95-4a39-ba2c-619c92879657","system_id":"levelo_inurba_marseille","lat":43.23183,"lon":5.3998,"is_reserved":false,"is_disabled":false,"rental_uris":{"android":"levelo://app?vid=adfe8be3-1e95-4a39-ba2c-619c92879657","ios":"levelo://app?vid=adfe8be3-1e95-4a39-ba2c-619c92879657"},"vehicle_type_id":"4","last_reported":1752419361,"current_range_meters":16000,"station_id":"ce4bhn12rcd13ifvqgqg","pricing_plan_id":"cebpf4jnsgd1na2vs0mg"},{"bike_id":"9a46b9ab-a60b-45fc-88a3-caad63ae5b94","system_id":"levelo_inurba_marseille","lat":43.29528,"lon":5.3746,"is_reserved":false,"is_disabled":true,"rental_uris":{"android":"levelo://app?vid=9a46b9ab-a60b-45fc-88a3-caad63ae5b94","ios":"levelo://app?vid=9a46b9ab-a60b-45fc-88a3-caad63ae5b94"},"vehicle_type_id":"4","last_reported":1752419361,"current_range_meters":16000,"station_id":"ce4bgkp2rcd13ifvqbmg","pricing_plan_id":"cebpf4jnsgd1na2vs0mg"},{"bike_id":"2a70798a-94ea-48f1-80b7-5109f0e067eb","system_id":"levelo_inurba_marseille","lat":43.295596,"lon":5.422835,"is_reserved":false,"is_disabled":false,"rental_uris":{"android":"levelo://app?vid=2a70798a-94ea-48f1-80b7-5109f0e067eb","ios":"levelo://app?vid=2a70798a-94ea-48f1-80b7-5109f0e067eb"},"vehicle_type_id":"4","last_reported":1752419361,"current_range_meters":16000,"station_id":"ce4bhph2rcd13ifvqhdg","pricing_plan_id":"cebpf4jnsgd1na2vs0mg"},{"bike_id":"48748ca6-04ff-479d-8e4a-4aad4b30325e","system_id":"levelo_inurba_marseille","lat":43.229265,"lon":5.353763,"is_reserved":false,"is_disabled":false,"rental_uris":{"android":"levelo://app?vid=48748ca6-04ff-479d-8e4a-4aad4b30325e","ios":"levelo://app?vid=48748ca6-04ff-479d-8e4a-4aad4b30325e"},"vehicle_type_id":"4","last_reported":1752419361,"current_range_meters":16000,"station_id":"cpo3532slgdg3j2ikp40","pricing_plan_id":"cebpf4jnsgd1na2vs0mg"},{"bike_id":"66bd23f8-83b4-4975-8474-fc25598853e5","system_id":"levelo_inurba_marseille","lat":43.30747,"lon":5.42444,"is_reserved":false,"is_disabled":false,"rental_uris":{"android":"levelo://app?vid=66bd23f8-83b4-4975-8474-fc25598853e5","ios":"levelo://app?vid=66bd23f8-83b4-4975-8474-fc25598853e5"},"vehicle_type_id":"4","last_reported":1752419361,"current_range_meters":16000,"station_id":"st_cvj6ca6bvosntc0bfgr0","pricing_plan_id":"cebpf4jnsgd1na2vs0mg"},{"bike_id":"d9f5802f-b85b-44ac-bb5d-e411c0bdfd0f","system_id":"levelo_inurba_marseille","lat":43.24161,"lon":5.36412,"is_reserved":false,"is_disabled":false,"rental_uris":{"android":"levelo://app?vid=d9f5802f-b85b-44ac-bb5d-e411c0bdfd0f","ios":"levelo://app?vid=d9f5802f-b85b-44ac-bb5d-e411c0bdfd0f"},"vehicle_type_id":"4","last_reported":1752419361,"current_range_meters":16000,"station_id":"cpo36qri1sfpv3e86is0","pricing_plan_id":"cebpf4jnsgd1na2vs0mg"},{"bike_id":"7740b0eb-1c54-4cc6-8ce9-62c40526d386","system_id":"levelo_inurba_marseille","lat":43.27614,"lon":5.36126,"is_reserved":false,"is_disabled":false,"rental_uris":{"android":"levelo://app?vid=7740b0eb-1c54-4cc6-8ce9-62c40526d386","ios":"levelo://app?vid=7740b0eb-1c54-4cc6-8ce9-62c40526d386"},"vehicle_type_id":"4","last_reported":1752419361,"current_range_meters":16000,"station_id":"ce4bgj92rcd13ifvqbe0","pricing_plan_id":"cebpf4jnsgd1na2vs0mg"},{"bike_id":"d5f9c5bb-1fa2-40ba-9e66-96086af89407","system_id":"levelo_inurba_marseille","lat":43.24167,"lon":5.36435,"is_reserved":false,"is_disabled":false,"rental_uris":{"android":"levelo://app?vid=d5f9c5bb-1fa2-40ba-9e66-96086af89407","ios":"levelo://app?vid=d5f9c5bb-1fa2-40ba-9e66-96086af89407"},"vehicle_type_id":"4","last_reported":1752419361,"current_range_meters":16000,"station_id":"cpo36qri1sfpv3e86is0","pricing_plan_id":"cebpf4jnsgd1na2vs0mg"},{"bike_id":"162ce9df-4c9f-40cd-bb86-4a8ca9d7a01d","system_id":"levelo_inurba_marseille","lat":43.25516,"lon":5.37683,"is_reserved":false,"is_disabled":false,"rental_uris":{"android":"levelo://app?vid=162ce9df-4c9f-40cd-bb86-4a8ca9d7a01d","ios":"levelo://app?vid=162ce9df-4c9f-40cd-bb86-4a8ca9d7a01d"},"vehicle_type_id":"4","last_reported":1752419361,"current_range_meters":16000,"station_id":"ce4bhh12rcd13ifvqff0","pricing_plan_id":"cebpf4jnsgd1na2vs0mg"},{"bike_id":"7228a9f5-b401-4290-a1f1-0fb4b1e89183","system_id":"levelo_inurba_marseille","lat":43.28664,"lon":5.3866,"is_reserved":false,"is_disabled":false,"rental_uris":{"android":"levelo://app?vid=7228a9f5-b401-4290-a1f1-0fb4b1e89183","ios":"levelo://app?vid=7228a9f5-b401-4290-a1f1-0fb4b1e89183"},"vehicle_type_id":"4","last_reported":1752419361,"current_range_meters":16400,"station_id":"ce4bh492rcd13ifvqdug","pricing_plan_id":"cebpf4jnsgd1na2vs0mg"},{"bike_id":"cca997a6-848b-49cb-8630-4378039bf3a1","system_id":"levelo_inurba_marseille","lat":43.26204,"lon":5.37452,"is_reserved":false,"is_disabled":false,"rental_uris":{"android":"levelo://app?vid=cca997a6-848b-49cb-8630-4378039bf3a1","ios":"levelo://app?vid=cca997a6-848b-49cb-8630-4378039bf3a1"},"vehicle_type_id":"4","last_reported":1752419361,"current_range_meters":16400,"station_id":"ce4bhgp2rcd13ifvqfc0","pricing_plan_id":"cebpf4jnsgd1na2vs0mg"},{"bike_id":"c078f680-b722-4076-a9f9-b720acc6323c","system_id":"levelo_inurba_marseille","lat":43.28623,"lon":5.35107,"is_reserved":false,"is_disabled":false,"rental_uris":{"android":"levelo://app?vid=c078f680-b722-4076-a9f9-b720acc6323c","ios":"levelo://app?vid=c078f680-b722-4076-a9f9-b720acc6323c"},"vehicle_type_id":"4","last_reported":1752419361,"current_range_meters":16400,"station_id":"ce4bhch2rcd13ifvqeug","pricing_plan_id":"cebpf4jnsgd1na2vs0mg"},{"bike_id":"79ac9d5c-87ca-42a3-a25e-34606432c125","system_id":"levelo_inurba_marseille","lat":43.21234,"lon":5.35088,"is_reserved":false,"is_disabled":false,"rental_uris":{"android":"levelo://app?vid=79ac9d5c-87ca-42a3-a25e-34606432c125","ios":"levelo://app?vid=79ac9d5c-87ca-42a3-a25e-34606432c125"},"vehicle_type_id":"4","last_reported":1752419361,"current_range_meters":16400,"station_id":"","pricing_plan_id":"cebpf4jnsgd1na2vs0mg"},{"bike_id":"7309c0df-afed-4374-9f72-b92010d611e6","system_id":"levelo_inurba_marseille","lat":43.28415,"lon":5.34988,"is_reserved":false,"is_disabled":false,"rental_uris":{"android":"levelo://app?vid=7309c0df-afed-4374-9f72-b92010d611e6","ios":"levelo://app?vid=7309c0df-afed-4374-9f72-b92010d611e6"},"vehicle_type_id":"4","last_reported":1752419361,"current_range_meters":16400,"station_id":"ce4bhbh2rcd13ifvqepg","pricing_plan_id":"cebpf4jnsgd1na2vs0mg"},{"bike_id":"7b60e2b3-fe60-4caf-8d3e-4c917054d448","system_id":"levelo_inurba_marseille","lat":43.28426,"lon":5.34976,"is_reserved":false,"is_disabled":true,"rental_uris":{"android":"levelo://app?vid=7b60e2b3-fe60-4caf-8d3e-4c917054d448","ios":"levelo://app?vid=7b60e2b3-fe60-4caf-8d3e-4c917054d448"},"vehicle_type_id":"4","last_reported":1752419361,"current_range_meters":16800,"station_id":"ce4bhbh2rcd13ifvqepg","pricing_plan_id":"cebpf4jnsgd1na2vs0mg"},{"bike_id":"bc6ae4ef-14bb-497e-b638-ab043728a054","system_id":"levelo_inurba_marseille","lat":43.27633,"lon":5.36106,"is_reserved":false,"is_disabled":false,"rental_uris":{"android":"levelo://app?vid=bc6ae4ef-14bb-497e-b638-ab043728a054","ios":"levelo://app?vid=bc6ae4ef-14bb-497e-b638-ab043728a054"},"vehicle_type_id":"4","last_reported":1752419361,"current_range_meters":16800,"station_id":"ce4bgj92rcd13ifvqbe0","pricing_plan_id":"cebpf4jnsgd1na2vs0mg"},{"bike_id":"21258374-af0f-4369-818b-4a964ef5fc40","system_id":"levelo_inurba_marseille","lat":43.26217,"lon":5.37457,"is_reserved":false,"is_disabled":false,"rental_uris":{"android":"levelo://app?vid=21258374-af0f-4369-818b-4a964ef5fc40","ios":"levelo://app?vid=21258374-af0f-4369-818b-4a964ef5fc40"},"vehicle_type_id":"4","last_reported":1752419361,"current_range_meters":16800,"station_id":"ce4bhgp2rcd13ifvqfc0","pricing_plan_id":"cebpf4jnsgd1na2vs0mg"},{"bike_id":"58375fde-ca97-4dab-be52-59caf98323d3","system_id":"levelo_inurba_marseille","lat":43.26562,"lon":5.37316,"is_reserved":false,"is_disabled":true,"rental_uris":{"android":"levelo://app?vid=58375fde-ca97-4dab-be52-59caf98323d3","ios":"levelo://app?vid=58375fde-ca97-4dab-be52-59caf98323d3"},"vehicle_type_id":"4","last_reported":1752419361,"current_range_meters":16800,"station_id":"ce4bhg12rcd13ifvqf70","pricing_plan_id":"cebpf4jnsgd1na2vs0mg"},{"bike_id":"f2183f19-3763-4a25-8229-a828f773ef0d","system_id":"levelo_inurba_marseille","lat":43.23212,"lon":5.35628,"is_reserved":false,"is_disabled":false,"rental_uris":{"android":"levelo://app?vid=f2183f19-3763-4a25-8229-a828f773ef0d","ios":"levelo://app?vid=f2183f19-3763-4a25-8229-a828f773ef0d"},"vehicle_type_id":"4","last_reported":1752419361,"current_range_meters":16800,"station_id":"","pricing_plan_id":"cebpf4jnsgd1na2vs0mg"},{"bike_id":"ece9d047-dc12-4ce6-82bf-fc7ad56a230c","system_id":"levelo_inurba_marseille","lat":43.286208,"lon":5.350981,"is_reserved":false,"is_disabled":true,"rental_uris":{"android":"levelo://app?vid=ece9d047-dc12-4ce6-82bf-fc7ad56a230c","ios":"levelo://app?vid=ece9d047-dc12-4ce6-82bf-fc7ad56a230c"},"vehicle_type_id":"4","last_reported":1752419361,"current_range_meters":16800,"station_id":"ce4bhch2rcd13ifvqeug","pricing_plan_id":"cebpf4jnsgd1na2vs0mg"},{"bike_id":"530df890-2447-4898-8ed5-0529ed2390ee","system_id":"levelo_inurba_marseille","lat":43.29732,"lon":5.38308,"is_reserved":false,"is_disabled":false,"rental_uris":{"android":"levelo://app?vid=530df890-2447-4898-8ed5-0529ed2390ee","ios":"levelo://app?vid=530df890-2447-4898-8ed5-0529ed2390ee"},"vehicle_type_id":"4","last_reported":1752419361,"current_range_meters":16800,"station_id":"","pricing_plan_id":"cebpf4jnsgd1na2vs0mg"},{"bike_id":"c1d0629c-eaee-41e7-8c10-68b0ec1b077d","system_id":"levelo_inurba_marseille","lat":43.32759,"lon":5.39115,"is_reserved":false,"is_disabled":true,"rental_uris":{"android":"levelo://app?vid=c1d0629c-eaee-41e7-8c10-68b0ec1b077d","ios":"levelo://app?vid=c1d0629c-eaee-41e7-8c10-68b0ec1b077d"},"vehicle_type_id":"4","last_reported":1752419361,"current_range_meters":16800,"station_id":"","pricing_plan_id":"cebpf4jnsgd1na2vs0mg"},{"bike_id":"ebdb4319-680e-4888-b587-82d17288be68","system_id":"levelo_inurba_marseille","lat":43.27376,"lon":5.36253,"is_reserved":false,"is_disabled":false,"rental_uris":{"android":"levelo://app?vid=ebdb4319-680e-4888-b587-82d17288be68","ios":"levelo://app?vid=ebdb4319-680e-4888-b587-82d17288be68"},"vehicle_type_id":"4","last_reported":1752419361,"current_range_meters":16800,"station_id":"ce4bhbh2rcd13ifvqeo0","pricing_plan_id":"cebpf4jnsgd1na2vs0mg"},{"bike_id":"d438c437-0c60-41e5-a3d6-d73226271506","system_id":"levelo_inurba_marseille","lat":43.29585,"lon":5.42248,"is_reserved":false,"is_disabled":false,"rental_uris":{"android":"levelo://app?vid=d438c437-0c60-41e5-a3d6-d73226271506","ios":"levelo://app?vid=d438c437-0c60-41e5-a3d6-d73226271506"},"vehicle_type_id":"4","last_reported":1752419361,"current_range_meters":16800,"station_id":"","pricing_plan_id":"cebpf4jnsgd1na2vs0mg"},{"bike_id":"28f6661f-fa05-4b8f-8f5e-cb4158aac2c7","system_id":"levelo_inurba_marseille","lat":43.29375,"lon":5.3786,"is_reserved":false,"is_disabled":true,"rental_uris":{"android":"levelo://app?vid=28f6661f-fa05-4b8f-8f5e-cb4158aac2c7","ios":"levelo://app?vid=28f6661f-fa05-4b8f-8f5e-cb4158aac2c7"},"vehicle_type_id":"4","last_reported":1752419361,"current_range_meters":17200,"station_id":"ce4bgjh2rcd13ifvqbf0","pricing_plan_id":"cebpf4jnsgd1na2vs0mg"},{"bike_id":"31c710b8-59c4-4592-9629-b8ad795fae60","system_id":"levelo_inurba_marseille","lat":43.30244,"lon":5.40016,"is_reserved":false,"is_disabled":true,"rental_uris":{"android":"levelo://app?vid=31c710b8-59c4-4592-9629-b8ad795fae60","ios":"levelo://app?vid=31c710b8-59c4-4592-9629-b8ad795fae60"},"vehicle_type_id":"4","last_reported":1752419361,"current_range_meters":17200,"station_id":"","pricing_plan_id":"cebpf4jnsgd1na2vs0mg"},{"bike_id":"f5a47db5-6fb2-46bd-a2de-efa4ad13bf60","system_id":"levelo_inurba_marseille","lat":43.21193,"lon":5.35073,"is_reserved":false,"is_disabled":false,"rental_uris":{"android":"levelo://app?vid=f5a47db5-6fb2-46bd-a2de-efa4ad13bf60","ios":"levelo://app?vid=f5a47db5-6fb2-46bd-a2de-efa4ad13bf60"},"vehicle_type_id":"4","last_reported":1752419361,"current_range_meters":17200,"station_id":"st_cvj6sg6p6f1abm77japg","pricing_plan_id":"cebpf4jnsgd1na2vs0mg"},{"bike_id":"0387f48c-50d9-461a-a267-e66de4c2163c","system_id":"levelo_inurba_marseille","lat":43.31268,"lon":5.36933,"is_reserved":false,"is_disabled":false,"rental_uris":{"android":"levelo://app?vid=0387f48c-50d9-461a-a267-e66de4c2163c","ios":"levelo://app?vid=0387f48c-50d9-461a-a267-e66de4c2163c"},"vehicle_type_id":"4","last_reported":1752419361,"current_range_meters":17200,"station_id":"ce4bgl92rcd13ifvqbq0","pricing_plan_id":"cebpf4jnsgd1na2vs0mg"},{"bike_id":"bbc4bb3b-9a5b-4e80-814f-6f774b422422","system_id":"levelo_inurba_marseille","lat":43.27383,"lon":5.36254,"is_reserved":false,"is_disabled":false,"rental_uris":{"android":"levelo://app?vid=bbc4bb3b-9a5b-4e80-814f-6f774b422422","ios":"levelo://app?vid=bbc4bb3b-9a5b-4e80-814f-6f774b422422"},"vehicle_type_id":"4","last_reported":1752419361,"current_range_meters":17200,"station_id":"ce4bhbh2rcd13ifvqeo0","pricing_plan_id":"cebpf4jnsgd1na2vs0mg"},{"bike_id":"c7d43705-f58a-4ceb-8f79-ac67c9c15ebf","system_id":"levelo_inurba_marseille","lat":43.28277,"lon":5.3506,"is_reserved":false,"is_disabled":false,"rental_uris":{"android":"levelo://app?vid=c7d43705-f58a-4ceb-8f79-ac67c9c15ebf","ios":"levelo://app?vid=c7d43705-f58a-4ceb-8f79-ac67c9c15ebf"},"vehicle_type_id":"4","last_reported":1752419361,"current_range_meters":17200,"station_id":"ce4bhbp2rcd13ifvqerg","pricing_plan_id":"cebpf4jnsgd1na2vs0mg"},{"bike_id":"b053f929-7efb-49cd-9959-74ef096980bb","system_id":"levelo_inurba_marseille","lat":43.29593,"lon":5.3743,"is_reserved":false,"is_disabled":true,"rental_uris":{"android":"levelo://app?vid=b053f929-7efb-49cd-9959-74ef096980bb","ios":"levelo://app?vid=b053f929-7efb-49cd-9959-74ef096980bb"},"vehicle_type_id":"4","last_reported":1752419361,"current_range_meters":17200,"station_id":"","pricing_plan_id":"cebpf4jnsgd1na2vs0mg"},{"bike_id":"1aedaa42-1f03-48cc-8e38-d983e72f730b","system_id":"levelo_inurba_marseille","lat":43.270711,"lon":5.42279,"is_reserved":false,"is_disabled":false,"rental_uris":{"android":"levelo://app?vid=1aedaa42-1f03-48cc-8e38-d983e72f730b","ios":"levelo://app?vid=1aedaa42-1f03-48cc-8e38-d983e72f730b"},"vehicle_type_id":"4","last_reported":1752419361,"current_range_meters":17200,"station_id":"ce4bhk92rcd13ifvqgb0","pricing_plan_id":"cebpf4jnsgd1na2vs0mg"},{"bike_id":"e37d8eb0-d581-401b-aee8-91d7dbcf27ad","system_id":"levelo_inurba_marseille","lat":43.2956,"lon":5.42287,"is_reserved":false,"is_disabled":false,"rental_uris":{"android":"levelo://app?vid=e37d8eb0-d581-401b-aee8-91d7dbcf27ad","ios":"levelo://app?vid=e37d8eb0-d581-401b-aee8-91d7dbcf27ad"},"vehicle_type_id":"4","last_reported":1752419361,"current_range_meters":17200,"station_id":"ce4bhph2rcd13ifvqhdg","pricing_plan_id":"cebpf4jnsgd1na2vs0mg"},{"bike_id":"eab9f2a0-ee49-4110-a9bf-1b4a45ecb8f7","system_id":"levelo_inurba_marseille","lat":43.301539,"lon":5.38103,"is_reserved":false,"is_disabled":false,"rental_uris":{"android":"levelo://app?vid=eab9f2a0-ee49-4110-a9bf-1b4a45ecb8f7","ios":"levelo://app?vid=eab9f2a0-ee49-4110-a9bf-1b4a45ecb8f7"},"vehicle_type_id":"4","last_reported":1752419361,"current_range_meters":17200,"station_id":"ce4bgjp2rcd13ifvqbh0","pricing_plan_id":"cebpf4jnsgd1na2vs0mg"},{"bike_id":"9c76820e-7ea9-4df4-979c-ebb640615259","system_id":"levelo_inurba_marseille","lat":43.23189,"lon":5.35566,"is_reserved":false,"is_disabled":false,"rental_uris":{"android":"levelo://app?vid=9c76820e-7ea9-4df4-979c-ebb640615259","ios":"levelo://app?vid=9c76820e-7ea9-4df4-979c-ebb640615259"},"vehicle_type_id":"4","last_reported":1752419361,"current_range_meters":17200,"station_id":"ce4bhu92rcd13ifvqi70","pricing_plan_id":"cebpf4jnsgd1na2vs0mg"},{"bike_id":"e083971e-8892-4464-9f88-a7902557aa4d","system_id":"levelo_inurba_marseille","lat":43.23192,"lon":5.35545,"is_reserved":false,"is_disabled":false,"rental_uris":{"android":"levelo://app?vid=e083971e-8892-4464-9f88-a7902557aa4d","ios":"levelo://app?vid=e083971e-8892-4464-9f88-a7902557aa4d"},"vehicle_type_id":"4","last_reported":1752419361,"current_range_meters":17200,"station_id":"ce4bhu92rcd13ifvqi70","pricing_plan_id":"cebpf4jnsgd1na2vs0mg"},{"bike_id":"2ec427da-b403-4a7e-86be-3f48ba535d18","system_id":"levelo_inurba_marseille","lat":43.21202,"lon":5.35074,"is_reserved":false,"is_disabled":false,"rental_uris":{"android":"levelo://app?vid=2ec427da-b403-4a7e-86be-3f48ba535d18","ios":"levelo://app?vid=2ec427da-b403-4a7e-86be-3f48ba535d18"},"vehicle_type_id":"4","last_reported":1752419361,"current_range_meters":17600,"station_id":"st_cvj6sg6p6f1abm77japg","pricing_plan_id":"cebpf4jnsgd1na2vs0mg"},{"bike_id":"7d0b72e4-dbcc-4344-a7d9-02d350a1c10a","system_id":"levelo_inurba_marseille","lat":43.21742,"lon":5.34617,"is_reserved":false,"is_disabled":false,"rental_uris":{"android":"levelo://app?vid=7d0b72e4-dbcc-4344-a7d9-02d350a1c10a","ios":"levelo://app?vid=7d0b72e4-dbcc-4344-a7d9-02d350a1c10a"},"vehicle_type_id":"4","last_reported":1752419361,"current_range_meters":17600,"station_id":"st_cvj6r9ubvosntc0bgbag","pricing_plan_id":"cebpf4jnsgd1na2vs0mg"},{"bike_id":"99ea448e-0e48-41eb-8951-60df78bd7c9e","system_id":"levelo_inurba_marseille","lat":43.28423,"lon":5.34993,"is_reserved":false,"is_disabled":false,"rental_uris":{"android":"levelo://app?vid=99ea448e-0e48-41eb-8951-60df78bd7c9e","ios":"levelo://app?vid=99ea448e-0e48-41eb-8951-60df78bd7c9e"},"vehicle_type_id":"4","last_reported":1752419361,"current_range_meters":17600,"station_id":"ce4bhbh2rcd13ifvqepg","pricing_plan_id":"cebpf4jnsgd1na2vs0mg"},{"bike_id":"91e36618-f857-45af-ac89-91d909da2db3","system_id":"levelo_inurba_marseille","lat":43.29422,"lon":5.38613,"is_reserved":false,"is_disabled":true,"rental_uris":{"android":"levelo://app?vid=91e36618-f857-45af-ac89-91d909da2db3","ios":"levelo://app?vid=91e36618-f857-45af-ac89-91d909da2db3"},"vehicle_type_id":"4","last_reported":1752419361,"current_range_meters":17600,"station_id":"ce4bh2h2rcd13ifvqdh0","pricing_plan_id":"cebpf4jnsgd1na2vs0mg"},{"bike_id":"a5dd5f98-e456-4bd9-aa7e-4ef6bcdcb956","system_id":"levelo_inurba_marseille","lat":43.23223,"lon":5.3555,"is_reserved":false,"is_disabled":false,"rental_uris":{"android":"levelo://app?vid=a5dd5f98-e456-4bd9-aa7e-4ef6bcdcb956","ios":"levelo://app?vid=a5dd5f98-e456-4bd9-aa7e-4ef6bcdcb956"},"vehicle_type_id":"4","last_reported":1752419361,"current_range_meters":17600,"station_id":"ce4bhu92rcd13ifvqi70","pricing_plan_id":"cebpf4jnsgd1na2vs0mg"},{"bike_id":"e91ced2f-2041-4b38-8446-0d5d97adec95","system_id":"levelo_inurba_marseille","lat":43.25578,"lon":5.38234,"is_reserved":false,"is_disabled":true,"rental_uris":{"android":"levelo://app?vid=e91ced2f-2041-4b38-8446-0d5d97adec95","ios":"levelo://app?vid=e91ced2f-2041-4b38-8446-0d5d97adec95"},"vehicle_type_id":"4","last_reported":1752419361,"current_range_meters":17600,"station_id":"ce4bhih2rcd13ifvqfs0","pricing_plan_id":"cebpf4jnsgd1na2vs0mg"},{"bike_id":"e071943f-0132-41d0-ab55-33566c8c13d3","system_id":"levelo_inurba_marseille","lat":43.26805,"lon":5.40268,"is_reserved":false,"is_disabled":false,"rental_uris":{"android":"levelo://app?vid=e071943f-0132-41d0-ab55-33566c8c13d3","ios":"levelo://app?vid=e071943f-0132-41d0-ab55-33566c8c13d3"},"vehicle_type_id":"4","last_reported":1752419361,"current_range_meters":17600,"station_id":"ce501612rcd8frsf0b60","pricing_plan_id":"cebpf4jnsgd1na2vs0mg"},{"bike_id":"c8c4de1a-846f-4f5b-aace-9fb14bf7ad52","system_id":"levelo_inurba_marseille","lat":43.21192,"lon":5.35075,"is_reserved":false,"is_disabled":false,"rental_uris":{"android":"levelo://app?vid=c8c4de1a-846f-4f5b-aace-9fb14bf7ad52","ios":"levelo://app?vid=c8c4de1a-846f-4f5b-aace-9fb14bf7ad52"},"vehicle_type_id":"4","last_reported":1752419361,"current_range_meters":17600,"station_id":"st_cvj6sg6p6f1abm77japg","pricing_plan_id":"cebpf4jnsgd1na2vs0mg"},{"bike_id":"153b3aa6-9a0e-41f0-a137-bb8d792ba06e","system_id":"levelo_inurba_marseille","lat":43.2842,"lon":5.35004,"is_reserved":false,"is_disabled":false,"rental_uris":{"android":"levelo://app?vid=153b3aa6-9a0e-41f0-a137-bb8d792ba06e","ios":"levelo://app?vid=153b3aa6-9a0e-41f0-a137-bb8d792ba06e"},"vehicle_type_id":"4","last_reported":1752419361,"current_range_meters":17600,"station_id":"ce4bhbh2rcd13ifvqepg","pricing_plan_id":"cebpf4jnsgd1na2vs0mg"},{"bike_id":"99ae43ef-9981-41ec-907c-f94f73cc9ad2","system_id":"levelo_inurba_marseille","lat":43.29985,"lon":5.38484,"is_reserved":false,"is_disabled":false,"rental_uris":{"android":"levelo://app?vid=99ae43ef-9981-41ec-907c-f94f73cc9ad2","ios":"levelo://app?vid=99ae43ef-9981-41ec-907c-f94f73cc9ad2"},"vehicle_type_id":"4","last_reported":1752419361,"current_range_meters":17600,"station_id":"ce4bgj92rcd13ifvqbd0","pricing_plan_id":"cebpf4jnsgd1na2vs0mg"},{"bike_id":"8ada9b16-3667-415d-8728-647a544e3bba","system_id":"levelo_inurba_marseille","lat":43.2266,"lon":5.34806,"is_reserved":false,"is_disabled":false,"rental_uris":{"android":"levelo://app?vid=8ada9b16-3667-415d-8728-647a544e3bba","ios":"levelo://app?vid=8ada9b16-3667-415d-8728-647a544e3bba"},"vehicle_type_id":"4","last_reported":1752419361,"current_range_meters":18000,"station_id":"","pricing_plan_id":"cebpf4jnsgd1na2vs0mg"},{"bike_id":"45583b9b-98ff-4d18-a778-0d792c89bae3","system_id":"levelo_inurba_marseille","lat":43.28552,"lon":5.39542,"is_reserved":false,"is_disabled":true,"rental_uris":{"android":"levelo://app?vid=45583b9b-98ff-4d18-a778-0d792c89bae3","ios":"levelo://app?vid=45583b9b-98ff-4d18-a778-0d792c89bae3"},"vehicle_type_id":"4","last_reported":1752419361,"current_range_meters":18000,"station_id":"ce4bh292rcd13ifvqdg0","pricing_plan_id":"cebpf4jnsgd1na2vs0mg"},{"bike_id":"406373a1-591f-45b4-988d-bb44263a4ad6","system_id":"levelo_inurba_marseille","lat":43.2673,"lon":5.38258,"is_reserved":false,"is_disabled":false,"rental_uris":{"android":"levelo://app?vid=406373a1-591f-45b4-988d-bb44263a4ad6","ios":"levelo://app?vid=406373a1-591f-45b4-988d-bb44263a4ad6"},"vehicle_type_id":"4","last_reported":1752419361,"current_range_meters":18000,"station_id":"ce4bhg92rcd13ifvqf90","pricing_plan_id":"cebpf4jnsgd1na2vs0mg"},{"bike_id":"23a0fc67-4c39-4b74-8a86-2903d79b1606","system_id":"levelo_inurba_marseille","lat":43.23182,"lon":5.35564,"is_reserved":false,"is_disabled":true,"rental_uris":{"android":"levelo://app?vid=23a0fc67-4c39-4b74-8a86-2903d79b1606","ios":"levelo://app?vid=23a0fc67-4c39-4b74-8a86-2903d79b1606"},"vehicle_type_id":"4","last_reported":1752419361,"current_range_meters":18000,"station_id":"ce4bhu92rcd13ifvqi70","pricing_plan_id":"cebpf4jnsgd1na2vs0mg"},{"bike_id":"0186202f-a6cc-437c-b373-407b57a8b334","system_id":"levelo_inurba_marseille","lat":43.22505,"lon":5.34771,"is_reserved":false,"is_disabled":false,"rental_uris":{"android":"levelo://app?vid=0186202f-a6cc-437c-b373-407b57a8b334","ios":"levelo://app?vid=0186202f-a6cc-437c-b373-407b57a8b334"},"vehicle_type_id":"4","last_reported":1752419361,"current_range_meters":18000,"station_id":"st_cvj5dfep6f1abm77gieg","pricing_plan_id":"cebpf4jnsgd1na2vs0mg"},{"bike_id":"e83439d2-4642-48a2-8689-7a894582417f","system_id":"levelo_inurba_marseille","lat":43.21201,"lon":5.35076,"is_reserved":false,"is_disabled":false,"rental_uris":{"android":"levelo://app?vid=e83439d2-4642-48a2-8689-7a894582417f","ios":"levelo://app?vid=e83439d2-4642-48a2-8689-7a894582417f"},"vehicle_type_id":"4","last_reported":1752419361,"current_range_meters":18000,"station_id":"st_cvj6sg6p6f1abm77japg","pricing_plan_id":"cebpf4jnsgd1na2vs0mg"},{"bike_id":"bf67854a-fc75-4bbe-84b3-70a770694533","system_id":"levelo_inurba_marseille","lat":43.28941,"lon":5.39637,"is_reserved":false,"is_disabled":true,"rental_uris":{"android":"levelo://app?vid=bf67854a-fc75-4bbe-84b3-70a770694533","ios":"levelo://app?vid=bf67854a-fc75-4bbe-84b3-70a770694533"},"vehicle_type_id":"4","last_reported":1752419361,"current_range_meters":18000,"station_id":"ce4bh3h2rcd13ifvqdn0","pricing_plan_id":"cebpf4jnsgd1na2vs0mg"},{"bike_id":"8a01e88a-8371-4085-9838-47ae11897cd3","system_id":"levelo_inurba_marseille","lat":43.28196,"lon":5.42659,"is_reserved":false,"is_disabled":true,"rental_uris":{"android":"levelo://app?vid=8a01e88a-8371-4085-9838-47ae11897cd3","ios":"levelo://app?vid=8a01e88a-8371-4085-9838-47ae11897cd3"},"vehicle_type_id":"4","last_reported":1752419361,"current_range_meters":18000,"station_id":"ce4bhnh2rcd13ifvqgug","pricing_plan_id":"cebpf4jnsgd1na2vs0mg"},{"bike_id":"1f8dd362-3a15-4198-8d19-1bcc36e39872","system_id":"levelo_inurba_marseille","lat":43.21771,"lon":5.34587,"is_reserved":false,"is_disabled":false,"rental_uris":{"android":"levelo://app?vid=1f8dd362-3a15-4198-8d19-1bcc36e39872","ios":"levelo://app?vid=1f8dd362-3a15-4198-8d19-1bcc36e39872"},"vehicle_type_id":"4","last_reported":1752419361,"current_range_meters":18000,"station_id":"st_cvj6r9ubvosntc0bgbag","pricing_plan_id":"cebpf4jnsgd1na2vs0mg"},{"bike_id":"953117bb-becf-4ebe-a67d-8cf6c0b35500","system_id":"levelo_inurba_marseille","lat":43.21748,"lon":5.34616,"is_reserved":false,"is_disabled":false,"rental_uris":{"android":"levelo://app?vid=953117bb-becf-4ebe-a67d-8cf6c0b35500","ios":"levelo://app?vid=953117bb-becf-4ebe-a67d-8cf6c0b35500"},"vehicle_type_id":"4","last_reported":1752419361,"current_range_meters":18000,"station_id":"st_cvj6r9ubvosntc0bgbag","pricing_plan_id":"cebpf4jnsgd1na2vs0mg"},{"bike_id":"697d5fc4-b988-4a4e-8323-c1ce5ed61a61","system_id":"levelo_inurba_marseille","lat":43.211918,"lon":5.350724,"is_reserved":false,"is_disabled":false,"rental_uris":{"android":"levelo://app?vid=697d5fc4-b988-4a4e-8323-c1ce5ed61a61","ios":"levelo://app?vid=697d5fc4-b988-4a4e-8323-c1ce5ed61a61"},"vehicle_type_id":"4","last_reported":1752419361,"current_range_meters":18800,"station_id":"st_cvj6sg6p6f1abm77japg","pricing_plan_id":"cebpf4jnsgd1na2vs0mg"},{"bike_id":"a78d43fa-bf1d-44e3-9c20-c26e29e21bac","system_id":"levelo_inurba_marseille","lat":43.2843,"lon":5.34997,"is_reserved":false,"is_disabled":false,"rental_uris":{"android":"levelo://app?vid=a78d43fa-bf1d-44e3-9c20-c26e29e21bac","ios":"levelo://app?vid=a78d43fa-bf1d-44e3-9c20-c26e29e21bac"},"vehicle_type_id":"4","last_reported":1752419361,"current_range_meters":18800,"station_id":"ce4bhbh2rcd13ifvqepg","pricing_plan_id":"cebpf4jnsgd1na2vs0mg"},{"bike_id":"82fa39ff-49cf-4b28-92cc-49b1269b359d","system_id":"levelo_inurba_marseille","lat":43.28416,"lon":5.34977,"is_reserved":false,"is_disabled":false,"rental_uris":{"android":"levelo://app?vid=82fa39ff-49cf-4b28-92cc-49b1269b359d","ios":"levelo://app?vid=82fa39ff-49cf-4b28-92cc-49b1269b359d"},"vehicle_type_id":"4","last_reported":1752419361,"current_range_meters":18800,"station_id":"ce4bhbh2rcd13ifvqepg","pricing_plan_id":"cebpf4jnsgd1na2vs0mg"},{"bike_id":"6807a824-61af-4807-98df-48b92b56d257","system_id":"levelo_inurba_marseille","lat":43.29914,"lon":5.4365,"is_reserved":false,"is_disabled":false,"rental_uris":{"android":"levelo://app?vid=6807a824-61af-4807-98df-48b92b56d257","ios":"levelo://app?vid=6807a824-61af-4807-98df-48b92b56d257"},"vehicle_type_id":"4","last_reported":1752419361,"current_range_meters":18800,"station_id":"ce4bhpp2rcd13ifvqhfg","pricing_plan_id":"cebpf4jnsgd1na2vs0mg"},{"bike_id":"a3169208-b5d8-4be2-9aea-ef4d23bc2a8d","system_id":"levelo_inurba_marseille","lat":43.21774,"lon":5.34603,"is_reserved":false,"is_disabled":false,"rental_uris":{"android":"levelo://app?vid=a3169208-b5d8-4be2-9aea-ef4d23bc2a8d","ios":"levelo://app?vid=a3169208-b5d8-4be2-9aea-ef4d23bc2a8d"},"vehicle_type_id":"4","last_reported":1752419361,"current_range_meters":18800,"station_id":"st_cvj6r9ubvosntc0bgbag","pricing_plan_id":"cebpf4jnsgd1na2vs0mg"},{"bike_id":"0bd6917b-3449-4794-9c3a-5419d561f619","system_id":"levelo_inurba_marseille","lat":43.28617,"lon":5.35115,"is_reserved":false,"is_disabled":false,"rental_uris":{"android":"levelo://app?vid=0bd6917b-3449-4794-9c3a-5419d561f619","ios":"levelo://app?vid=0bd6917b-3449-4794-9c3a-5419d561f619"},"vehicle_type_id":"4","last_reported":1752419361,"current_range_meters":18800,"station_id":"ce4bhch2rcd13ifvqeug","pricing_plan_id":"cebpf4jnsgd1na2vs0mg"},{"bike_id":"80955d0f-8669-4c02-b90f-c6fe20790c37","system_id":"levelo_inurba_marseille","lat":43.23197,"lon":5.3506,"is_reserved":false,"is_disabled":false,"rental_uris":{"android":"levelo://app?vid=80955d0f-8669-4c02-b90f-c6fe20790c37","ios":"levelo://app?vid=80955d0f-8669-4c02-b90f-c6fe20790c37"},"vehicle_type_id":"4","last_reported":1752419361,"current_range_meters":18800,"station_id":"","pricing_plan_id":"cebpf4jnsgd1na2vs0mg"},{"bike_id":"f59f6657-f62a-42fc-a273-bf50a25645d6","system_id":"levelo_inurba_marseille","lat":43.273654,"lon":5.362621,"is_reserved":false,"is_disabled":false,"rental_uris":{"android":"levelo://app?vid=f59f6657-f62a-42fc-a273-bf50a25645d6","ios":"levelo://app?vid=f59f6657-f62a-42fc-a273-bf50a25645d6"},"vehicle_type_id":"4","last_reported":1752419361,"current_range_meters":18800,"station_id":"ce4bhbh2rcd13ifvqeo0","pricing_plan_id":"cebpf4jnsgd1na2vs0mg"},{"bike_id":"a4d07f45-19f9-4df9-9728-be6623530a64","system_id":"levelo_inurba_marseille","lat":43.2373,"lon":5.3889,"is_reserved":false,"is_disabled":false,"rental_uris":{"android":"levelo://app?vid=a4d07f45-19f9-4df9-9728-be6623530a64","ios":"levelo://app?vid=a4d07f45-19f9-4df9-9728-be6623530a64"},"vehicle_type_id":"4","last_reported":1752419361,"current_range_meters":18800,"station_id":"","pricing_plan_id":"cebpf4jnsgd1na2vs0mg"},{"bike_id":"ecc53995-ac54-47ef-bbff-22d159eb8858","system_id":"levelo_inurba_marseille","lat":43.28935,"lon":5.36631,"is_reserved":false,"is_disabled":false,"rental_uris":{"android":"levelo://app?vid=ecc53995-ac54-47ef-bbff-22d159eb8858","ios":"levelo://app?vid=ecc53995-ac54-47ef-bbff-22d159eb8858"},"vehicle_type_id":"4","last_reported":1752419361,"current_range_meters":18800,"station_id":"ce4bhap2rcd13ifvqek0","pricing_plan_id":"cebpf4jnsgd1na2vs0mg"},{"bike_id":"f7cf9aab-0ed3-4931-a48c-8d0743d0c0b9","system_id":"levelo_inurba_marseille","lat":43.229239,"lon":5.353759,"is_reserved":false,"is_disabled":true,"rental_uris":{"android":"levelo://app?vid=f7cf9aab-0ed3-4931-a48c-8d0743d0c0b9","ios":"levelo://app?vid=f7cf9aab-0ed3-4931-a48c-8d0743d0c0b9"},"vehicle_type_id":"4","last_reported":1752419361,"current_range_meters":18800,"station_id":"cpo3532slgdg3j2ikp40","pricing_plan_id":"cebpf4jnsgd1na2vs0mg"},{"bike_id":"22661d4b-9acc-4b8d-8dd4-94c1db55faff","system_id":"levelo_inurba_marseille","lat":43.28856,"lon":5.35859,"is_reserved":false,"is_disabled":false,"rental_uris":{"android":"levelo://app?vid=22661d4b-9acc-4b8d-8dd4-94c1db55faff","ios":"levelo://app?vid=22661d4b-9acc-4b8d-8dd4-94c1db55faff"},"vehicle_type_id":"4","last_reported":1752419361,"current_range_meters":18800,"station_id":"ce4bhb12rcd13ifvqem0","pricing_plan_id":"cebpf4jnsgd1na2vs0mg"},{"bike_id":"d8d4cd6b-d88f-4cc5-971c-93348e88d768","system_id":"levelo_inurba_marseille","lat":43.321078,"lon":5.367899,"is_reserved":false,"is_disabled":false,"rental_uris":{"android":"levelo://app?vid=d8d4cd6b-d88f-4cc5-971c-93348e88d768","ios":"levelo://app?vid=d8d4cd6b-d88f-4cc5-971c-93348e88d768"},"vehicle_type_id":"4","last_reported":1752419361,"current_range_meters":18800,"station_id":"ce4bhrh2rcd13ifvqhug","pricing_plan_id":"cebpf4jnsgd1na2vs0mg"},{"bike_id":"c3e84698-a8cd-4d1b-a918-c5ad56d98c77","system_id":"levelo_inurba_marseille","lat":43.27928,"lon":5.39558,"is_reserved":false,"is_disabled":true,"rental_uris":{"android":"levelo://app?vid=c3e84698-a8cd-4d1b-a918-c5ad56d98c77","ios":"levelo://app?vid=c3e84698-a8cd-4d1b-a918-c5ad56d98c77"},"vehicle_type_id":"4","last_reported":1752419361,"current_range_meters":18800,"station_id":"ce4bhf92rcd13ifvqf40","pricing_plan_id":"cebpf4jnsgd1na2vs0mg"},{"bike_id":"33e211fe-6104-44ac-b886-724694f82b9d","system_id":"levelo_inurba_marseille","lat":43.3046,"lon":5.37902,"is_reserved":false,"is_disabled":false,"rental_uris":{"android":"levelo://app?vid=33e211fe-6104-44ac-b886-724694f82b9d","ios":"levelo://app?vid=33e211fe-6104-44ac-b886-724694f82b9d"},"vehicle_type_id":"4","last_reported":1752419361,"current_range_meters":18800,"station_id":"ce4bgup2rcd13ifvqcn0","pricing_plan_id":"cebpf4jnsgd1na2vs0mg"},{"bike_id":"e1442ff3-c767-4bb3-901d-e5f60873ad13","system_id":"levelo_inurba_marseille","lat":43.231906,"lon":5.399931,"is_reserved":false,"is_disabled":false,"rental_uris":{"android":"levelo://app?vid=e1442ff3-c767-4bb3-901d-e5f60873ad13","ios":"levelo://app?vid=e1442ff3-c767-4bb3-901d-e5f60873ad13"},"vehicle_type_id":"4","last_reported":1752419361,"current_range_meters":19200,"station_id":"ce4bhn12rcd13ifvqgqg","pricing_plan_id":"cebpf4jnsgd1na2vs0mg"},{"bike_id":"6ac174d4-75c5-4a9c-9699-97cd631c6e65","system_id":"levelo_inurba_marseille","lat":43.25471,"lon":5.39943,"is_reserved":false,"is_disabled":false,"rental_uris":{"android":"levelo://app?vid=6ac174d4-75c5-4a9c-9699-97cd631c6e65","ios":"levelo://app?vid=6ac174d4-75c5-4a9c-9699-97cd631c6e65"},"vehicle_type_id":"4","last_reported":1752419361,"current_range_meters":19200,"station_id":"","pricing_plan_id":"cebpf4jnsgd1na2vs0mg"},{"bike_id":"fdd7cc18-4ecf-4559-8f3e-afe36ab9ab23","system_id":"levelo_inurba_marseille","lat":43.28422,"lon":5.34993,"is_reserved":false,"is_disabled":false,"rental_uris":{"android":"levelo://app?vid=fdd7cc18-4ecf-4559-8f3e-afe36ab9ab23","ios":"levelo://app?vid=fdd7cc18-4ecf-4559-8f3e-afe36ab9ab23"},"vehicle_type_id":"4","last_reported":1752419361,"current_range_meters":19200,"station_id":"ce4bhbh2rcd13ifvqepg","pricing_plan_id":"cebpf4jnsgd1na2vs0mg"},{"bike_id":"e32147e0-2c1a-4589-a67a-3853e29a2cab","system_id":"levelo_inurba_marseille","lat":43.28418,"lon":5.34999,"is_reserved":false,"is_disabled":false,"rental_uris":{"android":"levelo://app?vid=e32147e0-2c1a-4589-a67a-3853e29a2cab","ios":"levelo://app?vid=e32147e0-2c1a-4589-a67a-3853e29a2cab"},"vehicle_type_id":"4","last_reported":1752419361,"current_range_meters":19200,"station_id":"ce4bhbh2rcd13ifvqepg","pricing_plan_id":"cebpf4jnsgd1na2vs0mg"},{"bike_id":"fba1dab9-fae1-4585-b9dc-bbf5a4e01f27","system_id":"levelo_inurba_marseille","lat":43.26694,"lon":5.38289,"is_reserved":false,"is_disabled":false,"rental_uris":{"android":"levelo://app?vid=fba1dab9-fae1-4585-b9dc-bbf5a4e01f27","ios":"levelo://app?vid=fba1dab9-fae1-4585-b9dc-bbf5a4e01f27"},"vehicle_type_id":"4","last_reported":1752419361,"current_range_meters":19200,"station_id":"ce4bhg92rcd13ifvqf90","pricing_plan_id":"cebpf4jnsgd1na2vs0mg"},{"bike_id":"b7a87077-64f8-465b-9d76-3a4c25a1eeeb","system_id":"levelo_inurba_marseille","lat":43.28415,"lon":5.34987,"is_reserved":false,"is_disabled":false,"rental_uris":{"android":"levelo://app?vid=b7a87077-64f8-465b-9d76-3a4c25a1eeeb","ios":"levelo://app?vid=b7a87077-64f8-465b-9d76-3a4c25a1eeeb"},"vehicle_type_id":"4","last_reported":1752419361,"current_range_meters":19200,"station_id":"ce4bhbh2rcd13ifvqepg","pricing_plan_id":"cebpf4jnsgd1na2vs0mg"},{"bike_id":"f731294a-2472-4939-b8b8-88103f7c569c","system_id":"levelo_inurba_marseille","lat":43.217482,"lon":5.346004,"is_reserved":false,"is_disabled":false,"rental_uris":{"android":"levelo://app?vid=f731294a-2472-4939-b8b8-88103f7c569c","ios":"levelo://app?vid=f731294a-2472-4939-b8b8-88103f7c569c"},"vehicle_type_id":"4","last_reported":1752419361,"current_range_meters":19200,"station_id":"","pricing_plan_id":"cebpf4jnsgd1na2vs0mg"},{"bike_id":"e4f60a7e-d35f-404e-924f-8496bc4bb84b","system_id":"levelo_inurba_marseille","lat":43.2318,"lon":5.39988,"is_reserved":false,"is_disabled":false,"rental_uris":{"android":"levelo://app?vid=e4f60a7e-d35f-404e-924f-8496bc4bb84b","ios":"levelo://app?vid=e4f60a7e-d35f-404e-924f-8496bc4bb84b"},"vehicle_type_id":"4","last_reported":1752419361,"current_range_meters":19200,"station_id":"ce4bhn12rcd13ifvqgqg","pricing_plan_id":"cebpf4jnsgd1na2vs0mg"},{"bike_id":"b21602cd-ddef-483d-904d-d073c48e8624","system_id":"levelo_inurba_marseille","lat":43.26217,"lon":5.37425,"is_reserved":false,"is_disabled":false,"rental_uris":{"android":"levelo://app?vid=b21602cd-ddef-483d-904d-d073c48e8624","ios":"levelo://app?vid=b21602cd-ddef-483d-904d-d073c48e8624"},"vehicle_type_id":"4","last_reported":1752419361,"current_range_meters":19200,"station_id":"ce4bhgp2rcd13ifvqfc0","pricing_plan_id":"cebpf4jnsgd1na2vs0mg"},{"bike_id":"f8293e10-0a64-48db-ae97-2008c359dc00","system_id":"levelo_inurba_marseille","lat":43.21766,"lon":5.34596,"is_reserved":false,"is_disabled":false,"rental_uris":{"android":"levelo://app?vid=f8293e10-0a64-48db-ae97-2008c359dc00","ios":"levelo://app?vid=f8293e10-0a64-48db-ae97-2008c359dc00"},"vehicle_type_id":"4","last_reported":1752419361,"current_range_meters":19200,"station_id":"st_cvj6r9ubvosntc0bgbag","pricing_plan_id":"cebpf4jnsgd1na2vs0mg"},{"bike_id":"574a470e-82c5-42cb-af5f-1c7461e039af","system_id":"levelo_inurba_marseille","lat":43.28421,"lon":5.34988,"is_reserved":false,"is_disabled":false,"rental_uris":{"android":"levelo://app?vid=574a470e-82c5-42cb-af5f-1c7461e039af","ios":"levelo://app?vid=574a470e-82c5-42cb-af5f-1c7461e039af"},"vehicle_type_id":"4","last_reported":1752419361,"current_range_meters":19200,"station_id":"ce4bhbh2rcd13ifvqepg","pricing_plan_id":"cebpf4jnsgd1na2vs0mg"},{"bike_id":"dbd7fe56-0203-46bf-b401-57ead6784732","system_id":"levelo_inurba_marseille","lat":43.25503,"lon":5.37653,"is_reserved":false,"is_disabled":false,"rental_uris":{"android":"levelo://app?vid=dbd7fe56-0203-46bf-b401-57ead6784732","ios":"levelo://app?vid=dbd7fe56-0203-46bf-b401-57ead6784732"},"vehicle_type_id":"4","last_reported":1752419361,"current_range_meters":19600,"station_id":"ce4bhh12rcd13ifvqff0","pricing_plan_id":"cebpf4jnsgd1na2vs0mg"},{"bike_id":"2c81c752-b139-48bc-a4ee-7fa7f8526278","system_id":"levelo_inurba_marseille","lat":43.21752,"lon":5.34596,"is_reserved":false,"is_disabled":true,"rental_uris":{"android":"levelo://app?vid=2c81c752-b139-48bc-a4ee-7fa7f8526278","ios":"levelo://app?vid=2c81c752-b139-48bc-a4ee-7fa7f8526278"},"vehicle_type_id":"4","last_reported":1752419361,"current_range_meters":19600,"station_id":"st_cvj6r9ubvosntc0bgbag","pricing_plan_id":"cebpf4jnsgd1na2vs0mg"},{"bike_id":"217bb73d-ad8c-4717-8c1e-ca213e78f78a","system_id":"levelo_inurba_marseille","lat":43.28264,"lon":5.35093,"is_reserved":false,"is_disabled":false,"rental_uris":{"android":"levelo://app?vid=217bb73d-ad8c-4717-8c1e-ca213e78f78a","ios":"levelo://app?vid=217bb73d-ad8c-4717-8c1e-ca213e78f78a"},"vehicle_type_id":"4","last_reported":1752419361,"current_range_meters":19600,"station_id":"ce4bhbp2rcd13ifvqerg","pricing_plan_id":"cebpf4jnsgd1na2vs0mg"},{"bike_id":"4db0659b-d694-4bae-b44b-ada21f2d9bdf","system_id":"levelo_inurba_marseille","lat":43.28268,"lon":5.3506,"is_reserved":false,"is_disabled":false,"rental_uris":{"android":"levelo://app?vid=4db0659b-d694-4bae-b44b-ada21f2d9bdf","ios":"levelo://app?vid=4db0659b-d694-4bae-b44b-ada21f2d9bdf"},"vehicle_type_id":"4","last_reported":1752419361,"current_range_meters":19600,"station_id":"ce4bhbp2rcd13ifvqerg","pricing_plan_id":"cebpf4jnsgd1na2vs0mg"},{"bike_id":"5f48d587-f9d0-43e5-b0b2-bf2fb17b1a3c","system_id":"levelo_inurba_marseille","lat":43.2941,"lon":5.38635,"is_reserved":false,"is_disabled":true,"rental_uris":{"android":"levelo://app?vid=5f48d587-f9d0-43e5-b0b2-bf2fb17b1a3c","ios":"levelo://app?vid=5f48d587-f9d0-43e5-b0b2-bf2fb17b1a3c"},"vehicle_type_id":"4","last_reported":1752419361,"current_range_meters":19600,"station_id":"ce4bh2h2rcd13ifvqdh0","pricing_plan_id":"cebpf4jnsgd1na2vs0mg"},{"bike_id":"fcee4ff7-4014-474c-800a-8f15d9b03af0","system_id":"levelo_inurba_marseille","lat":43.28425,"lon":5.34989,"is_reserved":false,"is_disabled":false,"rental_uris":{"android":"levelo://app?vid=fcee4ff7-4014-474c-800a-8f15d9b03af0","ios":"levelo://app?vid=fcee4ff7-4014-474c-800a-8f15d9b03af0"},"vehicle_type_id":"4","last_reported":1752419361,"current_range_meters":19600,"station_id":"ce4bhbh2rcd13ifvqepg","pricing_plan_id":"cebpf4jnsgd1na2vs0mg"},{"bike_id":"65779b1a-949d-462a-a181-850d4123044f","system_id":"levelo_inurba_marseille","lat":43.22963,"lon":5.35376,"is_reserved":false,"is_disabled":false,"rental_uris":{"android":"levelo://app?vid=65779b1a-949d-462a-a181-850d4123044f","ios":"levelo://app?vid=65779b1a-949d-462a-a181-850d4123044f"},"vehicle_type_id":"4","last_reported":1752419361,"current_range_meters":19600,"station_id":"cpo3532slgdg3j2ikp40","pricing_plan_id":"cebpf4jnsgd1na2vs0mg"},{"bike_id":"ac855dfc-683e-459a-940a-b11e6e920126","system_id":"levelo_inurba_marseille","lat":43.28429,"lon":5.35003,"is_reserved":false,"is_disabled":false,"rental_uris":{"android":"levelo://app?vid=ac855dfc-683e-459a-940a-b11e6e920126","ios":"levelo://app?vid=ac855dfc-683e-459a-940a-b11e6e920126"},"vehicle_type_id":"4","last_reported":1752419361,"current_range_meters":19600,"station_id":"ce4bhbh2rcd13ifvqepg","pricing_plan_id":"cebpf4jnsgd1na2vs0mg"},{"bike_id":"c86e3e7a-d1dd-4398-b662-a5f1ec3c1432","system_id":"levelo_inurba_marseille","lat":43.28448,"lon":5.34992,"is_reserved":false,"is_disabled":false,"rental_uris":{"android":"levelo://app?vid=c86e3e7a-d1dd-4398-b662-a5f1ec3c1432","ios":"levelo://app?vid=c86e3e7a-d1dd-4398-b662-a5f1ec3c1432"},"vehicle_type_id":"4","last_reported":1752419361,"current_range_meters":19600,"station_id":"ce4bhbh2rcd13ifvqepg","pricing_plan_id":"cebpf4jnsgd1na2vs0mg"},{"bike_id":"11a39e05-292b-4d9b-9092-b7df14d231a7","system_id":"levelo_inurba_marseille","lat":43.26571,"lon":5.39027,"is_reserved":false,"is_disabled":false,"rental_uris":{"android":"levelo://app?vid=11a39e05-292b-4d9b-9092-b7df14d231a7","ios":"levelo://app?vid=11a39e05-292b-4d9b-9092-b7df14d231a7"},"vehicle_type_id":"4","last_reported":1752419361,"current_range_meters":19600,"station_id":"ce4bhe12rcd13ifvqf30","pricing_plan_id":"cebpf4jnsgd1na2vs0mg"},{"bike_id":"0b64e547-af82-4cf7-9505-e5c3a697d8a1","system_id":"levelo_inurba_marseille","lat":43.21749,"lon":5.346013,"is_reserved":false,"is_disabled":false,"rental_uris":{"android":"levelo://app?vid=0b64e547-af82-4cf7-9505-e5c3a697d8a1","ios":"levelo://app?vid=0b64e547-af82-4cf7-9505-e5c3a697d8a1"},"vehicle_type_id":"4","last_reported":1752419361,"current_range_meters":19600,"station_id":"st_cvj6r9ubvosntc0bgbag","pricing_plan_id":"cebpf4jnsgd1na2vs0mg"},{"bike_id":"26333ae4-2ca6-4315-9126-41f4031f1a5a","system_id":"levelo_inurba_marseille","lat":43.28422,"lon":5.35007,"is_reserved":false,"is_disabled":false,"rental_uris":{"android":"levelo://app?vid=26333ae4-2ca6-4315-9126-41f4031f1a5a","ios":"levelo://app?vid=26333ae4-2ca6-4315-9126-41f4031f1a5a"},"vehicle_type_id":"4","last_reported":1752419361,"current_range_meters":19600,"station_id":"ce4bhbh2rcd13ifvqepg","pricing_plan_id":"cebpf4jnsgd1na2vs0mg"},{"bike_id":"661015c8-5a56-4bde-8f86-eb746530b608","system_id":"levelo_inurba_marseille","lat":43.21749,"lon":5.34604,"is_reserved":false,"is_disabled":false,"rental_uris":{"android":"levelo://app?vid=661015c8-5a56-4bde-8f86-eb746530b608","ios":"levelo://app?vid=661015c8-5a56-4bde-8f86-eb746530b608"},"vehicle_type_id":"4","last_reported":1752419361,"current_range_meters":19600,"station_id":"st_cvj6r9ubvosntc0bgbag","pricing_plan_id":"cebpf4jnsgd1na2vs0mg"},{"bike_id":"c9a9aa3f-1a32-45a2-b78a-0fae38b3d9a7","system_id":"levelo_inurba_marseille","lat":43.31483,"lon":5.3731,"is_reserved":false,"is_disabled":false,"rental_uris":{"android":"levelo://app?vid=c9a9aa3f-1a32-45a2-b78a-0fae38b3d9a7","ios":"levelo://app?vid=c9a9aa3f-1a32-45a2-b78a-0fae38b3d9a7"},"vehicle_type_id":"4","last_reported":1752419361,"current_range_meters":20000,"station_id":"ce4bgt12rcd13ifvqcd0","pricing_plan_id":"cebpf4jnsgd1na2vs0mg"},{"bike_id":"32390747-e20d-413f-9f3c-254defb0954c","system_id":"levelo_inurba_marseille","lat":43.25491,"lon":5.37659,"is_reserved":false,"is_disabled":false,"rental_uris":{"android":"levelo://app?vid=32390747-e20d-413f-9f3c-254defb0954c","ios":"levelo://app?vid=32390747-e20d-413f-9f3c-254defb0954c"},"vehicle_type_id":"4","last_reported":1752419361,"current_range_meters":20000,"station_id":"ce4bhh12rcd13ifvqff0","pricing_plan_id":"cebpf4jnsgd1na2vs0mg"},{"bike_id":"45311e08-8eb0-43a2-b8a3-76cbe9328558","system_id":"levelo_inurba_marseille","lat":43.28635,"lon":5.35092,"is_reserved":false,"is_disabled":false,"rental_uris":{"android":"levelo://app?vid=45311e08-8eb0-43a2-b8a3-76cbe9328558","ios":"levelo://app?vid=45311e08-8eb0-43a2-b8a3-76cbe9328558"},"vehicle_type_id":"4","last_reported":1752419361,"current_range_meters":20000,"station_id":"ce4bhch2rcd13ifvqeug","pricing_plan_id":"cebpf4jnsgd1na2vs0mg"},{"bike_id":"ab31a6ec-78d7-4daa-a92b-a0febb1c7c36","system_id":"levelo_inurba_marseille","lat":43.23191,"lon":5.35556,"is_reserved":false,"is_disabled":false,"rental_uris":{"android":"levelo://app?vid=ab31a6ec-78d7-4daa-a92b-a0febb1c7c36","ios":"levelo://app?vid=ab31a6ec-78d7-4daa-a92b-a0febb1c7c36"},"vehicle_type_id":"4","last_reported":1752419361,"current_range_meters":20000,"station_id":"ce4bhu92rcd13ifvqi70","pricing_plan_id":"cebpf4jnsgd1na2vs0mg"},{"bike_id":"152306af-4144-4e36-8d4a-a7994eaa2fbe","system_id":"levelo_inurba_marseille","lat":43.23057,"lon":5.35468,"is_reserved":false,"is_disabled":false,"rental_uris":{"android":"levelo://app?vid=152306af-4144-4e36-8d4a-a7994eaa2fbe","ios":"levelo://app?vid=152306af-4144-4e36-8d4a-a7994eaa2fbe"},"vehicle_type_id":"4","last_reported":1752419361,"current_range_meters":20000,"station_id":"cpo3342slgdg3j2ifvpg","pricing_plan_id":"cebpf4jnsgd1na2vs0mg"},{"bike_id":"aedcefdc-6647-463e-888e-c5a8030f3382","system_id":"levelo_inurba_marseille","lat":43.28628,"lon":5.35112,"is_reserved":false,"is_disabled":false,"rental_uris":{"android":"levelo://app?vid=aedcefdc-6647-463e-888e-c5a8030f3382","ios":"levelo://app?vid=aedcefdc-6647-463e-888e-c5a8030f3382"},"vehicle_type_id":"4","last_reported":1752419361,"current_range_meters":20000,"station_id":"ce4bhch2rcd13ifvqeug","pricing_plan_id":"cebpf4jnsgd1na2vs0mg"},{"bike_id":"0775b407-1e68-448d-8e90-e9fdd321a6ff","system_id":"levelo_inurba_marseille","lat":43.23964,"lon":5.36629,"is_reserved":false,"is_disabled":false,"rental_uris":{"android":"levelo://app?vid=0775b407-1e68-448d-8e90-e9fdd321a6ff","ios":"levelo://app?vid=0775b407-1e68-448d-8e90-e9fdd321a6ff"},"vehicle_type_id":"4","last_reported":1752419361,"current_range_meters":19600,"station_id":"ce4bhi12rcd13ifvqfp0","pricing_plan_id":"cebpf4jnsgd1na2vs0mg"},{"bike_id":"aa260077-cb0d-43c9-8e67-329c1b69779f","system_id":"levelo_inurba_marseille","lat":43.21185,"lon":5.35083,"is_reserved":false,"is_disabled":false,"rental_uris":{"android":"levelo://app?vid=aa260077-cb0d-43c9-8e67-329c1b69779f","ios":"levelo://app?vid=aa260077-cb0d-43c9-8e67-329c1b69779f"},"vehicle_type_id":"4","last_reported":1752419361,"current_range_meters":20000,"station_id":"st_cvj6sg6p6f1abm77japg","pricing_plan_id":"cebpf4jnsgd1na2vs0mg"},{"bike_id":"11c1737e-f69c-4541-96a5-394601308243","system_id":"levelo_inurba_marseille","lat":43.29903,"lon":5.38102,"is_reserved":false,"is_disabled":false,"rental_uris":{"android":"levelo://app?vid=11c1737e-f69c-4541-96a5-394601308243","ios":"levelo://app?vid=11c1737e-f69c-4541-96a5-394601308243"},"vehicle_type_id":"4","last_reported":1752419361,"current_range_meters":20000,"station_id":"ce4bgj12rcd13ifvqbc0","pricing_plan_id":"cebpf4jnsgd1na2vs0mg"},{"bike_id":"04b9bbde-a145-41e7-a7b0-cd8d25714b9e","system_id":"levelo_inurba_marseille","lat":43.29207,"lon":5.35815,"is_reserved":false,"is_disabled":false,"rental_uris":{"android":"levelo://app?vid=04b9bbde-a145-41e7-a7b0-cd8d25714b9e","ios":"levelo://app?vid=04b9bbde-a145-41e7-a7b0-cd8d25714b9e"},"vehicle_type_id":"4","last_reported":1752419361,"current_range_meters":20000,"station_id":"ce4bhb12rcd13ifvqel0","pricing_plan_id":"cebpf4jnsgd1na2vs0mg"},{"bike_id":"cf070045-79b9-4bb5-83ea-ade964db42fa","system_id":"levelo_inurba_marseille","lat":43.29908,"lon":5.4366,"is_reserved":false,"is_disabled":false,"rental_uris":{"android":"levelo://app?vid=cf070045-79b9-4bb5-83ea-ade964db42fa","ios":"levelo://app?vid=cf070045-79b9-4bb5-83ea-ade964db42fa"},"vehicle_type_id":"4","last_reported":1752419361,"current_range_meters":20000,"station_id":"ce4bhpp2rcd13ifvqhfg","pricing_plan_id":"cebpf4jnsgd1na2vs0mg"},{"bike_id":"08e67338-a2ff-42fc-a939-92ad435f118e","system_id":"levelo_inurba_marseille","lat":43.27674,"lon":5.35714,"is_reserved":false,"is_disabled":false,"rental_uris":{"android":"levelo://app?vid=08e67338-a2ff-42fc-a939-92ad435f118e","ios":"levelo://app?vid=08e67338-a2ff-42fc-a939-92ad435f118e"},"vehicle_type_id":"4","last_reported":1752419361,"current_range_meters":20000,"station_id":"","pricing_plan_id":"cebpf4jnsgd1na2vs0mg"},{"bike_id":"fd45ce6f-4b8c-407a-91aa-8c33650e607a","system_id":"levelo_inurba_marseille","lat":43.28009,"lon":5.41659,"is_reserved":false,"is_disabled":false,"rental_uris":{"android":"levelo://app?vid=fd45ce6f-4b8c-407a-91aa-8c33650e607a","ios":"levelo://app?vid=fd45ce6f-4b8c-407a-91aa-8c33650e607a"},"vehicle_type_id":"4","last_reported":1752419361,"current_range_meters":20400,"station_id":"ce4bho12rcd13ifvqh1g","pricing_plan_id":"cebpf4jnsgd1na2vs0mg"},{"bike_id":"71e479f4-838c-44c9-a19e-d1950cd099a6","system_id":"levelo_inurba_marseille","lat":43.276436,"lon":5.423683,"is_reserved":false,"is_disabled":false,"rental_uris":{"android":"levelo://app?vid=71e479f4-838c-44c9-a19e-d1950cd099a6","ios":"levelo://app?vid=71e479f4-838c-44c9-a19e-d1950cd099a6"},"vehicle_type_id":"4","last_reported":1752419361,"current_range_meters":20400,"station_id":"","pricing_plan_id":"cebpf4jnsgd1na2vs0mg"},{"bike_id":"d7a76a84-719d-407c-913b-d340ac229333","system_id":"levelo_inurba_marseille","lat":43.28425,"lon":5.34994,"is_reserved":false,"is_disabled":false,"rental_uris":{"android":"levelo://app?vid=d7a76a84-719d-407c-913b-d340ac229333","ios":"levelo://app?vid=d7a76a84-719d-407c-913b-d340ac229333"},"vehicle_type_id":"4","last_reported":1752419361,"current_range_meters":20400,"station_id":"ce4bhbh2rcd13ifvqepg","pricing_plan_id":"cebpf4jnsgd1na2vs0mg"},{"bike_id":"0eabdcbf-7227-405e-ba6d-a34025e3f935","system_id":"levelo_inurba_marseille","lat":43.22928,"lon":5.35382,"is_reserved":false,"is_disabled":false,"rental_uris":{"android":"levelo://app?vid=0eabdcbf-7227-405e-ba6d-a34025e3f935","ios":"levelo://app?vid=0eabdcbf-7227-405e-ba6d-a34025e3f935"},"vehicle_type_id":"4","last_reported":1752419361,"current_range_meters":20400,"station_id":"cpo3532slgdg3j2ikp40","pricing_plan_id":"cebpf4jnsgd1na2vs0mg"},{"bike_id":"7596bf57-ab58-4a04-891f-12182ed6ce97","system_id":"levelo_inurba_marseille","lat":43.28152,"lon":5.42658,"is_reserved":false,"is_disabled":false,"rental_uris":{"android":"levelo://app?vid=7596bf57-ab58-4a04-891f-12182ed6ce97","ios":"levelo://app?vid=7596bf57-ab58-4a04-891f-12182ed6ce97"},"vehicle_type_id":"4","last_reported":1752419361,"current_range_meters":20400,"station_id":"ce4bhnh2rcd13ifvqgug","pricing_plan_id":"cebpf4jnsgd1na2vs0mg"},{"bike_id":"f7a6d31d-7624-4cb0-aebe-8338499c0621","system_id":"levelo_inurba_marseille","lat":43.23181,"lon":5.39992,"is_reserved":false,"is_disabled":false,"rental_uris":{"android":"levelo://app?vid=f7a6d31d-7624-4cb0-aebe-8338499c0621","ios":"levelo://app?vid=f7a6d31d-7624-4cb0-aebe-8338499c0621"},"vehicle_type_id":"4","last_reported":1752419361,"current_range_meters":19600,"station_id":"ce4bhn12rcd13ifvqgqg","pricing_plan_id":"cebpf4jnsgd1na2vs0mg"},{"bike_id":"0a36eb4e-864b-481e-a07f-54eb69e5afa7","system_id":"levelo_inurba_marseille","lat":43.26587,"lon":5.39483,"is_reserved":false,"is_disabled":false,"rental_uris":{"android":"levelo://app?vid=0a36eb4e-864b-481e-a07f-54eb69e5afa7","ios":"levelo://app?vid=0a36eb4e-864b-481e-a07f-54eb69e5afa7"},"vehicle_type_id":"4","last_reported":1752419361,"current_range_meters":20400,"station_id":"","pricing_plan_id":"cebpf4jnsgd1na2vs0mg"},{"bike_id":"7836b3fe-d9c5-4c7b-a549-caf7c86f1c36","system_id":"levelo_inurba_marseille","lat":43.27385,"lon":5.36252,"is_reserved":false,"is_disabled":false,"rental_uris":{"android":"levelo://app?vid=7836b3fe-d9c5-4c7b-a549-caf7c86f1c36","ios":"levelo://app?vid=7836b3fe-d9c5-4c7b-a549-caf7c86f1c36"},"vehicle_type_id":"4","last_reported":1752419361,"current_range_meters":20400,"station_id":"ce4bhbh2rcd13ifvqeo0","pricing_plan_id":"cebpf4jnsgd1na2vs0mg"},{"bike_id":"1324d199-ffb1-4d01-891d-c659aea3c6d7","system_id":"levelo_inurba_marseille","lat":43.24088,"lon":5.37764,"is_reserved":false,"is_disabled":false,"rental_uris":{"android":"levelo://app?vid=1324d199-ffb1-4d01-891d-c659aea3c6d7","ios":"levelo://app?vid=1324d199-ffb1-4d01-891d-c659aea3c6d7"},"vehicle_type_id":"4","last_reported":1752419361,"current_range_meters":20000,"station_id":"ce4bhnp2rcd13ifvqgvg","pricing_plan_id":"cebpf4jnsgd1na2vs0mg"},{"bike_id":"e92055f7-5ccb-4f17-9c8c-7e4a8d9c4cdd","system_id":"levelo_inurba_marseille","lat":43.30155,"lon":5.3814,"is_reserved":false,"is_disabled":false,"rental_uris":{"android":"levelo://app?vid=e92055f7-5ccb-4f17-9c8c-7e4a8d9c4cdd","ios":"levelo://app?vid=e92055f7-5ccb-4f17-9c8c-7e4a8d9c4cdd"},"vehicle_type_id":"4","last_reported":1752419361,"current_range_meters":20400,"station_id":"ce4bgjp2rcd13ifvqbh0","pricing_plan_id":"cebpf4jnsgd1na2vs0mg"},{"bike_id":"0c4147a4-b705-40b0-80c4-7c53952b5b61","system_id":"levelo_inurba_marseille","lat":43.28259,"lon":5.35085,"is_reserved":false,"is_disabled":false,"rental_uris":{"android":"levelo://app?vid=0c4147a4-b705-40b0-80c4-7c53952b5b61","ios":"levelo://app?vid=0c4147a4-b705-40b0-80c4-7c53952b5b61"},"vehicle_type_id":"4","last_reported":1752419361,"current_range_meters":20400,"station_id":"ce4bhbp2rcd13ifvqerg","pricing_plan_id":"cebpf4jnsgd1na2vs0mg"},