{"last_updated":1747811435,"ttl":60,"version":"2.2","data":{"bikes":[{"bike_id":"c0b9fd4f-e181-46ce-b0bf-f5119973334f","system_id":"levelo_inurba_marseille","lat":43.33771,"lon":5.37424,"is_reserved":false,"is_disabled":true,"rental_uris":{"android":"levelo://app?vid=c0b9fd4f-e181-46ce-b0bf-f5119973334f","ios":"levelo://app?vid=c0b9fd4f-e181-46ce-b0bf-f5119973334f"},"vehicle_type_id":"4","last_reported":1747811435,"current_range_meters":0,"station_id":"","pricing_plan_id":"cebpf4jnsgd1na2vs0mg"},{"bike_id":"1dec17c8-cbde-4354-8b6c-219f98c89710","system_id":"levelo_inurba_marseille","lat":43.291827,"lon":5.422652,"is_reserved":false,"is_disabled":true,"rental_uris":{"android":"levelo://app?vid=1dec17c8-cbde-4354-8b6c-219f98c89710","ios":"levelo://app?vid=1dec17c8-cbde-4354-8b6c-219f98c89710"},"vehicle_type_id":"4","last_reported":1747811435,"current_range_meters":0,"station_id":"","pricing_plan_id":"cebpf4jnsgd1na2vs0mg"},{"bike_id":"60a1b57e-c1a1-403a-8d3f-50ae1fe4bd04","system_id":"levelo_inurba_marseille","lat":43.26611,"lon":5.37363,"is_reserved":false,"is_disabled":true,"rental_uris":{"android":"levelo://app?vid=60a1b57e-c1a1-403a-8d3f-50ae1fe4bd04","ios":"levelo://app?vid=60a1b57e-c1a1-403a-8d3f-50ae1fe4bd04"},"vehicle_type_id":"4","last_reported":1747811435,"current_range_meters":0,"station_id":"","pricing_plan_id":"cebpf4jnsgd1na2vs0mg"},{"bike_id":"399c41cd-ce0f-41ec-852e-8ace5217f7e1","system_id":"levelo_inurba_marseille","lat":43.299627,"lon":5.45289,"is_reserved":false,"is_disabled":true,"rental_uris":{"android":"levelo://app?vid=399c41cd-ce0f-41ec-852e-8ace5217f7e1","ios":"levelo://app?vid=399c41cd-ce0f-41ec-852e-8ace5217f7e1"},"vehicle_type_id":"4","last_reported":1747811435,"current_range_meters":0,"station_id":"","pricing_plan_id":"cebpf4jnsgd1na2vs0mg"},{"bike_id":"e9dd3aa4-b5e7-4480-926d-d7f537719bfa","system_id":"levelo_inurba_marseille","lat":43.230331,"lon":5.401847,"is_reserved":false,"is_disabled":true,"rental_uris":{"android":"levelo://app?vid=e9dd3aa4-b5e7-4480-926d-d7f537719bfa","ios":"levelo://app?vid=e9dd3aa4-b5e7-4480-926d-d7f537719bfa"},"vehicle_type_id":"4","last_reported":1747811435,"current_range_meters":0,"station_id":"","pricing_plan_id":"cebpf4jnsgd1na2vs0mg"},{"bike_id":"14603e41-b2dd-4757-a53c-2e366aa4f983","system_id":"levelo_inurba_marseille","lat":43.26998,"lon":5.42826,"is_reserved":false,"is_disabled":true,"rental_uris":{"android":"levelo://app?vid=14603e41-b2dd-4757-a53c-2e366aa4f983","ios":"levelo://app?vid=14603e41-b2dd-4757-a53c-2e366aa4f983"},"vehicle_type_id":"4","last_reported":1747811435,"current_range_meters":0,"station_id":"","pricing_plan_id":"cebpf4jnsgd1na2vs0mg"},{"bike_id":"7e524006-dfac-42c3-8fa6-26ae3b8e1596","system_id":"levelo_inurba_marseille","lat":43.29803,"lon":5.38095,"is_reserved":false,"is_disabled":true,"rental_uris":{"android":"levelo://app?vid=7e524006-dfac-42c3-8fa6-26ae3b8e1596","ios":"levelo://app?vid=7e524006-dfac-42c3-8fa6-26ae3b8e1596"},"vehicle_type_id":"4","last_reported":1747811435,"current_range_meters":0,"station_id":"ce4bgip2rcd13ifvqbb0","pricing_plan_id":"cebpf4jnsgd1na2vs0mg"},{"bike_id":"50b13368-3703-4705-9429-9649d46162cd","system_id":"levelo_inurba_marseille","lat":43.30303,"lon":5.39216,"is_reserved":false,"is_disabled":true,"rental_uris":{"android":"levelo://app?vid=50b13368-3703-4705-9429-9649d46162cd","ios":"levelo://app?vid=50b13368-3703-4705-9429-9649d46162cd"},"vehicle_type_id":"4","last_reported":1747811435,"current_range_meters":0,"station_id":"ce4bgkh2rcd13ifvqbk0","pricing_plan_id":"cebpf4jnsgd1na2vs0mg"},{"bike_id":"c8e3ce5b-3a10-4d63-950d-d74fb5967a12","system_id":"levelo_inurba_marseille","lat":43.30468,"lon":5.37916,"is_reserved":false,"is_disabled":true,"rental_uris":{"android":"levelo://app?vid=c8e3ce5b-3a10-4d63-950d-d74fb5967a12","ios":"levelo://app?vid=c8e3ce5b-3a10-4d63-950d-d74fb5967a12"},"vehicle_type_id":"4","last_reported":1747811435,"current_range_meters":0,"station_id":"ce4bgup2rcd13ifvqcn0","pricing_plan_id":"cebpf4jnsgd1na2vs0mg"},{"bike_id":"73bbede7-3033-44c9-a3b1-c75a25f405ae","system_id":"levelo_inurba_marseille","lat":43.3169,"lon":5.40465,"is_reserved":false,"is_disabled":true,"rental_uris":{"android":"levelo://app?vid=73bbede7-3033-44c9-a3b1-c75a25f405ae","ios":"levelo://app?vid=73bbede7-3033-44c9-a3b1-c75a25f405ae"},"vehicle_type_id":"4","last_reported":1747811435,"current_range_meters":0,"station_id":"ce4bh012rcd13ifvqd00","pricing_plan_id":"cebpf4jnsgd1na2vs0mg"},{"bike_id":"117b37e9-96f5-4a81-a5aa-8f9af58d052e","system_id":"levelo_inurba_marseille","lat":43.28931,"lon":5.3841,"is_reserved":false,"is_disabled":true,"rental_uris":{"android":"levelo://app?vid=117b37e9-96f5-4a81-a5aa-8f9af58d052e","ios":"levelo://app?vid=117b37e9-96f5-4a81-a5aa-8f9af58d052e"},"vehicle_type_id":"4","last_reported":1747811435,"current_range_meters":0,"station_id":"ce4bh612rcd13ifvqe6g","pricing_plan_id":"cebpf4jnsgd1na2vs0mg"},{"bike_id":"657c1d87-59eb-451c-828a-5e7f234dde1b","system_id":"levelo_inurba_marseille","lat":43.2668,"lon":5.38265,"is_reserved":false,"is_disabled":true,"rental_uris":{"android":"levelo://app?vid=657c1d87-59eb-451c-828a-5e7f234dde1b","ios":"levelo://app?vid=657c1d87-59eb-451c-828a-5e7f234dde1b"},"vehicle_type_id":"4","last_reported":1747811435,"current_range_meters":0,"station_id":"ce4bhg92rcd13ifvqf90","pricing_plan_id":"cebpf4jnsgd1na2vs0mg"},{"bike_id":"140992da-9dc4-42fc-a70b-7c8a44f0a601","system_id":"levelo_inurba_marseille","lat":43.2694,"lon":5.38633,"is_reserved":false,"is_disabled":true,"rental_uris":{"android":"levelo://app?vid=140992da-9dc4-42fc-a70b-7c8a44f0a601","ios":"levelo://app?vid=140992da-9dc4-42fc-a70b-7c8a44f0a601"},"vehicle_type_id":"4","last_reported":1747811435,"current_range_meters":0,"station_id":"ce4bhh92rcd13ifvqfh0","pricing_plan_id":"cebpf4jnsgd1na2vs0mg"},{"bike_id":"46a64939-fab5-464e-a3c9-6d30a427fe55","system_id":"levelo_inurba_marseille","lat":43.25094,"lon":5.40331,"is_reserved":false,"is_disabled":true,"rental_uris":{"android":"levelo://app?vid=46a64939-fab5-464e-a3c9-6d30a427fe55","ios":"levelo://app?vid=46a64939-fab5-464e-a3c9-6d30a427fe55"},"vehicle_type_id":"4","last_reported":1747811435,"current_range_meters":0,"station_id":"ce4bhlh2rcd13ifvqgig","pricing_plan_id":"cebpf4jnsgd1na2vs0mg"},{"bike_id":"440532b9-29db-49f6-8d4d-6196daf71321","system_id":"levelo_inurba_marseille","lat":43.24539,"lon":5.3952,"is_reserved":false,"is_disabled":true,"rental_uris":{"android":"levelo://app?vid=440532b9-29db-49f6-8d4d-6196daf71321","ios":"levelo://app?vid=440532b9-29db-49f6-8d4d-6196daf71321"},"vehicle_type_id":"4","last_reported":1747811435,"current_range_meters":0,"station_id":"ce4bhlp2rcd13ifvqgjg","pricing_plan_id":"cebpf4jnsgd1na2vs0mg"},{"bike_id":"f649b615-f35d-4b4f-9ea5-01b1cab16378","system_id":"levelo_inurba_marseille","lat":43.2593,"lon":5.40909,"is_reserved":false,"is_disabled":true,"rental_uris":{"android":"levelo://app?vid=f649b615-f35d-4b4f-9ea5-01b1cab16378","ios":"levelo://app?vid=f649b615-f35d-4b4f-9ea5-01b1cab16378"},"vehicle_type_id":"4","last_reported":1747811435,"current_range_meters":0,"station_id":"ce4bhm92rcd13ifvqglg","pricing_plan_id":"cebpf4jnsgd1na2vs0mg"},{"bike_id":"b7ce9f06-2d34-4591-84a7-0042f0a4bb53","system_id":"levelo_inurba_marseille","lat":43.27941,"lon":5.41044,"is_reserved":false,"is_disabled":true,"rental_uris":{"android":"levelo://app?vid=b7ce9f06-2d34-4591-84a7-0042f0a4bb53","ios":"levelo://app?vid=b7ce9f06-2d34-4591-84a7-0042f0a4bb53"},"vehicle_type_id":"4","last_reported":1747811435,"current_range_meters":0,"station_id":"ce4bhnp2rcd13ifvqh0g","pricing_plan_id":"cebpf4jnsgd1na2vs0mg"},{"bike_id":"165d67e7-7820-413e-9335-5112e6b2d1ca","system_id":"levelo_inurba_marseille","lat":43.32662,"lon":5.40985,"is_reserved":false,"is_disabled":true,"rental_uris":{"android":"levelo://app?vid=165d67e7-7820-413e-9335-5112e6b2d1ca","ios":"levelo://app?vid=165d67e7-7820-413e-9335-5112e6b2d1ca"},"vehicle_type_id":"4","last_reported":1747811435,"current_range_meters":0,"station_id":"ce4bhpp2rcd13ifvqhgg","pricing_plan_id":"cebpf4jnsgd1na2vs0mg"},{"bike_id":"1564514d-cc8e-42ef-8372-aa83ad864c8e","system_id":"levelo_inurba_marseille","lat":43.281172,"lon":5.406043,"is_reserved":false,"is_disabled":true,"rental_uris":{"android":"levelo://app?vid=1564514d-cc8e-42ef-8372-aa83ad864c8e","ios":"levelo://app?vid=1564514d-cc8e-42ef-8372-aa83ad864c8e"},"vehicle_type_id":"4","last_reported":1747811435,"current_range_meters":800,"station_id":"","pricing_plan_id":"cebpf4jnsgd1na2vs0mg"},{"bike_id":"cd8c0c41-250b-4a0f-a5ba-6b810eeda305","system_id":"levelo_inurba_marseille","lat":43.28891,"lon":5.43083,"is_reserved":false,"is_disabled":true,"rental_uris":{"android":"levelo://app?vid=cd8c0c41-250b-4a0f-a5ba-6b810eeda305","ios":"levelo://app?vid=cd8c0c41-250b-4a0f-a5ba-6b810eeda305"},"vehicle_type_id":"4","last_reported":1747811435,"current_range_meters":800,"station_id":"","pricing_plan_id":"cebpf4jnsgd1na2vs0mg"},{"bike_id":"1b1598c5-bff7-4a27-b10c-a26b148dd91a","system_id":"levelo_inurba_marseille","lat":43.306034,"lon":5.382747,"is_reserved":false,"is_disabled":true,"rental_uris":{"android":"levelo://app?vid=1b1598c5-bff7-4a27-b10c-a26b148dd91a","ios":"levelo://app?vid=1b1598c5-bff7-4a27-b10c-a26b148dd91a"},"vehicle_type_id":"4","last_reported":1747811435,"current_range_meters":800,"station_id":"ce4bgt12rcd13ifvqce0","pricing_plan_id":"cebpf4jnsgd1na2vs0mg"},{"bike_id":"daade6aa-f5ec-415d-919e-948d1160fef6","system_id":"levelo_inurba_marseille","lat":43.26554,"lon":5.39035,"is_reserved":false,"is_disabled":true,"rental_uris":{"android":"levelo://app?vid=daade6aa-f5ec-415d-919e-948d1160fef6","ios":"levelo://app?vid=daade6aa-f5ec-415d-919e-948d1160fef6"},"vehicle_type_id":"4","last_reported":1747811435,"current_range_meters":800,"station_id":"ce4bhe12rcd13ifvqf30","pricing_plan_id":"cebpf4jnsgd1na2vs0mg"},{"bike_id":"43298e93-1783-4df4-9a72-940844aef1f0","system_id":"levelo_inurba_marseille","lat":43.23962,"lon":5.36645,"is_reserved":false,"is_disabled":true,"rental_uris":{"android":"levelo://app?vid=43298e93-1783-4df4-9a72-940844aef1f0","ios":"levelo://app?vid=43298e93-1783-4df4-9a72-940844aef1f0"},"vehicle_type_id":"4","last_reported":1747811435,"current_range_meters":800,"station_id":"ce4bhi12rcd13ifvqfp0","pricing_plan_id":"cebpf4jnsgd1na2vs0mg"},{"bike_id":"6772d5bf-2310-47f3-a8fb-607a035dd374","system_id":"levelo_inurba_marseille","lat":43.24065,"lon":5.37717,"is_reserved":false,"is_disabled":true,"rental_uris":{"android":"levelo://app?vid=6772d5bf-2310-47f3-a8fb-607a035dd374","ios":"levelo://app?vid=6772d5bf-2310-47f3-a8fb-607a035dd374"},"vehicle_type_id":"4","last_reported":1747811435,"current_range_meters":800,"station_id":"ce4bhnp2rcd13ifvqgvg","pricing_plan_id":"cebpf4jnsgd1na2vs0mg"},{"bike_id":"7e870e2d-bdbd-4f7b-8921-c10f374d0578","system_id":"levelo_inurba_marseille","lat":43.309436,"lon":5.401363,"is_reserved":false,"is_disabled":true,"rental_uris":{"android":"levelo://app?vid=7e870e2d-bdbd-4f7b-8921-c10f374d0578","ios":"levelo://app?vid=7e870e2d-bdbd-4f7b-8921-c10f374d0578"},"vehicle_type_id":"4","last_reported":1747811435,"current_range_meters":1200,"station_id":"ce4bgvp2rcd13ifvqct0","pricing_plan_id":"cebpf4jnsgd1na2vs0mg"},{"bike_id":"40279a5c-cfbb-4c89-ad47-2d31fbdf6d49","system_id":"levelo_inurba_marseille","lat":43.27965,"lon":5.38734,"is_reserved":false,"is_disabled":true,"rental_uris":{"android":"levelo://app?vid=40279a5c-cfbb-4c89-ad47-2d31fbdf6d49","ios":"levelo://app?vid=40279a5c-cfbb-4c89-ad47-2d31fbdf6d49"},"vehicle_type_id":"4","last_reported":1747811435,"current_range_meters":1200,"station_id":"ce4bhg12rcd13ifvqf80","pricing_plan_id":"cebpf4jnsgd1na2vs0mg"},{"bike_id":"025119fb-7279-4f12-98cb-323b10a84e18","system_id":"levelo_inurba_marseille","lat":43.27328,"lon":5.391,"is_reserved":false,"is_disabled":true,"rental_uris":{"android":"levelo://app?vid=025119fb-7279-4f12-98cb-323b10a84e18","ios":"levelo://app?vid=025119fb-7279-4f12-98cb-323b10a84e18"},"vehicle_type_id":"4","last_reported":1747811435,"current_range_meters":1200,"station_id":"ce4bhgp2rcd13ifvqfe0","pricing_plan_id":"cebpf4jnsgd1na2vs0mg"},{"bike_id":"0d6b9a93-f5ae-4a6f-ae80-8cb7f6d296c7","system_id":"levelo_inurba_marseille","lat":43.2781,"lon":5.4071,"is_reserved":false,"is_disabled":true,"rental_uris":{"android":"levelo://app?vid=0d6b9a93-f5ae-4a6f-ae80-8cb7f6d296c7","ios":"levelo://app?vid=0d6b9a93-f5ae-4a6f-ae80-8cb7f6d296c7"},"vehicle_type_id":"4","last_reported":1747811435,"current_range_meters":1200,"station_id":"ce4bhnh2rcd13ifvqgtg","pricing_plan_id":"cebpf4jnsgd1na2vs0mg"},{"bike_id":"2150c90f-31d5-49fd-89de-399fa134a212","system_id":"levelo_inurba_marseille","lat":43.32333,"lon":5.40627,"is_reserved":false,"is_disabled":true,"rental_uris":{"android":"levelo://app?vid=2150c90f-31d5-49fd-89de-399fa134a212","ios":"levelo://app?vid=2150c90f-31d5-49fd-89de-399fa134a212"},"vehicle_type_id":"4","last_reported":1747811435,"current_range_meters":1600,"station_id":"ce4bhq92rcd13ifvqhjg","pricing_plan_id":"cebpf4jnsgd1na2vs0mg"},{"bike_id":"1c741986-0876-4520-ac61-e47cc5d5b1d3","system_id":"levelo_inurba_marseille","lat":43.32114,"lon":5.36784,"is_reserved":false,"is_disabled":true,"rental_uris":{"android":"levelo://app?vid=1c741986-0876-4520-ac61-e47cc5d5b1d3","ios":"levelo://app?vid=1c741986-0876-4520-ac61-e47cc5d5b1d3"},"vehicle_type_id":"4","last_reported":1747811435,"current_range_meters":1600,"station_id":"ce4bhrh2rcd13ifvqhug","pricing_plan_id":"cebpf4jnsgd1na2vs0mg"},{"bike_id":"84c5433a-dbcb-4188-85ee-7650bc58c8e1","system_id":"levelo_inurba_marseille","lat":43.24161,"lon":5.36423,"is_reserved":false,"is_disabled":true,"rental_uris":{"android":"levelo://app?vid=84c5433a-dbcb-4188-85ee-7650bc58c8e1","ios":"levelo://app?vid=84c5433a-dbcb-4188-85ee-7650bc58c8e1"},"vehicle_type_id":"4","last_reported":1747811435,"current_range_meters":1600,"station_id":"cpo36qri1sfpv3e86is0","pricing_plan_id":"cebpf4jnsgd1na2vs0mg"},{"bike_id":"20bee342-4a3f-4f34-940d-bb6cf00d52ae","system_id":"levelo_inurba_marseille","lat":43.26674,"lon":5.38575,"is_reserved":false,"is_disabled":true,"rental_uris":{"android":"levelo://app?vid=20bee342-4a3f-4f34-940d-bb6cf00d52ae","ios":"levelo://app?vid=20bee342-4a3f-4f34-940d-bb6cf00d52ae"},"vehicle_type_id":"4","last_reported":1747811435,"current_range_meters":2000,"station_id":"","pricing_plan_id":"cebpf4jnsgd1na2vs0mg"},{"bike_id":"f6aed0e5-5401-41d5-a71f-06c2f23902dc","system_id":"levelo_inurba_marseille","lat":43.2997,"lon":5.38491,"is_reserved":false,"is_disabled":true,"rental_uris":{"android":"levelo://app?vid=f6aed0e5-5401-41d5-a71f-06c2f23902dc","ios":"levelo://app?vid=f6aed0e5-5401-41d5-a71f-06c2f23902dc"},"vehicle_type_id":"4","last_reported":1747811435,"current_range_meters":2000,"station_id":"ce4bgj92rcd13ifvqbd0","pricing_plan_id":"cebpf4jnsgd1na2vs0mg"},{"bike_id":"06f61d0a-80e1-4ed2-9f20-f2a6e95a6399","system_id":"levelo_inurba_marseille","lat":43.33612,"lon":5.41024,"is_reserved":false,"is_disabled":true,"rental_uris":{"android":"levelo://app?vid=06f61d0a-80e1-4ed2-9f20-f2a6e95a6399","ios":"levelo://app?vid=06f61d0a-80e1-4ed2-9f20-f2a6e95a6399"},"vehicle_type_id":"4","last_reported":1747811435,"current_range_meters":2000,"station_id":"ce4bhqh2rcd13ifvqhmg","pricing_plan_id":"cebpf4jnsgd1na2vs0mg"},{"bike_id":"64009229-b5c0-4ffe-9b0a-18fd9cd9c924","system_id":"levelo_inurba_marseille","lat":43.29797,"lon":5.38074,"is_reserved":false,"is_disabled":false,"rental_uris":{"android":"levelo://app?vid=64009229-b5c0-4ffe-9b0a-18fd9cd9c924","ios":"levelo://app?vid=64009229-b5c0-4ffe-9b0a-18fd9cd9c924"},"vehicle_type_id":"4","last_reported":1747811435,"current_range_meters":2800,"station_id":"ce4bgip2rcd13ifvqbb0","pricing_plan_id":"cebpf4jnsgd1na2vs0mg"},{"bike_id":"2c843415-25c4-4416-93a0-a26cceac9d5e","system_id":"levelo_inurba_marseille","lat":43.29968,"lon":5.38491,"is_reserved":false,"is_disabled":false,"rental_uris":{"android":"levelo://app?vid=2c843415-25c4-4416-93a0-a26cceac9d5e","ios":"levelo://app?vid=2c843415-25c4-4416-93a0-a26cceac9d5e"},"vehicle_type_id":"4","last_reported":1747811435,"current_range_meters":2800,"station_id":"ce4bgj92rcd13ifvqbd0","pricing_plan_id":"cebpf4jnsgd1na2vs0mg"},{"bike_id":"71f863b3-d7ae-409b-8282-a864156fd2f1","system_id":"levelo_inurba_marseille","lat":43.25,"lon":5.38947,"is_reserved":false,"is_disabled":false,"rental_uris":{"android":"levelo://app?vid=71f863b3-d7ae-409b-8282-a864156fd2f1","ios":"levelo://app?vid=71f863b3-d7ae-409b-8282-a864156fd2f1"},"vehicle_type_id":"4","last_reported":1747811435,"current_range_meters":2800,"station_id":"ce4bhgp2rcd13ifvqfd0","pricing_plan_id":"cebpf4jnsgd1na2vs0mg"},{"bike_id":"1df3f93f-9c1e-4c12-9cfb-26e715a1e0d6","system_id":"levelo_inurba_marseille","lat":43.24177,"lon":5.39727,"is_reserved":false,"is_disabled":false,"rental_uris":{"android":"levelo://app?vid=1df3f93f-9c1e-4c12-9cfb-26e715a1e0d6","ios":"levelo://app?vid=1df3f93f-9c1e-4c12-9cfb-26e715a1e0d6"},"vehicle_type_id":"4","last_reported":1747811435,"current_range_meters":2800,"station_id":"ce4bhn12rcd13ifvqgpg","pricing_plan_id":"cebpf4jnsgd1na2vs0mg"},{"bike_id":"360b0756-bb1f-49c9-9b44-5ad1edee7b38","system_id":"levelo_inurba_marseille","lat":43.27491,"lon":5.42452,"is_reserved":false,"is_disabled":false,"rental_uris":{"android":"levelo://app?vid=360b0756-bb1f-49c9-9b44-5ad1edee7b38","ios":"levelo://app?vid=360b0756-bb1f-49c9-9b44-5ad1edee7b38"},"vehicle_type_id":"4","last_reported":1747811435,"current_range_meters":2800,"station_id":"ce4bhn92rcd13ifvqgrg","pricing_plan_id":"cebpf4jnsgd1na2vs0mg"},{"bike_id":"ba59102a-6c47-4600-bcb9-76e5920c2815","system_id":"levelo_inurba_marseille","lat":43.31333,"lon":5.37194,"is_reserved":false,"is_disabled":false,"rental_uris":{"android":"levelo://app?vid=ba59102a-6c47-4600-bcb9-76e5920c2815","ios":"levelo://app?vid=ba59102a-6c47-4600-bcb9-76e5920c2815"},"vehicle_type_id":"4","last_reported":1747811435,"current_range_meters":3200,"station_id":"","pricing_plan_id":"cebpf4jnsgd1na2vs0mg"},{"bike_id":"856a9d65-204b-4e54-8904-a72bb6c09718","system_id":"levelo_inurba_marseille","lat":43.259121,"lon":5.409158,"is_reserved":false,"is_disabled":false,"rental_uris":{"android":"levelo://app?vid=856a9d65-204b-4e54-8904-a72bb6c09718","ios":"levelo://app?vid=856a9d65-204b-4e54-8904-a72bb6c09718"},"vehicle_type_id":"4","last_reported":1747811435,"current_range_meters":3200,"station_id":"ce4bh392rcd13ifvqdm0","pricing_plan_id":"cebpf4jnsgd1na2vs0mg"},{"bike_id":"0423fb4e-bf77-4423-97de-90c1baa35538","system_id":"levelo_inurba_marseille","lat":43.26212,"lon":5.37438,"is_reserved":false,"is_disabled":false,"rental_uris":{"android":"levelo://app?vid=0423fb4e-bf77-4423-97de-90c1baa35538","ios":"levelo://app?vid=0423fb4e-bf77-4423-97de-90c1baa35538"},"vehicle_type_id":"4","last_reported":1747811435,"current_range_meters":3200,"station_id":"ce4bhgp2rcd13ifvqfc0","pricing_plan_id":"cebpf4jnsgd1na2vs0mg"},{"bike_id":"913ffe41-9e00-4f91-b95c-fa12c59adf68","system_id":"levelo_inurba_marseille","lat":43.25938,"lon":5.40897,"is_reserved":false,"is_disabled":false,"rental_uris":{"android":"levelo://app?vid=913ffe41-9e00-4f91-b95c-fa12c59adf68","ios":"levelo://app?vid=913ffe41-9e00-4f91-b95c-fa12c59adf68"},"vehicle_type_id":"4","last_reported":1747811435,"current_range_meters":3200,"station_id":"ce4bhm92rcd13ifvqglg","pricing_plan_id":"cebpf4jnsgd1na2vs0mg"},{"bike_id":"61ce11c8-fc58-4174-bf6f-153ca80e08d2","system_id":"levelo_inurba_marseille","lat":43.24068,"lon":5.37749,"is_reserved":false,"is_disabled":false,"rental_uris":{"android":"levelo://app?vid=61ce11c8-fc58-4174-bf6f-153ca80e08d2","ios":"levelo://app?vid=61ce11c8-fc58-4174-bf6f-153ca80e08d2"},"vehicle_type_id":"4","last_reported":1747811435,"current_range_meters":3200,"station_id":"ce4bhnp2rcd13ifvqgvg","pricing_plan_id":"cebpf4jnsgd1na2vs0mg"},{"bike_id":"36f99858-080e-4189-a283-db8103c262da","system_id":"levelo_inurba_marseille","lat":43.2903,"lon":5.38123,"is_reserved":false,"is_disabled":false,"rental_uris":{"android":"levelo://app?vid=36f99858-080e-4189-a283-db8103c262da","ios":"levelo://app?vid=36f99858-080e-4189-a283-db8103c262da"},"vehicle_type_id":"4","last_reported":1747811435,"current_range_meters":4000,"station_id":"ce4bh4p2rcd13ifvqe1g","pricing_plan_id":"cebpf4jnsgd1na2vs0mg"},{"bike_id":"2ae6d43a-67f1-4368-8903-97f8118ce43a","system_id":"levelo_inurba_marseille","lat":43.28988,"lon":5.37831,"is_reserved":false,"is_disabled":false,"rental_uris":{"android":"levelo://app?vid=2ae6d43a-67f1-4368-8903-97f8118ce43a","ios":"levelo://app?vid=2ae6d43a-67f1-4368-8903-97f8118ce43a"},"vehicle_type_id":"4","last_reported":1747811435,"current_range_meters":4000,"station_id":"ce4bh9p2rcd13ifvqed0","pricing_plan_id":"cebpf4jnsgd1na2vs0mg"},{"bike_id":"fd14c408-34b5-4e0c-9d07-3cfbc7370a81","system_id":"levelo_inurba_marseille","lat":43.25726,"lon":5.41107,"is_reserved":false,"is_disabled":false,"rental_uris":{"android":"levelo://app?vid=fd14c408-34b5-4e0c-9d07-3cfbc7370a81","ios":"levelo://app?vid=fd14c408-34b5-4e0c-9d07-3cfbc7370a81"},"vehicle_type_id":"4","last_reported":1747811435,"current_range_meters":4000,"station_id":"ce4bhkp2rcd13ifvqgd0","pricing_plan_id":"cebpf4jnsgd1na2vs0mg"},{"bike_id":"5163f51f-3ed7-4643-bc09-95659c803301","system_id":"levelo_inurba_marseille","lat":43.27491,"lon":5.42465,"is_reserved":false,"is_disabled":false,"rental_uris":{"android":"levelo://app?vid=5163f51f-3ed7-4643-bc09-95659c803301","ios":"levelo://app?vid=5163f51f-3ed7-4643-bc09-95659c803301"},"vehicle_type_id":"4","last_reported":1747811435,"current_range_meters":4000,"station_id":"ce4bhn92rcd13ifvqgrg","pricing_plan_id":"cebpf4jnsgd1na2vs0mg"},{"bike_id":"5e5f020a-6028-406d-8f08-b5dcf3d63f76","system_id":"levelo_inurba_marseille","lat":43.2407,"lon":5.37753,"is_reserved":false,"is_disabled":false,"rental_uris":{"android":"levelo://app?vid=5e5f020a-6028-406d-8f08-b5dcf3d63f76","ios":"levelo://app?vid=5e5f020a-6028-406d-8f08-b5dcf3d63f76"},"vehicle_type_id":"4","last_reported":1747811435,"current_range_meters":4000,"station_id":"ce4bhnp2rcd13ifvqgvg","pricing_plan_id":"cebpf4jnsgd1na2vs0mg"},{"bike_id":"a5bcf3ab-5daa-4dec-898b-27b2e944e103","system_id":"levelo_inurba_marseille","lat":43.27289,"lon":5.41011,"is_reserved":false,"is_disabled":false,"rental_uris":{"android":"levelo://app?vid=a5bcf3ab-5daa-4dec-898b-27b2e944e103","ios":"levelo://app?vid=a5bcf3ab-5daa-4dec-898b-27b2e944e103"},"vehicle_type_id":"4","last_reported":1747811435,"current_range_meters":4400,"station_id":"","pricing_plan_id":"cebpf4jnsgd1na2vs0mg"},{"bike_id":"29e7363b-b3e7-4b80-9638-f8e9aa4b84e5","system_id":"levelo_inurba_marseille","lat":43.24636,"lon":5.38109,"is_reserved":false,"is_disabled":false,"rental_uris":{"android":"levelo://app?vid=29e7363b-b3e7-4b80-9638-f8e9aa4b84e5","ios":"levelo://app?vid=29e7363b-b3e7-4b80-9638-f8e9aa4b84e5"},"vehicle_type_id":"4","last_reported":1747811435,"current_range_meters":4400,"station_id":"","pricing_plan_id":"cebpf4jnsgd1na2vs0mg"},{"bike_id":"8f0f531d-6a65-4647-8a6f-baa3d982f42f","system_id":"levelo_inurba_marseille","lat":43.2812,"lon":5.42604,"is_reserved":false,"is_disabled":false,"rental_uris":{"android":"levelo://app?vid=8f0f531d-6a65-4647-8a6f-baa3d982f42f","ios":"levelo://app?vid=8f0f531d-6a65-4647-8a6f-baa3d982f42f"},"vehicle_type_id":"4","last_reported":1747811435,"current_range_meters":4400,"station_id":"ce4bhnh2rcd13ifvqgug","pricing_plan_id":"cebpf4jnsgd1na2vs0mg"},{"bike_id":"c781ad9b-f056-42a1-97da-43a40b1b92e7","system_id":"levelo_inurba_marseille","lat":43.23206,"lon":5.35566,"is_reserved":false,"is_disabled":false,"rental_uris":{"android":"levelo://app?vid=c781ad9b-f056-42a1-97da-43a40b1b92e7","ios":"levelo://app?vid=c781ad9b-f056-42a1-97da-43a40b1b92e7"},"vehicle_type_id":"4","last_reported":1747811435,"current_range_meters":4400,"station_id":"ce4bhu92rcd13ifvqi70","pricing_plan_id":"cebpf4jnsgd1na2vs0mg"},{"bike_id":"a6a79777-8e26-46b0-be40-2e589b0e5a0f","system_id":"levelo_inurba_marseille","lat":43.2119,"lon":5.35092,"is_reserved":false,"is_disabled":false,"rental_uris":{"android":"levelo://app?vid=a6a79777-8e26-46b0-be40-2e589b0e5a0f","ios":"levelo://app?vid=a6a79777-8e26-46b0-be40-2e589b0e5a0f"},"vehicle_type_id":"4","last_reported":1747811435,"current_range_meters":4400,"station_id":"st_cvj6sg6p6f1abm77japg","pricing_plan_id":"cebpf4jnsgd1na2vs0mg"},{"bike_id":"6fd2e923-db61-4b63-9c7b-2f52af450d9b","system_id":"levelo_inurba_marseille","lat":43.23156,"lon":5.43699,"is_reserved":false,"is_disabled":false,"rental_uris":{"android":"levelo://app?vid=6fd2e923-db61-4b63-9c7b-2f52af450d9b","ios":"levelo://app?vid=6fd2e923-db61-4b63-9c7b-2f52af450d9b"},"vehicle_type_id":"4","last_reported":1747811435,"current_range_meters":4800,"station_id":"","pricing_plan_id":"cebpf4jnsgd1na2vs0mg"},{"bike_id":"cdb53e1e-8240-4ba6-9634-e5d0a7de32f9","system_id":"levelo_inurba_marseille","lat":43.28842,"lon":5.39325,"is_reserved":false,"is_disabled":false,"rental_uris":{"android":"levelo://app?vid=cdb53e1e-8240-4ba6-9634-e5d0a7de32f9","ios":"levelo://app?vid=cdb53e1e-8240-4ba6-9634-e5d0a7de32f9"},"vehicle_type_id":"4","last_reported":1747811435,"current_range_meters":4800,"station_id":"ce4bh2p2rcd13ifvqdi0","pricing_plan_id":"cebpf4jnsgd1na2vs0mg"},{"bike_id":"1addcad7-d488-4e1c-b76c-777e91802e42","system_id":"levelo_inurba_marseille","lat":43.25087,"lon":5.39523,"is_reserved":false,"is_disabled":false,"rental_uris":{"android":"levelo://app?vid=1addcad7-d488-4e1c-b76c-777e91802e42","ios":"levelo://app?vid=1addcad7-d488-4e1c-b76c-777e91802e42"},"vehicle_type_id":"4","last_reported":1747811435,"current_range_meters":4800,"station_id":"ce4bhm12rcd13ifvqgkg","pricing_plan_id":"cebpf4jnsgd1na2vs0mg"},{"bike_id":"5c3589d4-ae59-437c-9ce7-2f2732a05ee6","system_id":"levelo_inurba_marseille","lat":43.23178,"lon":5.39989,"is_reserved":false,"is_disabled":false,"rental_uris":{"android":"levelo://app?vid=5c3589d4-ae59-437c-9ce7-2f2732a05ee6","ios":"levelo://app?vid=5c3589d4-ae59-437c-9ce7-2f2732a05ee6"},"vehicle_type_id":"4","last_reported":1747811435,"current_range_meters":4800,"station_id":"ce4bhn12rcd13ifvqgqg","pricing_plan_id":"cebpf4jnsgd1na2vs0mg"},{"bike_id":"85eaca89-9437-48d0-9bca-a254337b88db","system_id":"levelo_inurba_marseille","lat":43.27458,"lon":5.4099,"is_reserved":false,"is_disabled":false,"rental_uris":{"android":"levelo://app?vid=85eaca89-9437-48d0-9bca-a254337b88db","ios":"levelo://app?vid=85eaca89-9437-48d0-9bca-a254337b88db"},"vehicle_type_id":"4","last_reported":1747811435,"current_range_meters":5600,"station_id":"","pricing_plan_id":"cebpf4jnsgd1na2vs0mg"},{"bike_id":"c0e29b78-5ef8-450c-9879-72f4a478f9e5","system_id":"levelo_inurba_marseille","lat":43.23197,"lon":5.39973,"is_reserved":false,"is_disabled":false,"rental_uris":{"android":"levelo://app?vid=c0e29b78-5ef8-450c-9879-72f4a478f9e5","ios":"levelo://app?vid=c0e29b78-5ef8-450c-9879-72f4a478f9e5"},"vehicle_type_id":"4","last_reported":1747811435,"current_range_meters":5600,"station_id":"","pricing_plan_id":"cebpf4jnsgd1na2vs0mg"},{"bike_id":"b3f5324c-43a6-48fe-823e-2d68a3bd2bb7","system_id":"levelo_inurba_marseille","lat":43.31318,"lon":5.36743,"is_reserved":false,"is_disabled":false,"rental_uris":{"android":"levelo://app?vid=b3f5324c-43a6-48fe-823e-2d68a3bd2bb7","ios":"levelo://app?vid=b3f5324c-43a6-48fe-823e-2d68a3bd2bb7"},"vehicle_type_id":"4","last_reported":1747811435,"current_range_meters":6000,"station_id":"ce4bgr92rcd13ifvqc6g","pricing_plan_id":"cebpf4jnsgd1na2vs0mg"},{"bike_id":"e9cac668-57c1-474a-bd3a-1c1e1ff3a5b2","system_id":"levelo_inurba_marseille","lat":43.31171,"lon":5.38726,"is_reserved":false,"is_disabled":false,"rental_uris":{"android":"levelo://app?vid=e9cac668-57c1-474a-bd3a-1c1e1ff3a5b2","ios":"levelo://app?vid=e9cac668-57c1-474a-bd3a-1c1e1ff3a5b2"},"vehicle_type_id":"4","last_reported":1747811435,"current_range_meters":6000,"station_id":"ce4bgv12rcd13ifvqcp0","pricing_plan_id":"cebpf4jnsgd1na2vs0mg"},{"bike_id":"2691747d-15ef-498c-b5c2-e5efa1517c66","system_id":"levelo_inurba_marseille","lat":43.26055,"lon":5.3939,"is_reserved":false,"is_disabled":false,"rental_uris":{"android":"levelo://app?vid=2691747d-15ef-498c-b5c2-e5efa1517c66","ios":"levelo://app?vid=2691747d-15ef-498c-b5c2-e5efa1517c66"},"vehicle_type_id":"4","last_reported":1747811435,"current_range_meters":6000,"station_id":"ce4bhh92rcd13ifvqfj0","pricing_plan_id":"cebpf4jnsgd1na2vs0mg"},{"bike_id":"1c0d4498-0de9-4c0e-b11f-6f5a085faac8","system_id":"levelo_inurba_marseille","lat":43.270564,"lon":5.402581,"is_reserved":false,"is_disabled":false,"rental_uris":{"android":"levelo://app?vid=1c0d4498-0de9-4c0e-b11f-6f5a085faac8","ios":"levelo://app?vid=1c0d4498-0de9-4c0e-b11f-6f5a085faac8"},"vehicle_type_id":"4","last_reported":1747811435,"current_range_meters":6000,"station_id":"ce4bhk92rcd13ifvqgc0","pricing_plan_id":"cebpf4jnsgd1na2vs0mg"},{"bike_id":"bdc34a52-5db2-4781-ab28-f431531f1c99","system_id":"levelo_inurba_marseille","lat":43.25713,"lon":5.41108,"is_reserved":false,"is_disabled":false,"rental_uris":{"android":"levelo://app?vid=bdc34a52-5db2-4781-ab28-f431531f1c99","ios":"levelo://app?vid=bdc34a52-5db2-4781-ab28-f431531f1c99"},"vehicle_type_id":"4","last_reported":1747811435,"current_range_meters":6000,"station_id":"ce4bhkp2rcd13ifvqgd0","pricing_plan_id":"cebpf4jnsgd1na2vs0mg"},{"bike_id":"3a76c984-81f3-41a8-9ea4-dcdf7ae60450","system_id":"levelo_inurba_marseille","lat":43.25106,"lon":5.40325,"is_reserved":false,"is_disabled":false,"rental_uris":{"android":"levelo://app?vid=3a76c984-81f3-41a8-9ea4-dcdf7ae60450","ios":"levelo://app?vid=3a76c984-81f3-41a8-9ea4-dcdf7ae60450"},"vehicle_type_id":"4","last_reported":1747811435,"current_range_meters":6000,"station_id":"ce4bhlh2rcd13ifvqgig","pricing_plan_id":"cebpf4jnsgd1na2vs0mg"},{"bike_id":"8a77c670-a7af-4ac0-9918-4e6c1c91e962","system_id":"levelo_inurba_marseille","lat":43.25088,"lon":5.39493,"is_reserved":false,"is_disabled":false,"rental_uris":{"android":"levelo://app?vid=8a77c670-a7af-4ac0-9918-4e6c1c91e962","ios":"levelo://app?vid=8a77c670-a7af-4ac0-9918-4e6c1c91e962"},"vehicle_type_id":"4","last_reported":1747811435,"current_range_meters":6000,"station_id":"ce4bhm12rcd13ifvqgkg","pricing_plan_id":"cebpf4jnsgd1na2vs0mg"},{"bike_id":"cc03cfa7-26a2-4563-9479-08f761f8c4fe","system_id":"levelo_inurba_marseille","lat":43.29556,"lon":5.42288,"is_reserved":false,"is_disabled":false,"rental_uris":{"android":"levelo://app?vid=cc03cfa7-26a2-4563-9479-08f761f8c4fe","ios":"levelo://app?vid=cc03cfa7-26a2-4563-9479-08f761f8c4fe"},"vehicle_type_id":"4","last_reported":1747811435,"current_range_meters":6000,"station_id":"ce4bhph2rcd13ifvqhdg","pricing_plan_id":"cebpf4jnsgd1na2vs0mg"},{"bike_id":"273bd595-9fc2-4355-bdfe-59cfd1838aea","system_id":"levelo_inurba_marseille","lat":43.29371,"lon":5.37868,"is_reserved":false,"is_disabled":false,"rental_uris":{"android":"levelo://app?vid=273bd595-9fc2-4355-bdfe-59cfd1838aea","ios":"levelo://app?vid=273bd595-9fc2-4355-bdfe-59cfd1838aea"},"vehicle_type_id":"4","last_reported":1747811435,"current_range_meters":6400,"station_id":"ce4bgjh2rcd13ifvqbf0","pricing_plan_id":"cebpf4jnsgd1na2vs0mg"},{"bike_id":"562803e8-6877-48e3-99f0-91474d81beb1","system_id":"levelo_inurba_marseille","lat":43.2962,"lon":5.37164,"is_reserved":false,"is_disabled":false,"rental_uris":{"android":"levelo://app?vid=562803e8-6877-48e3-99f0-91474d81beb1","ios":"levelo://app?vid=562803e8-6877-48e3-99f0-91474d81beb1"},"vehicle_type_id":"4","last_reported":1747811435,"current_range_meters":6400,"station_id":"ce4bgnh2rcd13ifvqc0g","pricing_plan_id":"cebpf4jnsgd1na2vs0mg"},{"bike_id":"7e0788ad-38db-4c0e-aeb0-6aeba9e22977","system_id":"levelo_inurba_marseille","lat":43.31488,"lon":5.37313,"is_reserved":false,"is_disabled":false,"rental_uris":{"android":"levelo://app?vid=7e0788ad-38db-4c0e-aeb0-6aeba9e22977","ios":"levelo://app?vid=7e0788ad-38db-4c0e-aeb0-6aeba9e22977"},"vehicle_type_id":"4","last_reported":1747811435,"current_range_meters":6400,"station_id":"ce4bgt12rcd13ifvqcd0","pricing_plan_id":"cebpf4jnsgd1na2vs0mg"},{"bike_id":"fe3573ef-c140-481d-8ddd-a9e2879050f6","system_id":"levelo_inurba_marseille","lat":43.31707,"lon":5.37755,"is_reserved":false,"is_disabled":false,"rental_uris":{"android":"levelo://app?vid=fe3573ef-c140-481d-8ddd-a9e2879050f6","ios":"levelo://app?vid=fe3573ef-c140-481d-8ddd-a9e2879050f6"},"vehicle_type_id":"4","last_reported":1747811435,"current_range_meters":6400,"station_id":"ce4bgth2rcd13ifvqch0","pricing_plan_id":"cebpf4jnsgd1na2vs0mg"},{"bike_id":"bcc938d8-2314-431f-89b0-e089a0362855","system_id":"levelo_inurba_marseille","lat":43.31691,"lon":5.4046,"is_reserved":false,"is_disabled":false,"rental_uris":{"android":"levelo://app?vid=bcc938d8-2314-431f-89b0-e089a0362855","ios":"levelo://app?vid=bcc938d8-2314-431f-89b0-e089a0362855"},"vehicle_type_id":"4","last_reported":1747811435,"current_range_meters":6400,"station_id":"ce4bh012rcd13ifvqd00","pricing_plan_id":"cebpf4jnsgd1na2vs0mg"},{"bike_id":"db5c5435-4191-42e3-9905-a03a02b1d0da","system_id":"levelo_inurba_marseille","lat":43.287277,"lon":5.379373,"is_reserved":false,"is_disabled":false,"rental_uris":{"android":"levelo://app?vid=db5c5435-4191-42e3-9905-a03a02b1d0da","ios":"levelo://app?vid=db5c5435-4191-42e3-9905-a03a02b1d0da"},"vehicle_type_id":"4","last_reported":1747811435,"current_range_meters":6400,"station_id":"ce4bh9p2rcd13ifvqec0","pricing_plan_id":"cebpf4jnsgd1na2vs0mg"},{"bike_id":"149717de-4da1-4fe3-8f68-89e0b24ab844","system_id":"levelo_inurba_marseille","lat":43.29155,"lon":5.37149,"is_reserved":false,"is_disabled":false,"rental_uris":{"android":"levelo://app?vid=149717de-4da1-4fe3-8f68-89e0b24ab844","ios":"levelo://app?vid=149717de-4da1-4fe3-8f68-89e0b24ab844"},"vehicle_type_id":"4","last_reported":1747811435,"current_range_meters":6400,"station_id":"ce4bha92rcd13ifvqeh0","pricing_plan_id":"cebpf4jnsgd1na2vs0mg"},{"bike_id":"25237339-253a-44e5-ab01-1cb4797f99d2","system_id":"levelo_inurba_marseille","lat":43.23147,"lon":5.43726,"is_reserved":false,"is_disabled":false,"rental_uris":{"android":"levelo://app?vid=25237339-253a-44e5-ab01-1cb4797f99d2","ios":"levelo://app?vid=25237339-253a-44e5-ab01-1cb4797f99d2"},"vehicle_type_id":"4","last_reported":1747811435,"current_range_meters":6400,"station_id":"ce4bhmp2rcd13ifvqgog","pricing_plan_id":"cebpf4jnsgd1na2vs0mg"},{"bike_id":"e450b765-fe2b-4f4d-9d87-f2114aab1321","system_id":"levelo_inurba_marseille","lat":43.324787,"lon":5.365443,"is_reserved":false,"is_disabled":false,"rental_uris":{"android":"levelo://app?vid=e450b765-fe2b-4f4d-9d87-f2114aab1321","ios":"levelo://app?vid=e450b765-fe2b-4f4d-9d87-f2114aab1321"},"vehicle_type_id":"4","last_reported":1747811435,"current_range_meters":6400,"station_id":"ce4bhs12rcd13ifvqhvg","pricing_plan_id":"cebpf4jnsgd1na2vs0mg"},{"bike_id":"aad273d5-40f2-4aaa-a1df-09503b789c5f","system_id":"levelo_inurba_marseille","lat":43.303482,"lon":5.425184,"is_reserved":false,"is_disabled":false,"rental_uris":{"android":"levelo://app?vid=aad273d5-40f2-4aaa-a1df-09503b789c5f","ios":"levelo://app?vid=aad273d5-40f2-4aaa-a1df-09503b789c5f"},"vehicle_type_id":"4","last_reported":1747811435,"current_range_meters":6800,"station_id":"ce4bhoh2rcd13ifvqh6g","pricing_plan_id":"cebpf4jnsgd1na2vs0mg"},{"bike_id":"223d3c4f-46bc-46e7-90c4-a04705934e99","system_id":"levelo_inurba_marseille","lat":43.31077,"lon":5.42433,"is_reserved":false,"is_disabled":false,"rental_uris":{"android":"levelo://app?vid=223d3c4f-46bc-46e7-90c4-a04705934e99","ios":"levelo://app?vid=223d3c4f-46bc-46e7-90c4-a04705934e99"},"vehicle_type_id":"4","last_reported":1747811435,"current_range_meters":6800,"station_id":"ce4bhp92rcd13ifvqhag","pricing_plan_id":"cebpf4jnsgd1na2vs0mg"},{"bike_id":"bffbaf88-357a-4e87-a68c-a9a27a6e01e6","system_id":"levelo_inurba_marseille","lat":43.26228,"lon":5.42129,"is_reserved":false,"is_disabled":false,"rental_uris":{"android":"levelo://app?vid=bffbaf88-357a-4e87-a68c-a9a27a6e01e6","ios":"levelo://app?vid=bffbaf88-357a-4e87-a68c-a9a27a6e01e6"},"vehicle_type_id":"4","last_reported":1747811435,"current_range_meters":7200,"station_id":"","pricing_plan_id":"cebpf4jnsgd1na2vs0mg"},{"bike_id":"6e53eb45-136c-4be4-a2ce-1e713c76fc7c","system_id":"levelo_inurba_marseille","lat":43.29569,"lon":5.37514,"is_reserved":false,"is_disabled":false,"rental_uris":{"android":"levelo://app?vid=6e53eb45-136c-4be4-a2ce-1e713c76fc7c","ios":"levelo://app?vid=6e53eb45-136c-4be4-a2ce-1e713c76fc7c"},"vehicle_type_id":"4","last_reported":1747811435,"current_range_meters":7200,"station_id":"ce4bgh92rcd13ifvqb50","pricing_plan_id":"cebpf4jnsgd1na2vs0mg"},{"bike_id":"74e084b8-b8cf-4df3-8ec3-a4623a33a5dc","system_id":"levelo_inurba_marseille","lat":43.29782,"lon":5.37094,"is_reserved":false,"is_disabled":false,"rental_uris":{"android":"levelo://app?vid=74e084b8-b8cf-4df3-8ec3-a4623a33a5dc","ios":"levelo://app?vid=74e084b8-b8cf-4df3-8ec3-a4623a33a5dc"},"vehicle_type_id":"4","last_reported":1747811435,"current_range_meters":7200,"station_id":"ce4bgop2rcd13ifvqc1g","pricing_plan_id":"cebpf4jnsgd1na2vs0mg"},{"bike_id":"a8415131-0dcb-4510-bba0-555778338705","system_id":"levelo_inurba_marseille","lat":43.312379,"lon":5.387368,"is_reserved":false,"is_disabled":false,"rental_uris":{"android":"levelo://app?vid=a8415131-0dcb-4510-bba0-555778338705","ios":"levelo://app?vid=a8415131-0dcb-4510-bba0-555778338705"},"vehicle_type_id":"4","last_reported":1747811435,"current_range_meters":7200,"station_id":"ce4bgt12rcd13ifvqcd0","pricing_plan_id":"cebpf4jnsgd1na2vs0mg"},{"bike_id":"105639c6-6faa-4049-a9df-a30a44a69d04","system_id":"levelo_inurba_marseille","lat":43.30952,"lon":5.3903,"is_reserved":false,"is_disabled":false,"rental_uris":{"android":"levelo://app?vid=105639c6-6faa-4049-a9df-a30a44a69d04","ios":"levelo://app?vid=105639c6-6faa-4049-a9df-a30a44a69d04"},"vehicle_type_id":"4","last_reported":1747811435,"current_range_meters":7200,"station_id":"ce4bgup2rcd13ifvqco0","pricing_plan_id":"cebpf4jnsgd1na2vs0mg"},{"bike_id":"310b6066-f7b5-4150-bf44-bc9d38df80db","system_id":"levelo_inurba_marseille","lat":43.280375,"lon":5.369498,"is_reserved":false,"is_disabled":false,"rental_uris":{"android":"levelo://app?vid=310b6066-f7b5-4150-bf44-bc9d38df80db","ios":"levelo://app?vid=310b6066-f7b5-4150-bf44-bc9d38df80db"},"vehicle_type_id":"4","last_reported":1747811435,"current_range_meters":7200,"station_id":"ce4bha12rcd13ifvqef0","pricing_plan_id":"cebpf4jnsgd1na2vs0mg"},{"bike_id":"9574f1af-4dd6-41ef-bbcb-9af11b506f52","system_id":"levelo_inurba_marseille","lat":43.269563,"lon":5.38625,"is_reserved":false,"is_disabled":false,"rental_uris":{"android":"levelo://app?vid=9574f1af-4dd6-41ef-bbcb-9af11b506f52","ios":"levelo://app?vid=9574f1af-4dd6-41ef-bbcb-9af11b506f52"},"vehicle_type_id":"4","last_reported":1747811435,"current_range_meters":7200,"station_id":"ce4bhh92rcd13ifvqfh0","pricing_plan_id":"cebpf4jnsgd1na2vs0mg"},{"bike_id":"0621c3a4-69a6-4d25-8c0b-31b8daf1377b","system_id":"levelo_inurba_marseille","lat":43.25584,"lon":5.38223,"is_reserved":false,"is_disabled":false,"rental_uris":{"android":"levelo://app?vid=0621c3a4-69a6-4d25-8c0b-31b8daf1377b","ios":"levelo://app?vid=0621c3a4-69a6-4d25-8c0b-31b8daf1377b"},"vehicle_type_id":"4","last_reported":1747811435,"current_range_meters":7200,"station_id":"ce4bhih2rcd13ifvqfs0","pricing_plan_id":"cebpf4jnsgd1na2vs0mg"},{"bike_id":"e51484fc-f691-40f9-8a95-bc9f77db801a","system_id":"levelo_inurba_marseille","lat":43.262225,"lon":5.404522,"is_reserved":false,"is_disabled":false,"rental_uris":{"android":"levelo://app?vid=e51484fc-f691-40f9-8a95-bc9f77db801a","ios":"levelo://app?vid=e51484fc-f691-40f9-8a95-bc9f77db801a"},"vehicle_type_id":"4","last_reported":1747811435,"current_range_meters":7200,"station_id":"ce4bhmh2rcd13ifvqgmg","pricing_plan_id":"cebpf4jnsgd1na2vs0mg"},{"bike_id":"cbbc5a97-dd02-43c1-b77f-a3586e64954d","system_id":"levelo_inurba_marseille","lat":43.29774,"lon":5.37105,"is_reserved":false,"is_disabled":false,"rental_uris":{"android":"levelo://app?vid=cbbc5a97-dd02-43c1-b77f-a3586e64954d","ios":"levelo://app?vid=cbbc5a97-dd02-43c1-b77f-a3586e64954d"},"vehicle_type_id":"4","last_reported":1747811435,"current_range_meters":8000,"station_id":"ce4bgop2rcd13ifvqc1g","pricing_plan_id":"cebpf4jnsgd1na2vs0mg"},{"bike_id":"f399188c-fd6a-4150-a0b1-d27dcf429701","system_id":"levelo_inurba_marseille","lat":43.29849,"lon":5.36284,"is_reserved":false,"is_disabled":false,"rental_uris":{"android":"levelo://app?vid=f399188c-fd6a-4150-a0b1-d27dcf429701","ios":"levelo://app?vid=f399188c-fd6a-4150-a0b1-d27dcf429701"},"vehicle_type_id":"4","last_reported":1747811435,"current_range_meters":8000,"station_id":"ce4bgpp2rcd13ifvqc3g","pricing_plan_id":"cebpf4jnsgd1na2vs0mg"},{"bike_id":"5ac38d40-b7ec-4c0d-8667-2c6f99757535","system_id":"levelo_inurba_marseille","lat":43.30949,"lon":5.39025,"is_reserved":false,"is_disabled":false,"rental_uris":{"android":"levelo://app?vid=5ac38d40-b7ec-4c0d-8667-2c6f99757535","ios":"levelo://app?vid=5ac38d40-b7ec-4c0d-8667-2c6f99757535"},"vehicle_type_id":"4","last_reported":1747811435,"current_range_meters":8000,"station_id":"ce4bgup2rcd13ifvqco0","pricing_plan_id":"cebpf4jnsgd1na2vs0mg"},{"bike_id":"0ad35d1d-8526-4847-9ed9-cf53534aaeef","system_id":"levelo_inurba_marseille","lat":43.23148,"lon":5.43713,"is_reserved":false,"is_disabled":false,"rental_uris":{"android":"levelo://app?vid=0ad35d1d-8526-4847-9ed9-cf53534aaeef","ios":"levelo://app?vid=0ad35d1d-8526-4847-9ed9-cf53534aaeef"},"vehicle_type_id":"4","last_reported":1747811435,"current_range_meters":8000,"station_id":"ce4bhmp2rcd13ifvqgog","pricing_plan_id":"cebpf4jnsgd1na2vs0mg"},{"bike_id":"7681ba77-e995-4409-a7d7-a799c9b09cd0","system_id":"levelo_inurba_marseille","lat":43.274966,"lon":5.424474,"is_reserved":false,"is_disabled":false,"rental_uris":{"android":"levelo://app?vid=7681ba77-e995-4409-a7d7-a799c9b09cd0","ios":"levelo://app?vid=7681ba77-e995-4409-a7d7-a799c9b09cd0"},"vehicle_type_id":"4","last_reported":1747811435,"current_range_meters":8000,"station_id":"ce4bhn92rcd13ifvqgrg","pricing_plan_id":"cebpf4jnsgd1na2vs0mg"},{"bike_id":"33eeb9d6-406c-4e8b-ba6e-cd351bd20dae","system_id":"levelo_inurba_marseille","lat":43.23965,"lon":5.36628,"is_reserved":false,"is_disabled":false,"rental_uris":{"android":"levelo://app?vid=33eeb9d6-406c-4e8b-ba6e-cd351bd20dae","ios":"levelo://app?vid=33eeb9d6-406c-4e8b-ba6e-cd351bd20dae"},"vehicle_type_id":"4","last_reported":1747811435,"current_range_meters":8400,"station_id":"ce4bhi12rcd13ifvqfp0","pricing_plan_id":"cebpf4jnsgd1na2vs0mg"},{"bike_id":"39dce2d6-d9f2-4fd9-9c24-6f8c5b8e68b4","system_id":"levelo_inurba_marseille","lat":43.25935,"lon":5.40902,"is_reserved":false,"is_disabled":false,"rental_uris":{"android":"levelo://app?vid=39dce2d6-d9f2-4fd9-9c24-6f8c5b8e68b4","ios":"levelo://app?vid=39dce2d6-d9f2-4fd9-9c24-6f8c5b8e68b4"},"vehicle_type_id":"4","last_reported":1747811435,"current_range_meters":8400,"station_id":"ce4bhm92rcd13ifvqglg","pricing_plan_id":"cebpf4jnsgd1na2vs0mg"},{"bike_id":"d1b20c8f-a2fe-4a7b-847c-b9b5df8ca78d","system_id":"levelo_inurba_marseille","lat":43.24072,"lon":5.3777,"is_reserved":false,"is_disabled":false,"rental_uris":{"android":"levelo://app?vid=d1b20c8f-a2fe-4a7b-847c-b9b5df8ca78d","ios":"levelo://app?vid=d1b20c8f-a2fe-4a7b-847c-b9b5df8ca78d"},"vehicle_type_id":"4","last_reported":1747811435,"current_range_meters":8400,"station_id":"ce4bhnp2rcd13ifvqgvg","pricing_plan_id":"cebpf4jnsgd1na2vs0mg"},{"bike_id":"03d651c2-0340-4ad3-aea1-72c57cc6da8f","system_id":"levelo_inurba_marseille","lat":43.2794,"lon":5.41044,"is_reserved":false,"is_disabled":false,"rental_uris":{"android":"levelo://app?vid=03d651c2-0340-4ad3-aea1-72c57cc6da8f","ios":"levelo://app?vid=03d651c2-0340-4ad3-aea1-72c57cc6da8f"},"vehicle_type_id":"4","last_reported":1747811435,"current_range_meters":8400,"station_id":"ce4bhnp2rcd13ifvqh0g","pricing_plan_id":"cebpf4jnsgd1na2vs0mg"},{"bike_id":"e8162579-a5ad-485f-ad83-fec8a2ebe7e1","system_id":"levelo_inurba_marseille","lat":43.26826,"lon":5.39099,"is_reserved":false,"is_disabled":false,"rental_uris":{"android":"levelo://app?vid=e8162579-a5ad-485f-ad83-fec8a2ebe7e1","ios":"levelo://app?vid=e8162579-a5ad-485f-ad83-fec8a2ebe7e1"},"vehicle_type_id":"4","last_reported":1747811435,"current_range_meters":8800,"station_id":"","pricing_plan_id":"cebpf4jnsgd1na2vs0mg"},{"bike_id":"d7e1046f-83ba-43a6-82eb-2d4bcd5615de","system_id":"levelo_inurba_marseille","lat":43.30267,"lon":5.37687,"is_reserved":false,"is_disabled":false,"rental_uris":{"android":"levelo://app?vid=d7e1046f-83ba-43a6-82eb-2d4bcd5615de","ios":"levelo://app?vid=d7e1046f-83ba-43a6-82eb-2d4bcd5615de"},"vehicle_type_id":"4","last_reported":1747811435,"current_range_meters":8800,"station_id":"ce4bguh2rcd13ifvqcj0","pricing_plan_id":"cebpf4jnsgd1na2vs0mg"},{"bike_id":"e04ae8b5-c2b3-4839-adcc-0a8e6b55655c","system_id":"levelo_inurba_marseille","lat":43.30952,"lon":5.39026,"is_reserved":false,"is_disabled":false,"rental_uris":{"android":"levelo://app?vid=e04ae8b5-c2b3-4839-adcc-0a8e6b55655c","ios":"levelo://app?vid=e04ae8b5-c2b3-4839-adcc-0a8e6b55655c"},"vehicle_type_id":"4","last_reported":1747811435,"current_range_meters":8800,"station_id":"ce4bgup2rcd13ifvqco0","pricing_plan_id":"cebpf4jnsgd1na2vs0mg"},{"bike_id":"83f95caa-69cb-4072-b84f-2d560b7846ad","system_id":"levelo_inurba_marseille","lat":43.23152,"lon":5.4371,"is_reserved":false,"is_disabled":false,"rental_uris":{"android":"levelo://app?vid=83f95caa-69cb-4072-b84f-2d560b7846ad","ios":"levelo://app?vid=83f95caa-69cb-4072-b84f-2d560b7846ad"},"vehicle_type_id":"4","last_reported":1747811435,"current_range_meters":8800,"station_id":"ce4bhmp2rcd13ifvqgog","pricing_plan_id":"cebpf4jnsgd1na2vs0mg"},{"bike_id":"71e146ad-5169-4dc5-a288-c7c746aad618","system_id":"levelo_inurba_marseille","lat":43.23185,"lon":5.39989,"is_reserved":false,"is_disabled":false,"rental_uris":{"android":"levelo://app?vid=71e146ad-5169-4dc5-a288-c7c746aad618","ios":"levelo://app?vid=71e146ad-5169-4dc5-a288-c7c746aad618"},"vehicle_type_id":"4","last_reported":1747811435,"current_range_meters":9200,"station_id":"","pricing_plan_id":"cebpf4jnsgd1na2vs0mg"},{"bike_id":"3552fbf2-b43a-446f-93f5-d695fc251b73","system_id":"levelo_inurba_marseille","lat":43.251736,"lon":5.375181,"is_reserved":false,"is_disabled":false,"rental_uris":{"android":"levelo://app?vid=3552fbf2-b43a-446f-93f5-d695fc251b73","ios":"levelo://app?vid=3552fbf2-b43a-446f-93f5-d695fc251b73"},"vehicle_type_id":"4","last_reported":1747811435,"current_range_meters":9200,"station_id":"","pricing_plan_id":"cebpf4jnsgd1na2vs0mg"},{"bike_id":"c65a791a-5e5c-4c9b-939f-ea06ef898429","system_id":"levelo_inurba_marseille","lat":43.31352,"lon":5.36684,"is_reserved":false,"is_disabled":false,"rental_uris":{"android":"levelo://app?vid=c65a791a-5e5c-4c9b-939f-ea06ef898429","ios":"levelo://app?vid=c65a791a-5e5c-4c9b-939f-ea06ef898429"},"vehicle_type_id":"4","last_reported":1747811435,"current_range_meters":9200,"station_id":"ce4bgr92rcd13ifvqc6g","pricing_plan_id":"cebpf4jnsgd1na2vs0mg"},{"bike_id":"5d70566b-38ec-4494-b254-63b30c65efa7","system_id":"levelo_inurba_marseille","lat":43.23147,"lon":5.43703,"is_reserved":false,"is_disabled":false,"rental_uris":{"android":"levelo://app?vid=5d70566b-38ec-4494-b254-63b30c65efa7","ios":"levelo://app?vid=5d70566b-38ec-4494-b254-63b30c65efa7"},"vehicle_type_id":"4","last_reported":1747811435,"current_range_meters":9200,"station_id":"ce4bhmp2rcd13ifvqgog","pricing_plan_id":"cebpf4jnsgd1na2vs0mg"},{"bike_id":"6c7f0575-efb0-4e65-92ab-8fc191064eea","system_id":"levelo_inurba_marseille","lat":43.30417,"lon":5.41287,"is_reserved":false,"is_disabled":false,"rental_uris":{"android":"levelo://app?vid=6c7f0575-efb0-4e65-92ab-8fc191064eea","ios":"levelo://app?vid=6c7f0575-efb0-4e65-92ab-8fc191064eea"},"vehicle_type_id":"4","last_reported":1747811435,"current_range_meters":9200,"station_id":"ce4bhop2rcd13ifvqh8g","pricing_plan_id":"cebpf4jnsgd1na2vs0mg"},{"bike_id":"0c59289b-fdb3-4fcd-a580-bc617f9eb9a0","system_id":"levelo_inurba_marseille","lat":43.33591,"lon":5.41005,"is_reserved":false,"is_disabled":false,"rental_uris":{"android":"levelo://app?vid=0c59289b-fdb3-4fcd-a580-bc617f9eb9a0","ios":"levelo://app?vid=0c59289b-fdb3-4fcd-a580-bc617f9eb9a0"},"vehicle_type_id":"4","last_reported":1747811435,"current_range_meters":9200,"station_id":"ce4bhqh2rcd13ifvqhmg","pricing_plan_id":"cebpf4jnsgd1na2vs0mg"},{"bike_id":"a0aabdb9-5fa2-40e6-8b72-83f513b3ace8","system_id":"levelo_inurba_marseille","lat":43.23192,"lon":5.35554,"is_reserved":false,"is_disabled":false,"rental_uris":{"android":"levelo://app?vid=a0aabdb9-5fa2-40e6-8b72-83f513b3ace8","ios":"levelo://app?vid=a0aabdb9-5fa2-40e6-8b72-83f513b3ace8"},"vehicle_type_id":"4","last_reported":1747811435,"current_range_meters":9200,"station_id":"ce4bhu92rcd13ifvqi70","pricing_plan_id":"cebpf4jnsgd1na2vs0mg"},{"bike_id":"48f27f29-5850-4f4f-b193-450032ac8cf8","system_id":"levelo_inurba_marseille","lat":43.26815,"lon":5.4026,"is_reserved":false,"is_disabled":false,"rental_uris":{"android":"levelo://app?vid=48f27f29-5850-4f4f-b193-450032ac8cf8","ios":"levelo://app?vid=48f27f29-5850-4f4f-b193-450032ac8cf8"},"vehicle_type_id":"4","last_reported":1747811435,"current_range_meters":9200,"station_id":"ce501612rcd8frsf0b60","pricing_plan_id":"cebpf4jnsgd1na2vs0mg"},{"bike_id":"d7918584-5dae-4af5-ad83-43be763eac0f","system_id":"levelo_inurba_marseille","lat":43.30303,"lon":5.36896,"is_reserved":false,"is_disabled":false,"rental_uris":{"android":"levelo://app?vid=d7918584-5dae-4af5-ad83-43be763eac0f","ios":"levelo://app?vid=d7918584-5dae-4af5-ad83-43be763eac0f"},"vehicle_type_id":"4","last_reported":1747811435,"current_range_meters":9600,"station_id":"ce4bgqh2rcd13ifvqc5g","pricing_plan_id":"cebpf4jnsgd1na2vs0mg"},{"bike_id":"f3870fb5-d7fd-45a2-9bf8-a0b34cc2595f","system_id":"levelo_inurba_marseille","lat":43.30286,"lon":5.37703,"is_reserved":false,"is_disabled":false,"rental_uris":{"android":"levelo://app?vid=f3870fb5-d7fd-45a2-9bf8-a0b34cc2595f","ios":"levelo://app?vid=f3870fb5-d7fd-45a2-9bf8-a0b34cc2595f"},"vehicle_type_id":"4","last_reported":1747811435,"current_range_meters":9600,"station_id":"ce4bguh2rcd13ifvqcj0","pricing_plan_id":"cebpf4jnsgd1na2vs0mg"},{"bike_id":"2bf4ad8e-3cc3-4861-9949-fdebdecd00b6","system_id":"levelo_inurba_marseille","lat":43.290327,"lon":5.399577,"is_reserved":false,"is_disabled":false,"rental_uris":{"android":"levelo://app?vid=2bf4ad8e-3cc3-4861-9949-fdebdecd00b6","ios":"levelo://app?vid=2bf4ad8e-3cc3-4861-9949-fdebdecd00b6"},"vehicle_type_id":"4","last_reported":1747811435,"current_range_meters":9600,"station_id":"ce4bh392rcd13ifvqdm0","pricing_plan_id":"cebpf4jnsgd1na2vs0mg"},{"bike_id":"02274847-af17-4269-afe5-0d88a7169c99","system_id":"levelo_inurba_marseille","lat":43.28455,"lon":5.35891,"is_reserved":false,"is_disabled":false,"rental_uris":{"android":"levelo://app?vid=02274847-af17-4269-afe5-0d88a7169c99","ios":"levelo://app?vid=02274847-af17-4269-afe5-0d88a7169c99"},"vehicle_type_id":"4","last_reported":1747811435,"current_range_meters":9600,"station_id":"ce4bhah2rcd13ifvqei0","pricing_plan_id":"cebpf4jnsgd1na2vs0mg"},{"bike_id":"99a3c49f-6455-41cd-88c1-7d00220ff4cb","system_id":"levelo_inurba_marseille","lat":43.28936,"lon":5.36642,"is_reserved":false,"is_disabled":false,"rental_uris":{"android":"levelo://app?vid=99a3c49f-6455-41cd-88c1-7d00220ff4cb","ios":"levelo://app?vid=99a3c49f-6455-41cd-88c1-7d00220ff4cb"},"vehicle_type_id":"4","last_reported":1747811435,"current_range_meters":9600,"station_id":"ce4bhap2rcd13ifvqek0","pricing_plan_id":"cebpf4jnsgd1na2vs0mg"},{"bike_id":"c3c11b11-8507-45b4-bd48-1e3bdd46fbbe","system_id":"levelo_inurba_marseille","lat":43.23158,"lon":5.39994,"is_reserved":false,"is_disabled":false,"rental_uris":{"android":"levelo://app?vid=c3c11b11-8507-45b4-bd48-1e3bdd46fbbe","ios":"levelo://app?vid=c3c11b11-8507-45b4-bd48-1e3bdd46fbbe"},"vehicle_type_id":"4","last_reported":1747811435,"current_range_meters":9600,"station_id":"ce4bhn12rcd13ifvqgqg","pricing_plan_id":"cebpf4jnsgd1na2vs0mg"},{"bike_id":"36979a39-1da2-46e3-9bfe-5146d77f83df","system_id":"levelo_inurba_marseille","lat":43.27495,"lon":5.42447,"is_reserved":false,"is_disabled":false,"rental_uris":{"android":"levelo://app?vid=36979a39-1da2-46e3-9bfe-5146d77f83df","ios":"levelo://app?vid=36979a39-1da2-46e3-9bfe-5146d77f83df"},"vehicle_type_id":"4","last_reported":1747811435,"current_range_meters":9600,"station_id":"ce4bhn92rcd13ifvqgrg","pricing_plan_id":"cebpf4jnsgd1na2vs0mg"},{"bike_id":"1ff4dd87-bf56-4ab1-8365-aad71fcb827c","system_id":"levelo_inurba_marseille","lat":43.316076,"lon":5.423906,"is_reserved":false,"is_disabled":false,"rental_uris":{"android":"levelo://app?vid=1ff4dd87-bf56-4ab1-8365-aad71fcb827c","ios":"levelo://app?vid=1ff4dd87-bf56-4ab1-8365-aad71fcb827c"},"vehicle_type_id":"4","last_reported":1747811435,"current_range_meters":9600,"station_id":"ce4bhp92rcd13ifvqhbg","pricing_plan_id":"cebpf4jnsgd1na2vs0mg"},{"bike_id":"d222c036-c02a-40db-bb80-83d7b7358871","system_id":"levelo_inurba_marseille","lat":43.33709,"lon":5.39205,"is_reserved":false,"is_disabled":false,"rental_uris":{"android":"levelo://app?vid=d222c036-c02a-40db-bb80-83d7b7358871","ios":"levelo://app?vid=d222c036-c02a-40db-bb80-83d7b7358871"},"vehicle_type_id":"4","last_reported":1747811435,"current_range_meters":9600,"station_id":"ce4bhr92rcd13ifvqhsg","pricing_plan_id":"cebpf4jnsgd1na2vs0mg"},{"bike_id":"dc80936a-51b4-4ef9-b71e-e259b58f2ac3","system_id":"levelo_inurba_marseille","lat":43.231846,"lon":5.399895,"is_reserved":false,"is_disabled":false,"rental_uris":{"android":"levelo://app?vid=dc80936a-51b4-4ef9-b71e-e259b58f2ac3","ios":"levelo://app?vid=dc80936a-51b4-4ef9-b71e-e259b58f2ac3"},"vehicle_type_id":"4","last_reported":1747811435,"current_range_meters":10000,"station_id":"","pricing_plan_id":"cebpf4jnsgd1na2vs0mg"},{"bike_id":"2e89da01-f36c-40ad-8637-440b44d071f8","system_id":"levelo_inurba_marseille","lat":43.337444,"lon":5.374475,"is_reserved":false,"is_disabled":false,"rental_uris":{"android":"levelo://app?vid=2e89da01-f36c-40ad-8637-440b44d071f8","ios":"levelo://app?vid=2e89da01-f36c-40ad-8637-440b44d071f8"},"vehicle_type_id":"4","last_reported":1747811435,"current_range_meters":10000,"station_id":"","pricing_plan_id":"cebpf4jnsgd1na2vs0mg"},{"bike_id":"51682766-5f2e-4860-8226-efbdd3f310e2","system_id":"levelo_inurba_marseille","lat":43.296898,"lon":5.37289,"is_reserved":false,"is_disabled":false,"rental_uris":{"android":"levelo://app?vid=51682766-5f2e-4860-8226-efbdd3f310e2","ios":"levelo://app?vid=51682766-5f2e-4860-8226-efbdd3f310e2"},"vehicle_type_id":"4","last_reported":1747811435,"current_range_meters":10000,"station_id":"ce4bgk12rcd13ifvqbj0","pricing_plan_id":"cebpf4jnsgd1na2vs0mg"},{"bike_id":"1ec365b0-6c48-4dc0-866d-cebacaea120b","system_id":"levelo_inurba_marseille","lat":43.29619,"lon":5.37167,"is_reserved":false,"is_disabled":false,"rental_uris":{"android":"levelo://app?vid=1ec365b0-6c48-4dc0-866d-cebacaea120b","ios":"levelo://app?vid=1ec365b0-6c48-4dc0-866d-cebacaea120b"},"vehicle_type_id":"4","last_reported":1747811435,"current_range_meters":10000,"station_id":"ce4bgnh2rcd13ifvqc0g","pricing_plan_id":"cebpf4jnsgd1na2vs0mg"},{"bike_id":"324b2636-bbf0-403a-895c-99127ca049b3","system_id":"levelo_inurba_marseille","lat":43.2985,"lon":5.36283,"is_reserved":false,"is_disabled":false,"rental_uris":{"android":"levelo://app?vid=324b2636-bbf0-403a-895c-99127ca049b3","ios":"levelo://app?vid=324b2636-bbf0-403a-895c-99127ca049b3"},"vehicle_type_id":"4","last_reported":1747811435,"current_range_meters":10000,"station_id":"ce4bgpp2rcd13ifvqc3g","pricing_plan_id":"cebpf4jnsgd1na2vs0mg"},{"bike_id":"7fb9f143-5494-4e2f-b5ce-68bf89f3e157","system_id":"levelo_inurba_marseille","lat":43.25005,"lon":5.38923,"is_reserved":false,"is_disabled":false,"rental_uris":{"android":"levelo://app?vid=7fb9f143-5494-4e2f-b5ce-68bf89f3e157","ios":"levelo://app?vid=7fb9f143-5494-4e2f-b5ce-68bf89f3e157"},"vehicle_type_id":"4","last_reported":1747811435,"current_range_meters":10000,"station_id":"ce4bhgp2rcd13ifvqfd0","pricing_plan_id":"cebpf4jnsgd1na2vs0mg"},{"bike_id":"48bac3a4-2f7f-4290-aef8-f9bd3760a566","system_id":"levelo_inurba_marseille","lat":43.25101,"lon":5.39502,"is_reserved":false,"is_disabled":false,"rental_uris":{"android":"levelo://app?vid=48bac3a4-2f7f-4290-aef8-f9bd3760a566","ios":"levelo://app?vid=48bac3a4-2f7f-4290-aef8-f9bd3760a566"},"vehicle_type_id":"4","last_reported":1747811435,"current_range_meters":10800,"station_id":"ce4bhm12rcd13ifvqgkg","pricing_plan_id":"cebpf4jnsgd1na2vs0mg"},{"bike_id":"c06c87aa-99e3-4b89-97dc-fd6edd7b18f0","system_id":"levelo_inurba_marseille","lat":43.32108,"lon":5.36763,"is_reserved":false,"is_disabled":false,"rental_uris":{"android":"levelo://app?vid=c06c87aa-99e3-4b89-97dc-fd6edd7b18f0","ios":"levelo://app?vid=c06c87aa-99e3-4b89-97dc-fd6edd7b18f0"},"vehicle_type_id":"4","last_reported":1747811435,"current_range_meters":10800,"station_id":"ce4bhrh2rcd13ifvqhug","pricing_plan_id":"cebpf4jnsgd1na2vs0mg"},{"bike_id":"8b5e0768-9bc2-4f86-b932-df945a396fcc","system_id":"levelo_inurba_marseille","lat":43.308394,"lon":5.366567,"is_reserved":false,"is_disabled":false,"rental_uris":{"android":"levelo://app?vid=8b5e0768-9bc2-4f86-b932-df945a396fcc","ios":"levelo://app?vid=8b5e0768-9bc2-4f86-b932-df945a396fcc"},"vehicle_type_id":"4","last_reported":1747811435,"current_range_meters":11200,"station_id":"ce4bgr92rcd13ifvqc6g","pricing_plan_id":"cebpf4jnsgd1na2vs0mg"},{"bike_id":"880e9c14-7f08-4a43-8eb9-dd6aa2bc8df1","system_id":"levelo_inurba_marseille","lat":43.30559,"lon":5.36546,"is_reserved":false,"is_disabled":false,"rental_uris":{"android":"levelo://app?vid=880e9c14-7f08-4a43-8eb9-dd6aa2bc8df1","ios":"levelo://app?vid=880e9c14-7f08-4a43-8eb9-dd6aa2bc8df1"},"vehicle_type_id":"4","last_reported":1747811435,"current_range_meters":11200,"station_id":"ce4bgs12rcd13ifvqcag","pricing_plan_id":"cebpf4jnsgd1na2vs0mg"},{"bike_id":"a060ebc4-920f-4c67-91e3-79d8e1395a26","system_id":"levelo_inurba_marseille","lat":43.30948,"lon":5.39026,"is_reserved":false,"is_disabled":false,"rental_uris":{"android":"levelo://app?vid=a060ebc4-920f-4c67-91e3-79d8e1395a26","ios":"levelo://app?vid=a060ebc4-920f-4c67-91e3-79d8e1395a26"},"vehicle_type_id":"4","last_reported":1747811435,"current_range_meters":11200,"station_id":"ce4bgup2rcd13ifvqco0","pricing_plan_id":"cebpf4jnsgd1na2vs0mg"},{"bike_id":"8e9792ab-772c-4e06-afe4-17f19f8ca288","system_id":"levelo_inurba_marseille","lat":43.266785,"lon":5.382708,"is_reserved":false,"is_disabled":false,"rental_uris":{"android":"levelo://app?vid=8e9792ab-772c-4e06-afe4-17f19f8ca288","ios":"levelo://app?vid=8e9792ab-772c-4e06-afe4-17f19f8ca288"},"vehicle_type_id":"4","last_reported":1747811435,"current_range_meters":11200,"station_id":"ce4bhg92rcd13ifvqf90","pricing_plan_id":"cebpf4jnsgd1na2vs0mg"},{"bike_id":"5d72a118-820c-415e-8516-eb889647e209","system_id":"levelo_inurba_marseille","lat":43.27948,"lon":5.41046,"is_reserved":false,"is_disabled":false,"rental_uris":{"android":"levelo://app?vid=5d72a118-820c-415e-8516-eb889647e209","ios":"levelo://app?vid=5d72a118-820c-415e-8516-eb889647e209"},"vehicle_type_id":"4","last_reported":1747811435,"current_range_meters":11200,"station_id":"ce4bhnp2rcd13ifvqh0g","pricing_plan_id":"cebpf4jnsgd1na2vs0mg"},{"bike_id":"47db18c7-bb0e-4aa2-b89c-edcef872fe5c","system_id":"levelo_inurba_marseille","lat":43.28722,"lon":5.37931,"is_reserved":false,"is_disabled":false,"rental_uris":{"android":"levelo://app?vid=47db18c7-bb0e-4aa2-b89c-edcef872fe5c","ios":"levelo://app?vid=47db18c7-bb0e-4aa2-b89c-edcef872fe5c"},"vehicle_type_id":"4","last_reported":1747811435,"current_range_meters":11600,"station_id":"","pricing_plan_id":"cebpf4jnsgd1na2vs0mg"},{"bike_id":"324231ab-033b-40ae-97d2-7b70e0442b0c","system_id":"levelo_inurba_marseille","lat":43.312234,"lon":5.368583,"is_reserved":false,"is_disabled":false,"rental_uris":{"android":"levelo://app?vid=324231ab-033b-40ae-97d2-7b70e0442b0c","ios":"levelo://app?vid=324231ab-033b-40ae-97d2-7b70e0442b0c"},"vehicle_type_id":"4","last_reported":1747811435,"current_range_meters":11600,"station_id":"ce4bgl92rcd13ifvqbq0","pricing_plan_id":"cebpf4jnsgd1na2vs0mg"},{"bike_id":"74c1d8f2-eb66-4740-ba2f-bfc86ff18be9","system_id":"levelo_inurba_marseille","lat":43.30949,"lon":5.39033,"is_reserved":false,"is_disabled":false,"rental_uris":{"android":"levelo://app?vid=74c1d8f2-eb66-4740-ba2f-bfc86ff18be9","ios":"levelo://app?vid=74c1d8f2-eb66-4740-ba2f-bfc86ff18be9"},"vehicle_type_id":"4","last_reported":1747811435,"current_range_meters":11600,"station_id":"ce4bgup2rcd13ifvqco0","pricing_plan_id":"cebpf4jnsgd1na2vs0mg"},{"bike_id":"546ac6d0-f132-4175-b31c-e3d93a4a2cad","system_id":"levelo_inurba_marseille","lat":43.27971,"lon":5.3874,"is_reserved":false,"is_disabled":false,"rental_uris":{"android":"levelo://app?vid=546ac6d0-f132-4175-b31c-e3d93a4a2cad","ios":"levelo://app?vid=546ac6d0-f132-4175-b31c-e3d93a4a2cad"},"vehicle_type_id":"4","last_reported":1747811435,"current_range_meters":11600,"station_id":"ce4bhg12rcd13ifvqf80","pricing_plan_id":"cebpf4jnsgd1na2vs0mg"},{"bike_id":"50aea713-9ed6-40c8-9d30-f8cd893c9a0a","system_id":"levelo_inurba_marseille","lat":43.23154,"lon":5.43713,"is_reserved":false,"is_disabled":false,"rental_uris":{"android":"levelo://app?vid=50aea713-9ed6-40c8-9d30-f8cd893c9a0a","ios":"levelo://app?vid=50aea713-9ed6-40c8-9d30-f8cd893c9a0a"},"vehicle_type_id":"4","last_reported":1747811435,"current_range_meters":11600,"station_id":"ce4bhmp2rcd13ifvqgog","pricing_plan_id":"cebpf4jnsgd1na2vs0mg"},{"bike_id":"0b9c32c0-5801-441f-b952-0d57a97c8eb7","system_id":"levelo_inurba_marseille","lat":43.33602,"lon":5.41033,"is_reserved":false,"is_disabled":false,"rental_uris":{"android":"levelo://app?vid=0b9c32c0-5801-441f-b952-0d57a97c8eb7","ios":"levelo://app?vid=0b9c32c0-5801-441f-b952-0d57a97c8eb7"},"vehicle_type_id":"4","last_reported":1747811435,"current_range_meters":11600,"station_id":"ce4bhqh2rcd13ifvqhmg","pricing_plan_id":"cebpf4jnsgd1na2vs0mg"},{"bike_id":"d22b0fd0-78a6-46fc-aad8-ce2ca2a629e3","system_id":"levelo_inurba_marseille","lat":43.21195,"lon":5.35062,"is_reserved":false,"is_disabled":false,"rental_uris":{"android":"levelo://app?vid=d22b0fd0-78a6-46fc-aad8-ce2ca2a629e3","ios":"levelo://app?vid=d22b0fd0-78a6-46fc-aad8-ce2ca2a629e3"},"vehicle_type_id":"4","last_reported":1747811435,"current_range_meters":11600,"station_id":"st_cvj6sg6p6f1abm77japg","pricing_plan_id":"cebpf4jnsgd1na2vs0mg"},{"bike_id":"df73c141-8f13-4e98-9c67-68e3b91e8dc5","system_id":"levelo_inurba_marseille","lat":43.303544,"lon":5.418838,"is_reserved":false,"is_disabled":false,"rental_uris":{"android":"levelo://app?vid=df73c141-8f13-4e98-9c67-68e3b91e8dc5","ios":"levelo://app?vid=df73c141-8f13-4e98-9c67-68e3b91e8dc5"},"vehicle_type_id":"4","last_reported":1747811435,"current_range_meters":12000,"station_id":"","pricing_plan_id":"cebpf4jnsgd1na2vs0mg"},{"bike_id":"9310c1b8-3ea9-4b00-a1e1-2b01ec5b1d22","system_id":"levelo_inurba_marseille","lat":43.24079,"lon":5.37756,"is_reserved":false,"is_disabled":false,"rental_uris":{"android":"levelo://app?vid=9310c1b8-3ea9-4b00-a1e1-2b01ec5b1d22","ios":"levelo://app?vid=9310c1b8-3ea9-4b00-a1e1-2b01ec5b1d22"},"vehicle_type_id":"4","last_reported":1747811435,"current_range_meters":12000,"station_id":"ce4bhnp2rcd13ifvqgvg","pricing_plan_id":"cebpf4jnsgd1na2vs0mg"},{"bike_id":"0172ade4-8274-4e96-a8ca-b91565bf112b","system_id":"levelo_inurba_marseille","lat":43.24084,"lon":5.37759,"is_reserved":false,"is_disabled":false,"rental_uris":{"android":"levelo://app?vid=0172ade4-8274-4e96-a8ca-b91565bf112b","ios":"levelo://app?vid=0172ade4-8274-4e96-a8ca-b91565bf112b"},"vehicle_type_id":"4","last_reported":1747811435,"current_range_meters":12000,"station_id":"ce4bhnp2rcd13ifvqgvg","pricing_plan_id":"cebpf4jnsgd1na2vs0mg"},{"bike_id":"a42ca2b9-71b9-4130-8d32-20ea2f3fa8d4","system_id":"levelo_inurba_marseille","lat":43.30379,"lon":5.42481,"is_reserved":false,"is_disabled":false,"rental_uris":{"android":"levelo://app?vid=a42ca2b9-71b9-4130-8d32-20ea2f3fa8d4","ios":"levelo://app?vid=a42ca2b9-71b9-4130-8d32-20ea2f3fa8d4"},"vehicle_type_id":"4","last_reported":1747811435,"current_range_meters":12000,"station_id":"ce4bhoh2rcd13ifvqh6g","pricing_plan_id":"cebpf4jnsgd1na2vs0mg"},{"bike_id":"5765434c-77b5-41b5-8b14-b978e4d6dd10","system_id":"levelo_inurba_marseille","lat":43.21203,"lon":5.351,"is_reserved":false,"is_disabled":false,"rental_uris":{"android":"levelo://app?vid=5765434c-77b5-41b5-8b14-b978e4d6dd10","ios":"levelo://app?vid=5765434c-77b5-41b5-8b14-b978e4d6dd10"},"vehicle_type_id":"4","last_reported":1747811435,"current_range_meters":12000,"station_id":"st_cvj6sg6p6f1abm77japg","pricing_plan_id":"cebpf4jnsgd1na2vs0mg"},{"bike_id":"6d4e2386-50e7-4b9b-b117-dc6ec6dff373","system_id":"levelo_inurba_marseille","lat":43.30964,"lon":5.39033,"is_reserved":false,"is_disabled":false,"rental_uris":{"android":"levelo://app?vid=6d4e2386-50e7-4b9b-b117-dc6ec6dff373","ios":"levelo://app?vid=6d4e2386-50e7-4b9b-b117-dc6ec6dff373"},"vehicle_type_id":"4","last_reported":1747811435,"current_range_meters":12400,"station_id":"ce4bgup2rcd13ifvqco0","pricing_plan_id":"cebpf4jnsgd1na2vs0mg"},{"bike_id":"d3794132-a70f-416f-8f79-15d73a23ca4b","system_id":"levelo_inurba_marseille","lat":43.24643,"lon":5.38879,"is_reserved":false,"is_disabled":false,"rental_uris":{"android":"levelo://app?vid=d3794132-a70f-416f-8f79-15d73a23ca4b","ios":"levelo://app?vid=d3794132-a70f-416f-8f79-15d73a23ca4b"},"vehicle_type_id":"4","last_reported":1747811435,"current_range_meters":12400,"station_id":"ce4bhg12rcd13ifvqf60","pricing_plan_id":"cebpf4jnsgd1na2vs0mg"},{"bike_id":"500509b9-37ab-40f0-b1b0-5d544066ded5","system_id":"levelo_inurba_marseille","lat":43.25923,"lon":5.40899,"is_reserved":false,"is_disabled":false,"rental_uris":{"android":"levelo://app?vid=500509b9-37ab-40f0-b1b0-5d544066ded5","ios":"levelo://app?vid=500509b9-37ab-40f0-b1b0-5d544066ded5"},"vehicle_type_id":"4","last_reported":1747811435,"current_range_meters":12400,"station_id":"ce4bhm92rcd13ifvqglg","pricing_plan_id":"cebpf4jnsgd1na2vs0mg"},{"bike_id":"1a340bac-8012-4c7c-b50a-247d19f083a9","system_id":"levelo_inurba_marseille","lat":43.21192,"lon":5.35068,"is_reserved":false,"is_disabled":false,"rental_uris":{"android":"levelo://app?vid=1a340bac-8012-4c7c-b50a-247d19f083a9","ios":"levelo://app?vid=1a340bac-8012-4c7c-b50a-247d19f083a9"},"vehicle_type_id":"4","last_reported":1747811435,"current_range_meters":12400,"station_id":"st_cvj6sg6p6f1abm77japg","pricing_plan_id":"cebpf4jnsgd1na2vs0mg"},{"bike_id":"c8f59c9b-bd81-4890-b39f-a437f577b349","system_id":"levelo_inurba_marseille","lat":43.313372,"lon":5.367136,"is_reserved":false,"is_disabled":false,"rental_uris":{"android":"levelo://app?vid=c8f59c9b-bd81-4890-b39f-a437f577b349","ios":"levelo://app?vid=c8f59c9b-bd81-4890-b39f-a437f577b349"},"vehicle_type_id":"4","last_reported":1747811435,"current_range_meters":12800,"station_id":"ce4bgl12rcd13ifvqbo0","pricing_plan_id":"cebpf4jnsgd1na2vs0mg"},{"bike_id":"52c03c9e-9d97-4cdb-93c5-a1b2a538c657","system_id":"levelo_inurba_marseille","lat":43.30953,"lon":5.39026,"is_reserved":false,"is_disabled":false,"rental_uris":{"android":"levelo://app?vid=52c03c9e-9d97-4cdb-93c5-a1b2a538c657","ios":"levelo://app?vid=52c03c9e-9d97-4cdb-93c5-a1b2a538c657"},"vehicle_type_id":"4","last_reported":1747811435,"current_range_meters":12800,"station_id":"ce4bgup2rcd13ifvqco0","pricing_plan_id":"cebpf4jnsgd1na2vs0mg"},{"bike_id":"74fb4935-ee9a-40a6-a30c-26235b1b25fd","system_id":"levelo_inurba_marseille","lat":43.27207,"lon":5.39177,"is_reserved":false,"is_disabled":false,"rental_uris":{"android":"levelo://app?vid=74fb4935-ee9a-40a6-a30c-26235b1b25fd","ios":"levelo://app?vid=74fb4935-ee9a-40a6-a30c-26235b1b25fd"},"vehicle_type_id":"4","last_reported":1747811435,"current_range_meters":12800,"station_id":"ce4bhhp2rcd13ifvqfm0","pricing_plan_id":"cebpf4jnsgd1na2vs0mg"},{"bike_id":"56cf80a0-6e20-4517-b7ab-ff4ac3730a84","system_id":"levelo_inurba_marseille","lat":43.23194,"lon":5.3997,"is_reserved":false,"is_disabled":false,"rental_uris":{"android":"levelo://app?vid=56cf80a0-6e20-4517-b7ab-ff4ac3730a84","ios":"levelo://app?vid=56cf80a0-6e20-4517-b7ab-ff4ac3730a84"},"vehicle_type_id":"4","last_reported":1747811435,"current_range_meters":12800,"station_id":"ce4bhn12rcd13ifvqgqg","pricing_plan_id":"cebpf4jnsgd1na2vs0mg"},{"bike_id":"889d54fe-9df0-4bf5-878a-b8867bb892f8","system_id":"levelo_inurba_marseille","lat":43.29033,"lon":5.39962,"is_reserved":false,"is_disabled":false,"rental_uris":{"android":"levelo://app?vid=889d54fe-9df0-4bf5-878a-b8867bb892f8","ios":"levelo://app?vid=889d54fe-9df0-4bf5-878a-b8867bb892f8"},"vehicle_type_id":"4","last_reported":1747811435,"current_range_meters":13600,"station_id":"ce4bh392rcd13ifvqdm0","pricing_plan_id":"cebpf4jnsgd1na2vs0mg"},{"bike_id":"943e576f-9e6b-4d78-bfcf-d01e3e1a7725","system_id":"levelo_inurba_marseille","lat":43.27052,"lon":5.40257,"is_reserved":false,"is_disabled":false,"rental_uris":{"android":"levelo://app?vid=943e576f-9e6b-4d78-bfcf-d01e3e1a7725","ios":"levelo://app?vid=943e576f-9e6b-4d78-bfcf-d01e3e1a7725"},"vehicle_type_id":"4","last_reported":1747811435,"current_range_meters":13600,"station_id":"ce4bhk92rcd13ifvqgc0","pricing_plan_id":"cebpf4jnsgd1na2vs0mg"},{"bike_id":"022165e4-8050-4756-a332-fb5eff338790","system_id":"levelo_inurba_marseille","lat":43.25729,"lon":5.41102,"is_reserved":false,"is_disabled":false,"rental_uris":{"android":"levelo://app?vid=022165e4-8050-4756-a332-fb5eff338790","ios":"levelo://app?vid=022165e4-8050-4756-a332-fb5eff338790"},"vehicle_type_id":"4","last_reported":1747811435,"current_range_meters":13600,"station_id":"ce4bhkp2rcd13ifvqgd0","pricing_plan_id":"cebpf4jnsgd1na2vs0mg"},{"bike_id":"71099866-2aa5-45a2-88c8-31a946b74d21","system_id":"levelo_inurba_marseille","lat":43.25933,"lon":5.40898,"is_reserved":false,"is_disabled":false,"rental_uris":{"android":"levelo://app?vid=71099866-2aa5-45a2-88c8-31a946b74d21","ios":"levelo://app?vid=71099866-2aa5-45a2-88c8-31a946b74d21"},"vehicle_type_id":"4","last_reported":1747811435,"current_range_meters":13600,"station_id":"ce4bhm92rcd13ifvqglg","pricing_plan_id":"cebpf4jnsgd1na2vs0mg"},{"bike_id":"120c77ac-e603-404f-94d2-094850d09f86","system_id":"levelo_inurba_marseille","lat":43.2594,"lon":5.40895,"is_reserved":false,"is_disabled":false,"rental_uris":{"android":"levelo://app?vid=120c77ac-e603-404f-94d2-094850d09f86","ios":"levelo://app?vid=120c77ac-e603-404f-94d2-094850d09f86"},"vehicle_type_id":"4","last_reported":1747811435,"current_range_meters":13600,"station_id":"ce4bhm92rcd13ifvqglg","pricing_plan_id":"cebpf4jnsgd1na2vs0mg"},{"bike_id":"def18200-ce27-445b-9995-1785ed59901b","system_id":"levelo_inurba_marseille","lat":43.23146,"lon":5.43718,"is_reserved":false,"is_disabled":false,"rental_uris":{"android":"levelo://app?vid=def18200-ce27-445b-9995-1785ed59901b","ios":"levelo://app?vid=def18200-ce27-445b-9995-1785ed59901b"},"vehicle_type_id":"4","last_reported":1747811435,"current_range_meters":13600,"station_id":"ce4bhmp2rcd13ifvqgog","pricing_plan_id":"cebpf4jnsgd1na2vs0mg"},{"bike_id":"f6e8e8ed-a649-4637-9725-3d94754b3ea7","system_id":"levelo_inurba_marseille","lat":43.32478,"lon":5.36563,"is_reserved":false,"is_disabled":false,"rental_uris":{"android":"levelo://app?vid=f6e8e8ed-a649-4637-9725-3d94754b3ea7","ios":"levelo://app?vid=f6e8e8ed-a649-4637-9725-3d94754b3ea7"},"vehicle_type_id":"4","last_reported":1747811435,"current_range_meters":13600,"station_id":"ce4bhs12rcd13ifvqhvg","pricing_plan_id":"cebpf4jnsgd1na2vs0mg"},{"bike_id":"855e4a2d-d7e4-406b-9380-f3b335922f95","system_id":"levelo_inurba_marseille","lat":43.30541,"lon":5.367,"is_reserved":false,"is_disabled":false,"rental_uris":{"android":"levelo://app?vid=855e4a2d-d7e4-406b-9380-f3b335922f95","ios":"levelo://app?vid=855e4a2d-d7e4-406b-9380-f3b335922f95"},"vehicle_type_id":"4","last_reported":1747811435,"current_range_meters":14000,"station_id":"ce4bgrp2rcd13ifvqc9g","pricing_plan_id":"cebpf4jnsgd1na2vs0mg"},{"bike_id":"ba65e7fb-dba9-4a3a-bebe-ff582749af6f","system_id":"levelo_inurba_marseille","lat":43.24069,"lon":5.37749,"is_reserved":false,"is_disabled":false,"rental_uris":{"android":"levelo://app?vid=ba65e7fb-dba9-4a3a-bebe-ff582749af6f","ios":"levelo://app?vid=ba65e7fb-dba9-4a3a-bebe-ff582749af6f"},"vehicle_type_id":"4","last_reported":1747811435,"current_range_meters":14000,"station_id":"ce4bhnp2rcd13ifvqgvg","pricing_plan_id":"cebpf4jnsgd1na2vs0mg"},{"bike_id":"80cc8d0a-aff2-4229-a8c9-f052ff247232","system_id":"levelo_inurba_marseille","lat":43.24076,"lon":5.37746,"is_reserved":false,"is_disabled":false,"rental_uris":{"android":"levelo://app?vid=80cc8d0a-aff2-4229-a8c9-f052ff247232","ios":"levelo://app?vid=80cc8d0a-aff2-4229-a8c9-f052ff247232"},"vehicle_type_id":"4","last_reported":1747811435,"current_range_meters":14000,"station_id":"ce4bhnp2rcd13ifvqgvg","pricing_plan_id":"cebpf4jnsgd1na2vs0mg"},{"bike_id":"a47f5549-006e-4808-93e6-635d1e630e7e","system_id":"levelo_inurba_marseille","lat":43.303808,"lon":5.425048,"is_reserved":false,"is_disabled":false,"rental_uris":{"android":"levelo://app?vid=a47f5549-006e-4808-93e6-635d1e630e7e","ios":"levelo://app?vid=a47f5549-006e-4808-93e6-635d1e630e7e"},"vehicle_type_id":"4","last_reported":1747811435,"current_range_meters":14000,"station_id":"ce4bhoh2rcd13ifvqh6g","pricing_plan_id":"cebpf4jnsgd1na2vs0mg"},{"bike_id":"41a63ad7-5271-4c92-a07b-12a7b1d342de","system_id":"levelo_inurba_marseille","lat":43.21204,"lon":5.35063,"is_reserved":false,"is_disabled":false,"rental_uris":{"android":"levelo://app?vid=41a63ad7-5271-4c92-a07b-12a7b1d342de","ios":"levelo://app?vid=41a63ad7-5271-4c92-a07b-12a7b1d342de"},"vehicle_type_id":"4","last_reported":1747811435,"current_range_meters":14000,"station_id":"st_cvj6sg6p6f1abm77japg","pricing_plan_id":"cebpf4jnsgd1na2vs0mg"},{"bike_id":"0cc58957-c5b7-42c1-abec-33957dbb5986","system_id":"levelo_inurba_marseille","lat":43.29266,"lon":5.37636,"is_reserved":false,"is_disabled":false,"rental_uris":{"android":"levelo://app?vid=0cc58957-c5b7-42c1-abec-33957dbb5986","ios":"levelo://app?vid=0cc58957-c5b7-42c1-abec-33957dbb5986"},"vehicle_type_id":"4","last_reported":1747811435,"current_range_meters":14400,"station_id":"ce4bgi12rcd13ifvqb80","pricing_plan_id":"cebpf4jnsgd1na2vs0mg"},{"bike_id":"5eda19dd-2117-416f-86ae-20e22a7cf9c6","system_id":"levelo_inurba_marseille","lat":43.30304,"lon":5.369,"is_reserved":false,"is_disabled":false,"rental_uris":{"android":"levelo://app?vid=5eda19dd-2117-416f-86ae-20e22a7cf9c6","ios":"levelo://app?vid=5eda19dd-2117-416f-86ae-20e22a7cf9c6"},"vehicle_type_id":"4","last_reported":1747811435,"current_range_meters":14400,"station_id":"ce4bgqh2rcd13ifvqc5g","pricing_plan_id":"cebpf4jnsgd1na2vs0mg"},{"bike_id":"1b602ffc-a80e-4a81-885f-a6cc87c20b98","system_id":"levelo_inurba_marseille","lat":43.29034,"lon":5.39967,"is_reserved":false,"is_disabled":false,"rental_uris":{"android":"levelo://app?vid=1b602ffc-a80e-4a81-885f-a6cc87c20b98","ios":"levelo://app?vid=1b602ffc-a80e-4a81-885f-a6cc87c20b98"},"vehicle_type_id":"4","last_reported":1747811435,"current_range_meters":14400,"station_id":"ce4bh392rcd13ifvqdm0","pricing_plan_id":"cebpf4jnsgd1na2vs0mg"},{"bike_id":"60bd9881-5084-43e2-bd51-bf012147f24a","system_id":"levelo_inurba_marseille","lat":43.27059,"lon":5.42294,"is_reserved":false,"is_disabled":false,"rental_uris":{"android":"levelo://app?vid=60bd9881-5084-43e2-bd51-bf012147f24a","ios":"levelo://app?vid=60bd9881-5084-43e2-bd51-bf012147f24a"},"vehicle_type_id":"4","last_reported":1747811435,"current_range_meters":14400,"station_id":"ce4bhk92rcd13ifvqgb0","pricing_plan_id":"cebpf4jnsgd1na2vs0mg"},{"bike_id":"e107c324-8974-4d5f-8f30-172a610af824","system_id":"levelo_inurba_marseille","lat":43.27492,"lon":5.42441,"is_reserved":false,"is_disabled":false,"rental_uris":{"android":"levelo://app?vid=e107c324-8974-4d5f-8f30-172a610af824","ios":"levelo://app?vid=e107c324-8974-4d5f-8f30-172a610af824"},"vehicle_type_id":"4","last_reported":1747811435,"current_range_meters":14400,"station_id":"ce4bhn92rcd13ifvqgrg","pricing_plan_id":"cebpf4jnsgd1na2vs0mg"},{"bike_id":"820f7daf-5d34-47e2-8af2-3d24eaa08680","system_id":"levelo_inurba_marseille","lat":43.23191,"lon":5.35554,"is_reserved":false,"is_disabled":false,"rental_uris":{"android":"levelo://app?vid=820f7daf-5d34-47e2-8af2-3d24eaa08680","ios":"levelo://app?vid=820f7daf-5d34-47e2-8af2-3d24eaa08680"},"vehicle_type_id":"4","last_reported":1747811435,"current_range_meters":14400,"station_id":"ce4bhu92rcd13ifvqi70","pricing_plan_id":"cebpf4jnsgd1na2vs0mg"},{"bike_id":"3d37771a-1086-4bb9-ab06-60baa80274b2","system_id":"levelo_inurba_marseille","lat":43.26781,"lon":5.39413,"is_reserved":false,"is_disabled":false,"rental_uris":{"android":"levelo://app?vid=3d37771a-1086-4bb9-ab06-60baa80274b2","ios":"levelo://app?vid=3d37771a-1086-4bb9-ab06-60baa80274b2"},"vehicle_type_id":"4","last_reported":1747811435,"current_range_meters":14800,"station_id":"ce4bhh12rcd13ifvqfg0","pricing_plan_id":"cebpf4jnsgd1na2vs0mg"},{"bike_id":"22c16602-8f86-477a-9c84-09f8dca851a6","system_id":"levelo_inurba_marseille","lat":43.24069,"lon":5.37755,"is_reserved":false,"is_disabled":false,"rental_uris":{"android":"levelo://app?vid=22c16602-8f86-477a-9c84-09f8dca851a6","ios":"levelo://app?vid=22c16602-8f86-477a-9c84-09f8dca851a6"},"vehicle_type_id":"4","last_reported":1747811435,"current_range_meters":14800,"station_id":"ce4bhnp2rcd13ifvqgvg","pricing_plan_id":"cebpf4jnsgd1na2vs0mg"},{"bike_id":"d2243da5-46a4-4675-a166-c5959f727fa3","system_id":"levelo_inurba_marseille","lat":43.279336,"lon":5.410479,"is_reserved":false,"is_disabled":false,"rental_uris":{"android":"levelo://app?vid=d2243da5-46a4-4675-a166-c5959f727fa3","ios":"levelo://app?vid=d2243da5-46a4-4675-a166-c5959f727fa3"},"vehicle_type_id":"4","last_reported":1747811435,"current_range_meters":14800,"station_id":"ce4bhnp2rcd13ifvqh0g","pricing_plan_id":"cebpf4jnsgd1na2vs0mg"},{"bike_id":"f9fb40c0-1fcd-48cb-8e26-3f2dc0fb2451","system_id":"levelo_inurba_marseille","lat":43.33751,"lon":5.37509,"is_reserved":false,"is_disabled":false,"rental_uris":{"android":"levelo://app?vid=f9fb40c0-1fcd-48cb-8e26-3f2dc0fb2451","ios":"levelo://app?vid=f9fb40c0-1fcd-48cb-8e26-3f2dc0fb2451"},"vehicle_type_id":"4","last_reported":1747811435,"current_range_meters":15200,"station_id":"","pricing_plan_id":"cebpf4jnsgd1na2vs0mg"},{"bike_id":"d3787df1-b187-4674-a172-34b227ec7bf2","system_id":"levelo_inurba_marseille","lat":43.26062,"lon":5.394126,"is_reserved":false,"is_disabled":false,"rental_uris":{"android":"levelo://app?vid=d3787df1-b187-4674-a172-34b227ec7bf2","ios":"levelo://app?vid=d3787df1-b187-4674-a172-34b227ec7bf2"},"vehicle_type_id":"4","last_reported":1747811435,"current_range_meters":15200,"station_id":"ce4bhh92rcd13ifvqfj0","pricing_plan_id":"cebpf4jnsgd1na2vs0mg"},{"bike_id":"88d30aee-1d0b-4435-a37e-160268217e1c","system_id":"levelo_inurba_marseille","lat":43.32483,"lon":5.36556,"is_reserved":false,"is_disabled":false,"rental_uris":{"android":"levelo://app?vid=88d30aee-1d0b-4435-a37e-160268217e1c","ios":"levelo://app?vid=88d30aee-1d0b-4435-a37e-160268217e1c"},"vehicle_type_id":"4","last_reported":1747811435,"current_range_meters":15200,"station_id":"ce4bhs12rcd13ifvqhvg","pricing_plan_id":"cebpf4jnsgd1na2vs0mg"},{"bike_id":"016cd5be-f3fd-41cb-a3fa-e10cd41b0d88","system_id":"levelo_inurba_marseille","lat":43.30735,"lon":5.42431,"is_reserved":false,"is_disabled":false,"rental_uris":{"android":"levelo://app?vid=016cd5be-f3fd-41cb-a3fa-e10cd41b0d88","ios":"levelo://app?vid=016cd5be-f3fd-41cb-a3fa-e10cd41b0d88"},"vehicle_type_id":"4","last_reported":1747811435,"current_range_meters":15200,"station_id":"st_cvj6ca6bvosntc0bfgr0","pricing_plan_id":"cebpf4jnsgd1na2vs0mg"},{"bike_id":"9ab9a453-c610-4ee6-bfe9-c53b25fc7671","system_id":"levelo_inurba_marseille","lat":43.26661,"lon":5.39565,"is_reserved":false,"is_disabled":false,"rental_uris":{"android":"levelo://app?vid=9ab9a453-c610-4ee6-bfe9-c53b25fc7671","ios":"levelo://app?vid=9ab9a453-c610-4ee6-bfe9-c53b25fc7671"},"vehicle_type_id":"4","last_reported":1747811435,"current_range_meters":16000,"station_id":"","pricing_plan_id":"cebpf4jnsgd1na2vs0mg"},{"bike_id":"fa55c895-1ea1-438f-8319-43f944a6280c","system_id":"levelo_inurba_marseille","lat":43.273623,"lon":5.424013,"is_reserved":false,"is_disabled":false,"rental_uris":{"android":"levelo://app?vid=fa55c895-1ea1-438f-8319-43f944a6280c","ios":"levelo://app?vid=fa55c895-1ea1-438f-8319-43f944a6280c"},"vehicle_type_id":"4","last_reported":1747811435,"current_range_meters":16000,"station_id":"","pricing_plan_id":"cebpf4jnsgd1na2vs0mg"},{"bike_id":"26f7fb37-fe13-47bd-bc32-8bb1df144be9","system_id":"levelo_inurba_marseille","lat":43.29261,"lon":5.3762,"is_reserved":false,"is_disabled":false,"rental_uris":{"android":"levelo://app?vid=26f7fb37-fe13-47bd-bc32-8bb1df144be9","ios":"levelo://app?vid=26f7fb37-fe13-47bd-bc32-8bb1df144be9"},"vehicle_type_id":"4","last_reported":1747811435,"current_range_meters":16000,"station_id":"ce4bgi12rcd13ifvqb80","pricing_plan_id":"cebpf4jnsgd1na2vs0mg"},{"bike_id":"0a5993b9-1ac1-497b-8713-cdb67b3e5acd","system_id":"levelo_inurba_marseille","lat":43.295706,"lon":5.367195,"is_reserved":false,"is_disabled":false,"rental_uris":{"android":"levelo://app?vid=0a5993b9-1ac1-497b-8713-cdb67b3e5acd","ios":"levelo://app?vid=0a5993b9-1ac1-497b-8713-cdb67b3e5acd"},"vehicle_type_id":"4","last_reported":1747811435,"current_range_meters":16000,"station_id":"ce4bgph2rcd13ifvqc2g","pricing_plan_id":"cebpf4jnsgd1na2vs0mg"},{"bike_id":"3412e31b-c39c-4f41-b34c-8c1b5cf118ec","system_id":"levelo_inurba_marseille","lat":43.30147,"lon":5.37423,"is_reserved":false,"is_disabled":false,"rental_uris":{"android":"levelo://app?vid=3412e31b-c39c-4f41-b34c-8c1b5cf118ec","ios":"levelo://app?vid=3412e31b-c39c-4f41-b34c-8c1b5cf118ec"},"vehicle_type_id":"4","last_reported":1747811435,"current_range_meters":16000,"station_id":"ce4bgs92rcd13ifvqcc0","pricing_plan_id":"cebpf4jnsgd1na2vs0mg"},{"bike_id":"be6d768a-e5a2-4755-b418-4b492528224c","system_id":"levelo_inurba_marseille","lat":43.29272,"lon":5.36847,"is_reserved":false,"is_disabled":false,"rental_uris":{"android":"levelo://app?vid=be6d768a-e5a2-4755-b418-4b492528224c","ios":"levelo://app?vid=be6d768a-e5a2-4755-b418-4b492528224c"},"vehicle_type_id":"4","last_reported":1747811435,"current_range_meters":16000,"station_id":"ce4bhbp2rcd13ifvqesg","pricing_plan_id":"cebpf4jnsgd1na2vs0mg"},{"bike_id":"f693b179-d4c4-4ee0-8a73-552a9c1888ff","system_id":"levelo_inurba_marseille","lat":43.25928,"lon":5.40909,"is_reserved":false,"is_disabled":false,"rental_uris":{"android":"levelo://app?vid=f693b179-d4c4-4ee0-8a73-552a9c1888ff","ios":"levelo://app?vid=f693b179-d4c4-4ee0-8a73-552a9c1888ff"},"vehicle_type_id":"4","last_reported":1747811435,"current_range_meters":16000,"station_id":"ce4bhm92rcd13ifvqglg","pricing_plan_id":"cebpf4jnsgd1na2vs0mg"},{"bike_id":"509a7bc5-3ed4-44a0-83b3-6bbf477b3a61","system_id":"levelo_inurba_marseille","lat":43.21191,"lon":5.35044,"is_reserved":false,"is_disabled":false,"rental_uris":{"android":"levelo://app?vid=509a7bc5-3ed4-44a0-83b3-6bbf477b3a61","ios":"levelo://app?vid=509a7bc5-3ed4-44a0-83b3-6bbf477b3a61"},"vehicle_type_id":"4","last_reported":1747811435,"current_range_meters":16000,"station_id":"st_cvj6sg6p6f1abm77japg","pricing_plan_id":"cebpf4jnsgd1na2vs0mg"},{"bike_id":"628c52ae-b897-4dca-953c-8475bb2941d3","system_id":"levelo_inurba_marseille","lat":43.21176,"lon":5.35027,"is_reserved":false,"is_disabled":false,"rental_uris":{"android":"levelo://app?vid=628c52ae-b897-4dca-953c-8475bb2941d3","ios":"levelo://app?vid=628c52ae-b897-4dca-953c-8475bb2941d3"},"vehicle_type_id":"4","last_reported":1747811435,"current_range_meters":16400,"station_id":"","pricing_plan_id":"cebpf4jnsgd1na2vs0mg"},{"bike_id":"f3af00db-0082-4217-8b2d-0840e767a61e","system_id":"levelo_inurba_marseille","lat":43.31226,"lon":5.3685,"is_reserved":false,"is_disabled":false,"rental_uris":{"android":"levelo://app?vid=f3af00db-0082-4217-8b2d-0840e767a61e","ios":"levelo://app?vid=f3af00db-0082-4217-8b2d-0840e767a61e"},"vehicle_type_id":"4","last_reported":1747811435,"current_range_meters":16400,"station_id":"ce4bgl92rcd13ifvqbq0","pricing_plan_id":"cebpf4jnsgd1na2vs0mg"},{"bike_id":"1c6b2cc5-0117-4eb4-91c7-bd68d0b2ec05","system_id":"levelo_inurba_marseille","lat":43.31349,"lon":5.36708,"is_reserved":false,"is_disabled":false,"rental_uris":{"android":"levelo://app?vid=1c6b2cc5-0117-4eb4-91c7-bd68d0b2ec05","ios":"levelo://app?vid=1c6b2cc5-0117-4eb4-91c7-bd68d0b2ec05"},"vehicle_type_id":"4","last_reported":1747811435,"current_range_meters":16400,"station_id":"ce4bgr92rcd13ifvqc6g","pricing_plan_id":"cebpf4jnsgd1na2vs0mg"},{"bike_id":"1396a1e4-a7a4-45f6-aea9-62380bf2972a","system_id":"levelo_inurba_marseille","lat":43.31351,"lon":5.36717,"is_reserved":false,"is_disabled":false,"rental_uris":{"android":"levelo://app?vid=1396a1e4-a7a4-45f6-aea9-62380bf2972a","ios":"levelo://app?vid=1396a1e4-a7a4-45f6-aea9-62380bf2972a"},"vehicle_type_id":"4","last_reported":1747811435,"current_range_meters":16400,"station_id":"ce4bgr92rcd13ifvqc6g","pricing_plan_id":"cebpf4jnsgd1na2vs0mg"},{"bike_id":"c339e758-fb9c-41f6-8219-8747cdbe2320","system_id":"levelo_inurba_marseille","lat":43.3054,"lon":5.36557,"is_reserved":false,"is_disabled":false,"rental_uris":{"android":"levelo://app?vid=c339e758-fb9c-41f6-8219-8747cdbe2320","ios":"levelo://app?vid=c339e758-fb9c-41f6-8219-8747cdbe2320"},"vehicle_type_id":"4","last_reported":1747811435,"current_range_meters":16400,"station_id":"ce4bgs12rcd13ifvqcag","pricing_plan_id":"cebpf4jnsgd1na2vs0mg"},{"bike_id":"fdb2f4d2-b497-49d1-b2d4-d0854ff1b00b","system_id":"levelo_inurba_marseille","lat":43.3089,"lon":5.37183,"is_reserved":false,"is_disabled":false,"rental_uris":{"android":"levelo://app?vid=fdb2f4d2-b497-49d1-b2d4-d0854ff1b00b","ios":"levelo://app?vid=fdb2f4d2-b497-49d1-b2d4-d0854ff1b00b"},"vehicle_type_id":"4","last_reported":1747811435,"current_range_meters":16400,"station_id":"ce4bguh2rcd13ifvqckg","pricing_plan_id":"cebpf4jnsgd1na2vs0mg"},{"bike_id":"8ce5e1c6-3c6a-45fa-9f85-286356f0ac27","system_id":"levelo_inurba_marseille","lat":43.259297,"lon":5.396184,"is_reserved":false,"is_disabled":false,"rental_uris":{"android":"levelo://app?vid=8ce5e1c6-3c6a-45fa-9f85-286356f0ac27","ios":"levelo://app?vid=8ce5e1c6-3c6a-45fa-9f85-286356f0ac27"},"vehicle_type_id":"4","last_reported":1747811435,"current_range_meters":16400,"station_id":"ce4bhgp2rcd13ifvqfd0","pricing_plan_id":"cebpf4jnsgd1na2vs0mg"},{"bike_id":"dbd701ce-b74f-4507-88cf-7d2b64f801da","system_id":"levelo_inurba_marseille","lat":43.259379,"lon":5.409013,"is_reserved":false,"is_disabled":false,"rental_uris":{"android":"levelo://app?vid=dbd701ce-b74f-4507-88cf-7d2b64f801da","ios":"levelo://app?vid=dbd701ce-b74f-4507-88cf-7d2b64f801da"},"vehicle_type_id":"4","last_reported":1747811435,"current_range_meters":16400,"station_id":"ce4bhm92rcd13ifvqglg","pricing_plan_id":"cebpf4jnsgd1na2vs0mg"},{"bike_id":"3a6b34bd-aaa2-4ffa-a4e0-8ac54fae1238","system_id":"levelo_inurba_marseille","lat":43.28143,"lon":5.42625,"is_reserved":false,"is_disabled":false,"rental_uris":{"android":"levelo://app?vid=3a6b34bd-aaa2-4ffa-a4e0-8ac54fae1238","ios":"levelo://app?vid=3a6b34bd-aaa2-4ffa-a4e0-8ac54fae1238"},"vehicle_type_id":"4","last_reported":1747811435,"current_range_meters":16400,"station_id":"ce4bhnh2rcd13ifvqgug","pricing_plan_id":"cebpf4jnsgd1na2vs0mg"},{"bike_id":"e745ebc6-8f69-4d0b-a4e7-594822ba8625","system_id":"levelo_inurba_marseille","lat":43.24064,"lon":5.3776,"is_reserved":false,"is_disabled":false,"rental_uris":{"android":"levelo://app?vid=e745ebc6-8f69-4d0b-a4e7-594822ba8625","ios":"levelo://app?vid=e745ebc6-8f69-4d0b-a4e7-594822ba8625"},"vehicle_type_id":"4","last_reported":1747811435,"current_range_meters":16400,"station_id":"ce4bhnp2rcd13ifvqgvg","pricing_plan_id":"cebpf4jnsgd1na2vs0mg"},{"bike_id":"80806757-a470-47e2-bf3d-d59d2d696062","system_id":"levelo_inurba_marseille","lat":43.24079,"lon":5.37735,"is_reserved":false,"is_disabled":false,"rental_uris":{"android":"levelo://app?vid=80806757-a470-47e2-bf3d-d59d2d696062","ios":"levelo://app?vid=80806757-a470-47e2-bf3d-d59d2d696062"},"vehicle_type_id":"4","last_reported":1747811435,"current_range_meters":16400,"station_id":"ce4bhnp2rcd13ifvqgvg","pricing_plan_id":"cebpf4jnsgd1na2vs0mg"},{"bike_id":"0552706d-7ee7-4fee-97ae-ee5ed92102cb","system_id":"levelo_inurba_marseille","lat":43.33605,"lon":5.41032,"is_reserved":false,"is_disabled":false,"rental_uris":{"android":"levelo://app?vid=0552706d-7ee7-4fee-97ae-ee5ed92102cb","ios":"levelo://app?vid=0552706d-7ee7-4fee-97ae-ee5ed92102cb"},"vehicle_type_id":"4","last_reported":1747811435,"current_range_meters":16400,"station_id":"ce4bhqh2rcd13ifvqhmg","pricing_plan_id":"cebpf4jnsgd1na2vs0mg"},{"bike_id":"ec1e5af5-a2c9-40c7-8196-abeddc2c4e77","system_id":"levelo_inurba_marseille","lat":43.33605,"lon":5.410023,"is_reserved":false,"is_disabled":false,"rental_uris":{"android":"levelo://app?vid=ec1e5af5-a2c9-40c7-8196-abeddc2c4e77","ios":"levelo://app?vid=ec1e5af5-a2c9-40c7-8196-abeddc2c4e77"},"vehicle_type_id":"4","last_reported":1747811435,"current_range_meters":16400,"station_id":"ce4bhqh2rcd13ifvqhmg","pricing_plan_id":"cebpf4jnsgd1na2vs0mg"},{"bike_id":"c9a00e74-029a-454e-8e85-1b3d994b9d78","system_id":"levelo_inurba_marseille","lat":43.21187,"lon":5.35079,"is_reserved":false,"is_disabled":false,"rental_uris":{"android":"levelo://app?vid=c9a00e74-029a-454e-8e85-1b3d994b9d78","ios":"levelo://app?vid=c9a00e74-029a-454e-8e85-1b3d994b9d78"},"vehicle_type_id":"4","last_reported":1747811435,"current_range_meters":16400,"station_id":"st_cvj6sg6p6f1abm77japg","pricing_plan_id":"cebpf4jnsgd1na2vs0mg"},{"bike_id":"824a86f4-99ca-47bd-ae65-1ed008ec6a72","system_id":"levelo_inurba_marseille","lat":43.231836,"lon":5.399953,"is_reserved":false,"is_disabled":false,"rental_uris":{"android":"levelo://app?vid=824a86f4-99ca-47bd-ae65-1ed008ec6a72","ios":"levelo://app?vid=824a86f4-99ca-47bd-ae65-1ed008ec6a72"},"vehicle_type_id":"4","last_reported":1747811435,"current_range_meters":16800,"station_id":"","pricing_plan_id":"cebpf4jnsgd1na2vs0mg"},{"bike_id":"ba1c8fec-dbd0-4dc8-8c1e-74ae74cb6986","system_id":"levelo_inurba_marseille","lat":43.31225,"lon":5.36861,"is_reserved":false,"is_disabled":false,"rental_uris":{"android":"levelo://app?vid=ba1c8fec-dbd0-4dc8-8c1e-74ae74cb6986","ios":"levelo://app?vid=ba1c8fec-dbd0-4dc8-8c1e-74ae74cb6986"},"vehicle_type_id":"4","last_reported":1747811435,"current_range_meters":16800,"station_id":"ce4bgl92rcd13ifvqbq0","pricing_plan_id":"cebpf4jnsgd1na2vs0mg"},{"bike_id":"3e6c7872-e4ec-442f-b92a-eaa5a7ccf53f","system_id":"levelo_inurba_marseille","lat":43.30464,"lon":5.37911,"is_reserved":false,"is_disabled":false,"rental_uris":{"android":"levelo://app?vid=3e6c7872-e4ec-442f-b92a-eaa5a7ccf53f","ios":"levelo://app?vid=3e6c7872-e4ec-442f-b92a-eaa5a7ccf53f"},"vehicle_type_id":"4","last_reported":1747811435,"current_range_meters":16800,"station_id":"ce4bgup2rcd13ifvqcn0","pricing_plan_id":"cebpf4jnsgd1na2vs0mg"},{"bike_id":"8bb7d43c-e583-40c0-9a6a-a2f0c4f03243","system_id":"levelo_inurba_marseille","lat":43.292593,"lon":5.409139,"is_reserved":false,"is_disabled":false,"rental_uris":{"android":"levelo://app?vid=8bb7d43c-e583-40c0-9a6a-a2f0c4f03243","ios":"levelo://app?vid=8bb7d43c-e583-40c0-9a6a-a2f0c4f03243"},"vehicle_type_id":"4","last_reported":1747811435,"current_range_meters":16800,"station_id":"ce4bh192rcd13ifvqdc0","pricing_plan_id":"cebpf4jnsgd1na2vs0mg"},{"bike_id":"886aa11b-d92b-4c0b-ac9e-b60705f8aa91","system_id":"levelo_inurba_marseille","lat":43.25934,"lon":5.40907,"is_reserved":false,"is_disabled":false,"rental_uris":{"android":"levelo://app?vid=886aa11b-d92b-4c0b-ac9e-b60705f8aa91","ios":"levelo://app?vid=886aa11b-d92b-4c0b-ac9e-b60705f8aa91"},"vehicle_type_id":"4","last_reported":1747811435,"current_range_meters":16800,"station_id":"ce4bhm92rcd13ifvqglg","pricing_plan_id":"cebpf4jnsgd1na2vs0mg"},{"bike_id":"1a091a66-2e68-4ded-9fc5-3d6f9e9f6f62","system_id":"levelo_inurba_marseille","lat":43.32098,"lon":5.36744,"is_reserved":false,"is_disabled":false,"rental_uris":{"android":"levelo://app?vid=1a091a66-2e68-4ded-9fc5-3d6f9e9f6f62","ios":"levelo://app?vid=1a091a66-2e68-4ded-9fc5-3d6f9e9f6f62"},"vehicle_type_id":"4","last_reported":1747811435,"current_range_meters":16800,"station_id":"ce4bhrh2rcd13ifvqhug","pricing_plan_id":"cebpf4jnsgd1na2vs0mg"},{"bike_id":"ed11f8f9-2a2d-4592-809e-e655bba14632","system_id":"levelo_inurba_marseille","lat":43.2175,"lon":5.34591,"is_reserved":false,"is_disabled":false,"rental_uris":{"android":"levelo://app?vid=ed11f8f9-2a2d-4592-809e-e655bba14632","ios":"levelo://app?vid=ed11f8f9-2a2d-4592-809e-e655bba14632"},"vehicle_type_id":"4","last_reported":1747811435,"current_range_meters":16800,"station_id":"st_cvj6r9ubvosntc0bgbag","pricing_plan_id":"cebpf4jnsgd1na2vs0mg"},{"bike_id":"cf8ff66b-3ce8-400c-8e1a-c6c034fb9554","system_id":"levelo_inurba_marseille","lat":43.27354,"lon":5.42397,"is_reserved":false,"is_disabled":false,"rental_uris":{"android":"levelo://app?vid=cf8ff66b-3ce8-400c-8e1a-c6c034fb9554","ios":"levelo://app?vid=cf8ff66b-3ce8-400c-8e1a-c6c034fb9554"},"vehicle_type_id":"4","last_reported":1747811435,"current_range_meters":17200,"station_id":"","pricing_plan_id":"cebpf4jnsgd1na2vs0mg"},{"bike_id":"b93fc8a1-9d75-4112-bfb5-336f7d3c3d6b","system_id":"levelo_inurba_marseille","lat":43.2721,"lon":5.3918,"is_reserved":false,"is_disabled":false,"rental_uris":{"android":"levelo://app?vid=b93fc8a1-9d75-4112-bfb5-336f7d3c3d6b","ios":"levelo://app?vid=b93fc8a1-9d75-4112-bfb5-336f7d3c3d6b"},"vehicle_type_id":"4","last_reported":1747811435,"current_range_meters":17200,"station_id":"ce4bhhp2rcd13ifvqfm0","pricing_plan_id":"cebpf4jnsgd1na2vs0mg"},{"bike_id":"c0a8878f-0013-46c2-84d8-fee6d4da948d","system_id":"levelo_inurba_marseille","lat":43.24081,"lon":5.37743,"is_reserved":false,"is_disabled":false,"rental_uris":{"android":"levelo://app?vid=c0a8878f-0013-46c2-84d8-fee6d4da948d","ios":"levelo://app?vid=c0a8878f-0013-46c2-84d8-fee6d4da948d"},"vehicle_type_id":"4","last_reported":1747811435,"current_range_meters":17200,"station_id":"ce4bhnp2rcd13ifvqgvg","pricing_plan_id":"cebpf4jnsgd1na2vs0mg"},{"bike_id":"d2bec294-4343-4dfb-afc5-6ff1bb15187e","system_id":"levelo_inurba_marseille","lat":43.240674,"lon":5.377636,"is_reserved":false,"is_disabled":false,"rental_uris":{"android":"levelo://app?vid=d2bec294-4343-4dfb-afc5-6ff1bb15187e","ios":"levelo://app?vid=d2bec294-4343-4dfb-afc5-6ff1bb15187e"},"vehicle_type_id":"4","last_reported":1747811435,"current_range_meters":17200,"station_id":"ce4bhnp2rcd13ifvqgvg","pricing_plan_id":"cebpf4jnsgd1na2vs0mg"},{"bike_id":"46838dcc-bfcd-47f7-9e26-97ebaf4848eb","system_id":"levelo_inurba_marseille","lat":43.21191,"lon":5.35078,"is_reserved":false,"is_disabled":false,"rental_uris":{"android":"levelo://app?vid=46838dcc-bfcd-47f7-9e26-97ebaf4848eb","ios":"levelo://app?vid=46838dcc-bfcd-47f7-9e26-97ebaf4848eb"},"vehicle_type_id":"4","last_reported":1747811435,"current_range_meters":17200,"station_id":"st_cvj6sg6p6f1abm77japg","pricing_plan_id":"cebpf4jnsgd1na2vs0mg"},{"bike_id":"97aaa81e-4c39-407d-92c6-602be17c2e1f","system_id":"levelo_inurba_marseille","lat":43.30274,"lon":5.37706,"is_reserved":false,"is_disabled":false,"rental_uris":{"android":"levelo://app?vid=97aaa81e-4c39-407d-92c6-602be17c2e1f","ios":"levelo://app?vid=97aaa81e-4c39-407d-92c6-602be17c2e1f"},"vehicle_type_id":"4","last_reported":1747811435,"current_range_meters":17600,"station_id":"ce4bguh2rcd13ifvqcj0","pricing_plan_id":"cebpf4jnsgd1na2vs0mg"},{"bike_id":"f7b4d21f-dedb-44dc-8466-9458629acd13","system_id":"levelo_inurba_marseille","lat":43.29028,"lon":5.39976,"is_reserved":false,"is_disabled":false,"rental_uris":{"android":"levelo://app?vid=f7b4d21f-dedb-44dc-8466-9458629acd13","ios":"levelo://app?vid=f7b4d21f-dedb-44dc-8466-9458629acd13"},"vehicle_type_id":"4","last_reported":1747811435,"current_range_meters":17600,"station_id":"ce4bh392rcd13ifvqdm0","pricing_plan_id":"cebpf4jnsgd1na2vs0mg"},{"bike_id":"dc61c065-6ed1-487e-9ecf-5a93a8f61ca7","system_id":"levelo_inurba_marseille","lat":43.231862,"lon":5.399806,"is_reserved":false,"is_disabled":false,"rental_uris":{"android":"levelo://app?vid=dc61c065-6ed1-487e-9ecf-5a93a8f61ca7","ios":"levelo://app?vid=dc61c065-6ed1-487e-9ecf-5a93a8f61ca7"},"vehicle_type_id":"4","last_reported":1747811435,"current_range_meters":17600,"station_id":"ce4bhn12rcd13ifvqgqg","pricing_plan_id":"cebpf4jnsgd1na2vs0mg"},{"bike_id":"c352c9ae-423d-4fe5-9ab5-e8e3e52250a5","system_id":"levelo_inurba_marseille","lat":43.24071,"lon":5.37754,"is_reserved":false,"is_disabled":false,"rental_uris":{"android":"levelo://app?vid=c352c9ae-423d-4fe5-9ab5-e8e3e52250a5","ios":"levelo://app?vid=c352c9ae-423d-4fe5-9ab5-e8e3e52250a5"},"vehicle_type_id":"4","last_reported":1747811435,"current_range_meters":17600,"station_id":"ce4bhnp2rcd13ifvqgvg","pricing_plan_id":"cebpf4jnsgd1na2vs0mg"},{"bike_id":"2b6c3286-142e-473e-8f76-c5a225ad2f2a","system_id":"levelo_inurba_marseille","lat":43.31751,"lon":5.39013,"is_reserved":false,"is_disabled":false,"rental_uris":{"android":"levelo://app?vid=2b6c3286-142e-473e-8f76-c5a225ad2f2a","ios":"levelo://app?vid=2b6c3286-142e-473e-8f76-c5a225ad2f2a"},"vehicle_type_id":"4","last_reported":1747811435,"current_range_meters":17600,"station_id":"ce4bhqp2rcd13ifvqhng","pricing_plan_id":"cebpf4jnsgd1na2vs0mg"},{"bike_id":"b075732e-e941-479b-9417-f853b1af7266","system_id":"levelo_inurba_marseille","lat":43.30731,"lon":5.42442,"is_reserved":false,"is_disabled":false,"rental_uris":{"android":"levelo://app?vid=b075732e-e941-479b-9417-f853b1af7266","ios":"levelo://app?vid=b075732e-e941-479b-9417-f853b1af7266"},"vehicle_type_id":"4","last_reported":1747811435,"current_range_meters":17600,"station_id":"st_cvj6ca6bvosntc0bfgr0","pricing_plan_id":"cebpf4jnsgd1na2vs0mg"},{"bike_id":"79363bb7-a60b-4946-b390-95fa8223196f","system_id":"levelo_inurba_marseille","lat":43.31366,"lon":5.38521,"is_reserved":false,"is_disabled":false,"rental_uris":{"android":"levelo://app?vid=79363bb7-a60b-4946-b390-95fa8223196f","ios":"levelo://app?vid=79363bb7-a60b-4946-b390-95fa8223196f"},"vehicle_type_id":"4","last_reported":1747811435,"current_range_meters":18000,"station_id":"ce4bgt92rcd13ifvqcf0","pricing_plan_id":"cebpf4jnsgd1na2vs0mg"},{"bike_id":"2952ade9-356c-4336-99a1-396e23965977","system_id":"levelo_inurba_marseille","lat":43.28418,"lon":5.37504,"is_reserved":false,"is_disabled":false,"rental_uris":{"android":"levelo://app?vid=2952ade9-356c-4336-99a1-396e23965977","ios":"levelo://app?vid=2952ade9-356c-4336-99a1-396e23965977"},"vehicle_type_id":"4","last_reported":1747811435,"current_range_meters":18000,"station_id":"ce4bh412rcd13ifvqds0","pricing_plan_id":"cebpf4jnsgd1na2vs0mg"},{"bike_id":"d4f9ecc3-42f2-4604-baac-811dc21bac19","system_id":"levelo_inurba_marseille","lat":43.266601,"lon":5.394995,"is_reserved":false,"is_disabled":false,"rental_uris":{"android":"levelo://app?vid=d4f9ecc3-42f2-4604-baac-811dc21bac19","ios":"levelo://app?vid=d4f9ecc3-42f2-4604-baac-811dc21bac19"},"vehicle_type_id":"4","last_reported":1747811435,"current_range_meters":18000,"station_id":"ce4bhi12rcd13ifvqfq0","pricing_plan_id":"cebpf4jnsgd1na2vs0mg"},{"bike_id":"512cad48-a180-4060-b1f1-89c6ef5852f2","system_id":"levelo_inurba_marseille","lat":43.231896,"lon":5.399874,"is_reserved":false,"is_disabled":false,"rental_uris":{"android":"levelo://app?vid=512cad48-a180-4060-b1f1-89c6ef5852f2","ios":"levelo://app?vid=512cad48-a180-4060-b1f1-89c6ef5852f2"},"vehicle_type_id":"4","last_reported":1747811435,"current_range_meters":18000,"station_id":"ce4bhn12rcd13ifvqgqg","pricing_plan_id":"cebpf4jnsgd1na2vs0mg"},