{"last_updated":1734908853,"ttl":60,"version":"2.2","data":{"bikes":[{"bike_id":"0ca06402-545a-48a5-a281-1a1490dbf1e6","system_id":"levelo_inurba_marseille","lat":43.30626,"lon":5.37216,"is_reserved":false,"is_disabled":false,"rental_uris":{"android":"levelo://app?vid=0ca06402-545a-48a5-a281-1a1490dbf1e6","ios":"levelo://app?vid=0ca06402-545a-48a5-a281-1a1490dbf1e6"},"vehicle_type_id":"4","last_reported":1734908853,"current_range_meters":38800,"station_id":"ce4bgqh2rcd13ifvqc4g","pricing_plan_id":"cebpf4jnsgd1na2vs0mg"},{"bike_id":"ad3d8766-d308-4638-bc95-b3a67ec1b834","system_id":"levelo_inurba_marseille","lat":43.29621,"lon":5.37156,"is_reserved":false,"is_disabled":false,"rental_uris":{"android":"levelo://app?vid=ad3d8766-d308-4638-bc95-b3a67ec1b834","ios":"levelo://app?vid=ad3d8766-d308-4638-bc95-b3a67ec1b834"},"vehicle_type_id":"4","last_reported":1734908853,"current_range_meters":10800,"station_id":"ce4bgnh2rcd13ifvqc0g","pricing_plan_id":"cebpf4jnsgd1na2vs0mg"},{"bike_id":"1029d415-2922-44a9-9380-f46bc513625c","system_id":"levelo_inurba_marseille","lat":43.30541,"lon":5.38432,"is_reserved":false,"is_disabled":false,"rental_uris":{"android":"levelo://app?vid=1029d415-2922-44a9-9380-f46bc513625c","ios":"levelo://app?vid=1029d415-2922-44a9-9380-f46bc513625c"},"vehicle_type_id":"4","last_reported":1734908853,"current_range_meters":39200,"station_id":"ce4bgg92rcd13ifvqb30","pricing_plan_id":"cebpf4jnsgd1na2vs0mg"},{"bike_id":"b5251cd0-66bc-4e10-9cd1-311b5de694fa","system_id":"levelo_inurba_marseille","lat":43.27616,"lon":5.36113,"is_reserved":false,"is_disabled":false,"rental_uris":{"android":"levelo://app?vid=b5251cd0-66bc-4e10-9cd1-311b5de694fa","ios":"levelo://app?vid=b5251cd0-66bc-4e10-9cd1-311b5de694fa"},"vehicle_type_id":"4","last_reported":1734908853,"current_range_meters":16400,"station_id":"ce4bgj92rcd13ifvqbe0","pricing_plan_id":"cebpf4jnsgd1na2vs0mg"},{"bike_id":"44d65f0a-5d9f-447d-9380-50b79290d0af","system_id":"levelo_inurba_marseille","lat":43.28844,"lon":5.39308,"is_reserved":false,"is_disabled":false,"rental_uris":{"android":"levelo://app?vid=44d65f0a-5d9f-447d-9380-50b79290d0af","ios":"levelo://app?vid=44d65f0a-5d9f-447d-9380-50b79290d0af"},"vehicle_type_id":"4","last_reported":1734908853,"current_range_meters":38800,"station_id":"ce4bh2p2rcd13ifvqdi0","pricing_plan_id":"cebpf4jnsgd1na2vs0mg"},{"bike_id":"e56e6249-89e1-4dab-be75-0b2219cab1ec","system_id":"levelo_inurba_marseille","lat":43.31242,"lon":5.36869,"is_reserved":false,"is_disabled":false,"rental_uris":{"android":"levelo://app?vid=e56e6249-89e1-4dab-be75-0b2219cab1ec","ios":"levelo://app?vid=e56e6249-89e1-4dab-be75-0b2219cab1ec"},"vehicle_type_id":"4","last_reported":1734908853,"current_range_meters":38800,"station_id":"ce4bgl92rcd13ifvqbq0","pricing_plan_id":"cebpf4jnsgd1na2vs0mg"},{"bike_id":"f94b78ab-2580-40bd-9153-2c75f69f90f4","system_id":"levelo_inurba_marseille","lat":43.2893,"lon":5.36626,"is_reserved":false,"is_disabled":false,"rental_uris":{"android":"levelo://app?vid=f94b78ab-2580-40bd-9153-2c75f69f90f4","ios":"levelo://app?vid=f94b78ab-2580-40bd-9153-2c75f69f90f4"},"vehicle_type_id":"4","last_reported":1734908853,"current_range_meters":38800,"station_id":"ce4bhap2rcd13ifvqek0","pricing_plan_id":"cebpf4jnsgd1na2vs0mg"},{"bike_id":"523b429f-b571-4008-b6d4-de088c670be1","system_id":"levelo_inurba_marseille","lat":43.31352,"lon":5.38492,"is_reserved":false,"is_disabled":true,"rental_uris":{"android":"levelo://app?vid=523b429f-b571-4008-b6d4-de088c670be1","ios":"levelo://app?vid=523b429f-b571-4008-b6d4-de088c670be1"},"vehicle_type_id":"4","last_reported":1734908853,"current_range_meters":28000,"station_id":"ce4bgt92rcd13ifvqcf0","pricing_plan_id":"cebpf4jnsgd1na2vs0mg"},{"bike_id":"4702cfac-12d8-49a4-ad02-b3722dafb052","system_id":"levelo_inurba_marseille","lat":43.27561,"lon":5.38397,"is_reserved":false,"is_disabled":false,"rental_uris":{"android":"levelo://app?vid=4702cfac-12d8-49a4-ad02-b3722dafb052","ios":"levelo://app?vid=4702cfac-12d8-49a4-ad02-b3722dafb052"},"vehicle_type_id":"4","last_reported":1734908853,"current_range_meters":33200,"station_id":"ce4bhh92rcd13ifvqfi0","pricing_plan_id":"cebpf4jnsgd1na2vs0mg"},{"bike_id":"31389d71-7dbf-49f1-b789-8b313b9821e9","system_id":"levelo_inurba_marseille","lat":43.27557,"lon":5.3841,"is_reserved":false,"is_disabled":false,"rental_uris":{"android":"levelo://app?vid=31389d71-7dbf-49f1-b789-8b313b9821e9","ios":"levelo://app?vid=31389d71-7dbf-49f1-b789-8b313b9821e9"},"vehicle_type_id":"4","last_reported":1734908853,"current_range_meters":38800,"station_id":"ce4bhh92rcd13ifvqfi0","pricing_plan_id":"cebpf4jnsgd1na2vs0mg"},{"bike_id":"96f67906-c94f-4a78-ae6e-fdff28a17019","system_id":"levelo_inurba_marseille","lat":43.337444,"lon":5.374475,"is_reserved":false,"is_disabled":false,"rental_uris":{"android":"levelo://app?vid=96f67906-c94f-4a78-ae6e-fdff28a17019","ios":"levelo://app?vid=96f67906-c94f-4a78-ae6e-fdff28a17019"},"vehicle_type_id":"4","last_reported":1734908853,"current_range_meters":32400,"station_id":"","pricing_plan_id":"cebpf4jnsgd1na2vs0mg"},{"bike_id":"4ae04926-163e-4ffb-be62-88da4a5836ca","system_id":"levelo_inurba_marseille","lat":43.2922,"lon":5.36074,"is_reserved":false,"is_disabled":false,"rental_uris":{"android":"levelo://app?vid=4ae04926-163e-4ffb-be62-88da4a5836ca","ios":"levelo://app?vid=4ae04926-163e-4ffb-be62-88da4a5836ca"},"vehicle_type_id":"4","last_reported":1734908853,"current_range_meters":16400,"station_id":"ce4bhbh2rcd13ifvqeqg","pricing_plan_id":"cebpf4jnsgd1na2vs0mg"},{"bike_id":"11eac3cc-912a-4f92-9c02-04048b64d973","system_id":"levelo_inurba_marseille","lat":43.3171,"lon":5.43703,"is_reserved":false,"is_disabled":false,"rental_uris":{"android":"levelo://app?vid=11eac3cc-912a-4f92-9c02-04048b64d973","ios":"levelo://app?vid=11eac3cc-912a-4f92-9c02-04048b64d973"},"vehicle_type_id":"4","last_reported":1734908853,"current_range_meters":24800,"station_id":"ce4bhp92rcd13ifvqhcg","pricing_plan_id":"cebpf4jnsgd1na2vs0mg"},{"bike_id":"876ed8a6-2c4d-4810-a7c8-88c81271cd29","system_id":"levelo_inurba_marseille","lat":43.28001,"lon":5.40011,"is_reserved":false,"is_disabled":false,"rental_uris":{"android":"levelo://app?vid=876ed8a6-2c4d-4810-a7c8-88c81271cd29","ios":"levelo://app?vid=876ed8a6-2c4d-4810-a7c8-88c81271cd29"},"vehicle_type_id":"4","last_reported":1734908853,"current_range_meters":33600,"station_id":"ce4bho92rcd13ifvqh4g","pricing_plan_id":"cebpf4jnsgd1na2vs0mg"},{"bike_id":"7fecf7cd-57c8-4918-98c5-481fc257cd30","system_id":"levelo_inurba_marseille","lat":43.307909,"lon":5.376522,"is_reserved":false,"is_disabled":false,"rental_uris":{"android":"levelo://app?vid=7fecf7cd-57c8-4918-98c5-481fc257cd30","ios":"levelo://app?vid=7fecf7cd-57c8-4918-98c5-481fc257cd30"},"vehicle_type_id":"4","last_reported":1734908853,"current_range_meters":20000,"station_id":"ce4bgv92rcd13ifvqcq0","pricing_plan_id":"cebpf4jnsgd1na2vs0mg"},{"bike_id":"5481ebd9-b3a3-4db6-ba37-c92c821046b1","system_id":"levelo_inurba_marseille","lat":43.27619,"lon":5.36111,"is_reserved":false,"is_disabled":false,"rental_uris":{"android":"levelo://app?vid=5481ebd9-b3a3-4db6-ba37-c92c821046b1","ios":"levelo://app?vid=5481ebd9-b3a3-4db6-ba37-c92c821046b1"},"vehicle_type_id":"4","last_reported":1734908853,"current_range_meters":38800,"station_id":"ce4bgj92rcd13ifvqbe0","pricing_plan_id":"cebpf4jnsgd1na2vs0mg"},{"bike_id":"7d8f03ed-84f3-4a6f-ad0a-812ad45a9876","system_id":"levelo_inurba_marseille","lat":43.30444,"lon":5.38894,"is_reserved":false,"is_disabled":false,"rental_uris":{"android":"levelo://app?vid=7d8f03ed-84f3-4a6f-ad0a-812ad45a9876","ios":"levelo://app?vid=7d8f03ed-84f3-4a6f-ad0a-812ad45a9876"},"vehicle_type_id":"4","last_reported":1734908853,"current_range_meters":32800,"station_id":"ce4bgk12rcd13ifvqbi0","pricing_plan_id":"cebpf4jnsgd1na2vs0mg"},{"bike_id":"513f5ce3-64a1-4718-b5dd-7599d3f0b2b2","system_id":"levelo_inurba_marseille","lat":43.28217,"lon":5.40292,"is_reserved":false,"is_disabled":false,"rental_uris":{"android":"levelo://app?vid=513f5ce3-64a1-4718-b5dd-7599d3f0b2b2","ios":"levelo://app?vid=513f5ce3-64a1-4718-b5dd-7599d3f0b2b2"},"vehicle_type_id":"4","last_reported":1734908853,"current_range_meters":14400,"station_id":"","pricing_plan_id":"cebpf4jnsgd1na2vs0mg"},{"bike_id":"483c1a88-3d76-4ce2-b8a0-18ab3d6306de","system_id":"levelo_inurba_marseille","lat":43.29946,"lon":5.3654,"is_reserved":false,"is_disabled":false,"rental_uris":{"android":"levelo://app?vid=483c1a88-3d76-4ce2-b8a0-18ab3d6306de","ios":"levelo://app?vid=483c1a88-3d76-4ce2-b8a0-18ab3d6306de"},"vehicle_type_id":"4","last_reported":1734908853,"current_range_meters":14000,"station_id":"ce4bgm92rcd13ifvqbr0","pricing_plan_id":"cebpf4jnsgd1na2vs0mg"},{"bike_id":"05cda9d8-7535-42e2-a4bd-853aa475f1f4","system_id":"levelo_inurba_marseille","lat":43.28467,"lon":5.35882,"is_reserved":false,"is_disabled":false,"rental_uris":{"android":"levelo://app?vid=05cda9d8-7535-42e2-a4bd-853aa475f1f4","ios":"levelo://app?vid=05cda9d8-7535-42e2-a4bd-853aa475f1f4"},"vehicle_type_id":"4","last_reported":1734908853,"current_range_meters":18800,"station_id":"ce4bhah2rcd13ifvqei0","pricing_plan_id":"cebpf4jnsgd1na2vs0mg"},{"bike_id":"843c6878-0e3f-4b01-b1b7-bbb9a0523c31","system_id":"levelo_inurba_marseille","lat":43.32664,"lon":5.4099,"is_reserved":false,"is_disabled":true,"rental_uris":{"android":"levelo://app?vid=843c6878-0e3f-4b01-b1b7-bbb9a0523c31","ios":"levelo://app?vid=843c6878-0e3f-4b01-b1b7-bbb9a0523c31"},"vehicle_type_id":"4","last_reported":1734908853,"current_range_meters":28000,"station_id":"ce4bhpp2rcd13ifvqhgg","pricing_plan_id":"cebpf4jnsgd1na2vs0mg"},{"bike_id":"1e5de7ac-7200-40ae-b566-061958bf5c9a","system_id":"levelo_inurba_marseille","lat":43.25088,"lon":5.39521,"is_reserved":false,"is_disabled":false,"rental_uris":{"android":"levelo://app?vid=1e5de7ac-7200-40ae-b566-061958bf5c9a","ios":"levelo://app?vid=1e5de7ac-7200-40ae-b566-061958bf5c9a"},"vehicle_type_id":"4","last_reported":1734908853,"current_range_meters":27600,"station_id":"ce4bhm12rcd13ifvqgkg","pricing_plan_id":"cebpf4jnsgd1na2vs0mg"},{"bike_id":"db6d4cd6-324d-40d9-b2a7-d53d9856d610","system_id":"levelo_inurba_marseille","lat":43.29351,"lon":5.42821,"is_reserved":false,"is_disabled":true,"rental_uris":{"android":"levelo://app?vid=db6d4cd6-324d-40d9-b2a7-d53d9856d610","ios":"levelo://app?vid=db6d4cd6-324d-40d9-b2a7-d53d9856d610"},"vehicle_type_id":"4","last_reported":1734908853,"current_range_meters":0,"station_id":"","pricing_plan_id":"cebpf4jnsgd1na2vs0mg"},{"bike_id":"60488041-72af-4cd2-8e31-d232fcc73192","system_id":"levelo_inurba_marseille","lat":43.28107,"lon":5.37836,"is_reserved":false,"is_disabled":false,"rental_uris":{"android":"levelo://app?vid=60488041-72af-4cd2-8e31-d232fcc73192","ios":"levelo://app?vid=60488041-72af-4cd2-8e31-d232fcc73192"},"vehicle_type_id":"4","last_reported":1734908853,"current_range_meters":36000,"station_id":"ce4bha12rcd13ifvqee0","pricing_plan_id":"cebpf4jnsgd1na2vs0mg"},{"bike_id":"4e2e6240-5440-4ed7-ace9-4c9e6bd778e5","system_id":"levelo_inurba_marseille","lat":43.240704,"lon":5.377546,"is_reserved":false,"is_disabled":false,"rental_uris":{"android":"levelo://app?vid=4e2e6240-5440-4ed7-ace9-4c9e6bd778e5","ios":"levelo://app?vid=4e2e6240-5440-4ed7-ace9-4c9e6bd778e5"},"vehicle_type_id":"4","last_reported":1734908853,"current_range_meters":31200,"station_id":"ce4bhnp2rcd13ifvqgvg","pricing_plan_id":"cebpf4jnsgd1na2vs0mg"},{"bike_id":"df357b14-4c6a-4905-8927-9863400f5dca","system_id":"levelo_inurba_marseille","lat":43.25867,"lon":5.39899,"is_reserved":false,"is_disabled":false,"rental_uris":{"android":"levelo://app?vid=df357b14-4c6a-4905-8927-9863400f5dca","ios":"levelo://app?vid=df357b14-4c6a-4905-8927-9863400f5dca"},"vehicle_type_id":"4","last_reported":1734908853,"current_range_meters":32400,"station_id":"ce4bhl92rcd13ifvqghg","pricing_plan_id":"cebpf4jnsgd1na2vs0mg"},{"bike_id":"b76cea7e-5025-4e14-a8c7-eebf31292c4c","system_id":"levelo_inurba_marseille","lat":43.26061,"lon":5.39382,"is_reserved":false,"is_disabled":true,"rental_uris":{"android":"levelo://app?vid=b76cea7e-5025-4e14-a8c7-eebf31292c4c","ios":"levelo://app?vid=b76cea7e-5025-4e14-a8c7-eebf31292c4c"},"vehicle_type_id":"4","last_reported":1734908853,"current_range_meters":31200,"station_id":"ce4bhh92rcd13ifvqfj0","pricing_plan_id":"cebpf4jnsgd1na2vs0mg"},{"bike_id":"61d31d0f-b8a0-41e9-a988-1a5e04ea1bd5","system_id":"levelo_inurba_marseille","lat":43.31236,"lon":5.36879,"is_reserved":false,"is_disabled":false,"rental_uris":{"android":"levelo://app?vid=61d31d0f-b8a0-41e9-a988-1a5e04ea1bd5","ios":"levelo://app?vid=61d31d0f-b8a0-41e9-a988-1a5e04ea1bd5"},"vehicle_type_id":"4","last_reported":1734908853,"current_range_meters":30800,"station_id":"ce4bgl92rcd13ifvqbq0","pricing_plan_id":"cebpf4jnsgd1na2vs0mg"},{"bike_id":"61d8749c-767a-4ec7-8eb6-7121beaadce8","system_id":"levelo_inurba_marseille","lat":43.27816,"lon":5.40715,"is_reserved":false,"is_disabled":false,"rental_uris":{"android":"levelo://app?vid=61d8749c-767a-4ec7-8eb6-7121beaadce8","ios":"levelo://app?vid=61d8749c-767a-4ec7-8eb6-7121beaadce8"},"vehicle_type_id":"4","last_reported":1734908853,"current_range_meters":36800,"station_id":"ce4bhnh2rcd13ifvqgtg","pricing_plan_id":"cebpf4jnsgd1na2vs0mg"},{"bike_id":"24fa1a3b-278d-4dd9-a42d-ad0d1b0a7b28","system_id":"levelo_inurba_marseille","lat":43.28481,"lon":5.37556,"is_reserved":false,"is_disabled":false,"rental_uris":{"android":"levelo://app?vid=24fa1a3b-278d-4dd9-a42d-ad0d1b0a7b28","ios":"levelo://app?vid=24fa1a3b-278d-4dd9-a42d-ad0d1b0a7b28"},"vehicle_type_id":"4","last_reported":1734908853,"current_range_meters":38800,"station_id":"","pricing_plan_id":"cebpf4jnsgd1na2vs0mg"},{"bike_id":"ab65e053-63df-4278-8282-bff7fc66de9e","system_id":"levelo_inurba_marseille","lat":43.26789,"lon":5.39416,"is_reserved":false,"is_disabled":false,"rental_uris":{"android":"levelo://app?vid=ab65e053-63df-4278-8282-bff7fc66de9e","ios":"levelo://app?vid=ab65e053-63df-4278-8282-bff7fc66de9e"},"vehicle_type_id":"4","last_reported":1734908853,"current_range_meters":36400,"station_id":"ce4bhh12rcd13ifvqfg0","pricing_plan_id":"cebpf4jnsgd1na2vs0mg"},{"bike_id":"651844bd-4f3d-4f9f-9e62-99695174b835","system_id":"levelo_inurba_marseille","lat":43.30553,"lon":5.365311,"is_reserved":false,"is_disabled":false,"rental_uris":{"android":"levelo://app?vid=651844bd-4f3d-4f9f-9e62-99695174b835","ios":"levelo://app?vid=651844bd-4f3d-4f9f-9e62-99695174b835"},"vehicle_type_id":"4","last_reported":1734908853,"current_range_meters":28400,"station_id":"ce4bgs12rcd13ifvqcag","pricing_plan_id":"cebpf4jnsgd1na2vs0mg"},{"bike_id":"5d29fc56-dbb2-4006-96bc-27e181f8d4f5","system_id":"levelo_inurba_marseille","lat":43.298521,"lon":5.362839,"is_reserved":false,"is_disabled":false,"rental_uris":{"android":"levelo://app?vid=5d29fc56-dbb2-4006-96bc-27e181f8d4f5","ios":"levelo://app?vid=5d29fc56-dbb2-4006-96bc-27e181f8d4f5"},"vehicle_type_id":"4","last_reported":1734908853,"current_range_meters":32000,"station_id":"ce4bgpp2rcd13ifvqc3g","pricing_plan_id":"cebpf4jnsgd1na2vs0mg"},{"bike_id":"1a2c601a-9a6f-42f3-81d3-dadd0aff24a8","system_id":"levelo_inurba_marseille","lat":43.31073,"lon":5.38351,"is_reserved":false,"is_disabled":false,"rental_uris":{"android":"levelo://app?vid=1a2c601a-9a6f-42f3-81d3-dadd0aff24a8","ios":"levelo://app?vid=1a2c601a-9a6f-42f3-81d3-dadd0aff24a8"},"vehicle_type_id":"4","last_reported":1734908853,"current_range_meters":33600,"station_id":"ce4bgv92rcd13ifvqcr0","pricing_plan_id":"cebpf4jnsgd1na2vs0mg"},{"bike_id":"b7c6dbd5-17a8-4fda-a45a-10a78784087b","system_id":"levelo_inurba_marseille","lat":43.31125,"lon":5.37765,"is_reserved":false,"is_disabled":false,"rental_uris":{"android":"levelo://app?vid=b7c6dbd5-17a8-4fda-a45a-10a78784087b","ios":"levelo://app?vid=b7c6dbd5-17a8-4fda-a45a-10a78784087b"},"vehicle_type_id":"4","last_reported":1734908853,"current_range_meters":36800,"station_id":"ce4bgt92rcd13ifvqcg0","pricing_plan_id":"cebpf4jnsgd1na2vs0mg"},{"bike_id":"bdb075e4-2323-4b3c-985d-93058398d898","system_id":"levelo_inurba_marseille","lat":43.29725,"lon":5.37692,"is_reserved":false,"is_disabled":false,"rental_uris":{"android":"levelo://app?vid=bdb075e4-2323-4b3c-985d-93058398d898","ios":"levelo://app?vid=bdb075e4-2323-4b3c-985d-93058398d898"},"vehicle_type_id":"4","last_reported":1734908853,"current_range_meters":36800,"station_id":"ce4bgkh2rcd13ifvqbl0","pricing_plan_id":"cebpf4jnsgd1na2vs0mg"},{"bike_id":"a2a89b5f-eba3-4b29-a356-3a28a2b973d5","system_id":"levelo_inurba_marseille","lat":43.30627,"lon":5.37211,"is_reserved":false,"is_disabled":false,"rental_uris":{"android":"levelo://app?vid=a2a89b5f-eba3-4b29-a356-3a28a2b973d5","ios":"levelo://app?vid=a2a89b5f-eba3-4b29-a356-3a28a2b973d5"},"vehicle_type_id":"4","last_reported":1734908853,"current_range_meters":25600,"station_id":"ce4bgqh2rcd13ifvqc4g","pricing_plan_id":"cebpf4jnsgd1na2vs0mg"},{"bike_id":"1de67f59-22aa-4099-abb5-58832d90cd65","system_id":"levelo_inurba_marseille","lat":43.30157,"lon":5.38094,"is_reserved":false,"is_disabled":false,"rental_uris":{"android":"levelo://app?vid=1de67f59-22aa-4099-abb5-58832d90cd65","ios":"levelo://app?vid=1de67f59-22aa-4099-abb5-58832d90cd65"},"vehicle_type_id":"4","last_reported":1734908853,"current_range_meters":38000,"station_id":"ce4bgjp2rcd13ifvqbh0","pricing_plan_id":"cebpf4jnsgd1na2vs0mg"},{"bike_id":"41d0d9f5-bb31-41f6-8358-898df39bf21c","system_id":"levelo_inurba_marseille","lat":43.25871,"lon":5.39908,"is_reserved":false,"is_disabled":false,"rental_uris":{"android":"levelo://app?vid=41d0d9f5-bb31-41f6-8358-898df39bf21c","ios":"levelo://app?vid=41d0d9f5-bb31-41f6-8358-898df39bf21c"},"vehicle_type_id":"4","last_reported":1734908853,"current_range_meters":38800,"station_id":"ce4bhl92rcd13ifvqghg","pricing_plan_id":"cebpf4jnsgd1na2vs0mg"},{"bike_id":"7e211114-fd49-4399-8a81-09d040af8d46","system_id":"levelo_inurba_marseille","lat":43.24817,"lon":5.37447,"is_reserved":false,"is_disabled":false,"rental_uris":{"android":"levelo://app?vid=7e211114-fd49-4399-8a81-09d040af8d46","ios":"levelo://app?vid=7e211114-fd49-4399-8a81-09d040af8d46"},"vehicle_type_id":"4","last_reported":1734908853,"current_range_meters":15200,"station_id":"ce4bhgh2rcd13ifvqfb0","pricing_plan_id":"cebpf4jnsgd1na2vs0mg"},{"bike_id":"3c074c94-63da-48f6-987f-923d46375b41","system_id":"levelo_inurba_marseille","lat":43.33617,"lon":5.41028,"is_reserved":false,"is_disabled":false,"rental_uris":{"android":"levelo://app?vid=3c074c94-63da-48f6-987f-923d46375b41","ios":"levelo://app?vid=3c074c94-63da-48f6-987f-923d46375b41"},"vehicle_type_id":"4","last_reported":1734908853,"current_range_meters":37600,"station_id":"ce4bhqh2rcd13ifvqhmg","pricing_plan_id":"cebpf4jnsgd1na2vs0mg"},{"bike_id":"55493f02-3ae5-4a23-8946-9252d63bbe7a","system_id":"levelo_inurba_marseille","lat":43.28918,"lon":5.38394,"is_reserved":false,"is_disabled":true,"rental_uris":{"android":"levelo://app?vid=55493f02-3ae5-4a23-8946-9252d63bbe7a","ios":"levelo://app?vid=55493f02-3ae5-4a23-8946-9252d63bbe7a"},"vehicle_type_id":"4","last_reported":1734908853,"current_range_meters":35600,"station_id":"ce4bh612rcd13ifvqe6g","pricing_plan_id":"cebpf4jnsgd1na2vs0mg"},{"bike_id":"e724f4e5-0922-4e36-91f4-8a4c9d514ff5","system_id":"levelo_inurba_marseille","lat":43.29841,"lon":5.36264,"is_reserved":false,"is_disabled":false,"rental_uris":{"android":"levelo://app?vid=e724f4e5-0922-4e36-91f4-8a4c9d514ff5","ios":"levelo://app?vid=e724f4e5-0922-4e36-91f4-8a4c9d514ff5"},"vehicle_type_id":"4","last_reported":1734908853,"current_range_meters":37600,"station_id":"ce4bgpp2rcd13ifvqc3g","pricing_plan_id":"cebpf4jnsgd1na2vs0mg"},{"bike_id":"e758d540-a49b-4c63-beac-9556d1c03d6f","system_id":"levelo_inurba_marseille","lat":43.31713,"lon":5.4241,"is_reserved":false,"is_disabled":false,"rental_uris":{"android":"levelo://app?vid=e758d540-a49b-4c63-beac-9556d1c03d6f","ios":"levelo://app?vid=e758d540-a49b-4c63-beac-9556d1c03d6f"},"vehicle_type_id":"4","last_reported":1734908853,"current_range_meters":38800,"station_id":"ce4bhp92rcd13ifvqhbg","pricing_plan_id":"cebpf4jnsgd1na2vs0mg"},{"bike_id":"b567452d-1653-4b1e-8f57-3d9ff57e59c9","system_id":"levelo_inurba_marseille","lat":43.29574,"lon":5.37505,"is_reserved":false,"is_disabled":false,"rental_uris":{"android":"levelo://app?vid=b567452d-1653-4b1e-8f57-3d9ff57e59c9","ios":"levelo://app?vid=b567452d-1653-4b1e-8f57-3d9ff57e59c9"},"vehicle_type_id":"4","last_reported":1734908853,"current_range_meters":20400,"station_id":"ce4bgh92rcd13ifvqb50","pricing_plan_id":"cebpf4jnsgd1na2vs0mg"},{"bike_id":"d98f0b8a-1ef4-43b4-85a1-12b00b5f4de1","system_id":"levelo_inurba_marseille","lat":43.28412,"lon":5.34961,"is_reserved":false,"is_disabled":false,"rental_uris":{"android":"levelo://app?vid=d98f0b8a-1ef4-43b4-85a1-12b00b5f4de1","ios":"levelo://app?vid=d98f0b8a-1ef4-43b4-85a1-12b00b5f4de1"},"vehicle_type_id":"4","last_reported":1734908853,"current_range_meters":34000,"station_id":"ce4bhbh2rcd13ifvqepg","pricing_plan_id":"cebpf4jnsgd1na2vs0mg"},{"bike_id":"6fd5e9ee-77ca-4a0d-bf73-4182b3cb9305","system_id":"levelo_inurba_marseille","lat":43.33614,"lon":5.41022,"is_reserved":false,"is_disabled":false,"rental_uris":{"android":"levelo://app?vid=6fd5e9ee-77ca-4a0d-bf73-4182b3cb9305","ios":"levelo://app?vid=6fd5e9ee-77ca-4a0d-bf73-4182b3cb9305"},"vehicle_type_id":"4","last_reported":1734908853,"current_range_meters":16400,"station_id":"ce4bhqh2rcd13ifvqhmg","pricing_plan_id":"cebpf4jnsgd1na2vs0mg"},{"bike_id":"73269598-e058-48d7-a70d-4eb341f0501a","system_id":"levelo_inurba_marseille","lat":43.299667,"lon":5.413184,"is_reserved":false,"is_disabled":false,"rental_uris":{"android":"levelo://app?vid=73269598-e058-48d7-a70d-4eb341f0501a","ios":"levelo://app?vid=73269598-e058-48d7-a70d-4eb341f0501a"},"vehicle_type_id":"4","last_reported":1734908853,"current_range_meters":38800,"station_id":"ce4bhp12rcd13ifvqh9g","pricing_plan_id":"cebpf4jnsgd1na2vs0mg"},{"bike_id":"71bbaaf0-30fa-412b-9088-f880a672af88","system_id":"levelo_inurba_marseille","lat":43.26023,"lon":5.37559,"is_reserved":false,"is_disabled":false,"rental_uris":{"android":"levelo://app?vid=71bbaaf0-30fa-412b-9088-f880a672af88","ios":"levelo://app?vid=71bbaaf0-30fa-412b-9088-f880a672af88"},"vehicle_type_id":"4","last_reported":1734908853,"current_range_meters":35200,"station_id":"ce4bhgh2rcd13ifvqfa0","pricing_plan_id":"cebpf4jnsgd1na2vs0mg"},{"bike_id":"efec4761-ced6-4aec-afd8-890699f22542","system_id":"levelo_inurba_marseille","lat":43.3136,"lon":5.38487,"is_reserved":false,"is_disabled":false,"rental_uris":{"android":"levelo://app?vid=efec4761-ced6-4aec-afd8-890699f22542","ios":"levelo://app?vid=efec4761-ced6-4aec-afd8-890699f22542"},"vehicle_type_id":"4","last_reported":1734908853,"current_range_meters":24800,"station_id":"ce4bgt92rcd13ifvqcf0","pricing_plan_id":"cebpf4jnsgd1na2vs0mg"},{"bike_id":"309ecef6-9191-45a6-9648-b6ca110b1bf8","system_id":"levelo_inurba_marseille","lat":43.2893,"lon":5.36626,"is_reserved":false,"is_disabled":false,"rental_uris":{"android":"levelo://app?vid=309ecef6-9191-45a6-9648-b6ca110b1bf8","ios":"levelo://app?vid=309ecef6-9191-45a6-9648-b6ca110b1bf8"},"vehicle_type_id":"4","last_reported":1734908853,"current_range_meters":38000,"station_id":"ce4bhap2rcd13ifvqek0","pricing_plan_id":"cebpf4jnsgd1na2vs0mg"},{"bike_id":"d1aed847-98af-41ac-a611-c35d33b973ea","system_id":"levelo_inurba_marseille","lat":43.27923,"lon":5.39565,"is_reserved":false,"is_disabled":true,"rental_uris":{"android":"levelo://app?vid=d1aed847-98af-41ac-a611-c35d33b973ea","ios":"levelo://app?vid=d1aed847-98af-41ac-a611-c35d33b973ea"},"vehicle_type_id":"4","last_reported":1734908853,"current_range_meters":0,"station_id":"ce4bhf92rcd13ifvqf40","pricing_plan_id":"cebpf4jnsgd1na2vs0mg"},{"bike_id":"7997a9a5-7237-4c6a-bdef-738fc292f5e9","system_id":"levelo_inurba_marseille","lat":43.26493,"lon":5.39549,"is_reserved":false,"is_disabled":false,"rental_uris":{"android":"levelo://app?vid=7997a9a5-7237-4c6a-bdef-738fc292f5e9","ios":"levelo://app?vid=7997a9a5-7237-4c6a-bdef-738fc292f5e9"},"vehicle_type_id":"4","last_reported":1734908853,"current_range_meters":36400,"station_id":"ce4bhi12rcd13ifvqfq0","pricing_plan_id":"cebpf4jnsgd1na2vs0mg"},{"bike_id":"252b4c9e-12c7-4a8a-8059-ec130627e2f7","system_id":"levelo_inurba_marseille","lat":43.25874,"lon":5.39908,"is_reserved":false,"is_disabled":false,"rental_uris":{"android":"levelo://app?vid=252b4c9e-12c7-4a8a-8059-ec130627e2f7","ios":"levelo://app?vid=252b4c9e-12c7-4a8a-8059-ec130627e2f7"},"vehicle_type_id":"4","last_reported":1734908853,"current_range_meters":24400,"station_id":"ce4bhl92rcd13ifvqghg","pricing_plan_id":"cebpf4jnsgd1na2vs0mg"},{"bike_id":"ede16cbb-850f-47ad-82f6-5d8be41499b7","system_id":"levelo_inurba_marseille","lat":43.30793,"lon":5.43526,"is_reserved":false,"is_disabled":false,"rental_uris":{"android":"levelo://app?vid=ede16cbb-850f-47ad-82f6-5d8be41499b7","ios":"levelo://app?vid=ede16cbb-850f-47ad-82f6-5d8be41499b7"},"vehicle_type_id":"4","last_reported":1734908853,"current_range_meters":38800,"station_id":"ce4bhph2rcd13ifvqheg","pricing_plan_id":"cebpf4jnsgd1na2vs0mg"},{"bike_id":"ab05b55d-29ca-4806-9017-a5f86f5538b7","system_id":"levelo_inurba_marseille","lat":43.27436,"lon":5.39419,"is_reserved":false,"is_disabled":false,"rental_uris":{"android":"levelo://app?vid=ab05b55d-29ca-4806-9017-a5f86f5538b7","ios":"levelo://app?vid=ab05b55d-29ca-4806-9017-a5f86f5538b7"},"vehicle_type_id":"4","last_reported":1734908853,"current_range_meters":38800,"station_id":"ce4bhdp2rcd13ifvqf20","pricing_plan_id":"cebpf4jnsgd1na2vs0mg"},{"bike_id":"cf0ed14a-0bb3-42d8-8cd2-db845291786a","system_id":"levelo_inurba_marseille","lat":43.2979,"lon":5.39342,"is_reserved":false,"is_disabled":false,"rental_uris":{"android":"levelo://app?vid=cf0ed14a-0bb3-42d8-8cd2-db845291786a","ios":"levelo://app?vid=cf0ed14a-0bb3-42d8-8cd2-db845291786a"},"vehicle_type_id":"4","last_reported":1734908853,"current_range_meters":38800,"station_id":"chh1huq6cuj3fo74tm60","pricing_plan_id":"cebpf4jnsgd1na2vs0mg"},{"bike_id":"f28a7403-9e52-498c-a9a8-dd1107eb9f4c","system_id":"levelo_inurba_marseille","lat":43.24073,"lon":5.37762,"is_reserved":false,"is_disabled":false,"rental_uris":{"android":"levelo://app?vid=f28a7403-9e52-498c-a9a8-dd1107eb9f4c","ios":"levelo://app?vid=f28a7403-9e52-498c-a9a8-dd1107eb9f4c"},"vehicle_type_id":"4","last_reported":1734908853,"current_range_meters":24000,"station_id":"ce4bhnp2rcd13ifvqgvg","pricing_plan_id":"cebpf4jnsgd1na2vs0mg"},{"bike_id":"f1ce263c-85e0-45c5-92f6-1727fa9a3ba5","system_id":"levelo_inurba_marseille","lat":43.30137,"lon":5.38788,"is_reserved":false,"is_disabled":false,"rental_uris":{"android":"levelo://app?vid=f1ce263c-85e0-45c5-92f6-1727fa9a3ba5","ios":"levelo://app?vid=f1ce263c-85e0-45c5-92f6-1727fa9a3ba5"},"vehicle_type_id":"4","last_reported":1734908853,"current_range_meters":26000,"station_id":"ce4bghh2rcd13ifvqb60","pricing_plan_id":"cebpf4jnsgd1na2vs0mg"},{"bike_id":"5de55ec3-b446-45b5-9e6a-b67b9996a2b3","system_id":"levelo_inurba_marseille","lat":43.27338,"lon":5.39115,"is_reserved":false,"is_disabled":true,"rental_uris":{"android":"levelo://app?vid=5de55ec3-b446-45b5-9e6a-b67b9996a2b3","ios":"levelo://app?vid=5de55ec3-b446-45b5-9e6a-b67b9996a2b3"},"vehicle_type_id":"4","last_reported":1734908853,"current_range_meters":30400,"station_id":"ce4bhgp2rcd13ifvqfe0","pricing_plan_id":"cebpf4jnsgd1na2vs0mg"},{"bike_id":"5a5c04a8-ac3e-41aa-8b09-fe959ffa35cb","system_id":"levelo_inurba_marseille","lat":43.31124,"lon":5.37752,"is_reserved":false,"is_disabled":false,"rental_uris":{"android":"levelo://app?vid=5a5c04a8-ac3e-41aa-8b09-fe959ffa35cb","ios":"levelo://app?vid=5a5c04a8-ac3e-41aa-8b09-fe959ffa35cb"},"vehicle_type_id":"4","last_reported":1734908853,"current_range_meters":38800,"station_id":"ce4bgt92rcd13ifvqcg0","pricing_plan_id":"cebpf4jnsgd1na2vs0mg"},{"bike_id":"afd88562-6d4f-4033-b9d3-3fd8fb966437","system_id":"levelo_inurba_marseille","lat":43.31123,"lon":5.37765,"is_reserved":false,"is_disabled":false,"rental_uris":{"android":"levelo://app?vid=afd88562-6d4f-4033-b9d3-3fd8fb966437","ios":"levelo://app?vid=afd88562-6d4f-4033-b9d3-3fd8fb966437"},"vehicle_type_id":"4","last_reported":1734908853,"current_range_meters":15200,"station_id":"ce4bgt92rcd13ifvqcg0","pricing_plan_id":"cebpf4jnsgd1na2vs0mg"},{"bike_id":"fa27ee24-baf1-4edf-912c-c35c66d5d9f9","system_id":"levelo_inurba_marseille","lat":43.30532,"lon":5.36561,"is_reserved":false,"is_disabled":true,"rental_uris":{"android":"levelo://app?vid=fa27ee24-baf1-4edf-912c-c35c66d5d9f9","ios":"levelo://app?vid=fa27ee24-baf1-4edf-912c-c35c66d5d9f9"},"vehicle_type_id":"4","last_reported":1734908853,"current_range_meters":0,"station_id":"ce4bgs12rcd13ifvqcag","pricing_plan_id":"cebpf4jnsgd1na2vs0mg"},{"bike_id":"26e54652-e9b9-485b-b812-31277fa1b57a","system_id":"levelo_inurba_marseille","lat":43.29278,"lon":5.40141,"is_reserved":false,"is_disabled":true,"rental_uris":{"android":"levelo://app?vid=26e54652-e9b9-485b-b812-31277fa1b57a","ios":"levelo://app?vid=26e54652-e9b9-485b-b812-31277fa1b57a"},"vehicle_type_id":"4","last_reported":1734908853,"current_range_meters":20400,"station_id":"ce4bh312rcd13ifvqdk0","pricing_plan_id":"cebpf4jnsgd1na2vs0mg"},{"bike_id":"5e0de73a-a847-44f2-bcf4-7954cb16cb7a","system_id":"levelo_inurba_marseille","lat":43.29228,"lon":5.36068,"is_reserved":false,"is_disabled":false,"rental_uris":{"android":"levelo://app?vid=5e0de73a-a847-44f2-bcf4-7954cb16cb7a","ios":"levelo://app?vid=5e0de73a-a847-44f2-bcf4-7954cb16cb7a"},"vehicle_type_id":"4","last_reported":1734908853,"current_range_meters":15200,"station_id":"ce4bhbh2rcd13ifvqeqg","pricing_plan_id":"cebpf4jnsgd1na2vs0mg"},{"bike_id":"6c43cd76-1806-4286-a6e9-ddc4428ed433","system_id":"levelo_inurba_marseille","lat":43.2953,"lon":5.37493,"is_reserved":false,"is_disabled":false,"rental_uris":{"android":"levelo://app?vid=6c43cd76-1806-4286-a6e9-ddc4428ed433","ios":"levelo://app?vid=6c43cd76-1806-4286-a6e9-ddc4428ed433"},"vehicle_type_id":"4","last_reported":1734908853,"current_range_meters":38800,"station_id":"ce4bgkp2rcd13ifvqbmg","pricing_plan_id":"cebpf4jnsgd1na2vs0mg"},{"bike_id":"7859e67b-2d5b-4b77-af18-e80006a9570a","system_id":"levelo_inurba_marseille","lat":43.31492,"lon":5.37262,"is_reserved":false,"is_disabled":false,"rental_uris":{"android":"levelo://app?vid=7859e67b-2d5b-4b77-af18-e80006a9570a","ios":"levelo://app?vid=7859e67b-2d5b-4b77-af18-e80006a9570a"},"vehicle_type_id":"4","last_reported":1734908853,"current_range_meters":38800,"station_id":"ce4bgt12rcd13ifvqcd0","pricing_plan_id":"cebpf4jnsgd1na2vs0mg"},{"bike_id":"c9a1c28a-5529-40f2-8300-568706b98789","system_id":"levelo_inurba_marseille","lat":43.31119,"lon":5.37759,"is_reserved":false,"is_disabled":false,"rental_uris":{"android":"levelo://app?vid=c9a1c28a-5529-40f2-8300-568706b98789","ios":"levelo://app?vid=c9a1c28a-5529-40f2-8300-568706b98789"},"vehicle_type_id":"4","last_reported":1734908853,"current_range_meters":38400,"station_id":"ce4bgt92rcd13ifvqcg0","pricing_plan_id":"cebpf4jnsgd1na2vs0mg"},{"bike_id":"a3f20b06-fbbc-488d-ab74-510676955d57","system_id":"levelo_inurba_marseille","lat":43.31891,"lon":5.40734,"is_reserved":false,"is_disabled":false,"rental_uris":{"android":"levelo://app?vid=a3f20b06-fbbc-488d-ab74-510676955d57","ios":"levelo://app?vid=a3f20b06-fbbc-488d-ab74-510676955d57"},"vehicle_type_id":"4","last_reported":1734908853,"current_range_meters":33600,"station_id":"ce4bhq12rcd13ifvqhig","pricing_plan_id":"cebpf4jnsgd1na2vs0mg"},{"bike_id":"e1c31745-97f0-49bc-aff9-498bd588a03b","system_id":"levelo_inurba_marseille","lat":43.26805,"lon":5.40255,"is_reserved":false,"is_disabled":false,"rental_uris":{"android":"levelo://app?vid=e1c31745-97f0-49bc-aff9-498bd588a03b","ios":"levelo://app?vid=e1c31745-97f0-49bc-aff9-498bd588a03b"},"vehicle_type_id":"4","last_reported":1734908853,"current_range_meters":38800,"station_id":"ce501612rcd8frsf0b60","pricing_plan_id":"cebpf4jnsgd1na2vs0mg"},{"bike_id":"37657e3e-2cab-40a0-8213-0fea5c905c93","system_id":"levelo_inurba_marseille","lat":43.29045,"lon":5.35909,"is_reserved":false,"is_disabled":false,"rental_uris":{"android":"levelo://app?vid=37657e3e-2cab-40a0-8213-0fea5c905c93","ios":"levelo://app?vid=37657e3e-2cab-40a0-8213-0fea5c905c93"},"vehicle_type_id":"4","last_reported":1734908853,"current_range_meters":38800,"station_id":"ce4bha92rcd13ifvqeg0","pricing_plan_id":"cebpf4jnsgd1na2vs0mg"},{"bike_id":"4602f08c-ccf5-4982-92bf-c4dd40d6772d","system_id":"levelo_inurba_marseille","lat":43.29193,"lon":5.35804,"is_reserved":false,"is_disabled":false,"rental_uris":{"android":"levelo://app?vid=4602f08c-ccf5-4982-92bf-c4dd40d6772d","ios":"levelo://app?vid=4602f08c-ccf5-4982-92bf-c4dd40d6772d"},"vehicle_type_id":"4","last_reported":1734908853,"current_range_meters":38800,"station_id":"ce4bhb12rcd13ifvqel0","pricing_plan_id":"cebpf4jnsgd1na2vs0mg"},{"bike_id":"e73e6057-e6e9-407b-a17e-f4e119a96aba","system_id":"levelo_inurba_marseille","lat":43.32108,"lon":5.36773,"is_reserved":false,"is_disabled":false,"rental_uris":{"android":"levelo://app?vid=e73e6057-e6e9-407b-a17e-f4e119a96aba","ios":"levelo://app?vid=e73e6057-e6e9-407b-a17e-f4e119a96aba"},"vehicle_type_id":"4","last_reported":1734908853,"current_range_meters":23200,"station_id":"ce4bhrh2rcd13ifvqhug","pricing_plan_id":"cebpf4jnsgd1na2vs0mg"},{"bike_id":"59fd5769-8a07-4d67-9caf-6945eb075031","system_id":"levelo_inurba_marseille","lat":43.26062,"lon":5.39399,"is_reserved":false,"is_disabled":false,"rental_uris":{"android":"levelo://app?vid=59fd5769-8a07-4d67-9caf-6945eb075031","ios":"levelo://app?vid=59fd5769-8a07-4d67-9caf-6945eb075031"},"vehicle_type_id":"4","last_reported":1734908853,"current_range_meters":14400,"station_id":"ce4bhh92rcd13ifvqfj0","pricing_plan_id":"cebpf4jnsgd1na2vs0mg"},{"bike_id":"ff19ce84-10b6-4ffc-b9fc-1625914b166c","system_id":"levelo_inurba_marseille","lat":43.297,"lon":5.3662,"is_reserved":false,"is_disabled":false,"rental_uris":{"android":"levelo://app?vid=ff19ce84-10b6-4ffc-b9fc-1625914b166c","ios":"levelo://app?vid=ff19ce84-10b6-4ffc-b9fc-1625914b166c"},"vehicle_type_id":"4","last_reported":1734908853,"current_range_meters":32000,"station_id":"ce4bgn12rcd13ifvqbt0","pricing_plan_id":"cebpf4jnsgd1na2vs0mg"},{"bike_id":"e41b0b0a-7fc1-4d2c-99e6-38d294487f67","system_id":"levelo_inurba_marseille","lat":43.2867,"lon":5.36358,"is_reserved":false,"is_disabled":false,"rental_uris":{"android":"levelo://app?vid=e41b0b0a-7fc1-4d2c-99e6-38d294487f67","ios":"levelo://app?vid=e41b0b0a-7fc1-4d2c-99e6-38d294487f67"},"vehicle_type_id":"4","last_reported":1734908853,"current_range_meters":38800,"station_id":"ce4bhah2rcd13ifvqej0","pricing_plan_id":"cebpf4jnsgd1na2vs0mg"},{"bike_id":"6a08560b-0a43-454b-9264-e23eff30c55e","system_id":"levelo_inurba_marseille","lat":43.31276,"lon":5.40165,"is_reserved":false,"is_disabled":false,"rental_uris":{"android":"levelo://app?vid=6a08560b-0a43-454b-9264-e23eff30c55e","ios":"levelo://app?vid=6a08560b-0a43-454b-9264-e23eff30c55e"},"vehicle_type_id":"4","last_reported":1734908853,"current_range_meters":38800,"station_id":"ce4bh092rcd13ifvqd30","pricing_plan_id":"cebpf4jnsgd1na2vs0mg"},{"bike_id":"2ecd7a5c-6b03-4906-a193-c1bc16b7668c","system_id":"levelo_inurba_marseille","lat":43.30251,"lon":5.40066,"is_reserved":false,"is_disabled":true,"rental_uris":{"android":"levelo://app?vid=2ecd7a5c-6b03-4906-a193-c1bc16b7668c","ios":"levelo://app?vid=2ecd7a5c-6b03-4906-a193-c1bc16b7668c"},"vehicle_type_id":"4","last_reported":1734908853,"current_range_meters":35600,"station_id":"ce4bgvh2rcd13ifvqcs0","pricing_plan_id":"cebpf4jnsgd1na2vs0mg"},{"bike_id":"4bcb37c0-9249-499d-890c-0bbf93d29f8b","system_id":"levelo_inurba_marseille","lat":43.23195,"lon":5.35555,"is_reserved":false,"is_disabled":true,"rental_uris":{"android":"levelo://app?vid=4bcb37c0-9249-499d-890c-0bbf93d29f8b","ios":"levelo://app?vid=4bcb37c0-9249-499d-890c-0bbf93d29f8b"},"vehicle_type_id":"4","last_reported":1734908853,"current_range_meters":25200,"station_id":"ce4bhu92rcd13ifvqi70","pricing_plan_id":"cebpf4jnsgd1na2vs0mg"},{"bike_id":"57263b19-bd39-4f7b-b29d-fb59d05995ff","system_id":"levelo_inurba_marseille","lat":43.246622,"lon":5.376998,"is_reserved":false,"is_disabled":false,"rental_uris":{"android":"levelo://app?vid=57263b19-bd39-4f7b-b29d-fb59d05995ff","ios":"levelo://app?vid=57263b19-bd39-4f7b-b29d-fb59d05995ff"},"vehicle_type_id":"4","last_reported":1734908853,"current_range_meters":16000,"station_id":"","pricing_plan_id":"cebpf4jnsgd1na2vs0mg"},{"bike_id":"cd5d0931-e555-483c-9db0-ffc2dd2fb166","system_id":"levelo_inurba_marseille","lat":43.27941,"lon":5.410515,"is_reserved":false,"is_disabled":false,"rental_uris":{"android":"levelo://app?vid=cd5d0931-e555-483c-9db0-ffc2dd2fb166","ios":"levelo://app?vid=cd5d0931-e555-483c-9db0-ffc2dd2fb166"},"vehicle_type_id":"4","last_reported":1734908853,"current_range_meters":12400,"station_id":"ce4bhnp2rcd13ifvqh0g","pricing_plan_id":"cebpf4jnsgd1na2vs0mg"},{"bike_id":"6659e54c-5b1e-450d-8b6a-bd548e88c499","system_id":"levelo_inurba_marseille","lat":43.28711,"lon":5.3738,"is_reserved":false,"is_disabled":false,"rental_uris":{"android":"levelo://app?vid=6659e54c-5b1e-450d-8b6a-bd548e88c499","ios":"levelo://app?vid=6659e54c-5b1e-450d-8b6a-bd548e88c499"},"vehicle_type_id":"4","last_reported":1734908853,"current_range_meters":23200,"station_id":"ce4bh3p2rcd13ifvqdq0","pricing_plan_id":"cebpf4jnsgd1na2vs0mg"},{"bike_id":"0e30da02-b2cd-4e46-9977-5b9ca16078e1","system_id":"levelo_inurba_marseille","lat":43.28846,"lon":5.39315,"is_reserved":false,"is_disabled":false,"rental_uris":{"android":"levelo://app?vid=0e30da02-b2cd-4e46-9977-5b9ca16078e1","ios":"levelo://app?vid=0e30da02-b2cd-4e46-9977-5b9ca16078e1"},"vehicle_type_id":"4","last_reported":1734908853,"current_range_meters":29600,"station_id":"ce4bh2p2rcd13ifvqdi0","pricing_plan_id":"cebpf4jnsgd1na2vs0mg"},{"bike_id":"258fd392-6732-4d6f-9191-a4ceeb268477","system_id":"levelo_inurba_marseille","lat":43.28942,"lon":5.36412,"is_reserved":false,"is_disabled":false,"rental_uris":{"android":"levelo://app?vid=258fd392-6732-4d6f-9191-a4ceeb268477","ios":"levelo://app?vid=258fd392-6732-4d6f-9191-a4ceeb268477"},"vehicle_type_id":"4","last_reported":1734908853,"current_range_meters":34000,"station_id":"ce4bhc92rcd13ifvqetg","pricing_plan_id":"cebpf4jnsgd1na2vs0mg"},{"bike_id":"343bc065-3555-49ac-90b9-9f9335d87211","system_id":"levelo_inurba_marseille","lat":43.25827,"lon":5.39443,"is_reserved":false,"is_disabled":false,"rental_uris":{"android":"levelo://app?vid=343bc065-3555-49ac-90b9-9f9335d87211","ios":"levelo://app?vid=343bc065-3555-49ac-90b9-9f9335d87211"},"vehicle_type_id":"4","last_reported":1734908853,"current_range_meters":36000,"station_id":"ce4bhip2rcd13ifvqft0","pricing_plan_id":"cebpf4jnsgd1na2vs0mg"},{"bike_id":"fb53a9b7-cb48-4fa3-a711-80e16c091cb8","system_id":"levelo_inurba_marseille","lat":43.2894,"lon":5.36631,"is_reserved":false,"is_disabled":false,"rental_uris":{"android":"levelo://app?vid=fb53a9b7-cb48-4fa3-a711-80e16c091cb8","ios":"levelo://app?vid=fb53a9b7-cb48-4fa3-a711-80e16c091cb8"},"vehicle_type_id":"4","last_reported":1734908853,"current_range_meters":17600,"station_id":"ce4bhap2rcd13ifvqek0","pricing_plan_id":"cebpf4jnsgd1na2vs0mg"},{"bike_id":"ddbfce67-cbf8-4481-9917-3eaa981e7b2e","system_id":"levelo_inurba_marseille","lat":43.22932,"lon":5.35378,"is_reserved":false,"is_disabled":false,"rental_uris":{"android":"levelo://app?vid=ddbfce67-cbf8-4481-9917-3eaa981e7b2e","ios":"levelo://app?vid=ddbfce67-cbf8-4481-9917-3eaa981e7b2e"},"vehicle_type_id":"4","last_reported":1734908853,"current_range_meters":30400,"station_id":"cpo3532slgdg3j2ikp40","pricing_plan_id":"cebpf4jnsgd1na2vs0mg"},{"bike_id":"f05c7e32-ee1f-4822-9688-1d8bdc5b4813","system_id":"levelo_inurba_marseille","lat":43.26681,"lon":5.38269,"is_reserved":false,"is_disabled":false,"rental_uris":{"android":"levelo://app?vid=f05c7e32-ee1f-4822-9688-1d8bdc5b4813","ios":"levelo://app?vid=f05c7e32-ee1f-4822-9688-1d8bdc5b4813"},"vehicle_type_id":"4","last_reported":1734908853,"current_range_meters":12400,"station_id":"ce4bhg92rcd13ifvqf90","pricing_plan_id":"cebpf4jnsgd1na2vs0mg"},{"bike_id":"0a349881-46d8-4ec0-9688-78a828092ccc","system_id":"levelo_inurba_marseille","lat":43.2757,"lon":5.38411,"is_reserved":false,"is_disabled":false,"rental_uris":{"android":"levelo://app?vid=0a349881-46d8-4ec0-9688-78a828092ccc","ios":"levelo://app?vid=0a349881-46d8-4ec0-9688-78a828092ccc"},"vehicle_type_id":"4","last_reported":1734908853,"current_range_meters":38800,"station_id":"ce4bhh92rcd13ifvqfi0","pricing_plan_id":"cebpf4jnsgd1na2vs0mg"},{"bike_id":"dad6db58-f5bc-4da2-b0b4-3d5d1002166b","system_id":"levelo_inurba_marseille","lat":43.32106,"lon":5.36779,"is_reserved":false,"is_disabled":false,"rental_uris":{"android":"levelo://app?vid=dad6db58-f5bc-4da2-b0b4-3d5d1002166b","ios":"levelo://app?vid=dad6db58-f5bc-4da2-b0b4-3d5d1002166b"},"vehicle_type_id":"4","last_reported":1734908853,"current_range_meters":38400,"station_id":"ce4bhrh2rcd13ifvqhug","pricing_plan_id":"cebpf4jnsgd1na2vs0mg"},{"bike_id":"9b379081-9400-478a-a0c1-7fdb9eae259e","system_id":"levelo_inurba_marseille","lat":43.23197,"lon":5.39981,"is_reserved":false,"is_disabled":true,"rental_uris":{"android":"levelo://app?vid=9b379081-9400-478a-a0c1-7fdb9eae259e","ios":"levelo://app?vid=9b379081-9400-478a-a0c1-7fdb9eae259e"},"vehicle_type_id":"4","last_reported":1734908853,"current_range_meters":18800,"station_id":"ce4bhn12rcd13ifvqgqg","pricing_plan_id":"cebpf4jnsgd1na2vs0mg"},{"bike_id":"60770c9f-5288-402e-a2f3-9eefe1cc354e","system_id":"levelo_inurba_marseille","lat":43.29553,"lon":5.37509,"is_reserved":false,"is_disabled":false,"rental_uris":{"android":"levelo://app?vid=60770c9f-5288-402e-a2f3-9eefe1cc354e","ios":"levelo://app?vid=60770c9f-5288-402e-a2f3-9eefe1cc354e"},"vehicle_type_id":"4","last_reported":1734908853,"current_range_meters":18000,"station_id":"ce4bgh92rcd13ifvqb50","pricing_plan_id":"cebpf4jnsgd1na2vs0mg"},{"bike_id":"d3686b5b-a829-479e-a14a-439694ed183e","system_id":"levelo_inurba_marseille","lat":43.2707,"lon":5.42276,"is_reserved":false,"is_disabled":false,"rental_uris":{"android":"levelo://app?vid=d3686b5b-a829-479e-a14a-439694ed183e","ios":"levelo://app?vid=d3686b5b-a829-479e-a14a-439694ed183e"},"vehicle_type_id":"4","last_reported":1734908853,"current_range_meters":27200,"station_id":"ce4bhk92rcd13ifvqgb0","pricing_plan_id":"cebpf4jnsgd1na2vs0mg"},{"bike_id":"4413ecaa-a62d-4d62-acc7-513b6d9b231d","system_id":"levelo_inurba_marseille","lat":43.31276,"lon":5.40166,"is_reserved":false,"is_disabled":false,"rental_uris":{"android":"levelo://app?vid=4413ecaa-a62d-4d62-acc7-513b6d9b231d","ios":"levelo://app?vid=4413ecaa-a62d-4d62-acc7-513b6d9b231d"},"vehicle_type_id":"4","last_reported":1734908853,"current_range_meters":31200,"station_id":"ce4bh092rcd13ifvqd30","pricing_plan_id":"cebpf4jnsgd1na2vs0mg"},{"bike_id":"6507bce1-e9b4-4aad-bbab-13ef4b5297a4","system_id":"levelo_inurba_marseille","lat":43.31729,"lon":5.42395,"is_reserved":false,"is_disabled":false,"rental_uris":{"android":"levelo://app?vid=6507bce1-e9b4-4aad-bbab-13ef4b5297a4","ios":"levelo://app?vid=6507bce1-e9b4-4aad-bbab-13ef4b5297a4"},"vehicle_type_id":"4","last_reported":1734908853,"current_range_meters":38800,"station_id":"ce4bhp92rcd13ifvqhbg","pricing_plan_id":"cebpf4jnsgd1na2vs0mg"},{"bike_id":"44127e4e-8e84-4a38-89f7-8f4efb63f7a5","system_id":"levelo_inurba_marseille","lat":43.31172,"lon":5.3676,"is_reserved":false,"is_disabled":true,"rental_uris":{"android":"levelo://app?vid=44127e4e-8e84-4a38-89f7-8f4efb63f7a5","ios":"levelo://app?vid=44127e4e-8e84-4a38-89f7-8f4efb63f7a5"},"vehicle_type_id":"4","last_reported":1734908853,"current_range_meters":0,"station_id":"","pricing_plan_id":"cebpf4jnsgd1na2vs0mg"},{"bike_id":"eae506a3-9f78-4227-a9ba-e37197863c70","system_id":"levelo_inurba_marseille","lat":43.30918,"lon":5.36849,"is_reserved":false,"is_disabled":false,"rental_uris":{"android":"levelo://app?vid=eae506a3-9f78-4227-a9ba-e37197863c70","ios":"levelo://app?vid=eae506a3-9f78-4227-a9ba-e37197863c70"},"vehicle_type_id":"4","last_reported":1734908853,"current_range_meters":39200,"station_id":"ce4bgn92rcd13ifvqbvg","pricing_plan_id":"cebpf4jnsgd1na2vs0mg"},{"bike_id":"1eef5757-2a74-4727-868d-9821df78eaa2","system_id":"levelo_inurba_marseille","lat":43.25863,"lon":5.399,"is_reserved":false,"is_disabled":false,"rental_uris":{"android":"levelo://app?vid=1eef5757-2a74-4727-868d-9821df78eaa2","ios":"levelo://app?vid=1eef5757-2a74-4727-868d-9821df78eaa2"},"vehicle_type_id":"4","last_reported":1734908853,"current_range_meters":38800,"station_id":"ce4bhl92rcd13ifvqghg","pricing_plan_id":"cebpf4jnsgd1na2vs0mg"},{"bike_id":"ab786567-8bd4-45bd-b8e6-badf38aee9ee","system_id":"levelo_inurba_marseille","lat":43.31358,"lon":5.3671,"is_reserved":false,"is_disabled":false,"rental_uris":{"android":"levelo://app?vid=ab786567-8bd4-45bd-b8e6-badf38aee9ee","ios":"levelo://app?vid=ab786567-8bd4-45bd-b8e6-badf38aee9ee"},"vehicle_type_id":"4","last_reported":1734908853,"current_range_meters":38800,"station_id":"ce4bgr92rcd13ifvqc6g","pricing_plan_id":"cebpf4jnsgd1na2vs0mg"},{"bike_id":"fc89cbac-5c72-48df-b1dd-d331761b39da","system_id":"levelo_inurba_marseille","lat":43.32482,"lon":5.36567,"is_reserved":false,"is_disabled":false,"rental_uris":{"android":"levelo://app?vid=fc89cbac-5c72-48df-b1dd-d331761b39da","ios":"levelo://app?vid=fc89cbac-5c72-48df-b1dd-d331761b39da"},"vehicle_type_id":"4","last_reported":1734908853,"current_range_meters":9200,"station_id":"ce4bhs12rcd13ifvqhvg","pricing_plan_id":"cebpf4jnsgd1na2vs0mg"},{"bike_id":"7d51f556-7ada-4233-9b93-03f8f492aa76","system_id":"levelo_inurba_marseille","lat":43.24546,"lon":5.3952,"is_reserved":false,"is_disabled":true,"rental_uris":{"android":"levelo://app?vid=7d51f556-7ada-4233-9b93-03f8f492aa76","ios":"levelo://app?vid=7d51f556-7ada-4233-9b93-03f8f492aa76"},"vehicle_type_id":"4","last_reported":1734908853,"current_range_meters":16000,"station_id":"ce4bhlp2rcd13ifvqgjg","pricing_plan_id":"cebpf4jnsgd1na2vs0mg"},{"bike_id":"3bdd61d6-e4c3-4336-a2b3-6f388d794652","system_id":"levelo_inurba_marseille","lat":43.27069,"lon":5.42281,"is_reserved":false,"is_disabled":false,"rental_uris":{"android":"levelo://app?vid=3bdd61d6-e4c3-4336-a2b3-6f388d794652","ios":"levelo://app?vid=3bdd61d6-e4c3-4336-a2b3-6f388d794652"},"vehicle_type_id":"4","last_reported":1734908853,"current_range_meters":38400,"station_id":"ce4bhk92rcd13ifvqgb0","pricing_plan_id":"cebpf4jnsgd1na2vs0mg"},{"bike_id":"50ed8d09-e307-4804-8048-b331687ea0e6","system_id":"levelo_inurba_marseille","lat":43.24675,"lon":5.3816,"is_reserved":false,"is_disabled":false,"rental_uris":{"android":"levelo://app?vid=50ed8d09-e307-4804-8048-b331687ea0e6","ios":"levelo://app?vid=50ed8d09-e307-4804-8048-b331687ea0e6"},"vehicle_type_id":"4","last_reported":1734908853,"current_range_meters":26800,"station_id":"ce4bhih2rcd13ifvqfr0","pricing_plan_id":"cebpf4jnsgd1na2vs0mg"},{"bike_id":"7689441e-d9c7-408d-bb49-7889c89dca1d","system_id":"levelo_inurba_marseille","lat":43.29401,"lon":5.42761,"is_reserved":false,"is_disabled":true,"rental_uris":{"android":"levelo://app?vid=7689441e-d9c7-408d-bb49-7889c89dca1d","ios":"levelo://app?vid=7689441e-d9c7-408d-bb49-7889c89dca1d"},"vehicle_type_id":"4","last_reported":1734908853,"current_range_meters":800,"station_id":"","pricing_plan_id":"cebpf4jnsgd1na2vs0mg"},{"bike_id":"109bb1c4-d461-433c-90a4-efe3578ef24b","system_id":"levelo_inurba_marseille","lat":43.29898,"lon":5.43664,"is_reserved":false,"is_disabled":false,"rental_uris":{"android":"levelo://app?vid=109bb1c4-d461-433c-90a4-efe3578ef24b","ios":"levelo://app?vid=109bb1c4-d461-433c-90a4-efe3578ef24b"},"vehicle_type_id":"4","last_reported":1734908853,"current_range_meters":12000,"station_id":"ce4bhpp2rcd13ifvqhfg","pricing_plan_id":"cebpf4jnsgd1na2vs0mg"},{"bike_id":"71365203-264c-4804-af64-6a13e7e9827b","system_id":"levelo_inurba_marseille","lat":43.30314,"lon":5.3689,"is_reserved":false,"is_disabled":false,"rental_uris":{"android":"levelo://app?vid=71365203-264c-4804-af64-6a13e7e9827b","ios":"levelo://app?vid=71365203-264c-4804-af64-6a13e7e9827b"},"vehicle_type_id":"4","last_reported":1734908853,"current_range_meters":30000,"station_id":"ce4bgqh2rcd13ifvqc5g","pricing_plan_id":"cebpf4jnsgd1na2vs0mg"},{"bike_id":"a59b4cb8-90c9-45c9-b1be-98d2502dd8e7","system_id":"levelo_inurba_marseille","lat":43.24682,"lon":5.38147,"is_reserved":false,"is_disabled":false,"rental_uris":{"android":"levelo://app?vid=a59b4cb8-90c9-45c9-b1be-98d2502dd8e7","ios":"levelo://app?vid=a59b4cb8-90c9-45c9-b1be-98d2502dd8e7"},"vehicle_type_id":"4","last_reported":1734908853,"current_range_meters":28400,"station_id":"ce4bhih2rcd13ifvqfr0","pricing_plan_id":"cebpf4jnsgd1na2vs0mg"},{"bike_id":"4c4857d7-70f5-4e5f-9880-b0ffae53456c","system_id":"levelo_inurba_marseille","lat":43.31234,"lon":5.36851,"is_reserved":false,"is_disabled":false,"rental_uris":{"android":"levelo://app?vid=4c4857d7-70f5-4e5f-9880-b0ffae53456c","ios":"levelo://app?vid=4c4857d7-70f5-4e5f-9880-b0ffae53456c"},"vehicle_type_id":"4","last_reported":1734908853,"current_range_meters":32000,"station_id":"ce4bgl92rcd13ifvqbq0","pricing_plan_id":"cebpf4jnsgd1na2vs0mg"},{"bike_id":"59f0f6e8-2688-4e86-9f95-f4d5ae2cc8fe","system_id":"levelo_inurba_marseille","lat":43.30289,"lon":5.39206,"is_reserved":false,"is_disabled":false,"rental_uris":{"android":"levelo://app?vid=59f0f6e8-2688-4e86-9f95-f4d5ae2cc8fe","ios":"levelo://app?vid=59f0f6e8-2688-4e86-9f95-f4d5ae2cc8fe"},"vehicle_type_id":"4","last_reported":1734908853,"current_range_meters":30400,"station_id":"ce4bgkh2rcd13ifvqbk0","pricing_plan_id":"cebpf4jnsgd1na2vs0mg"},{"bike_id":"da429427-7a9a-4c67-9798-8c4930d4e36c","system_id":"levelo_inurba_marseille","lat":43.24081,"lon":5.37755,"is_reserved":false,"is_disabled":false,"rental_uris":{"android":"levelo://app?vid=da429427-7a9a-4c67-9798-8c4930d4e36c","ios":"levelo://app?vid=da429427-7a9a-4c67-9798-8c4930d4e36c"},"vehicle_type_id":"4","last_reported":1734908853,"current_range_meters":34800,"station_id":"ce4bhnp2rcd13ifvqgvg","pricing_plan_id":"cebpf4jnsgd1na2vs0mg"},{"bike_id":"6914fa50-f54b-41b4-9450-fef06ce37731","system_id":"levelo_inurba_marseille","lat":43.30121,"lon":5.39828,"is_reserved":false,"is_disabled":false,"rental_uris":{"android":"levelo://app?vid=6914fa50-f54b-41b4-9450-fef06ce37731","ios":"levelo://app?vid=6914fa50-f54b-41b4-9450-fef06ce37731"},"vehicle_type_id":"4","last_reported":1734908853,"current_range_meters":38000,"station_id":"ce4bh0h2rcd13ifvqd40","pricing_plan_id":"cebpf4jnsgd1na2vs0mg"},{"bike_id":"e49c0908-b584-44dc-a33b-91192daad42a","system_id":"levelo_inurba_marseille","lat":43.29581,"lon":5.36774,"is_reserved":false,"is_disabled":false,"rental_uris":{"android":"levelo://app?vid=e49c0908-b584-44dc-a33b-91192daad42a","ios":"levelo://app?vid=e49c0908-b584-44dc-a33b-91192daad42a"},"vehicle_type_id":"4","last_reported":1734908853,"current_range_meters":31200,"station_id":"ce4bgph2rcd13ifvqc2g","pricing_plan_id":"cebpf4jnsgd1na2vs0mg"},{"bike_id":"84e09380-e07c-4182-a487-97ea66008fd0","system_id":"levelo_inurba_marseille","lat":43.29764,"lon":5.38124,"is_reserved":false,"is_disabled":true,"rental_uris":{"android":"levelo://app?vid=84e09380-e07c-4182-a487-97ea66008fd0","ios":"levelo://app?vid=84e09380-e07c-4182-a487-97ea66008fd0"},"vehicle_type_id":"4","last_reported":1734908853,"current_range_meters":26800,"station_id":"ce4bgip2rcd13ifvqbb0","pricing_plan_id":"cebpf4jnsgd1na2vs0mg"},{"bike_id":"9c7eeb5b-f97e-4fc2-ab19-aaf7531bd9e2","system_id":"levelo_inurba_marseille","lat":43.30152,"lon":5.38091,"is_reserved":false,"is_disabled":false,"rental_uris":{"android":"levelo://app?vid=9c7eeb5b-f97e-4fc2-ab19-aaf7531bd9e2","ios":"levelo://app?vid=9c7eeb5b-f97e-4fc2-ab19-aaf7531bd9e2"},"vehicle_type_id":"4","last_reported":1734908853,"current_range_meters":32800,"station_id":"ce4bgjp2rcd13ifvqbh0","pricing_plan_id":"cebpf4jnsgd1na2vs0mg"},{"bike_id":"a31949fc-c827-4916-bb70-27c79fe0607b","system_id":"levelo_inurba_marseille","lat":43.29718,"lon":5.37678,"is_reserved":false,"is_disabled":false,"rental_uris":{"android":"levelo://app?vid=a31949fc-c827-4916-bb70-27c79fe0607b","ios":"levelo://app?vid=a31949fc-c827-4916-bb70-27c79fe0607b"},"vehicle_type_id":"4","last_reported":1734908853,"current_range_meters":39200,"station_id":"ce4bgkh2rcd13ifvqbl0","pricing_plan_id":"cebpf4jnsgd1na2vs0mg"},{"bike_id":"85d62086-a3d1-49e3-9f87-bf67844518de","system_id":"levelo_inurba_marseille","lat":43.29007,"lon":5.3561,"is_reserved":false,"is_disabled":false,"rental_uris":{"android":"levelo://app?vid=85d62086-a3d1-49e3-9f87-bf67844518de","ios":"levelo://app?vid=85d62086-a3d1-49e3-9f87-bf67844518de"},"vehicle_type_id":"4","last_reported":1734908853,"current_range_meters":38000,"station_id":"ce4bhb92rcd13ifvqen0","pricing_plan_id":"cebpf4jnsgd1na2vs0mg"},{"bike_id":"29df60dd-8a8e-4a7f-a093-280b0e2d987d","system_id":"levelo_inurba_marseille","lat":43.25118,"lon":5.40317,"is_reserved":false,"is_disabled":false,"rental_uris":{"android":"levelo://app?vid=29df60dd-8a8e-4a7f-a093-280b0e2d987d","ios":"levelo://app?vid=29df60dd-8a8e-4a7f-a093-280b0e2d987d"},"vehicle_type_id":"4","last_reported":1734908853,"current_range_meters":20000,"station_id":"ce4bhlh2rcd13ifvqgig","pricing_plan_id":"cebpf4jnsgd1na2vs0mg"},{"bike_id":"ddeb7964-9040-4934-8a96-83dfed229304","system_id":"levelo_inurba_marseille","lat":43.29383,"lon":5.37837,"is_reserved":false,"is_disabled":false,"rental_uris":{"android":"levelo://app?vid=ddeb7964-9040-4934-8a96-83dfed229304","ios":"levelo://app?vid=ddeb7964-9040-4934-8a96-83dfed229304"},"vehicle_type_id":"4","last_reported":1734908853,"current_range_meters":11200,"station_id":"ce4bgjh2rcd13ifvqbf0","pricing_plan_id":"cebpf4jnsgd1na2vs0mg"},{"bike_id":"ded90c74-f6b9-417a-a609-2eb91947766e","system_id":"levelo_inurba_marseille","lat":43.23185,"lon":5.39992,"is_reserved":false,"is_disabled":false,"rental_uris":{"android":"levelo://app?vid=ded90c74-f6b9-417a-a609-2eb91947766e","ios":"levelo://app?vid=ded90c74-f6b9-417a-a609-2eb91947766e"},"vehicle_type_id":"4","last_reported":1734908853,"current_range_meters":30800,"station_id":"ce4bhn12rcd13ifvqgqg","pricing_plan_id":"cebpf4jnsgd1na2vs0mg"},{"bike_id":"b90b88ca-29ac-4ef1-b1c2-b462caae62b3","system_id":"levelo_inurba_marseille","lat":43.28037,"lon":5.36934,"is_reserved":false,"is_disabled":false,"rental_uris":{"android":"levelo://app?vid=b90b88ca-29ac-4ef1-b1c2-b462caae62b3","ios":"levelo://app?vid=b90b88ca-29ac-4ef1-b1c2-b462caae62b3"},"vehicle_type_id":"4","last_reported":1734908853,"current_range_meters":39200,"station_id":"ce4bha12rcd13ifvqef0","pricing_plan_id":"cebpf4jnsgd1na2vs0mg"},{"bike_id":"06c950bf-a847-427e-9be9-4c544219c97d","system_id":"levelo_inurba_marseille","lat":43.30471,"lon":5.37898,"is_reserved":false,"is_disabled":false,"rental_uris":{"android":"levelo://app?vid=06c950bf-a847-427e-9be9-4c544219c97d","ios":"levelo://app?vid=06c950bf-a847-427e-9be9-4c544219c97d"},"vehicle_type_id":"4","last_reported":1734908853,"current_range_meters":35200,"station_id":"ce4bgup2rcd13ifvqcn0","pricing_plan_id":"cebpf4jnsgd1na2vs0mg"},{"bike_id":"54c315b6-ce30-4d23-99a7-a112ef2b7153","system_id":"levelo_inurba_marseille","lat":43.26687,"lon":5.38269,"is_reserved":false,"is_disabled":false,"rental_uris":{"android":"levelo://app?vid=54c315b6-ce30-4d23-99a7-a112ef2b7153","ios":"levelo://app?vid=54c315b6-ce30-4d23-99a7-a112ef2b7153"},"vehicle_type_id":"4","last_reported":1734908853,"current_range_meters":12800,"station_id":"ce4bhg92rcd13ifvqf90","pricing_plan_id":"cebpf4jnsgd1na2vs0mg"},{"bike_id":"7e8975c6-da2c-404e-97b8-cabbfa211dd8","system_id":"levelo_inurba_marseille","lat":43.28941,"lon":5.39618,"is_reserved":false,"is_disabled":true,"rental_uris":{"android":"levelo://app?vid=7e8975c6-da2c-404e-97b8-cabbfa211dd8","ios":"levelo://app?vid=7e8975c6-da2c-404e-97b8-cabbfa211dd8"},"vehicle_type_id":"4","last_reported":1734908853,"current_range_meters":19200,"station_id":"ce4bh3h2rcd13ifvqdn0","pricing_plan_id":"cebpf4jnsgd1na2vs0mg"},{"bike_id":"7774f490-e47f-49c7-81a5-d4ee90122754","system_id":"levelo_inurba_marseille","lat":43.28154,"lon":5.42636,"is_reserved":false,"is_disabled":false,"rental_uris":{"android":"levelo://app?vid=7774f490-e47f-49c7-81a5-d4ee90122754","ios":"levelo://app?vid=7774f490-e47f-49c7-81a5-d4ee90122754"},"vehicle_type_id":"4","last_reported":1734908853,"current_range_meters":20400,"station_id":"ce4bhnh2rcd13ifvqgug","pricing_plan_id":"cebpf4jnsgd1na2vs0mg"},{"bike_id":"fa46f150-8345-4c47-89dc-dd714e8f2794","system_id":"levelo_inurba_marseille","lat":43.29711,"lon":5.36618,"is_reserved":false,"is_disabled":false,"rental_uris":{"android":"levelo://app?vid=fa46f150-8345-4c47-89dc-dd714e8f2794","ios":"levelo://app?vid=fa46f150-8345-4c47-89dc-dd714e8f2794"},"vehicle_type_id":"4","last_reported":1734908853,"current_range_meters":38800,"station_id":"ce4bgn12rcd13ifvqbt0","pricing_plan_id":"cebpf4jnsgd1na2vs0mg"},{"bike_id":"d67e77fe-33d0-4f2c-9baa-01a12ea64716","system_id":"levelo_inurba_marseille","lat":43.25581,"lon":5.3825,"is_reserved":false,"is_disabled":false,"rental_uris":{"android":"levelo://app?vid=d67e77fe-33d0-4f2c-9baa-01a12ea64716","ios":"levelo://app?vid=d67e77fe-33d0-4f2c-9baa-01a12ea64716"},"vehicle_type_id":"4","last_reported":1734908853,"current_range_meters":38800,"station_id":"ce4bhih2rcd13ifvqfs0","pricing_plan_id":"cebpf4jnsgd1na2vs0mg"},{"bike_id":"1f9f0188-3181-4844-ac85-01533254bf9e","system_id":"levelo_inurba_marseille","lat":43.30958,"lon":5.37017,"is_reserved":false,"is_disabled":false,"rental_uris":{"android":"levelo://app?vid=1f9f0188-3181-4844-ac85-01533254bf9e","ios":"levelo://app?vid=1f9f0188-3181-4844-ac85-01533254bf9e"},"vehicle_type_id":"4","last_reported":1734908853,"current_range_meters":36400,"station_id":"","pricing_plan_id":"cebpf4jnsgd1na2vs0mg"},{"bike_id":"3174c70f-58ab-444d-925c-f2800db09601","system_id":"levelo_inurba_marseille","lat":43.29531,"lon":5.37496,"is_reserved":false,"is_disabled":false,"rental_uris":{"android":"levelo://app?vid=3174c70f-58ab-444d-925c-f2800db09601","ios":"levelo://app?vid=3174c70f-58ab-444d-925c-f2800db09601"},"vehicle_type_id":"4","last_reported":1734908853,"current_range_meters":34000,"station_id":"ce4bgkp2rcd13ifvqbmg","pricing_plan_id":"cebpf4jnsgd1na2vs0mg"},{"bike_id":"06e2db5c-9e5a-4b1d-903e-b410b67c016d","system_id":"levelo_inurba_marseille","lat":43.25118,"lon":5.40319,"is_reserved":false,"is_disabled":false,"rental_uris":{"android":"levelo://app?vid=06e2db5c-9e5a-4b1d-903e-b410b67c016d","ios":"levelo://app?vid=06e2db5c-9e5a-4b1d-903e-b410b67c016d"},"vehicle_type_id":"4","last_reported":1734908853,"current_range_meters":37600,"station_id":"ce4bhlh2rcd13ifvqgig","pricing_plan_id":"cebpf4jnsgd1na2vs0mg"},{"bike_id":"ff56034c-dd12-401a-8a88-7523c2f1a1ed","system_id":"levelo_inurba_marseille","lat":43.2606,"lon":5.39394,"is_reserved":false,"is_disabled":false,"rental_uris":{"android":"levelo://app?vid=ff56034c-dd12-401a-8a88-7523c2f1a1ed","ios":"levelo://app?vid=ff56034c-dd12-401a-8a88-7523c2f1a1ed"},"vehicle_type_id":"4","last_reported":1734908853,"current_range_meters":16800,"station_id":"ce4bhh92rcd13ifvqfj0","pricing_plan_id":"cebpf4jnsgd1na2vs0mg"},{"bike_id":"b57b0842-5fbc-444e-99f7-26665524b05d","system_id":"levelo_inurba_marseille","lat":43.30802,"lon":5.43511,"is_reserved":false,"is_disabled":false,"rental_uris":{"android":"levelo://app?vid=b57b0842-5fbc-444e-99f7-26665524b05d","ios":"levelo://app?vid=b57b0842-5fbc-444e-99f7-26665524b05d"},"vehicle_type_id":"4","last_reported":1734908853,"current_range_meters":38800,"station_id":"ce4bhph2rcd13ifvqheg","pricing_plan_id":"cebpf4jnsgd1na2vs0mg"},{"bike_id":"4f9879ce-a8c6-4b3f-b94d-8eb70bb44dd8","system_id":"levelo_inurba_marseille","lat":43.29572,"lon":5.39987,"is_reserved":false,"is_disabled":false,"rental_uris":{"android":"levelo://app?vid=4f9879ce-a8c6-4b3f-b94d-8eb70bb44dd8","ios":"levelo://app?vid=4f9879ce-a8c6-4b3f-b94d-8eb70bb44dd8"},"vehicle_type_id":"4","last_reported":1734908853,"current_range_meters":38800,"station_id":"ce4bh312rcd13ifvqdj0","pricing_plan_id":"cebpf4jnsgd1na2vs0mg"},{"bike_id":"591e56d3-570f-4000-8104-235340497ab2","system_id":"levelo_inurba_marseille","lat":43.28039,"lon":5.36949,"is_reserved":false,"is_disabled":false,"rental_uris":{"android":"levelo://app?vid=591e56d3-570f-4000-8104-235340497ab2","ios":"levelo://app?vid=591e56d3-570f-4000-8104-235340497ab2"},"vehicle_type_id":"4","last_reported":1734908853,"current_range_meters":39200,"station_id":"ce4bha12rcd13ifvqef0","pricing_plan_id":"cebpf4jnsgd1na2vs0mg"},{"bike_id":"311a690d-de8d-4ba1-8471-2750e3315663","system_id":"levelo_inurba_marseille","lat":43.24677,"lon":5.38153,"is_reserved":false,"is_disabled":false,"rental_uris":{"android":"levelo://app?vid=311a690d-de8d-4ba1-8471-2750e3315663","ios":"levelo://app?vid=311a690d-de8d-4ba1-8471-2750e3315663"},"vehicle_type_id":"4","last_reported":1734908853,"current_range_meters":32800,"station_id":"ce4bhih2rcd13ifvqfr0","pricing_plan_id":"cebpf4jnsgd1na2vs0mg"},{"bike_id":"17c8ca44-2370-40ed-a2ff-3881fd21ee02","system_id":"levelo_inurba_marseille","lat":43.23188,"lon":5.39978,"is_reserved":false,"is_disabled":false,"rental_uris":{"android":"levelo://app?vid=17c8ca44-2370-40ed-a2ff-3881fd21ee02","ios":"levelo://app?vid=17c8ca44-2370-40ed-a2ff-3881fd21ee02"},"vehicle_type_id":"4","last_reported":1734908853,"current_range_meters":38800,"station_id":"ce4bhn12rcd13ifvqgqg","pricing_plan_id":"cebpf4jnsgd1na2vs0mg"},{"bike_id":"61f2f69e-7b73-48a1-b346-6a5c1ca568d5","system_id":"levelo_inurba_marseille","lat":43.27969,"lon":5.3875,"is_reserved":false,"is_disabled":false,"rental_uris":{"android":"levelo://app?vid=61f2f69e-7b73-48a1-b346-6a5c1ca568d5","ios":"levelo://app?vid=61f2f69e-7b73-48a1-b346-6a5c1ca568d5"},"vehicle_type_id":"4","last_reported":1734908853,"current_range_meters":24800,"station_id":"ce4bhg12rcd13ifvqf80","pricing_plan_id":"cebpf4jnsgd1na2vs0mg"},{"bike_id":"5c5b1e97-9798-43d9-92c1-016deefe50ec","system_id":"levelo_inurba_marseille","lat":43.25109,"lon":5.40328,"is_reserved":false,"is_disabled":false,"rental_uris":{"android":"levelo://app?vid=5c5b1e97-9798-43d9-92c1-016deefe50ec","ios":"levelo://app?vid=5c5b1e97-9798-43d9-92c1-016deefe50ec"},"vehicle_type_id":"4","last_reported":1734908853,"current_range_meters":14000,"station_id":"ce4bhlh2rcd13ifvqgig","pricing_plan_id":"cebpf4jnsgd1na2vs0mg"},{"bike_id":"39e3c689-23f1-439a-9277-97bd1a4600ec","system_id":"levelo_inurba_marseille","lat":43.32287,"lon":5.38273,"is_reserved":false,"is_disabled":false,"rental_uris":{"android":"levelo://app?vid=39e3c689-23f1-439a-9277-97bd1a4600ec","ios":"levelo://app?vid=39e3c689-23f1-439a-9277-97bd1a4600ec"},"vehicle_type_id":"4","last_reported":1734908853,"current_range_meters":38800,"station_id":"ce4bhr12rcd13ifvqhqg","pricing_plan_id":"cebpf4jnsgd1na2vs0mg"},{"bike_id":"46611bb0-2fc9-4dc9-9dfe-ebe29c8484c7","system_id":"levelo_inurba_marseille","lat":43.32652,"lon":5.40992,"is_reserved":false,"is_disabled":false,"rental_uris":{"android":"levelo://app?vid=46611bb0-2fc9-4dc9-9dfe-ebe29c8484c7","ios":"levelo://app?vid=46611bb0-2fc9-4dc9-9dfe-ebe29c8484c7"},"vehicle_type_id":"4","last_reported":1734908853,"current_range_meters":38400,"station_id":"ce4bhpp2rcd13ifvqhgg","pricing_plan_id":"cebpf4jnsgd1na2vs0mg"},{"bike_id":"f3df47b6-fb4d-4206-858d-b8a9f0ae8440","system_id":"levelo_inurba_marseille","lat":43.30183,"lon":5.36618,"is_reserved":false,"is_disabled":false,"rental_uris":{"android":"levelo://app?vid=f3df47b6-fb4d-4206-858d-b8a9f0ae8440","ios":"levelo://app?vid=f3df47b6-fb4d-4206-858d-b8a9f0ae8440"},"vehicle_type_id":"4","last_reported":1734908853,"current_range_meters":39200,"station_id":"ce4bgrh2rcd13ifvqc8g","pricing_plan_id":"cebpf4jnsgd1na2vs0mg"},{"bike_id":"b9a2a5db-4e4f-4472-9221-981416be1b6c","system_id":"levelo_inurba_marseille","lat":43.30128,"lon":5.39882,"is_reserved":false,"is_disabled":true,"rental_uris":{"android":"levelo://app?vid=b9a2a5db-4e4f-4472-9221-981416be1b6c","ios":"levelo://app?vid=b9a2a5db-4e4f-4472-9221-981416be1b6c"},"vehicle_type_id":"4","last_reported":1734908853,"current_range_meters":32800,"station_id":"ce4bh0h2rcd13ifvqd40","pricing_plan_id":"cebpf4jnsgd1na2vs0mg"},{"bike_id":"68db534e-0067-497a-971b-c0ac21bdd722","system_id":"levelo_inurba_marseille","lat":43.26194,"lon":5.37917,"is_reserved":false,"is_disabled":false,"rental_uris":{"android":"levelo://app?vid=68db534e-0067-497a-971b-c0ac21bdd722","ios":"levelo://app?vid=68db534e-0067-497a-971b-c0ac21bdd722"},"vehicle_type_id":"4","last_reported":1734908853,"current_range_meters":38800,"station_id":"ce4bhjp2rcd13ifvqg90","pricing_plan_id":"cebpf4jnsgd1na2vs0mg"},{"bike_id":"95d0d689-1ad7-43fd-b4bd-8c5788def343","system_id":"levelo_inurba_marseille","lat":43.29369,"lon":5.37852,"is_reserved":false,"is_disabled":false,"rental_uris":{"android":"levelo://app?vid=95d0d689-1ad7-43fd-b4bd-8c5788def343","ios":"levelo://app?vid=95d0d689-1ad7-43fd-b4bd-8c5788def343"},"vehicle_type_id":"4","last_reported":1734908853,"current_range_meters":38800,"station_id":"ce4bgjh2rcd13ifvqbf0","pricing_plan_id":"cebpf4jnsgd1na2vs0mg"},{"bike_id":"0c5de0f9-0c1b-4d60-8fb2-53c22faee0bb","system_id":"levelo_inurba_marseille","lat":43.28473,"lon":5.38433,"is_reserved":false,"is_disabled":true,"rental_uris":{"android":"levelo://app?vid=0c5de0f9-0c1b-4d60-8fb2-53c22faee0bb","ios":"levelo://app?vid=0c5de0f9-0c1b-4d60-8fb2-53c22faee0bb"},"vehicle_type_id":"4","last_reported":1734908853,"current_range_meters":10800,"station_id":"ce4bh512rcd13ifvqe3g","pricing_plan_id":"cebpf4jnsgd1na2vs0mg"},{"bike_id":"6ecdd0cc-c92e-450b-b9f4-dc4b3c7a7060","system_id":"levelo_inurba_marseille","lat":43.30169,"lon":5.38087,"is_reserved":false,"is_disabled":false,"rental_uris":{"android":"levelo://app?vid=6ecdd0cc-c92e-450b-b9f4-dc4b3c7a7060","ios":"levelo://app?vid=6ecdd0cc-c92e-450b-b9f4-dc4b3c7a7060"},"vehicle_type_id":"4","last_reported":1734908853,"current_range_meters":38000,"station_id":"ce4bgjp2rcd13ifvqbh0","pricing_plan_id":"cebpf4jnsgd1na2vs0mg"},{"bike_id":"18bc712f-05f8-4bfe-a81a-9b0f3911a5b1","system_id":"levelo_inurba_marseille","lat":43.27567,"lon":5.38421,"is_reserved":false,"is_disabled":false,"rental_uris":{"android":"levelo://app?vid=18bc712f-05f8-4bfe-a81a-9b0f3911a5b1","ios":"levelo://app?vid=18bc712f-05f8-4bfe-a81a-9b0f3911a5b1"},"vehicle_type_id":"4","last_reported":1734908853,"current_range_meters":38800,"station_id":"ce4bhh92rcd13ifvqfi0","pricing_plan_id":"cebpf4jnsgd1na2vs0mg"},{"bike_id":"ea17cfdb-c345-440f-8386-310685aac5f3","system_id":"levelo_inurba_marseille","lat":43.28471,"lon":5.35877,"is_reserved":false,"is_disabled":false,"rental_uris":{"android":"levelo://app?vid=ea17cfdb-c345-440f-8386-310685aac5f3","ios":"levelo://app?vid=ea17cfdb-c345-440f-8386-310685aac5f3"},"vehicle_type_id":"4","last_reported":1734908853,"current_range_meters":26800,"station_id":"ce4bhah2rcd13ifvqei0","pricing_plan_id":"cebpf4jnsgd1na2vs0mg"},{"bike_id":"2d995820-d040-480b-a897-bf9d5f03891e","system_id":"levelo_inurba_marseille","lat":43.29377,"lon":5.37857,"is_reserved":false,"is_disabled":true,"rental_uris":{"android":"levelo://app?vid=2d995820-d040-480b-a897-bf9d5f03891e","ios":"levelo://app?vid=2d995820-d040-480b-a897-bf9d5f03891e"},"vehicle_type_id":"4","last_reported":1734908853,"current_range_meters":33200,"station_id":"ce4bgjh2rcd13ifvqbf0","pricing_plan_id":"cebpf4jnsgd1na2vs0mg"},{"bike_id":"343bdba5-56cf-4dfd-9495-0464c409cdad","system_id":"levelo_inurba_marseille","lat":43.24071,"lon":5.37745,"is_reserved":false,"is_disabled":false,"rental_uris":{"android":"levelo://app?vid=343bdba5-56cf-4dfd-9495-0464c409cdad","ios":"levelo://app?vid=343bdba5-56cf-4dfd-9495-0464c409cdad"},"vehicle_type_id":"4","last_reported":1734908853,"current_range_meters":31200,"station_id":"ce4bhnp2rcd13ifvqgvg","pricing_plan_id":"cebpf4jnsgd1na2vs0mg"},{"bike_id":"13b86537-f90d-4e73-8d81-e42239efbc6c","system_id":"levelo_inurba_marseille","lat":43.29716,"lon":5.37695,"is_reserved":false,"is_disabled":false,"rental_uris":{"android":"levelo://app?vid=13b86537-f90d-4e73-8d81-e42239efbc6c","ios":"levelo://app?vid=13b86537-f90d-4e73-8d81-e42239efbc6c"},"vehicle_type_id":"4","last_reported":1734908853,"current_range_meters":17200,"station_id":"ce4bgkh2rcd13ifvqbl0","pricing_plan_id":"cebpf4jnsgd1na2vs0mg"},{"bike_id":"b59444f2-fe48-4bbc-b787-87f5eb72124a","system_id":"levelo_inurba_marseille","lat":43.27486,"lon":5.40919,"is_reserved":false,"is_disabled":false,"rental_uris":{"android":"levelo://app?vid=b59444f2-fe48-4bbc-b787-87f5eb72124a","ios":"levelo://app?vid=b59444f2-fe48-4bbc-b787-87f5eb72124a"},"vehicle_type_id":"4","last_reported":1734908853,"current_range_meters":24400,"station_id":"","pricing_plan_id":"cebpf4jnsgd1na2vs0mg"},{"bike_id":"aa7ac496-9c7e-42a6-bf7b-8944e5ebf97a","system_id":"levelo_inurba_marseille","lat":43.302098,"lon":5.39459,"is_reserved":false,"is_disabled":false,"rental_uris":{"android":"levelo://app?vid=aa7ac496-9c7e-42a6-bf7b-8944e5ebf97a","ios":"levelo://app?vid=aa7ac496-9c7e-42a6-bf7b-8944e5ebf97a"},"vehicle_type_id":"4","last_reported":1734908853,"current_range_meters":28400,"station_id":"ce4bh0p2rcd13ifvqd70","pricing_plan_id":"cebpf4jnsgd1na2vs0mg"},{"bike_id":"dfcdb34a-6d91-4bd5-83b3-df14955564a1","system_id":"levelo_inurba_marseille","lat":43.27849,"lon":5.39198,"is_reserved":false,"is_disabled":true,"rental_uris":{"android":"levelo://app?vid=dfcdb34a-6d91-4bd5-83b3-df14955564a1","ios":"levelo://app?vid=dfcdb34a-6d91-4bd5-83b3-df14955564a1"},"vehicle_type_id":"4","last_reported":1734908853,"current_range_meters":38800,"station_id":"ce4bhjp2rcd13ifvqga0","pricing_plan_id":"cebpf4jnsgd1na2vs0mg"},{"bike_id":"4f188835-24c2-4591-b181-38380001a4af","system_id":"levelo_inurba_marseille","lat":43.2467,"lon":5.38146,"is_reserved":false,"is_disabled":false,"rental_uris":{"android":"levelo://app?vid=4f188835-24c2-4591-b181-38380001a4af","ios":"levelo://app?vid=4f188835-24c2-4591-b181-38380001a4af"},"vehicle_type_id":"4","last_reported":1734908853,"current_range_meters":38800,"station_id":"ce4bhih2rcd13ifvqfr0","pricing_plan_id":"cebpf4jnsgd1na2vs0mg"},{"bike_id":"febaeda0-8a66-4946-b7c1-56104d3c578a","system_id":"levelo_inurba_marseille","lat":43.30809,"lon":5.38148,"is_reserved":false,"is_disabled":true,"rental_uris":{"android":"levelo://app?vid=febaeda0-8a66-4946-b7c1-56104d3c578a","ios":"levelo://app?vid=febaeda0-8a66-4946-b7c1-56104d3c578a"},"vehicle_type_id":"4","last_reported":1734908853,"current_range_meters":28000,"station_id":"ce4bgt12rcd13ifvqce0","pricing_plan_id":"cebpf4jnsgd1na2vs0mg"},{"bike_id":"7fd6c627-d0f3-4029-b690-a65e960a06d3","system_id":"levelo_inurba_marseille","lat":43.31539,"lon":5.38017,"is_reserved":false,"is_disabled":false,"rental_uris":{"android":"levelo://app?vid=7fd6c627-d0f3-4029-b690-a65e960a06d3","ios":"levelo://app?vid=7fd6c627-d0f3-4029-b690-a65e960a06d3"},"vehicle_type_id":"4","last_reported":1734908853,"current_range_meters":38800,"station_id":"ce4bhsp2rcd13ifvqi50","pricing_plan_id":"cebpf4jnsgd1na2vs0mg"},{"bike_id":"a2555a23-cd88-48a7-beec-818e94b1f4ae","system_id":"levelo_inurba_marseille","lat":43.26558,"lon":5.39036,"is_reserved":false,"is_disabled":false,"rental_uris":{"android":"levelo://app?vid=a2555a23-cd88-48a7-beec-818e94b1f4ae","ios":"levelo://app?vid=a2555a23-cd88-48a7-beec-818e94b1f4ae"},"vehicle_type_id":"4","last_reported":1734908853,"current_range_meters":18000,"station_id":"ce4bhe12rcd13ifvqf30","pricing_plan_id":"cebpf4jnsgd1na2vs0mg"},{"bike_id":"60be88e0-aac5-4d1f-ba4c-6897dd4ea8d3","system_id":"levelo_inurba_marseille","lat":43.28852,"lon":5.35884,"is_reserved":false,"is_disabled":false,"rental_uris":{"android":"levelo://app?vid=60be88e0-aac5-4d1f-ba4c-6897dd4ea8d3","ios":"levelo://app?vid=60be88e0-aac5-4d1f-ba4c-6897dd4ea8d3"},"vehicle_type_id":"4","last_reported":1734908853,"current_range_meters":30400,"station_id":"ce4bhb12rcd13ifvqem0","pricing_plan_id":"cebpf4jnsgd1na2vs0mg"},{"bike_id":"49580bca-7fdd-4980-ba9d-b58e16ff3054","system_id":"levelo_inurba_marseille","lat":43.29848,"lon":5.36275,"is_reserved":false,"is_disabled":false,"rental_uris":{"android":"levelo://app?vid=49580bca-7fdd-4980-ba9d-b58e16ff3054","ios":"levelo://app?vid=49580bca-7fdd-4980-ba9d-b58e16ff3054"},"vehicle_type_id":"4","last_reported":1734908853,"current_range_meters":30400,"station_id":"ce4bgpp2rcd13ifvqc3g","pricing_plan_id":"cebpf4jnsgd1na2vs0mg"},{"bike_id":"ae639589-05b7-463d-a6fc-6e2911780d44","system_id":"levelo_inurba_marseille","lat":43.31278,"lon":5.40165,"is_reserved":false,"is_disabled":false,"rental_uris":{"android":"levelo://app?vid=ae639589-05b7-463d-a6fc-6e2911780d44","ios":"levelo://app?vid=ae639589-05b7-463d-a6fc-6e2911780d44"},"vehicle_type_id":"4","last_reported":1734908853,"current_range_meters":32000,"station_id":"ce4bh092rcd13ifvqd30","pricing_plan_id":"cebpf4jnsgd1na2vs0mg"},{"bike_id":"24a28824-23fe-4a40-97b0-c8ce73315934","system_id":"levelo_inurba_marseille","lat":43.25822,"lon":5.39432,"is_reserved":false,"is_disabled":false,"rental_uris":{"android":"levelo://app?vid=24a28824-23fe-4a40-97b0-c8ce73315934","ios":"levelo://app?vid=24a28824-23fe-4a40-97b0-c8ce73315934"},"vehicle_type_id":"4","last_reported":1734908853,"current_range_meters":27200,"station_id":"ce4bhip2rcd13ifvqft0","pricing_plan_id":"cebpf4jnsgd1na2vs0mg"},{"bike_id":"ef79c047-6c72-4916-ad9a-fd9a3dd38f21","system_id":"levelo_inurba_marseille","lat":43.27498,"lon":5.42453,"is_reserved":false,"is_disabled":false,"rental_uris":{"android":"levelo://app?vid=ef79c047-6c72-4916-ad9a-fd9a3dd38f21","ios":"levelo://app?vid=ef79c047-6c72-4916-ad9a-fd9a3dd38f21"},"vehicle_type_id":"4","last_reported":1734908853,"current_range_meters":38800,"station_id":"ce4bhn92rcd13ifvqgrg","pricing_plan_id":"cebpf4jnsgd1na2vs0mg"},{"bike_id":"a8241d4a-6511-4c13-8389-e037a362bfcf","system_id":"levelo_inurba_marseille","lat":43.28465,"lon":5.35887,"is_reserved":false,"is_disabled":true,"rental_uris":{"android":"levelo://app?vid=a8241d4a-6511-4c13-8389-e037a362bfcf","ios":"levelo://app?vid=a8241d4a-6511-4c13-8389-e037a362bfcf"},"vehicle_type_id":"4","last_reported":1734908853,"current_range_meters":36400,"station_id":"ce4bhah2rcd13ifvqei0","pricing_plan_id":"cebpf4jnsgd1na2vs0mg"},{"bike_id":"69225cf1-9dc6-4294-9c9e-592b4658a09f","system_id":"levelo_inurba_marseille","lat":43.31277,"lon":5.40157,"is_reserved":false,"is_disabled":false,"rental_uris":{"android":"levelo://app?vid=69225cf1-9dc6-4294-9c9e-592b4658a09f","ios":"levelo://app?vid=69225cf1-9dc6-4294-9c9e-592b4658a09f"},"vehicle_type_id":"4","last_reported":1734908853,"current_range_meters":31200,"station_id":"ce4bh092rcd13ifvqd30","pricing_plan_id":"cebpf4jnsgd1na2vs0mg"},{"bike_id":"468dad8d-87ff-488a-ad62-d401d4e8c5db","system_id":"levelo_inurba_marseille","lat":43.28706,"lon":5.39987,"is_reserved":false,"is_disabled":false,"rental_uris":{"android":"levelo://app?vid=468dad8d-87ff-488a-ad62-d401d4e8c5db","ios":"levelo://app?vid=468dad8d-87ff-488a-ad62-d401d4e8c5db"},"vehicle_type_id":"4","last_reported":1734908853,"current_range_meters":30800,"station_id":"ce4bho92rcd13ifvqh3g","pricing_plan_id":"cebpf4jnsgd1na2vs0mg"},{"bike_id":"537ef1bf-3a78-45af-b334-3a2c52a599a8","system_id":"levelo_inurba_marseille","lat":43.34139,"lon":5.409,"is_reserved":false,"is_disabled":false,"rental_uris":{"android":"levelo://app?vid=537ef1bf-3a78-45af-b334-3a2c52a599a8","ios":"levelo://app?vid=537ef1bf-3a78-45af-b334-3a2c52a599a8"},"vehicle_type_id":"4","last_reported":1734908853,"current_range_meters":38400,"station_id":"ce4bhqh2rcd13ifvqhlg","pricing_plan_id":"cebpf4jnsgd1na2vs0mg"},{"bike_id":"b3961213-ac8d-4e61-b1b3-c5d9fdca1a75","system_id":"levelo_inurba_marseille","lat":43.24802,"lon":5.37456,"is_reserved":false,"is_disabled":false,"rental_uris":{"android":"levelo://app?vid=b3961213-ac8d-4e61-b1b3-c5d9fdca1a75","ios":"levelo://app?vid=b3961213-ac8d-4e61-b1b3-c5d9fdca1a75"},"vehicle_type_id":"4","last_reported":1734908853,"current_range_meters":4800,"station_id":"ce4bhgh2rcd13ifvqfb0","pricing_plan_id":"cebpf4jnsgd1na2vs0mg"},{"bike_id":"7cfa7914-a6fa-49c8-b1ec-dbe48b7366ea","system_id":"levelo_inurba_marseille","lat":43.24386,"lon":5.3706,"is_reserved":false,"is_disabled":false,"rental_uris":{"android":"levelo://app?vid=7cfa7914-a6fa-49c8-b1ec-dbe48b7366ea","ios":"levelo://app?vid=7cfa7914-a6fa-49c8-b1ec-dbe48b7366ea"},"vehicle_type_id":"4","last_reported":1734908853,"current_range_meters":38800,"station_id":"ce4bhhh2rcd13ifvqfk0","pricing_plan_id":"cebpf4jnsgd1na2vs0mg"},{"bike_id":"90f19238-5c8a-460b-96a7-7fc5e8fe2240","system_id":"levelo_inurba_marseille","lat":43.29309,"lon":5.37451,"is_reserved":false,"is_disabled":true,"rental_uris":{"android":"levelo://app?vid=90f19238-5c8a-460b-96a7-7fc5e8fe2240","ios":"levelo://app?vid=90f19238-5c8a-460b-96a7-7fc5e8fe2240"},"vehicle_type_id":"4","last_reported":1734908853,"current_range_meters":38800,"station_id":"ce4bgi12rcd13ifvqb70","pricing_plan_id":"cebpf4jnsgd1na2vs0mg"},{"bike_id":"b07e0204-2c57-49d1-a1f7-320de8610e25","system_id":"levelo_inurba_marseille","lat":43.29402,"lon":5.37344,"is_reserved":false,"is_disabled":false,"rental_uris":{"android":"levelo://app?vid=b07e0204-2c57-49d1-a1f7-320de8610e25","ios":"levelo://app?vid=b07e0204-2c57-49d1-a1f7-320de8610e25"},"vehicle_type_id":"4","last_reported":1734908853,"current_range_meters":26800,"station_id":"","pricing_plan_id":"cebpf4jnsgd1na2vs0mg"},{"bike_id":"ea004471-b609-40bf-876b-0bd08916cde3","system_id":"levelo_inurba_marseille","lat":43.32653,"lon":5.40992,"is_reserved":false,"is_disabled":false,"rental_uris":{"android":"levelo://app?vid=ea004471-b609-40bf-876b-0bd08916cde3","ios":"levelo://app?vid=ea004471-b609-40bf-876b-0bd08916cde3"},"vehicle_type_id":"4","last_reported":1734908853,"current_range_meters":24400,"station_id":"ce4bhpp2rcd13ifvqhgg","pricing_plan_id":"cebpf4jnsgd1na2vs0mg"},{"bike_id":"f97162d8-ac35-4106-9dab-07f272349842","system_id":"levelo_inurba_marseille","lat":43.25807,"lon":5.39415,"is_reserved":false,"is_disabled":false,"rental_uris":{"android":"levelo://app?vid=f97162d8-ac35-4106-9dab-07f272349842","ios":"levelo://app?vid=f97162d8-ac35-4106-9dab-07f272349842"},"vehicle_type_id":"4","last_reported":1734908853,"current_range_meters":13600,"station_id":"ce4bhip2rcd13ifvqft0","pricing_plan_id":"cebpf4jnsgd1na2vs0mg"},{"bike_id":"b68c7dbc-0b97-413f-8a04-10a3f94bc312","system_id":"levelo_inurba_marseille","lat":43.29007,"lon":5.35614,"is_reserved":false,"is_disabled":false,"rental_uris":{"android":"levelo://app?vid=b68c7dbc-0b97-413f-8a04-10a3f94bc312","ios":"levelo://app?vid=b68c7dbc-0b97-413f-8a04-10a3f94bc312"},"vehicle_type_id":"4","last_reported":1734908853,"current_range_meters":38000,"station_id":"ce4bhb92rcd13ifvqen0","pricing_plan_id":"cebpf4jnsgd1na2vs0mg"},{"bike_id":"7befd885-7fc8-4dc1-b970-da31c9e46ce6","system_id":"levelo_inurba_marseille","lat":43.26014,"lon":5.3762,"is_reserved":false,"is_disabled":false,"rental_uris":{"android":"levelo://app?vid=7befd885-7fc8-4dc1-b970-da31c9e46ce6","ios":"levelo://app?vid=7befd885-7fc8-4dc1-b970-da31c9e46ce6"},"vehicle_type_id":"4","last_reported":1734908853,"current_range_meters":35600,"station_id":"","pricing_plan_id":"cebpf4jnsgd1na2vs0mg"},{"bike_id":"0ba6d847-b04d-4662-8e74-a4fd8409ab96","system_id":"levelo_inurba_marseille","lat":43.2679,"lon":5.39424,"is_reserved":false,"is_disabled":true,"rental_uris":{"android":"levelo://app?vid=0ba6d847-b04d-4662-8e74-a4fd8409ab96","ios":"levelo://app?vid=0ba6d847-b04d-4662-8e74-a4fd8409ab96"},"vehicle_type_id":"4","last_reported":1734908853,"current_range_meters":20400,"station_id":"ce4bhh12rcd13ifvqfg0","pricing_plan_id":"cebpf4jnsgd1na2vs0mg"},{"bike_id":"f0bcbb45-555d-4c5b-8534-084b0fafc4e9","system_id":"levelo_inurba_marseille","lat":43.29176,"lon":5.37146,"is_reserved":false,"is_disabled":true,"rental_uris":{"android":"levelo://app?vid=f0bcbb45-555d-4c5b-8534-084b0fafc4e9","ios":"levelo://app?vid=f0bcbb45-555d-4c5b-8534-084b0fafc4e9"},"vehicle_type_id":"4","last_reported":1734908853,"current_range_meters":33600,"station_id":"ce4bha92rcd13ifvqeh0","pricing_plan_id":"cebpf4jnsgd1na2vs0mg"},{"bike_id":"a6cdc187-c8a8-46bd-94fc-c241052810e0","system_id":"levelo_inurba_marseille","lat":43.2798,"lon":5.38722,"is_reserved":false,"is_disabled":false,"rental_uris":{"android":"levelo://app?vid=a6cdc187-c8a8-46bd-94fc-c241052810e0","ios":"levelo://app?vid=a6cdc187-c8a8-46bd-94fc-c241052810e0"},"vehicle_type_id":"4","last_reported":1734908853,"current_range_meters":28800,"station_id":"ce4bhg12rcd13ifvqf80","pricing_plan_id":"cebpf4jnsgd1na2vs0mg"},{"bike_id":"e9c70501-99bc-4134-881a-2ba6ad85d8ca","system_id":"levelo_inurba_marseille","lat":43.299864,"lon":5.384804,"is_reserved":false,"is_disabled":false,"rental_uris":{"android":"levelo://app?vid=e9c70501-99bc-4134-881a-2ba6ad85d8ca","ios":"levelo://app?vid=e9c70501-99bc-4134-881a-2ba6ad85d8ca"},"vehicle_type_id":"4","last_reported":1734908853,"current_range_meters":38800,"station_id":"ce4bgj92rcd13ifvqbd0","pricing_plan_id":"cebpf4jnsgd1na2vs0mg"},{"bike_id":"9cfd9dd6-a72f-421c-b0dd-8175feb6d9b4","system_id":"levelo_inurba_marseille","lat":43.29697,"lon":5.36626,"is_reserved":false,"is_disabled":false,"rental_uris":{"android":"levelo://app?vid=9cfd9dd6-a72f-421c-b0dd-8175feb6d9b4","ios":"levelo://app?vid=9cfd9dd6-a72f-421c-b0dd-8175feb6d9b4"},"vehicle_type_id":"4","last_reported":1734908853,"current_range_meters":28400,"station_id":"ce4bgn12rcd13ifvqbt0","pricing_plan_id":"cebpf4jnsgd1na2vs0mg"},{"bike_id":"15b3aa09-eb06-4691-b6fd-97b51a4d940b","system_id":"levelo_inurba_marseille","lat":43.31224,"lon":5.36846,"is_reserved":false,"is_disabled":false,"rental_uris":{"android":"levelo://app?vid=15b3aa09-eb06-4691-b6fd-97b51a4d940b","ios":"levelo://app?vid=15b3aa09-eb06-4691-b6fd-97b51a4d940b"},"vehicle_type_id":"4","last_reported":1734908853,"current_range_meters":32400,"station_id":"ce4bgl92rcd13ifvqbq0","pricing_plan_id":"cebpf4jnsgd1na2vs0mg"},{"bike_id":"725f2ba4-42ee-480b-a31f-097189b1c2cf","system_id":"levelo_inurba_marseille","lat":43.29189,"lon":5.3578,"is_reserved":false,"is_disabled":true,"rental_uris":{"android":"levelo://app?vid=725f2ba4-42ee-480b-a31f-097189b1c2cf","ios":"levelo://app?vid=725f2ba4-42ee-480b-a31f-097189b1c2cf"},"vehicle_type_id":"4","last_reported":1734908853,"current_range_meters":36800,"station_id":"ce4bhb12rcd13ifvqel0","pricing_plan_id":"cebpf4jnsgd1na2vs0mg"},{"bike_id":"2c8d577f-234b-4ac7-8ee8-ac2ad27ce86d","system_id":"levelo_inurba_marseille","lat":43.26966,"lon":5.38656,"is_reserved":false,"is_disabled":true,"rental_uris":{"android":"levelo://app?vid=2c8d577f-234b-4ac7-8ee8-ac2ad27ce86d","ios":"levelo://app?vid=2c8d577f-234b-4ac7-8ee8-ac2ad27ce86d"},"vehicle_type_id":"4","last_reported":1734908853,"current_range_meters":16000,"station_id":"ce4bhh92rcd13ifvqfh0","pricing_plan_id":"cebpf4jnsgd1na2vs0mg"},{"bike_id":"632f39f1-b208-45b6-a6a8-856815c8e390","system_id":"levelo_inurba_marseille","lat":43.29622,"lon":5.37714,"is_reserved":false,"is_disabled":false,"rental_uris":{"android":"levelo://app?vid=632f39f1-b208-45b6-a6a8-856815c8e390","ios":"levelo://app?vid=632f39f1-b208-45b6-a6a8-856815c8e390"},"vehicle_type_id":"4","last_reported":1734908853,"current_range_meters":35600,"station_id":"ce4bgi92rcd13ifvqb90","pricing_plan_id":"cebpf4jnsgd1na2vs0mg"},{"bike_id":"d0d918a4-8ae9-4abd-b34c-444575b56e5b","system_id":"levelo_inurba_marseille","lat":43.29279,"lon":5.36847,"is_reserved":false,"is_disabled":false,"rental_uris":{"android":"levelo://app?vid=d0d918a4-8ae9-4abd-b34c-444575b56e5b","ios":"levelo://app?vid=d0d918a4-8ae9-4abd-b34c-444575b56e5b"},"vehicle_type_id":"4","last_reported":1734908853,"current_range_meters":26800,"station_id":"ce4bhbp2rcd13ifvqesg","pricing_plan_id":"cebpf4jnsgd1na2vs0mg"},{"bike_id":"c4ce525d-967d-4663-838d-692388f3fdc6","system_id":"levelo_inurba_marseille","lat":43.29275,"lon":5.40126,"is_reserved":false,"is_disabled":true,"rental_uris":{"android":"levelo://app?vid=c4ce525d-967d-4663-838d-692388f3fdc6","ios":"levelo://app?vid=c4ce525d-967d-4663-838d-692388f3fdc6"},"vehicle_type_id":"4","last_reported":1734908853,"current_range_meters":0,"station_id":"ce4bh312rcd13ifvqdk0","pricing_plan_id":"cebpf4jnsgd1na2vs0mg"},{"bike_id":"4094ac40-fe97-4483-91f4-bc4b6a97b4f3","system_id":"levelo_inurba_marseille","lat":43.25833,"lon":5.39415,"is_reserved":false,"is_disabled":true,"rental_uris":{"android":"levelo://app?vid=4094ac40-fe97-4483-91f4-bc4b6a97b4f3","ios":"levelo://app?vid=4094ac40-fe97-4483-91f4-bc4b6a97b4f3"},"vehicle_type_id":"4","last_reported":1734908853,"current_range_meters":0,"station_id":"ce4bhip2rcd13ifvqft0","pricing_plan_id":"cebpf4jnsgd1na2vs0mg"},{"bike_id":"ed495aba-f9b6-4311-b39c-649f2202b23f","system_id":"levelo_inurba_marseille","lat":43.27577,"lon":5.38415,"is_reserved":false,"is_disabled":false,"rental_uris":{"android":"levelo://app?vid=ed495aba-f9b6-4311-b39c-649f2202b23f","ios":"levelo://app?vid=ed495aba-f9b6-4311-b39c-649f2202b23f"},"vehicle_type_id":"4","last_reported":1734908853,"current_range_meters":38800,"station_id":"ce4bhh92rcd13ifvqfi0","pricing_plan_id":"cebpf4jnsgd1na2vs0mg"},{"bike_id":"f953c87c-4ea7-4e78-9490-68e955a0946d","system_id":"levelo_inurba_marseille","lat":43.25488,"lon":5.37647,"is_reserved":false,"is_disabled":true,"rental_uris":{"android":"levelo://app?vid=f953c87c-4ea7-4e78-9490-68e955a0946d","ios":"levelo://app?vid=f953c87c-4ea7-4e78-9490-68e955a0946d"},"vehicle_type_id":"4","last_reported":1734908853,"current_range_meters":11200,"station_id":"ce4bhh12rcd13ifvqff0","pricing_plan_id":"cebpf4jnsgd1na2vs0mg"},{"bike_id":"a68a6aee-0a1a-4734-8f31-960ad75a1f0a","system_id":"levelo_inurba_marseille","lat":43.31175,"lon":5.38715,"is_reserved":false,"is_disabled":false,"rental_uris":{"android":"levelo://app?vid=a68a6aee-0a1a-4734-8f31-960ad75a1f0a","ios":"levelo://app?vid=a68a6aee-0a1a-4734-8f31-960ad75a1f0a"},"vehicle_type_id":"4","last_reported":1734908853,"current_range_meters":20800,"station_id":"ce4bgv12rcd13ifvqcp0","pricing_plan_id":"cebpf4jnsgd1na2vs0mg"},{"bike_id":"6b186745-2091-424b-a646-ec954a3aff8a","system_id":"levelo_inurba_marseille","lat":43.24674,"lon":5.38151,"is_reserved":false,"is_disabled":false,"rental_uris":{"android":"levelo://app?vid=6b186745-2091-424b-a646-ec954a3aff8a","ios":"levelo://app?vid=6b186745-2091-424b-a646-ec954a3aff8a"},"vehicle_type_id":"4","last_reported":1734908853,"current_range_meters":20800,"station_id":"ce4bhih2rcd13ifvqfr0","pricing_plan_id":"cebpf4jnsgd1na2vs0mg"},{"bike_id":"c91da701-8020-4c63-924e-c2588244a161","system_id":"levelo_inurba_marseille","lat":43.31177,"lon":5.38714,"is_reserved":false,"is_disabled":true,"rental_uris":{"android":"levelo://app?vid=c91da701-8020-4c63-924e-c2588244a161","ios":"levelo://app?vid=c91da701-8020-4c63-924e-c2588244a161"},"vehicle_type_id":"4","last_reported":1734908853,"current_range_meters":0,"station_id":"ce4bgv12rcd13ifvqcp0","pricing_plan_id":"cebpf4jnsgd1na2vs0mg"},{"bike_id":"b73b3cc8-26fa-4032-8e99-f74b6ff40c2a","system_id":"levelo_inurba_marseille","lat":43.27022,"lon":5.40197,"is_reserved":false,"is_disabled":false,"rental_uris":{"android":"levelo://app?vid=b73b3cc8-26fa-4032-8e99-f74b6ff40c2a","ios":"levelo://app?vid=b73b3cc8-26fa-4032-8e99-f74b6ff40c2a"},"vehicle_type_id":"4","last_reported":1734908853,"current_range_meters":10800,"station_id":"","pricing_plan_id":"cebpf4jnsgd1na2vs0mg"},{"bike_id":"0fa4fd6a-c920-470e-9628-342bc95af557","system_id":"levelo_inurba_marseille","lat":43.24666,"lon":5.38178,"is_reserved":false,"is_disabled":false,"rental_uris":{"android":"levelo://app?vid=0fa4fd6a-c920-470e-9628-342bc95af557","ios":"levelo://app?vid=0fa4fd6a-c920-470e-9628-342bc95af557"},"vehicle_type_id":"4","last_reported":1734908853,"current_range_meters":32000,"station_id":"ce4bhih2rcd13ifvqfr0","pricing_plan_id":"cebpf4jnsgd1na2vs0mg"},{"bike_id":"32ebf098-e002-4aa6-88f7-5b365ee05e11","system_id":"levelo_inurba_marseille","lat":43.24084,"lon":5.37742,"is_reserved":false,"is_disabled":true,"rental_uris":{"android":"levelo://app?vid=32ebf098-e002-4aa6-88f7-5b365ee05e11","ios":"levelo://app?vid=32ebf098-e002-4aa6-88f7-5b365ee05e11"},"vehicle_type_id":"4","last_reported":1734908853,"current_range_meters":0,"station_id":"ce4bhnp2rcd13ifvqgvg","pricing_plan_id":"cebpf4jnsgd1na2vs0mg"},{"bike_id":"51092a0b-c258-4d4f-8fbf-b61d8d751561","system_id":"levelo_inurba_marseille","lat":43.28422,"lon":5.34991,"is_reserved":false,"is_disabled":false,"rental_uris":{"android":"levelo://app?vid=51092a0b-c258-4d4f-8fbf-b61d8d751561","ios":"levelo://app?vid=51092a0b-c258-4d4f-8fbf-b61d8d751561"},"vehicle_type_id":"4","last_reported":1734908853,"current_range_meters":18800,"station_id":"ce4bhbh2rcd13ifvqepg","pricing_plan_id":"cebpf4jnsgd1na2vs0mg"},{"bike_id":"aea1fce2-2ac2-4214-9613-fa3aae7cc4b7","system_id":"levelo_inurba_marseille","lat":43.29565,"lon":5.37506,"is_reserved":false,"is_disabled":false,"rental_uris":{"android":"levelo://app?vid=aea1fce2-2ac2-4214-9613-fa3aae7cc4b7","ios":"levelo://app?vid=aea1fce2-2ac2-4214-9613-fa3aae7cc4b7"},"vehicle_type_id":"4","last_reported":1734908853,"current_range_meters":28400,"station_id":"ce4bgh92rcd13ifvqb50","pricing_plan_id":"cebpf4jnsgd1na2vs0mg"},{"bike_id":"ebeea6b8-bb61-416d-9c2a-f9e48849a763","system_id":"levelo_inurba_marseille","lat":43.30635,"lon":5.40076,"is_reserved":false,"is_disabled":false,"rental_uris":{"android":"levelo://app?vid=ebeea6b8-bb61-416d-9c2a-f9e48849a763","ios":"levelo://app?vid=ebeea6b8-bb61-416d-9c2a-f9e48849a763"},"vehicle_type_id":"4","last_reported":1734908853,"current_range_meters":31200,"station_id":"ce4bh112rcd13ifvqda0","pricing_plan_id":"cebpf4jnsgd1na2vs0mg"},{"bike_id":"c71b6c55-aa7b-437b-a540-8c383a22f437","system_id":"levelo_inurba_marseille","lat":43.28413,"lon":5.37515,"is_reserved":false,"is_disabled":false,"rental_uris":{"android":"levelo://app?vid=c71b6c55-aa7b-437b-a540-8c383a22f437","ios":"levelo://app?vid=c71b6c55-aa7b-437b-a540-8c383a22f437"},"vehicle_type_id":"4","last_reported":1734908853,"current_range_meters":20800,"station_id":"ce4bh412rcd13ifvqds0","pricing_plan_id":"cebpf4jnsgd1na2vs0mg"},{"bike_id":"11a36859-5355-4ed7-a12f-768656d72d18","system_id":"levelo_inurba_marseille","lat":43.30648,"lon":5.37268,"is_reserved":false,"is_disabled":false,"rental_uris":{"android":"levelo://app?vid=11a36859-5355-4ed7-a12f-768656d72d18","ios":"levelo://app?vid=11a36859-5355-4ed7-a12f-768656d72d18"},"vehicle_type_id":"4","last_reported":1734908853,"current_range_meters":33200,"station_id":"ce4bgqh2rcd13ifvqc4g","pricing_plan_id":"cebpf4jnsgd1na2vs0mg"},{"bike_id":"7a419876-0610-4cdc-97e0-4af273f6d571","system_id":"levelo_inurba_marseille","lat":43.30414,"lon":5.39743,"is_reserved":false,"is_disabled":false,"rental_uris":{"android":"levelo://app?vid=7a419876-0610-4cdc-97e0-4af273f6d571","ios":"levelo://app?vid=7a419876-0610-4cdc-97e0-4af273f6d571"},"vehicle_type_id":"4","last_reported":1734908853,"current_range_meters":36800,"station_id":"ce4bh092rcd13ifvqd20","pricing_plan_id":"cebpf4jnsgd1na2vs0mg"},{"bike_id":"ba623d7f-de4d-43e6-9a39-be19938e75fb","system_id":"levelo_inurba_marseille","lat":43.29369,"lon":5.37856,"is_reserved":false,"is_disabled":true,"rental_uris":{"android":"levelo://app?vid=ba623d7f-de4d-43e6-9a39-be19938e75fb","ios":"levelo://app?vid=ba623d7f-de4d-43e6-9a39-be19938e75fb"},"vehicle_type_id":"4","last_reported":1734908853,"current_range_meters":35200,"station_id":"","pricing_plan_id":"cebpf4jnsgd1na2vs0mg"},{"bike_id":"96bd79a4-61e0-42c6-b3b5-429e7e7b815e","system_id":"levelo_inurba_marseille","lat":43.29799,"lon":5.40392,"is_reserved":false,"is_disabled":false,"rental_uris":{"android":"levelo://app?vid=96bd79a4-61e0-42c6-b3b5-429e7e7b815e","ios":"levelo://app?vid=96bd79a4-61e0-42c6-b3b5-429e7e7b815e"},"vehicle_type_id":"4","last_reported":1734908853,"current_range_meters":35200,"station_id":"ce4bh112rcd13ifvqd90","pricing_plan_id":"cebpf4jnsgd1na2vs0mg"},{"bike_id":"5e1ef48a-8f1f-4cfa-b2b3-a4053e96881b","system_id":"levelo_inurba_marseille","lat":43.27985,"lon":5.40011,"is_reserved":false,"is_disabled":false,"rental_uris":{"android":"levelo://app?vid=5e1ef48a-8f1f-4cfa-b2b3-a4053e96881b","ios":"levelo://app?vid=5e1ef48a-8f1f-4cfa-b2b3-a4053e96881b"},"vehicle_type_id":"4","last_reported":1734908853,"current_range_meters":18000,"station_id":"ce4bho92rcd13ifvqh4g","pricing_plan_id":"cebpf4jnsgd1na2vs0mg"},{"bike_id":"f6c5d7d8-070f-43c6-8fe7-a91620c2d235","system_id":"levelo_inurba_marseille","lat":43.29573,"lon":5.36737,"is_reserved":false,"is_disabled":false,"rental_uris":{"android":"levelo://app?vid=f6c5d7d8-070f-43c6-8fe7-a91620c2d235","ios":"levelo://app?vid=f6c5d7d8-070f-43c6-8fe7-a91620c2d235"},"vehicle_type_id":"4","last_reported":1734908853,"current_range_meters":37600,"station_id":"ce4bgph2rcd13ifvqc2g","pricing_plan_id":"cebpf4jnsgd1na2vs0mg"},{"bike_id":"10d16ca8-28c0-405d-8543-1a0f299451c6","system_id":"levelo_inurba_marseille","lat":43.2781,"lon":5.40713,"is_reserved":false,"is_disabled":false,"rental_uris":{"android":"levelo://app?vid=10d16ca8-28c0-405d-8543-1a0f299451c6","ios":"levelo://app?vid=10d16ca8-28c0-405d-8543-1a0f299451c6"},"vehicle_type_id":"4","last_reported":1734908853,"current_range_meters":38800,"station_id":"ce4bhnh2rcd13ifvqgtg","pricing_plan_id":"cebpf4jnsgd1na2vs0mg"},{"bike_id":"d7a9a039-2919-4498-94bc-85df69bbf9b4","system_id":"levelo_inurba_marseille","lat":43.25095,"lon":5.39519,"is_reserved":false,"is_disabled":true,"rental_uris":{"android":"levelo://app?vid=d7a9a039-2919-4498-94bc-85df69bbf9b4","ios":"levelo://app?vid=d7a9a039-2919-4498-94bc-85df69bbf9b4"},"vehicle_type_id":"4","last_reported":1734908853,"current_range_meters":0,"station_id":"ce4bhm12rcd13ifvqgkg","pricing_plan_id":"cebpf4jnsgd1na2vs0mg"},{"bike_id":"f6e00a83-cc1f-4aaf-83bb-77e9d3b9e809","system_id":"levelo_inurba_marseille","lat":43.337444,"lon":5.374475,"is_reserved":false,"is_disabled":false,"rental_uris":{"android":"levelo://app?vid=f6e00a83-cc1f-4aaf-83bb-77e9d3b9e809","ios":"levelo://app?vid=f6e00a83-cc1f-4aaf-83bb-77e9d3b9e809"},"vehicle_type_id":"4","last_reported":1734908853,"current_range_meters":22400,"station_id":"","pricing_plan_id":"cebpf4jnsgd1na2vs0mg"},{"bike_id":"4557c5fc-60ed-4c34-9596-70c70138f451","system_id":"levelo_inurba_marseille","lat":43.29621,"lon":5.37152,"is_reserved":false,"is_disabled":true,"rental_uris":{"android":"levelo://app?vid=4557c5fc-60ed-4c34-9596-70c70138f451","ios":"levelo://app?vid=4557c5fc-60ed-4c34-9596-70c70138f451"},"vehicle_type_id":"4","last_reported":1734908853,"current_range_meters":0,"station_id":"","pricing_plan_id":"cebpf4jnsgd1na2vs0mg"},{"bike_id":"a5487a7e-218d-425e-901b-5c24184b11c1","system_id":"levelo_inurba_marseille","lat":43.26945,"lon":5.40235,"is_reserved":false,"is_disabled":false,"rental_uris":{"android":"levelo://app?vid=a5487a7e-218d-425e-901b-5c24184b11c1","ios":"levelo://app?vid=a5487a7e-218d-425e-901b-5c24184b11c1"},"vehicle_type_id":"4","last_reported":1734908853,"current_range_meters":38800,"station_id":"cjm6bp8fraef2m0cb0m0","pricing_plan_id":"cebpf4jnsgd1na2vs0mg"},{"bike_id":"2daf6017-db0c-42c7-86d8-f89177a5712a","system_id":"levelo_inurba_marseille","lat":43.24054,"lon":5.377474,"is_reserved":false,"is_disabled":false,"rental_uris":{"android":"levelo://app?vid=2daf6017-db0c-42c7-86d8-f89177a5712a","ios":"levelo://app?vid=2daf6017-db0c-42c7-86d8-f89177a5712a"},"vehicle_type_id":"4","last_reported":1734908853,"current_range_meters":19200,"station_id":"ce4bhnp2rcd13ifvqgvg","pricing_plan_id":"cebpf4jnsgd1na2vs0mg"},{"bike_id":"3130f2ff-13bb-4623-bb3c-c786fe5610ae","system_id":"levelo_inurba_marseille","lat":43.30134,"lon":5.38775,"is_reserved":false,"is_disabled":false,"rental_uris":{"android":"levelo://app?vid=3130f2ff-13bb-4623-bb3c-c786fe5610ae","ios":"levelo://app?vid=3130f2ff-13bb-4623-bb3c-c786fe5610ae"},"vehicle_type_id":"4","last_reported":1734908853,"current_range_meters":36800,"station_id":"ce4bghh2rcd13ifvqb60","pricing_plan_id":"cebpf4jnsgd1na2vs0mg"},{"bike_id":"c8875d6b-8a22-4454-99ec-4e4ef59cbf9f","system_id":"levelo_inurba_marseille","lat":43.2588,"lon":5.39912,"is_reserved":false,"is_disabled":false,"rental_uris":{"android":"levelo://app?vid=c8875d6b-8a22-4454-99ec-4e4ef59cbf9f","ios":"levelo://app?vid=c8875d6b-8a22-4454-99ec-4e4ef59cbf9f"},"vehicle_type_id":"4","last_reported":1734908853,"current_range_meters":38800,"station_id":"ce4bhl92rcd13ifvqghg","pricing_plan_id":"cebpf4jnsgd1na2vs0mg"},{"bike_id":"962ea5b9-702b-4e82-9f9f-23c78648909c","system_id":"levelo_inurba_marseille","lat":43.27893,"lon":5.37993,"is_reserved":false,"is_disabled":false,"rental_uris":{"android":"levelo://app?vid=962ea5b9-702b-4e82-9f9f-23c78648909c","ios":"levelo://app?vid=962ea5b9-702b-4e82-9f9f-23c78648909c"},"vehicle_type_id":"4","last_reported":1734908853,"current_range_meters":38800,"station_id":"ce4bhf92rcd13ifvqf50","pricing_plan_id":"cebpf4jnsgd1na2vs0mg"},{"bike_id":"e8463cdd-22bc-49a6-9d92-e3d542fb6ee8","system_id":"levelo_inurba_marseille","lat":43.27105,"lon":5.42297,"is_reserved":false,"is_disabled":false,"rental_uris":{"android":"levelo://app?vid=e8463cdd-22bc-49a6-9d92-e3d542fb6ee8","ios":"levelo://app?vid=e8463cdd-22bc-49a6-9d92-e3d542fb6ee8"},"vehicle_type_id":"4","last_reported":1734908853,"current_range_meters":37600,"station_id":"ce4bhk92rcd13ifvqgb0","pricing_plan_id":"cebpf4jnsgd1na2vs0mg"},{"bike_id":"b639fb0b-b566-4537-b78f-bfb85a878521","system_id":"levelo_inurba_marseille","lat":43.28463,"lon":5.35883,"is_reserved":false,"is_disabled":false,"rental_uris":{"android":"levelo://app?vid=b639fb0b-b566-4537-b78f-bfb85a878521","ios":"levelo://app?vid=b639fb0b-b566-4537-b78f-bfb85a878521"},"vehicle_type_id":"4","last_reported":1734908853,"current_range_meters":29600,"station_id":"ce4bhah2rcd13ifvqei0","pricing_plan_id":"cebpf4jnsgd1na2vs0mg"},{"bike_id":"8cd26315-df0c-4a73-925f-530da5156d7c","system_id":"levelo_inurba_marseille","lat":43.2926,"lon":5.40895,"is_reserved":false,"is_disabled":false,"rental_uris":{"android":"levelo://app?vid=8cd26315-df0c-4a73-925f-530da5156d7c","ios":"levelo://app?vid=8cd26315-df0c-4a73-925f-530da5156d7c"},"vehicle_type_id":"4","last_reported":1734908853,"current_range_meters":36400,"station_id":"ce4bh192rcd13ifvqdc0","pricing_plan_id":"cebpf4jnsgd1na2vs0mg"},{"bike_id":"c13a7413-a260-44fd-85a3-ce8c2ef0f5e8","system_id":"levelo_inurba_marseille","lat":43.33731,"lon":5.39175,"is_reserved":false,"is_disabled":false,"rental_uris":{"android":"levelo://app?vid=c13a7413-a260-44fd-85a3-ce8c2ef0f5e8","ios":"levelo://app?vid=c13a7413-a260-44fd-85a3-ce8c2ef0f5e8"},"vehicle_type_id":"4","last_reported":1734908853,"current_range_meters":38000,"station_id":"ce4bhr92rcd13ifvqhsg","pricing_plan_id":"cebpf4jnsgd1na2vs0mg"},{"bike_id":"eb5d9745-3d9b-4b64-b98f-5521d2009f37","system_id":"levelo_inurba_marseille","lat":43.32288,"lon":5.38255,"is_reserved":false,"is_disabled":false,"rental_uris":{"android":"levelo://app?vid=eb5d9745-3d9b-4b64-b98f-5521d2009f37","ios":"levelo://app?vid=eb5d9745-3d9b-4b64-b98f-5521d2009f37"},"vehicle_type_id":"4","last_reported":1734908853,"current_range_meters":39200,"station_id":"ce4bhr12rcd13ifvqhqg","pricing_plan_id":"cebpf4jnsgd1na2vs0mg"},{"bike_id":"6dcdb9b3-5f94-4a66-ac37-8e10b16befcd","system_id":"levelo_inurba_marseille","lat":43.2926,"lon":5.40913,"is_reserved":false,"is_disabled":false,"rental_uris":{"android":"levelo://app?vid=6dcdb9b3-5f94-4a66-ac37-8e10b16befcd","ios":"levelo://app?vid=6dcdb9b3-5f94-4a66-ac37-8e10b16befcd"},"vehicle_type_id":"4","last_reported":1734908853,"current_range_meters":32000,"station_id":"ce4bh192rcd13ifvqdc0","pricing_plan_id":"cebpf4jnsgd1na2vs0mg"},