{"last_updated":1756289405,"ttl":60,"version":"2.2","data":{"bikes":[{"bike_id":"249cac9f-782c-4e7b-a30a-c3b794b8fa5c","system_id":"levelo_inurba_marseille","lat":43.27423,"lon":5.394255,"is_reserved":false,"is_disabled":false,"rental_uris":{"android":"levelo://app?vid=249cac9f-782c-4e7b-a30a-c3b794b8fa5c","ios":"levelo://app?vid=249cac9f-782c-4e7b-a30a-c3b794b8fa5c"},"vehicle_type_id":"4","last_reported":1756289405,"current_range_meters":3200,"station_id":"ce4bhdp2rcd13ifvqf20","pricing_plan_id":"cebpf4jnsgd1na2vs0mg"},{"bike_id":"cefefb7c-91c1-4715-aca3-bb5e5ba43cda","system_id":"levelo_inurba_marseille","lat":43.217482,"lon":5.346003,"is_reserved":false,"is_disabled":false,"rental_uris":{"android":"levelo://app?vid=cefefb7c-91c1-4715-aca3-bb5e5ba43cda","ios":"levelo://app?vid=cefefb7c-91c1-4715-aca3-bb5e5ba43cda"},"vehicle_type_id":"4","last_reported":1756289405,"current_range_meters":3200,"station_id":"","pricing_plan_id":"cebpf4jnsgd1na2vs0mg"},{"bike_id":"bd832027-bab8-4fa0-82b2-2f3c5afe86e3","system_id":"levelo_inurba_marseille","lat":43.30894,"lon":5.40136,"is_reserved":false,"is_disabled":false,"rental_uris":{"android":"levelo://app?vid=bd832027-bab8-4fa0-82b2-2f3c5afe86e3","ios":"levelo://app?vid=bd832027-bab8-4fa0-82b2-2f3c5afe86e3"},"vehicle_type_id":"4","last_reported":1756289405,"current_range_meters":3600,"station_id":"ce4bgvp2rcd13ifvqct0","pricing_plan_id":"cebpf4jnsgd1na2vs0mg"},{"bike_id":"236f1a17-bd84-4b8e-977f-7df7d8cf402c","system_id":"levelo_inurba_marseille","lat":43.30799,"lon":5.43547,"is_reserved":false,"is_disabled":true,"rental_uris":{"android":"levelo://app?vid=236f1a17-bd84-4b8e-977f-7df7d8cf402c","ios":"levelo://app?vid=236f1a17-bd84-4b8e-977f-7df7d8cf402c"},"vehicle_type_id":"4","last_reported":1756289405,"current_range_meters":3600,"station_id":"ce4bhph2rcd13ifvqheg","pricing_plan_id":"cebpf4jnsgd1na2vs0mg"},{"bike_id":"c865b6fe-7039-49c7-a2fb-fb12bee014e5","system_id":"levelo_inurba_marseille","lat":43.3038,"lon":5.42483,"is_reserved":false,"is_disabled":false,"rental_uris":{"android":"levelo://app?vid=c865b6fe-7039-49c7-a2fb-fb12bee014e5","ios":"levelo://app?vid=c865b6fe-7039-49c7-a2fb-fb12bee014e5"},"vehicle_type_id":"4","last_reported":1756289405,"current_range_meters":4000,"station_id":"ce4bhoh2rcd13ifvqh6g","pricing_plan_id":"cebpf4jnsgd1na2vs0mg"},{"bike_id":"f6bd5b86-eb54-487c-8a4e-3da908b177ef","system_id":"levelo_inurba_marseille","lat":43.29743,"lon":5.37123,"is_reserved":false,"is_disabled":false,"rental_uris":{"android":"levelo://app?vid=f6bd5b86-eb54-487c-8a4e-3da908b177ef","ios":"levelo://app?vid=f6bd5b86-eb54-487c-8a4e-3da908b177ef"},"vehicle_type_id":"4","last_reported":1756289405,"current_range_meters":4000,"station_id":"ce4bgop2rcd13ifvqc1g","pricing_plan_id":"cebpf4jnsgd1na2vs0mg"},{"bike_id":"03be758f-3e6d-4c72-8876-95a4359600d6","system_id":"levelo_inurba_marseille","lat":43.33795,"lon":5.37501,"is_reserved":false,"is_disabled":false,"rental_uris":{"android":"levelo://app?vid=03be758f-3e6d-4c72-8876-95a4359600d6","ios":"levelo://app?vid=03be758f-3e6d-4c72-8876-95a4359600d6"},"vehicle_type_id":"4","last_reported":1756289405,"current_range_meters":4000,"station_id":"","pricing_plan_id":"cebpf4jnsgd1na2vs0mg"},{"bike_id":"2d53e1b9-73be-45c8-8331-ac330d6bf047","system_id":"levelo_inurba_marseille","lat":43.27208,"lon":5.39173,"is_reserved":false,"is_disabled":false,"rental_uris":{"android":"levelo://app?vid=2d53e1b9-73be-45c8-8331-ac330d6bf047","ios":"levelo://app?vid=2d53e1b9-73be-45c8-8331-ac330d6bf047"},"vehicle_type_id":"4","last_reported":1756289405,"current_range_meters":4000,"station_id":"ce4bhhp2rcd13ifvqfm0","pricing_plan_id":"cebpf4jnsgd1na2vs0mg"},{"bike_id":"0937d7a7-063f-4a4f-bedf-5a1d16267a96","system_id":"levelo_inurba_marseille","lat":43.29797,"lon":5.38116,"is_reserved":false,"is_disabled":false,"rental_uris":{"android":"levelo://app?vid=0937d7a7-063f-4a4f-bedf-5a1d16267a96","ios":"levelo://app?vid=0937d7a7-063f-4a4f-bedf-5a1d16267a96"},"vehicle_type_id":"4","last_reported":1756289405,"current_range_meters":4000,"station_id":"ce4bgip2rcd13ifvqbb0","pricing_plan_id":"cebpf4jnsgd1na2vs0mg"},{"bike_id":"a756ac62-601a-4a65-b168-04bcf168284e","system_id":"levelo_inurba_marseille","lat":43.28348,"lon":5.38102,"is_reserved":false,"is_disabled":false,"rental_uris":{"android":"levelo://app?vid=a756ac62-601a-4a65-b168-04bcf168284e","ios":"levelo://app?vid=a756ac62-601a-4a65-b168-04bcf168284e"},"vehicle_type_id":"4","last_reported":1756289405,"current_range_meters":3600,"station_id":"ce4bh412rcd13ifvqdr0","pricing_plan_id":"cebpf4jnsgd1na2vs0mg"},{"bike_id":"74f3edfa-7903-4d58-b245-ae62768aef59","system_id":"levelo_inurba_marseille","lat":43.21751,"lon":5.34597,"is_reserved":false,"is_disabled":false,"rental_uris":{"android":"levelo://app?vid=74f3edfa-7903-4d58-b245-ae62768aef59","ios":"levelo://app?vid=74f3edfa-7903-4d58-b245-ae62768aef59"},"vehicle_type_id":"4","last_reported":1756289405,"current_range_meters":4800,"station_id":"st_cvj6r9ubvosntc0bgbag","pricing_plan_id":"cebpf4jnsgd1na2vs0mg"},{"bike_id":"43a14931-dcd0-4ae0-861f-dece37fa7f4d","system_id":"levelo_inurba_marseille","lat":43.30142,"lon":5.39929,"is_reserved":false,"is_disabled":false,"rental_uris":{"android":"levelo://app?vid=43a14931-dcd0-4ae0-861f-dece37fa7f4d","ios":"levelo://app?vid=43a14931-dcd0-4ae0-861f-dece37fa7f4d"},"vehicle_type_id":"4","last_reported":1756289405,"current_range_meters":5600,"station_id":"","pricing_plan_id":"cebpf4jnsgd1na2vs0mg"},{"bike_id":"b46639d3-0e19-46be-a590-754abfdbb7c9","system_id":"levelo_inurba_marseille","lat":43.295337,"lon":5.38546,"is_reserved":false,"is_disabled":true,"rental_uris":{"android":"levelo://app?vid=b46639d3-0e19-46be-a590-754abfdbb7c9","ios":"levelo://app?vid=b46639d3-0e19-46be-a590-754abfdbb7c9"},"vehicle_type_id":"4","last_reported":1756289405,"current_range_meters":5600,"station_id":"ce4bgih2rcd13ifvqba0","pricing_plan_id":"cebpf4jnsgd1na2vs0mg"},{"bike_id":"c9490ade-1d8b-49d7-b1dd-fe7d3ab24faf","system_id":"levelo_inurba_marseille","lat":43.231842,"lon":5.355569,"is_reserved":false,"is_disabled":false,"rental_uris":{"android":"levelo://app?vid=c9490ade-1d8b-49d7-b1dd-fe7d3ab24faf","ios":"levelo://app?vid=c9490ade-1d8b-49d7-b1dd-fe7d3ab24faf"},"vehicle_type_id":"4","last_reported":1756289405,"current_range_meters":6000,"station_id":"ce4bhu92rcd13ifvqi70","pricing_plan_id":"cebpf4jnsgd1na2vs0mg"},{"bike_id":"50f08e4a-13d1-464f-85b8-142aeef06773","system_id":"levelo_inurba_marseille","lat":43.28071,"lon":5.39646,"is_reserved":false,"is_disabled":false,"rental_uris":{"android":"levelo://app?vid=50f08e4a-13d1-464f-85b8-142aeef06773","ios":"levelo://app?vid=50f08e4a-13d1-464f-85b8-142aeef06773"},"vehicle_type_id":"4","last_reported":1756289405,"current_range_meters":6000,"station_id":"ce4bho12rcd13ifvqh2g","pricing_plan_id":"cebpf4jnsgd1na2vs0mg"},{"bike_id":"dcde0903-fe6a-4daa-a51a-bcccc3772d9b","system_id":"levelo_inurba_marseille","lat":43.29702,"lon":5.36617,"is_reserved":false,"is_disabled":false,"rental_uris":{"android":"levelo://app?vid=dcde0903-fe6a-4daa-a51a-bcccc3772d9b","ios":"levelo://app?vid=dcde0903-fe6a-4daa-a51a-bcccc3772d9b"},"vehicle_type_id":"4","last_reported":1756289405,"current_range_meters":6000,"station_id":"ce4bgn12rcd13ifvqbt0","pricing_plan_id":"cebpf4jnsgd1na2vs0mg"},{"bike_id":"f4867917-eec3-4f3a-ad08-c213029c6f75","system_id":"levelo_inurba_marseille","lat":43.2473,"lon":5.38126,"is_reserved":false,"is_disabled":false,"rental_uris":{"android":"levelo://app?vid=f4867917-eec3-4f3a-ad08-c213029c6f75","ios":"levelo://app?vid=f4867917-eec3-4f3a-ad08-c213029c6f75"},"vehicle_type_id":"4","last_reported":1756289405,"current_range_meters":6400,"station_id":"","pricing_plan_id":"cebpf4jnsgd1na2vs0mg"},{"bike_id":"2f4e8b28-6095-4b3f-ae0a-f9f0c872541a","system_id":"levelo_inurba_marseille","lat":43.29035,"lon":5.37571,"is_reserved":false,"is_disabled":false,"rental_uris":{"android":"levelo://app?vid=2f4e8b28-6095-4b3f-ae0a-f9f0c872541a","ios":"levelo://app?vid=2f4e8b28-6095-4b3f-ae0a-f9f0c872541a"},"vehicle_type_id":"4","last_reported":1756289405,"current_range_meters":6400,"station_id":"ce4bh692rcd13ifvqe90","pricing_plan_id":"cebpf4jnsgd1na2vs0mg"},{"bike_id":"a78f57c4-fe6c-456b-9b8e-6410cf53b979","system_id":"levelo_inurba_marseille","lat":43.28665,"lon":5.3867,"is_reserved":false,"is_disabled":false,"rental_uris":{"android":"levelo://app?vid=a78f57c4-fe6c-456b-9b8e-6410cf53b979","ios":"levelo://app?vid=a78f57c4-fe6c-456b-9b8e-6410cf53b979"},"vehicle_type_id":"4","last_reported":1756289405,"current_range_meters":6000,"station_id":"ce4bh492rcd13ifvqdug","pricing_plan_id":"cebpf4jnsgd1na2vs0mg"},{"bike_id":"44dbfc56-0648-4342-bd03-7de74d8ba58f","system_id":"levelo_inurba_marseille","lat":43.32354,"lon":5.36757,"is_reserved":false,"is_disabled":false,"rental_uris":{"android":"levelo://app?vid=44dbfc56-0648-4342-bd03-7de74d8ba58f","ios":"levelo://app?vid=44dbfc56-0648-4342-bd03-7de74d8ba58f"},"vehicle_type_id":"4","last_reported":1756289405,"current_range_meters":6800,"station_id":"ce4bhsh2rcd13ifvqi2g","pricing_plan_id":"cebpf4jnsgd1na2vs0mg"},{"bike_id":"9ebbca0f-8b0f-49e0-bbc0-5934ebb0e846","system_id":"levelo_inurba_marseille","lat":43.21195,"lon":5.35065,"is_reserved":false,"is_disabled":false,"rental_uris":{"android":"levelo://app?vid=9ebbca0f-8b0f-49e0-bbc0-5934ebb0e846","ios":"levelo://app?vid=9ebbca0f-8b0f-49e0-bbc0-5934ebb0e846"},"vehicle_type_id":"4","last_reported":1756289405,"current_range_meters":6800,"station_id":"st_cvj6sg6p6f1abm77japg","pricing_plan_id":"cebpf4jnsgd1na2vs0mg"},{"bike_id":"fc773bb8-26e0-43ef-b1fd-b1ea7ccf8100","system_id":"levelo_inurba_marseille","lat":43.3013,"lon":5.38783,"is_reserved":false,"is_disabled":false,"rental_uris":{"android":"levelo://app?vid=fc773bb8-26e0-43ef-b1fd-b1ea7ccf8100","ios":"levelo://app?vid=fc773bb8-26e0-43ef-b1fd-b1ea7ccf8100"},"vehicle_type_id":"4","last_reported":1756289405,"current_range_meters":6400,"station_id":"ce4bghh2rcd13ifvqb60","pricing_plan_id":"cebpf4jnsgd1na2vs0mg"},{"bike_id":"edc4c588-4db1-4b48-bddb-0eba1d72ba9f","system_id":"levelo_inurba_marseille","lat":43.211916,"lon":5.350734,"is_reserved":false,"is_disabled":false,"rental_uris":{"android":"levelo://app?vid=edc4c588-4db1-4b48-bddb-0eba1d72ba9f","ios":"levelo://app?vid=edc4c588-4db1-4b48-bddb-0eba1d72ba9f"},"vehicle_type_id":"4","last_reported":1756289405,"current_range_meters":6800,"station_id":"st_cvj6sg6p6f1abm77japg","pricing_plan_id":"cebpf4jnsgd1na2vs0mg"},{"bike_id":"4b119843-5d1d-454f-b2fb-27ee8f5dfb18","system_id":"levelo_inurba_marseille","lat":43.29185,"lon":5.39324,"is_reserved":false,"is_disabled":false,"rental_uris":{"android":"levelo://app?vid=4b119843-5d1d-454f-b2fb-27ee8f5dfb18","ios":"levelo://app?vid=4b119843-5d1d-454f-b2fb-27ee8f5dfb18"},"vehicle_type_id":"4","last_reported":1756289405,"current_range_meters":8000,"station_id":"ce4bh192rcd13ifvqdd0","pricing_plan_id":"cebpf4jnsgd1na2vs0mg"},{"bike_id":"f781d014-afa9-4acc-b6f7-3670b0862de3","system_id":"levelo_inurba_marseille","lat":43.21226,"lon":5.35062,"is_reserved":false,"is_disabled":false,"rental_uris":{"android":"levelo://app?vid=f781d014-afa9-4acc-b6f7-3670b0862de3","ios":"levelo://app?vid=f781d014-afa9-4acc-b6f7-3670b0862de3"},"vehicle_type_id":"4","last_reported":1756289405,"current_range_meters":7200,"station_id":"","pricing_plan_id":"cebpf4jnsgd1na2vs0mg"},{"bike_id":"5ec3dea4-b44b-4b6f-bc59-35042a0d2e9c","system_id":"levelo_inurba_marseille","lat":43.3055,"lon":5.36539,"is_reserved":false,"is_disabled":false,"rental_uris":{"android":"levelo://app?vid=5ec3dea4-b44b-4b6f-bc59-35042a0d2e9c","ios":"levelo://app?vid=5ec3dea4-b44b-4b6f-bc59-35042a0d2e9c"},"vehicle_type_id":"4","last_reported":1756289405,"current_range_meters":8000,"station_id":"ce4bgs12rcd13ifvqcag","pricing_plan_id":"cebpf4jnsgd1na2vs0mg"},{"bike_id":"2be73999-d995-4bcb-b12c-302657f18f84","system_id":"levelo_inurba_marseille","lat":43.21742,"lon":5.34601,"is_reserved":false,"is_disabled":false,"rental_uris":{"android":"levelo://app?vid=2be73999-d995-4bcb-b12c-302657f18f84","ios":"levelo://app?vid=2be73999-d995-4bcb-b12c-302657f18f84"},"vehicle_type_id":"4","last_reported":1756289405,"current_range_meters":8000,"station_id":"st_cvj6r9ubvosntc0bgbag","pricing_plan_id":"cebpf4jnsgd1na2vs0mg"},{"bike_id":"4e6c0c88-ac99-4971-8e73-026e714d32d0","system_id":"levelo_inurba_marseille","lat":43.30192,"lon":5.36626,"is_reserved":false,"is_disabled":false,"rental_uris":{"android":"levelo://app?vid=4e6c0c88-ac99-4971-8e73-026e714d32d0","ios":"levelo://app?vid=4e6c0c88-ac99-4971-8e73-026e714d32d0"},"vehicle_type_id":"4","last_reported":1756289405,"current_range_meters":8000,"station_id":"ce4bgrh2rcd13ifvqc8g","pricing_plan_id":"cebpf4jnsgd1na2vs0mg"},{"bike_id":"2732b203-8d34-41ae-80bd-b4f151d77aad","system_id":"levelo_inurba_marseille","lat":43.30249,"lon":5.40563,"is_reserved":false,"is_disabled":false,"rental_uris":{"android":"levelo://app?vid=2732b203-8d34-41ae-80bd-b4f151d77aad","ios":"levelo://app?vid=2732b203-8d34-41ae-80bd-b4f151d77aad"},"vehicle_type_id":"4","last_reported":1756289405,"current_range_meters":8400,"station_id":"","pricing_plan_id":"cebpf4jnsgd1na2vs0mg"},{"bike_id":"0d502687-08ef-4491-8893-8a03d8688be8","system_id":"levelo_inurba_marseille","lat":43.29632,"lon":5.3611,"is_reserved":false,"is_disabled":false,"rental_uris":{"android":"levelo://app?vid=0d502687-08ef-4491-8893-8a03d8688be8","ios":"levelo://app?vid=0d502687-08ef-4491-8893-8a03d8688be8"},"vehicle_type_id":"4","last_reported":1756289405,"current_range_meters":8400,"station_id":"","pricing_plan_id":"cebpf4jnsgd1na2vs0mg"},{"bike_id":"97dd7b8f-cbe4-4227-a5eb-dd0558de5256","system_id":"levelo_inurba_marseille","lat":43.23192,"lon":5.35557,"is_reserved":false,"is_disabled":false,"rental_uris":{"android":"levelo://app?vid=97dd7b8f-cbe4-4227-a5eb-dd0558de5256","ios":"levelo://app?vid=97dd7b8f-cbe4-4227-a5eb-dd0558de5256"},"vehicle_type_id":"4","last_reported":1756289405,"current_range_meters":8000,"station_id":"ce4bhu92rcd13ifvqi70","pricing_plan_id":"cebpf4jnsgd1na2vs0mg"},{"bike_id":"6eea08d1-ff1b-42c2-8a4e-f8d6c99eae23","system_id":"levelo_inurba_marseille","lat":43.29567,"lon":5.37512,"is_reserved":false,"is_disabled":false,"rental_uris":{"android":"levelo://app?vid=6eea08d1-ff1b-42c2-8a4e-f8d6c99eae23","ios":"levelo://app?vid=6eea08d1-ff1b-42c2-8a4e-f8d6c99eae23"},"vehicle_type_id":"4","last_reported":1756289405,"current_range_meters":8800,"station_id":"ce4bgh92rcd13ifvqb50","pricing_plan_id":"cebpf4jnsgd1na2vs0mg"},{"bike_id":"325f6c5a-86a0-4b70-adef-ff6206674622","system_id":"levelo_inurba_marseille","lat":43.32356,"lon":5.36741,"is_reserved":false,"is_disabled":false,"rental_uris":{"android":"levelo://app?vid=325f6c5a-86a0-4b70-adef-ff6206674622","ios":"levelo://app?vid=325f6c5a-86a0-4b70-adef-ff6206674622"},"vehicle_type_id":"4","last_reported":1756289405,"current_range_meters":8800,"station_id":"ce4bhsh2rcd13ifvqi2g","pricing_plan_id":"cebpf4jnsgd1na2vs0mg"},{"bike_id":"f115ff04-1c6e-4e14-93f2-61f93a544707","system_id":"levelo_inurba_marseille","lat":43.31708,"lon":5.43711,"is_reserved":false,"is_disabled":false,"rental_uris":{"android":"levelo://app?vid=f115ff04-1c6e-4e14-93f2-61f93a544707","ios":"levelo://app?vid=f115ff04-1c6e-4e14-93f2-61f93a544707"},"vehicle_type_id":"4","last_reported":1756289405,"current_range_meters":8400,"station_id":"ce4bhp92rcd13ifvqhcg","pricing_plan_id":"cebpf4jnsgd1na2vs0mg"},{"bike_id":"69a01144-4cb0-4f43-b8a7-d8bba1210d75","system_id":"levelo_inurba_marseille","lat":43.315743,"lon":5.374617,"is_reserved":false,"is_disabled":false,"rental_uris":{"android":"levelo://app?vid=69a01144-4cb0-4f43-b8a7-d8bba1210d75","ios":"levelo://app?vid=69a01144-4cb0-4f43-b8a7-d8bba1210d75"},"vehicle_type_id":"4","last_reported":1756289405,"current_range_meters":8800,"station_id":"","pricing_plan_id":"cebpf4jnsgd1na2vs0mg"},{"bike_id":"cfd66be3-eb77-4fcb-9808-b084ac439d43","system_id":"levelo_inurba_marseille","lat":43.33758,"lon":5.37458,"is_reserved":false,"is_disabled":false,"rental_uris":{"android":"levelo://app?vid=cfd66be3-eb77-4fcb-9808-b084ac439d43","ios":"levelo://app?vid=cfd66be3-eb77-4fcb-9808-b084ac439d43"},"vehicle_type_id":"4","last_reported":1756289405,"current_range_meters":8800,"station_id":"","pricing_plan_id":"cebpf4jnsgd1na2vs0mg"},{"bike_id":"4dd4428e-edbe-4c5d-9dc1-a53e9a716334","system_id":"levelo_inurba_marseille","lat":43.225,"lon":5.3477,"is_reserved":false,"is_disabled":false,"rental_uris":{"android":"levelo://app?vid=4dd4428e-edbe-4c5d-9dc1-a53e9a716334","ios":"levelo://app?vid=4dd4428e-edbe-4c5d-9dc1-a53e9a716334"},"vehicle_type_id":"4","last_reported":1756289405,"current_range_meters":9200,"station_id":"st_cvj5dfep6f1abm77gieg","pricing_plan_id":"cebpf4jnsgd1na2vs0mg"},{"bike_id":"c7d4482f-13ce-4a4a-b182-42b73304212b","system_id":"levelo_inurba_marseille","lat":43.28149,"lon":5.42627,"is_reserved":false,"is_disabled":false,"rental_uris":{"android":"levelo://app?vid=c7d4482f-13ce-4a4a-b182-42b73304212b","ios":"levelo://app?vid=c7d4482f-13ce-4a4a-b182-42b73304212b"},"vehicle_type_id":"4","last_reported":1756289405,"current_range_meters":9200,"station_id":"ce4bhnh2rcd13ifvqgug","pricing_plan_id":"cebpf4jnsgd1na2vs0mg"},{"bike_id":"b31936b8-a4e3-410c-bc06-d0c11faf6dc5","system_id":"levelo_inurba_marseille","lat":43.3043,"lon":5.38883,"is_reserved":false,"is_disabled":false,"rental_uris":{"android":"levelo://app?vid=b31936b8-a4e3-410c-bc06-d0c11faf6dc5","ios":"levelo://app?vid=b31936b8-a4e3-410c-bc06-d0c11faf6dc5"},"vehicle_type_id":"4","last_reported":1756289405,"current_range_meters":8800,"station_id":"ce4bgk12rcd13ifvqbi0","pricing_plan_id":"cebpf4jnsgd1na2vs0mg"},{"bike_id":"51842e17-ef10-4624-a23e-c8a182427991","system_id":"levelo_inurba_marseille","lat":43.31626,"lon":5.38175,"is_reserved":false,"is_disabled":false,"rental_uris":{"android":"levelo://app?vid=51842e17-ef10-4624-a23e-c8a182427991","ios":"levelo://app?vid=51842e17-ef10-4624-a23e-c8a182427991"},"vehicle_type_id":"4","last_reported":1756289405,"current_range_meters":9600,"station_id":"","pricing_plan_id":"cebpf4jnsgd1na2vs0mg"},{"bike_id":"96363afc-7198-4f0b-a510-6ec2a49330d7","system_id":"levelo_inurba_marseille","lat":43.31859,"lon":5.4087,"is_reserved":false,"is_disabled":false,"rental_uris":{"android":"levelo://app?vid=96363afc-7198-4f0b-a510-6ec2a49330d7","ios":"levelo://app?vid=96363afc-7198-4f0b-a510-6ec2a49330d7"},"vehicle_type_id":"4","last_reported":1756289405,"current_range_meters":9600,"station_id":"","pricing_plan_id":"cebpf4jnsgd1na2vs0mg"},{"bike_id":"7a30710c-077a-4664-be52-160c80ebfeb3","system_id":"levelo_inurba_marseille","lat":43.31074,"lon":5.38366,"is_reserved":false,"is_disabled":false,"rental_uris":{"android":"levelo://app?vid=7a30710c-077a-4664-be52-160c80ebfeb3","ios":"levelo://app?vid=7a30710c-077a-4664-be52-160c80ebfeb3"},"vehicle_type_id":"4","last_reported":1756289405,"current_range_meters":9600,"station_id":"ce4bgv92rcd13ifvqcr0","pricing_plan_id":"cebpf4jnsgd1na2vs0mg"},{"bike_id":"f650c880-0f65-464d-9fab-2781b1b7f074","system_id":"levelo_inurba_marseille","lat":43.2794,"lon":5.41051,"is_reserved":false,"is_disabled":false,"rental_uris":{"android":"levelo://app?vid=f650c880-0f65-464d-9fab-2781b1b7f074","ios":"levelo://app?vid=f650c880-0f65-464d-9fab-2781b1b7f074"},"vehicle_type_id":"4","last_reported":1756289405,"current_range_meters":10000,"station_id":"ce4bhnp2rcd13ifvqh0g","pricing_plan_id":"cebpf4jnsgd1na2vs0mg"},{"bike_id":"aece0e40-75b9-47c6-b82e-47c48d1f05b0","system_id":"levelo_inurba_marseille","lat":43.27561,"lon":5.38423,"is_reserved":false,"is_disabled":false,"rental_uris":{"android":"levelo://app?vid=aece0e40-75b9-47c6-b82e-47c48d1f05b0","ios":"levelo://app?vid=aece0e40-75b9-47c6-b82e-47c48d1f05b0"},"vehicle_type_id":"4","last_reported":1756289405,"current_range_meters":10000,"station_id":"ce4bhh92rcd13ifvqfi0","pricing_plan_id":"cebpf4jnsgd1na2vs0mg"},{"bike_id":"254413ba-ba76-4b5d-8da9-f55a83f4ca59","system_id":"levelo_inurba_marseille","lat":43.33006,"lon":5.39042,"is_reserved":false,"is_disabled":false,"rental_uris":{"android":"levelo://app?vid=254413ba-ba76-4b5d-8da9-f55a83f4ca59","ios":"levelo://app?vid=254413ba-ba76-4b5d-8da9-f55a83f4ca59"},"vehicle_type_id":"4","last_reported":1756289405,"current_range_meters":10800,"station_id":"ce4bhr92rcd13ifvqhrg","pricing_plan_id":"cebpf4jnsgd1na2vs0mg"},{"bike_id":"8bae1035-26b5-4630-b607-139f999eff74","system_id":"levelo_inurba_marseille","lat":43.283448,"lon":5.381098,"is_reserved":false,"is_disabled":false,"rental_uris":{"android":"levelo://app?vid=8bae1035-26b5-4630-b607-139f999eff74","ios":"levelo://app?vid=8bae1035-26b5-4630-b607-139f999eff74"},"vehicle_type_id":"4","last_reported":1756289405,"current_range_meters":10800,"station_id":"ce4bh412rcd13ifvqdr0","pricing_plan_id":"cebpf4jnsgd1na2vs0mg"},{"bike_id":"c73d9183-822c-4a14-a8c1-53bf72c04baf","system_id":"levelo_inurba_marseille","lat":43.29419,"lon":5.43237,"is_reserved":false,"is_disabled":false,"rental_uris":{"android":"levelo://app?vid=c73d9183-822c-4a14-a8c1-53bf72c04baf","ios":"levelo://app?vid=c73d9183-822c-4a14-a8c1-53bf72c04baf"},"vehicle_type_id":"4","last_reported":1756289405,"current_range_meters":10800,"station_id":"","pricing_plan_id":"cebpf4jnsgd1na2vs0mg"},{"bike_id":"39002f5b-a23e-4630-90a0-e2481b8443c4","system_id":"levelo_inurba_marseille","lat":43.25006,"lon":5.389113,"is_reserved":false,"is_disabled":true,"rental_uris":{"android":"levelo://app?vid=39002f5b-a23e-4630-90a0-e2481b8443c4","ios":"levelo://app?vid=39002f5b-a23e-4630-90a0-e2481b8443c4"},"vehicle_type_id":"4","last_reported":1756289405,"current_range_meters":10800,"station_id":"","pricing_plan_id":"cebpf4jnsgd1na2vs0mg"},{"bike_id":"929d8288-c446-42ce-96a5-8c59728d64a7","system_id":"levelo_inurba_marseille","lat":43.30947,"lon":5.3903,"is_reserved":false,"is_disabled":false,"rental_uris":{"android":"levelo://app?vid=929d8288-c446-42ce-96a5-8c59728d64a7","ios":"levelo://app?vid=929d8288-c446-42ce-96a5-8c59728d64a7"},"vehicle_type_id":"4","last_reported":1756289405,"current_range_meters":10000,"station_id":"ce4bgup2rcd13ifvqco0","pricing_plan_id":"cebpf4jnsgd1na2vs0mg"},{"bike_id":"f0400c37-c7f6-4929-b1ac-d92430ff6f2d","system_id":"levelo_inurba_marseille","lat":43.275813,"lon":5.39681,"is_reserved":false,"is_disabled":false,"rental_uris":{"android":"levelo://app?vid=f0400c37-c7f6-4929-b1ac-d92430ff6f2d","ios":"levelo://app?vid=f0400c37-c7f6-4929-b1ac-d92430ff6f2d"},"vehicle_type_id":"4","last_reported":1756289405,"current_range_meters":11200,"station_id":"","pricing_plan_id":"cebpf4jnsgd1na2vs0mg"},{"bike_id":"1d7023ef-959e-48df-b075-0a4bd90cc9ae","system_id":"levelo_inurba_marseille","lat":43.27365,"lon":5.36253,"is_reserved":false,"is_disabled":true,"rental_uris":{"android":"levelo://app?vid=1d7023ef-959e-48df-b075-0a4bd90cc9ae","ios":"levelo://app?vid=1d7023ef-959e-48df-b075-0a4bd90cc9ae"},"vehicle_type_id":"4","last_reported":1756289405,"current_range_meters":11200,"station_id":"ce4bhbh2rcd13ifvqeo0","pricing_plan_id":"cebpf4jnsgd1na2vs0mg"},{"bike_id":"1027bb83-a668-47de-9094-84302cb909d4","system_id":"levelo_inurba_marseille","lat":43.21204,"lon":5.35088,"is_reserved":false,"is_disabled":false,"rental_uris":{"android":"levelo://app?vid=1027bb83-a668-47de-9094-84302cb909d4","ios":"levelo://app?vid=1027bb83-a668-47de-9094-84302cb909d4"},"vehicle_type_id":"4","last_reported":1756289405,"current_range_meters":11200,"station_id":"st_cvj6sg6p6f1abm77japg","pricing_plan_id":"cebpf4jnsgd1na2vs0mg"},{"bike_id":"919403d1-9d41-4322-8f42-253c1dba9d3b","system_id":"levelo_inurba_marseille","lat":43.21746,"lon":5.34598,"is_reserved":false,"is_disabled":false,"rental_uris":{"android":"levelo://app?vid=919403d1-9d41-4322-8f42-253c1dba9d3b","ios":"levelo://app?vid=919403d1-9d41-4322-8f42-253c1dba9d3b"},"vehicle_type_id":"4","last_reported":1756289405,"current_range_meters":11200,"station_id":"","pricing_plan_id":"cebpf4jnsgd1na2vs0mg"},{"bike_id":"14947f10-51c9-4538-82c8-53a5bc644a0e","system_id":"levelo_inurba_marseille","lat":43.32055,"lon":5.41535,"is_reserved":false,"is_disabled":false,"rental_uris":{"android":"levelo://app?vid=14947f10-51c9-4538-82c8-53a5bc644a0e","ios":"levelo://app?vid=14947f10-51c9-4538-82c8-53a5bc644a0e"},"vehicle_type_id":"4","last_reported":1756289405,"current_range_meters":11200,"station_id":"ce4bhq92rcd13ifvqhkg","pricing_plan_id":"cebpf4jnsgd1na2vs0mg"},{"bike_id":"35293f9d-ecc5-4090-ae0e-2e4ab9a73a16","system_id":"levelo_inurba_marseille","lat":43.323592,"lon":5.367551,"is_reserved":false,"is_disabled":false,"rental_uris":{"android":"levelo://app?vid=35293f9d-ecc5-4090-ae0e-2e4ab9a73a16","ios":"levelo://app?vid=35293f9d-ecc5-4090-ae0e-2e4ab9a73a16"},"vehicle_type_id":"4","last_reported":1756289405,"current_range_meters":11200,"station_id":"","pricing_plan_id":"cebpf4jnsgd1na2vs0mg"},{"bike_id":"5a51cad4-b72a-4163-b5a9-5357f871e131","system_id":"levelo_inurba_marseille","lat":43.27842,"lon":5.39212,"is_reserved":false,"is_disabled":false,"rental_uris":{"android":"levelo://app?vid=5a51cad4-b72a-4163-b5a9-5357f871e131","ios":"levelo://app?vid=5a51cad4-b72a-4163-b5a9-5357f871e131"},"vehicle_type_id":"4","last_reported":1756289405,"current_range_meters":11200,"station_id":"ce4bhjp2rcd13ifvqga0","pricing_plan_id":"cebpf4jnsgd1na2vs0mg"},{"bike_id":"aeb6680f-c554-4849-80dd-284b39496357","system_id":"levelo_inurba_marseille","lat":43.292325,"lon":5.360711,"is_reserved":false,"is_disabled":false,"rental_uris":{"android":"levelo://app?vid=aeb6680f-c554-4849-80dd-284b39496357","ios":"levelo://app?vid=aeb6680f-c554-4849-80dd-284b39496357"},"vehicle_type_id":"4","last_reported":1756289405,"current_range_meters":11200,"station_id":"ce4bhbh2rcd13ifvqeqg","pricing_plan_id":"cebpf4jnsgd1na2vs0mg"},{"bike_id":"777a8c83-aed8-4881-84b6-34465956e738","system_id":"levelo_inurba_marseille","lat":43.257452,"lon":5.41009,"is_reserved":false,"is_disabled":false,"rental_uris":{"android":"levelo://app?vid=777a8c83-aed8-4881-84b6-34465956e738","ios":"levelo://app?vid=777a8c83-aed8-4881-84b6-34465956e738"},"vehicle_type_id":"4","last_reported":1756289405,"current_range_meters":11200,"station_id":"","pricing_plan_id":"cebpf4jnsgd1na2vs0mg"},{"bike_id":"9e26806d-9903-47ec-b6e0-d6d316f31f23","system_id":"levelo_inurba_marseille","lat":43.24162,"lon":5.36391,"is_reserved":false,"is_disabled":false,"rental_uris":{"android":"levelo://app?vid=9e26806d-9903-47ec-b6e0-d6d316f31f23","ios":"levelo://app?vid=9e26806d-9903-47ec-b6e0-d6d316f31f23"},"vehicle_type_id":"4","last_reported":1756289405,"current_range_meters":11600,"station_id":"cpo36qri1sfpv3e86is0","pricing_plan_id":"cebpf4jnsgd1na2vs0mg"},{"bike_id":"c6a5edcb-70de-442c-867d-206ab7fa279a","system_id":"levelo_inurba_marseille","lat":43.28347,"lon":5.38106,"is_reserved":false,"is_disabled":false,"rental_uris":{"android":"levelo://app?vid=c6a5edcb-70de-442c-867d-206ab7fa279a","ios":"levelo://app?vid=c6a5edcb-70de-442c-867d-206ab7fa279a"},"vehicle_type_id":"4","last_reported":1756289405,"current_range_meters":11600,"station_id":"ce4bh412rcd13ifvqdr0","pricing_plan_id":"cebpf4jnsgd1na2vs0mg"},{"bike_id":"e337d582-364a-4312-af91-67d0c81052aa","system_id":"levelo_inurba_marseille","lat":43.32521,"lon":5.36452,"is_reserved":false,"is_disabled":false,"rental_uris":{"android":"levelo://app?vid=e337d582-364a-4312-af91-67d0c81052aa","ios":"levelo://app?vid=e337d582-364a-4312-af91-67d0c81052aa"},"vehicle_type_id":"4","last_reported":1756289405,"current_range_meters":11600,"station_id":"","pricing_plan_id":"cebpf4jnsgd1na2vs0mg"},{"bike_id":"b115cefe-6282-4c8c-83f8-8b3c8b2882f1","system_id":"levelo_inurba_marseille","lat":43.29099,"lon":5.38129,"is_reserved":false,"is_disabled":false,"rental_uris":{"android":"levelo://app?vid=b115cefe-6282-4c8c-83f8-8b3c8b2882f1","ios":"levelo://app?vid=b115cefe-6282-4c8c-83f8-8b3c8b2882f1"},"vehicle_type_id":"4","last_reported":1756289405,"current_range_meters":11600,"station_id":"ce4bh512rcd13ifvqe2g","pricing_plan_id":"cebpf4jnsgd1na2vs0mg"},{"bike_id":"75283c7c-8e29-4242-9da0-926e81c126d0","system_id":"levelo_inurba_marseille","lat":43.23185,"lon":5.35549,"is_reserved":false,"is_disabled":false,"rental_uris":{"android":"levelo://app?vid=75283c7c-8e29-4242-9da0-926e81c126d0","ios":"levelo://app?vid=75283c7c-8e29-4242-9da0-926e81c126d0"},"vehicle_type_id":"4","last_reported":1756289405,"current_range_meters":11600,"station_id":"ce4bhu92rcd13ifvqi70","pricing_plan_id":"cebpf4jnsgd1na2vs0mg"},{"bike_id":"5bce688b-fc81-4596-8277-b66f54be87c1","system_id":"levelo_inurba_marseille","lat":43.33768,"lon":5.37438,"is_reserved":false,"is_disabled":false,"rental_uris":{"android":"levelo://app?vid=5bce688b-fc81-4596-8277-b66f54be87c1","ios":"levelo://app?vid=5bce688b-fc81-4596-8277-b66f54be87c1"},"vehicle_type_id":"4","last_reported":1756289405,"current_range_meters":12000,"station_id":"","pricing_plan_id":"cebpf4jnsgd1na2vs0mg"},{"bike_id":"13e5ff1d-b71b-4af9-9648-f26b19993b5e","system_id":"levelo_inurba_marseille","lat":43.31063,"lon":5.38343,"is_reserved":false,"is_disabled":false,"rental_uris":{"android":"levelo://app?vid=13e5ff1d-b71b-4af9-9648-f26b19993b5e","ios":"levelo://app?vid=13e5ff1d-b71b-4af9-9648-f26b19993b5e"},"vehicle_type_id":"4","last_reported":1756289405,"current_range_meters":12000,"station_id":"ce4bgv92rcd13ifvqcr0","pricing_plan_id":"cebpf4jnsgd1na2vs0mg"},{"bike_id":"72b2afc7-35ba-44a1-84c9-ec184010fdab","system_id":"levelo_inurba_marseille","lat":43.30417,"lon":5.39746,"is_reserved":false,"is_disabled":false,"rental_uris":{"android":"levelo://app?vid=72b2afc7-35ba-44a1-84c9-ec184010fdab","ios":"levelo://app?vid=72b2afc7-35ba-44a1-84c9-ec184010fdab"},"vehicle_type_id":"4","last_reported":1756289405,"current_range_meters":12000,"station_id":"ce4bh092rcd13ifvqd20","pricing_plan_id":"cebpf4jnsgd1na2vs0mg"},{"bike_id":"532cce87-fa0c-4713-b2a7-c2e8a86b6b5b","system_id":"levelo_inurba_marseille","lat":43.24164,"lon":5.39738,"is_reserved":false,"is_disabled":false,"rental_uris":{"android":"levelo://app?vid=532cce87-fa0c-4713-b2a7-c2e8a86b6b5b","ios":"levelo://app?vid=532cce87-fa0c-4713-b2a7-c2e8a86b6b5b"},"vehicle_type_id":"4","last_reported":1756289405,"current_range_meters":12000,"station_id":"ce4bhn12rcd13ifvqgpg","pricing_plan_id":"cebpf4jnsgd1na2vs0mg"},{"bike_id":"55806391-7b33-41cb-9701-b69f3515bef3","system_id":"levelo_inurba_marseille","lat":43.25947,"lon":5.40923,"is_reserved":false,"is_disabled":false,"rental_uris":{"android":"levelo://app?vid=55806391-7b33-41cb-9701-b69f3515bef3","ios":"levelo://app?vid=55806391-7b33-41cb-9701-b69f3515bef3"},"vehicle_type_id":"4","last_reported":1756289405,"current_range_meters":12400,"station_id":"ce4bhm92rcd13ifvqglg","pricing_plan_id":"cebpf4jnsgd1na2vs0mg"},{"bike_id":"9e589bf6-e275-4422-a7fd-618e0480fcae","system_id":"levelo_inurba_marseille","lat":43.23963,"lon":5.36633,"is_reserved":false,"is_disabled":false,"rental_uris":{"android":"levelo://app?vid=9e589bf6-e275-4422-a7fd-618e0480fcae","ios":"levelo://app?vid=9e589bf6-e275-4422-a7fd-618e0480fcae"},"vehicle_type_id":"4","last_reported":1756289405,"current_range_meters":12400,"station_id":"ce4bhi12rcd13ifvqfp0","pricing_plan_id":"cebpf4jnsgd1na2vs0mg"},{"bike_id":"b79f626f-4cce-45e0-9b7e-79f3f3a6033f","system_id":"levelo_inurba_marseille","lat":43.24609,"lon":5.43154,"is_reserved":false,"is_disabled":false,"rental_uris":{"android":"levelo://app?vid=b79f626f-4cce-45e0-9b7e-79f3f3a6033f","ios":"levelo://app?vid=b79f626f-4cce-45e0-9b7e-79f3f3a6033f"},"vehicle_type_id":"4","last_reported":1756289405,"current_range_meters":12800,"station_id":"st_d2m6c4gdas8pm72e190g","pricing_plan_id":"cebpf4jnsgd1na2vs0mg"},{"bike_id":"34afa268-c441-49c2-a999-6fa2e45e9bd7","system_id":"levelo_inurba_marseille","lat":43.25714,"lon":5.4112,"is_reserved":false,"is_disabled":false,"rental_uris":{"android":"levelo://app?vid=34afa268-c441-49c2-a999-6fa2e45e9bd7","ios":"levelo://app?vid=34afa268-c441-49c2-a999-6fa2e45e9bd7"},"vehicle_type_id":"4","last_reported":1756289405,"current_range_meters":12800,"station_id":"ce4bhkp2rcd13ifvqgd0","pricing_plan_id":"cebpf4jnsgd1na2vs0mg"},{"bike_id":"acc9a376-ad03-452c-91b3-85ae61175b73","system_id":"levelo_inurba_marseille","lat":43.30557,"lon":5.36542,"is_reserved":false,"is_disabled":false,"rental_uris":{"android":"levelo://app?vid=acc9a376-ad03-452c-91b3-85ae61175b73","ios":"levelo://app?vid=acc9a376-ad03-452c-91b3-85ae61175b73"},"vehicle_type_id":"4","last_reported":1756289405,"current_range_meters":12800,"station_id":"ce4bgs12rcd13ifvqcag","pricing_plan_id":"cebpf4jnsgd1na2vs0mg"},{"bike_id":"3d52d1ef-4a54-4573-8d36-37a305394ebe","system_id":"levelo_inurba_marseille","lat":43.274324,"lon":5.361851,"is_reserved":false,"is_disabled":false,"rental_uris":{"android":"levelo://app?vid=3d52d1ef-4a54-4573-8d36-37a305394ebe","ios":"levelo://app?vid=3d52d1ef-4a54-4573-8d36-37a305394ebe"},"vehicle_type_id":"4","last_reported":1756289405,"current_range_meters":13600,"station_id":"","pricing_plan_id":"cebpf4jnsgd1na2vs0mg"},{"bike_id":"30a6a722-53c0-4cce-ba02-6c5922a6ae2b","system_id":"levelo_inurba_marseille","lat":43.29032,"lon":5.39966,"is_reserved":false,"is_disabled":false,"rental_uris":{"android":"levelo://app?vid=30a6a722-53c0-4cce-ba02-6c5922a6ae2b","ios":"levelo://app?vid=30a6a722-53c0-4cce-ba02-6c5922a6ae2b"},"vehicle_type_id":"4","last_reported":1756289405,"current_range_meters":13600,"station_id":"ce4bh392rcd13ifvqdm0","pricing_plan_id":"cebpf4jnsgd1na2vs0mg"},{"bike_id":"a7a53c19-66aa-4d2e-85c1-ae889e6d2638","system_id":"levelo_inurba_marseille","lat":43.3079,"lon":5.43533,"is_reserved":false,"is_disabled":false,"rental_uris":{"android":"levelo://app?vid=a7a53c19-66aa-4d2e-85c1-ae889e6d2638","ios":"levelo://app?vid=a7a53c19-66aa-4d2e-85c1-ae889e6d2638"},"vehicle_type_id":"4","last_reported":1756289405,"current_range_meters":13600,"station_id":"ce4bhph2rcd13ifvqheg","pricing_plan_id":"cebpf4jnsgd1na2vs0mg"},{"bike_id":"11d2d617-2a74-4fe7-b98c-881078dbc53f","system_id":"levelo_inurba_marseille","lat":43.28473,"lon":5.38425,"is_reserved":false,"is_disabled":false,"rental_uris":{"android":"levelo://app?vid=11d2d617-2a74-4fe7-b98c-881078dbc53f","ios":"levelo://app?vid=11d2d617-2a74-4fe7-b98c-881078dbc53f"},"vehicle_type_id":"4","last_reported":1756289405,"current_range_meters":13600,"station_id":"ce4bh512rcd13ifvqe3g","pricing_plan_id":"cebpf4jnsgd1na2vs0mg"},{"bike_id":"dcd1879e-ac5d-4aa0-bf26-5aa5113abe6e","system_id":"levelo_inurba_marseille","lat":43.27051,"lon":5.40266,"is_reserved":false,"is_disabled":false,"rental_uris":{"android":"levelo://app?vid=dcd1879e-ac5d-4aa0-bf26-5aa5113abe6e","ios":"levelo://app?vid=dcd1879e-ac5d-4aa0-bf26-5aa5113abe6e"},"vehicle_type_id":"4","last_reported":1756289405,"current_range_meters":14000,"station_id":"ce4bhk92rcd13ifvqgc0","pricing_plan_id":"cebpf4jnsgd1na2vs0mg"},{"bike_id":"0306ba73-3d0f-4523-9d11-9a4554b2d8ff","system_id":"levelo_inurba_marseille","lat":43.21209,"lon":5.35066,"is_reserved":false,"is_disabled":false,"rental_uris":{"android":"levelo://app?vid=0306ba73-3d0f-4523-9d11-9a4554b2d8ff","ios":"levelo://app?vid=0306ba73-3d0f-4523-9d11-9a4554b2d8ff"},"vehicle_type_id":"4","last_reported":1756289405,"current_range_meters":14000,"station_id":"st_cvj6sg6p6f1abm77japg","pricing_plan_id":"cebpf4jnsgd1na2vs0mg"},{"bike_id":"d3533003-56f4-43b4-92f5-a95ec633dd6b","system_id":"levelo_inurba_marseille","lat":43.24692,"lon":5.38173,"is_reserved":false,"is_disabled":false,"rental_uris":{"android":"levelo://app?vid=d3533003-56f4-43b4-92f5-a95ec633dd6b","ios":"levelo://app?vid=d3533003-56f4-43b4-92f5-a95ec633dd6b"},"vehicle_type_id":"4","last_reported":1756289405,"current_range_meters":14000,"station_id":"ce4bhih2rcd13ifvqfr0","pricing_plan_id":"cebpf4jnsgd1na2vs0mg"},{"bike_id":"af732ca8-2cea-448a-9928-59e03d12656f","system_id":"levelo_inurba_marseille","lat":43.33478,"lon":5.35997,"is_reserved":false,"is_disabled":false,"rental_uris":{"android":"levelo://app?vid=af732ca8-2cea-448a-9928-59e03d12656f","ios":"levelo://app?vid=af732ca8-2cea-448a-9928-59e03d12656f"},"vehicle_type_id":"4","last_reported":1756289405,"current_range_meters":14000,"station_id":"","pricing_plan_id":"cebpf4jnsgd1na2vs0mg"},{"bike_id":"e5eabf25-4e1c-476e-b130-9f83cdcfc80c","system_id":"levelo_inurba_marseille","lat":43.29797,"lon":5.41713,"is_reserved":false,"is_disabled":false,"rental_uris":{"android":"levelo://app?vid=e5eabf25-4e1c-476e-b130-9f83cdcfc80c","ios":"levelo://app?vid=e5eabf25-4e1c-476e-b130-9f83cdcfc80c"},"vehicle_type_id":"4","last_reported":1756289405,"current_range_meters":14400,"station_id":"","pricing_plan_id":"cebpf4jnsgd1na2vs0mg"},{"bike_id":"16db3cd1-2aa5-4592-9099-d35f9ffe2759","system_id":"levelo_inurba_marseille","lat":43.2995,"lon":5.41318,"is_reserved":false,"is_disabled":false,"rental_uris":{"android":"levelo://app?vid=16db3cd1-2aa5-4592-9099-d35f9ffe2759","ios":"levelo://app?vid=16db3cd1-2aa5-4592-9099-d35f9ffe2759"},"vehicle_type_id":"4","last_reported":1756289405,"current_range_meters":14400,"station_id":"ce4bhp12rcd13ifvqh9g","pricing_plan_id":"cebpf4jnsgd1na2vs0mg"},{"bike_id":"3448e159-471f-45cf-b0bc-dcb672574311","system_id":"levelo_inurba_marseille","lat":43.26171,"lon":5.37492,"is_reserved":false,"is_disabled":true,"rental_uris":{"android":"levelo://app?vid=3448e159-471f-45cf-b0bc-dcb672574311","ios":"levelo://app?vid=3448e159-471f-45cf-b0bc-dcb672574311"},"vehicle_type_id":"4","last_reported":1756289405,"current_range_meters":14400,"station_id":"ce4bhgp2rcd13ifvqfc0","pricing_plan_id":"cebpf4jnsgd1na2vs0mg"},{"bike_id":"b5ae0016-67e1-4c37-91cb-4d986fbc09a4","system_id":"levelo_inurba_marseille","lat":43.24619,"lon":5.43149,"is_reserved":false,"is_disabled":false,"rental_uris":{"android":"levelo://app?vid=b5ae0016-67e1-4c37-91cb-4d986fbc09a4","ios":"levelo://app?vid=b5ae0016-67e1-4c37-91cb-4d986fbc09a4"},"vehicle_type_id":"4","last_reported":1756289405,"current_range_meters":14800,"station_id":"st_d2m6c4gdas8pm72e190g","pricing_plan_id":"cebpf4jnsgd1na2vs0mg"},{"bike_id":"e8a5a1f4-249e-4c95-a825-c6e6fe5ffe8e","system_id":"levelo_inurba_marseille","lat":43.2586,"lon":5.39908,"is_reserved":false,"is_disabled":false,"rental_uris":{"android":"levelo://app?vid=e8a5a1f4-249e-4c95-a825-c6e6fe5ffe8e","ios":"levelo://app?vid=e8a5a1f4-249e-4c95-a825-c6e6fe5ffe8e"},"vehicle_type_id":"4","last_reported":1756289405,"current_range_meters":14800,"station_id":"ce4bhl92rcd13ifvqghg","pricing_plan_id":"cebpf4jnsgd1na2vs0mg"},{"bike_id":"b5133710-52a6-42c6-b487-40f265b37cba","system_id":"levelo_inurba_marseille","lat":43.30798,"lon":5.43525,"is_reserved":false,"is_disabled":false,"rental_uris":{"android":"levelo://app?vid=b5133710-52a6-42c6-b487-40f265b37cba","ios":"levelo://app?vid=b5133710-52a6-42c6-b487-40f265b37cba"},"vehicle_type_id":"4","last_reported":1756289405,"current_range_meters":14800,"station_id":"ce4bhph2rcd13ifvqheg","pricing_plan_id":"cebpf4jnsgd1na2vs0mg"},{"bike_id":"d9d572f7-d811-4b4d-9ec5-cb85e6210f42","system_id":"levelo_inurba_marseille","lat":43.3211,"lon":5.36755,"is_reserved":false,"is_disabled":false,"rental_uris":{"android":"levelo://app?vid=d9d572f7-d811-4b4d-9ec5-cb85e6210f42","ios":"levelo://app?vid=d9d572f7-d811-4b4d-9ec5-cb85e6210f42"},"vehicle_type_id":"4","last_reported":1756289405,"current_range_meters":14800,"station_id":"ce4bhrh2rcd13ifvqhug","pricing_plan_id":"cebpf4jnsgd1na2vs0mg"},{"bike_id":"85ae633d-4673-4f22-9f76-ddbaafd7d09f","system_id":"levelo_inurba_marseille","lat":43.24062,"lon":5.37754,"is_reserved":false,"is_disabled":false,"rental_uris":{"android":"levelo://app?vid=85ae633d-4673-4f22-9f76-ddbaafd7d09f","ios":"levelo://app?vid=85ae633d-4673-4f22-9f76-ddbaafd7d09f"},"vehicle_type_id":"4","last_reported":1756289405,"current_range_meters":14800,"station_id":"ce4bhnp2rcd13ifvqgvg","pricing_plan_id":"cebpf4jnsgd1na2vs0mg"},{"bike_id":"9194a3fc-172d-4f97-875f-7949f6a67c46","system_id":"levelo_inurba_marseille","lat":43.29195,"lon":5.39314,"is_reserved":false,"is_disabled":false,"rental_uris":{"android":"levelo://app?vid=9194a3fc-172d-4f97-875f-7949f6a67c46","ios":"levelo://app?vid=9194a3fc-172d-4f97-875f-7949f6a67c46"},"vehicle_type_id":"4","last_reported":1756289405,"current_range_meters":15200,"station_id":"ce4bh192rcd13ifvqdd0","pricing_plan_id":"cebpf4jnsgd1na2vs0mg"},{"bike_id":"685105d1-bcda-4899-9d64-d94adf158a64","system_id":"levelo_inurba_marseille","lat":43.314676,"lon":5.373608,"is_reserved":false,"is_disabled":true,"rental_uris":{"android":"levelo://app?vid=685105d1-bcda-4899-9d64-d94adf158a64","ios":"levelo://app?vid=685105d1-bcda-4899-9d64-d94adf158a64"},"vehicle_type_id":"4","last_reported":1756289405,"current_range_meters":15200,"station_id":"","pricing_plan_id":"cebpf4jnsgd1na2vs0mg"},{"bike_id":"b5cfcb66-1f11-4038-a9ee-9e8ada38e920","system_id":"levelo_inurba_marseille","lat":43.21751,"lon":5.34602,"is_reserved":false,"is_disabled":false,"rental_uris":{"android":"levelo://app?vid=b5cfcb66-1f11-4038-a9ee-9e8ada38e920","ios":"levelo://app?vid=b5cfcb66-1f11-4038-a9ee-9e8ada38e920"},"vehicle_type_id":"4","last_reported":1756289405,"current_range_meters":15200,"station_id":"st_cvj6r9ubvosntc0bgbag","pricing_plan_id":"cebpf4jnsgd1na2vs0mg"},{"bike_id":"1dec5f96-d953-4203-b13d-0ce3f02e61a0","system_id":"levelo_inurba_marseille","lat":43.27072,"lon":5.42275,"is_reserved":false,"is_disabled":false,"rental_uris":{"android":"levelo://app?vid=1dec5f96-d953-4203-b13d-0ce3f02e61a0","ios":"levelo://app?vid=1dec5f96-d953-4203-b13d-0ce3f02e61a0"},"vehicle_type_id":"4","last_reported":1756289405,"current_range_meters":15200,"station_id":"ce4bhk92rcd13ifvqgb0","pricing_plan_id":"cebpf4jnsgd1na2vs0mg"},{"bike_id":"027ba922-e42f-48ee-afd3-b8bf3c8e3b5f","system_id":"levelo_inurba_marseille","lat":43.296942,"lon":5.373407,"is_reserved":false,"is_disabled":false,"rental_uris":{"android":"levelo://app?vid=027ba922-e42f-48ee-afd3-b8bf3c8e3b5f","ios":"levelo://app?vid=027ba922-e42f-48ee-afd3-b8bf3c8e3b5f"},"vehicle_type_id":"4","last_reported":1756289405,"current_range_meters":15200,"station_id":"ce4bgk12rcd13ifvqbj0","pricing_plan_id":"cebpf4jnsgd1na2vs0mg"},{"bike_id":"3ce18fbc-ec38-4f9e-9dd9-9a3dee5c503d","system_id":"levelo_inurba_marseille","lat":43.26026,"lon":5.37553,"is_reserved":false,"is_disabled":true,"rental_uris":{"android":"levelo://app?vid=3ce18fbc-ec38-4f9e-9dd9-9a3dee5c503d","ios":"levelo://app?vid=3ce18fbc-ec38-4f9e-9dd9-9a3dee5c503d"},"vehicle_type_id":"4","last_reported":1756289405,"current_range_meters":15200,"station_id":"ce4bhgh2rcd13ifvqfa0","pricing_plan_id":"cebpf4jnsgd1na2vs0mg"},{"bike_id":"3dff11d5-3872-4ffe-8cce-b5631d6c6058","system_id":"levelo_inurba_marseille","lat":43.32666,"lon":5.39224,"is_reserved":false,"is_disabled":false,"rental_uris":{"android":"levelo://app?vid=3dff11d5-3872-4ffe-8cce-b5631d6c6058","ios":"levelo://app?vid=3dff11d5-3872-4ffe-8cce-b5631d6c6058"},"vehicle_type_id":"4","last_reported":1756289405,"current_range_meters":15200,"station_id":"","pricing_plan_id":"cebpf4jnsgd1na2vs0mg"},{"bike_id":"9cee6ac4-b323-4dc3-9e81-cfd228e75a7f","system_id":"levelo_inurba_marseille","lat":43.31081,"lon":5.38939,"is_reserved":false,"is_disabled":false,"rental_uris":{"android":"levelo://app?vid=9cee6ac4-b323-4dc3-9e81-cfd228e75a7f","ios":"levelo://app?vid=9cee6ac4-b323-4dc3-9e81-cfd228e75a7f"},"vehicle_type_id":"4","last_reported":1756289405,"current_range_meters":16000,"station_id":"","pricing_plan_id":"cebpf4jnsgd1na2vs0mg"},{"bike_id":"db526668-1205-422f-99f2-dc09210cda94","system_id":"levelo_inurba_marseille","lat":43.29273,"lon":5.36841,"is_reserved":false,"is_disabled":false,"rental_uris":{"android":"levelo://app?vid=db526668-1205-422f-99f2-dc09210cda94","ios":"levelo://app?vid=db526668-1205-422f-99f2-dc09210cda94"},"vehicle_type_id":"4","last_reported":1756289405,"current_range_meters":16000,"station_id":"ce4bhbp2rcd13ifvqesg","pricing_plan_id":"cebpf4jnsgd1na2vs0mg"},{"bike_id":"71136ea1-3aaf-4521-8084-554abe261412","system_id":"levelo_inurba_marseille","lat":43.303037,"lon":5.369059,"is_reserved":false,"is_disabled":true,"rental_uris":{"android":"levelo://app?vid=71136ea1-3aaf-4521-8084-554abe261412","ios":"levelo://app?vid=71136ea1-3aaf-4521-8084-554abe261412"},"vehicle_type_id":"4","last_reported":1756289405,"current_range_meters":16000,"station_id":"","pricing_plan_id":"cebpf4jnsgd1na2vs0mg"},{"bike_id":"f67c8e5e-7af8-4847-a4ce-1e12088b4291","system_id":"levelo_inurba_marseille","lat":43.33025,"lon":5.39022,"is_reserved":false,"is_disabled":false,"rental_uris":{"android":"levelo://app?vid=f67c8e5e-7af8-4847-a4ce-1e12088b4291","ios":"levelo://app?vid=f67c8e5e-7af8-4847-a4ce-1e12088b4291"},"vehicle_type_id":"4","last_reported":1756289405,"current_range_meters":16000,"station_id":"ce4bhr92rcd13ifvqhrg","pricing_plan_id":"cebpf4jnsgd1na2vs0mg"},{"bike_id":"05333f1f-8cc0-4dc9-bbd8-a1f0e18ceb88","system_id":"levelo_inurba_marseille","lat":43.262907,"lon":5.398979,"is_reserved":false,"is_disabled":false,"rental_uris":{"android":"levelo://app?vid=05333f1f-8cc0-4dc9-bbd8-a1f0e18ceb88","ios":"levelo://app?vid=05333f1f-8cc0-4dc9-bbd8-a1f0e18ceb88"},"vehicle_type_id":"4","last_reported":1756289405,"current_range_meters":16000,"station_id":"","pricing_plan_id":"cebpf4jnsgd1na2vs0mg"},{"bike_id":"70725e45-1278-4337-bab4-392de6291b76","system_id":"levelo_inurba_marseille","lat":43.278244,"lon":5.407275,"is_reserved":false,"is_disabled":false,"rental_uris":{"android":"levelo://app?vid=70725e45-1278-4337-bab4-392de6291b76","ios":"levelo://app?vid=70725e45-1278-4337-bab4-392de6291b76"},"vehicle_type_id":"4","last_reported":1756289405,"current_range_meters":16000,"station_id":"ce4bhnh2rcd13ifvqgtg","pricing_plan_id":"cebpf4jnsgd1na2vs0mg"},{"bike_id":"e91e6807-b9b7-4e19-b4ac-a618ee153865","system_id":"levelo_inurba_marseille","lat":43.25332,"lon":5.42184,"is_reserved":false,"is_disabled":false,"rental_uris":{"android":"levelo://app?vid=e91e6807-b9b7-4e19-b4ac-a618ee153865","ios":"levelo://app?vid=e91e6807-b9b7-4e19-b4ac-a618ee153865"},"vehicle_type_id":"4","last_reported":1756289405,"current_range_meters":16000,"station_id":"st_d2m65c5bi1j21697t3ng","pricing_plan_id":"cebpf4jnsgd1na2vs0mg"},{"bike_id":"5c26a54e-1e97-4ad3-a16d-614ad930b130","system_id":"levelo_inurba_marseille","lat":43.321097,"lon":5.3678,"is_reserved":false,"is_disabled":false,"rental_uris":{"android":"levelo://app?vid=5c26a54e-1e97-4ad3-a16d-614ad930b130","ios":"levelo://app?vid=5c26a54e-1e97-4ad3-a16d-614ad930b130"},"vehicle_type_id":"4","last_reported":1756289405,"current_range_meters":16400,"station_id":"ce4bhrh2rcd13ifvqhug","pricing_plan_id":"cebpf4jnsgd1na2vs0mg"},{"bike_id":"6d0b4e8f-a6fa-475e-b671-492f764642c9","system_id":"levelo_inurba_marseille","lat":43.29032,"lon":5.37548,"is_reserved":false,"is_disabled":false,"rental_uris":{"android":"levelo://app?vid=6d0b4e8f-a6fa-475e-b671-492f764642c9","ios":"levelo://app?vid=6d0b4e8f-a6fa-475e-b671-492f764642c9"},"vehicle_type_id":"4","last_reported":1756289405,"current_range_meters":16400,"station_id":"ce4bh692rcd13ifvqe90","pricing_plan_id":"cebpf4jnsgd1na2vs0mg"},{"bike_id":"6bfe00ab-e481-4a2d-a4d0-3ab6adf70994","system_id":"levelo_inurba_marseille","lat":43.3236,"lon":5.36745,"is_reserved":false,"is_disabled":true,"rental_uris":{"android":"levelo://app?vid=6bfe00ab-e481-4a2d-a4d0-3ab6adf70994","ios":"levelo://app?vid=6bfe00ab-e481-4a2d-a4d0-3ab6adf70994"},"vehicle_type_id":"4","last_reported":1756289405,"current_range_meters":16400,"station_id":"ce4bhsh2rcd13ifvqi2g","pricing_plan_id":"cebpf4jnsgd1na2vs0mg"},{"bike_id":"182848e1-c128-499b-944e-cad0c910e9fb","system_id":"levelo_inurba_marseille","lat":43.212036,"lon":5.350736,"is_reserved":false,"is_disabled":false,"rental_uris":{"android":"levelo://app?vid=182848e1-c128-499b-944e-cad0c910e9fb","ios":"levelo://app?vid=182848e1-c128-499b-944e-cad0c910e9fb"},"vehicle_type_id":"4","last_reported":1756289405,"current_range_meters":16400,"station_id":"st_cvj6sg6p6f1abm77japg","pricing_plan_id":"cebpf4jnsgd1na2vs0mg"},{"bike_id":"20557017-5bfa-446a-bb19-fad47cf82d08","system_id":"levelo_inurba_marseille","lat":43.29708,"lon":5.37698,"is_reserved":false,"is_disabled":false,"rental_uris":{"android":"levelo://app?vid=20557017-5bfa-446a-bb19-fad47cf82d08","ios":"levelo://app?vid=20557017-5bfa-446a-bb19-fad47cf82d08"},"vehicle_type_id":"4","last_reported":1756289405,"current_range_meters":16400,"station_id":"ce4bgkh2rcd13ifvqbl0","pricing_plan_id":"cebpf4jnsgd1na2vs0mg"},{"bike_id":"7558b440-1ee7-4da9-91a4-b58bd6acd925","system_id":"levelo_inurba_marseille","lat":43.24543,"lon":5.39528,"is_reserved":false,"is_disabled":false,"rental_uris":{"android":"levelo://app?vid=7558b440-1ee7-4da9-91a4-b58bd6acd925","ios":"levelo://app?vid=7558b440-1ee7-4da9-91a4-b58bd6acd925"},"vehicle_type_id":"4","last_reported":1756289405,"current_range_meters":16400,"station_id":"ce4bhlp2rcd13ifvqgjg","pricing_plan_id":"cebpf4jnsgd1na2vs0mg"},{"bike_id":"2e55c538-508e-4fef-8f5f-62b4ad8b5b85","system_id":"levelo_inurba_marseille","lat":43.21741,"lon":5.34602,"is_reserved":false,"is_disabled":false,"rental_uris":{"android":"levelo://app?vid=2e55c538-508e-4fef-8f5f-62b4ad8b5b85","ios":"levelo://app?vid=2e55c538-508e-4fef-8f5f-62b4ad8b5b85"},"vehicle_type_id":"4","last_reported":1756289405,"current_range_meters":16400,"station_id":"","pricing_plan_id":"cebpf4jnsgd1na2vs0mg"},{"bike_id":"814645c9-7af5-4408-879c-1836489b0342","system_id":"levelo_inurba_marseille","lat":43.26564,"lon":5.37315,"is_reserved":false,"is_disabled":false,"rental_uris":{"android":"levelo://app?vid=814645c9-7af5-4408-879c-1836489b0342","ios":"levelo://app?vid=814645c9-7af5-4408-879c-1836489b0342"},"vehicle_type_id":"4","last_reported":1756289405,"current_range_meters":16400,"station_id":"ce4bhg12rcd13ifvqf70","pricing_plan_id":"cebpf4jnsgd1na2vs0mg"},{"bike_id":"c561b3be-23f4-46ed-8d38-1fc2450f503d","system_id":"levelo_inurba_marseille","lat":43.23646,"lon":5.36223,"is_reserved":false,"is_disabled":false,"rental_uris":{"android":"levelo://app?vid=c561b3be-23f4-46ed-8d38-1fc2450f503d","ios":"levelo://app?vid=c561b3be-23f4-46ed-8d38-1fc2450f503d"},"vehicle_type_id":"4","last_reported":1756289405,"current_range_meters":16400,"station_id":"","pricing_plan_id":"cebpf4jnsgd1na2vs0mg"},{"bike_id":"84782f15-c088-4b16-bfb9-001eac6871ef","system_id":"levelo_inurba_marseille","lat":43.29301,"lon":5.37171,"is_reserved":false,"is_disabled":false,"rental_uris":{"android":"levelo://app?vid=84782f15-c088-4b16-bfb9-001eac6871ef","ios":"levelo://app?vid=84782f15-c088-4b16-bfb9-001eac6871ef"},"vehicle_type_id":"4","last_reported":1756289405,"current_range_meters":16800,"station_id":"ce4bgh92rcd13ifvqb40","pricing_plan_id":"cebpf4jnsgd1na2vs0mg"},{"bike_id":"2b164df0-a198-41a5-860c-5521f55ad32a","system_id":"levelo_inurba_marseille","lat":43.24176,"lon":5.39731,"is_reserved":false,"is_disabled":false,"rental_uris":{"android":"levelo://app?vid=2b164df0-a198-41a5-860c-5521f55ad32a","ios":"levelo://app?vid=2b164df0-a198-41a5-860c-5521f55ad32a"},"vehicle_type_id":"4","last_reported":1756289405,"current_range_meters":16800,"station_id":"ce4bhn12rcd13ifvqgpg","pricing_plan_id":"cebpf4jnsgd1na2vs0mg"},{"bike_id":"1847f6a0-f154-4859-8207-3aa670b7a5bb","system_id":"levelo_inurba_marseille","lat":43.29572,"lon":5.37519,"is_reserved":false,"is_disabled":false,"rental_uris":{"android":"levelo://app?vid=1847f6a0-f154-4859-8207-3aa670b7a5bb","ios":"levelo://app?vid=1847f6a0-f154-4859-8207-3aa670b7a5bb"},"vehicle_type_id":"4","last_reported":1756289405,"current_range_meters":16800,"station_id":"ce4bgh92rcd13ifvqb50","pricing_plan_id":"cebpf4jnsgd1na2vs0mg"},{"bike_id":"ffd21136-ae47-45ee-8fc5-e7f85ea84802","system_id":"levelo_inurba_marseille","lat":43.29823,"lon":5.3825,"is_reserved":false,"is_disabled":false,"rental_uris":{"android":"levelo://app?vid=ffd21136-ae47-45ee-8fc5-e7f85ea84802","ios":"levelo://app?vid=ffd21136-ae47-45ee-8fc5-e7f85ea84802"},"vehicle_type_id":"4","last_reported":1756289405,"current_range_meters":16800,"station_id":"","pricing_plan_id":"cebpf4jnsgd1na2vs0mg"},{"bike_id":"29c846b0-4fd8-40fb-aac1-6d767b2e984a","system_id":"levelo_inurba_marseille","lat":43.29214,"lon":5.36059,"is_reserved":false,"is_disabled":false,"rental_uris":{"android":"levelo://app?vid=29c846b0-4fd8-40fb-aac1-6d767b2e984a","ios":"levelo://app?vid=29c846b0-4fd8-40fb-aac1-6d767b2e984a"},"vehicle_type_id":"4","last_reported":1756289405,"current_range_meters":16800,"station_id":"ce4bhbh2rcd13ifvqeqg","pricing_plan_id":"cebpf4jnsgd1na2vs0mg"},{"bike_id":"6c2cf4d2-0744-4c1f-9291-a8366c2e56e2","system_id":"levelo_inurba_marseille","lat":43.29783,"lon":5.37097,"is_reserved":false,"is_disabled":false,"rental_uris":{"android":"levelo://app?vid=6c2cf4d2-0744-4c1f-9291-a8366c2e56e2","ios":"levelo://app?vid=6c2cf4d2-0744-4c1f-9291-a8366c2e56e2"},"vehicle_type_id":"4","last_reported":1756289405,"current_range_meters":16800,"station_id":"ce4bgop2rcd13ifvqc1g","pricing_plan_id":"cebpf4jnsgd1na2vs0mg"},{"bike_id":"33db383b-5b27-4ee3-b77f-51489812521c","system_id":"levelo_inurba_marseille","lat":43.3054,"lon":5.367039,"is_reserved":false,"is_disabled":false,"rental_uris":{"android":"levelo://app?vid=33db383b-5b27-4ee3-b77f-51489812521c","ios":"levelo://app?vid=33db383b-5b27-4ee3-b77f-51489812521c"},"vehicle_type_id":"4","last_reported":1756289405,"current_range_meters":16800,"station_id":"ce4bgrp2rcd13ifvqc9g","pricing_plan_id":"cebpf4jnsgd1na2vs0mg"},{"bike_id":"79972a2b-e172-41e9-9af2-3341676f326e","system_id":"levelo_inurba_marseille","lat":43.2844,"lon":5.39201,"is_reserved":false,"is_disabled":false,"rental_uris":{"android":"levelo://app?vid=79972a2b-e172-41e9-9af2-3341676f326e","ios":"levelo://app?vid=79972a2b-e172-41e9-9af2-3341676f326e"},"vehicle_type_id":"4","last_reported":1756289405,"current_range_meters":16400,"station_id":"ce4bhoh2rcd13ifvqh5g","pricing_plan_id":"cebpf4jnsgd1na2vs0mg"},{"bike_id":"3677cb8e-75cb-4ce3-82af-837496e47714","system_id":"levelo_inurba_marseille","lat":43.25813,"lon":5.39437,"is_reserved":false,"is_disabled":false,"rental_uris":{"android":"levelo://app?vid=3677cb8e-75cb-4ce3-82af-837496e47714","ios":"levelo://app?vid=3677cb8e-75cb-4ce3-82af-837496e47714"},"vehicle_type_id":"4","last_reported":1756289405,"current_range_meters":17200,"station_id":"ce4bhip2rcd13ifvqft0","pricing_plan_id":"cebpf4jnsgd1na2vs0mg"},{"bike_id":"726775a9-d9b4-45ce-bc96-5c27216ad375","system_id":"levelo_inurba_marseille","lat":43.293042,"lon":5.374556,"is_reserved":false,"is_disabled":false,"rental_uris":{"android":"levelo://app?vid=726775a9-d9b4-45ce-bc96-5c27216ad375","ios":"levelo://app?vid=726775a9-d9b4-45ce-bc96-5c27216ad375"},"vehicle_type_id":"4","last_reported":1756289405,"current_range_meters":17200,"station_id":"ce4bgi12rcd13ifvqb70","pricing_plan_id":"cebpf4jnsgd1na2vs0mg"},{"bike_id":"66e0a403-9848-4a61-83d6-ca6c879e0442","system_id":"levelo_inurba_marseille","lat":43.29218,"lon":5.36061,"is_reserved":false,"is_disabled":false,"rental_uris":{"android":"levelo://app?vid=66e0a403-9848-4a61-83d6-ca6c879e0442","ios":"levelo://app?vid=66e0a403-9848-4a61-83d6-ca6c879e0442"},"vehicle_type_id":"4","last_reported":1756289405,"current_range_meters":17200,"station_id":"ce4bhbh2rcd13ifvqeqg","pricing_plan_id":"cebpf4jnsgd1na2vs0mg"},{"bike_id":"d810acf0-5bd2-4bf1-848d-31cd30d105e6","system_id":"levelo_inurba_marseille","lat":43.269831,"lon":5.392782,"is_reserved":false,"is_disabled":false,"rental_uris":{"android":"levelo://app?vid=d810acf0-5bd2-4bf1-848d-31cd30d105e6","ios":"levelo://app?vid=d810acf0-5bd2-4bf1-848d-31cd30d105e6"},"vehicle_type_id":"4","last_reported":1756289405,"current_range_meters":17200,"station_id":"","pricing_plan_id":"cebpf4jnsgd1na2vs0mg"},{"bike_id":"5dd83fad-2449-4d56-be74-c8599abb9a5e","system_id":"levelo_inurba_marseille","lat":43.26218,"lon":5.37435,"is_reserved":false,"is_disabled":false,"rental_uris":{"android":"levelo://app?vid=5dd83fad-2449-4d56-be74-c8599abb9a5e","ios":"levelo://app?vid=5dd83fad-2449-4d56-be74-c8599abb9a5e"},"vehicle_type_id":"4","last_reported":1756289405,"current_range_meters":17200,"station_id":"ce4bhgp2rcd13ifvqfc0","pricing_plan_id":"cebpf4jnsgd1na2vs0mg"},{"bike_id":"4c82beab-1cad-46f7-a8ca-eb8dcbd949ef","system_id":"levelo_inurba_marseille","lat":43.275735,"lon":5.396744,"is_reserved":false,"is_disabled":false,"rental_uris":{"android":"levelo://app?vid=4c82beab-1cad-46f7-a8ca-eb8dcbd949ef","ios":"levelo://app?vid=4c82beab-1cad-46f7-a8ca-eb8dcbd949ef"},"vehicle_type_id":"4","last_reported":1756289405,"current_range_meters":17200,"station_id":"","pricing_plan_id":"cebpf4jnsgd1na2vs0mg"},{"bike_id":"94c44f36-d45b-48d8-9eb0-02cde482dcfd","system_id":"levelo_inurba_marseille","lat":43.26025,"lon":5.37543,"is_reserved":false,"is_disabled":false,"rental_uris":{"android":"levelo://app?vid=94c44f36-d45b-48d8-9eb0-02cde482dcfd","ios":"levelo://app?vid=94c44f36-d45b-48d8-9eb0-02cde482dcfd"},"vehicle_type_id":"4","last_reported":1756289405,"current_range_meters":17200,"station_id":"ce4bhgh2rcd13ifvqfa0","pricing_plan_id":"cebpf4jnsgd1na2vs0mg"},{"bike_id":"56617e93-dfaa-4db2-9c67-a6ef24f9648e","system_id":"levelo_inurba_marseille","lat":43.23195,"lon":5.35552,"is_reserved":false,"is_disabled":false,"rental_uris":{"android":"levelo://app?vid=56617e93-dfaa-4db2-9c67-a6ef24f9648e","ios":"levelo://app?vid=56617e93-dfaa-4db2-9c67-a6ef24f9648e"},"vehicle_type_id":"4","last_reported":1756289405,"current_range_meters":17200,"station_id":"ce4bhu92rcd13ifvqi70","pricing_plan_id":"cebpf4jnsgd1na2vs0mg"},{"bike_id":"98bd734b-1a92-4a06-bd14-78315dd4e572","system_id":"levelo_inurba_marseille","lat":43.26672,"lon":5.38274,"is_reserved":false,"is_disabled":false,"rental_uris":{"android":"levelo://app?vid=98bd734b-1a92-4a06-bd14-78315dd4e572","ios":"levelo://app?vid=98bd734b-1a92-4a06-bd14-78315dd4e572"},"vehicle_type_id":"4","last_reported":1756289405,"current_range_meters":17200,"station_id":"ce4bhg92rcd13ifvqf90","pricing_plan_id":"cebpf4jnsgd1na2vs0mg"},{"bike_id":"33767b19-49d2-43d6-9855-7f25ee9dd4ce","system_id":"levelo_inurba_marseille","lat":43.2952,"lon":5.37534,"is_reserved":false,"is_disabled":true,"rental_uris":{"android":"levelo://app?vid=33767b19-49d2-43d6-9855-7f25ee9dd4ce","ios":"levelo://app?vid=33767b19-49d2-43d6-9855-7f25ee9dd4ce"},"vehicle_type_id":"4","last_reported":1756289405,"current_range_meters":17200,"station_id":"ce4bgkp2rcd13ifvqbmg","pricing_plan_id":"cebpf4jnsgd1na2vs0mg"},{"bike_id":"1ba337e6-5162-4097-87fa-407db1907937","system_id":"levelo_inurba_marseille","lat":43.28111,"lon":5.42641,"is_reserved":false,"is_disabled":false,"rental_uris":{"android":"levelo://app?vid=1ba337e6-5162-4097-87fa-407db1907937","ios":"levelo://app?vid=1ba337e6-5162-4097-87fa-407db1907937"},"vehicle_type_id":"4","last_reported":1756289405,"current_range_meters":16800,"station_id":"ce4bhnh2rcd13ifvqgug","pricing_plan_id":"cebpf4jnsgd1na2vs0mg"},{"bike_id":"f0d610df-f74e-4532-afd2-123c10ce2ba7","system_id":"levelo_inurba_marseille","lat":43.24161,"lon":5.36391,"is_reserved":false,"is_disabled":false,"rental_uris":{"android":"levelo://app?vid=f0d610df-f74e-4532-afd2-123c10ce2ba7","ios":"levelo://app?vid=f0d610df-f74e-4532-afd2-123c10ce2ba7"},"vehicle_type_id":"4","last_reported":1756289405,"current_range_meters":17200,"station_id":"cpo36qri1sfpv3e86is0","pricing_plan_id":"cebpf4jnsgd1na2vs0mg"},{"bike_id":"f2ffd311-4b12-4f8a-9de3-52907666b348","system_id":"levelo_inurba_marseille","lat":43.25338,"lon":5.42158,"is_reserved":false,"is_disabled":false,"rental_uris":{"android":"levelo://app?vid=f2ffd311-4b12-4f8a-9de3-52907666b348","ios":"levelo://app?vid=f2ffd311-4b12-4f8a-9de3-52907666b348"},"vehicle_type_id":"4","last_reported":1756289405,"current_range_meters":17600,"station_id":"st_d2m65c5bi1j21697t3ng","pricing_plan_id":"cebpf4jnsgd1na2vs0mg"},{"bike_id":"56c04261-47b9-41fc-b166-0497df898b6e","system_id":"levelo_inurba_marseille","lat":43.27553,"lon":5.38445,"is_reserved":false,"is_disabled":false,"rental_uris":{"android":"levelo://app?vid=56c04261-47b9-41fc-b166-0497df898b6e","ios":"levelo://app?vid=56c04261-47b9-41fc-b166-0497df898b6e"},"vehicle_type_id":"4","last_reported":1756289405,"current_range_meters":17600,"station_id":"ce4bhh92rcd13ifvqfi0","pricing_plan_id":"cebpf4jnsgd1na2vs0mg"},{"bike_id":"cdaac325-ff70-4ae1-8242-f4dabd7dd1e3","system_id":"levelo_inurba_marseille","lat":43.32477,"lon":5.36559,"is_reserved":false,"is_disabled":false,"rental_uris":{"android":"levelo://app?vid=cdaac325-ff70-4ae1-8242-f4dabd7dd1e3","ios":"levelo://app?vid=cdaac325-ff70-4ae1-8242-f4dabd7dd1e3"},"vehicle_type_id":"4","last_reported":1756289405,"current_range_meters":17600,"station_id":"ce4bhs12rcd13ifvqhvg","pricing_plan_id":"cebpf4jnsgd1na2vs0mg"},{"bike_id":"98c2f530-682d-4c6c-92e1-e7ae1af563d2","system_id":"levelo_inurba_marseille","lat":43.24547,"lon":5.39532,"is_reserved":false,"is_disabled":false,"rental_uris":{"android":"levelo://app?vid=98c2f530-682d-4c6c-92e1-e7ae1af563d2","ios":"levelo://app?vid=98c2f530-682d-4c6c-92e1-e7ae1af563d2"},"vehicle_type_id":"4","last_reported":1756289405,"current_range_meters":17600,"station_id":"ce4bhlp2rcd13ifvqgjg","pricing_plan_id":"cebpf4jnsgd1na2vs0mg"},{"bike_id":"96207dea-7bbf-4883-ab9a-820d9c447ab3","system_id":"levelo_inurba_marseille","lat":43.28415,"lon":5.34972,"is_reserved":false,"is_disabled":false,"rental_uris":{"android":"levelo://app?vid=96207dea-7bbf-4883-ab9a-820d9c447ab3","ios":"levelo://app?vid=96207dea-7bbf-4883-ab9a-820d9c447ab3"},"vehicle_type_id":"4","last_reported":1756289405,"current_range_meters":17600,"station_id":"ce4bhbh2rcd13ifvqepg","pricing_plan_id":"cebpf4jnsgd1na2vs0mg"},{"bike_id":"4e9e705b-7667-42c6-adf5-4a09a858987f","system_id":"levelo_inurba_marseille","lat":43.21189,"lon":5.3508,"is_reserved":false,"is_disabled":false,"rental_uris":{"android":"levelo://app?vid=4e9e705b-7667-42c6-adf5-4a09a858987f","ios":"levelo://app?vid=4e9e705b-7667-42c6-adf5-4a09a858987f"},"vehicle_type_id":"4","last_reported":1756289405,"current_range_meters":17600,"station_id":"st_cvj6sg6p6f1abm77japg","pricing_plan_id":"cebpf4jnsgd1na2vs0mg"},{"bike_id":"3c7732e2-f025-48a5-a48b-96efebe5b29c","system_id":"levelo_inurba_marseille","lat":43.3009,"lon":5.39078,"is_reserved":false,"is_disabled":false,"rental_uris":{"android":"levelo://app?vid=3c7732e2-f025-48a5-a48b-96efebe5b29c","ios":"levelo://app?vid=3c7732e2-f025-48a5-a48b-96efebe5b29c"},"vehicle_type_id":"4","last_reported":1756289405,"current_range_meters":17600,"station_id":"ce4bh192rcd13ifvqdb0","pricing_plan_id":"cebpf4jnsgd1na2vs0mg"},{"bike_id":"f4026001-0431-481e-ad0d-68ade8459c05","system_id":"levelo_inurba_marseille","lat":43.26547,"lon":5.3905,"is_reserved":false,"is_disabled":false,"rental_uris":{"android":"levelo://app?vid=f4026001-0431-481e-ad0d-68ade8459c05","ios":"levelo://app?vid=f4026001-0431-481e-ad0d-68ade8459c05"},"vehicle_type_id":"4","last_reported":1756289405,"current_range_meters":17600,"station_id":"ce4bhe12rcd13ifvqf30","pricing_plan_id":"cebpf4jnsgd1na2vs0mg"},{"bike_id":"bc4c6e1c-d694-4a7d-b3af-90d3bb1a77a1","system_id":"levelo_inurba_marseille","lat":43.21188,"lon":5.35093,"is_reserved":false,"is_disabled":false,"rental_uris":{"android":"levelo://app?vid=bc4c6e1c-d694-4a7d-b3af-90d3bb1a77a1","ios":"levelo://app?vid=bc4c6e1c-d694-4a7d-b3af-90d3bb1a77a1"},"vehicle_type_id":"4","last_reported":1756289405,"current_range_meters":18000,"station_id":"st_cvj6sg6p6f1abm77japg","pricing_plan_id":"cebpf4jnsgd1na2vs0mg"},{"bike_id":"32469966-fef0-44df-9385-7c133471989e","system_id":"levelo_inurba_marseille","lat":43.29001,"lon":5.35609,"is_reserved":false,"is_disabled":false,"rental_uris":{"android":"levelo://app?vid=32469966-fef0-44df-9385-7c133471989e","ios":"levelo://app?vid=32469966-fef0-44df-9385-7c133471989e"},"vehicle_type_id":"4","last_reported":1756289405,"current_range_meters":18000,"station_id":"ce4bhb92rcd13ifvqen0","pricing_plan_id":"cebpf4jnsgd1na2vs0mg"},{"bike_id":"8b70857e-88ef-462e-8f53-fa3c20de3807","system_id":"levelo_inurba_marseille","lat":43.21749,"lon":5.34594,"is_reserved":false,"is_disabled":false,"rental_uris":{"android":"levelo://app?vid=8b70857e-88ef-462e-8f53-fa3c20de3807","ios":"levelo://app?vid=8b70857e-88ef-462e-8f53-fa3c20de3807"},"vehicle_type_id":"4","last_reported":1756289405,"current_range_meters":18000,"station_id":"st_cvj6r9ubvosntc0bgbag","pricing_plan_id":"cebpf4jnsgd1na2vs0mg"},{"bike_id":"1ae98c97-cb84-4bf9-8cc0-7c92cd11d68a","system_id":"levelo_inurba_marseille","lat":43.27967,"lon":5.38728,"is_reserved":false,"is_disabled":false,"rental_uris":{"android":"levelo://app?vid=1ae98c97-cb84-4bf9-8cc0-7c92cd11d68a","ios":"levelo://app?vid=1ae98c97-cb84-4bf9-8cc0-7c92cd11d68a"},"vehicle_type_id":"4","last_reported":1756289405,"current_range_meters":18000,"station_id":"ce4bhg12rcd13ifvqf80","pricing_plan_id":"cebpf4jnsgd1na2vs0mg"},{"bike_id":"ffe6df59-3fc1-4d81-9326-f6f6418e7718","system_id":"levelo_inurba_marseille","lat":43.297562,"lon":5.373182,"is_reserved":false,"is_disabled":false,"rental_uris":{"android":"levelo://app?vid=ffe6df59-3fc1-4d81-9326-f6f6418e7718","ios":"levelo://app?vid=ffe6df59-3fc1-4d81-9326-f6f6418e7718"},"vehicle_type_id":"4","last_reported":1756289405,"current_range_meters":18000,"station_id":"","pricing_plan_id":"cebpf4jnsgd1na2vs0mg"},{"bike_id":"75846cdb-5ccb-4eb7-b4f2-e1a19945f801","system_id":"levelo_inurba_marseille","lat":43.31059,"lon":5.38336,"is_reserved":false,"is_disabled":true,"rental_uris":{"android":"levelo://app?vid=75846cdb-5ccb-4eb7-b4f2-e1a19945f801","ios":"levelo://app?vid=75846cdb-5ccb-4eb7-b4f2-e1a19945f801"},"vehicle_type_id":"4","last_reported":1756289405,"current_range_meters":18000,"station_id":"ce4bgv92rcd13ifvqcr0","pricing_plan_id":"cebpf4jnsgd1na2vs0mg"},{"bike_id":"19bf8938-c3ac-477a-9c27-edd856e98aab","system_id":"levelo_inurba_marseille","lat":43.28152,"lon":5.37857,"is_reserved":false,"is_disabled":false,"rental_uris":{"android":"levelo://app?vid=19bf8938-c3ac-477a-9c27-edd856e98aab","ios":"levelo://app?vid=19bf8938-c3ac-477a-9c27-edd856e98aab"},"vehicle_type_id":"4","last_reported":1756289405,"current_range_meters":18000,"station_id":"","pricing_plan_id":"cebpf4jnsgd1na2vs0mg"},{"bike_id":"23ae6fed-deff-411b-8b6e-f95e32ccd4d0","system_id":"levelo_inurba_marseille","lat":43.321294,"lon":5.367771,"is_reserved":false,"is_disabled":false,"rental_uris":{"android":"levelo://app?vid=23ae6fed-deff-411b-8b6e-f95e32ccd4d0","ios":"levelo://app?vid=23ae6fed-deff-411b-8b6e-f95e32ccd4d0"},"vehicle_type_id":"4","last_reported":1756289405,"current_range_meters":18000,"station_id":"ce4bhrh2rcd13ifvqhug","pricing_plan_id":"cebpf4jnsgd1na2vs0mg"},{"bike_id":"714d5c3f-5ed0-416d-abfd-48ed1fa771ef","system_id":"levelo_inurba_marseille","lat":43.211896,"lon":5.350747,"is_reserved":false,"is_disabled":false,"rental_uris":{"android":"levelo://app?vid=714d5c3f-5ed0-416d-abfd-48ed1fa771ef","ios":"levelo://app?vid=714d5c3f-5ed0-416d-abfd-48ed1fa771ef"},"vehicle_type_id":"4","last_reported":1756289405,"current_range_meters":18000,"station_id":"st_cvj6sg6p6f1abm77japg","pricing_plan_id":"cebpf4jnsgd1na2vs0mg"},{"bike_id":"97389277-1797-4bae-8136-8f62e17c6280","system_id":"levelo_inurba_marseille","lat":43.30388,"lon":5.4248,"is_reserved":false,"is_disabled":false,"rental_uris":{"android":"levelo://app?vid=97389277-1797-4bae-8136-8f62e17c6280","ios":"levelo://app?vid=97389277-1797-4bae-8136-8f62e17c6280"},"vehicle_type_id":"4","last_reported":1756289405,"current_range_meters":18000,"station_id":"ce4bhoh2rcd13ifvqh6g","pricing_plan_id":"cebpf4jnsgd1na2vs0mg"},{"bike_id":"ca43582f-1faa-43b9-8bc5-434d17ea2f02","system_id":"levelo_inurba_marseille","lat":43.292177,"lon":5.360726,"is_reserved":false,"is_disabled":false,"rental_uris":{"android":"levelo://app?vid=ca43582f-1faa-43b9-8bc5-434d17ea2f02","ios":"levelo://app?vid=ca43582f-1faa-43b9-8bc5-434d17ea2f02"},"vehicle_type_id":"4","last_reported":1756289405,"current_range_meters":18000,"station_id":"ce4bhbh2rcd13ifvqeqg","pricing_plan_id":"cebpf4jnsgd1na2vs0mg"},{"bike_id":"651c04c7-c2f3-4258-98c4-2abdeb471500","system_id":"levelo_inurba_marseille","lat":43.265514,"lon":5.372971,"is_reserved":false,"is_disabled":false,"rental_uris":{"android":"levelo://app?vid=651c04c7-c2f3-4258-98c4-2abdeb471500","ios":"levelo://app?vid=651c04c7-c2f3-4258-98c4-2abdeb471500"},"vehicle_type_id":"4","last_reported":1756289405,"current_range_meters":18000,"station_id":"ce4bhg12rcd13ifvqf70","pricing_plan_id":"cebpf4jnsgd1na2vs0mg"},{"bike_id":"e2fbebd2-5cfb-46ea-9a6c-7ce580038f3c","system_id":"levelo_inurba_marseille","lat":43.31765,"lon":5.39008,"is_reserved":false,"is_disabled":false,"rental_uris":{"android":"levelo://app?vid=e2fbebd2-5cfb-46ea-9a6c-7ce580038f3c","ios":"levelo://app?vid=e2fbebd2-5cfb-46ea-9a6c-7ce580038f3c"},"vehicle_type_id":"4","last_reported":1756289405,"current_range_meters":18000,"station_id":"ce4bhqp2rcd13ifvqhng","pricing_plan_id":"cebpf4jnsgd1na2vs0mg"},{"bike_id":"8df4d72a-2534-4225-b0d0-5b48bd4c7385","system_id":"levelo_inurba_marseille","lat":43.294398,"lon":5.397596,"is_reserved":false,"is_disabled":false,"rental_uris":{"android":"levelo://app?vid=8df4d72a-2534-4225-b0d0-5b48bd4c7385","ios":"levelo://app?vid=8df4d72a-2534-4225-b0d0-5b48bd4c7385"},"vehicle_type_id":"4","last_reported":1756289405,"current_range_meters":18800,"station_id":"ce4bh3h2rcd13ifvqdo0","pricing_plan_id":"cebpf4jnsgd1na2vs0mg"},{"bike_id":"ec0f9f0d-0796-42ac-9cf5-bb8596cdf342","system_id":"levelo_inurba_marseille","lat":43.21186,"lon":5.35082,"is_reserved":false,"is_disabled":false,"rental_uris":{"android":"levelo://app?vid=ec0f9f0d-0796-42ac-9cf5-bb8596cdf342","ios":"levelo://app?vid=ec0f9f0d-0796-42ac-9cf5-bb8596cdf342"},"vehicle_type_id":"4","last_reported":1756289405,"current_range_meters":18800,"station_id":"","pricing_plan_id":"cebpf4jnsgd1na2vs0mg"},{"bike_id":"95973e18-1339-4596-a205-8df1bd7fef1f","system_id":"levelo_inurba_marseille","lat":43.231907,"lon":5.355578,"is_reserved":false,"is_disabled":false,"rental_uris":{"android":"levelo://app?vid=95973e18-1339-4596-a205-8df1bd7fef1f","ios":"levelo://app?vid=95973e18-1339-4596-a205-8df1bd7fef1f"},"vehicle_type_id":"4","last_reported":1756289405,"current_range_meters":18800,"station_id":"ce4bhu92rcd13ifvqi70","pricing_plan_id":"cebpf4jnsgd1na2vs0mg"},{"bike_id":"844dcdad-0a59-44de-9018-71d4e02c3d32","system_id":"levelo_inurba_marseille","lat":43.30128,"lon":5.39871,"is_reserved":false,"is_disabled":false,"rental_uris":{"android":"levelo://app?vid=844dcdad-0a59-44de-9018-71d4e02c3d32","ios":"levelo://app?vid=844dcdad-0a59-44de-9018-71d4e02c3d32"},"vehicle_type_id":"4","last_reported":1756289405,"current_range_meters":18800,"station_id":"ce4bh0h2rcd13ifvqd40","pricing_plan_id":"cebpf4jnsgd1na2vs0mg"},{"bike_id":"05d97e45-19dc-4128-88fe-ffa6fa61464f","system_id":"levelo_inurba_marseille","lat":43.26222,"lon":5.37451,"is_reserved":false,"is_disabled":false,"rental_uris":{"android":"levelo://app?vid=05d97e45-19dc-4128-88fe-ffa6fa61464f","ios":"levelo://app?vid=05d97e45-19dc-4128-88fe-ffa6fa61464f"},"vehicle_type_id":"4","last_reported":1756289405,"current_range_meters":18800,"station_id":"ce4bhgp2rcd13ifvqfc0","pricing_plan_id":"cebpf4jnsgd1na2vs0mg"},{"bike_id":"98fd0442-d223-4ab6-99b3-86de3db27ae3","system_id":"levelo_inurba_marseille","lat":43.30546,"lon":5.36541,"is_reserved":false,"is_disabled":false,"rental_uris":{"android":"levelo://app?vid=98fd0442-d223-4ab6-99b3-86de3db27ae3","ios":"levelo://app?vid=98fd0442-d223-4ab6-99b3-86de3db27ae3"},"vehicle_type_id":"4","last_reported":1756289405,"current_range_meters":18800,"station_id":"ce4bgs12rcd13ifvqcag","pricing_plan_id":"cebpf4jnsgd1na2vs0mg"},{"bike_id":"1b2200de-38b0-4081-a392-576150449132","system_id":"levelo_inurba_marseille","lat":43.29836,"lon":5.36265,"is_reserved":false,"is_disabled":false,"rental_uris":{"android":"levelo://app?vid=1b2200de-38b0-4081-a392-576150449132","ios":"levelo://app?vid=1b2200de-38b0-4081-a392-576150449132"},"vehicle_type_id":"4","last_reported":1756289405,"current_range_meters":18800,"station_id":"ce4bgpp2rcd13ifvqc3g","pricing_plan_id":"cebpf4jnsgd1na2vs0mg"},{"bike_id":"d538927b-4498-4fc8-a759-57068b0ef415","system_id":"levelo_inurba_marseille","lat":43.29932,"lon":5.36535,"is_reserved":false,"is_disabled":false,"rental_uris":{"android":"levelo://app?vid=d538927b-4498-4fc8-a759-57068b0ef415","ios":"levelo://app?vid=d538927b-4498-4fc8-a759-57068b0ef415"},"vehicle_type_id":"4","last_reported":1756289405,"current_range_meters":19200,"station_id":"ce4bgm92rcd13ifvqbr0","pricing_plan_id":"cebpf4jnsgd1na2vs0mg"},{"bike_id":"1091f287-02ee-4a66-888b-59c35fd65791","system_id":"levelo_inurba_marseille","lat":43.23189,"lon":5.35555,"is_reserved":false,"is_disabled":false,"rental_uris":{"android":"levelo://app?vid=1091f287-02ee-4a66-888b-59c35fd65791","ios":"levelo://app?vid=1091f287-02ee-4a66-888b-59c35fd65791"},"vehicle_type_id":"4","last_reported":1756289405,"current_range_meters":19200,"station_id":"ce4bhu92rcd13ifvqi70","pricing_plan_id":"cebpf4jnsgd1na2vs0mg"},{"bike_id":"64d71690-a1ff-46c5-8b53-847ec594fbff","system_id":"levelo_inurba_marseille","lat":43.304145,"lon":5.412812,"is_reserved":false,"is_disabled":false,"rental_uris":{"android":"levelo://app?vid=64d71690-a1ff-46c5-8b53-847ec594fbff","ios":"levelo://app?vid=64d71690-a1ff-46c5-8b53-847ec594fbff"},"vehicle_type_id":"4","last_reported":1756289405,"current_range_meters":19200,"station_id":"ce4bhop2rcd13ifvqh8g","pricing_plan_id":"cebpf4jnsgd1na2vs0mg"},{"bike_id":"0337ea93-caa5-43b1-9318-3a0b1b28be55","system_id":"levelo_inurba_marseille","lat":43.31669,"lon":5.43712,"is_reserved":false,"is_disabled":false,"rental_uris":{"android":"levelo://app?vid=0337ea93-caa5-43b1-9318-3a0b1b28be55","ios":"levelo://app?vid=0337ea93-caa5-43b1-9318-3a0b1b28be55"},"vehicle_type_id":"4","last_reported":1756289405,"current_range_meters":19200,"station_id":"ce4bhp92rcd13ifvqhcg","pricing_plan_id":"cebpf4jnsgd1na2vs0mg"},{"bike_id":"2c246624-962d-4f72-8341-3c6523db29ef","system_id":"levelo_inurba_marseille","lat":43.26564,"lon":5.37275,"is_reserved":false,"is_disabled":true,"rental_uris":{"android":"levelo://app?vid=2c246624-962d-4f72-8341-3c6523db29ef","ios":"levelo://app?vid=2c246624-962d-4f72-8341-3c6523db29ef"},"vehicle_type_id":"4","last_reported":1756289405,"current_range_meters":19200,"station_id":"ce4bhg12rcd13ifvqf70","pricing_plan_id":"cebpf4jnsgd1na2vs0mg"},{"bike_id":"067cabaf-1dbc-4b76-b558-a45e8ab12a03","system_id":"levelo_inurba_marseille","lat":43.3077,"lon":5.37632,"is_reserved":false,"is_disabled":false,"rental_uris":{"android":"levelo://app?vid=067cabaf-1dbc-4b76-b558-a45e8ab12a03","ios":"levelo://app?vid=067cabaf-1dbc-4b76-b558-a45e8ab12a03"},"vehicle_type_id":"4","last_reported":1756289405,"current_range_meters":19200,"station_id":"ce4bgv92rcd13ifvqcq0","pricing_plan_id":"cebpf4jnsgd1na2vs0mg"},{"bike_id":"fd3264d9-d6d9-41c6-bdae-fe1f328ad6ea","system_id":"levelo_inurba_marseille","lat":43.283482,"lon":5.381017,"is_reserved":false,"is_disabled":false,"rental_uris":{"android":"levelo://app?vid=fd3264d9-d6d9-41c6-bdae-fe1f328ad6ea","ios":"levelo://app?vid=fd3264d9-d6d9-41c6-bdae-fe1f328ad6ea"},"vehicle_type_id":"4","last_reported":1756289405,"current_range_meters":19200,"station_id":"ce4bh412rcd13ifvqdr0","pricing_plan_id":"cebpf4jnsgd1na2vs0mg"},{"bike_id":"7f96cfc7-6b62-4cd3-a164-5a1ee471a17d","system_id":"levelo_inurba_marseille","lat":43.305397,"lon":5.365486,"is_reserved":false,"is_disabled":false,"rental_uris":{"android":"levelo://app?vid=7f96cfc7-6b62-4cd3-a164-5a1ee471a17d","ios":"levelo://app?vid=7f96cfc7-6b62-4cd3-a164-5a1ee471a17d"},"vehicle_type_id":"4","last_reported":1756289405,"current_range_meters":19200,"station_id":"ce4bgs12rcd13ifvqcag","pricing_plan_id":"cebpf4jnsgd1na2vs0mg"},{"bike_id":"5c9729a9-14ab-45c9-8df1-449545c4b230","system_id":"levelo_inurba_marseille","lat":43.29586,"lon":5.375227,"is_reserved":false,"is_disabled":false,"rental_uris":{"android":"levelo://app?vid=5c9729a9-14ab-45c9-8df1-449545c4b230","ios":"levelo://app?vid=5c9729a9-14ab-45c9-8df1-449545c4b230"},"vehicle_type_id":"4","last_reported":1756289405,"current_range_meters":19600,"station_id":"","pricing_plan_id":"cebpf4jnsgd1na2vs0mg"},{"bike_id":"9e39c44e-cf49-4782-8537-cf9f64cdf7e9","system_id":"levelo_inurba_marseille","lat":43.28346,"lon":5.38105,"is_reserved":false,"is_disabled":false,"rental_uris":{"android":"levelo://app?vid=9e39c44e-cf49-4782-8537-cf9f64cdf7e9","ios":"levelo://app?vid=9e39c44e-cf49-4782-8537-cf9f64cdf7e9"},"vehicle_type_id":"4","last_reported":1756289405,"current_range_meters":19600,"station_id":"ce4bh412rcd13ifvqdr0","pricing_plan_id":"cebpf4jnsgd1na2vs0mg"},{"bike_id":"9ffe2477-6b20-444e-ab9a-6909209533de","system_id":"levelo_inurba_marseille","lat":43.26675,"lon":5.38272,"is_reserved":false,"is_disabled":false,"rental_uris":{"android":"levelo://app?vid=9ffe2477-6b20-444e-ab9a-6909209533de","ios":"levelo://app?vid=9ffe2477-6b20-444e-ab9a-6909209533de"},"vehicle_type_id":"4","last_reported":1756289405,"current_range_meters":19600,"station_id":"ce4bhg92rcd13ifvqf90","pricing_plan_id":"cebpf4jnsgd1na2vs0mg"},{"bike_id":"273eac3d-362a-419b-83a2-2423e6e318c7","system_id":"levelo_inurba_marseille","lat":43.283474,"lon":5.381118,"is_reserved":false,"is_disabled":false,"rental_uris":{"android":"levelo://app?vid=273eac3d-362a-419b-83a2-2423e6e318c7","ios":"levelo://app?vid=273eac3d-362a-419b-83a2-2423e6e318c7"},"vehicle_type_id":"4","last_reported":1756289405,"current_range_meters":19600,"station_id":"ce4bh412rcd13ifvqdr0","pricing_plan_id":"cebpf4jnsgd1na2vs0mg"},{"bike_id":"831a2354-0919-4530-8e5a-84c32dcc2c03","system_id":"levelo_inurba_marseille","lat":43.272052,"lon":5.391826,"is_reserved":false,"is_disabled":false,"rental_uris":{"android":"levelo://app?vid=831a2354-0919-4530-8e5a-84c32dcc2c03","ios":"levelo://app?vid=831a2354-0919-4530-8e5a-84c32dcc2c03"},"vehicle_type_id":"4","last_reported":1756289405,"current_range_meters":19600,"station_id":"","pricing_plan_id":"cebpf4jnsgd1na2vs0mg"},{"bike_id":"41206d24-710d-406c-91e0-c06bb1a64813","system_id":"levelo_inurba_marseille","lat":43.305542,"lon":5.36543,"is_reserved":false,"is_disabled":false,"rental_uris":{"android":"levelo://app?vid=41206d24-710d-406c-91e0-c06bb1a64813","ios":"levelo://app?vid=41206d24-710d-406c-91e0-c06bb1a64813"},"vehicle_type_id":"4","last_reported":1756289405,"current_range_meters":19600,"station_id":"ce4bgs12rcd13ifvqcag","pricing_plan_id":"cebpf4jnsgd1na2vs0mg"},{"bike_id":"9c5c6049-886e-40e7-af7e-4b4f5e712fa3","system_id":"levelo_inurba_marseille","lat":43.293023,"lon":5.374612,"is_reserved":false,"is_disabled":false,"rental_uris":{"android":"levelo://app?vid=9c5c6049-886e-40e7-af7e-4b4f5e712fa3","ios":"levelo://app?vid=9c5c6049-886e-40e7-af7e-4b4f5e712fa3"},"vehicle_type_id":"4","last_reported":1756289405,"current_range_meters":19600,"station_id":"ce4bgi12rcd13ifvqb70","pricing_plan_id":"cebpf4jnsgd1na2vs0mg"},{"bike_id":"c49fc999-d667-49b3-a295-acf17ab550d3","system_id":"levelo_inurba_marseille","lat":43.283464,"lon":5.381062,"is_reserved":false,"is_disabled":false,"rental_uris":{"android":"levelo://app?vid=c49fc999-d667-49b3-a295-acf17ab550d3","ios":"levelo://app?vid=c49fc999-d667-49b3-a295-acf17ab550d3"},"vehicle_type_id":"4","last_reported":1756289405,"current_range_meters":19600,"station_id":"ce4bh412rcd13ifvqdr0","pricing_plan_id":"cebpf4jnsgd1na2vs0mg"},{"bike_id":"a71d0bca-bc7c-4692-bf55-794c9f5c67fc","system_id":"levelo_inurba_marseille","lat":43.305191,"lon":5.365498,"is_reserved":false,"is_disabled":false,"rental_uris":{"android":"levelo://app?vid=a71d0bca-bc7c-4692-bf55-794c9f5c67fc","ios":"levelo://app?vid=a71d0bca-bc7c-4692-bf55-794c9f5c67fc"},"vehicle_type_id":"4","last_reported":1756289405,"current_range_meters":19600,"station_id":"ce4bgs12rcd13ifvqcag","pricing_plan_id":"cebpf4jnsgd1na2vs0mg"},{"bike_id":"e6355257-0814-4cf5-8dbe-cf3412b6ec52","system_id":"levelo_inurba_marseille","lat":43.27205,"lon":5.40976,"is_reserved":false,"is_disabled":false,"rental_uris":{"android":"levelo://app?vid=e6355257-0814-4cf5-8dbe-cf3412b6ec52","ios":"levelo://app?vid=e6355257-0814-4cf5-8dbe-cf3412b6ec52"},"vehicle_type_id":"4","last_reported":1756289405,"current_range_meters":19600,"station_id":"ce4bhl12rcd13ifvqgf0","pricing_plan_id":"cebpf4jnsgd1na2vs0mg"},{"bike_id":"aa79dc37-fdb6-4332-b501-f06909704d2b","system_id":"levelo_inurba_marseille","lat":43.27169,"lon":5.40991,"is_reserved":false,"is_disabled":false,"rental_uris":{"android":"levelo://app?vid=aa79dc37-fdb6-4332-b501-f06909704d2b","ios":"levelo://app?vid=aa79dc37-fdb6-4332-b501-f06909704d2b"},"vehicle_type_id":"4","last_reported":1756289405,"current_range_meters":19200,"station_id":"ce4bhl12rcd13ifvqgf0","pricing_plan_id":"cebpf4jnsgd1na2vs0mg"},{"bike_id":"d5ddba13-42df-4115-9aa1-5bdce53e55a3","system_id":"levelo_inurba_marseille","lat":43.30548,"lon":5.36519,"is_reserved":false,"is_disabled":false,"rental_uris":{"android":"levelo://app?vid=d5ddba13-42df-4115-9aa1-5bdce53e55a3","ios":"levelo://app?vid=d5ddba13-42df-4115-9aa1-5bdce53e55a3"},"vehicle_type_id":"4","last_reported":1756289405,"current_range_meters":20000,"station_id":"ce4bgs12rcd13ifvqcag","pricing_plan_id":"cebpf4jnsgd1na2vs0mg"},{"bike_id":"fc71f842-e64d-43bd-9647-da6d65922fdf","system_id":"levelo_inurba_marseille","lat":43.21748,"lon":5.34598,"is_reserved":false,"is_disabled":false,"rental_uris":{"android":"levelo://app?vid=fc71f842-e64d-43bd-9647-da6d65922fdf","ios":"levelo://app?vid=fc71f842-e64d-43bd-9647-da6d65922fdf"},"vehicle_type_id":"4","last_reported":1756289405,"current_range_meters":20000,"station_id":"st_cvj6r9ubvosntc0bgbag","pricing_plan_id":"cebpf4jnsgd1na2vs0mg"},{"bike_id":"00865bff-72de-47be-acda-9cf6ec16a836","system_id":"levelo_inurba_marseille","lat":43.320962,"lon":5.367791,"is_reserved":false,"is_disabled":false,"rental_uris":{"android":"levelo://app?vid=00865bff-72de-47be-acda-9cf6ec16a836","ios":"levelo://app?vid=00865bff-72de-47be-acda-9cf6ec16a836"},"vehicle_type_id":"4","last_reported":1756289405,"current_range_meters":20000,"station_id":"ce4bhrh2rcd13ifvqhug","pricing_plan_id":"cebpf4jnsgd1na2vs0mg"},{"bike_id":"fe4c687c-75c4-4ddb-a4c0-df7b03e53de7","system_id":"levelo_inurba_marseille","lat":43.304397,"lon":5.38898,"is_reserved":false,"is_disabled":false,"rental_uris":{"android":"levelo://app?vid=fe4c687c-75c4-4ddb-a4c0-df7b03e53de7","ios":"levelo://app?vid=fe4c687c-75c4-4ddb-a4c0-df7b03e53de7"},"vehicle_type_id":"4","last_reported":1756289405,"current_range_meters":19600,"station_id":"ce4bgk12rcd13ifvqbi0","pricing_plan_id":"cebpf4jnsgd1na2vs0mg"},{"bike_id":"890f2015-9908-4460-b5f3-ed292db7e6fb","system_id":"levelo_inurba_marseille","lat":43.26547,"lon":5.37284,"is_reserved":false,"is_disabled":false,"rental_uris":{"android":"levelo://app?vid=890f2015-9908-4460-b5f3-ed292db7e6fb","ios":"levelo://app?vid=890f2015-9908-4460-b5f3-ed292db7e6fb"},"vehicle_type_id":"4","last_reported":1756289405,"current_range_meters":20000,"station_id":"ce4bhg12rcd13ifvqf70","pricing_plan_id":"cebpf4jnsgd1na2vs0mg"},{"bike_id":"07296681-3400-48d5-88e2-c863a00e5bf3","system_id":"levelo_inurba_marseille","lat":43.22934,"lon":5.35375,"is_reserved":false,"is_disabled":false,"rental_uris":{"android":"levelo://app?vid=07296681-3400-48d5-88e2-c863a00e5bf3","ios":"levelo://app?vid=07296681-3400-48d5-88e2-c863a00e5bf3"},"vehicle_type_id":"4","last_reported":1756289405,"current_range_meters":20000,"station_id":"cpo3532slgdg3j2ikp40","pricing_plan_id":"cebpf4jnsgd1na2vs0mg"},{"bike_id":"0360a5ff-a0b5-4e93-bc3b-718c480be5db","system_id":"levelo_inurba_marseille","lat":43.23188,"lon":5.39991,"is_reserved":false,"is_disabled":false,"rental_uris":{"android":"levelo://app?vid=0360a5ff-a0b5-4e93-bc3b-718c480be5db","ios":"levelo://app?vid=0360a5ff-a0b5-4e93-bc3b-718c480be5db"},"vehicle_type_id":"4","last_reported":1756289405,"current_range_meters":20000,"station_id":"ce4bhn12rcd13ifvqgqg","pricing_plan_id":"cebpf4jnsgd1na2vs0mg"},{"bike_id":"f0ecb8b7-5cf6-4b1b-ba1d-b9669c09f190","system_id":"levelo_inurba_marseille","lat":43.29624,"lon":5.37725,"is_reserved":false,"is_disabled":false,"rental_uris":{"android":"levelo://app?vid=f0ecb8b7-5cf6-4b1b-ba1d-b9669c09f190","ios":"levelo://app?vid=f0ecb8b7-5cf6-4b1b-ba1d-b9669c09f190"},"vehicle_type_id":"4","last_reported":1756289405,"current_range_meters":19600,"station_id":"ce4bgi92rcd13ifvqb90","pricing_plan_id":"cebpf4jnsgd1na2vs0mg"},{"bike_id":"03080dce-1f55-4d92-8992-940a7cb2a486","system_id":"levelo_inurba_marseille","lat":43.21739,"lon":5.34618,"is_reserved":false,"is_disabled":false,"rental_uris":{"android":"levelo://app?vid=03080dce-1f55-4d92-8992-940a7cb2a486","ios":"levelo://app?vid=03080dce-1f55-4d92-8992-940a7cb2a486"},"vehicle_type_id":"4","last_reported":1756289405,"current_range_meters":20400,"station_id":"st_cvj6r9ubvosntc0bgbag","pricing_plan_id":"cebpf4jnsgd1na2vs0mg"},{"bike_id":"9b376013-1b8a-4834-bd67-7c283f5ae10a","system_id":"levelo_inurba_marseille","lat":43.32339,"lon":5.40616,"is_reserved":false,"is_disabled":false,"rental_uris":{"android":"levelo://app?vid=9b376013-1b8a-4834-bd67-7c283f5ae10a","ios":"levelo://app?vid=9b376013-1b8a-4834-bd67-7c283f5ae10a"},"vehicle_type_id":"4","last_reported":1756289405,"current_range_meters":20400,"station_id":"ce4bhq92rcd13ifvqhjg","pricing_plan_id":"cebpf4jnsgd1na2vs0mg"},{"bike_id":"20c40bc5-0fe7-4d2a-aeac-3e4dba377090","system_id":"levelo_inurba_marseille","lat":43.31486,"lon":5.37302,"is_reserved":false,"is_disabled":false,"rental_uris":{"android":"levelo://app?vid=20c40bc5-0fe7-4d2a-aeac-3e4dba377090","ios":"levelo://app?vid=20c40bc5-0fe7-4d2a-aeac-3e4dba377090"},"vehicle_type_id":"4","last_reported":1756289405,"current_range_meters":20400,"station_id":"ce4bgt12rcd13ifvqcd0","pricing_plan_id":"cebpf4jnsgd1na2vs0mg"},{"bike_id":"8e461108-c550-4fb0-ad47-afd78d4c1ee1","system_id":"levelo_inurba_marseille","lat":43.22918,"lon":5.35373,"is_reserved":false,"is_disabled":false,"rental_uris":{"android":"levelo://app?vid=8e461108-c550-4fb0-ad47-afd78d4c1ee1","ios":"levelo://app?vid=8e461108-c550-4fb0-ad47-afd78d4c1ee1"},"vehicle_type_id":"4","last_reported":1756289405,"current_range_meters":20400,"station_id":"cpo3532slgdg3j2ikp40","pricing_plan_id":"cebpf4jnsgd1na2vs0mg"},{"bike_id":"efdd5748-f8fc-4667-80db-927ea43ee301","system_id":"levelo_inurba_marseille","lat":43.27985,"lon":5.4167,"is_reserved":false,"is_disabled":false,"rental_uris":{"android":"levelo://app?vid=efdd5748-f8fc-4667-80db-927ea43ee301","ios":"levelo://app?vid=efdd5748-f8fc-4667-80db-927ea43ee301"},"vehicle_type_id":"4","last_reported":1756289405,"current_range_meters":20400,"station_id":"ce4bho12rcd13ifvqh1g","pricing_plan_id":"cebpf4jnsgd1na2vs0mg"},{"bike_id":"56d20431-008c-46a6-a254-50d49b02657f","system_id":"levelo_inurba_marseille","lat":43.29534,"lon":5.3749,"is_reserved":false,"is_disabled":false,"rental_uris":{"android":"levelo://app?vid=56d20431-008c-46a6-a254-50d49b02657f","ios":"levelo://app?vid=56d20431-008c-46a6-a254-50d49b02657f"},"vehicle_type_id":"4","last_reported":1756289405,"current_range_meters":20000,"station_id":"ce4bgkp2rcd13ifvqbmg","pricing_plan_id":"cebpf4jnsgd1na2vs0mg"},{"bike_id":"8995d051-3d4a-4bfd-b4ef-e2bb6adc8631","system_id":"levelo_inurba_marseille","lat":43.269567,"lon":5.386173,"is_reserved":false,"is_disabled":false,"rental_uris":{"android":"levelo://app?vid=8995d051-3d4a-4bfd-b4ef-e2bb6adc8631","ios":"levelo://app?vid=8995d051-3d4a-4bfd-b4ef-e2bb6adc8631"},"vehicle_type_id":"4","last_reported":1756289405,"current_range_meters":20400,"station_id":"","pricing_plan_id":"cebpf4jnsgd1na2vs0mg"},{"bike_id":"fef7db51-af84-4646-a030-0e5c21223f99","system_id":"levelo_inurba_marseille","lat":43.30135,"lon":5.38774,"is_reserved":false,"is_disabled":false,"rental_uris":{"android":"levelo://app?vid=fef7db51-af84-4646-a030-0e5c21223f99","ios":"levelo://app?vid=fef7db51-af84-4646-a030-0e5c21223f99"},"vehicle_type_id":"4","last_reported":1756289405,"current_range_meters":20400,"station_id":"ce4bghh2rcd13ifvqb60","pricing_plan_id":"cebpf4jnsgd1na2vs0mg"},{"bike_id":"29c55d68-58c5-4ef2-b442-72bb9c55ddb0","system_id":"levelo_inurba_marseille","lat":43.323621,"lon":5.367484,"is_reserved":false,"is_disabled":false,"rental_uris":{"android":"levelo://app?vid=29c55d68-58c5-4ef2-b442-72bb9c55ddb0","ios":"levelo://app?vid=29c55d68-58c5-4ef2-b442-72bb9c55ddb0"},"vehicle_type_id":"4","last_reported":1756289405,"current_range_meters":20400,"station_id":"ce4bhsh2rcd13ifvqi2g","pricing_plan_id":"cebpf4jnsgd1na2vs0mg"},{"bike_id":"bf52a9ce-e95f-4729-bdf8-1881daff9620","system_id":"levelo_inurba_marseille","lat":43.290345,"lon":5.399589,"is_reserved":false,"is_disabled":false,"rental_uris":{"android":"levelo://app?vid=bf52a9ce-e95f-4729-bdf8-1881daff9620","ios":"levelo://app?vid=bf52a9ce-e95f-4729-bdf8-1881daff9620"},"vehicle_type_id":"4","last_reported":1756289405,"current_range_meters":20400,"station_id":"ce4bh392rcd13ifvqdm0","pricing_plan_id":"cebpf4jnsgd1na2vs0mg"},{"bike_id":"235f6736-b27c-4acb-85b6-2737351c15a6","system_id":"levelo_inurba_marseille","lat":43.3019,"lon":5.36625,"is_reserved":false,"is_disabled":false,"rental_uris":{"android":"levelo://app?vid=235f6736-b27c-4acb-85b6-2737351c15a6","ios":"levelo://app?vid=235f6736-b27c-4acb-85b6-2737351c15a6"},"vehicle_type_id":"4","last_reported":1756289405,"current_range_meters":20800,"station_id":"ce4bgrh2rcd13ifvqc8g","pricing_plan_id":"cebpf4jnsgd1na2vs0mg"},{"bike_id":"43fb1eda-8f7d-4377-9b57-f38a0ecb5909","system_id":"levelo_inurba_marseille","lat":43.26218,"lon":5.37435,"is_reserved":false,"is_disabled":false,"rental_uris":{"android":"levelo://app?vid=43fb1eda-8f7d-4377-9b57-f38a0ecb5909","ios":"levelo://app?vid=43fb1eda-8f7d-4377-9b57-f38a0ecb5909"},"vehicle_type_id":"4","last_reported":1756289405,"current_range_meters":20800,"station_id":"ce4bhgp2rcd13ifvqfc0","pricing_plan_id":"cebpf4jnsgd1na2vs0mg"},{"bike_id":"fa29b17b-c2ba-4e4a-af42-109271f6d626","system_id":"levelo_inurba_marseille","lat":43.27057,"lon":5.40256,"is_reserved":false,"is_disabled":false,"rental_uris":{"android":"levelo://app?vid=fa29b17b-c2ba-4e4a-af42-109271f6d626","ios":"levelo://app?vid=fa29b17b-c2ba-4e4a-af42-109271f6d626"},"vehicle_type_id":"4","last_reported":1756289405,"current_range_meters":20800,"station_id":"ce4bhk92rcd13ifvqgc0","pricing_plan_id":"cebpf4jnsgd1na2vs0mg"},{"bike_id":"b59e2329-0e5a-4b19-825c-9c1f5102801f","system_id":"levelo_inurba_marseille","lat":43.28261,"lon":5.35065,"is_reserved":false,"is_disabled":false,"rental_uris":{"android":"levelo://app?vid=b59e2329-0e5a-4b19-825c-9c1f5102801f","ios":"levelo://app?vid=b59e2329-0e5a-4b19-825c-9c1f5102801f"},"vehicle_type_id":"4","last_reported":1756289405,"current_range_meters":20800,"station_id":"ce4bhbp2rcd13ifvqerg","pricing_plan_id":"cebpf4jnsgd1na2vs0mg"},{"bike_id":"3f90b47f-2c2f-4ba4-b8d3-1666ede67645","system_id":"levelo_inurba_marseille","lat":43.3116,"lon":5.37761,"is_reserved":false,"is_disabled":false,"rental_uris":{"android":"levelo://app?vid=3f90b47f-2c2f-4ba4-b8d3-1666ede67645","ios":"levelo://app?vid=3f90b47f-2c2f-4ba4-b8d3-1666ede67645"},"vehicle_type_id":"4","last_reported":1756289405,"current_range_meters":20800,"station_id":"","pricing_plan_id":"cebpf4jnsgd1na2vs0mg"},{"bike_id":"c7947910-f6df-4351-95cb-ad7cab6a3f07","system_id":"levelo_inurba_marseille","lat":43.3077,"lon":5.37664,"is_reserved":false,"is_disabled":true,"rental_uris":{"android":"levelo://app?vid=c7947910-f6df-4351-95cb-ad7cab6a3f07","ios":"levelo://app?vid=c7947910-f6df-4351-95cb-ad7cab6a3f07"},"vehicle_type_id":"4","last_reported":1756289405,"current_range_meters":20800,"station_id":"ce4bgv92rcd13ifvqcq0","pricing_plan_id":"cebpf4jnsgd1na2vs0mg"},{"bike_id":"76b1abd0-5496-4bea-8a8b-147f0f8a0a3d","system_id":"levelo_inurba_marseille","lat":43.30119,"lon":5.39855,"is_reserved":false,"is_disabled":false,"rental_uris":{"android":"levelo://app?vid=76b1abd0-5496-4bea-8a8b-147f0f8a0a3d","ios":"levelo://app?vid=76b1abd0-5496-4bea-8a8b-147f0f8a0a3d"},"vehicle_type_id":"4","last_reported":1756289405,"current_range_meters":20800,"station_id":"ce4bh0h2rcd13ifvqd40","pricing_plan_id":"cebpf4jnsgd1na2vs0mg"},{"bike_id":"7a9e171c-7025-463d-9cb0-c320e5f2bd68","system_id":"levelo_inurba_marseille","lat":43.30595,"lon":5.37234,"is_reserved":false,"is_disabled":false,"rental_uris":{"android":"levelo://app?vid=7a9e171c-7025-463d-9cb0-c320e5f2bd68","ios":"levelo://app?vid=7a9e171c-7025-463d-9cb0-c320e5f2bd68"},"vehicle_type_id":"4","last_reported":1756289405,"current_range_meters":20400,"station_id":"ce4bgqh2rcd13ifvqc4g","pricing_plan_id":"cebpf4jnsgd1na2vs0mg"},{"bike_id":"575187ef-edf3-4cae-91ee-8cbe54cf7ad4","system_id":"levelo_inurba_marseille","lat":43.30146,"lon":5.38087,"is_reserved":false,"is_disabled":false,"rental_uris":{"android":"levelo://app?vid=575187ef-edf3-4cae-91ee-8cbe54cf7ad4","ios":"levelo://app?vid=575187ef-edf3-4cae-91ee-8cbe54cf7ad4"},"vehicle_type_id":"4","last_reported":1756289405,"current_range_meters":20800,"station_id":"ce4bgjp2rcd13ifvqbh0","pricing_plan_id":"cebpf4jnsgd1na2vs0mg"},{"bike_id":"152991b6-cb71-4c71-8b74-02feb30c2d3b","system_id":"levelo_inurba_marseille","lat":43.30447,"lon":5.37913,"is_reserved":false,"is_disabled":false,"rental_uris":{"android":"levelo://app?vid=152991b6-cb71-4c71-8b74-02feb30c2d3b","ios":"levelo://app?vid=152991b6-cb71-4c71-8b74-02feb30c2d3b"},"vehicle_type_id":"4","last_reported":1756289405,"current_range_meters":21600,"station_id":"ce4bgup2rcd13ifvqcn0","pricing_plan_id":"cebpf4jnsgd1na2vs0mg"},{"bike_id":"0eb856e3-807d-4866-977d-46d4eb17c322","system_id":"levelo_inurba_marseille","lat":43.31697,"lon":5.37736,"is_reserved":false,"is_disabled":false,"rental_uris":{"android":"levelo://app?vid=0eb856e3-807d-4866-977d-46d4eb17c322","ios":"levelo://app?vid=0eb856e3-807d-4866-977d-46d4eb17c322"},"vehicle_type_id":"4","last_reported":1756289405,"current_range_meters":21600,"station_id":"ce4bgth2rcd13ifvqch0","pricing_plan_id":"cebpf4jnsgd1na2vs0mg"},{"bike_id":"54e2254c-191f-48ef-bb16-470a88bbd95c","system_id":"levelo_inurba_marseille","lat":43.29242,"lon":5.40915,"is_reserved":false,"is_disabled":false,"rental_uris":{"android":"levelo://app?vid=54e2254c-191f-48ef-bb16-470a88bbd95c","ios":"levelo://app?vid=54e2254c-191f-48ef-bb16-470a88bbd95c"},"vehicle_type_id":"4","last_reported":1756289405,"current_range_meters":21600,"station_id":"ce4bh192rcd13ifvqdc0","pricing_plan_id":"cebpf4jnsgd1na2vs0mg"},{"bike_id":"c8ed8afa-4750-4d5e-b29e-7da3cd8f4dc7","system_id":"levelo_inurba_marseille","lat":43.32356,"lon":5.367688,"is_reserved":false,"is_disabled":false,"rental_uris":{"android":"levelo://app?vid=c8ed8afa-4750-4d5e-b29e-7da3cd8f4dc7","ios":"levelo://app?vid=c8ed8afa-4750-4d5e-b29e-7da3cd8f4dc7"},"vehicle_type_id":"4","last_reported":1756289405,"current_range_meters":21600,"station_id":"ce4bhsh2rcd13ifvqi2g","pricing_plan_id":"cebpf4jnsgd1na2vs0mg"},{"bike_id":"25e5b5d8-a3c9-4e79-8d85-80adeeccbd27","system_id":"levelo_inurba_marseille","lat":43.3057,"lon":5.36558,"is_reserved":false,"is_disabled":false,"rental_uris":{"android":"levelo://app?vid=25e5b5d8-a3c9-4e79-8d85-80adeeccbd27","ios":"levelo://app?vid=25e5b5d8-a3c9-4e79-8d85-80adeeccbd27"},"vehicle_type_id":"4","last_reported":1756289405,"current_range_meters":21600,"station_id":"ce4bgs12rcd13ifvqcag","pricing_plan_id":"cebpf4jnsgd1na2vs0mg"},{"bike_id":"d4411ce1-1269-4134-adda-1eb61c16980f","system_id":"levelo_inurba_marseille","lat":43.28097,"lon":5.37848,"is_reserved":false,"is_disabled":true,"rental_uris":{"android":"levelo://app?vid=d4411ce1-1269-4134-adda-1eb61c16980f","ios":"levelo://app?vid=d4411ce1-1269-4134-adda-1eb61c16980f"},"vehicle_type_id":"4","last_reported":1756289405,"current_range_meters":22000,"station_id":"ce4bha12rcd13ifvqee0","pricing_plan_id":"cebpf4jnsgd1na2vs0mg"},{"bike_id":"9944892f-c423-49a6-80e3-d21746e0ead9","system_id":"levelo_inurba_marseille","lat":43.32359,"lon":5.36765,"is_reserved":false,"is_disabled":false,"rental_uris":{"android":"levelo://app?vid=9944892f-c423-49a6-80e3-d21746e0ead9","ios":"levelo://app?vid=9944892f-c423-49a6-80e3-d21746e0ead9"},"vehicle_type_id":"4","last_reported":1756289405,"current_range_meters":22000,"station_id":"ce4bhsh2rcd13ifvqi2g","pricing_plan_id":"cebpf4jnsgd1na2vs0mg"},{"bike_id":"4d8bfb0e-2ab6-4b86-a66d-54cc6b68139f","system_id":"levelo_inurba_marseille","lat":43.312162,"lon":5.368632,"is_reserved":false,"is_disabled":false,"rental_uris":{"android":"levelo://app?vid=4d8bfb0e-2ab6-4b86-a66d-54cc6b68139f","ios":"levelo://app?vid=4d8bfb0e-2ab6-4b86-a66d-54cc6b68139f"},"vehicle_type_id":"4","last_reported":1756289405,"current_range_meters":22000,"station_id":"ce4bgl92rcd13ifvqbq0","pricing_plan_id":"cebpf4jnsgd1na2vs0mg"},{"bike_id":"4d145077-8f89-4bf2-8313-1cf37857d084","system_id":"levelo_inurba_marseille","lat":43.25937,"lon":5.40897,"is_reserved":false,"is_disabled":false,"rental_uris":{"android":"levelo://app?vid=4d145077-8f89-4bf2-8313-1cf37857d084","ios":"levelo://app?vid=4d145077-8f89-4bf2-8313-1cf37857d084"},"vehicle_type_id":"4","last_reported":1756289405,"current_range_meters":22000,"station_id":"ce4bhm92rcd13ifvqglg","pricing_plan_id":"cebpf4jnsgd1na2vs0mg"},{"bike_id":"34930cb5-9fc4-45be-b2fd-44af03fe03d5","system_id":"levelo_inurba_marseille","lat":43.30543,"lon":5.3653,"is_reserved":false,"is_disabled":false,"rental_uris":{"android":"levelo://app?vid=34930cb5-9fc4-45be-b2fd-44af03fe03d5","ios":"levelo://app?vid=34930cb5-9fc4-45be-b2fd-44af03fe03d5"},"vehicle_type_id":"4","last_reported":1756289405,"current_range_meters":22000,"station_id":"ce4bgs12rcd13ifvqcag","pricing_plan_id":"cebpf4jnsgd1na2vs0mg"},{"bike_id":"de67e3dd-130e-44ea-bf06-0b251e40c7f3","system_id":"levelo_inurba_marseille","lat":43.28367,"lon":5.38635,"is_reserved":false,"is_disabled":false,"rental_uris":{"android":"levelo://app?vid=de67e3dd-130e-44ea-bf06-0b251e40c7f3","ios":"levelo://app?vid=de67e3dd-130e-44ea-bf06-0b251e40c7f3"},"vehicle_type_id":"4","last_reported":1756289405,"current_range_meters":22000,"station_id":"ce4bh492rcd13ifvqdvg","pricing_plan_id":"cebpf4jnsgd1na2vs0mg"},{"bike_id":"15892ab3-61de-4136-8dd7-905d1142f8d1","system_id":"levelo_inurba_marseille","lat":43.30593,"lon":5.39363,"is_reserved":false,"is_disabled":false,"rental_uris":{"android":"levelo://app?vid=15892ab3-61de-4136-8dd7-905d1142f8d1","ios":"levelo://app?vid=15892ab3-61de-4136-8dd7-905d1142f8d1"},"vehicle_type_id":"4","last_reported":1756289405,"current_range_meters":22000,"station_id":"ce4bh0p2rcd13ifvqd80","pricing_plan_id":"cebpf4jnsgd1na2vs0mg"},{"bike_id":"2592d48e-4f91-4661-a841-16b2ce57828c","system_id":"levelo_inurba_marseille","lat":43.24225,"lon":5.386843,"is_reserved":false,"is_disabled":false,"rental_uris":{"android":"levelo://app?vid=2592d48e-4f91-4661-a841-16b2ce57828c","ios":"levelo://app?vid=2592d48e-4f91-4661-a841-16b2ce57828c"},"vehicle_type_id":"4","last_reported":1756289405,"current_range_meters":22400,"station_id":"","pricing_plan_id":"cebpf4jnsgd1na2vs0mg"},{"bike_id":"76744d21-9e5e-4c42-9cd7-dc0f506d868c","system_id":"levelo_inurba_marseille","lat":43.295346,"lon":5.385597,"is_reserved":false,"is_disabled":false,"rental_uris":{"android":"levelo://app?vid=76744d21-9e5e-4c42-9cd7-dc0f506d868c","ios":"levelo://app?vid=76744d21-9e5e-4c42-9cd7-dc0f506d868c"},"vehicle_type_id":"4","last_reported":1756289405,"current_range_meters":22400,"station_id":"","pricing_plan_id":"cebpf4jnsgd1na2vs0mg"},{"bike_id":"7a2eec57-eec5-4a9e-b79e-b622556fb269","system_id":"levelo_inurba_marseille","lat":43.321166,"lon":5.367707,"is_reserved":false,"is_disabled":false,"rental_uris":{"android":"levelo://app?vid=7a2eec57-eec5-4a9e-b79e-b622556fb269","ios":"levelo://app?vid=7a2eec57-eec5-4a9e-b79e-b622556fb269"},"vehicle_type_id":"4","last_reported":1756289405,"current_range_meters":22400,"station_id":"ce4bhrh2rcd13ifvqhug","pricing_plan_id":"cebpf4jnsgd1na2vs0mg"},