{"last_updated":1736111230,"ttl":60,"version":"2.2","data":{"bikes":[{"bike_id":"df5ea857-c820-4b6e-bf1e-add8c4632de2","system_id":"levelo_inurba_marseille","lat":43.32111,"lon":5.36756,"is_reserved":false,"is_disabled":false,"rental_uris":{"android":"levelo://app?vid=df5ea857-c820-4b6e-bf1e-add8c4632de2","ios":"levelo://app?vid=df5ea857-c820-4b6e-bf1e-add8c4632de2"},"vehicle_type_id":"4","last_reported":1736111230,"current_range_meters":27200,"station_id":"ce4bhrh2rcd13ifvqhug","pricing_plan_id":"cebpf4jnsgd1na2vs0mg"},{"bike_id":"8f29603c-5d9a-4bc6-963d-711ada2a168a","system_id":"levelo_inurba_marseille","lat":43.24658,"lon":5.39841,"is_reserved":false,"is_disabled":true,"rental_uris":{"android":"levelo://app?vid=8f29603c-5d9a-4bc6-963d-711ada2a168a","ios":"levelo://app?vid=8f29603c-5d9a-4bc6-963d-711ada2a168a"},"vehicle_type_id":"4","last_reported":1736111230,"current_range_meters":24000,"station_id":"","pricing_plan_id":"cebpf4jnsgd1na2vs0mg"},{"bike_id":"10713e37-afc7-43d1-b51d-2b4416e38ed1","system_id":"levelo_inurba_marseille","lat":43.28714,"lon":5.39996,"is_reserved":false,"is_disabled":false,"rental_uris":{"android":"levelo://app?vid=10713e37-afc7-43d1-b51d-2b4416e38ed1","ios":"levelo://app?vid=10713e37-afc7-43d1-b51d-2b4416e38ed1"},"vehicle_type_id":"4","last_reported":1736111230,"current_range_meters":38800,"station_id":"ce4bho92rcd13ifvqh3g","pricing_plan_id":"cebpf4jnsgd1na2vs0mg"},{"bike_id":"6a02088a-78d0-44d7-9b43-efb585bc5b00","system_id":"levelo_inurba_marseille","lat":43.27316,"lon":5.39097,"is_reserved":false,"is_disabled":false,"rental_uris":{"android":"levelo://app?vid=6a02088a-78d0-44d7-9b43-efb585bc5b00","ios":"levelo://app?vid=6a02088a-78d0-44d7-9b43-efb585bc5b00"},"vehicle_type_id":"4","last_reported":1736111230,"current_range_meters":30000,"station_id":"ce4bhgp2rcd13ifvqfe0","pricing_plan_id":"cebpf4jnsgd1na2vs0mg"},{"bike_id":"6f3c8be9-e0de-46af-ada4-22ade12b6a11","system_id":"levelo_inurba_marseille","lat":43.31772,"lon":5.3902,"is_reserved":false,"is_disabled":false,"rental_uris":{"android":"levelo://app?vid=6f3c8be9-e0de-46af-ada4-22ade12b6a11","ios":"levelo://app?vid=6f3c8be9-e0de-46af-ada4-22ade12b6a11"},"vehicle_type_id":"4","last_reported":1736111230,"current_range_meters":38800,"station_id":"ce4bhqp2rcd13ifvqhng","pricing_plan_id":"cebpf4jnsgd1na2vs0mg"},{"bike_id":"7c2de405-ea6f-47b9-9153-01ff9b1337fb","system_id":"levelo_inurba_marseille","lat":43.31119,"lon":5.37787,"is_reserved":false,"is_disabled":false,"rental_uris":{"android":"levelo://app?vid=7c2de405-ea6f-47b9-9153-01ff9b1337fb","ios":"levelo://app?vid=7c2de405-ea6f-47b9-9153-01ff9b1337fb"},"vehicle_type_id":"4","last_reported":1736111230,"current_range_meters":36400,"station_id":"ce4bgt92rcd13ifvqcg0","pricing_plan_id":"cebpf4jnsgd1na2vs0mg"},{"bike_id":"e3e01ea7-289d-4965-87f5-e93c2c21227a","system_id":"levelo_inurba_marseille","lat":43.26934,"lon":5.40253,"is_reserved":false,"is_disabled":false,"rental_uris":{"android":"levelo://app?vid=e3e01ea7-289d-4965-87f5-e93c2c21227a","ios":"levelo://app?vid=e3e01ea7-289d-4965-87f5-e93c2c21227a"},"vehicle_type_id":"4","last_reported":1736111230,"current_range_meters":24800,"station_id":"cjm6bp8fraef2m0cb0m0","pricing_plan_id":"cebpf4jnsgd1na2vs0mg"},{"bike_id":"5dc11390-059b-4136-9f1a-189200cf304c","system_id":"levelo_inurba_marseille","lat":43.29952,"lon":5.36533,"is_reserved":false,"is_disabled":true,"rental_uris":{"android":"levelo://app?vid=5dc11390-059b-4136-9f1a-189200cf304c","ios":"levelo://app?vid=5dc11390-059b-4136-9f1a-189200cf304c"},"vehicle_type_id":"4","last_reported":1736111230,"current_range_meters":38800,"station_id":"ce4bgm92rcd13ifvqbr0","pricing_plan_id":"cebpf4jnsgd1na2vs0mg"},{"bike_id":"0153ae28-9422-4039-87f8-952c80b8c9cc","system_id":"levelo_inurba_marseille","lat":43.27326,"lon":5.39097,"is_reserved":false,"is_disabled":true,"rental_uris":{"android":"levelo://app?vid=0153ae28-9422-4039-87f8-952c80b8c9cc","ios":"levelo://app?vid=0153ae28-9422-4039-87f8-952c80b8c9cc"},"vehicle_type_id":"4","last_reported":1736111230,"current_range_meters":38400,"station_id":"ce4bhgp2rcd13ifvqfe0","pricing_plan_id":"cebpf4jnsgd1na2vs0mg"},{"bike_id":"50da629d-e1fa-4da9-9157-02df0f519086","system_id":"levelo_inurba_marseille","lat":43.30541,"lon":5.38432,"is_reserved":false,"is_disabled":false,"rental_uris":{"android":"levelo://app?vid=50da629d-e1fa-4da9-9157-02df0f519086","ios":"levelo://app?vid=50da629d-e1fa-4da9-9157-02df0f519086"},"vehicle_type_id":"4","last_reported":1736111230,"current_range_meters":37600,"station_id":"ce4bgg92rcd13ifvqb30","pricing_plan_id":"cebpf4jnsgd1na2vs0mg"},{"bike_id":"a0e3df9d-78ee-42a1-a83d-bdc9690eb27c","system_id":"levelo_inurba_marseille","lat":43.28716,"lon":5.37948,"is_reserved":false,"is_disabled":false,"rental_uris":{"android":"levelo://app?vid=a0e3df9d-78ee-42a1-a83d-bdc9690eb27c","ios":"levelo://app?vid=a0e3df9d-78ee-42a1-a83d-bdc9690eb27c"},"vehicle_type_id":"4","last_reported":1736111230,"current_range_meters":39200,"station_id":"ce4bh9p2rcd13ifvqec0","pricing_plan_id":"cebpf4jnsgd1na2vs0mg"},{"bike_id":"7e0deb38-514b-46d8-bead-2ad1ec3d471c","system_id":"levelo_inurba_marseille","lat":43.28025,"lon":5.36949,"is_reserved":false,"is_disabled":false,"rental_uris":{"android":"levelo://app?vid=7e0deb38-514b-46d8-bead-2ad1ec3d471c","ios":"levelo://app?vid=7e0deb38-514b-46d8-bead-2ad1ec3d471c"},"vehicle_type_id":"4","last_reported":1736111230,"current_range_meters":28800,"station_id":"ce4bha12rcd13ifvqef0","pricing_plan_id":"cebpf4jnsgd1na2vs0mg"},{"bike_id":"82c4d105-b076-414c-8e86-9ffcf5003394","system_id":"levelo_inurba_marseille","lat":43.28704,"lon":5.37396,"is_reserved":false,"is_disabled":false,"rental_uris":{"android":"levelo://app?vid=82c4d105-b076-414c-8e86-9ffcf5003394","ios":"levelo://app?vid=82c4d105-b076-414c-8e86-9ffcf5003394"},"vehicle_type_id":"4","last_reported":1736111230,"current_range_meters":38000,"station_id":"ce4bh3p2rcd13ifvqdq0","pricing_plan_id":"cebpf4jnsgd1na2vs0mg"},{"bike_id":"ade870c5-3051-41fa-9712-40a70906486d","system_id":"levelo_inurba_marseille","lat":43.2925,"lon":5.40911,"is_reserved":false,"is_disabled":false,"rental_uris":{"android":"levelo://app?vid=ade870c5-3051-41fa-9712-40a70906486d","ios":"levelo://app?vid=ade870c5-3051-41fa-9712-40a70906486d"},"vehicle_type_id":"4","last_reported":1736111230,"current_range_meters":38800,"station_id":"ce4bh192rcd13ifvqdc0","pricing_plan_id":"cebpf4jnsgd1na2vs0mg"},{"bike_id":"a2ef41fe-4f6f-4017-92fc-a60fea78826e","system_id":"levelo_inurba_marseille","lat":43.26807,"lon":5.40274,"is_reserved":false,"is_disabled":false,"rental_uris":{"android":"levelo://app?vid=a2ef41fe-4f6f-4017-92fc-a60fea78826e","ios":"levelo://app?vid=a2ef41fe-4f6f-4017-92fc-a60fea78826e"},"vehicle_type_id":"4","last_reported":1736111230,"current_range_meters":33200,"station_id":"ce501612rcd8frsf0b60","pricing_plan_id":"cebpf4jnsgd1na2vs0mg"},{"bike_id":"bcf0bc77-feb4-4e25-93da-4721812265a5","system_id":"levelo_inurba_marseille","lat":43.29843,"lon":5.36274,"is_reserved":false,"is_disabled":false,"rental_uris":{"android":"levelo://app?vid=bcf0bc77-feb4-4e25-93da-4721812265a5","ios":"levelo://app?vid=bcf0bc77-feb4-4e25-93da-4721812265a5"},"vehicle_type_id":"4","last_reported":1736111230,"current_range_meters":38800,"station_id":"ce4bgpp2rcd13ifvqc3g","pricing_plan_id":"cebpf4jnsgd1na2vs0mg"},{"bike_id":"f4cc2a7a-93a2-4cac-8ea9-071d412204f4","system_id":"levelo_inurba_marseille","lat":43.2795,"lon":5.4104,"is_reserved":false,"is_disabled":false,"rental_uris":{"android":"levelo://app?vid=f4cc2a7a-93a2-4cac-8ea9-071d412204f4","ios":"levelo://app?vid=f4cc2a7a-93a2-4cac-8ea9-071d412204f4"},"vehicle_type_id":"4","last_reported":1736111230,"current_range_meters":11200,"station_id":"ce4bhnp2rcd13ifvqh0g","pricing_plan_id":"cebpf4jnsgd1na2vs0mg"},{"bike_id":"730144be-fcee-4065-ac38-325ca1d5cbf7","system_id":"levelo_inurba_marseille","lat":43.25725,"lon":5.41117,"is_reserved":false,"is_disabled":false,"rental_uris":{"android":"levelo://app?vid=730144be-fcee-4065-ac38-325ca1d5cbf7","ios":"levelo://app?vid=730144be-fcee-4065-ac38-325ca1d5cbf7"},"vehicle_type_id":"4","last_reported":1736111230,"current_range_meters":29600,"station_id":"ce4bhkp2rcd13ifvqgd0","pricing_plan_id":"cebpf4jnsgd1na2vs0mg"},{"bike_id":"bedb5aab-1ef7-4d8c-920b-5402d7d4a64b","system_id":"levelo_inurba_marseille","lat":43.28942,"lon":5.36642,"is_reserved":false,"is_disabled":false,"rental_uris":{"android":"levelo://app?vid=bedb5aab-1ef7-4d8c-920b-5402d7d4a64b","ios":"levelo://app?vid=bedb5aab-1ef7-4d8c-920b-5402d7d4a64b"},"vehicle_type_id":"4","last_reported":1736111230,"current_range_meters":26800,"station_id":"ce4bhap2rcd13ifvqek0","pricing_plan_id":"cebpf4jnsgd1na2vs0mg"},{"bike_id":"cfa9ca20-27d4-44a2-a7d9-d2b75ed2f4ac","system_id":"levelo_inurba_marseille","lat":43.310788,"lon":5.383486,"is_reserved":false,"is_disabled":true,"rental_uris":{"android":"levelo://app?vid=cfa9ca20-27d4-44a2-a7d9-d2b75ed2f4ac","ios":"levelo://app?vid=cfa9ca20-27d4-44a2-a7d9-d2b75ed2f4ac"},"vehicle_type_id":"4","last_reported":1736111230,"current_range_meters":6000,"station_id":"ce4bgv92rcd13ifvqcr0","pricing_plan_id":"cebpf4jnsgd1na2vs0mg"},{"bike_id":"2e3020fc-739e-484f-aff1-968aa18f2ac1","system_id":"levelo_inurba_marseille","lat":43.27985,"lon":5.41672,"is_reserved":false,"is_disabled":true,"rental_uris":{"android":"levelo://app?vid=2e3020fc-739e-484f-aff1-968aa18f2ac1","ios":"levelo://app?vid=2e3020fc-739e-484f-aff1-968aa18f2ac1"},"vehicle_type_id":"4","last_reported":1736111230,"current_range_meters":2800,"station_id":"ce4bho12rcd13ifvqh1g","pricing_plan_id":"cebpf4jnsgd1na2vs0mg"},{"bike_id":"ce0e460b-fbf5-4f76-a294-ee5f28a95ad0","system_id":"levelo_inurba_marseille","lat":43.27073,"lon":5.42278,"is_reserved":false,"is_disabled":false,"rental_uris":{"android":"levelo://app?vid=ce0e460b-fbf5-4f76-a294-ee5f28a95ad0","ios":"levelo://app?vid=ce0e460b-fbf5-4f76-a294-ee5f28a95ad0"},"vehicle_type_id":"4","last_reported":1736111230,"current_range_meters":15200,"station_id":"ce4bhk92rcd13ifvqgb0","pricing_plan_id":"cebpf4jnsgd1na2vs0mg"},{"bike_id":"a0adb3c4-caf9-464d-8f3e-6b5be1eb9699","system_id":"levelo_inurba_marseille","lat":43.2512,"lon":5.40325,"is_reserved":false,"is_disabled":false,"rental_uris":{"android":"levelo://app?vid=a0adb3c4-caf9-464d-8f3e-6b5be1eb9699","ios":"levelo://app?vid=a0adb3c4-caf9-464d-8f3e-6b5be1eb9699"},"vehicle_type_id":"4","last_reported":1736111230,"current_range_meters":38800,"station_id":"ce4bhlh2rcd13ifvqgig","pricing_plan_id":"cebpf4jnsgd1na2vs0mg"},{"bike_id":"593d8424-f565-422e-8480-e0f50e2c043e","system_id":"levelo_inurba_marseille","lat":43.279643,"lon":5.387074,"is_reserved":false,"is_disabled":true,"rental_uris":{"android":"levelo://app?vid=593d8424-f565-422e-8480-e0f50e2c043e","ios":"levelo://app?vid=593d8424-f565-422e-8480-e0f50e2c043e"},"vehicle_type_id":"4","last_reported":1736111230,"current_range_meters":32000,"station_id":"ce4bhg12rcd13ifvqf80","pricing_plan_id":"cebpf4jnsgd1na2vs0mg"},{"bike_id":"a944f865-f260-4d6e-8bfb-34b22d4c0ecd","system_id":"levelo_inurba_marseille","lat":43.3023,"lon":5.36624,"is_reserved":false,"is_disabled":true,"rental_uris":{"android":"levelo://app?vid=a944f865-f260-4d6e-8bfb-34b22d4c0ecd","ios":"levelo://app?vid=a944f865-f260-4d6e-8bfb-34b22d4c0ecd"},"vehicle_type_id":"4","last_reported":1736111230,"current_range_meters":29600,"station_id":"ce4bgrh2rcd13ifvqc8g","pricing_plan_id":"cebpf4jnsgd1na2vs0mg"},{"bike_id":"9093bdb6-9883-4296-b3a6-87715e904d72","system_id":"levelo_inurba_marseille","lat":43.28832,"lon":5.39343,"is_reserved":false,"is_disabled":false,"rental_uris":{"android":"levelo://app?vid=9093bdb6-9883-4296-b3a6-87715e904d72","ios":"levelo://app?vid=9093bdb6-9883-4296-b3a6-87715e904d72"},"vehicle_type_id":"4","last_reported":1736111230,"current_range_meters":8000,"station_id":"ce4bh2p2rcd13ifvqdi0","pricing_plan_id":"cebpf4jnsgd1na2vs0mg"},{"bike_id":"8cedb5f8-5cfb-4488-a7c9-0d6b8e79581b","system_id":"levelo_inurba_marseille","lat":43.30903,"lon":5.36844,"is_reserved":false,"is_disabled":false,"rental_uris":{"android":"levelo://app?vid=8cedb5f8-5cfb-4488-a7c9-0d6b8e79581b","ios":"levelo://app?vid=8cedb5f8-5cfb-4488-a7c9-0d6b8e79581b"},"vehicle_type_id":"4","last_reported":1736111230,"current_range_meters":38800,"station_id":"ce4bgn92rcd13ifvqbvg","pricing_plan_id":"cebpf4jnsgd1na2vs0mg"},{"bike_id":"da3f985d-0b4f-443e-a2e0-41b2986ae36f","system_id":"levelo_inurba_marseille","lat":43.24806,"lon":5.37448,"is_reserved":false,"is_disabled":false,"rental_uris":{"android":"levelo://app?vid=da3f985d-0b4f-443e-a2e0-41b2986ae36f","ios":"levelo://app?vid=da3f985d-0b4f-443e-a2e0-41b2986ae36f"},"vehicle_type_id":"4","last_reported":1736111230,"current_range_meters":14800,"station_id":"ce4bhgh2rcd13ifvqfb0","pricing_plan_id":"cebpf4jnsgd1na2vs0mg"},{"bike_id":"fcf92bdb-3d13-41a7-a5bd-0e8449ead7a8","system_id":"levelo_inurba_marseille","lat":43.28354,"lon":5.38103,"is_reserved":false,"is_disabled":false,"rental_uris":{"android":"levelo://app?vid=fcf92bdb-3d13-41a7-a5bd-0e8449ead7a8","ios":"levelo://app?vid=fcf92bdb-3d13-41a7-a5bd-0e8449ead7a8"},"vehicle_type_id":"4","last_reported":1736111230,"current_range_meters":38000,"station_id":"ce4bh412rcd13ifvqdr0","pricing_plan_id":"cebpf4jnsgd1na2vs0mg"},{"bike_id":"c8a19e46-fbeb-485a-af48-9ddb71e594fe","system_id":"levelo_inurba_marseille","lat":43.25002,"lon":5.38922,"is_reserved":false,"is_disabled":false,"rental_uris":{"android":"levelo://app?vid=c8a19e46-fbeb-485a-af48-9ddb71e594fe","ios":"levelo://app?vid=c8a19e46-fbeb-485a-af48-9ddb71e594fe"},"vehicle_type_id":"4","last_reported":1736111230,"current_range_meters":9600,"station_id":"ce4bhgp2rcd13ifvqfd0","pricing_plan_id":"cebpf4jnsgd1na2vs0mg"},{"bike_id":"08bc0df6-3469-4b1d-9591-480bf94ec2ca","system_id":"levelo_inurba_marseille","lat":43.27968,"lon":5.38743,"is_reserved":false,"is_disabled":false,"rental_uris":{"android":"levelo://app?vid=08bc0df6-3469-4b1d-9591-480bf94ec2ca","ios":"levelo://app?vid=08bc0df6-3469-4b1d-9591-480bf94ec2ca"},"vehicle_type_id":"4","last_reported":1736111230,"current_range_meters":38400,"station_id":"ce4bhg12rcd13ifvqf80","pricing_plan_id":"cebpf4jnsgd1na2vs0mg"},{"bike_id":"0fdd80bc-4a47-4f5e-9395-79fb5c495925","system_id":"levelo_inurba_marseille","lat":43.30546,"lon":5.38423,"is_reserved":false,"is_disabled":false,"rental_uris":{"android":"levelo://app?vid=0fdd80bc-4a47-4f5e-9395-79fb5c495925","ios":"levelo://app?vid=0fdd80bc-4a47-4f5e-9395-79fb5c495925"},"vehicle_type_id":"4","last_reported":1736111230,"current_range_meters":19600,"station_id":"ce4bgg92rcd13ifvqb30","pricing_plan_id":"cebpf4jnsgd1na2vs0mg"},{"bike_id":"9bd04c4d-bba3-44a3-88b7-e0bf363fe6b8","system_id":"levelo_inurba_marseille","lat":43.246658,"lon":5.381496,"is_reserved":false,"is_disabled":false,"rental_uris":{"android":"levelo://app?vid=9bd04c4d-bba3-44a3-88b7-e0bf363fe6b8","ios":"levelo://app?vid=9bd04c4d-bba3-44a3-88b7-e0bf363fe6b8"},"vehicle_type_id":"4","last_reported":1736111230,"current_range_meters":30800,"station_id":"ce4bhih2rcd13ifvqfr0","pricing_plan_id":"cebpf4jnsgd1na2vs0mg"},{"bike_id":"ab68ed21-148d-4a0e-ae51-a2dd92014de0","system_id":"levelo_inurba_marseille","lat":43.24986,"lon":5.38948,"is_reserved":false,"is_disabled":false,"rental_uris":{"android":"levelo://app?vid=ab68ed21-148d-4a0e-ae51-a2dd92014de0","ios":"levelo://app?vid=ab68ed21-148d-4a0e-ae51-a2dd92014de0"},"vehicle_type_id":"4","last_reported":1736111230,"current_range_meters":38400,"station_id":"ce4bhgp2rcd13ifvqfd0","pricing_plan_id":"cebpf4jnsgd1na2vs0mg"},{"bike_id":"75539ff0-fe32-4da7-83df-96fa72019050","system_id":"levelo_inurba_marseille","lat":43.31088,"lon":5.42421,"is_reserved":false,"is_disabled":false,"rental_uris":{"android":"levelo://app?vid=75539ff0-fe32-4da7-83df-96fa72019050","ios":"levelo://app?vid=75539ff0-fe32-4da7-83df-96fa72019050"},"vehicle_type_id":"4","last_reported":1736111230,"current_range_meters":38800,"station_id":"ce4bhp92rcd13ifvqhag","pricing_plan_id":"cebpf4jnsgd1na2vs0mg"},{"bike_id":"c023aed8-c4af-47de-bf55-7ec6cfb1c879","system_id":"levelo_inurba_marseille","lat":43.26245,"lon":5.37226,"is_reserved":false,"is_disabled":true,"rental_uris":{"android":"levelo://app?vid=c023aed8-c4af-47de-bf55-7ec6cfb1c879","ios":"levelo://app?vid=c023aed8-c4af-47de-bf55-7ec6cfb1c879"},"vehicle_type_id":"4","last_reported":1736111230,"current_range_meters":35200,"station_id":"","pricing_plan_id":"cebpf4jnsgd1na2vs0mg"},{"bike_id":"ecd42398-8216-4896-a93c-4f50e89a759e","system_id":"levelo_inurba_marseille","lat":43.30796,"lon":5.38146,"is_reserved":false,"is_disabled":false,"rental_uris":{"android":"levelo://app?vid=ecd42398-8216-4896-a93c-4f50e89a759e","ios":"levelo://app?vid=ecd42398-8216-4896-a93c-4f50e89a759e"},"vehicle_type_id":"4","last_reported":1736111230,"current_range_meters":39200,"station_id":"ce4bgt12rcd13ifvqce0","pricing_plan_id":"cebpf4jnsgd1na2vs0mg"},{"bike_id":"40d246c1-ae96-467e-9143-f5df7429b1d0","system_id":"levelo_inurba_marseille","lat":43.2756,"lon":5.38416,"is_reserved":false,"is_disabled":false,"rental_uris":{"android":"levelo://app?vid=40d246c1-ae96-467e-9143-f5df7429b1d0","ios":"levelo://app?vid=40d246c1-ae96-467e-9143-f5df7429b1d0"},"vehicle_type_id":"4","last_reported":1736111230,"current_range_meters":34800,"station_id":"ce4bhh92rcd13ifvqfi0","pricing_plan_id":"cebpf4jnsgd1na2vs0mg"},{"bike_id":"ad036647-e9f4-4246-953d-37ee6601db50","system_id":"levelo_inurba_marseille","lat":43.24669,"lon":5.38165,"is_reserved":false,"is_disabled":false,"rental_uris":{"android":"levelo://app?vid=ad036647-e9f4-4246-953d-37ee6601db50","ios":"levelo://app?vid=ad036647-e9f4-4246-953d-37ee6601db50"},"vehicle_type_id":"4","last_reported":1736111230,"current_range_meters":24800,"station_id":"ce4bhih2rcd13ifvqfr0","pricing_plan_id":"cebpf4jnsgd1na2vs0mg"},{"bike_id":"c3496726-b8ea-47ac-a44b-66bc69a8d7e9","system_id":"levelo_inurba_marseille","lat":43.29848,"lon":5.36264,"is_reserved":false,"is_disabled":false,"rental_uris":{"android":"levelo://app?vid=c3496726-b8ea-47ac-a44b-66bc69a8d7e9","ios":"levelo://app?vid=c3496726-b8ea-47ac-a44b-66bc69a8d7e9"},"vehicle_type_id":"4","last_reported":1736111230,"current_range_meters":32000,"station_id":"ce4bgpp2rcd13ifvqc3g","pricing_plan_id":"cebpf4jnsgd1na2vs0mg"},{"bike_id":"651cc7c5-62e1-430a-8ffb-809553e95479","system_id":"levelo_inurba_marseille","lat":43.3095,"lon":5.39023,"is_reserved":false,"is_disabled":false,"rental_uris":{"android":"levelo://app?vid=651cc7c5-62e1-430a-8ffb-809553e95479","ios":"levelo://app?vid=651cc7c5-62e1-430a-8ffb-809553e95479"},"vehicle_type_id":"4","last_reported":1736111230,"current_range_meters":38800,"station_id":"ce4bgup2rcd13ifvqco0","pricing_plan_id":"cebpf4jnsgd1na2vs0mg"},{"bike_id":"d2c7155e-6bf6-44bd-a45e-78727ddd52d8","system_id":"levelo_inurba_marseille","lat":43.29267,"lon":5.4086,"is_reserved":false,"is_disabled":false,"rental_uris":{"android":"levelo://app?vid=d2c7155e-6bf6-44bd-a45e-78727ddd52d8","ios":"levelo://app?vid=d2c7155e-6bf6-44bd-a45e-78727ddd52d8"},"vehicle_type_id":"4","last_reported":1736111230,"current_range_meters":39200,"station_id":"ce4bh192rcd13ifvqdc0","pricing_plan_id":"cebpf4jnsgd1na2vs0mg"},{"bike_id":"7575509c-aa61-4c38-a4ad-33d140bc768e","system_id":"levelo_inurba_marseille","lat":43.29425,"lon":5.38624,"is_reserved":false,"is_disabled":false,"rental_uris":{"android":"levelo://app?vid=7575509c-aa61-4c38-a4ad-33d140bc768e","ios":"levelo://app?vid=7575509c-aa61-4c38-a4ad-33d140bc768e"},"vehicle_type_id":"4","last_reported":1736111230,"current_range_meters":39200,"station_id":"ce4bh2h2rcd13ifvqdh0","pricing_plan_id":"cebpf4jnsgd1na2vs0mg"},{"bike_id":"6594116e-47ca-434e-aa03-6d52a2490e77","system_id":"levelo_inurba_marseille","lat":43.31393,"lon":5.38508,"is_reserved":false,"is_disabled":false,"rental_uris":{"android":"levelo://app?vid=6594116e-47ca-434e-aa03-6d52a2490e77","ios":"levelo://app?vid=6594116e-47ca-434e-aa03-6d52a2490e77"},"vehicle_type_id":"4","last_reported":1736111230,"current_range_meters":26000,"station_id":"ce4bgt92rcd13ifvqcf0","pricing_plan_id":"cebpf4jnsgd1na2vs0mg"},{"bike_id":"6593f30f-5a3e-4d58-8aac-8c8343433e9e","system_id":"levelo_inurba_marseille","lat":43.30414,"lon":5.41283,"is_reserved":false,"is_disabled":false,"rental_uris":{"android":"levelo://app?vid=6593f30f-5a3e-4d58-8aac-8c8343433e9e","ios":"levelo://app?vid=6593f30f-5a3e-4d58-8aac-8c8343433e9e"},"vehicle_type_id":"4","last_reported":1736111230,"current_range_meters":29600,"station_id":"ce4bhop2rcd13ifvqh8g","pricing_plan_id":"cebpf4jnsgd1na2vs0mg"},{"bike_id":"66d3e1ef-7727-44f9-b619-eeddb54c1fba","system_id":"levelo_inurba_marseille","lat":43.30443,"lon":5.38894,"is_reserved":false,"is_disabled":true,"rental_uris":{"android":"levelo://app?vid=66d3e1ef-7727-44f9-b619-eeddb54c1fba","ios":"levelo://app?vid=66d3e1ef-7727-44f9-b619-eeddb54c1fba"},"vehicle_type_id":"4","last_reported":1736111230,"current_range_meters":8800,"station_id":"ce4bgk12rcd13ifvqbi0","pricing_plan_id":"cebpf4jnsgd1na2vs0mg"},{"bike_id":"837d3b93-e204-4a87-a032-70ee200c6736","system_id":"levelo_inurba_marseille","lat":43.28959,"lon":5.38371,"is_reserved":false,"is_disabled":false,"rental_uris":{"android":"levelo://app?vid=837d3b93-e204-4a87-a032-70ee200c6736","ios":"levelo://app?vid=837d3b93-e204-4a87-a032-70ee200c6736"},"vehicle_type_id":"4","last_reported":1736111230,"current_range_meters":38800,"station_id":"ce4bh612rcd13ifvqe6g","pricing_plan_id":"cebpf4jnsgd1na2vs0mg"},{"bike_id":"b0c3c839-5741-4f5f-8667-ceab8148f2e1","system_id":"levelo_inurba_marseille","lat":43.26941,"lon":5.40271,"is_reserved":false,"is_disabled":false,"rental_uris":{"android":"levelo://app?vid=b0c3c839-5741-4f5f-8667-ceab8148f2e1","ios":"levelo://app?vid=b0c3c839-5741-4f5f-8667-ceab8148f2e1"},"vehicle_type_id":"4","last_reported":1736111230,"current_range_meters":36400,"station_id":"cjm6bp8fraef2m0cb0m0","pricing_plan_id":"cebpf4jnsgd1na2vs0mg"},{"bike_id":"f2107d97-861e-478f-aae7-bc0c7527ce03","system_id":"levelo_inurba_marseille","lat":43.31495,"lon":5.3729,"is_reserved":false,"is_disabled":false,"rental_uris":{"android":"levelo://app?vid=f2107d97-861e-478f-aae7-bc0c7527ce03","ios":"levelo://app?vid=f2107d97-861e-478f-aae7-bc0c7527ce03"},"vehicle_type_id":"4","last_reported":1736111230,"current_range_meters":33200,"station_id":"ce4bgt12rcd13ifvqcd0","pricing_plan_id":"cebpf4jnsgd1na2vs0mg"},{"bike_id":"683c3a18-2fe8-4db2-829b-d8065bc8adc1","system_id":"levelo_inurba_marseille","lat":43.240644,"lon":5.377589,"is_reserved":false,"is_disabled":false,"rental_uris":{"android":"levelo://app?vid=683c3a18-2fe8-4db2-829b-d8065bc8adc1","ios":"levelo://app?vid=683c3a18-2fe8-4db2-829b-d8065bc8adc1"},"vehicle_type_id":"4","last_reported":1736111230,"current_range_meters":38800,"station_id":"ce4bhnp2rcd13ifvqgvg","pricing_plan_id":"cebpf4jnsgd1na2vs0mg"},{"bike_id":"cde3c8c2-6817-4a98-9f78-401c938a8484","system_id":"levelo_inurba_marseille","lat":43.23148,"lon":5.43709,"is_reserved":false,"is_disabled":true,"rental_uris":{"android":"levelo://app?vid=cde3c8c2-6817-4a98-9f78-401c938a8484","ios":"levelo://app?vid=cde3c8c2-6817-4a98-9f78-401c938a8484"},"vehicle_type_id":"4","last_reported":1736111230,"current_range_meters":2000,"station_id":"ce4bhmp2rcd13ifvqgog","pricing_plan_id":"cebpf4jnsgd1na2vs0mg"},{"bike_id":"63974816-d974-4062-9a4e-2e396a611e50","system_id":"levelo_inurba_marseille","lat":43.31896,"lon":5.40733,"is_reserved":false,"is_disabled":false,"rental_uris":{"android":"levelo://app?vid=63974816-d974-4062-9a4e-2e396a611e50","ios":"levelo://app?vid=63974816-d974-4062-9a4e-2e396a611e50"},"vehicle_type_id":"4","last_reported":1736111230,"current_range_meters":38800,"station_id":"ce4bhq12rcd13ifvqhig","pricing_plan_id":"cebpf4jnsgd1na2vs0mg"},{"bike_id":"159cd75e-644c-4f2a-9d78-8193e93d9e7e","system_id":"levelo_inurba_marseille","lat":43.29555,"lon":5.4227,"is_reserved":false,"is_disabled":false,"rental_uris":{"android":"levelo://app?vid=159cd75e-644c-4f2a-9d78-8193e93d9e7e","ios":"levelo://app?vid=159cd75e-644c-4f2a-9d78-8193e93d9e7e"},"vehicle_type_id":"4","last_reported":1736111230,"current_range_meters":30400,"station_id":"ce4bhph2rcd13ifvqhdg","pricing_plan_id":"cebpf4jnsgd1na2vs0mg"},{"bike_id":"88f42a39-5257-48bf-8d80-571551f6daf1","system_id":"levelo_inurba_marseille","lat":43.26782,"lon":5.39409,"is_reserved":false,"is_disabled":false,"rental_uris":{"android":"levelo://app?vid=88f42a39-5257-48bf-8d80-571551f6daf1","ios":"levelo://app?vid=88f42a39-5257-48bf-8d80-571551f6daf1"},"vehicle_type_id":"4","last_reported":1736111230,"current_range_meters":14800,"station_id":"ce4bhh12rcd13ifvqfg0","pricing_plan_id":"cebpf4jnsgd1na2vs0mg"},{"bike_id":"a8b0fbe6-6f9b-40be-8eb7-db202990f9b2","system_id":"levelo_inurba_marseille","lat":43.33606,"lon":5.41027,"is_reserved":false,"is_disabled":false,"rental_uris":{"android":"levelo://app?vid=a8b0fbe6-6f9b-40be-8eb7-db202990f9b2","ios":"levelo://app?vid=a8b0fbe6-6f9b-40be-8eb7-db202990f9b2"},"vehicle_type_id":"4","last_reported":1736111230,"current_range_meters":38000,"station_id":"ce4bhqh2rcd13ifvqhmg","pricing_plan_id":"cebpf4jnsgd1na2vs0mg"},{"bike_id":"2332862a-3884-4317-af82-ee9793e9b62c","system_id":"levelo_inurba_marseille","lat":43.24001,"lon":5.37754,"is_reserved":false,"is_disabled":false,"rental_uris":{"android":"levelo://app?vid=2332862a-3884-4317-af82-ee9793e9b62c","ios":"levelo://app?vid=2332862a-3884-4317-af82-ee9793e9b62c"},"vehicle_type_id":"4","last_reported":1736111230,"current_range_meters":10000,"station_id":"","pricing_plan_id":"cebpf4jnsgd1na2vs0mg"},{"bike_id":"88921916-2a99-4e7a-8a3f-cca7ea156041","system_id":"levelo_inurba_marseille","lat":43.31069,"lon":5.38357,"is_reserved":false,"is_disabled":false,"rental_uris":{"android":"levelo://app?vid=88921916-2a99-4e7a-8a3f-cca7ea156041","ios":"levelo://app?vid=88921916-2a99-4e7a-8a3f-cca7ea156041"},"vehicle_type_id":"4","last_reported":1736111230,"current_range_meters":30400,"station_id":"ce4bgv92rcd13ifvqcr0","pricing_plan_id":"cebpf4jnsgd1na2vs0mg"},{"bike_id":"b7cd0107-a045-4904-93eb-da8cf4a72b91","system_id":"levelo_inurba_marseille","lat":43.27308,"lon":5.39078,"is_reserved":false,"is_disabled":false,"rental_uris":{"android":"levelo://app?vid=b7cd0107-a045-4904-93eb-da8cf4a72b91","ios":"levelo://app?vid=b7cd0107-a045-4904-93eb-da8cf4a72b91"},"vehicle_type_id":"4","last_reported":1736111230,"current_range_meters":38800,"station_id":"ce4bhgp2rcd13ifvqfe0","pricing_plan_id":"cebpf4jnsgd1na2vs0mg"},{"bike_id":"ba2b0799-90e5-436b-a8ac-d2a80ff5da69","system_id":"levelo_inurba_marseille","lat":43.248083,"lon":5.374569,"is_reserved":false,"is_disabled":false,"rental_uris":{"android":"levelo://app?vid=ba2b0799-90e5-436b-a8ac-d2a80ff5da69","ios":"levelo://app?vid=ba2b0799-90e5-436b-a8ac-d2a80ff5da69"},"vehicle_type_id":"4","last_reported":1736111230,"current_range_meters":38800,"station_id":"ce4bhgh2rcd13ifvqfb0","pricing_plan_id":"cebpf4jnsgd1na2vs0mg"},{"bike_id":"5b49bc9e-0372-4642-ba4e-6768062fc93f","system_id":"levelo_inurba_marseille","lat":43.30908,"lon":5.36863,"is_reserved":false,"is_disabled":false,"rental_uris":{"android":"levelo://app?vid=5b49bc9e-0372-4642-ba4e-6768062fc93f","ios":"levelo://app?vid=5b49bc9e-0372-4642-ba4e-6768062fc93f"},"vehicle_type_id":"4","last_reported":1736111230,"current_range_meters":39200,"station_id":"ce4bgn92rcd13ifvqbvg","pricing_plan_id":"cebpf4jnsgd1na2vs0mg"},{"bike_id":"dd34045c-9351-468b-86f7-2a551094493e","system_id":"levelo_inurba_marseille","lat":43.31273,"lon":5.40162,"is_reserved":false,"is_disabled":false,"rental_uris":{"android":"levelo://app?vid=dd34045c-9351-468b-86f7-2a551094493e","ios":"levelo://app?vid=dd34045c-9351-468b-86f7-2a551094493e"},"vehicle_type_id":"4","last_reported":1736111230,"current_range_meters":18800,"station_id":"ce4bh092rcd13ifvqd30","pricing_plan_id":"cebpf4jnsgd1na2vs0mg"},{"bike_id":"ff9e06b0-870a-423b-9037-e5fc33e5c654","system_id":"levelo_inurba_marseille","lat":43.2844,"lon":5.39173,"is_reserved":false,"is_disabled":false,"rental_uris":{"android":"levelo://app?vid=ff9e06b0-870a-423b-9037-e5fc33e5c654","ios":"levelo://app?vid=ff9e06b0-870a-423b-9037-e5fc33e5c654"},"vehicle_type_id":"4","last_reported":1736111230,"current_range_meters":17200,"station_id":"ce4bhoh2rcd13ifvqh5g","pricing_plan_id":"cebpf4jnsgd1na2vs0mg"},{"bike_id":"8de6914e-abe5-40fd-89d7-587c3e90d32b","system_id":"levelo_inurba_marseille","lat":43.269396,"lon":5.402544,"is_reserved":false,"is_disabled":false,"rental_uris":{"android":"levelo://app?vid=8de6914e-abe5-40fd-89d7-587c3e90d32b","ios":"levelo://app?vid=8de6914e-abe5-40fd-89d7-587c3e90d32b"},"vehicle_type_id":"4","last_reported":1736111230,"current_range_meters":38400,"station_id":"cjm6bp8fraef2m0cb0m0","pricing_plan_id":"cebpf4jnsgd1na2vs0mg"},{"bike_id":"7ee45656-cc2b-4090-8514-bcfd033cfdf8","system_id":"levelo_inurba_marseille","lat":43.33724,"lon":5.391659,"is_reserved":false,"is_disabled":false,"rental_uris":{"android":"levelo://app?vid=7ee45656-cc2b-4090-8514-bcfd033cfdf8","ios":"levelo://app?vid=7ee45656-cc2b-4090-8514-bcfd033cfdf8"},"vehicle_type_id":"4","last_reported":1736111230,"current_range_meters":39200,"station_id":"ce4bhr92rcd13ifvqhsg","pricing_plan_id":"cebpf4jnsgd1na2vs0mg"},{"bike_id":"c8529c5f-726c-44b9-8f81-1b72db6f4e53","system_id":"levelo_inurba_marseille","lat":43.323661,"lon":5.388764,"is_reserved":false,"is_disabled":false,"rental_uris":{"android":"levelo://app?vid=c8529c5f-726c-44b9-8f81-1b72db6f4e53","ios":"levelo://app?vid=c8529c5f-726c-44b9-8f81-1b72db6f4e53"},"vehicle_type_id":"4","last_reported":1736111230,"current_range_meters":37600,"station_id":"ce4bhqp2rcd13ifvqhog","pricing_plan_id":"cebpf4jnsgd1na2vs0mg"},{"bike_id":"cbc638ef-e540-4f9c-ac5d-e16032597628","system_id":"levelo_inurba_marseille","lat":43.29302,"lon":5.37626,"is_reserved":false,"is_disabled":true,"rental_uris":{"android":"levelo://app?vid=cbc638ef-e540-4f9c-ac5d-e16032597628","ios":"levelo://app?vid=cbc638ef-e540-4f9c-ac5d-e16032597628"},"vehicle_type_id":"4","last_reported":1736111230,"current_range_meters":36400,"station_id":"ce4bgi12rcd13ifvqb70","pricing_plan_id":"cebpf4jnsgd1na2vs0mg"},{"bike_id":"9a483109-5bce-4e89-a527-a3ced035742c","system_id":"levelo_inurba_marseille","lat":43.26949,"lon":5.38628,"is_reserved":false,"is_disabled":false,"rental_uris":{"android":"levelo://app?vid=9a483109-5bce-4e89-a527-a3ced035742c","ios":"levelo://app?vid=9a483109-5bce-4e89-a527-a3ced035742c"},"vehicle_type_id":"4","last_reported":1736111230,"current_range_meters":9600,"station_id":"ce4bhh92rcd13ifvqfh0","pricing_plan_id":"cebpf4jnsgd1na2vs0mg"},{"bike_id":"cc0dad40-618b-468a-bcd4-d68917f443d4","system_id":"levelo_inurba_marseille","lat":43.26772,"lon":5.39437,"is_reserved":false,"is_disabled":false,"rental_uris":{"android":"levelo://app?vid=cc0dad40-618b-468a-bcd4-d68917f443d4","ios":"levelo://app?vid=cc0dad40-618b-468a-bcd4-d68917f443d4"},"vehicle_type_id":"4","last_reported":1736111230,"current_range_meters":31200,"station_id":"ce4bhh12rcd13ifvqfg0","pricing_plan_id":"cebpf4jnsgd1na2vs0mg"},{"bike_id":"c50ce0f7-7720-4c8f-9105-7c5158966471","system_id":"levelo_inurba_marseille","lat":43.28345,"lon":5.38101,"is_reserved":false,"is_disabled":false,"rental_uris":{"android":"levelo://app?vid=c50ce0f7-7720-4c8f-9105-7c5158966471","ios":"levelo://app?vid=c50ce0f7-7720-4c8f-9105-7c5158966471"},"vehicle_type_id":"4","last_reported":1736111230,"current_range_meters":14800,"station_id":"ce4bh412rcd13ifvqdr0","pricing_plan_id":"cebpf4jnsgd1na2vs0mg"},{"bike_id":"44ee20c0-b9f0-46e2-832f-e5de780cf735","system_id":"levelo_inurba_marseille","lat":43.28682,"lon":5.37974,"is_reserved":false,"is_disabled":false,"rental_uris":{"android":"levelo://app?vid=44ee20c0-b9f0-46e2-832f-e5de780cf735","ios":"levelo://app?vid=44ee20c0-b9f0-46e2-832f-e5de780cf735"},"vehicle_type_id":"4","last_reported":1736111230,"current_range_meters":33200,"station_id":"ce4bh9p2rcd13ifvqec0","pricing_plan_id":"cebpf4jnsgd1na2vs0mg"},{"bike_id":"7f1ce4ed-0cd0-4d23-b89e-099e0df8c108","system_id":"levelo_inurba_marseille","lat":43.25725,"lon":5.41099,"is_reserved":false,"is_disabled":false,"rental_uris":{"android":"levelo://app?vid=7f1ce4ed-0cd0-4d23-b89e-099e0df8c108","ios":"levelo://app?vid=7f1ce4ed-0cd0-4d23-b89e-099e0df8c108"},"vehicle_type_id":"4","last_reported":1736111230,"current_range_meters":38800,"station_id":"ce4bhkp2rcd13ifvqgd0","pricing_plan_id":"cebpf4jnsgd1na2vs0mg"},{"bike_id":"9db30acb-5eb1-4a75-9331-1f42fd694337","system_id":"levelo_inurba_marseille","lat":43.27933,"lon":5.39587,"is_reserved":false,"is_disabled":false,"rental_uris":{"android":"levelo://app?vid=9db30acb-5eb1-4a75-9331-1f42fd694337","ios":"levelo://app?vid=9db30acb-5eb1-4a75-9331-1f42fd694337"},"vehicle_type_id":"4","last_reported":1736111230,"current_range_meters":21600,"station_id":"ce4bhf92rcd13ifvqf40","pricing_plan_id":"cebpf4jnsgd1na2vs0mg"},{"bike_id":"46b62559-aa08-4333-86bc-1469343cb594","system_id":"levelo_inurba_marseille","lat":43.28159,"lon":5.42639,"is_reserved":false,"is_disabled":false,"rental_uris":{"android":"levelo://app?vid=46b62559-aa08-4333-86bc-1469343cb594","ios":"levelo://app?vid=46b62559-aa08-4333-86bc-1469343cb594"},"vehicle_type_id":"4","last_reported":1736111230,"current_range_meters":12400,"station_id":"ce4bhnh2rcd13ifvqgug","pricing_plan_id":"cebpf4jnsgd1na2vs0mg"},{"bike_id":"f8142e8a-f886-4c5e-b399-88d8fa1c1d32","system_id":"levelo_inurba_marseille","lat":43.246746,"lon":5.381616,"is_reserved":false,"is_disabled":false,"rental_uris":{"android":"levelo://app?vid=f8142e8a-f886-4c5e-b399-88d8fa1c1d32","ios":"levelo://app?vid=f8142e8a-f886-4c5e-b399-88d8fa1c1d32"},"vehicle_type_id":"4","last_reported":1736111230,"current_range_meters":25200,"station_id":"ce4bhih2rcd13ifvqfr0","pricing_plan_id":"cebpf4jnsgd1na2vs0mg"},{"bike_id":"7e252495-2d69-4ad4-9fea-fd5619f3dee7","system_id":"levelo_inurba_marseille","lat":43.29267,"lon":5.38459,"is_reserved":false,"is_disabled":false,"rental_uris":{"android":"levelo://app?vid=7e252495-2d69-4ad4-9fea-fd5619f3dee7","ios":"levelo://app?vid=7e252495-2d69-4ad4-9fea-fd5619f3dee7"},"vehicle_type_id":"4","last_reported":1736111230,"current_range_meters":36000,"station_id":"ce4bh692rcd13ifvqea0","pricing_plan_id":"cebpf4jnsgd1na2vs0mg"},{"bike_id":"1aba21f4-1bc8-481b-8d4e-71db03f213fd","system_id":"levelo_inurba_marseille","lat":43.25076,"lon":5.40324,"is_reserved":false,"is_disabled":false,"rental_uris":{"android":"levelo://app?vid=1aba21f4-1bc8-481b-8d4e-71db03f213fd","ios":"levelo://app?vid=1aba21f4-1bc8-481b-8d4e-71db03f213fd"},"vehicle_type_id":"4","last_reported":1736111230,"current_range_meters":29600,"station_id":"ce4bhlh2rcd13ifvqgig","pricing_plan_id":"cebpf4jnsgd1na2vs0mg"},{"bike_id":"5acd51ab-33ae-465f-9994-b539f1713987","system_id":"levelo_inurba_marseille","lat":43.337285,"lon":5.391804,"is_reserved":false,"is_disabled":false,"rental_uris":{"android":"levelo://app?vid=5acd51ab-33ae-465f-9994-b539f1713987","ios":"levelo://app?vid=5acd51ab-33ae-465f-9994-b539f1713987"},"vehicle_type_id":"4","last_reported":1736111230,"current_range_meters":37600,"station_id":"ce4bhr92rcd13ifvqhsg","pricing_plan_id":"cebpf4jnsgd1na2vs0mg"},{"bike_id":"f3d41f41-839d-41a5-aa6d-f2ba87ff18f0","system_id":"levelo_inurba_marseille","lat":43.24081,"lon":5.377296,"is_reserved":false,"is_disabled":true,"rental_uris":{"android":"levelo://app?vid=f3d41f41-839d-41a5-aa6d-f2ba87ff18f0","ios":"levelo://app?vid=f3d41f41-839d-41a5-aa6d-f2ba87ff18f0"},"vehicle_type_id":"4","last_reported":1736111230,"current_range_meters":37600,"station_id":"ce4bhnp2rcd13ifvqgvg","pricing_plan_id":"cebpf4jnsgd1na2vs0mg"},{"bike_id":"7a642d60-3ea7-4aa8-9bb5-5f10b3beea02","system_id":"levelo_inurba_marseille","lat":43.32289,"lon":5.38258,"is_reserved":false,"is_disabled":false,"rental_uris":{"android":"levelo://app?vid=7a642d60-3ea7-4aa8-9bb5-5f10b3beea02","ios":"levelo://app?vid=7a642d60-3ea7-4aa8-9bb5-5f10b3beea02"},"vehicle_type_id":"4","last_reported":1736111230,"current_range_meters":38800,"station_id":"ce4bhr12rcd13ifvqhqg","pricing_plan_id":"cebpf4jnsgd1na2vs0mg"},{"bike_id":"5a231d4e-1469-4389-a9bc-0d65fec09d5f","system_id":"levelo_inurba_marseille","lat":43.28293,"lon":5.4331,"is_reserved":false,"is_disabled":false,"rental_uris":{"android":"levelo://app?vid=5a231d4e-1469-4389-a9bc-0d65fec09d5f","ios":"levelo://app?vid=5a231d4e-1469-4389-a9bc-0d65fec09d5f"},"vehicle_type_id":"4","last_reported":1736111230,"current_range_meters":11600,"station_id":"","pricing_plan_id":"cebpf4jnsgd1na2vs0mg"},{"bike_id":"edb55715-a0a9-4568-9f84-0cd1f503a57e","system_id":"levelo_inurba_marseille","lat":43.26784,"lon":5.39396,"is_reserved":false,"is_disabled":false,"rental_uris":{"android":"levelo://app?vid=edb55715-a0a9-4568-9f84-0cd1f503a57e","ios":"levelo://app?vid=edb55715-a0a9-4568-9f84-0cd1f503a57e"},"vehicle_type_id":"4","last_reported":1736111230,"current_range_meters":6000,"station_id":"ce4bhh12rcd13ifvqfg0","pricing_plan_id":"cebpf4jnsgd1na2vs0mg"},{"bike_id":"3a1f3a13-5bcf-45d3-be11-5004b1da26ae","system_id":"levelo_inurba_marseille","lat":43.29557,"lon":5.42291,"is_reserved":false,"is_disabled":false,"rental_uris":{"android":"levelo://app?vid=3a1f3a13-5bcf-45d3-be11-5004b1da26ae","ios":"levelo://app?vid=3a1f3a13-5bcf-45d3-be11-5004b1da26ae"},"vehicle_type_id":"4","last_reported":1736111230,"current_range_meters":26000,"station_id":"ce4bhph2rcd13ifvqhdg","pricing_plan_id":"cebpf4jnsgd1na2vs0mg"},{"bike_id":"7b78d5e2-5142-402d-a4f8-0f3037a6c533","system_id":"levelo_inurba_marseille","lat":43.26948,"lon":5.3863,"is_reserved":false,"is_disabled":true,"rental_uris":{"android":"levelo://app?vid=7b78d5e2-5142-402d-a4f8-0f3037a6c533","ios":"levelo://app?vid=7b78d5e2-5142-402d-a4f8-0f3037a6c533"},"vehicle_type_id":"4","last_reported":1736111230,"current_range_meters":38800,"station_id":"ce4bhh92rcd13ifvqfh0","pricing_plan_id":"cebpf4jnsgd1na2vs0mg"},{"bike_id":"99ea5841-b8af-4dc3-9cba-b0924afd8cdf","system_id":"levelo_inurba_marseille","lat":43.29273,"lon":5.40902,"is_reserved":false,"is_disabled":false,"rental_uris":{"android":"levelo://app?vid=99ea5841-b8af-4dc3-9cba-b0924afd8cdf","ios":"levelo://app?vid=99ea5841-b8af-4dc3-9cba-b0924afd8cdf"},"vehicle_type_id":"4","last_reported":1736111230,"current_range_meters":23200,"station_id":"ce4bh192rcd13ifvqdc0","pricing_plan_id":"cebpf4jnsgd1na2vs0mg"},{"bike_id":"2f33d4dd-c94f-41e6-bce5-42d4c6341eb0","system_id":"levelo_inurba_marseille","lat":43.29904,"lon":5.43662,"is_reserved":false,"is_disabled":false,"rental_uris":{"android":"levelo://app?vid=2f33d4dd-c94f-41e6-bce5-42d4c6341eb0","ios":"levelo://app?vid=2f33d4dd-c94f-41e6-bce5-42d4c6341eb0"},"vehicle_type_id":"4","last_reported":1736111230,"current_range_meters":32000,"station_id":"ce4bhpp2rcd13ifvqhfg","pricing_plan_id":"cebpf4jnsgd1na2vs0mg"},{"bike_id":"d0d21930-fe1d-478b-8251-bcf89564599d","system_id":"levelo_inurba_marseille","lat":43.29544,"lon":5.42276,"is_reserved":false,"is_disabled":false,"rental_uris":{"android":"levelo://app?vid=d0d21930-fe1d-478b-8251-bcf89564599d","ios":"levelo://app?vid=d0d21930-fe1d-478b-8251-bcf89564599d"},"vehicle_type_id":"4","last_reported":1736111230,"current_range_meters":26000,"station_id":"ce4bhph2rcd13ifvqhdg","pricing_plan_id":"cebpf4jnsgd1na2vs0mg"},{"bike_id":"793e61cf-3f17-4ddb-a802-7a02054d1a95","system_id":"levelo_inurba_marseille","lat":43.231507,"lon":5.437087,"is_reserved":false,"is_disabled":false,"rental_uris":{"android":"levelo://app?vid=793e61cf-3f17-4ddb-a802-7a02054d1a95","ios":"levelo://app?vid=793e61cf-3f17-4ddb-a802-7a02054d1a95"},"vehicle_type_id":"4","last_reported":1736111230,"current_range_meters":32800,"station_id":"ce4bhmp2rcd13ifvqgog","pricing_plan_id":"cebpf4jnsgd1na2vs0mg"},{"bike_id":"dfcfabc5-e153-44d0-a673-115c7d6bb657","system_id":"levelo_inurba_marseille","lat":43.28373,"lon":5.38634,"is_reserved":false,"is_disabled":false,"rental_uris":{"android":"levelo://app?vid=dfcfabc5-e153-44d0-a673-115c7d6bb657","ios":"levelo://app?vid=dfcfabc5-e153-44d0-a673-115c7d6bb657"},"vehicle_type_id":"4","last_reported":1736111230,"current_range_meters":37600,"station_id":"ce4bh492rcd13ifvqdvg","pricing_plan_id":"cebpf4jnsgd1na2vs0mg"},{"bike_id":"337f3b6f-2cd7-4dc5-8d5f-11acfc8d9e29","system_id":"levelo_inurba_marseille","lat":43.27818,"lon":5.39186,"is_reserved":false,"is_disabled":false,"rental_uris":{"android":"levelo://app?vid=337f3b6f-2cd7-4dc5-8d5f-11acfc8d9e29","ios":"levelo://app?vid=337f3b6f-2cd7-4dc5-8d5f-11acfc8d9e29"},"vehicle_type_id":"4","last_reported":1736111230,"current_range_meters":8000,"station_id":"ce4bhjp2rcd13ifvqga0","pricing_plan_id":"cebpf4jnsgd1na2vs0mg"},{"bike_id":"41362472-f79e-4cfa-aad7-dd33310824b0","system_id":"levelo_inurba_marseille","lat":43.33734,"lon":5.39204,"is_reserved":false,"is_disabled":false,"rental_uris":{"android":"levelo://app?vid=41362472-f79e-4cfa-aad7-dd33310824b0","ios":"levelo://app?vid=41362472-f79e-4cfa-aad7-dd33310824b0"},"vehicle_type_id":"4","last_reported":1736111230,"current_range_meters":38400,"station_id":"ce4bhr92rcd13ifvqhsg","pricing_plan_id":"cebpf4jnsgd1na2vs0mg"},{"bike_id":"6e3c84b2-6dd9-459d-aa5d-f0176703ca86","system_id":"levelo_inurba_marseille","lat":43.31178,"lon":5.38725,"is_reserved":false,"is_disabled":false,"rental_uris":{"android":"levelo://app?vid=6e3c84b2-6dd9-459d-aa5d-f0176703ca86","ios":"levelo://app?vid=6e3c84b2-6dd9-459d-aa5d-f0176703ca86"},"vehicle_type_id":"4","last_reported":1736111230,"current_range_meters":30400,"station_id":"ce4bgv12rcd13ifvqcp0","pricing_plan_id":"cebpf4jnsgd1na2vs0mg"},{"bike_id":"9f2b47b7-2543-4e6c-8391-343fb67c1ff7","system_id":"levelo_inurba_marseille","lat":43.28609,"lon":5.37057,"is_reserved":false,"is_disabled":false,"rental_uris":{"android":"levelo://app?vid=9f2b47b7-2543-4e6c-8391-343fb67c1ff7","ios":"levelo://app?vid=9f2b47b7-2543-4e6c-8391-343fb67c1ff7"},"vehicle_type_id":"4","last_reported":1736111230,"current_range_meters":35600,"station_id":"ce4bht12rcd13ifvqi60","pricing_plan_id":"cebpf4jnsgd1na2vs0mg"},{"bike_id":"96ba2f1d-82f4-465c-8ab6-4416dcee590a","system_id":"levelo_inurba_marseille","lat":43.30887,"lon":5.37195,"is_reserved":false,"is_disabled":false,"rental_uris":{"android":"levelo://app?vid=96ba2f1d-82f4-465c-8ab6-4416dcee590a","ios":"levelo://app?vid=96ba2f1d-82f4-465c-8ab6-4416dcee590a"},"vehicle_type_id":"4","last_reported":1736111230,"current_range_meters":14000,"station_id":"ce4bguh2rcd13ifvqckg","pricing_plan_id":"cebpf4jnsgd1na2vs0mg"},{"bike_id":"dd9ceb88-0982-451d-a24d-2f92b1b447f4","system_id":"levelo_inurba_marseille","lat":43.2319,"lon":5.39983,"is_reserved":false,"is_disabled":false,"rental_uris":{"android":"levelo://app?vid=dd9ceb88-0982-451d-a24d-2f92b1b447f4","ios":"levelo://app?vid=dd9ceb88-0982-451d-a24d-2f92b1b447f4"},"vehicle_type_id":"4","last_reported":1736111230,"current_range_meters":8800,"station_id":"ce4bhn12rcd13ifvqgqg","pricing_plan_id":"cebpf4jnsgd1na2vs0mg"},{"bike_id":"830b5d3b-cabb-4fdb-be27-c9d3d8ea9fde","system_id":"levelo_inurba_marseille","lat":43.24817,"lon":5.37458,"is_reserved":false,"is_disabled":false,"rental_uris":{"android":"levelo://app?vid=830b5d3b-cabb-4fdb-be27-c9d3d8ea9fde","ios":"levelo://app?vid=830b5d3b-cabb-4fdb-be27-c9d3d8ea9fde"},"vehicle_type_id":"4","last_reported":1736111230,"current_range_meters":36800,"station_id":"ce4bhgh2rcd13ifvqfb0","pricing_plan_id":"cebpf4jnsgd1na2vs0mg"},{"bike_id":"014411df-20bd-4572-85be-a67bda909058","system_id":"levelo_inurba_marseille","lat":43.29552,"lon":5.42293,"is_reserved":false,"is_disabled":false,"rental_uris":{"android":"levelo://app?vid=014411df-20bd-4572-85be-a67bda909058","ios":"levelo://app?vid=014411df-20bd-4572-85be-a67bda909058"},"vehicle_type_id":"4","last_reported":1736111230,"current_range_meters":14400,"station_id":"ce4bhph2rcd13ifvqhdg","pricing_plan_id":"cebpf4jnsgd1na2vs0mg"},{"bike_id":"692b94e0-fbe6-4eec-8fb4-8de7c633c600","system_id":"levelo_inurba_marseille","lat":43.29902,"lon":5.37471,"is_reserved":false,"is_disabled":false,"rental_uris":{"android":"levelo://app?vid=692b94e0-fbe6-4eec-8fb4-8de7c633c600","ios":"levelo://app?vid=692b94e0-fbe6-4eec-8fb4-8de7c633c600"},"vehicle_type_id":"4","last_reported":1736111230,"current_range_meters":38400,"station_id":"ce4bgjh2rcd13ifvqbg0","pricing_plan_id":"cebpf4jnsgd1na2vs0mg"},{"bike_id":"8785ddf2-7225-4c15-a282-1f8baeace2a7","system_id":"levelo_inurba_marseille","lat":43.26057,"lon":5.39397,"is_reserved":false,"is_disabled":false,"rental_uris":{"android":"levelo://app?vid=8785ddf2-7225-4c15-a282-1f8baeace2a7","ios":"levelo://app?vid=8785ddf2-7225-4c15-a282-1f8baeace2a7"},"vehicle_type_id":"4","last_reported":1736111230,"current_range_meters":24800,"station_id":"ce4bhh92rcd13ifvqfj0","pricing_plan_id":"cebpf4jnsgd1na2vs0mg"},{"bike_id":"66b33574-24c6-44d6-a05a-4207c00ae305","system_id":"levelo_inurba_marseille","lat":43.31059,"lon":5.38358,"is_reserved":false,"is_disabled":false,"rental_uris":{"android":"levelo://app?vid=66b33574-24c6-44d6-a05a-4207c00ae305","ios":"levelo://app?vid=66b33574-24c6-44d6-a05a-4207c00ae305"},"vehicle_type_id":"4","last_reported":1736111230,"current_range_meters":22800,"station_id":"ce4bgv92rcd13ifvqcr0","pricing_plan_id":"cebpf4jnsgd1na2vs0mg"},{"bike_id":"a6f828f1-5f97-4da7-bf33-7d48a155db3e","system_id":"levelo_inurba_marseille","lat":43.27834,"lon":5.39197,"is_reserved":false,"is_disabled":false,"rental_uris":{"android":"levelo://app?vid=a6f828f1-5f97-4da7-bf33-7d48a155db3e","ios":"levelo://app?vid=a6f828f1-5f97-4da7-bf33-7d48a155db3e"},"vehicle_type_id":"4","last_reported":1736111230,"current_range_meters":20400,"station_id":"ce4bhjp2rcd13ifvqga0","pricing_plan_id":"cebpf4jnsgd1na2vs0mg"},{"bike_id":"a14752e9-4237-4aa7-9e60-bc816ae71a2f","system_id":"levelo_inurba_marseille","lat":43.29203,"lon":5.35805,"is_reserved":false,"is_disabled":false,"rental_uris":{"android":"levelo://app?vid=a14752e9-4237-4aa7-9e60-bc816ae71a2f","ios":"levelo://app?vid=a14752e9-4237-4aa7-9e60-bc816ae71a2f"},"vehicle_type_id":"4","last_reported":1736111230,"current_range_meters":26800,"station_id":"ce4bhb12rcd13ifvqel0","pricing_plan_id":"cebpf4jnsgd1na2vs0mg"},{"bike_id":"a522c7f8-85db-4294-bcdd-44c45cbf4d5e","system_id":"levelo_inurba_marseille","lat":43.23175,"lon":5.40006,"is_reserved":false,"is_disabled":false,"rental_uris":{"android":"levelo://app?vid=a522c7f8-85db-4294-bcdd-44c45cbf4d5e","ios":"levelo://app?vid=a522c7f8-85db-4294-bcdd-44c45cbf4d5e"},"vehicle_type_id":"4","last_reported":1736111230,"current_range_meters":36800,"station_id":"ce4bhn12rcd13ifvqgqg","pricing_plan_id":"cebpf4jnsgd1na2vs0mg"},{"bike_id":"3281bd53-768d-4042-8295-96a3118e779a","system_id":"levelo_inurba_marseille","lat":43.28341,"lon":5.38096,"is_reserved":false,"is_disabled":false,"rental_uris":{"android":"levelo://app?vid=3281bd53-768d-4042-8295-96a3118e779a","ios":"levelo://app?vid=3281bd53-768d-4042-8295-96a3118e779a"},"vehicle_type_id":"4","last_reported":1736111230,"current_range_meters":39200,"station_id":"ce4bh412rcd13ifvqdr0","pricing_plan_id":"cebpf4jnsgd1na2vs0mg"},{"bike_id":"e8a185b3-d63a-46a8-a06c-c198a1239fb6","system_id":"levelo_inurba_marseille","lat":43.27556,"lon":5.39633,"is_reserved":false,"is_disabled":false,"rental_uris":{"android":"levelo://app?vid=e8a185b3-d63a-46a8-a06c-c198a1239fb6","ios":"levelo://app?vid=e8a185b3-d63a-46a8-a06c-c198a1239fb6"},"vehicle_type_id":"4","last_reported":1736111230,"current_range_meters":24800,"station_id":"","pricing_plan_id":"cebpf4jnsgd1na2vs0mg"},{"bike_id":"2bb365b9-b0ab-4842-8b8c-e8de6374870a","system_id":"levelo_inurba_marseille","lat":43.24656,"lon":5.38875,"is_reserved":false,"is_disabled":false,"rental_uris":{"android":"levelo://app?vid=2bb365b9-b0ab-4842-8b8c-e8de6374870a","ios":"levelo://app?vid=2bb365b9-b0ab-4842-8b8c-e8de6374870a"},"vehicle_type_id":"4","last_reported":1736111230,"current_range_meters":38800,"station_id":"ce4bhg12rcd13ifvqf60","pricing_plan_id":"cebpf4jnsgd1na2vs0mg"},{"bike_id":"d5cf32d8-fc11-417e-ab57-6755306cb969","system_id":"levelo_inurba_marseille","lat":43.28417,"lon":5.37519,"is_reserved":false,"is_disabled":false,"rental_uris":{"android":"levelo://app?vid=d5cf32d8-fc11-417e-ab57-6755306cb969","ios":"levelo://app?vid=d5cf32d8-fc11-417e-ab57-6755306cb969"},"vehicle_type_id":"4","last_reported":1736111230,"current_range_meters":31200,"station_id":"ce4bh412rcd13ifvqds0","pricing_plan_id":"cebpf4jnsgd1na2vs0mg"},{"bike_id":"649a22cc-b759-48ea-a94f-6c197fca6215","system_id":"levelo_inurba_marseille","lat":43.27217,"lon":5.39194,"is_reserved":false,"is_disabled":false,"rental_uris":{"android":"levelo://app?vid=649a22cc-b759-48ea-a94f-6c197fca6215","ios":"levelo://app?vid=649a22cc-b759-48ea-a94f-6c197fca6215"},"vehicle_type_id":"4","last_reported":1736111230,"current_range_meters":22000,"station_id":"ce4bhhp2rcd13ifvqfm0","pricing_plan_id":"cebpf4jnsgd1na2vs0mg"},{"bike_id":"f4dc4c8b-b100-4ed9-834b-1843bd63cff1","system_id":"levelo_inurba_marseille","lat":43.28729,"lon":5.360853,"is_reserved":false,"is_disabled":true,"rental_uris":{"android":"levelo://app?vid=f4dc4c8b-b100-4ed9-834b-1843bd63cff1","ios":"levelo://app?vid=f4dc4c8b-b100-4ed9-834b-1843bd63cff1"},"vehicle_type_id":"4","last_reported":1736111230,"current_range_meters":400,"station_id":"cki0cbj6b192h4jlfktg","pricing_plan_id":"cebpf4jnsgd1na2vs0mg"},{"bike_id":"6a595de3-0911-46a9-bdbf-4cca5437105e","system_id":"levelo_inurba_marseille","lat":43.23214,"lon":5.35546,"is_reserved":false,"is_disabled":false,"rental_uris":{"android":"levelo://app?vid=6a595de3-0911-46a9-bdbf-4cca5437105e","ios":"levelo://app?vid=6a595de3-0911-46a9-bdbf-4cca5437105e"},"vehicle_type_id":"4","last_reported":1736111230,"current_range_meters":24400,"station_id":"ce4bhu92rcd13ifvqi70","pricing_plan_id":"cebpf4jnsgd1na2vs0mg"},{"bike_id":"641d8acc-50b2-4173-ab23-c70f2a11d28e","system_id":"levelo_inurba_marseille","lat":43.28147,"lon":5.42633,"is_reserved":false,"is_disabled":true,"rental_uris":{"android":"levelo://app?vid=641d8acc-50b2-4173-ab23-c70f2a11d28e","ios":"levelo://app?vid=641d8acc-50b2-4173-ab23-c70f2a11d28e"},"vehicle_type_id":"4","last_reported":1736111230,"current_range_meters":30400,"station_id":"ce4bhnh2rcd13ifvqgug","pricing_plan_id":"cebpf4jnsgd1na2vs0mg"},{"bike_id":"5e1410a8-2898-4c41-8f96-f8d8591cd1e8","system_id":"levelo_inurba_marseille","lat":43.28455,"lon":5.39203,"is_reserved":false,"is_disabled":false,"rental_uris":{"android":"levelo://app?vid=5e1410a8-2898-4c41-8f96-f8d8591cd1e8","ios":"levelo://app?vid=5e1410a8-2898-4c41-8f96-f8d8591cd1e8"},"vehicle_type_id":"4","last_reported":1736111230,"current_range_meters":36000,"station_id":"ce4bhoh2rcd13ifvqh5g","pricing_plan_id":"cebpf4jnsgd1na2vs0mg"},{"bike_id":"15e503f5-1d52-42d6-a98f-33a61fd8b554","system_id":"levelo_inurba_marseille","lat":43.28459,"lon":5.35887,"is_reserved":false,"is_disabled":true,"rental_uris":{"android":"levelo://app?vid=15e503f5-1d52-42d6-a98f-33a61fd8b554","ios":"levelo://app?vid=15e503f5-1d52-42d6-a98f-33a61fd8b554"},"vehicle_type_id":"4","last_reported":1736111230,"current_range_meters":24800,"station_id":"ce4bhah2rcd13ifvqei0","pricing_plan_id":"cebpf4jnsgd1na2vs0mg"},{"bike_id":"6a6cde56-543d-4320-b530-a8d4d4944794","system_id":"levelo_inurba_marseille","lat":43.29898,"lon":5.43666,"is_reserved":false,"is_disabled":false,"rental_uris":{"android":"levelo://app?vid=6a6cde56-543d-4320-b530-a8d4d4944794","ios":"levelo://app?vid=6a6cde56-543d-4320-b530-a8d4d4944794"},"vehicle_type_id":"4","last_reported":1736111230,"current_range_meters":26800,"station_id":"ce4bhpp2rcd13ifvqhfg","pricing_plan_id":"cebpf4jnsgd1na2vs0mg"},{"bike_id":"37fe1b68-5180-4554-a1f4-97a6f9e9624f","system_id":"levelo_inurba_marseille","lat":43.3237,"lon":5.38882,"is_reserved":false,"is_disabled":false,"rental_uris":{"android":"levelo://app?vid=37fe1b68-5180-4554-a1f4-97a6f9e9624f","ios":"levelo://app?vid=37fe1b68-5180-4554-a1f4-97a6f9e9624f"},"vehicle_type_id":"4","last_reported":1736111230,"current_range_meters":38800,"station_id":"ce4bhqp2rcd13ifvqhog","pricing_plan_id":"cebpf4jnsgd1na2vs0mg"},{"bike_id":"88fbd2f9-edba-4674-927d-ce8a9c56a0e7","system_id":"levelo_inurba_marseille","lat":43.28159,"lon":5.42626,"is_reserved":false,"is_disabled":false,"rental_uris":{"android":"levelo://app?vid=88fbd2f9-edba-4674-927d-ce8a9c56a0e7","ios":"levelo://app?vid=88fbd2f9-edba-4674-927d-ce8a9c56a0e7"},"vehicle_type_id":"4","last_reported":1736111230,"current_range_meters":30400,"station_id":"ce4bhnh2rcd13ifvqgug","pricing_plan_id":"cebpf4jnsgd1na2vs0mg"},{"bike_id":"bd609247-c05b-4bfd-8224-3974e4956916","system_id":"levelo_inurba_marseille","lat":43.30907,"lon":5.36908,"is_reserved":false,"is_disabled":true,"rental_uris":{"android":"levelo://app?vid=bd609247-c05b-4bfd-8224-3974e4956916","ios":"levelo://app?vid=bd609247-c05b-4bfd-8224-3974e4956916"},"vehicle_type_id":"4","last_reported":1736111230,"current_range_meters":30400,"station_id":"ce4bgn92rcd13ifvqbvg","pricing_plan_id":"cebpf4jnsgd1na2vs0mg"},{"bike_id":"a7f3da29-7bc8-4348-81ae-bcb4cdc4fe9e","system_id":"levelo_inurba_marseille","lat":43.27297,"lon":5.39062,"is_reserved":false,"is_disabled":false,"rental_uris":{"android":"levelo://app?vid=a7f3da29-7bc8-4348-81ae-bcb4cdc4fe9e","ios":"levelo://app?vid=a7f3da29-7bc8-4348-81ae-bcb4cdc4fe9e"},"vehicle_type_id":"4","last_reported":1736111230,"current_range_meters":30800,"station_id":"ce4bhgp2rcd13ifvqfe0","pricing_plan_id":"cebpf4jnsgd1na2vs0mg"},{"bike_id":"1d0bbe0f-f700-4582-ac8d-9f2887749fbf","system_id":"levelo_inurba_marseille","lat":43.28483,"lon":5.3844,"is_reserved":false,"is_disabled":true,"rental_uris":{"android":"levelo://app?vid=1d0bbe0f-f700-4582-ac8d-9f2887749fbf","ios":"levelo://app?vid=1d0bbe0f-f700-4582-ac8d-9f2887749fbf"},"vehicle_type_id":"4","last_reported":1736111230,"current_range_meters":38800,"station_id":"ce4bh512rcd13ifvqe3g","pricing_plan_id":"cebpf4jnsgd1na2vs0mg"},{"bike_id":"55bac736-a6fd-4758-80e7-9f2eb4ece4fc","system_id":"levelo_inurba_marseille","lat":43.29267,"lon":5.38439,"is_reserved":false,"is_disabled":false,"rental_uris":{"android":"levelo://app?vid=55bac736-a6fd-4758-80e7-9f2eb4ece4fc","ios":"levelo://app?vid=55bac736-a6fd-4758-80e7-9f2eb4ece4fc"},"vehicle_type_id":"4","last_reported":1736111230,"current_range_meters":18800,"station_id":"ce4bh692rcd13ifvqea0","pricing_plan_id":"cebpf4jnsgd1na2vs0mg"},{"bike_id":"5df2ea72-3eb6-4038-b2ae-674b515eb45a","system_id":"levelo_inurba_marseille","lat":43.27062,"lon":5.40252,"is_reserved":false,"is_disabled":false,"rental_uris":{"android":"levelo://app?vid=5df2ea72-3eb6-4038-b2ae-674b515eb45a","ios":"levelo://app?vid=5df2ea72-3eb6-4038-b2ae-674b515eb45a"},"vehicle_type_id":"4","last_reported":1736111230,"current_range_meters":34800,"station_id":"ce4bhk92rcd13ifvqgc0","pricing_plan_id":"cebpf4jnsgd1na2vs0mg"},{"bike_id":"320ec9e9-e171-4d91-96c1-e4f49781f808","system_id":"levelo_inurba_marseille","lat":43.30658,"lon":5.40092,"is_reserved":false,"is_disabled":false,"rental_uris":{"android":"levelo://app?vid=320ec9e9-e171-4d91-96c1-e4f49781f808","ios":"levelo://app?vid=320ec9e9-e171-4d91-96c1-e4f49781f808"},"vehicle_type_id":"4","last_reported":1736111230,"current_range_meters":38800,"station_id":"ce4bh112rcd13ifvqda0","pricing_plan_id":"cebpf4jnsgd1na2vs0mg"},{"bike_id":"f2d91b54-823d-4751-962d-d6fdb89d7f15","system_id":"levelo_inurba_marseille","lat":43.26942,"lon":5.40241,"is_reserved":false,"is_disabled":false,"rental_uris":{"android":"levelo://app?vid=f2d91b54-823d-4751-962d-d6fdb89d7f15","ios":"levelo://app?vid=f2d91b54-823d-4751-962d-d6fdb89d7f15"},"vehicle_type_id":"4","last_reported":1736111230,"current_range_meters":38000,"station_id":"cjm6bp8fraef2m0cb0m0","pricing_plan_id":"cebpf4jnsgd1na2vs0mg"},{"bike_id":"c80cec36-d313-41ad-bf5e-908a22a7fd56","system_id":"levelo_inurba_marseille","lat":43.24076,"lon":5.37725,"is_reserved":false,"is_disabled":false,"rental_uris":{"android":"levelo://app?vid=c80cec36-d313-41ad-bf5e-908a22a7fd56","ios":"levelo://app?vid=c80cec36-d313-41ad-bf5e-908a22a7fd56"},"vehicle_type_id":"4","last_reported":1736111230,"current_range_meters":16800,"station_id":"ce4bhnp2rcd13ifvqgvg","pricing_plan_id":"cebpf4jnsgd1na2vs0mg"},{"bike_id":"237eb7a7-7331-4631-9377-6cdbdc6e4e98","system_id":"levelo_inurba_marseille","lat":43.26549,"lon":5.39021,"is_reserved":false,"is_disabled":true,"rental_uris":{"android":"levelo://app?vid=237eb7a7-7331-4631-9377-6cdbdc6e4e98","ios":"levelo://app?vid=237eb7a7-7331-4631-9377-6cdbdc6e4e98"},"vehicle_type_id":"4","last_reported":1736111230,"current_range_meters":38000,"station_id":"ce4bhe12rcd13ifvqf30","pricing_plan_id":"cebpf4jnsgd1na2vs0mg"},{"bike_id":"4d4510ea-c8af-461f-9a1d-ace479473212","system_id":"levelo_inurba_marseille","lat":43.24395,"lon":5.37063,"is_reserved":false,"is_disabled":false,"rental_uris":{"android":"levelo://app?vid=4d4510ea-c8af-461f-9a1d-ace479473212","ios":"levelo://app?vid=4d4510ea-c8af-461f-9a1d-ace479473212"},"vehicle_type_id":"4","last_reported":1736111230,"current_range_meters":38800,"station_id":"ce4bhhh2rcd13ifvqfk0","pricing_plan_id":"cebpf4jnsgd1na2vs0mg"},{"bike_id":"408fb3f9-95e4-4474-bd28-fbc9cba6028d","system_id":"levelo_inurba_marseille","lat":43.27062,"lon":5.40254,"is_reserved":false,"is_disabled":false,"rental_uris":{"android":"levelo://app?vid=408fb3f9-95e4-4474-bd28-fbc9cba6028d","ios":"levelo://app?vid=408fb3f9-95e4-4474-bd28-fbc9cba6028d"},"vehicle_type_id":"4","last_reported":1736111230,"current_range_meters":22800,"station_id":"ce4bhk92rcd13ifvqgc0","pricing_plan_id":"cebpf4jnsgd1na2vs0mg"},{"bike_id":"983a939f-0c90-4b41-8e07-1ba37a328643","system_id":"levelo_inurba_marseille","lat":43.24168,"lon":5.36409,"is_reserved":false,"is_disabled":false,"rental_uris":{"android":"levelo://app?vid=983a939f-0c90-4b41-8e07-1ba37a328643","ios":"levelo://app?vid=983a939f-0c90-4b41-8e07-1ba37a328643"},"vehicle_type_id":"4","last_reported":1736111230,"current_range_meters":19200,"station_id":"cpo36qri1sfpv3e86is0","pricing_plan_id":"cebpf4jnsgd1na2vs0mg"},{"bike_id":"e92918ec-92c9-453f-8a2f-aeaed83ac5fd","system_id":"levelo_inurba_marseille","lat":43.24076,"lon":5.37749,"is_reserved":false,"is_disabled":false,"rental_uris":{"android":"levelo://app?vid=e92918ec-92c9-453f-8a2f-aeaed83ac5fd","ios":"levelo://app?vid=e92918ec-92c9-453f-8a2f-aeaed83ac5fd"},"vehicle_type_id":"4","last_reported":1736111230,"current_range_meters":38800,"station_id":"ce4bhnp2rcd13ifvqgvg","pricing_plan_id":"cebpf4jnsgd1na2vs0mg"},{"bike_id":"ba5b40ed-3814-49d1-83cb-e27f1caea548","system_id":"levelo_inurba_marseille","lat":43.25722,"lon":5.4111,"is_reserved":false,"is_disabled":false,"rental_uris":{"android":"levelo://app?vid=ba5b40ed-3814-49d1-83cb-e27f1caea548","ios":"levelo://app?vid=ba5b40ed-3814-49d1-83cb-e27f1caea548"},"vehicle_type_id":"4","last_reported":1736111230,"current_range_meters":12000,"station_id":"ce4bhkp2rcd13ifvqgd0","pricing_plan_id":"cebpf4jnsgd1na2vs0mg"},{"bike_id":"794820a8-3ae3-4e47-b94b-63ea56986ff5","system_id":"levelo_inurba_marseille","lat":43.295546,"lon":5.422842,"is_reserved":false,"is_disabled":false,"rental_uris":{"android":"levelo://app?vid=794820a8-3ae3-4e47-b94b-63ea56986ff5","ios":"levelo://app?vid=794820a8-3ae3-4e47-b94b-63ea56986ff5"},"vehicle_type_id":"4","last_reported":1736111230,"current_range_meters":20400,"station_id":"ce4bhph2rcd13ifvqhdg","pricing_plan_id":"cebpf4jnsgd1na2vs0mg"},{"bike_id":"050c8547-701b-4653-a21b-d4d7c02a87ef","system_id":"levelo_inurba_marseille","lat":43.23959,"lon":5.36638,"is_reserved":false,"is_disabled":false,"rental_uris":{"android":"levelo://app?vid=050c8547-701b-4653-a21b-d4d7c02a87ef","ios":"levelo://app?vid=050c8547-701b-4653-a21b-d4d7c02a87ef"},"vehicle_type_id":"4","last_reported":1736111230,"current_range_meters":28000,"station_id":"ce4bhi12rcd13ifvqfp0","pricing_plan_id":"cebpf4jnsgd1na2vs0mg"},{"bike_id":"90066fd0-2da5-4c7c-9f7e-f7f04e357bab","system_id":"levelo_inurba_marseille","lat":43.30652,"lon":5.40086,"is_reserved":false,"is_disabled":false,"rental_uris":{"android":"levelo://app?vid=90066fd0-2da5-4c7c-9f7e-f7f04e357bab","ios":"levelo://app?vid=90066fd0-2da5-4c7c-9f7e-f7f04e357bab"},"vehicle_type_id":"4","last_reported":1736111230,"current_range_meters":38800,"station_id":"ce4bh112rcd13ifvqda0","pricing_plan_id":"cebpf4jnsgd1na2vs0mg"},{"bike_id":"02a6dd22-9e1d-4441-b49c-530d64f621e4","system_id":"levelo_inurba_marseille","lat":43.27063,"lon":5.40257,"is_reserved":false,"is_disabled":false,"rental_uris":{"android":"levelo://app?vid=02a6dd22-9e1d-4441-b49c-530d64f621e4","ios":"levelo://app?vid=02a6dd22-9e1d-4441-b49c-530d64f621e4"},"vehicle_type_id":"4","last_reported":1736111230,"current_range_meters":25600,"station_id":"ce4bhk92rcd13ifvqgc0","pricing_plan_id":"cebpf4jnsgd1na2vs0mg"},{"bike_id":"2ad19bf8-d3c1-4ef3-aacb-207e0f367ded","system_id":"levelo_inurba_marseille","lat":43.2794,"lon":5.4104,"is_reserved":false,"is_disabled":false,"rental_uris":{"android":"levelo://app?vid=2ad19bf8-d3c1-4ef3-aacb-207e0f367ded","ios":"levelo://app?vid=2ad19bf8-d3c1-4ef3-aacb-207e0f367ded"},"vehicle_type_id":"4","last_reported":1736111230,"current_range_meters":5600,"station_id":"ce4bhnp2rcd13ifvqh0g","pricing_plan_id":"cebpf4jnsgd1na2vs0mg"},{"bike_id":"cca2f7c7-45e7-4f8a-80d9-cffca2b70c93","system_id":"levelo_inurba_marseille","lat":43.26712,"lon":5.38264,"is_reserved":false,"is_disabled":true,"rental_uris":{"android":"levelo://app?vid=cca2f7c7-45e7-4f8a-80d9-cffca2b70c93","ios":"levelo://app?vid=cca2f7c7-45e7-4f8a-80d9-cffca2b70c93"},"vehicle_type_id":"4","last_reported":1736111230,"current_range_meters":38000,"station_id":"ce4bhg92rcd13ifvqf90","pricing_plan_id":"cebpf4jnsgd1na2vs0mg"},{"bike_id":"d5d57b30-821c-4fc2-9d29-d2f9db93dd63","system_id":"levelo_inurba_marseille","lat":43.29551,"lon":5.42292,"is_reserved":false,"is_disabled":false,"rental_uris":{"android":"levelo://app?vid=d5d57b30-821c-4fc2-9d29-d2f9db93dd63","ios":"levelo://app?vid=d5d57b30-821c-4fc2-9d29-d2f9db93dd63"},"vehicle_type_id":"4","last_reported":1736111230,"current_range_meters":28000,"station_id":"ce4bhph2rcd13ifvqhdg","pricing_plan_id":"cebpf4jnsgd1na2vs0mg"},{"bike_id":"a5da3476-12d3-477c-ae12-975d41bf4d35","system_id":"levelo_inurba_marseille","lat":43.27217,"lon":5.39192,"is_reserved":false,"is_disabled":false,"rental_uris":{"android":"levelo://app?vid=a5da3476-12d3-477c-ae12-975d41bf4d35","ios":"levelo://app?vid=a5da3476-12d3-477c-ae12-975d41bf4d35"},"vehicle_type_id":"4","last_reported":1736111230,"current_range_meters":38800,"station_id":"ce4bhhp2rcd13ifvqfm0","pricing_plan_id":"cebpf4jnsgd1na2vs0mg"},{"bike_id":"ae75911a-b0bb-4e4d-94f0-7de7971b6816","system_id":"levelo_inurba_marseille","lat":43.24373,"lon":5.3709,"is_reserved":false,"is_disabled":false,"rental_uris":{"android":"levelo://app?vid=ae75911a-b0bb-4e4d-94f0-7de7971b6816","ios":"levelo://app?vid=ae75911a-b0bb-4e4d-94f0-7de7971b6816"},"vehicle_type_id":"4","last_reported":1736111230,"current_range_meters":34000,"station_id":"ce4bhhh2rcd13ifvqfk0","pricing_plan_id":"cebpf4jnsgd1na2vs0mg"},{"bike_id":"de61784b-9926-4849-b558-4384f26dad49","system_id":"levelo_inurba_marseille","lat":43.2848,"lon":5.38427,"is_reserved":false,"is_disabled":true,"rental_uris":{"android":"levelo://app?vid=de61784b-9926-4849-b558-4384f26dad49","ios":"levelo://app?vid=de61784b-9926-4849-b558-4384f26dad49"},"vehicle_type_id":"4","last_reported":1736111230,"current_range_meters":38800,"station_id":"ce4bh512rcd13ifvqe3g","pricing_plan_id":"cebpf4jnsgd1na2vs0mg"},{"bike_id":"415f6335-6174-4590-9e30-e09d3cffb012","system_id":"levelo_inurba_marseille","lat":43.27821,"lon":5.40711,"is_reserved":false,"is_disabled":false,"rental_uris":{"android":"levelo://app?vid=415f6335-6174-4590-9e30-e09d3cffb012","ios":"levelo://app?vid=415f6335-6174-4590-9e30-e09d3cffb012"},"vehicle_type_id":"4","last_reported":1736111230,"current_range_meters":38800,"station_id":"ce4bhnh2rcd13ifvqgtg","pricing_plan_id":"cebpf4jnsgd1na2vs0mg"},{"bike_id":"182c8827-ad8b-4aa6-9862-5b2da55309dc","system_id":"levelo_inurba_marseille","lat":43.29221,"lon":5.36021,"is_reserved":false,"is_disabled":true,"rental_uris":{"android":"levelo://app?vid=182c8827-ad8b-4aa6-9862-5b2da55309dc","ios":"levelo://app?vid=182c8827-ad8b-4aa6-9862-5b2da55309dc"},"vehicle_type_id":"4","last_reported":1736111230,"current_range_meters":38000,"station_id":"ce4bhbh2rcd13ifvqeqg","pricing_plan_id":"cebpf4jnsgd1na2vs0mg"},{"bike_id":"40bfa82c-28b0-45f9-94a4-7ea656577cf2","system_id":"levelo_inurba_marseille","lat":43.29185,"lon":5.39319,"is_reserved":false,"is_disabled":false,"rental_uris":{"android":"levelo://app?vid=40bfa82c-28b0-45f9-94a4-7ea656577cf2","ios":"levelo://app?vid=40bfa82c-28b0-45f9-94a4-7ea656577cf2"},"vehicle_type_id":"4","last_reported":1736111230,"current_range_meters":30800,"station_id":"ce4bh192rcd13ifvqdd0","pricing_plan_id":"cebpf4jnsgd1na2vs0mg"},{"bike_id":"d8b76d84-2dfc-400f-9630-9e7b0787e9cc","system_id":"levelo_inurba_marseille","lat":43.2749,"lon":5.42446,"is_reserved":false,"is_disabled":true,"rental_uris":{"android":"levelo://app?vid=d8b76d84-2dfc-400f-9630-9e7b0787e9cc","ios":"levelo://app?vid=d8b76d84-2dfc-400f-9630-9e7b0787e9cc"},"vehicle_type_id":"4","last_reported":1736111230,"current_range_meters":36800,"station_id":"ce4bhn92rcd13ifvqgrg","pricing_plan_id":"cebpf4jnsgd1na2vs0mg"},{"bike_id":"d4a9d3db-0cbc-4e84-8afc-afe48b86587f","system_id":"levelo_inurba_marseille","lat":43.24077,"lon":5.37754,"is_reserved":false,"is_disabled":false,"rental_uris":{"android":"levelo://app?vid=d4a9d3db-0cbc-4e84-8afc-afe48b86587f","ios":"levelo://app?vid=d4a9d3db-0cbc-4e84-8afc-afe48b86587f"},"vehicle_type_id":"4","last_reported":1736111230,"current_range_meters":11600,"station_id":"ce4bhnp2rcd13ifvqgvg","pricing_plan_id":"cebpf4jnsgd1na2vs0mg"},{"bike_id":"aed9221a-5c2b-4a3f-beb9-c7191eaed855","system_id":"levelo_inurba_marseille","lat":43.27159,"lon":5.39153,"is_reserved":false,"is_disabled":false,"rental_uris":{"android":"levelo://app?vid=aed9221a-5c2b-4a3f-beb9-c7191eaed855","ios":"levelo://app?vid=aed9221a-5c2b-4a3f-beb9-c7191eaed855"},"vehicle_type_id":"4","last_reported":1736111230,"current_range_meters":36800,"station_id":"","pricing_plan_id":"cebpf4jnsgd1na2vs0mg"},{"bike_id":"bbf16901-1354-41cb-b2ef-aa011be26434","system_id":"levelo_inurba_marseille","lat":43.26812,"lon":5.40265,"is_reserved":false,"is_disabled":false,"rental_uris":{"android":"levelo://app?vid=bbf16901-1354-41cb-b2ef-aa011be26434","ios":"levelo://app?vid=bbf16901-1354-41cb-b2ef-aa011be26434"},"vehicle_type_id":"4","last_reported":1736111230,"current_range_meters":38800,"station_id":"ce501612rcd8frsf0b60","pricing_plan_id":"cebpf4jnsgd1na2vs0mg"},{"bike_id":"f5e6699d-b378-4398-8c1a-a5f6b47dca94","system_id":"levelo_inurba_marseille","lat":43.26489,"lon":5.39555,"is_reserved":false,"is_disabled":false,"rental_uris":{"android":"levelo://app?vid=f5e6699d-b378-4398-8c1a-a5f6b47dca94","ios":"levelo://app?vid=f5e6699d-b378-4398-8c1a-a5f6b47dca94"},"vehicle_type_id":"4","last_reported":1736111230,"current_range_meters":38800,"station_id":"ce4bhi12rcd13ifvqfq0","pricing_plan_id":"cebpf4jnsgd1na2vs0mg"},{"bike_id":"3615c4a8-839e-424d-971f-0ec5edfc8084","system_id":"levelo_inurba_marseille","lat":43.251118,"lon":5.403258,"is_reserved":false,"is_disabled":false,"rental_uris":{"android":"levelo://app?vid=3615c4a8-839e-424d-971f-0ec5edfc8084","ios":"levelo://app?vid=3615c4a8-839e-424d-971f-0ec5edfc8084"},"vehicle_type_id":"4","last_reported":1736111230,"current_range_meters":16800,"station_id":"ce4bhlh2rcd13ifvqgig","pricing_plan_id":"cebpf4jnsgd1na2vs0mg"},{"bike_id":"bacd7571-be15-43c7-8506-8086a631a213","system_id":"levelo_inurba_marseille","lat":43.25112,"lon":5.4032,"is_reserved":false,"is_disabled":false,"rental_uris":{"android":"levelo://app?vid=bacd7571-be15-43c7-8506-8086a631a213","ios":"levelo://app?vid=bacd7571-be15-43c7-8506-8086a631a213"},"vehicle_type_id":"4","last_reported":1736111230,"current_range_meters":37600,"station_id":"ce4bhlh2rcd13ifvqgig","pricing_plan_id":"cebpf4jnsgd1na2vs0mg"},{"bike_id":"513556db-94f1-43a7-87b8-d72ff32d073e","system_id":"levelo_inurba_marseille","lat":43.29621,"lon":5.37141,"is_reserved":false,"is_disabled":false,"rental_uris":{"android":"levelo://app?vid=513556db-94f1-43a7-87b8-d72ff32d073e","ios":"levelo://app?vid=513556db-94f1-43a7-87b8-d72ff32d073e"},"vehicle_type_id":"4","last_reported":1736111230,"current_range_meters":38800,"station_id":"ce4bgnh2rcd13ifvqc0g","pricing_plan_id":"cebpf4jnsgd1na2vs0mg"},{"bike_id":"ff78e1f1-bcb8-4182-b9b1-5ab83eb2de66","system_id":"levelo_inurba_marseille","lat":43.31334,"lon":5.39701,"is_reserved":false,"is_disabled":false,"rental_uris":{"android":"levelo://app?vid=ff78e1f1-bcb8-4182-b9b1-5ab83eb2de66","ios":"levelo://app?vid=ff78e1f1-bcb8-4182-b9b1-5ab83eb2de66"},"vehicle_type_id":"4","last_reported":1736111230,"current_range_meters":28400,"station_id":"ce4bgvp2rcd13ifvqcu0","pricing_plan_id":"cebpf4jnsgd1na2vs0mg"},{"bike_id":"ea0bf760-5ebe-42ea-9b3d-1899441dca38","system_id":"levelo_inurba_marseille","lat":43.2886,"lon":5.39314,"is_reserved":false,"is_disabled":false,"rental_uris":{"android":"levelo://app?vid=ea0bf760-5ebe-42ea-9b3d-1899441dca38","ios":"levelo://app?vid=ea0bf760-5ebe-42ea-9b3d-1899441dca38"},"vehicle_type_id":"4","last_reported":1736111230,"current_range_meters":37600,"station_id":"ce4bh2p2rcd13ifvqdi0","pricing_plan_id":"cebpf4jnsgd1na2vs0mg"},{"bike_id":"24bccac7-1e4b-45e8-bc23-0feeff5509f0","system_id":"levelo_inurba_marseille","lat":43.26515,"lon":5.39559,"is_reserved":false,"is_disabled":true,"rental_uris":{"android":"levelo://app?vid=24bccac7-1e4b-45e8-bc23-0feeff5509f0","ios":"levelo://app?vid=24bccac7-1e4b-45e8-bc23-0feeff5509f0"},"vehicle_type_id":"4","last_reported":1736111230,"current_range_meters":0,"station_id":"ce4bhi12rcd13ifvqfq0","pricing_plan_id":"cebpf4jnsgd1na2vs0mg"},{"bike_id":"a91b76c8-319c-4e57-b54f-073d03bdfede","system_id":"levelo_inurba_marseille","lat":43.23964,"lon":5.36629,"is_reserved":false,"is_disabled":false,"rental_uris":{"android":"levelo://app?vid=a91b76c8-319c-4e57-b54f-073d03bdfede","ios":"levelo://app?vid=a91b76c8-319c-4e57-b54f-073d03bdfede"},"vehicle_type_id":"4","last_reported":1736111230,"current_range_meters":32000,"station_id":"ce4bhi12rcd13ifvqfp0","pricing_plan_id":"cebpf4jnsgd1na2vs0mg"},{"bike_id":"8087a52b-c911-4504-a78a-ea7570b337d4","system_id":"levelo_inurba_marseille","lat":43.27209,"lon":5.3918,"is_reserved":false,"is_disabled":false,"rental_uris":{"android":"levelo://app?vid=8087a52b-c911-4504-a78a-ea7570b337d4","ios":"levelo://app?vid=8087a52b-c911-4504-a78a-ea7570b337d4"},"vehicle_type_id":"4","last_reported":1736111230,"current_range_meters":38800,"station_id":"ce4bhhp2rcd13ifvqfm0","pricing_plan_id":"cebpf4jnsgd1na2vs0mg"},{"bike_id":"d400eb61-16e5-4772-875c-c1ea2e3b188d","system_id":"levelo_inurba_marseille","lat":43.27636,"lon":5.38984,"is_reserved":false,"is_disabled":false,"rental_uris":{"android":"levelo://app?vid=d400eb61-16e5-4772-875c-c1ea2e3b188d","ios":"levelo://app?vid=d400eb61-16e5-4772-875c-c1ea2e3b188d"},"vehicle_type_id":"4","last_reported":1736111230,"current_range_meters":38800,"station_id":"","pricing_plan_id":"cebpf4jnsgd1na2vs0mg"},{"bike_id":"b11585d7-076e-4c68-968e-8bf6b6834abc","system_id":"levelo_inurba_marseille","lat":43.29846,"lon":5.38523,"is_reserved":false,"is_disabled":false,"rental_uris":{"android":"levelo://app?vid=b11585d7-076e-4c68-968e-8bf6b6834abc","ios":"levelo://app?vid=b11585d7-076e-4c68-968e-8bf6b6834abc"},"vehicle_type_id":"4","last_reported":1736111230,"current_range_meters":38800,"station_id":"","pricing_plan_id":"cebpf4jnsgd1na2vs0mg"},{"bike_id":"77d1a252-ad27-4bb0-9445-e28fbf63243a","system_id":"levelo_inurba_marseille","lat":43.287,"lon":5.39984,"is_reserved":false,"is_disabled":false,"rental_uris":{"android":"levelo://app?vid=77d1a252-ad27-4bb0-9445-e28fbf63243a","ios":"levelo://app?vid=77d1a252-ad27-4bb0-9445-e28fbf63243a"},"vehicle_type_id":"4","last_reported":1736111230,"current_range_meters":22800,"station_id":"ce4bho92rcd13ifvqh3g","pricing_plan_id":"cebpf4jnsgd1na2vs0mg"},{"bike_id":"55eb4f9e-055d-45a9-a404-9e0d3a07a877","system_id":"levelo_inurba_marseille","lat":43.29268,"lon":5.40121,"is_reserved":false,"is_disabled":true,"rental_uris":{"android":"levelo://app?vid=55eb4f9e-055d-45a9-a404-9e0d3a07a877","ios":"levelo://app?vid=55eb4f9e-055d-45a9-a404-9e0d3a07a877"},"vehicle_type_id":"4","last_reported":1736111230,"current_range_meters":0,"station_id":"ce4bh312rcd13ifvqdk0","pricing_plan_id":"cebpf4jnsgd1na2vs0mg"},{"bike_id":"c4036580-79e3-4a2d-ad16-300064623c44","system_id":"levelo_inurba_marseille","lat":43.25723,"lon":5.41101,"is_reserved":false,"is_disabled":false,"rental_uris":{"android":"levelo://app?vid=c4036580-79e3-4a2d-ad16-300064623c44","ios":"levelo://app?vid=c4036580-79e3-4a2d-ad16-300064623c44"},"vehicle_type_id":"4","last_reported":1736111230,"current_range_meters":22400,"station_id":"ce4bhkp2rcd13ifvqgd0","pricing_plan_id":"cebpf4jnsgd1na2vs0mg"},{"bike_id":"177c1e4d-2fcb-4b52-a3bf-88a2132c12b4","system_id":"levelo_inurba_marseille","lat":43.28712,"lon":5.37391,"is_reserved":false,"is_disabled":true,"rental_uris":{"android":"levelo://app?vid=177c1e4d-2fcb-4b52-a3bf-88a2132c12b4","ios":"levelo://app?vid=177c1e4d-2fcb-4b52-a3bf-88a2132c12b4"},"vehicle_type_id":"4","last_reported":1736111230,"current_range_meters":800,"station_id":"ce4bh3p2rcd13ifvqdq0","pricing_plan_id":"cebpf4jnsgd1na2vs0mg"},{"bike_id":"d45d0089-5e8c-41ac-a04c-9866c8dc94cc","system_id":"levelo_inurba_marseille","lat":43.23216,"lon":5.35536,"is_reserved":false,"is_disabled":false,"rental_uris":{"android":"levelo://app?vid=d45d0089-5e8c-41ac-a04c-9866c8dc94cc","ios":"levelo://app?vid=d45d0089-5e8c-41ac-a04c-9866c8dc94cc"},"vehicle_type_id":"4","last_reported":1736111230,"current_range_meters":10000,"station_id":"ce4bhu92rcd13ifvqi70","pricing_plan_id":"cebpf4jnsgd1na2vs0mg"},{"bike_id":"fb67626b-3e24-428c-900f-1b5768f016c2","system_id":"levelo_inurba_marseille","lat":43.31756,"lon":5.39015,"is_reserved":false,"is_disabled":false,"rental_uris":{"android":"levelo://app?vid=fb67626b-3e24-428c-900f-1b5768f016c2","ios":"levelo://app?vid=fb67626b-3e24-428c-900f-1b5768f016c2"},"vehicle_type_id":"4","last_reported":1736111230,"current_range_meters":24400,"station_id":"ce4bhqp2rcd13ifvqhng","pricing_plan_id":"cebpf4jnsgd1na2vs0mg"},{"bike_id":"b5de95e0-8f34-41aa-a5fc-c4e76e03a994","system_id":"levelo_inurba_marseille","lat":43.28081,"lon":5.3966,"is_reserved":false,"is_disabled":true,"rental_uris":{"android":"levelo://app?vid=b5de95e0-8f34-41aa-a5fc-c4e76e03a994","ios":"levelo://app?vid=b5de95e0-8f34-41aa-a5fc-c4e76e03a994"},"vehicle_type_id":"4","last_reported":1736111230,"current_range_meters":30000,"station_id":"ce4bho12rcd13ifvqh2g","pricing_plan_id":"cebpf4jnsgd1na2vs0mg"},{"bike_id":"aa33a53e-f806-43a8-ad7e-8e2bd9644426","system_id":"levelo_inurba_marseille","lat":43.32345,"lon":5.40629,"is_reserved":false,"is_disabled":true,"rental_uris":{"android":"levelo://app?vid=aa33a53e-f806-43a8-ad7e-8e2bd9644426","ios":"levelo://app?vid=aa33a53e-f806-43a8-ad7e-8e2bd9644426"},"vehicle_type_id":"4","last_reported":1736111230,"current_range_meters":0,"station_id":"ce4bhq92rcd13ifvqhjg","pricing_plan_id":"cebpf4jnsgd1na2vs0mg"},{"bike_id":"0e841a74-0111-4815-a752-6cac0c819790","system_id":"levelo_inurba_marseille","lat":43.28075,"lon":5.39644,"is_reserved":false,"is_disabled":false,"rental_uris":{"android":"levelo://app?vid=0e841a74-0111-4815-a752-6cac0c819790","ios":"levelo://app?vid=0e841a74-0111-4815-a752-6cac0c819790"},"vehicle_type_id":"4","last_reported":1736111230,"current_range_meters":38000,"station_id":"ce4bho12rcd13ifvqh2g","pricing_plan_id":"cebpf4jnsgd1na2vs0mg"},{"bike_id":"bb896405-905f-4110-a07e-defff063aef8","system_id":"levelo_inurba_marseille","lat":43.29299,"lon":5.37441,"is_reserved":false,"is_disabled":true,"rental_uris":{"android":"levelo://app?vid=bb896405-905f-4110-a07e-defff063aef8","ios":"levelo://app?vid=bb896405-905f-4110-a07e-defff063aef8"},"vehicle_type_id":"4","last_reported":1736111230,"current_range_meters":36400,"station_id":"ce4bgi12rcd13ifvqb70","pricing_plan_id":"cebpf4jnsgd1na2vs0mg"},{"bike_id":"5eec8190-fd34-42bd-8cc0-78aab4de8180","system_id":"levelo_inurba_marseille","lat":43.27219,"lon":5.39184,"is_reserved":false,"is_disabled":false,"rental_uris":{"android":"levelo://app?vid=5eec8190-fd34-42bd-8cc0-78aab4de8180","ios":"levelo://app?vid=5eec8190-fd34-42bd-8cc0-78aab4de8180"},"vehicle_type_id":"4","last_reported":1736111230,"current_range_meters":36400,"station_id":"ce4bhhp2rcd13ifvqfm0","pricing_plan_id":"cebpf4jnsgd1na2vs0mg"},{"bike_id":"6b455687-bb82-4d97-b8eb-de58185ea05e","system_id":"levelo_inurba_marseille","lat":43.29217,"lon":5.36307,"is_reserved":false,"is_disabled":false,"rental_uris":{"android":"levelo://app?vid=6b455687-bb82-4d97-b8eb-de58185ea05e","ios":"levelo://app?vid=6b455687-bb82-4d97-b8eb-de58185ea05e"},"vehicle_type_id":"4","last_reported":1736111230,"current_range_meters":15200,"station_id":"","pricing_plan_id":"cebpf4jnsgd1na2vs0mg"},{"bike_id":"9237568d-205a-4e7f-a99d-2eb8ec7ae3de","system_id":"levelo_inurba_marseille","lat":43.313517,"lon":5.367075,"is_reserved":false,"is_disabled":false,"rental_uris":{"android":"levelo://app?vid=9237568d-205a-4e7f-a99d-2eb8ec7ae3de","ios":"levelo://app?vid=9237568d-205a-4e7f-a99d-2eb8ec7ae3de"},"vehicle_type_id":"4","last_reported":1736111230,"current_range_meters":38800,"station_id":"ce4bgr92rcd13ifvqc6g","pricing_plan_id":"cebpf4jnsgd1na2vs0mg"},{"bike_id":"45744d07-eb73-453c-b6ee-d9a256b9901b","system_id":"levelo_inurba_marseille","lat":43.30958,"lon":5.39044,"is_reserved":false,"is_disabled":true,"rental_uris":{"android":"levelo://app?vid=45744d07-eb73-453c-b6ee-d9a256b9901b","ios":"levelo://app?vid=45744d07-eb73-453c-b6ee-d9a256b9901b"},"vehicle_type_id":"4","last_reported":1736111230,"current_range_meters":12000,"station_id":"ce4bgup2rcd13ifvqco0","pricing_plan_id":"cebpf4jnsgd1na2vs0mg"},{"bike_id":"43dd8b3b-a6ba-4cb6-97e3-44663f5d001f","system_id":"levelo_inurba_marseille","lat":43.26938,"lon":5.40248,"is_reserved":false,"is_disabled":false,"rental_uris":{"android":"levelo://app?vid=43dd8b3b-a6ba-4cb6-97e3-44663f5d001f","ios":"levelo://app?vid=43dd8b3b-a6ba-4cb6-97e3-44663f5d001f"},"vehicle_type_id":"4","last_reported":1736111230,"current_range_meters":30000,"station_id":"cjm6bp8fraef2m0cb0m0","pricing_plan_id":"cebpf4jnsgd1na2vs0mg"},{"bike_id":"c8c2daf6-6374-4a9e-b2d5-2cf9f2f11780","system_id":"levelo_inurba_marseille","lat":43.26803,"lon":5.40265,"is_reserved":false,"is_disabled":false,"rental_uris":{"android":"levelo://app?vid=c8c2daf6-6374-4a9e-b2d5-2cf9f2f11780","ios":"levelo://app?vid=c8c2daf6-6374-4a9e-b2d5-2cf9f2f11780"},"vehicle_type_id":"4","last_reported":1736111230,"current_range_meters":14000,"station_id":"ce501612rcd8frsf0b60","pricing_plan_id":"cebpf4jnsgd1na2vs0mg"},{"bike_id":"e14fc727-e110-4847-a3c5-e82ea6a6fcb8","system_id":"levelo_inurba_marseille","lat":43.28953,"lon":5.39651,"is_reserved":false,"is_disabled":true,"rental_uris":{"android":"levelo://app?vid=e14fc727-e110-4847-a3c5-e82ea6a6fcb8","ios":"levelo://app?vid=e14fc727-e110-4847-a3c5-e82ea6a6fcb8"},"vehicle_type_id":"4","last_reported":1736111230,"current_range_meters":35200,"station_id":"ce4bh3h2rcd13ifvqdn0","pricing_plan_id":"cebpf4jnsgd1na2vs0mg"},{"bike_id":"ad61caab-ed76-48fb-b594-4605be6c3c4b","system_id":"levelo_inurba_marseille","lat":43.29252,"lon":5.37258,"is_reserved":false,"is_disabled":true,"rental_uris":{"android":"levelo://app?vid=ad61caab-ed76-48fb-b594-4605be6c3c4b","ios":"levelo://app?vid=ad61caab-ed76-48fb-b594-4605be6c3c4b"},"vehicle_type_id":"4","last_reported":1736111230,"current_range_meters":36000,"station_id":"","pricing_plan_id":"cebpf4jnsgd1na2vs0mg"},{"bike_id":"d0541b38-8e7e-4e1e-8666-5868b43eb4cc","system_id":"levelo_inurba_marseille","lat":43.25124,"lon":5.40337,"is_reserved":false,"is_disabled":false,"rental_uris":{"android":"levelo://app?vid=d0541b38-8e7e-4e1e-8666-5868b43eb4cc","ios":"levelo://app?vid=d0541b38-8e7e-4e1e-8666-5868b43eb4cc"},"vehicle_type_id":"4","last_reported":1736111230,"current_range_meters":5600,"station_id":"ce4bhlh2rcd13ifvqgig","pricing_plan_id":"cebpf4jnsgd1na2vs0mg"},{"bike_id":"cdde791c-00c7-4d4f-abe9-f9cd2bd23184","system_id":"levelo_inurba_marseille","lat":43.29807,"lon":5.38119,"is_reserved":false,"is_disabled":false,"rental_uris":{"android":"levelo://app?vid=cdde791c-00c7-4d4f-abe9-f9cd2bd23184","ios":"levelo://app?vid=cdde791c-00c7-4d4f-abe9-f9cd2bd23184"},"vehicle_type_id":"4","last_reported":1736111230,"current_range_meters":38000,"station_id":"ce4bgip2rcd13ifvqbb0","pricing_plan_id":"cebpf4jnsgd1na2vs0mg"},{"bike_id":"fe226378-c775-44b6-b5e8-5a4b1693d8bd","system_id":"levelo_inurba_marseille","lat":43.298015,"lon":5.403985,"is_reserved":false,"is_disabled":false,"rental_uris":{"android":"levelo://app?vid=fe226378-c775-44b6-b5e8-5a4b1693d8bd","ios":"levelo://app?vid=fe226378-c775-44b6-b5e8-5a4b1693d8bd"},"vehicle_type_id":"4","last_reported":1736111230,"current_range_meters":38800,"station_id":"ce4bh112rcd13ifvqd90","pricing_plan_id":"cebpf4jnsgd1na2vs0mg"},{"bike_id":"ad539604-9e59-421d-a71a-49da59bdd974","system_id":"levelo_inurba_marseille","lat":43.29015,"lon":5.38637,"is_reserved":false,"is_disabled":true,"rental_uris":{"android":"levelo://app?vid=ad539604-9e59-421d-a71a-49da59bdd974","ios":"levelo://app?vid=ad539604-9e59-421d-a71a-49da59bdd974"},"vehicle_type_id":"4","last_reported":1736111230,"current_range_meters":27600,"station_id":"ce4bh4p2rcd13ifvqe0g","pricing_plan_id":"cebpf4jnsgd1na2vs0mg"},{"bike_id":"d23fffab-bc74-4322-8603-eb42a1e6da10","system_id":"levelo_inurba_marseille","lat":43.28462,"lon":5.35887,"is_reserved":false,"is_disabled":false,"rental_uris":{"android":"levelo://app?vid=d23fffab-bc74-4322-8603-eb42a1e6da10","ios":"levelo://app?vid=d23fffab-bc74-4322-8603-eb42a1e6da10"},"vehicle_type_id":"4","last_reported":1736111230,"current_range_meters":28000,"station_id":"ce4bhah2rcd13ifvqei0","pricing_plan_id":"cebpf4jnsgd1na2vs0mg"},{"bike_id":"6eb177fb-62e6-4265-86d6-25cfff0db403","system_id":"levelo_inurba_marseille","lat":43.28731,"lon":5.36072,"is_reserved":false,"is_disabled":false,"rental_uris":{"android":"levelo://app?vid=6eb177fb-62e6-4265-86d6-25cfff0db403","ios":"levelo://app?vid=6eb177fb-62e6-4265-86d6-25cfff0db403"},"vehicle_type_id":"4","last_reported":1736111230,"current_range_meters":30800,"station_id":"cki0cbj6b192h4jlfktg","pricing_plan_id":"cebpf4jnsgd1na2vs0mg"},{"bike_id":"8a474426-cd46-4cf8-9edc-ef843a0ca02e","system_id":"levelo_inurba_marseille","lat":43.26531,"lon":5.39065,"is_reserved":false,"is_disabled":true,"rental_uris":{"android":"levelo://app?vid=8a474426-cd46-4cf8-9edc-ef843a0ca02e","ios":"levelo://app?vid=8a474426-cd46-4cf8-9edc-ef843a0ca02e"},"vehicle_type_id":"4","last_reported":1736111230,"current_range_meters":36800,"station_id":"","pricing_plan_id":"cebpf4jnsgd1na2vs0mg"},{"bike_id":"d0234cf8-3190-48a6-bab2-6c84efe1b44c","system_id":"levelo_inurba_marseille","lat":43.24802,"lon":5.37451,"is_reserved":false,"is_disabled":false,"rental_uris":{"android":"levelo://app?vid=d0234cf8-3190-48a6-bab2-6c84efe1b44c","ios":"levelo://app?vid=d0234cf8-3190-48a6-bab2-6c84efe1b44c"},"vehicle_type_id":"4","last_reported":1736111230,"current_range_meters":38800,"station_id":"ce4bhgh2rcd13ifvqfb0","pricing_plan_id":"cebpf4jnsgd1na2vs0mg"},{"bike_id":"bbf998ea-d252-4590-8711-16d78ff4b07c","system_id":"levelo_inurba_marseille","lat":43.2464,"lon":5.38871,"is_reserved":false,"is_disabled":false,"rental_uris":{"android":"levelo://app?vid=bbf998ea-d252-4590-8711-16d78ff4b07c","ios":"levelo://app?vid=bbf998ea-d252-4590-8711-16d78ff4b07c"},"vehicle_type_id":"4","last_reported":1736111230,"current_range_meters":32800,"station_id":"ce4bhg12rcd13ifvqf60","pricing_plan_id":"cebpf4jnsgd1na2vs0mg"},{"bike_id":"8f1c0a74-ee93-44bd-b11f-e0b18dbd67ba","system_id":"levelo_inurba_marseille","lat":43.27306,"lon":5.39107,"is_reserved":false,"is_disabled":false,"rental_uris":{"android":"levelo://app?vid=8f1c0a74-ee93-44bd-b11f-e0b18dbd67ba","ios":"levelo://app?vid=8f1c0a74-ee93-44bd-b11f-e0b18dbd67ba"},"vehicle_type_id":"4","last_reported":1736111230,"current_range_meters":36800,"station_id":"ce4bhgp2rcd13ifvqfe0","pricing_plan_id":"cebpf4jnsgd1na2vs0mg"},{"bike_id":"04ef0c32-b5fd-4469-85b3-e0f3ec35cf38","system_id":"levelo_inurba_marseille","lat":43.28676,"lon":5.38673,"is_reserved":false,"is_disabled":false,"rental_uris":{"android":"levelo://app?vid=04ef0c32-b5fd-4469-85b3-e0f3ec35cf38","ios":"levelo://app?vid=04ef0c32-b5fd-4469-85b3-e0f3ec35cf38"},"vehicle_type_id":"4","last_reported":1736111230,"current_range_meters":38800,"station_id":"ce4bh492rcd13ifvqdug","pricing_plan_id":"cebpf4jnsgd1na2vs0mg"},{"bike_id":"f5a4a49b-f269-4ec2-b80a-e579bf67a966","system_id":"levelo_inurba_marseille","lat":43.29522,"lon":5.3614,"is_reserved":false,"is_disabled":true,"rental_uris":{"android":"levelo://app?vid=f5a4a49b-f269-4ec2-b80a-e579bf67a966","ios":"levelo://app?vid=f5a4a49b-f269-4ec2-b80a-e579bf67a966"},"vehicle_type_id":"4","last_reported":1736111230,"current_range_meters":35600,"station_id":"","pricing_plan_id":"cebpf4jnsgd1na2vs0mg"},{"bike_id":"6f21fba1-6f8e-47c4-a476-286cca5f9cc6","system_id":"levelo_inurba_marseille","lat":43.28281,"lon":5.35084,"is_reserved":false,"is_disabled":true,"rental_uris":{"android":"levelo://app?vid=6f21fba1-6f8e-47c4-a476-286cca5f9cc6","ios":"levelo://app?vid=6f21fba1-6f8e-47c4-a476-286cca5f9cc6"},"vehicle_type_id":"4","last_reported":1736111230,"current_range_meters":0,"station_id":"ce4bhbp2rcd13ifvqerg","pricing_plan_id":"cebpf4jnsgd1na2vs0mg"},{"bike_id":"21f0e3c2-495a-43ca-b213-21dd4a411241","system_id":"levelo_inurba_marseille","lat":43.284464,"lon":5.391921,"is_reserved":false,"is_disabled":false,"rental_uris":{"android":"levelo://app?vid=21f0e3c2-495a-43ca-b213-21dd4a411241","ios":"levelo://app?vid=21f0e3c2-495a-43ca-b213-21dd4a411241"},"vehicle_type_id":"4","last_reported":1736111230,"current_range_meters":36800,"station_id":"ce4bhoh2rcd13ifvqh5g","pricing_plan_id":"cebpf4jnsgd1na2vs0mg"},{"bike_id":"be6e907e-78b1-478d-be0d-201b39970bff","system_id":"levelo_inurba_marseille","lat":43.28939,"lon":5.36638,"is_reserved":false,"is_disabled":false,"rental_uris":{"android":"levelo://app?vid=be6e907e-78b1-478d-be0d-201b39970bff","ios":"levelo://app?vid=be6e907e-78b1-478d-be0d-201b39970bff"},"vehicle_type_id":"4","last_reported":1736111230,"current_range_meters":37600,"station_id":"ce4bhap2rcd13ifvqek0","pricing_plan_id":"cebpf4jnsgd1na2vs0mg"},{"bike_id":"c6a2a204-07b7-48df-835a-e6ca1d5a959e","system_id":"levelo_inurba_marseille","lat":43.28925,"lon":5.38386,"is_reserved":false,"is_disabled":false,"rental_uris":{"android":"levelo://app?vid=c6a2a204-07b7-48df-835a-e6ca1d5a959e","ios":"levelo://app?vid=c6a2a204-07b7-48df-835a-e6ca1d5a959e"},"vehicle_type_id":"4","last_reported":1736111230,"current_range_meters":38800,"station_id":"ce4bh612rcd13ifvqe6g","pricing_plan_id":"cebpf4jnsgd1na2vs0mg"},{"bike_id":"36c04b30-57d1-4d6c-9711-657aa9889b2d","system_id":"levelo_inurba_marseille","lat":43.28427,"lon":5.39202,"is_reserved":false,"is_disabled":false,"rental_uris":{"android":"levelo://app?vid=36c04b30-57d1-4d6c-9711-657aa9889b2d","ios":"levelo://app?vid=36c04b30-57d1-4d6c-9711-657aa9889b2d"},"vehicle_type_id":"4","last_reported":1736111230,"current_range_meters":38800,"station_id":"ce4bhoh2rcd13ifvqh5g","pricing_plan_id":"cebpf4jnsgd1na2vs0mg"},{"bike_id":"d123bd16-d2fb-47bd-905c-fe996acba5f4","system_id":"levelo_inurba_marseille","lat":43.29184,"lon":5.35799,"is_reserved":false,"is_disabled":false,"rental_uris":{"android":"levelo://app?vid=d123bd16-d2fb-47bd-905c-fe996acba5f4","ios":"levelo://app?vid=d123bd16-d2fb-47bd-905c-fe996acba5f4"},"vehicle_type_id":"4","last_reported":1736111230,"current_range_meters":32000,"station_id":"ce4bhb12rcd13ifvqel0","pricing_plan_id":"cebpf4jnsgd1na2vs0mg"},{"bike_id":"0bcfea18-61ca-412d-bded-b63f59943884","system_id":"levelo_inurba_marseille","lat":43.28618,"lon":5.351,"is_reserved":false,"is_disabled":true,"rental_uris":{"android":"levelo://app?vid=0bcfea18-61ca-412d-bded-b63f59943884","ios":"levelo://app?vid=0bcfea18-61ca-412d-bded-b63f59943884"},"vehicle_type_id":"4","last_reported":1736111230,"current_range_meters":36800,"station_id":"ce4bhch2rcd13ifvqeug","pricing_plan_id":"cebpf4jnsgd1na2vs0mg"},{"bike_id":"5befd006-a601-4f1d-8fbe-6e419c854ac0","system_id":"levelo_inurba_marseille","lat":43.24064,"lon":5.37748,"is_reserved":false,"is_disabled":false,"rental_uris":{"android":"levelo://app?vid=5befd006-a601-4f1d-8fbe-6e419c854ac0","ios":"levelo://app?vid=5befd006-a601-4f1d-8fbe-6e419c854ac0"},"vehicle_type_id":"4","last_reported":1736111230,"current_range_meters":38800,"station_id":"ce4bhnp2rcd13ifvqgvg","pricing_plan_id":"cebpf4jnsgd1na2vs0mg"},{"bike_id":"9b720815-1358-420f-99ff-6747e8ef3614","system_id":"levelo_inurba_marseille","lat":43.26498,"lon":5.39538,"is_reserved":false,"is_disabled":true,"rental_uris":{"android":"levelo://app?vid=9b720815-1358-420f-99ff-6747e8ef3614","ios":"levelo://app?vid=9b720815-1358-420f-99ff-6747e8ef3614"},"vehicle_type_id":"4","last_reported":1736111230,"current_range_meters":27600,"station_id":"ce4bhi12rcd13ifvqfq0","pricing_plan_id":"cebpf4jnsgd1na2vs0mg"},{"bike_id":"87e7b061-f91b-499a-aca2-320a82f43156","system_id":"levelo_inurba_marseille","lat":43.28607,"lon":5.37069,"is_reserved":false,"is_disabled":false,"rental_uris":{"android":"levelo://app?vid=87e7b061-f91b-499a-aca2-320a82f43156","ios":"levelo://app?vid=87e7b061-f91b-499a-aca2-320a82f43156"},"vehicle_type_id":"4","last_reported":1736111230,"current_range_meters":23200,"station_id":"ce4bht12rcd13ifvqi60","pricing_plan_id":"cebpf4jnsgd1na2vs0mg"},{"bike_id":"ceb2a31d-1f3d-435c-9fa7-170a68584d50","system_id":"levelo_inurba_marseille","lat":43.30542,"lon":5.36556,"is_reserved":false,"is_disabled":true,"rental_uris":{"android":"levelo://app?vid=ceb2a31d-1f3d-435c-9fa7-170a68584d50","ios":"levelo://app?vid=ceb2a31d-1f3d-435c-9fa7-170a68584d50"},"vehicle_type_id":"4","last_reported":1736111230,"current_range_meters":36400,"station_id":"ce4bgs12rcd13ifvqcag","pricing_plan_id":"cebpf4jnsgd1na2vs0mg"},{"bike_id":"85cba0a3-d6ec-4723-83bf-95316674cece","system_id":"levelo_inurba_marseille","lat":43.27551,"lon":5.38436,"is_reserved":false,"is_disabled":true,"rental_uris":{"android":"levelo://app?vid=85cba0a3-d6ec-4723-83bf-95316674cece","ios":"levelo://app?vid=85cba0a3-d6ec-4723-83bf-95316674cece"},"vehicle_type_id":"4","last_reported":1736111230,"current_range_meters":0,"station_id":"ce4bhh92rcd13ifvqfi0","pricing_plan_id":"cebpf4jnsgd1na2vs0mg"},{"bike_id":"03e1f04f-c66b-4195-a61c-68df883edd5d","system_id":"levelo_inurba_marseille","lat":43.27091,"lon":5.40197,"is_reserved":false,"is_disabled":false,"rental_uris":{"android":"levelo://app?vid=03e1f04f-c66b-4195-a61c-68df883edd5d","ios":"levelo://app?vid=03e1f04f-c66b-4195-a61c-68df883edd5d"},"vehicle_type_id":"4","last_reported":1736111230,"current_range_meters":33200,"station_id":"ce4bhk92rcd13ifvqgc0","pricing_plan_id":"cebpf4jnsgd1na2vs0mg"},{"bike_id":"7df24dd1-b691-42a4-8bde-517a97e54c89","system_id":"levelo_inurba_marseille","lat":43.26493,"lon":5.39534,"is_reserved":false,"is_disabled":false,"rental_uris":{"android":"levelo://app?vid=7df24dd1-b691-42a4-8bde-517a97e54c89","ios":"levelo://app?vid=7df24dd1-b691-42a4-8bde-517a97e54c89"},"vehicle_type_id":"4","last_reported":1736111230,"current_range_meters":38800,"station_id":"ce4bhi12rcd13ifvqfq0","pricing_plan_id":"cebpf4jnsgd1na2vs0mg"},{"bike_id":"266d97a0-8b6a-4815-8e1e-a29e516886ab","system_id":"levelo_inurba_marseille","lat":43.32368,"lon":5.36751,"is_reserved":false,"is_disabled":false,"rental_uris":{"android":"levelo://app?vid=266d97a0-8b6a-4815-8e1e-a29e516886ab","ios":"levelo://app?vid=266d97a0-8b6a-4815-8e1e-a29e516886ab"},"vehicle_type_id":"4","last_reported":1736111230,"current_range_meters":30800,"station_id":"ce4bhsh2rcd13ifvqi2g","pricing_plan_id":"cebpf4jnsgd1na2vs0mg"},{"bike_id":"8d3db9c8-7683-417b-ae4c-a136850e4613","system_id":"levelo_inurba_marseille","lat":43.24693,"lon":5.38172,"is_reserved":false,"is_disabled":false,"rental_uris":{"android":"levelo://app?vid=8d3db9c8-7683-417b-ae4c-a136850e4613","ios":"levelo://app?vid=8d3db9c8-7683-417b-ae4c-a136850e4613"},"vehicle_type_id":"4","last_reported":1736111230,"current_range_meters":32800,"station_id":"ce4bhih2rcd13ifvqfr0","pricing_plan_id":"cebpf4jnsgd1na2vs0mg"},{"bike_id":"f90750ed-84cf-4a19-90a8-7a31d86b7dfe","system_id":"levelo_inurba_marseille","lat":43.27212,"lon":5.39185,"is_reserved":false,"is_disabled":false,"rental_uris":{"android":"levelo://app?vid=f90750ed-84cf-4a19-90a8-7a31d86b7dfe","ios":"levelo://app?vid=f90750ed-84cf-4a19-90a8-7a31d86b7dfe"},"vehicle_type_id":"4","last_reported":1736111230,"current_range_meters":30000,"station_id":"ce4bhhp2rcd13ifvqfm0","pricing_plan_id":"cebpf4jnsgd1na2vs0mg"},{"bike_id":"46005008-3d91-4d6f-91a3-4b2e9c416812","system_id":"levelo_inurba_marseille","lat":43.2695,"lon":5.40245,"is_reserved":false,"is_disabled":false,"rental_uris":{"android":"levelo://app?vid=46005008-3d91-4d6f-91a3-4b2e9c416812","ios":"levelo://app?vid=46005008-3d91-4d6f-91a3-4b2e9c416812"},"vehicle_type_id":"4","last_reported":1736111230,"current_range_meters":38800,"station_id":"cjm6bp8fraef2m0cb0m0","pricing_plan_id":"cebpf4jnsgd1na2vs0mg"},{"bike_id":"2937c8f0-6f06-4c7f-8240-41ad44bc55fa","system_id":"levelo_inurba_marseille","lat":43.231884,"lon":5.399998,"is_reserved":false,"is_disabled":false,"rental_uris":{"android":"levelo://app?vid=2937c8f0-6f06-4c7f-8240-41ad44bc55fa","ios":"levelo://app?vid=2937c8f0-6f06-4c7f-8240-41ad44bc55fa"},"vehicle_type_id":"4","last_reported":1736111230,"current_range_meters":19200,"station_id":"ce4bhn12rcd13ifvqgqg","pricing_plan_id":"cebpf4jnsgd1na2vs0mg"},{"bike_id":"c3943a96-4c8f-41b1-82ed-4eac8262af43","system_id":"levelo_inurba_marseille","lat":43.29357,"lon":5.37848,"is_reserved":false,"is_disabled":false,"rental_uris":{"android":"levelo://app?vid=c3943a96-4c8f-41b1-82ed-4eac8262af43","ios":"levelo://app?vid=c3943a96-4c8f-41b1-82ed-4eac8262af43"},"vehicle_type_id":"4","last_reported":1736111230,"current_range_meters":38800,"station_id":"ce4bgjh2rcd13ifvqbf0","pricing_plan_id":"cebpf4jnsgd1na2vs0mg"},{"bike_id":"84ac1851-6c25-4a5f-8fe4-aa245dfb0372","system_id":"levelo_inurba_marseille","lat":43.26949,"lon":5.40237,"is_reserved":false,"is_disabled":false,"rental_uris":{"android":"levelo://app?vid=84ac1851-6c25-4a5f-8fe4-aa245dfb0372","ios":"levelo://app?vid=84ac1851-6c25-4a5f-8fe4-aa245dfb0372"},"vehicle_type_id":"4","last_reported":1736111230,"current_range_meters":17200,"station_id":"cjm6bp8fraef2m0cb0m0","pricing_plan_id":"cebpf4jnsgd1na2vs0mg"},{"bike_id":"85260f61-7e0a-45ba-8d80-a08a975748a7","system_id":"levelo_inurba_marseille","lat":43.326572,"lon":5.409764,"is_reserved":false,"is_disabled":false,"rental_uris":{"android":"levelo://app?vid=85260f61-7e0a-45ba-8d80-a08a975748a7","ios":"levelo://app?vid=85260f61-7e0a-45ba-8d80-a08a975748a7"},"vehicle_type_id":"4","last_reported":1736111230,"current_range_meters":38800,"station_id":"ce4bhpp2rcd13ifvqhgg","pricing_plan_id":"cebpf4jnsgd1na2vs0mg"},{"bike_id":"d09e735f-aee5-48d7-9e50-0a0d6686ead5","system_id":"levelo_inurba_marseille","lat":43.24827,"lon":5.37441,"is_reserved":false,"is_disabled":true,"rental_uris":{"android":"levelo://app?vid=d09e735f-aee5-48d7-9e50-0a0d6686ead5","ios":"levelo://app?vid=d09e735f-aee5-48d7-9e50-0a0d6686ead5"},"vehicle_type_id":"4","last_reported":1736111230,"current_range_meters":0,"station_id":"ce4bhgh2rcd13ifvqfb0","pricing_plan_id":"cebpf4jnsgd1na2vs0mg"},{"bike_id":"f49298c6-b208-404d-bb0c-160ccbda2eed","system_id":"levelo_inurba_marseille","lat":43.28001,"lon":5.39972,"is_reserved":false,"is_disabled":true,"rental_uris":{"android":"levelo://app?vid=f49298c6-b208-404d-bb0c-160ccbda2eed","ios":"levelo://app?vid=f49298c6-b208-404d-bb0c-160ccbda2eed"},"vehicle_type_id":"4","last_reported":1736111230,"current_range_meters":38000,"station_id":"ce4bho92rcd13ifvqh4g","pricing_plan_id":"cebpf4jnsgd1na2vs0mg"},{"bike_id":"2c354e5f-37ab-453c-814e-0e1e1d3051e2","system_id":"levelo_inurba_marseille","lat":43.31344,"lon":5.38488,"is_reserved":false,"is_disabled":true,"rental_uris":{"android":"levelo://app?vid=2c354e5f-37ab-453c-814e-0e1e1d3051e2","ios":"levelo://app?vid=2c354e5f-37ab-453c-814e-0e1e1d3051e2"},"vehicle_type_id":"4","last_reported":1736111230,"current_range_meters":19200,"station_id":"ce4bgt92rcd13ifvqcf0","pricing_plan_id":"cebpf4jnsgd1na2vs0mg"},{"bike_id":"d014f699-d84d-436b-b3bf-8c059d18ea89","system_id":"levelo_inurba_marseille","lat":43.22926,"lon":5.35379,"is_reserved":false,"is_disabled":false,"rental_uris":{"android":"levelo://app?vid=d014f699-d84d-436b-b3bf-8c059d18ea89","ios":"levelo://app?vid=d014f699-d84d-436b-b3bf-8c059d18ea89"},"vehicle_type_id":"4","last_reported":1736111230,"current_range_meters":16000,"station_id":"cpo3532slgdg3j2ikp40","pricing_plan_id":"cebpf4jnsgd1na2vs0mg"},{"bike_id":"d1384f64-54e0-4b1a-932c-ce9065772144","system_id":"levelo_inurba_marseille","lat":43.2731,"lon":5.39096,"is_reserved":false,"is_disabled":false,"rental_uris":{"android":"levelo://app?vid=d1384f64-54e0-4b1a-932c-ce9065772144","ios":"levelo://app?vid=d1384f64-54e0-4b1a-932c-ce9065772144"},"vehicle_type_id":"4","last_reported":1736111230,"current_range_meters":26800,"station_id":"ce4bhgp2rcd13ifvqfe0","pricing_plan_id":"cebpf4jnsgd1na2vs0mg"},{"bike_id":"3093b4f6-32f4-4dec-aab8-9d4da00d0520","system_id":"levelo_inurba_marseille","lat":43.231896,"lon":5.355566,"is_reserved":false,"is_disabled":false,"rental_uris":{"android":"levelo://app?vid=3093b4f6-32f4-4dec-aab8-9d4da00d0520","ios":"levelo://app?vid=3093b4f6-32f4-4dec-aab8-9d4da00d0520"},"vehicle_type_id":"4","last_reported":1736111230,"current_range_meters":38000,"station_id":"ce4bhu92rcd13ifvqi70","pricing_plan_id":"cebpf4jnsgd1na2vs0mg"},{"bike_id":"8d1f108a-43aa-413a-bfaa-3a5fce26f492","system_id":"levelo_inurba_marseille","lat":43.29875,"lon":5.39734,"is_reserved":false,"is_disabled":false,"rental_uris":{"android":"levelo://app?vid=8d1f108a-43aa-413a-bfaa-3a5fce26f492","ios":"levelo://app?vid=8d1f108a-43aa-413a-bfaa-3a5fce26f492"},"vehicle_type_id":"4","last_reported":1736111230,"current_range_meters":39200,"station_id":"ce4bh0h2rcd13ifvqd50","pricing_plan_id":"cebpf4jnsgd1na2vs0mg"},{"bike_id":"c420422e-e5ff-46aa-9ade-56c25e82f06d","system_id":"levelo_inurba_marseille","lat":43.23194,"lon":5.35545,"is_reserved":false,"is_disabled":false,"rental_uris":{"android":"levelo://app?vid=c420422e-e5ff-46aa-9ade-56c25e82f06d","ios":"levelo://app?vid=c420422e-e5ff-46aa-9ade-56c25e82f06d"},"vehicle_type_id":"4","last_reported":1736111230,"current_range_meters":38800,"station_id":"ce4bhu92rcd13ifvqi70","pricing_plan_id":"cebpf4jnsgd1na2vs0mg"},{"bike_id":"ef72cdb4-465d-4178-b952-49906f159c48","system_id":"levelo_inurba_marseille","lat":43.28149,"lon":5.4262,"is_reserved":false,"is_disabled":false,"rental_uris":{"android":"levelo://app?vid=ef72cdb4-465d-4178-b952-49906f159c48","ios":"levelo://app?vid=ef72cdb4-465d-4178-b952-49906f159c48"},"vehicle_type_id":"4","last_reported":1736111230,"current_range_meters":9200,"station_id":"ce4bhnh2rcd13ifvqgug","pricing_plan_id":"cebpf4jnsgd1na2vs0mg"},{"bike_id":"ab0676e2-224e-433c-a641-1ada0ea9485e","system_id":"levelo_inurba_marseille","lat":43.30334,"lon":5.40434,"is_reserved":false,"is_disabled":false,"rental_uris":{"android":"levelo://app?vid=ab0676e2-224e-433c-a641-1ada0ea9485e","ios":"levelo://app?vid=ab0676e2-224e-433c-a641-1ada0ea9485e"},"vehicle_type_id":"4","last_reported":1736111230,"current_range_meters":33600,"station_id":"ce4bh012rcd13ifvqd10","pricing_plan_id":"cebpf4jnsgd1na2vs0mg"},