{"last_updated":1735816018,"ttl":60,"version":"2.2","data":{"bikes":[{"bike_id":"6921c701-675b-4411-b28e-a56903e4b8b7","system_id":"levelo_inurba_marseille","lat":43.28088,"lon":5.39649,"is_reserved":false,"is_disabled":false,"rental_uris":{"android":"levelo://app?vid=6921c701-675b-4411-b28e-a56903e4b8b7","ios":"levelo://app?vid=6921c701-675b-4411-b28e-a56903e4b8b7"},"vehicle_type_id":"4","last_reported":1735816018,"current_range_meters":28800,"station_id":"ce4bho12rcd13ifvqh2g","pricing_plan_id":"cebpf4jnsgd1na2vs0mg"},{"bike_id":"5ee06d1f-f474-4883-9d52-622f82f42531","system_id":"levelo_inurba_marseille","lat":43.32535,"lon":5.41459,"is_reserved":false,"is_disabled":false,"rental_uris":{"android":"levelo://app?vid=5ee06d1f-f474-4883-9d52-622f82f42531","ios":"levelo://app?vid=5ee06d1f-f474-4883-9d52-622f82f42531"},"vehicle_type_id":"4","last_reported":1735816018,"current_range_meters":38400,"station_id":"ce4bhq12rcd13ifvqhhg","pricing_plan_id":"cebpf4jnsgd1na2vs0mg"},{"bike_id":"172ccd61-d49f-41ee-9d70-c90aa70835fe","system_id":"levelo_inurba_marseille","lat":43.27421,"lon":5.39421,"is_reserved":false,"is_disabled":false,"rental_uris":{"android":"levelo://app?vid=172ccd61-d49f-41ee-9d70-c90aa70835fe","ios":"levelo://app?vid=172ccd61-d49f-41ee-9d70-c90aa70835fe"},"vehicle_type_id":"4","last_reported":1735816018,"current_range_meters":35200,"station_id":"ce4bhdp2rcd13ifvqf20","pricing_plan_id":"cebpf4jnsgd1na2vs0mg"},{"bike_id":"9f53e4dc-a826-426b-9ca9-adccc5d43e1f","system_id":"levelo_inurba_marseille","lat":43.25922,"lon":5.40897,"is_reserved":false,"is_disabled":false,"rental_uris":{"android":"levelo://app?vid=9f53e4dc-a826-426b-9ca9-adccc5d43e1f","ios":"levelo://app?vid=9f53e4dc-a826-426b-9ca9-adccc5d43e1f"},"vehicle_type_id":"4","last_reported":1735816018,"current_range_meters":26000,"station_id":"ce4bhm92rcd13ifvqglg","pricing_plan_id":"cebpf4jnsgd1na2vs0mg"},{"bike_id":"bc774450-9e82-4b77-bec0-9757df77a13c","system_id":"levelo_inurba_marseille","lat":43.26495,"lon":5.39556,"is_reserved":false,"is_disabled":false,"rental_uris":{"android":"levelo://app?vid=bc774450-9e82-4b77-bec0-9757df77a13c","ios":"levelo://app?vid=bc774450-9e82-4b77-bec0-9757df77a13c"},"vehicle_type_id":"4","last_reported":1735816018,"current_range_meters":38800,"station_id":"ce4bhi12rcd13ifvqfq0","pricing_plan_id":"cebpf4jnsgd1na2vs0mg"},{"bike_id":"30675ccc-9ef1-40b1-963e-228cee2b4741","system_id":"levelo_inurba_marseille","lat":43.27939,"lon":5.41042,"is_reserved":false,"is_disabled":false,"rental_uris":{"android":"levelo://app?vid=30675ccc-9ef1-40b1-963e-228cee2b4741","ios":"levelo://app?vid=30675ccc-9ef1-40b1-963e-228cee2b4741"},"vehicle_type_id":"4","last_reported":1735816018,"current_range_meters":16400,"station_id":"ce4bhnp2rcd13ifvqh0g","pricing_plan_id":"cebpf4jnsgd1na2vs0mg"},{"bike_id":"be0f9d5c-6d6b-41be-9533-5bdc83cdfef6","system_id":"levelo_inurba_marseille","lat":43.30141,"lon":5.37424,"is_reserved":false,"is_disabled":false,"rental_uris":{"android":"levelo://app?vid=be0f9d5c-6d6b-41be-9533-5bdc83cdfef6","ios":"levelo://app?vid=be0f9d5c-6d6b-41be-9533-5bdc83cdfef6"},"vehicle_type_id":"4","last_reported":1735816018,"current_range_meters":34800,"station_id":"ce4bgs92rcd13ifvqcc0","pricing_plan_id":"cebpf4jnsgd1na2vs0mg"},{"bike_id":"259412ae-a9bb-43fa-89b0-91ce274ab21d","system_id":"levelo_inurba_marseille","lat":43.25721,"lon":5.41112,"is_reserved":false,"is_disabled":false,"rental_uris":{"android":"levelo://app?vid=259412ae-a9bb-43fa-89b0-91ce274ab21d","ios":"levelo://app?vid=259412ae-a9bb-43fa-89b0-91ce274ab21d"},"vehicle_type_id":"4","last_reported":1735816018,"current_range_meters":39200,"station_id":"ce4bhkp2rcd13ifvqgd0","pricing_plan_id":"cebpf4jnsgd1na2vs0mg"},{"bike_id":"8d302db1-84c6-4ba1-857b-c92f49a1207e","system_id":"levelo_inurba_marseille","lat":43.29841,"lon":5.36268,"is_reserved":false,"is_disabled":false,"rental_uris":{"android":"levelo://app?vid=8d302db1-84c6-4ba1-857b-c92f49a1207e","ios":"levelo://app?vid=8d302db1-84c6-4ba1-857b-c92f49a1207e"},"vehicle_type_id":"4","last_reported":1735816018,"current_range_meters":38400,"station_id":"ce4bgpp2rcd13ifvqc3g","pricing_plan_id":"cebpf4jnsgd1na2vs0mg"},{"bike_id":"368447b3-e636-46eb-9708-4c8943fdbc59","system_id":"levelo_inurba_marseille","lat":43.28702,"lon":5.39988,"is_reserved":false,"is_disabled":false,"rental_uris":{"android":"levelo://app?vid=368447b3-e636-46eb-9708-4c8943fdbc59","ios":"levelo://app?vid=368447b3-e636-46eb-9708-4c8943fdbc59"},"vehicle_type_id":"4","last_reported":1735816018,"current_range_meters":34800,"station_id":"ce4bho92rcd13ifvqh3g","pricing_plan_id":"cebpf4jnsgd1na2vs0mg"},{"bike_id":"a48467b9-5597-41dc-87b2-5ef3c85c2656","system_id":"levelo_inurba_marseille","lat":43.27619,"lon":5.36107,"is_reserved":false,"is_disabled":false,"rental_uris":{"android":"levelo://app?vid=a48467b9-5597-41dc-87b2-5ef3c85c2656","ios":"levelo://app?vid=a48467b9-5597-41dc-87b2-5ef3c85c2656"},"vehicle_type_id":"4","last_reported":1735816018,"current_range_meters":11600,"station_id":"ce4bgj92rcd13ifvqbe0","pricing_plan_id":"cebpf4jnsgd1na2vs0mg"},{"bike_id":"b31e65d1-80f6-4b8c-9029-3028ad8e5ee0","system_id":"levelo_inurba_marseille","lat":43.25561,"lon":5.38251,"is_reserved":false,"is_disabled":false,"rental_uris":{"android":"levelo://app?vid=b31e65d1-80f6-4b8c-9029-3028ad8e5ee0","ios":"levelo://app?vid=b31e65d1-80f6-4b8c-9029-3028ad8e5ee0"},"vehicle_type_id":"4","last_reported":1735816018,"current_range_meters":39200,"station_id":"ce4bhih2rcd13ifvqfs0","pricing_plan_id":"cebpf4jnsgd1na2vs0mg"},{"bike_id":"0ee7dbed-7540-4de9-94e5-dcf46398860b","system_id":"levelo_inurba_marseille","lat":43.2621,"lon":5.37471,"is_reserved":false,"is_disabled":false,"rental_uris":{"android":"levelo://app?vid=0ee7dbed-7540-4de9-94e5-dcf46398860b","ios":"levelo://app?vid=0ee7dbed-7540-4de9-94e5-dcf46398860b"},"vehicle_type_id":"4","last_reported":1735816018,"current_range_meters":27600,"station_id":"ce4bhgp2rcd13ifvqfc0","pricing_plan_id":"cebpf4jnsgd1na2vs0mg"},{"bike_id":"116f92ae-65b4-4f7c-a23b-1117c0a69b33","system_id":"levelo_inurba_marseille","lat":43.28612,"lon":5.35103,"is_reserved":false,"is_disabled":false,"rental_uris":{"android":"levelo://app?vid=116f92ae-65b4-4f7c-a23b-1117c0a69b33","ios":"levelo://app?vid=116f92ae-65b4-4f7c-a23b-1117c0a69b33"},"vehicle_type_id":"4","last_reported":1735816018,"current_range_meters":31200,"station_id":"ce4bhch2rcd13ifvqeug","pricing_plan_id":"cebpf4jnsgd1na2vs0mg"},{"bike_id":"e423629e-caf1-4427-8702-b30357fe9b81","system_id":"levelo_inurba_marseille","lat":43.25012,"lon":5.389235,"is_reserved":false,"is_disabled":false,"rental_uris":{"android":"levelo://app?vid=e423629e-caf1-4427-8702-b30357fe9b81","ios":"levelo://app?vid=e423629e-caf1-4427-8702-b30357fe9b81"},"vehicle_type_id":"4","last_reported":1735816018,"current_range_meters":15200,"station_id":"ce4bhgp2rcd13ifvqfd0","pricing_plan_id":"cebpf4jnsgd1na2vs0mg"},{"bike_id":"6ff5496c-04d9-425b-8084-31ae3f9d9a81","system_id":"levelo_inurba_marseille","lat":43.29004,"lon":5.35613,"is_reserved":false,"is_disabled":false,"rental_uris":{"android":"levelo://app?vid=6ff5496c-04d9-425b-8084-31ae3f9d9a81","ios":"levelo://app?vid=6ff5496c-04d9-425b-8084-31ae3f9d9a81"},"vehicle_type_id":"4","last_reported":1735816018,"current_range_meters":37600,"station_id":"ce4bhb92rcd13ifvqen0","pricing_plan_id":"cebpf4jnsgd1na2vs0mg"},{"bike_id":"5430a545-a0f1-45ad-a500-b4193006fdcf","system_id":"levelo_inurba_marseille","lat":43.23202,"lon":5.3554,"is_reserved":false,"is_disabled":false,"rental_uris":{"android":"levelo://app?vid=5430a545-a0f1-45ad-a500-b4193006fdcf","ios":"levelo://app?vid=5430a545-a0f1-45ad-a500-b4193006fdcf"},"vehicle_type_id":"4","last_reported":1735816018,"current_range_meters":20400,"station_id":"ce4bhu92rcd13ifvqi70","pricing_plan_id":"cebpf4jnsgd1na2vs0mg"},{"bike_id":"e32d7aa6-4586-4a07-a65b-f19ace97ad67","system_id":"levelo_inurba_marseille","lat":43.26948,"lon":5.3865,"is_reserved":false,"is_disabled":false,"rental_uris":{"android":"levelo://app?vid=e32d7aa6-4586-4a07-a65b-f19ace97ad67","ios":"levelo://app?vid=e32d7aa6-4586-4a07-a65b-f19ace97ad67"},"vehicle_type_id":"4","last_reported":1735816018,"current_range_meters":39200,"station_id":"ce4bhh92rcd13ifvqfh0","pricing_plan_id":"cebpf4jnsgd1na2vs0mg"},{"bike_id":"76d392c8-6dd4-4fbf-b626-27c2990c047b","system_id":"levelo_inurba_marseille","lat":43.28162,"lon":5.42825,"is_reserved":false,"is_disabled":false,"rental_uris":{"android":"levelo://app?vid=76d392c8-6dd4-4fbf-b626-27c2990c047b","ios":"levelo://app?vid=76d392c8-6dd4-4fbf-b626-27c2990c047b"},"vehicle_type_id":"4","last_reported":1735816018,"current_range_meters":25600,"station_id":"","pricing_plan_id":"cebpf4jnsgd1na2vs0mg"},{"bike_id":"ebb56956-e2e2-4f51-8f7a-80ccc26c078c","system_id":"levelo_inurba_marseille","lat":43.28134,"lon":5.42658,"is_reserved":false,"is_disabled":false,"rental_uris":{"android":"levelo://app?vid=ebb56956-e2e2-4f51-8f7a-80ccc26c078c","ios":"levelo://app?vid=ebb56956-e2e2-4f51-8f7a-80ccc26c078c"},"vehicle_type_id":"4","last_reported":1735816018,"current_range_meters":36000,"station_id":"ce4bhnh2rcd13ifvqgug","pricing_plan_id":"cebpf4jnsgd1na2vs0mg"},{"bike_id":"4d35de00-49e2-4cfb-95b6-43a72479fc1c","system_id":"levelo_inurba_marseille","lat":43.29918,"lon":5.38153,"is_reserved":false,"is_disabled":false,"rental_uris":{"android":"levelo://app?vid=4d35de00-49e2-4cfb-95b6-43a72479fc1c","ios":"levelo://app?vid=4d35de00-49e2-4cfb-95b6-43a72479fc1c"},"vehicle_type_id":"4","last_reported":1735816018,"current_range_meters":38800,"station_id":"ce4bgj12rcd13ifvqbc0","pricing_plan_id":"cebpf4jnsgd1na2vs0mg"},{"bike_id":"66e8c50d-4c8f-4315-979e-1330a35be99c","system_id":"levelo_inurba_marseille","lat":43.29529,"lon":5.38542,"is_reserved":false,"is_disabled":false,"rental_uris":{"android":"levelo://app?vid=66e8c50d-4c8f-4315-979e-1330a35be99c","ios":"levelo://app?vid=66e8c50d-4c8f-4315-979e-1330a35be99c"},"vehicle_type_id":"4","last_reported":1735816018,"current_range_meters":39200,"station_id":"ce4bgih2rcd13ifvqba0","pricing_plan_id":"cebpf4jnsgd1na2vs0mg"},{"bike_id":"f11b9d11-ef3b-4e4c-946f-bb724c228700","system_id":"levelo_inurba_marseille","lat":43.2415,"lon":5.39738,"is_reserved":false,"is_disabled":false,"rental_uris":{"android":"levelo://app?vid=f11b9d11-ef3b-4e4c-946f-bb724c228700","ios":"levelo://app?vid=f11b9d11-ef3b-4e4c-946f-bb724c228700"},"vehicle_type_id":"4","last_reported":1735816018,"current_range_meters":26800,"station_id":"ce4bhn12rcd13ifvqgpg","pricing_plan_id":"cebpf4jnsgd1na2vs0mg"},{"bike_id":"439818dc-86f0-4179-8c0e-05632c3a5134","system_id":"levelo_inurba_marseille","lat":43.23197,"lon":5.35586,"is_reserved":false,"is_disabled":false,"rental_uris":{"android":"levelo://app?vid=439818dc-86f0-4179-8c0e-05632c3a5134","ios":"levelo://app?vid=439818dc-86f0-4179-8c0e-05632c3a5134"},"vehicle_type_id":"4","last_reported":1735816018,"current_range_meters":39200,"station_id":"ce4bhu92rcd13ifvqi70","pricing_plan_id":"cebpf4jnsgd1na2vs0mg"},{"bike_id":"89dcc7b2-6e83-481a-8d85-32a7e16b5a26","system_id":"levelo_inurba_marseille","lat":43.29576,"lon":5.39949,"is_reserved":false,"is_disabled":false,"rental_uris":{"android":"levelo://app?vid=89dcc7b2-6e83-481a-8d85-32a7e16b5a26","ios":"levelo://app?vid=89dcc7b2-6e83-481a-8d85-32a7e16b5a26"},"vehicle_type_id":"4","last_reported":1735816018,"current_range_meters":38800,"station_id":"ce4bh312rcd13ifvqdj0","pricing_plan_id":"cebpf4jnsgd1na2vs0mg"},{"bike_id":"81cf0c67-d9bc-4d9d-b626-d6d1d5798db5","system_id":"levelo_inurba_marseille","lat":43.28444,"lon":5.39207,"is_reserved":false,"is_disabled":false,"rental_uris":{"android":"levelo://app?vid=81cf0c67-d9bc-4d9d-b626-d6d1d5798db5","ios":"levelo://app?vid=81cf0c67-d9bc-4d9d-b626-d6d1d5798db5"},"vehicle_type_id":"4","last_reported":1735816018,"current_range_meters":36400,"station_id":"ce4bhoh2rcd13ifvqh5g","pricing_plan_id":"cebpf4jnsgd1na2vs0mg"},{"bike_id":"668d2418-f0db-4f32-840e-e3d4191ae028","system_id":"levelo_inurba_marseille","lat":43.28494,"lon":5.38986,"is_reserved":false,"is_disabled":false,"rental_uris":{"android":"levelo://app?vid=668d2418-f0db-4f32-840e-e3d4191ae028","ios":"levelo://app?vid=668d2418-f0db-4f32-840e-e3d4191ae028"},"vehicle_type_id":"4","last_reported":1735816018,"current_range_meters":28000,"station_id":"","pricing_plan_id":"cebpf4jnsgd1na2vs0mg"},{"bike_id":"d04480cd-f1b6-48fa-bd9d-f10086f8995e","system_id":"levelo_inurba_marseille","lat":43.28481,"lon":5.3845,"is_reserved":false,"is_disabled":false,"rental_uris":{"android":"levelo://app?vid=d04480cd-f1b6-48fa-bd9d-f10086f8995e","ios":"levelo://app?vid=d04480cd-f1b6-48fa-bd9d-f10086f8995e"},"vehicle_type_id":"4","last_reported":1735816018,"current_range_meters":27600,"station_id":"ce4bh512rcd13ifvqe3g","pricing_plan_id":"cebpf4jnsgd1na2vs0mg"},{"bike_id":"a3517146-3a38-485e-9b65-46f28f14e1c6","system_id":"levelo_inurba_marseille","lat":43.269405,"lon":5.389171,"is_reserved":false,"is_disabled":false,"rental_uris":{"android":"levelo://app?vid=a3517146-3a38-485e-9b65-46f28f14e1c6","ios":"levelo://app?vid=a3517146-3a38-485e-9b65-46f28f14e1c6"},"vehicle_type_id":"4","last_reported":1735816018,"current_range_meters":27200,"station_id":"ce4bhhh2rcd13ifvqfl0","pricing_plan_id":"cebpf4jnsgd1na2vs0mg"},{"bike_id":"6d3379aa-0f1b-4ef6-a7dc-b0f6d379d543","system_id":"levelo_inurba_marseille","lat":43.25871,"lon":5.39918,"is_reserved":false,"is_disabled":false,"rental_uris":{"android":"levelo://app?vid=6d3379aa-0f1b-4ef6-a7dc-b0f6d379d543","ios":"levelo://app?vid=6d3379aa-0f1b-4ef6-a7dc-b0f6d379d543"},"vehicle_type_id":"4","last_reported":1735816018,"current_range_meters":36800,"station_id":"ce4bhl92rcd13ifvqghg","pricing_plan_id":"cebpf4jnsgd1na2vs0mg"},{"bike_id":"0414a468-1219-4f8e-a750-d9badae394df","system_id":"levelo_inurba_marseille","lat":43.28076,"lon":5.39654,"is_reserved":false,"is_disabled":false,"rental_uris":{"android":"levelo://app?vid=0414a468-1219-4f8e-a750-d9badae394df","ios":"levelo://app?vid=0414a468-1219-4f8e-a750-d9badae394df"},"vehicle_type_id":"4","last_reported":1735816018,"current_range_meters":38800,"station_id":"ce4bho12rcd13ifvqh2g","pricing_plan_id":"cebpf4jnsgd1na2vs0mg"},{"bike_id":"930759b3-4c88-4c7f-b6bb-3894bbc35b9c","system_id":"levelo_inurba_marseille","lat":43.2953,"lon":5.38545,"is_reserved":false,"is_disabled":false,"rental_uris":{"android":"levelo://app?vid=930759b3-4c88-4c7f-b6bb-3894bbc35b9c","ios":"levelo://app?vid=930759b3-4c88-4c7f-b6bb-3894bbc35b9c"},"vehicle_type_id":"4","last_reported":1735816018,"current_range_meters":39200,"station_id":"ce4bgih2rcd13ifvqba0","pricing_plan_id":"cebpf4jnsgd1na2vs0mg"},{"bike_id":"1efb6e70-f243-4ee4-8c73-08ef2a2c6772","system_id":"levelo_inurba_marseille","lat":43.25818,"lon":5.39441,"is_reserved":false,"is_disabled":false,"rental_uris":{"android":"levelo://app?vid=1efb6e70-f243-4ee4-8c73-08ef2a2c6772","ios":"levelo://app?vid=1efb6e70-f243-4ee4-8c73-08ef2a2c6772"},"vehicle_type_id":"4","last_reported":1735816018,"current_range_meters":37600,"station_id":"ce4bhip2rcd13ifvqft0","pricing_plan_id":"cebpf4jnsgd1na2vs0mg"},{"bike_id":"df844190-b792-4bd6-97c8-eedd3e5d7d59","system_id":"levelo_inurba_marseille","lat":43.23961,"lon":5.36649,"is_reserved":false,"is_disabled":false,"rental_uris":{"android":"levelo://app?vid=df844190-b792-4bd6-97c8-eedd3e5d7d59","ios":"levelo://app?vid=df844190-b792-4bd6-97c8-eedd3e5d7d59"},"vehicle_type_id":"4","last_reported":1735816018,"current_range_meters":28400,"station_id":"ce4bhi12rcd13ifvqfp0","pricing_plan_id":"cebpf4jnsgd1na2vs0mg"},{"bike_id":"bcc47b98-405a-4d86-8e5f-bbe262abbd0d","system_id":"levelo_inurba_marseille","lat":43.32111,"lon":5.36798,"is_reserved":false,"is_disabled":false,"rental_uris":{"android":"levelo://app?vid=bcc47b98-405a-4d86-8e5f-bbe262abbd0d","ios":"levelo://app?vid=bcc47b98-405a-4d86-8e5f-bbe262abbd0d"},"vehicle_type_id":"4","last_reported":1735816018,"current_range_meters":30000,"station_id":"ce4bhrh2rcd13ifvqhug","pricing_plan_id":"cebpf4jnsgd1na2vs0mg"},{"bike_id":"2cfc9e8e-5aed-4811-9d9d-501a8a7609c9","system_id":"levelo_inurba_marseille","lat":43.28262,"lon":5.35082,"is_reserved":false,"is_disabled":false,"rental_uris":{"android":"levelo://app?vid=2cfc9e8e-5aed-4811-9d9d-501a8a7609c9","ios":"levelo://app?vid=2cfc9e8e-5aed-4811-9d9d-501a8a7609c9"},"vehicle_type_id":"4","last_reported":1735816018,"current_range_meters":36800,"station_id":"ce4bhbp2rcd13ifvqerg","pricing_plan_id":"cebpf4jnsgd1na2vs0mg"},{"bike_id":"0c16cdcd-f841-4761-811e-4eaf0ad8cae7","system_id":"levelo_inurba_marseille","lat":43.241867,"lon":5.397134,"is_reserved":false,"is_disabled":false,"rental_uris":{"android":"levelo://app?vid=0c16cdcd-f841-4761-811e-4eaf0ad8cae7","ios":"levelo://app?vid=0c16cdcd-f841-4761-811e-4eaf0ad8cae7"},"vehicle_type_id":"4","last_reported":1735816018,"current_range_meters":12400,"station_id":"ce4bhn12rcd13ifvqgpg","pricing_plan_id":"cebpf4jnsgd1na2vs0mg"},{"bike_id":"027085de-3c06-4c90-8099-b9537f78e863","system_id":"levelo_inurba_marseille","lat":43.23166,"lon":5.43702,"is_reserved":false,"is_disabled":false,"rental_uris":{"android":"levelo://app?vid=027085de-3c06-4c90-8099-b9537f78e863","ios":"levelo://app?vid=027085de-3c06-4c90-8099-b9537f78e863"},"vehicle_type_id":"4","last_reported":1735816018,"current_range_meters":30400,"station_id":"ce4bhmp2rcd13ifvqgog","pricing_plan_id":"cebpf4jnsgd1na2vs0mg"},{"bike_id":"0d4fa608-5549-4e6a-b3b6-b351020c9a5d","system_id":"levelo_inurba_marseille","lat":43.28395,"lon":5.37531,"is_reserved":false,"is_disabled":false,"rental_uris":{"android":"levelo://app?vid=0d4fa608-5549-4e6a-b3b6-b351020c9a5d","ios":"levelo://app?vid=0d4fa608-5549-4e6a-b3b6-b351020c9a5d"},"vehicle_type_id":"4","last_reported":1735816018,"current_range_meters":16400,"station_id":"ce4bh412rcd13ifvqds0","pricing_plan_id":"cebpf4jnsgd1na2vs0mg"},{"bike_id":"747cdc20-1e87-471e-9182-016e75c83978","system_id":"levelo_inurba_marseille","lat":43.24642,"lon":5.38925,"is_reserved":false,"is_disabled":false,"rental_uris":{"android":"levelo://app?vid=747cdc20-1e87-471e-9182-016e75c83978","ios":"levelo://app?vid=747cdc20-1e87-471e-9182-016e75c83978"},"vehicle_type_id":"4","last_reported":1735816018,"current_range_meters":38800,"station_id":"ce4bhg12rcd13ifvqf60","pricing_plan_id":"cebpf4jnsgd1na2vs0mg"},{"bike_id":"2e720810-2fc9-4bf7-a27a-07ef37f6eee7","system_id":"levelo_inurba_marseille","lat":43.30298,"lon":5.39232,"is_reserved":false,"is_disabled":false,"rental_uris":{"android":"levelo://app?vid=2e720810-2fc9-4bf7-a27a-07ef37f6eee7","ios":"levelo://app?vid=2e720810-2fc9-4bf7-a27a-07ef37f6eee7"},"vehicle_type_id":"4","last_reported":1735816018,"current_range_meters":20800,"station_id":"ce4bgkh2rcd13ifvqbk0","pricing_plan_id":"cebpf4jnsgd1na2vs0mg"},{"bike_id":"9b5916a1-20b4-45b5-ae28-a04ea7106c34","system_id":"levelo_inurba_marseille","lat":43.2757,"lon":5.38432,"is_reserved":false,"is_disabled":false,"rental_uris":{"android":"levelo://app?vid=9b5916a1-20b4-45b5-ae28-a04ea7106c34","ios":"levelo://app?vid=9b5916a1-20b4-45b5-ae28-a04ea7106c34"},"vehicle_type_id":"4","last_reported":1735816018,"current_range_meters":26800,"station_id":"ce4bhh92rcd13ifvqfi0","pricing_plan_id":"cebpf4jnsgd1na2vs0mg"},{"bike_id":"6903f890-7fc4-46b4-bda9-d6177c9b8416","system_id":"levelo_inurba_marseille","lat":43.29939,"lon":5.37474,"is_reserved":false,"is_disabled":false,"rental_uris":{"android":"levelo://app?vid=6903f890-7fc4-46b4-bda9-d6177c9b8416","ios":"levelo://app?vid=6903f890-7fc4-46b4-bda9-d6177c9b8416"},"vehicle_type_id":"4","last_reported":1735816018,"current_range_meters":33200,"station_id":"ce4bgjh2rcd13ifvqbg0","pricing_plan_id":"cebpf4jnsgd1na2vs0mg"},{"bike_id":"7c208806-9597-4bef-aac1-40a7c22ec1a9","system_id":"levelo_inurba_marseille","lat":43.29565,"lon":5.37527,"is_reserved":false,"is_disabled":false,"rental_uris":{"android":"levelo://app?vid=7c208806-9597-4bef-aac1-40a7c22ec1a9","ios":"levelo://app?vid=7c208806-9597-4bef-aac1-40a7c22ec1a9"},"vehicle_type_id":"4","last_reported":1735816018,"current_range_meters":32000,"station_id":"ce4bgh92rcd13ifvqb50","pricing_plan_id":"cebpf4jnsgd1na2vs0mg"},{"bike_id":"3c7472a4-a45c-4f46-a692-aa44ebf92f21","system_id":"levelo_inurba_marseille","lat":43.2742,"lon":5.39445,"is_reserved":false,"is_disabled":false,"rental_uris":{"android":"levelo://app?vid=3c7472a4-a45c-4f46-a692-aa44ebf92f21","ios":"levelo://app?vid=3c7472a4-a45c-4f46-a692-aa44ebf92f21"},"vehicle_type_id":"4","last_reported":1735816018,"current_range_meters":36400,"station_id":"ce4bhdp2rcd13ifvqf20","pricing_plan_id":"cebpf4jnsgd1na2vs0mg"},{"bike_id":"1b9666de-703f-4874-9b63-e9d42533848b","system_id":"levelo_inurba_marseille","lat":43.318997,"lon":5.40699,"is_reserved":false,"is_disabled":false,"rental_uris":{"android":"levelo://app?vid=1b9666de-703f-4874-9b63-e9d42533848b","ios":"levelo://app?vid=1b9666de-703f-4874-9b63-e9d42533848b"},"vehicle_type_id":"4","last_reported":1735816018,"current_range_meters":38000,"station_id":"ce4bhq12rcd13ifvqhig","pricing_plan_id":"cebpf4jnsgd1na2vs0mg"},{"bike_id":"15ba1fb0-857c-4781-bec5-5801a9cc0ddf","system_id":"levelo_inurba_marseille","lat":43.29589,"lon":5.37712,"is_reserved":false,"is_disabled":false,"rental_uris":{"android":"levelo://app?vid=15ba1fb0-857c-4781-bec5-5801a9cc0ddf","ios":"levelo://app?vid=15ba1fb0-857c-4781-bec5-5801a9cc0ddf"},"vehicle_type_id":"4","last_reported":1735816018,"current_range_meters":8400,"station_id":"ce4bgi92rcd13ifvqb90","pricing_plan_id":"cebpf4jnsgd1na2vs0mg"},{"bike_id":"461a91f7-abbd-4490-b359-539df559ba7b","system_id":"levelo_inurba_marseille","lat":43.26217,"lon":5.37453,"is_reserved":false,"is_disabled":false,"rental_uris":{"android":"levelo://app?vid=461a91f7-abbd-4490-b359-539df559ba7b","ios":"levelo://app?vid=461a91f7-abbd-4490-b359-539df559ba7b"},"vehicle_type_id":"4","last_reported":1735816018,"current_range_meters":30000,"station_id":"ce4bhgp2rcd13ifvqfc0","pricing_plan_id":"cebpf4jnsgd1na2vs0mg"},{"bike_id":"4b9b3c02-7773-410b-a74d-2537aad0fdc1","system_id":"levelo_inurba_marseille","lat":43.28404,"lon":5.37546,"is_reserved":false,"is_disabled":false,"rental_uris":{"android":"levelo://app?vid=4b9b3c02-7773-410b-a74d-2537aad0fdc1","ios":"levelo://app?vid=4b9b3c02-7773-410b-a74d-2537aad0fdc1"},"vehicle_type_id":"4","last_reported":1735816018,"current_range_meters":27200,"station_id":"ce4bh412rcd13ifvqds0","pricing_plan_id":"cebpf4jnsgd1na2vs0mg"},{"bike_id":"7730d6ae-e067-4f07-81d0-81e02644e874","system_id":"levelo_inurba_marseille","lat":43.29607,"lon":5.37742,"is_reserved":false,"is_disabled":false,"rental_uris":{"android":"levelo://app?vid=7730d6ae-e067-4f07-81d0-81e02644e874","ios":"levelo://app?vid=7730d6ae-e067-4f07-81d0-81e02644e874"},"vehicle_type_id":"4","last_reported":1735816018,"current_range_meters":34000,"station_id":"ce4bgi92rcd13ifvqb90","pricing_plan_id":"cebpf4jnsgd1na2vs0mg"},{"bike_id":"da3075ee-8070-42f9-8350-58e475a60c82","system_id":"levelo_inurba_marseille","lat":43.2756,"lon":5.38451,"is_reserved":false,"is_disabled":false,"rental_uris":{"android":"levelo://app?vid=da3075ee-8070-42f9-8350-58e475a60c82","ios":"levelo://app?vid=da3075ee-8070-42f9-8350-58e475a60c82"},"vehicle_type_id":"4","last_reported":1735816018,"current_range_meters":38800,"station_id":"ce4bhh92rcd13ifvqfi0","pricing_plan_id":"cebpf4jnsgd1na2vs0mg"},{"bike_id":"64892e48-5ccd-45a4-9b85-2f1946606be6","system_id":"levelo_inurba_marseille","lat":43.31757,"lon":5.39049,"is_reserved":false,"is_disabled":false,"rental_uris":{"android":"levelo://app?vid=64892e48-5ccd-45a4-9b85-2f1946606be6","ios":"levelo://app?vid=64892e48-5ccd-45a4-9b85-2f1946606be6"},"vehicle_type_id":"4","last_reported":1735816018,"current_range_meters":33600,"station_id":"ce4bhqp2rcd13ifvqhng","pricing_plan_id":"cebpf4jnsgd1na2vs0mg"},{"bike_id":"f4e21194-bae0-47dd-9943-53bf3035cc9f","system_id":"levelo_inurba_marseille","lat":43.24643,"lon":5.38911,"is_reserved":false,"is_disabled":false,"rental_uris":{"android":"levelo://app?vid=f4e21194-bae0-47dd-9943-53bf3035cc9f","ios":"levelo://app?vid=f4e21194-bae0-47dd-9943-53bf3035cc9f"},"vehicle_type_id":"4","last_reported":1735816018,"current_range_meters":38800,"station_id":"ce4bhg12rcd13ifvqf60","pricing_plan_id":"cebpf4jnsgd1na2vs0mg"},{"bike_id":"edef67d7-5c40-4f54-afb7-0b1514203358","system_id":"levelo_inurba_marseille","lat":43.2722,"lon":5.39129,"is_reserved":false,"is_disabled":false,"rental_uris":{"android":"levelo://app?vid=edef67d7-5c40-4f54-afb7-0b1514203358","ios":"levelo://app?vid=edef67d7-5c40-4f54-afb7-0b1514203358"},"vehicle_type_id":"4","last_reported":1735816018,"current_range_meters":38800,"station_id":"ce4bhhp2rcd13ifvqfm0","pricing_plan_id":"cebpf4jnsgd1na2vs0mg"},{"bike_id":"74e94ab5-7b68-4b6f-b937-acac6a3aa677","system_id":"levelo_inurba_marseille","lat":43.29936,"lon":5.37197,"is_reserved":false,"is_disabled":false,"rental_uris":{"android":"levelo://app?vid=74e94ab5-7b68-4b6f-b937-acac6a3aa677","ios":"levelo://app?vid=74e94ab5-7b68-4b6f-b937-acac6a3aa677"},"vehicle_type_id":"4","last_reported":1735816018,"current_range_meters":38400,"station_id":"ce4bgr92rcd13ifvqc7g","pricing_plan_id":"cebpf4jnsgd1na2vs0mg"},{"bike_id":"e5fc90b8-f4d7-48fe-9b1b-e04042412667","system_id":"levelo_inurba_marseille","lat":43.31983,"lon":5.38177,"is_reserved":false,"is_disabled":false,"rental_uris":{"android":"levelo://app?vid=e5fc90b8-f4d7-48fe-9b1b-e04042412667","ios":"levelo://app?vid=e5fc90b8-f4d7-48fe-9b1b-e04042412667"},"vehicle_type_id":"4","last_reported":1735816018,"current_range_meters":38800,"station_id":"ce4bhr12rcd13ifvqhpg","pricing_plan_id":"cebpf4jnsgd1na2vs0mg"},{"bike_id":"e62be8ed-c268-492c-aa2c-0f49000a195a","system_id":"levelo_inurba_marseille","lat":43.30522,"lon":5.36537,"is_reserved":false,"is_disabled":false,"rental_uris":{"android":"levelo://app?vid=e62be8ed-c268-492c-aa2c-0f49000a195a","ios":"levelo://app?vid=e62be8ed-c268-492c-aa2c-0f49000a195a"},"vehicle_type_id":"4","last_reported":1735816018,"current_range_meters":38000,"station_id":"ce4bgs12rcd13ifvqcag","pricing_plan_id":"cebpf4jnsgd1na2vs0mg"},{"bike_id":"fa339e12-8405-4f84-8580-3f43033745d7","system_id":"levelo_inurba_marseille","lat":43.27837,"lon":5.3922,"is_reserved":false,"is_disabled":false,"rental_uris":{"android":"levelo://app?vid=fa339e12-8405-4f84-8580-3f43033745d7","ios":"levelo://app?vid=fa339e12-8405-4f84-8580-3f43033745d7"},"vehicle_type_id":"4","last_reported":1735816018,"current_range_meters":33200,"station_id":"ce4bhjp2rcd13ifvqga0","pricing_plan_id":"cebpf4jnsgd1na2vs0mg"},{"bike_id":"98067362-caef-4bff-ab4d-716780172827","system_id":"levelo_inurba_marseille","lat":43.27306,"lon":5.39122,"is_reserved":false,"is_disabled":false,"rental_uris":{"android":"levelo://app?vid=98067362-caef-4bff-ab4d-716780172827","ios":"levelo://app?vid=98067362-caef-4bff-ab4d-716780172827"},"vehicle_type_id":"4","last_reported":1735816018,"current_range_meters":39200,"station_id":"ce4bhgp2rcd13ifvqfe0","pricing_plan_id":"cebpf4jnsgd1na2vs0mg"},{"bike_id":"f0039e3d-c9f7-45d9-8d8f-4c3b22cd867c","system_id":"levelo_inurba_marseille","lat":43.2807,"lon":5.39578,"is_reserved":false,"is_disabled":false,"rental_uris":{"android":"levelo://app?vid=f0039e3d-c9f7-45d9-8d8f-4c3b22cd867c","ios":"levelo://app?vid=f0039e3d-c9f7-45d9-8d8f-4c3b22cd867c"},"vehicle_type_id":"4","last_reported":1735816018,"current_range_meters":32800,"station_id":"ce4bho12rcd13ifvqh2g","pricing_plan_id":"cebpf4jnsgd1na2vs0mg"},{"bike_id":"cdb82555-a398-468f-ad5a-341d1a99a07c","system_id":"levelo_inurba_marseille","lat":43.29,"lon":5.3562,"is_reserved":false,"is_disabled":false,"rental_uris":{"android":"levelo://app?vid=cdb82555-a398-468f-ad5a-341d1a99a07c","ios":"levelo://app?vid=cdb82555-a398-468f-ad5a-341d1a99a07c"},"vehicle_type_id":"4","last_reported":1735816018,"current_range_meters":38800,"station_id":"ce4bhb92rcd13ifvqen0","pricing_plan_id":"cebpf4jnsgd1na2vs0mg"},{"bike_id":"9ec22bb6-ddde-4544-bfca-bd222a10c5d4","system_id":"levelo_inurba_marseille","lat":43.28609,"lon":5.35128,"is_reserved":false,"is_disabled":false,"rental_uris":{"android":"levelo://app?vid=9ec22bb6-ddde-4544-bfca-bd222a10c5d4","ios":"levelo://app?vid=9ec22bb6-ddde-4544-bfca-bd222a10c5d4"},"vehicle_type_id":"4","last_reported":1735816018,"current_range_meters":13600,"station_id":"ce4bhch2rcd13ifvqeug","pricing_plan_id":"cebpf4jnsgd1na2vs0mg"},{"bike_id":"7a12b188-1c55-487c-8f99-6b6d40d88f11","system_id":"levelo_inurba_marseille","lat":43.29289,"lon":5.40162,"is_reserved":false,"is_disabled":false,"rental_uris":{"android":"levelo://app?vid=7a12b188-1c55-487c-8f99-6b6d40d88f11","ios":"levelo://app?vid=7a12b188-1c55-487c-8f99-6b6d40d88f11"},"vehicle_type_id":"4","last_reported":1735816018,"current_range_meters":12000,"station_id":"ce4bh312rcd13ifvqdk0","pricing_plan_id":"cebpf4jnsgd1na2vs0mg"},{"bike_id":"41d071c1-b776-46d8-a12e-f1a7298ae0af","system_id":"levelo_inurba_marseille","lat":43.26932,"lon":5.38906,"is_reserved":false,"is_disabled":false,"rental_uris":{"android":"levelo://app?vid=41d071c1-b776-46d8-a12e-f1a7298ae0af","ios":"levelo://app?vid=41d071c1-b776-46d8-a12e-f1a7298ae0af"},"vehicle_type_id":"4","last_reported":1735816018,"current_range_meters":36800,"station_id":"ce4bhhh2rcd13ifvqfl0","pricing_plan_id":"cebpf4jnsgd1na2vs0mg"},{"bike_id":"8c7b8bfa-8164-41c2-88b2-9aec904a54b5","system_id":"levelo_inurba_marseille","lat":43.2999,"lon":5.37191,"is_reserved":false,"is_disabled":false,"rental_uris":{"android":"levelo://app?vid=8c7b8bfa-8164-41c2-88b2-9aec904a54b5","ios":"levelo://app?vid=8c7b8bfa-8164-41c2-88b2-9aec904a54b5"},"vehicle_type_id":"4","last_reported":1735816018,"current_range_meters":36800,"station_id":"ce4bgr92rcd13ifvqc7g","pricing_plan_id":"cebpf4jnsgd1na2vs0mg"},{"bike_id":"a1c87532-6196-402b-916e-8ad945b95f72","system_id":"levelo_inurba_marseille","lat":43.251153,"lon":5.403192,"is_reserved":false,"is_disabled":false,"rental_uris":{"android":"levelo://app?vid=a1c87532-6196-402b-916e-8ad945b95f72","ios":"levelo://app?vid=a1c87532-6196-402b-916e-8ad945b95f72"},"vehicle_type_id":"4","last_reported":1735816018,"current_range_meters":14400,"station_id":"ce4bhlh2rcd13ifvqgig","pricing_plan_id":"cebpf4jnsgd1na2vs0mg"},{"bike_id":"4ce38f45-b3ef-4ce1-84b1-8cf7c7ee4592","system_id":"levelo_inurba_marseille","lat":43.27939,"lon":5.41049,"is_reserved":false,"is_disabled":false,"rental_uris":{"android":"levelo://app?vid=4ce38f45-b3ef-4ce1-84b1-8cf7c7ee4592","ios":"levelo://app?vid=4ce38f45-b3ef-4ce1-84b1-8cf7c7ee4592"},"vehicle_type_id":"4","last_reported":1735816018,"current_range_meters":34000,"station_id":"ce4bhnp2rcd13ifvqh0g","pricing_plan_id":"cebpf4jnsgd1na2vs0mg"},{"bike_id":"0d647342-3b41-47e5-86af-3a3008499d95","system_id":"levelo_inurba_marseille","lat":43.27989,"lon":5.40064,"is_reserved":false,"is_disabled":false,"rental_uris":{"android":"levelo://app?vid=0d647342-3b41-47e5-86af-3a3008499d95","ios":"levelo://app?vid=0d647342-3b41-47e5-86af-3a3008499d95"},"vehicle_type_id":"4","last_reported":1735816018,"current_range_meters":27600,"station_id":"ce4bho92rcd13ifvqh4g","pricing_plan_id":"cebpf4jnsgd1na2vs0mg"},{"bike_id":"6fcc0e78-f32b-40cf-831f-2ed6277426b2","system_id":"levelo_inurba_marseille","lat":43.31266,"lon":5.39244,"is_reserved":false,"is_disabled":true,"rental_uris":{"android":"levelo://app?vid=6fcc0e78-f32b-40cf-831f-2ed6277426b2","ios":"levelo://app?vid=6fcc0e78-f32b-40cf-831f-2ed6277426b2"},"vehicle_type_id":"4","last_reported":1735816018,"current_range_meters":26800,"station_id":"","pricing_plan_id":"cebpf4jnsgd1na2vs0mg"},{"bike_id":"849f7cfd-3f7e-49b1-9d6e-57047fbe1612","system_id":"levelo_inurba_marseille","lat":43.2815,"lon":5.42665,"is_reserved":false,"is_disabled":false,"rental_uris":{"android":"levelo://app?vid=849f7cfd-3f7e-49b1-9d6e-57047fbe1612","ios":"levelo://app?vid=849f7cfd-3f7e-49b1-9d6e-57047fbe1612"},"vehicle_type_id":"4","last_reported":1735816018,"current_range_meters":38800,"station_id":"ce4bhnh2rcd13ifvqgug","pricing_plan_id":"cebpf4jnsgd1na2vs0mg"},{"bike_id":"b6b20695-a312-4168-af64-70ee72bf8ce8","system_id":"levelo_inurba_marseille","lat":43.33762,"lon":5.37421,"is_reserved":false,"is_disabled":false,"rental_uris":{"android":"levelo://app?vid=b6b20695-a312-4168-af64-70ee72bf8ce8","ios":"levelo://app?vid=b6b20695-a312-4168-af64-70ee72bf8ce8"},"vehicle_type_id":"4","last_reported":1735816018,"current_range_meters":25600,"station_id":"","pricing_plan_id":"cebpf4jnsgd1na2vs0mg"},{"bike_id":"877466cf-9039-4714-a41a-d0454a50cb78","system_id":"levelo_inurba_marseille","lat":43.28999,"lon":5.35616,"is_reserved":false,"is_disabled":false,"rental_uris":{"android":"levelo://app?vid=877466cf-9039-4714-a41a-d0454a50cb78","ios":"levelo://app?vid=877466cf-9039-4714-a41a-d0454a50cb78"},"vehicle_type_id":"4","last_reported":1735816018,"current_range_meters":23200,"station_id":"ce4bhb92rcd13ifvqen0","pricing_plan_id":"cebpf4jnsgd1na2vs0mg"},{"bike_id":"5f174842-9d50-4204-ab72-8f25770fe4ca","system_id":"levelo_inurba_marseille","lat":43.28459,"lon":5.35889,"is_reserved":false,"is_disabled":false,"rental_uris":{"android":"levelo://app?vid=5f174842-9d50-4204-ab72-8f25770fe4ca","ios":"levelo://app?vid=5f174842-9d50-4204-ab72-8f25770fe4ca"},"vehicle_type_id":"4","last_reported":1735816018,"current_range_meters":38400,"station_id":"ce4bhah2rcd13ifvqei0","pricing_plan_id":"cebpf4jnsgd1na2vs0mg"},{"bike_id":"50f2b819-c00e-4917-a76e-b6de5001b66a","system_id":"levelo_inurba_marseille","lat":43.29531,"lon":5.39033,"is_reserved":false,"is_disabled":true,"rental_uris":{"android":"levelo://app?vid=50f2b819-c00e-4917-a76e-b6de5001b66a","ios":"levelo://app?vid=50f2b819-c00e-4917-a76e-b6de5001b66a"},"vehicle_type_id":"4","last_reported":1735816018,"current_range_meters":38800,"station_id":"ce4bh3p2rcd13ifvqdp0","pricing_plan_id":"cebpf4jnsgd1na2vs0mg"},{"bike_id":"3b439c56-7c84-4317-95c0-4804536e99c0","system_id":"levelo_inurba_marseille","lat":43.31487,"lon":5.37289,"is_reserved":false,"is_disabled":false,"rental_uris":{"android":"levelo://app?vid=3b439c56-7c84-4317-95c0-4804536e99c0","ios":"levelo://app?vid=3b439c56-7c84-4317-95c0-4804536e99c0"},"vehicle_type_id":"4","last_reported":1735816018,"current_range_meters":12000,"station_id":"ce4bgt12rcd13ifvqcd0","pricing_plan_id":"cebpf4jnsgd1na2vs0mg"},{"bike_id":"5841fdfe-5f4a-4c5e-a2ef-4340abbf223a","system_id":"levelo_inurba_marseille","lat":43.27828,"lon":5.39218,"is_reserved":false,"is_disabled":false,"rental_uris":{"android":"levelo://app?vid=5841fdfe-5f4a-4c5e-a2ef-4340abbf223a","ios":"levelo://app?vid=5841fdfe-5f4a-4c5e-a2ef-4340abbf223a"},"vehicle_type_id":"4","last_reported":1735816018,"current_range_meters":39200,"station_id":"ce4bhjp2rcd13ifvqga0","pricing_plan_id":"cebpf4jnsgd1na2vs0mg"},{"bike_id":"f4197fcf-b296-46b2-801c-c0d00285d553","system_id":"levelo_inurba_marseille","lat":43.2987,"lon":5.38917,"is_reserved":false,"is_disabled":false,"rental_uris":{"android":"levelo://app?vid=f4197fcf-b296-46b2-801c-c0d00285d553","ios":"levelo://app?vid=f4197fcf-b296-46b2-801c-c0d00285d553"},"vehicle_type_id":"4","last_reported":1735816018,"current_range_meters":36800,"station_id":"ce4bh392rcd13ifvqdl0","pricing_plan_id":"cebpf4jnsgd1na2vs0mg"},{"bike_id":"91851eca-d543-4254-93af-b2dba3e88b59","system_id":"levelo_inurba_marseille","lat":43.27966,"lon":5.38722,"is_reserved":false,"is_disabled":false,"rental_uris":{"android":"levelo://app?vid=91851eca-d543-4254-93af-b2dba3e88b59","ios":"levelo://app?vid=91851eca-d543-4254-93af-b2dba3e88b59"},"vehicle_type_id":"4","last_reported":1735816018,"current_range_meters":37600,"station_id":"ce4bhg12rcd13ifvqf80","pricing_plan_id":"cebpf4jnsgd1na2vs0mg"},{"bike_id":"94075707-2279-467c-9c7c-1a07d42a8570","system_id":"levelo_inurba_marseille","lat":43.29556,"lon":5.42281,"is_reserved":false,"is_disabled":false,"rental_uris":{"android":"levelo://app?vid=94075707-2279-467c-9c7c-1a07d42a8570","ios":"levelo://app?vid=94075707-2279-467c-9c7c-1a07d42a8570"},"vehicle_type_id":"4","last_reported":1735816018,"current_range_meters":10800,"station_id":"ce4bhph2rcd13ifvqhdg","pricing_plan_id":"cebpf4jnsgd1na2vs0mg"},{"bike_id":"94657e78-df48-49dc-b1ba-58dd71b2ca0e","system_id":"levelo_inurba_marseille","lat":43.265494,"lon":5.372919,"is_reserved":false,"is_disabled":false,"rental_uris":{"android":"levelo://app?vid=94657e78-df48-49dc-b1ba-58dd71b2ca0e","ios":"levelo://app?vid=94657e78-df48-49dc-b1ba-58dd71b2ca0e"},"vehicle_type_id":"4","last_reported":1735816018,"current_range_meters":38000,"station_id":"ce4bhg12rcd13ifvqf70","pricing_plan_id":"cebpf4jnsgd1na2vs0mg"},{"bike_id":"a77cb61b-7bf4-4634-bc34-29d17b6073d0","system_id":"levelo_inurba_marseille","lat":43.24393,"lon":5.37073,"is_reserved":false,"is_disabled":false,"rental_uris":{"android":"levelo://app?vid=a77cb61b-7bf4-4634-bc34-29d17b6073d0","ios":"levelo://app?vid=a77cb61b-7bf4-4634-bc34-29d17b6073d0"},"vehicle_type_id":"4","last_reported":1735816018,"current_range_meters":38800,"station_id":"ce4bhhh2rcd13ifvqfk0","pricing_plan_id":"cebpf4jnsgd1na2vs0mg"},{"bike_id":"1c767333-f70f-4718-bcc9-6de55d631ae5","system_id":"levelo_inurba_marseille","lat":43.26797,"lon":5.40263,"is_reserved":false,"is_disabled":false,"rental_uris":{"android":"levelo://app?vid=1c767333-f70f-4718-bcc9-6de55d631ae5","ios":"levelo://app?vid=1c767333-f70f-4718-bcc9-6de55d631ae5"},"vehicle_type_id":"4","last_reported":1735816018,"current_range_meters":27600,"station_id":"ce501612rcd8frsf0b60","pricing_plan_id":"cebpf4jnsgd1na2vs0mg"},{"bike_id":"d7bedb0a-a652-44e3-a3bf-6c894246ea6f","system_id":"levelo_inurba_marseille","lat":43.29256,"lon":5.38437,"is_reserved":false,"is_disabled":false,"rental_uris":{"android":"levelo://app?vid=d7bedb0a-a652-44e3-a3bf-6c894246ea6f","ios":"levelo://app?vid=d7bedb0a-a652-44e3-a3bf-6c894246ea6f"},"vehicle_type_id":"4","last_reported":1735816018,"current_range_meters":38800,"station_id":"ce4bh692rcd13ifvqea0","pricing_plan_id":"cebpf4jnsgd1na2vs0mg"},{"bike_id":"aec77826-2911-461c-95af-eb9adf8a9770","system_id":"levelo_inurba_marseille","lat":43.27561,"lon":5.38442,"is_reserved":false,"is_disabled":false,"rental_uris":{"android":"levelo://app?vid=aec77826-2911-461c-95af-eb9adf8a9770","ios":"levelo://app?vid=aec77826-2911-461c-95af-eb9adf8a9770"},"vehicle_type_id":"4","last_reported":1735816018,"current_range_meters":38800,"station_id":"ce4bhh92rcd13ifvqfi0","pricing_plan_id":"cebpf4jnsgd1na2vs0mg"},{"bike_id":"8279a3c2-e6b6-40a3-a7bc-76a43246ddb6","system_id":"levelo_inurba_marseille","lat":43.26773,"lon":5.39456,"is_reserved":false,"is_disabled":false,"rental_uris":{"android":"levelo://app?vid=8279a3c2-e6b6-40a3-a7bc-76a43246ddb6","ios":"levelo://app?vid=8279a3c2-e6b6-40a3-a7bc-76a43246ddb6"},"vehicle_type_id":"4","last_reported":1735816018,"current_range_meters":22800,"station_id":"ce4bhh12rcd13ifvqfg0","pricing_plan_id":"cebpf4jnsgd1na2vs0mg"},{"bike_id":"818b37e3-6bd0-4044-8453-8e3c464165c5","system_id":"levelo_inurba_marseille","lat":43.27803,"lon":5.40734,"is_reserved":false,"is_disabled":false,"rental_uris":{"android":"levelo://app?vid=818b37e3-6bd0-4044-8453-8e3c464165c5","ios":"levelo://app?vid=818b37e3-6bd0-4044-8453-8e3c464165c5"},"vehicle_type_id":"4","last_reported":1735816018,"current_range_meters":39200,"station_id":"ce4bhnh2rcd13ifvqgtg","pricing_plan_id":"cebpf4jnsgd1na2vs0mg"},{"bike_id":"971bd521-576b-4c26-b482-75bc329316be","system_id":"levelo_inurba_marseille","lat":43.3057,"lon":5.36541,"is_reserved":false,"is_disabled":false,"rental_uris":{"android":"levelo://app?vid=971bd521-576b-4c26-b482-75bc329316be","ios":"levelo://app?vid=971bd521-576b-4c26-b482-75bc329316be"},"vehicle_type_id":"4","last_reported":1735816018,"current_range_meters":38800,"station_id":"ce4bgs12rcd13ifvqcag","pricing_plan_id":"cebpf4jnsgd1na2vs0mg"},{"bike_id":"0de491d1-8977-4162-a895-d23812b73747","system_id":"levelo_inurba_marseille","lat":43.28608,"lon":5.37062,"is_reserved":false,"is_disabled":false,"rental_uris":{"android":"levelo://app?vid=0de491d1-8977-4162-a895-d23812b73747","ios":"levelo://app?vid=0de491d1-8977-4162-a895-d23812b73747"},"vehicle_type_id":"4","last_reported":1735816018,"current_range_meters":24000,"station_id":"ce4bht12rcd13ifvqi60","pricing_plan_id":"cebpf4jnsgd1na2vs0mg"},{"bike_id":"4dc76282-2341-46a4-89b3-445d572329ff","system_id":"levelo_inurba_marseille","lat":43.25568,"lon":5.38253,"is_reserved":false,"is_disabled":false,"rental_uris":{"android":"levelo://app?vid=4dc76282-2341-46a4-89b3-445d572329ff","ios":"levelo://app?vid=4dc76282-2341-46a4-89b3-445d572329ff"},"vehicle_type_id":"4","last_reported":1735816018,"current_range_meters":7200,"station_id":"ce4bhih2rcd13ifvqfs0","pricing_plan_id":"cebpf4jnsgd1na2vs0mg"},{"bike_id":"0dcc397f-0139-460e-a7d4-e9d2532aabb3","system_id":"levelo_inurba_marseille","lat":43.24811,"lon":5.37462,"is_reserved":false,"is_disabled":false,"rental_uris":{"android":"levelo://app?vid=0dcc397f-0139-460e-a7d4-e9d2532aabb3","ios":"levelo://app?vid=0dcc397f-0139-460e-a7d4-e9d2532aabb3"},"vehicle_type_id":"4","last_reported":1735816018,"current_range_meters":38800,"station_id":"ce4bhgh2rcd13ifvqfb0","pricing_plan_id":"cebpf4jnsgd1na2vs0mg"},{"bike_id":"5a57dbfb-b70b-4728-872a-f4d3ed3f2b44","system_id":"levelo_inurba_marseille","lat":43.27908,"lon":5.38023,"is_reserved":false,"is_disabled":false,"rental_uris":{"android":"levelo://app?vid=5a57dbfb-b70b-4728-872a-f4d3ed3f2b44","ios":"levelo://app?vid=5a57dbfb-b70b-4728-872a-f4d3ed3f2b44"},"vehicle_type_id":"4","last_reported":1735816018,"current_range_meters":39200,"station_id":"ce4bhf92rcd13ifvqf50","pricing_plan_id":"cebpf4jnsgd1na2vs0mg"},{"bike_id":"9296373e-a8da-4ff9-a488-98089ece75a4","system_id":"levelo_inurba_marseille","lat":43.28424,"lon":5.35004,"is_reserved":false,"is_disabled":false,"rental_uris":{"android":"levelo://app?vid=9296373e-a8da-4ff9-a488-98089ece75a4","ios":"levelo://app?vid=9296373e-a8da-4ff9-a488-98089ece75a4"},"vehicle_type_id":"4","last_reported":1735816018,"current_range_meters":32800,"station_id":"ce4bhbh2rcd13ifvqepg","pricing_plan_id":"cebpf4jnsgd1na2vs0mg"},{"bike_id":"9c5d4b2e-e054-4f58-960f-2a01cadfc7a3","system_id":"levelo_inurba_marseille","lat":43.30593,"lon":5.39361,"is_reserved":false,"is_disabled":false,"rental_uris":{"android":"levelo://app?vid=9c5d4b2e-e054-4f58-960f-2a01cadfc7a3","ios":"levelo://app?vid=9c5d4b2e-e054-4f58-960f-2a01cadfc7a3"},"vehicle_type_id":"4","last_reported":1735816018,"current_range_meters":36000,"station_id":"ce4bh0p2rcd13ifvqd80","pricing_plan_id":"cebpf4jnsgd1na2vs0mg"},{"bike_id":"6df28892-4d8b-488f-818a-15b40f6bcc4f","system_id":"levelo_inurba_marseille","lat":43.30474,"lon":5.37913,"is_reserved":false,"is_disabled":false,"rental_uris":{"android":"levelo://app?vid=6df28892-4d8b-488f-818a-15b40f6bcc4f","ios":"levelo://app?vid=6df28892-4d8b-488f-818a-15b40f6bcc4f"},"vehicle_type_id":"4","last_reported":1735816018,"current_range_meters":37600,"station_id":"ce4bgup2rcd13ifvqcn0","pricing_plan_id":"cebpf4jnsgd1na2vs0mg"},{"bike_id":"ba32df11-9a06-4ad5-a7f3-6d90eee4c0b4","system_id":"levelo_inurba_marseille","lat":43.28609,"lon":5.3511,"is_reserved":false,"is_disabled":false,"rental_uris":{"android":"levelo://app?vid=ba32df11-9a06-4ad5-a7f3-6d90eee4c0b4","ios":"levelo://app?vid=ba32df11-9a06-4ad5-a7f3-6d90eee4c0b4"},"vehicle_type_id":"4","last_reported":1735816018,"current_range_meters":8800,"station_id":"ce4bhch2rcd13ifvqeug","pricing_plan_id":"cebpf4jnsgd1na2vs0mg"},{"bike_id":"5becd014-2ea4-4e6e-af75-6157a5a38862","system_id":"levelo_inurba_marseille","lat":43.29933,"lon":5.37487,"is_reserved":false,"is_disabled":false,"rental_uris":{"android":"levelo://app?vid=5becd014-2ea4-4e6e-af75-6157a5a38862","ios":"levelo://app?vid=5becd014-2ea4-4e6e-af75-6157a5a38862"},"vehicle_type_id":"4","last_reported":1735816018,"current_range_meters":38400,"station_id":"ce4bgjh2rcd13ifvqbg0","pricing_plan_id":"cebpf4jnsgd1na2vs0mg"},{"bike_id":"0d22c007-f5b2-4481-9b21-08f35f061702","system_id":"levelo_inurba_marseille","lat":43.29619,"lon":5.37162,"is_reserved":false,"is_disabled":true,"rental_uris":{"android":"levelo://app?vid=0d22c007-f5b2-4481-9b21-08f35f061702","ios":"levelo://app?vid=0d22c007-f5b2-4481-9b21-08f35f061702"},"vehicle_type_id":"4","last_reported":1735816018,"current_range_meters":0,"station_id":"ce4bgnh2rcd13ifvqc0g","pricing_plan_id":"cebpf4jnsgd1na2vs0mg"},{"bike_id":"062bd3e7-a1b0-4a7b-be3e-67845610f912","system_id":"levelo_inurba_marseille","lat":43.31283,"lon":5.40129,"is_reserved":false,"is_disabled":false,"rental_uris":{"android":"levelo://app?vid=062bd3e7-a1b0-4a7b-be3e-67845610f912","ios":"levelo://app?vid=062bd3e7-a1b0-4a7b-be3e-67845610f912"},"vehicle_type_id":"4","last_reported":1735816018,"current_range_meters":25600,"station_id":"ce4bh092rcd13ifvqd30","pricing_plan_id":"cebpf4jnsgd1na2vs0mg"},{"bike_id":"b65446bf-e8cd-42c0-a605-66d7275adaf9","system_id":"levelo_inurba_marseille","lat":43.24068,"lon":5.37752,"is_reserved":false,"is_disabled":false,"rental_uris":{"android":"levelo://app?vid=b65446bf-e8cd-42c0-a605-66d7275adaf9","ios":"levelo://app?vid=b65446bf-e8cd-42c0-a605-66d7275adaf9"},"vehicle_type_id":"4","last_reported":1735816018,"current_range_meters":22400,"station_id":"ce4bhnp2rcd13ifvqgvg","pricing_plan_id":"cebpf4jnsgd1na2vs0mg"},{"bike_id":"5d5bb5b2-0cbe-40d7-a512-98550d8590d2","system_id":"levelo_inurba_marseille","lat":43.29789,"lon":5.38109,"is_reserved":false,"is_disabled":false,"rental_uris":{"android":"levelo://app?vid=5d5bb5b2-0cbe-40d7-a512-98550d8590d2","ios":"levelo://app?vid=5d5bb5b2-0cbe-40d7-a512-98550d8590d2"},"vehicle_type_id":"4","last_reported":1735816018,"current_range_meters":14000,"station_id":"ce4bgip2rcd13ifvqbb0","pricing_plan_id":"cebpf4jnsgd1na2vs0mg"},{"bike_id":"65de1a48-837c-4d3e-8090-e3b21b858f34","system_id":"levelo_inurba_marseille","lat":43.28068,"lon":5.3966,"is_reserved":false,"is_disabled":false,"rental_uris":{"android":"levelo://app?vid=65de1a48-837c-4d3e-8090-e3b21b858f34","ios":"levelo://app?vid=65de1a48-837c-4d3e-8090-e3b21b858f34"},"vehicle_type_id":"4","last_reported":1735816018,"current_range_meters":38800,"station_id":"ce4bho12rcd13ifvqh2g","pricing_plan_id":"cebpf4jnsgd1na2vs0mg"},{"bike_id":"ddb487b9-8adc-4c65-a4da-ed1e737c5e1d","system_id":"levelo_inurba_marseille","lat":43.28851,"lon":5.39318,"is_reserved":false,"is_disabled":false,"rental_uris":{"android":"levelo://app?vid=ddb487b9-8adc-4c65-a4da-ed1e737c5e1d","ios":"levelo://app?vid=ddb487b9-8adc-4c65-a4da-ed1e737c5e1d"},"vehicle_type_id":"4","last_reported":1735816018,"current_range_meters":38800,"station_id":"ce4bh2p2rcd13ifvqdi0","pricing_plan_id":"cebpf4jnsgd1na2vs0mg"},{"bike_id":"d743407d-0d32-4a58-a252-3050c4815c6e","system_id":"levelo_inurba_marseille","lat":43.29001,"lon":5.35612,"is_reserved":false,"is_disabled":false,"rental_uris":{"android":"levelo://app?vid=d743407d-0d32-4a58-a252-3050c4815c6e","ios":"levelo://app?vid=d743407d-0d32-4a58-a252-3050c4815c6e"},"vehicle_type_id":"4","last_reported":1735816018,"current_range_meters":38000,"station_id":"ce4bhb92rcd13ifvqen0","pricing_plan_id":"cebpf4jnsgd1na2vs0mg"},{"bike_id":"42d9687b-df97-4218-b4aa-bb5d351494d7","system_id":"levelo_inurba_marseille","lat":43.28146,"lon":5.42649,"is_reserved":false,"is_disabled":false,"rental_uris":{"android":"levelo://app?vid=42d9687b-df97-4218-b4aa-bb5d351494d7","ios":"levelo://app?vid=42d9687b-df97-4218-b4aa-bb5d351494d7"},"vehicle_type_id":"4","last_reported":1735816018,"current_range_meters":9600,"station_id":"ce4bhnh2rcd13ifvqgug","pricing_plan_id":"cebpf4jnsgd1na2vs0mg"},{"bike_id":"6ef39cf2-9335-427d-88a0-a018f070fb57","system_id":"levelo_inurba_marseille","lat":43.3175,"lon":5.39019,"is_reserved":false,"is_disabled":false,"rental_uris":{"android":"levelo://app?vid=6ef39cf2-9335-427d-88a0-a018f070fb57","ios":"levelo://app?vid=6ef39cf2-9335-427d-88a0-a018f070fb57"},"vehicle_type_id":"4","last_reported":1735816018,"current_range_meters":22800,"station_id":"ce4bhqp2rcd13ifvqhng","pricing_plan_id":"cebpf4jnsgd1na2vs0mg"},{"bike_id":"4760213a-ce63-4f27-a7e8-fb118c275513","system_id":"levelo_inurba_marseille","lat":43.28455,"lon":5.3588,"is_reserved":false,"is_disabled":false,"rental_uris":{"android":"levelo://app?vid=4760213a-ce63-4f27-a7e8-fb118c275513","ios":"levelo://app?vid=4760213a-ce63-4f27-a7e8-fb118c275513"},"vehicle_type_id":"4","last_reported":1735816018,"current_range_meters":38800,"station_id":"ce4bhah2rcd13ifvqei0","pricing_plan_id":"cebpf4jnsgd1na2vs0mg"},{"bike_id":"01de914a-72cd-4732-981a-40c6fffcb3c3","system_id":"levelo_inurba_marseille","lat":43.25931,"lon":5.40889,"is_reserved":false,"is_disabled":false,"rental_uris":{"android":"levelo://app?vid=01de914a-72cd-4732-981a-40c6fffcb3c3","ios":"levelo://app?vid=01de914a-72cd-4732-981a-40c6fffcb3c3"},"vehicle_type_id":"4","last_reported":1735816018,"current_range_meters":35600,"station_id":"ce4bhm92rcd13ifvqglg","pricing_plan_id":"cebpf4jnsgd1na2vs0mg"},{"bike_id":"d9039fb6-1526-43a5-ab47-bf6c74051347","system_id":"levelo_inurba_marseille","lat":43.28153,"lon":5.42659,"is_reserved":false,"is_disabled":true,"rental_uris":{"android":"levelo://app?vid=d9039fb6-1526-43a5-ab47-bf6c74051347","ios":"levelo://app?vid=d9039fb6-1526-43a5-ab47-bf6c74051347"},"vehicle_type_id":"4","last_reported":1735816018,"current_range_meters":2000,"station_id":"ce4bhnh2rcd13ifvqgug","pricing_plan_id":"cebpf4jnsgd1na2vs0mg"},{"bike_id":"b5e3865b-10bc-4c4f-ad14-18834fa7a270","system_id":"levelo_inurba_marseille","lat":43.30287,"lon":5.36946,"is_reserved":false,"is_disabled":false,"rental_uris":{"android":"levelo://app?vid=b5e3865b-10bc-4c4f-ad14-18834fa7a270","ios":"levelo://app?vid=b5e3865b-10bc-4c4f-ad14-18834fa7a270"},"vehicle_type_id":"4","last_reported":1735816018,"current_range_meters":38800,"station_id":"ce4bgqh2rcd13ifvqc5g","pricing_plan_id":"cebpf4jnsgd1na2vs0mg"},{"bike_id":"628a5455-080f-4414-969d-c062a978390e","system_id":"levelo_inurba_marseille","lat":43.28473,"lon":5.38537,"is_reserved":false,"is_disabled":false,"rental_uris":{"android":"levelo://app?vid=628a5455-080f-4414-969d-c062a978390e","ios":"levelo://app?vid=628a5455-080f-4414-969d-c062a978390e"},"vehicle_type_id":"4","last_reported":1735816018,"current_range_meters":38800,"station_id":"ce4bh8p2rcd13ifvqeb0","pricing_plan_id":"cebpf4jnsgd1na2vs0mg"},{"bike_id":"37cfe836-3adc-4335-b170-6d998d4b6d2f","system_id":"levelo_inurba_marseille","lat":43.28612,"lon":5.35111,"is_reserved":false,"is_disabled":false,"rental_uris":{"android":"levelo://app?vid=37cfe836-3adc-4335-b170-6d998d4b6d2f","ios":"levelo://app?vid=37cfe836-3adc-4335-b170-6d998d4b6d2f"},"vehicle_type_id":"4","last_reported":1735816018,"current_range_meters":10800,"station_id":"ce4bhch2rcd13ifvqeug","pricing_plan_id":"cebpf4jnsgd1na2vs0mg"},{"bike_id":"022d826a-d31d-48ef-b07e-f8dd0ceaa746","system_id":"levelo_inurba_marseille","lat":43.24996,"lon":5.38935,"is_reserved":false,"is_disabled":false,"rental_uris":{"android":"levelo://app?vid=022d826a-d31d-48ef-b07e-f8dd0ceaa746","ios":"levelo://app?vid=022d826a-d31d-48ef-b07e-f8dd0ceaa746"},"vehicle_type_id":"4","last_reported":1735816018,"current_range_meters":28400,"station_id":"ce4bhgp2rcd13ifvqfd0","pricing_plan_id":"cebpf4jnsgd1na2vs0mg"},{"bike_id":"29343630-08d2-464b-bbbd-14b31ece5206","system_id":"levelo_inurba_marseille","lat":43.30523,"lon":5.36712,"is_reserved":false,"is_disabled":false,"rental_uris":{"android":"levelo://app?vid=29343630-08d2-464b-bbbd-14b31ece5206","ios":"levelo://app?vid=29343630-08d2-464b-bbbd-14b31ece5206"},"vehicle_type_id":"4","last_reported":1735816018,"current_range_meters":25600,"station_id":"ce4bgrp2rcd13ifvqc9g","pricing_plan_id":"cebpf4jnsgd1na2vs0mg"},{"bike_id":"e5bb4a6c-dc1b-473c-941d-102c4ae9a6a7","system_id":"levelo_inurba_marseille","lat":43.29268,"lon":5.40162,"is_reserved":false,"is_disabled":false,"rental_uris":{"android":"levelo://app?vid=e5bb4a6c-dc1b-473c-941d-102c4ae9a6a7","ios":"levelo://app?vid=e5bb4a6c-dc1b-473c-941d-102c4ae9a6a7"},"vehicle_type_id":"4","last_reported":1735816018,"current_range_meters":38800,"station_id":"ce4bh312rcd13ifvqdk0","pricing_plan_id":"cebpf4jnsgd1na2vs0mg"},{"bike_id":"a723ce28-f7d0-48b7-8af4-639e73a4245c","system_id":"levelo_inurba_marseille","lat":43.294809,"lon":5.438371,"is_reserved":false,"is_disabled":false,"rental_uris":{"android":"levelo://app?vid=a723ce28-f7d0-48b7-8af4-639e73a4245c","ios":"levelo://app?vid=a723ce28-f7d0-48b7-8af4-639e73a4245c"},"vehicle_type_id":"4","last_reported":1735816018,"current_range_meters":14800,"station_id":"","pricing_plan_id":"cebpf4jnsgd1na2vs0mg"},{"bike_id":"bd4428a5-e282-4209-8e66-f4771abb7a4b","system_id":"levelo_inurba_marseille","lat":43.29535,"lon":5.39024,"is_reserved":false,"is_disabled":false,"rental_uris":{"android":"levelo://app?vid=bd4428a5-e282-4209-8e66-f4771abb7a4b","ios":"levelo://app?vid=bd4428a5-e282-4209-8e66-f4771abb7a4b"},"vehicle_type_id":"4","last_reported":1735816018,"current_range_meters":27600,"station_id":"ce4bh3p2rcd13ifvqdp0","pricing_plan_id":"cebpf4jnsgd1na2vs0mg"},{"bike_id":"141d6291-f03f-4009-a1b9-6464d0dd1fc4","system_id":"levelo_inurba_marseille","lat":43.29601,"lon":5.37724,"is_reserved":false,"is_disabled":false,"rental_uris":{"android":"levelo://app?vid=141d6291-f03f-4009-a1b9-6464d0dd1fc4","ios":"levelo://app?vid=141d6291-f03f-4009-a1b9-6464d0dd1fc4"},"vehicle_type_id":"4","last_reported":1735816018,"current_range_meters":24400,"station_id":"ce4bgi92rcd13ifvqb90","pricing_plan_id":"cebpf4jnsgd1na2vs0mg"},{"bike_id":"2fd6bfc3-a346-41de-9c5f-11d9ae890a02","system_id":"levelo_inurba_marseille","lat":43.3088,"lon":5.37201,"is_reserved":false,"is_disabled":false,"rental_uris":{"android":"levelo://app?vid=2fd6bfc3-a346-41de-9c5f-11d9ae890a02","ios":"levelo://app?vid=2fd6bfc3-a346-41de-9c5f-11d9ae890a02"},"vehicle_type_id":"4","last_reported":1735816018,"current_range_meters":27600,"station_id":"ce4bguh2rcd13ifvqckg","pricing_plan_id":"cebpf4jnsgd1na2vs0mg"},{"bike_id":"8fefa1b7-1579-4507-9edd-507e41e62930","system_id":"levelo_inurba_marseille","lat":43.28429,"lon":5.39204,"is_reserved":false,"is_disabled":false,"rental_uris":{"android":"levelo://app?vid=8fefa1b7-1579-4507-9edd-507e41e62930","ios":"levelo://app?vid=8fefa1b7-1579-4507-9edd-507e41e62930"},"vehicle_type_id":"4","last_reported":1735816018,"current_range_meters":37600,"station_id":"ce4bhoh2rcd13ifvqh5g","pricing_plan_id":"cebpf4jnsgd1na2vs0mg"},{"bike_id":"55a8a7bb-98e9-461f-923e-fc4eca67cd2f","system_id":"levelo_inurba_marseille","lat":43.27862,"lon":5.39313,"is_reserved":false,"is_disabled":false,"rental_uris":{"android":"levelo://app?vid=55a8a7bb-98e9-461f-923e-fc4eca67cd2f","ios":"levelo://app?vid=55a8a7bb-98e9-461f-923e-fc4eca67cd2f"},"vehicle_type_id":"4","last_reported":1735816018,"current_range_meters":17600,"station_id":"","pricing_plan_id":"cebpf4jnsgd1na2vs0mg"},{"bike_id":"4fddba13-1e7b-4cbb-a7ff-2b7342e1322f","system_id":"levelo_inurba_marseille","lat":43.26205,"lon":5.37459,"is_reserved":false,"is_disabled":false,"rental_uris":{"android":"levelo://app?vid=4fddba13-1e7b-4cbb-a7ff-2b7342e1322f","ios":"levelo://app?vid=4fddba13-1e7b-4cbb-a7ff-2b7342e1322f"},"vehicle_type_id":"4","last_reported":1735816018,"current_range_meters":12800,"station_id":"ce4bhgp2rcd13ifvqfc0","pricing_plan_id":"cebpf4jnsgd1na2vs0mg"},{"bike_id":"44d177c7-eea4-4936-8fb2-f4e78401eb94","system_id":"levelo_inurba_marseille","lat":43.25929,"lon":5.40894,"is_reserved":false,"is_disabled":false,"rental_uris":{"android":"levelo://app?vid=44d177c7-eea4-4936-8fb2-f4e78401eb94","ios":"levelo://app?vid=44d177c7-eea4-4936-8fb2-f4e78401eb94"},"vehicle_type_id":"4","last_reported":1735816018,"current_range_meters":37600,"station_id":"ce4bhm92rcd13ifvqglg","pricing_plan_id":"cebpf4jnsgd1na2vs0mg"},{"bike_id":"189d832f-528f-4b42-a3f9-2aa8c8b4f686","system_id":"levelo_inurba_marseille","lat":43.2989,"lon":5.4368,"is_reserved":false,"is_disabled":false,"rental_uris":{"android":"levelo://app?vid=189d832f-528f-4b42-a3f9-2aa8c8b4f686","ios":"levelo://app?vid=189d832f-528f-4b42-a3f9-2aa8c8b4f686"},"vehicle_type_id":"4","last_reported":1735816018,"current_range_meters":39200,"station_id":"ce4bhpp2rcd13ifvqhfg","pricing_plan_id":"cebpf4jnsgd1na2vs0mg"},{"bike_id":"375263f7-8be8-4e9c-8273-54301f8efcdc","system_id":"levelo_inurba_marseille","lat":43.28144,"lon":5.42644,"is_reserved":false,"is_disabled":false,"rental_uris":{"android":"levelo://app?vid=375263f7-8be8-4e9c-8273-54301f8efcdc","ios":"levelo://app?vid=375263f7-8be8-4e9c-8273-54301f8efcdc"},"vehicle_type_id":"4","last_reported":1735816018,"current_range_meters":9200,"station_id":"ce4bhnh2rcd13ifvqgug","pricing_plan_id":"cebpf4jnsgd1na2vs0mg"},{"bike_id":"a6cc3042-dfda-4de8-8ba5-43c81ce3efce","system_id":"levelo_inurba_marseille","lat":43.29904,"lon":5.37489,"is_reserved":false,"is_disabled":false,"rental_uris":{"android":"levelo://app?vid=a6cc3042-dfda-4de8-8ba5-43c81ce3efce","ios":"levelo://app?vid=a6cc3042-dfda-4de8-8ba5-43c81ce3efce"},"vehicle_type_id":"4","last_reported":1735816018,"current_range_meters":36800,"station_id":"ce4bgjh2rcd13ifvqbg0","pricing_plan_id":"cebpf4jnsgd1na2vs0mg"},{"bike_id":"5ffa03fd-4497-4bd7-9d4d-f6ce4cfbf308","system_id":"levelo_inurba_marseille","lat":43.26927,"lon":5.38911,"is_reserved":false,"is_disabled":false,"rental_uris":{"android":"levelo://app?vid=5ffa03fd-4497-4bd7-9d4d-f6ce4cfbf308","ios":"levelo://app?vid=5ffa03fd-4497-4bd7-9d4d-f6ce4cfbf308"},"vehicle_type_id":"4","last_reported":1735816018,"current_range_meters":33200,"station_id":"ce4bhhh2rcd13ifvqfl0","pricing_plan_id":"cebpf4jnsgd1na2vs0mg"},{"bike_id":"529d56a8-b2ac-446f-a54e-467a117abe09","system_id":"levelo_inurba_marseille","lat":43.29265,"lon":5.40161,"is_reserved":false,"is_disabled":false,"rental_uris":{"android":"levelo://app?vid=529d56a8-b2ac-446f-a54e-467a117abe09","ios":"levelo://app?vid=529d56a8-b2ac-446f-a54e-467a117abe09"},"vehicle_type_id":"4","last_reported":1735816018,"current_range_meters":38800,"station_id":"ce4bh312rcd13ifvqdk0","pricing_plan_id":"cebpf4jnsgd1na2vs0mg"},{"bike_id":"2fee7260-e55a-4ed6-964b-70a576822d5d","system_id":"levelo_inurba_marseille","lat":43.31124,"lon":5.37786,"is_reserved":false,"is_disabled":false,"rental_uris":{"android":"levelo://app?vid=2fee7260-e55a-4ed6-964b-70a576822d5d","ios":"levelo://app?vid=2fee7260-e55a-4ed6-964b-70a576822d5d"},"vehicle_type_id":"4","last_reported":1735816018,"current_range_meters":38000,"station_id":"","pricing_plan_id":"cebpf4jnsgd1na2vs0mg"},{"bike_id":"875ddf3d-2cfd-49c8-bd8d-f51a9265e541","system_id":"levelo_inurba_marseille","lat":43.26689,"lon":5.38284,"is_reserved":false,"is_disabled":false,"rental_uris":{"android":"levelo://app?vid=875ddf3d-2cfd-49c8-bd8d-f51a9265e541","ios":"levelo://app?vid=875ddf3d-2cfd-49c8-bd8d-f51a9265e541"},"vehicle_type_id":"4","last_reported":1735816018,"current_range_meters":24800,"station_id":"ce4bhg92rcd13ifvqf90","pricing_plan_id":"cebpf4jnsgd1na2vs0mg"},{"bike_id":"e7f232e6-9751-45f4-a24f-005b95d10947","system_id":"levelo_inurba_marseille","lat":43.29601,"lon":5.37734,"is_reserved":false,"is_disabled":true,"rental_uris":{"android":"levelo://app?vid=e7f232e6-9751-45f4-a24f-005b95d10947","ios":"levelo://app?vid=e7f232e6-9751-45f4-a24f-005b95d10947"},"vehicle_type_id":"4","last_reported":1735816018,"current_range_meters":3200,"station_id":"ce4bgi92rcd13ifvqb90","pricing_plan_id":"cebpf4jnsgd1na2vs0mg"},{"bike_id":"20bcfc0e-ce4b-4a55-a910-2c3c546797cb","system_id":"levelo_inurba_marseille","lat":43.29911,"lon":5.37473,"is_reserved":false,"is_disabled":false,"rental_uris":{"android":"levelo://app?vid=20bcfc0e-ce4b-4a55-a910-2c3c546797cb","ios":"levelo://app?vid=20bcfc0e-ce4b-4a55-a910-2c3c546797cb"},"vehicle_type_id":"4","last_reported":1735816018,"current_range_meters":35600,"station_id":"ce4bgjh2rcd13ifvqbg0","pricing_plan_id":"cebpf4jnsgd1na2vs0mg"},{"bike_id":"f3998a04-3b93-4948-8eb7-aa16047370fd","system_id":"levelo_inurba_marseille","lat":43.27944,"lon":5.41053,"is_reserved":false,"is_disabled":false,"rental_uris":{"android":"levelo://app?vid=f3998a04-3b93-4948-8eb7-aa16047370fd","ios":"levelo://app?vid=f3998a04-3b93-4948-8eb7-aa16047370fd"},"vehicle_type_id":"4","last_reported":1735816018,"current_range_meters":24000,"station_id":"ce4bhnp2rcd13ifvqh0g","pricing_plan_id":"cebpf4jnsgd1na2vs0mg"},{"bike_id":"1c5434c6-81cf-4ea8-9bf2-abfb41c12665","system_id":"levelo_inurba_marseille","lat":43.30899,"lon":5.37225,"is_reserved":false,"is_disabled":false,"rental_uris":{"android":"levelo://app?vid=1c5434c6-81cf-4ea8-9bf2-abfb41c12665","ios":"levelo://app?vid=1c5434c6-81cf-4ea8-9bf2-abfb41c12665"},"vehicle_type_id":"4","last_reported":1735816018,"current_range_meters":38400,"station_id":"ce4bguh2rcd13ifvqckg","pricing_plan_id":"cebpf4jnsgd1na2vs0mg"},{"bike_id":"5edd2c90-3ee4-4724-891f-63858e2e39c0","system_id":"levelo_inurba_marseille","lat":43.30353,"lon":5.41884,"is_reserved":false,"is_disabled":false,"rental_uris":{"android":"levelo://app?vid=5edd2c90-3ee4-4724-891f-63858e2e39c0","ios":"levelo://app?vid=5edd2c90-3ee4-4724-891f-63858e2e39c0"},"vehicle_type_id":"4","last_reported":1735816018,"current_range_meters":38000,"station_id":"ce4bhop2rcd13ifvqh7g","pricing_plan_id":"cebpf4jnsgd1na2vs0mg"},{"bike_id":"8a996c31-8e6c-47a3-9b8a-8e73e316f05c","system_id":"levelo_inurba_marseille","lat":43.30557,"lon":5.36583,"is_reserved":false,"is_disabled":false,"rental_uris":{"android":"levelo://app?vid=8a996c31-8e6c-47a3-9b8a-8e73e316f05c","ios":"levelo://app?vid=8a996c31-8e6c-47a3-9b8a-8e73e316f05c"},"vehicle_type_id":"4","last_reported":1735816018,"current_range_meters":8400,"station_id":"ce4bgs12rcd13ifvqcag","pricing_plan_id":"cebpf4jnsgd1na2vs0mg"},{"bike_id":"8ead7e35-2ddd-4db1-b525-2dbe32578065","system_id":"levelo_inurba_marseille","lat":43.30316,"lon":5.36923,"is_reserved":false,"is_disabled":true,"rental_uris":{"android":"levelo://app?vid=8ead7e35-2ddd-4db1-b525-2dbe32578065","ios":"levelo://app?vid=8ead7e35-2ddd-4db1-b525-2dbe32578065"},"vehicle_type_id":"4","last_reported":1735816018,"current_range_meters":30400,"station_id":"ce4bgqh2rcd13ifvqc5g","pricing_plan_id":"cebpf4jnsgd1na2vs0mg"},{"bike_id":"e157af35-862f-4ff3-a971-0cec14143385","system_id":"levelo_inurba_marseille","lat":43.27949,"lon":5.41041,"is_reserved":false,"is_disabled":false,"rental_uris":{"android":"levelo://app?vid=e157af35-862f-4ff3-a971-0cec14143385","ios":"levelo://app?vid=e157af35-862f-4ff3-a971-0cec14143385"},"vehicle_type_id":"4","last_reported":1735816018,"current_range_meters":28400,"station_id":"ce4bhnp2rcd13ifvqh0g","pricing_plan_id":"cebpf4jnsgd1na2vs0mg"},{"bike_id":"d81935cc-c2d8-41f1-87a6-1c6b256db8e0","system_id":"levelo_inurba_marseille","lat":43.32361,"lon":5.38881,"is_reserved":false,"is_disabled":false,"rental_uris":{"android":"levelo://app?vid=d81935cc-c2d8-41f1-87a6-1c6b256db8e0","ios":"levelo://app?vid=d81935cc-c2d8-41f1-87a6-1c6b256db8e0"},"vehicle_type_id":"4","last_reported":1735816018,"current_range_meters":27600,"station_id":"ce4bhqp2rcd13ifvqhog","pricing_plan_id":"cebpf4jnsgd1na2vs0mg"},{"bike_id":"703d0d5e-415c-49c6-943d-859388f28cf6","system_id":"levelo_inurba_marseille","lat":43.27172,"lon":5.40993,"is_reserved":false,"is_disabled":false,"rental_uris":{"android":"levelo://app?vid=703d0d5e-415c-49c6-943d-859388f28cf6","ios":"levelo://app?vid=703d0d5e-415c-49c6-943d-859388f28cf6"},"vehicle_type_id":"4","last_reported":1735816018,"current_range_meters":38800,"station_id":"ce4bhl12rcd13ifvqgf0","pricing_plan_id":"cebpf4jnsgd1na2vs0mg"},{"bike_id":"f5997a88-606e-48c9-933e-041b10894cea","system_id":"levelo_inurba_marseille","lat":43.27057,"lon":5.42296,"is_reserved":false,"is_disabled":false,"rental_uris":{"android":"levelo://app?vid=f5997a88-606e-48c9-933e-041b10894cea","ios":"levelo://app?vid=f5997a88-606e-48c9-933e-041b10894cea"},"vehicle_type_id":"4","last_reported":1735816018,"current_range_meters":14000,"station_id":"ce4bhk92rcd13ifvqgb0","pricing_plan_id":"cebpf4jnsgd1na2vs0mg"},{"bike_id":"f220877a-b57e-44b0-bc17-60476a285c86","system_id":"levelo_inurba_marseille","lat":43.305526,"lon":5.365469,"is_reserved":false,"is_disabled":false,"rental_uris":{"android":"levelo://app?vid=f220877a-b57e-44b0-bc17-60476a285c86","ios":"levelo://app?vid=f220877a-b57e-44b0-bc17-60476a285c86"},"vehicle_type_id":"4","last_reported":1735816018,"current_range_meters":39200,"station_id":"ce4bgs12rcd13ifvqcag","pricing_plan_id":"cebpf4jnsgd1na2vs0mg"},{"bike_id":"02b9e2b7-c456-4117-99f8-a5a1cc0170b4","system_id":"levelo_inurba_marseille","lat":43.31757,"lon":5.39015,"is_reserved":false,"is_disabled":false,"rental_uris":{"android":"levelo://app?vid=02b9e2b7-c456-4117-99f8-a5a1cc0170b4","ios":"levelo://app?vid=02b9e2b7-c456-4117-99f8-a5a1cc0170b4"},"vehicle_type_id":"4","last_reported":1735816018,"current_range_meters":33200,"station_id":"ce4bhqp2rcd13ifvqhng","pricing_plan_id":"cebpf4jnsgd1na2vs0mg"},{"bike_id":"7962ce5c-a8c4-4343-a5f4-a8e8057715f7","system_id":"levelo_inurba_marseille","lat":43.25959,"lon":5.40911,"is_reserved":false,"is_disabled":false,"rental_uris":{"android":"levelo://app?vid=7962ce5c-a8c4-4343-a5f4-a8e8057715f7","ios":"levelo://app?vid=7962ce5c-a8c4-4343-a5f4-a8e8057715f7"},"vehicle_type_id":"4","last_reported":1735816018,"current_range_meters":33200,"station_id":"ce4bhm92rcd13ifvqglg","pricing_plan_id":"cebpf4jnsgd1na2vs0mg"},{"bike_id":"1758e404-548a-4b20-87fe-a9470e99ef0f","system_id":"levelo_inurba_marseille","lat":43.28364,"lon":5.38638,"is_reserved":false,"is_disabled":false,"rental_uris":{"android":"levelo://app?vid=1758e404-548a-4b20-87fe-a9470e99ef0f","ios":"levelo://app?vid=1758e404-548a-4b20-87fe-a9470e99ef0f"},"vehicle_type_id":"4","last_reported":1735816018,"current_range_meters":38800,"station_id":"ce4bh492rcd13ifvqdvg","pricing_plan_id":"cebpf4jnsgd1na2vs0mg"},{"bike_id":"ab6c0071-1c6d-4cf2-a546-c1406e180da8","system_id":"levelo_inurba_marseille","lat":43.29608,"lon":5.37722,"is_reserved":false,"is_disabled":false,"rental_uris":{"android":"levelo://app?vid=ab6c0071-1c6d-4cf2-a546-c1406e180da8","ios":"levelo://app?vid=ab6c0071-1c6d-4cf2-a546-c1406e180da8"},"vehicle_type_id":"4","last_reported":1735816018,"current_range_meters":18000,"station_id":"ce4bgi92rcd13ifvqb90","pricing_plan_id":"cebpf4jnsgd1na2vs0mg"},{"bike_id":"bcd20683-a7d2-4d73-b9c6-b696fde50e59","system_id":"levelo_inurba_marseille","lat":43.2707,"lon":5.42278,"is_reserved":false,"is_disabled":false,"rental_uris":{"android":"levelo://app?vid=bcd20683-a7d2-4d73-b9c6-b696fde50e59","ios":"levelo://app?vid=bcd20683-a7d2-4d73-b9c6-b696fde50e59"},"vehicle_type_id":"4","last_reported":1735816018,"current_range_meters":13600,"station_id":"ce4bhk92rcd13ifvqgb0","pricing_plan_id":"cebpf4jnsgd1na2vs0mg"},{"bike_id":"313a9a0d-cbde-465d-8a65-140655419224","system_id":"levelo_inurba_marseille","lat":43.255,"lon":5.37668,"is_reserved":false,"is_disabled":false,"rental_uris":{"android":"levelo://app?vid=313a9a0d-cbde-465d-8a65-140655419224","ios":"levelo://app?vid=313a9a0d-cbde-465d-8a65-140655419224"},"vehicle_type_id":"4","last_reported":1735816018,"current_range_meters":38800,"station_id":"ce4bhh12rcd13ifvqff0","pricing_plan_id":"cebpf4jnsgd1na2vs0mg"},{"bike_id":"660aed1d-cdeb-4a3c-a6d4-d19ef9a2563b","system_id":"levelo_inurba_marseille","lat":43.29891,"lon":5.43656,"is_reserved":false,"is_disabled":false,"rental_uris":{"android":"levelo://app?vid=660aed1d-cdeb-4a3c-a6d4-d19ef9a2563b","ios":"levelo://app?vid=660aed1d-cdeb-4a3c-a6d4-d19ef9a2563b"},"vehicle_type_id":"4","last_reported":1735816018,"current_range_meters":18800,"station_id":"ce4bhpp2rcd13ifvqhfg","pricing_plan_id":"cebpf4jnsgd1na2vs0mg"},{"bike_id":"7d44431e-ed83-438c-86a7-892d7e053d01","system_id":"levelo_inurba_marseille","lat":43.32067,"lon":5.41538,"is_reserved":false,"is_disabled":false,"rental_uris":{"android":"levelo://app?vid=7d44431e-ed83-438c-86a7-892d7e053d01","ios":"levelo://app?vid=7d44431e-ed83-438c-86a7-892d7e053d01"},"vehicle_type_id":"4","last_reported":1735816018,"current_range_meters":38800,"station_id":"ce4bhq92rcd13ifvqhkg","pricing_plan_id":"cebpf4jnsgd1na2vs0mg"},{"bike_id":"84ff672c-254b-42d1-ad81-4f7d674dca47","system_id":"levelo_inurba_marseille","lat":43.24377,"lon":5.3708,"is_reserved":false,"is_disabled":false,"rental_uris":{"android":"levelo://app?vid=84ff672c-254b-42d1-ad81-4f7d674dca47","ios":"levelo://app?vid=84ff672c-254b-42d1-ad81-4f7d674dca47"},"vehicle_type_id":"4","last_reported":1735816018,"current_range_meters":38800,"station_id":"ce4bhhh2rcd13ifvqfk0","pricing_plan_id":"cebpf4jnsgd1na2vs0mg"},{"bike_id":"388c9a2f-35c2-4b80-b773-79f3b0610bbe","system_id":"levelo_inurba_marseille","lat":43.30307,"lon":5.39203,"is_reserved":false,"is_disabled":false,"rental_uris":{"android":"levelo://app?vid=388c9a2f-35c2-4b80-b773-79f3b0610bbe","ios":"levelo://app?vid=388c9a2f-35c2-4b80-b773-79f3b0610bbe"},"vehicle_type_id":"4","last_reported":1735816018,"current_range_meters":32000,"station_id":"ce4bgkh2rcd13ifvqbk0","pricing_plan_id":"cebpf4jnsgd1na2vs0mg"},{"bike_id":"84574380-5e63-4a67-bbf0-475b0a817486","system_id":"levelo_inurba_marseille","lat":43.27656,"lon":5.38949,"is_reserved":false,"is_disabled":false,"rental_uris":{"android":"levelo://app?vid=84574380-5e63-4a67-bbf0-475b0a817486","ios":"levelo://app?vid=84574380-5e63-4a67-bbf0-475b0a817486"},"vehicle_type_id":"4","last_reported":1735816018,"current_range_meters":38800,"station_id":"ce4bhi12rcd13ifvqfo0","pricing_plan_id":"cebpf4jnsgd1na2vs0mg"},{"bike_id":"b8ad2f8b-4567-4e15-a896-c61988b20d51","system_id":"levelo_inurba_marseille","lat":43.28081,"lon":5.39657,"is_reserved":false,"is_disabled":false,"rental_uris":{"android":"levelo://app?vid=b8ad2f8b-4567-4e15-a896-c61988b20d51","ios":"levelo://app?vid=b8ad2f8b-4567-4e15-a896-c61988b20d51"},"vehicle_type_id":"4","last_reported":1735816018,"current_range_meters":38000,"station_id":"ce4bho12rcd13ifvqh2g","pricing_plan_id":"cebpf4jnsgd1na2vs0mg"},{"bike_id":"cf71aac8-1e52-435d-bf91-cac39ef804d5","system_id":"levelo_inurba_marseille","lat":43.34128,"lon":5.40918,"is_reserved":false,"is_disabled":false,"rental_uris":{"android":"levelo://app?vid=cf71aac8-1e52-435d-bf91-cac39ef804d5","ios":"levelo://app?vid=cf71aac8-1e52-435d-bf91-cac39ef804d5"},"vehicle_type_id":"4","last_reported":1735816018,"current_range_meters":35200,"station_id":"ce4bhqh2rcd13ifvqhlg","pricing_plan_id":"cebpf4jnsgd1na2vs0mg"},{"bike_id":"c6d92bc5-dca9-45fe-9473-4ea5e9cb8d02","system_id":"levelo_inurba_marseille","lat":43.29912,"lon":5.38157,"is_reserved":false,"is_disabled":false,"rental_uris":{"android":"levelo://app?vid=c6d92bc5-dca9-45fe-9473-4ea5e9cb8d02","ios":"levelo://app?vid=c6d92bc5-dca9-45fe-9473-4ea5e9cb8d02"},"vehicle_type_id":"4","last_reported":1735816018,"current_range_meters":38800,"station_id":"ce4bgj12rcd13ifvqbc0","pricing_plan_id":"cebpf4jnsgd1na2vs0mg"},{"bike_id":"85f66c35-cf00-496f-866f-ed1cc2019cfb","system_id":"levelo_inurba_marseille","lat":43.28087,"lon":5.37863,"is_reserved":false,"is_disabled":false,"rental_uris":{"android":"levelo://app?vid=85f66c35-cf00-496f-866f-ed1cc2019cfb","ios":"levelo://app?vid=85f66c35-cf00-496f-866f-ed1cc2019cfb"},"vehicle_type_id":"4","last_reported":1735816018,"current_range_meters":38800,"station_id":"ce4bha12rcd13ifvqee0","pricing_plan_id":"cebpf4jnsgd1na2vs0mg"},{"bike_id":"0592da46-8016-4994-825f-ac1fa6a47e92","system_id":"levelo_inurba_marseille","lat":43.32501,"lon":5.3653,"is_reserved":false,"is_disabled":false,"rental_uris":{"android":"levelo://app?vid=0592da46-8016-4994-825f-ac1fa6a47e92","ios":"levelo://app?vid=0592da46-8016-4994-825f-ac1fa6a47e92"},"vehicle_type_id":"4","last_reported":1735816018,"current_range_meters":39200,"station_id":"ce4bhs12rcd13ifvqhvg","pricing_plan_id":"cebpf4jnsgd1na2vs0mg"},{"bike_id":"80918c45-89b7-4fd7-996f-c047d892f254","system_id":"levelo_inurba_marseille","lat":43.28422,"lon":5.3499,"is_reserved":false,"is_disabled":false,"rental_uris":{"android":"levelo://app?vid=80918c45-89b7-4fd7-996f-c047d892f254","ios":"levelo://app?vid=80918c45-89b7-4fd7-996f-c047d892f254"},"vehicle_type_id":"4","last_reported":1735816018,"current_range_meters":24800,"station_id":"ce4bhbh2rcd13ifvqepg","pricing_plan_id":"cebpf4jnsgd1na2vs0mg"},{"bike_id":"d502592a-d2f4-462b-a981-e532ff6a3185","system_id":"levelo_inurba_marseille","lat":43.289412,"lon":5.396226,"is_reserved":false,"is_disabled":false,"rental_uris":{"android":"levelo://app?vid=d502592a-d2f4-462b-a981-e532ff6a3185","ios":"levelo://app?vid=d502592a-d2f4-462b-a981-e532ff6a3185"},"vehicle_type_id":"4","last_reported":1735816018,"current_range_meters":39200,"station_id":"ce4bh3h2rcd13ifvqdn0","pricing_plan_id":"cebpf4jnsgd1na2vs0mg"},{"bike_id":"2a3ee495-54a6-4f06-9833-38f47b15ce57","system_id":"levelo_inurba_marseille","lat":43.33734,"lon":5.37459,"is_reserved":false,"is_disabled":false,"rental_uris":{"android":"levelo://app?vid=2a3ee495-54a6-4f06-9833-38f47b15ce57","ios":"levelo://app?vid=2a3ee495-54a6-4f06-9833-38f47b15ce57"},"vehicle_type_id":"4","last_reported":1735816018,"current_range_meters":37600,"station_id":"","pricing_plan_id":"cebpf4jnsgd1na2vs0mg"},{"bike_id":"4e2e926a-cc62-4529-8b24-3abbcf0f0be2","system_id":"levelo_inurba_marseille","lat":43.23188,"lon":5.35575,"is_reserved":false,"is_disabled":false,"rental_uris":{"android":"levelo://app?vid=4e2e926a-cc62-4529-8b24-3abbcf0f0be2","ios":"levelo://app?vid=4e2e926a-cc62-4529-8b24-3abbcf0f0be2"},"vehicle_type_id":"4","last_reported":1735816018,"current_range_meters":36800,"station_id":"ce4bhu92rcd13ifvqi70","pricing_plan_id":"cebpf4jnsgd1na2vs0mg"},{"bike_id":"576c3c6b-bcf6-433f-9d79-5f33ae917960","system_id":"levelo_inurba_marseille","lat":43.29539,"lon":5.4228,"is_reserved":false,"is_disabled":false,"rental_uris":{"android":"levelo://app?vid=576c3c6b-bcf6-433f-9d79-5f33ae917960","ios":"levelo://app?vid=576c3c6b-bcf6-433f-9d79-5f33ae917960"},"vehicle_type_id":"4","last_reported":1735816018,"current_range_meters":38800,"station_id":"ce4bhph2rcd13ifvqhdg","pricing_plan_id":"cebpf4jnsgd1na2vs0mg"},{"bike_id":"ee7da7e1-0487-4a7b-838f-676e9c820e80","system_id":"levelo_inurba_marseille","lat":43.30425,"lon":5.39743,"is_reserved":false,"is_disabled":true,"rental_uris":{"android":"levelo://app?vid=ee7da7e1-0487-4a7b-838f-676e9c820e80","ios":"levelo://app?vid=ee7da7e1-0487-4a7b-838f-676e9c820e80"},"vehicle_type_id":"4","last_reported":1735816018,"current_range_meters":38000,"station_id":"ce4bh092rcd13ifvqd20","pricing_plan_id":"cebpf4jnsgd1na2vs0mg"},{"bike_id":"7ab036cf-df33-4ea0-afca-939ac3f77aec","system_id":"levelo_inurba_marseille","lat":43.29865,"lon":5.36525,"is_reserved":false,"is_disabled":false,"rental_uris":{"android":"levelo://app?vid=7ab036cf-df33-4ea0-afca-939ac3f77aec","ios":"levelo://app?vid=7ab036cf-df33-4ea0-afca-939ac3f77aec"},"vehicle_type_id":"4","last_reported":1735816018,"current_range_meters":24000,"station_id":"ce4bgm92rcd13ifvqbr0","pricing_plan_id":"cebpf4jnsgd1na2vs0mg"},{"bike_id":"2f71d5d0-4248-4fd8-90b9-7615dc7e3077","system_id":"levelo_inurba_marseille","lat":43.25158,"lon":5.40323,"is_reserved":false,"is_disabled":false,"rental_uris":{"android":"levelo://app?vid=2f71d5d0-4248-4fd8-90b9-7615dc7e3077","ios":"levelo://app?vid=2f71d5d0-4248-4fd8-90b9-7615dc7e3077"},"vehicle_type_id":"4","last_reported":1735816018,"current_range_meters":38800,"station_id":"ce4bhlh2rcd13ifvqgig","pricing_plan_id":"cebpf4jnsgd1na2vs0mg"},{"bike_id":"f46bd378-e30f-485c-b539-9d29fba578aa","system_id":"levelo_inurba_marseille","lat":43.34158,"lon":5.40903,"is_reserved":false,"is_disabled":false,"rental_uris":{"android":"levelo://app?vid=f46bd378-e30f-485c-b539-9d29fba578aa","ios":"levelo://app?vid=f46bd378-e30f-485c-b539-9d29fba578aa"},"vehicle_type_id":"4","last_reported":1735816018,"current_range_meters":38800,"station_id":"ce4bhqh2rcd13ifvqhlg","pricing_plan_id":"cebpf4jnsgd1na2vs0mg"},{"bike_id":"583adf00-139d-403f-8366-744378ddbd7e","system_id":"levelo_inurba_marseille","lat":43.283681,"lon":5.38621,"is_reserved":false,"is_disabled":false,"rental_uris":{"android":"levelo://app?vid=583adf00-139d-403f-8366-744378ddbd7e","ios":"levelo://app?vid=583adf00-139d-403f-8366-744378ddbd7e"},"vehicle_type_id":"4","last_reported":1735816018,"current_range_meters":38000,"station_id":"ce4bh492rcd13ifvqdvg","pricing_plan_id":"cebpf4jnsgd1na2vs0mg"},{"bike_id":"71ab5530-984a-4eef-8f04-351b3f767d20","system_id":"levelo_inurba_marseille","lat":43.27311,"lon":5.39108,"is_reserved":false,"is_disabled":false,"rental_uris":{"android":"levelo://app?vid=71ab5530-984a-4eef-8f04-351b3f767d20","ios":"levelo://app?vid=71ab5530-984a-4eef-8f04-351b3f767d20"},"vehicle_type_id":"4","last_reported":1735816018,"current_range_meters":34000,"station_id":"ce4bhgp2rcd13ifvqfe0","pricing_plan_id":"cebpf4jnsgd1na2vs0mg"},{"bike_id":"3ea4f536-16df-4bbf-994e-0f29e4010303","system_id":"levelo_inurba_marseille","lat":43.29008,"lon":5.35617,"is_reserved":false,"is_disabled":false,"rental_uris":{"android":"levelo://app?vid=3ea4f536-16df-4bbf-994e-0f29e4010303","ios":"levelo://app?vid=3ea4f536-16df-4bbf-994e-0f29e4010303"},"vehicle_type_id":"4","last_reported":1735816018,"current_range_meters":22800,"station_id":"ce4bhb92rcd13ifvqen0","pricing_plan_id":"cebpf4jnsgd1na2vs0mg"},{"bike_id":"a10cb38b-c0a9-46c5-81e3-8b36eafcdd96","system_id":"levelo_inurba_marseille","lat":43.28976,"lon":5.37841,"is_reserved":false,"is_disabled":true,"rental_uris":{"android":"levelo://app?vid=a10cb38b-c0a9-46c5-81e3-8b36eafcdd96","ios":"levelo://app?vid=a10cb38b-c0a9-46c5-81e3-8b36eafcdd96"},"vehicle_type_id":"4","last_reported":1735816018,"current_range_meters":37600,"station_id":"ce4bh9p2rcd13ifvqed0","pricing_plan_id":"cebpf4jnsgd1na2vs0mg"},{"bike_id":"df334d50-4421-42a5-a762-fb7f39807cc1","system_id":"levelo_inurba_marseille","lat":43.337676,"lon":5.374526,"is_reserved":false,"is_disabled":false,"rental_uris":{"android":"levelo://app?vid=df334d50-4421-42a5-a762-fb7f39807cc1","ios":"levelo://app?vid=df334d50-4421-42a5-a762-fb7f39807cc1"},"vehicle_type_id":"4","last_reported":1735816018,"current_range_meters":32400,"station_id":"","pricing_plan_id":"cebpf4jnsgd1na2vs0mg"},{"bike_id":"87b9a921-e93d-4ee9-818f-18845bfae0db","system_id":"levelo_inurba_marseille","lat":43.28095,"lon":5.3786,"is_reserved":false,"is_disabled":false,"rental_uris":{"android":"levelo://app?vid=87b9a921-e93d-4ee9-818f-18845bfae0db","ios":"levelo://app?vid=87b9a921-e93d-4ee9-818f-18845bfae0db"},"vehicle_type_id":"4","last_reported":1735816018,"current_range_meters":18000,"station_id":"ce4bha12rcd13ifvqee0","pricing_plan_id":"cebpf4jnsgd1na2vs0mg"},{"bike_id":"35d7b981-f2f8-4e1f-bf58-6f3547d4e1f6","system_id":"levelo_inurba_marseille","lat":43.30358,"lon":5.36777,"is_reserved":false,"is_disabled":true,"rental_uris":{"android":"levelo://app?vid=35d7b981-f2f8-4e1f-bf58-6f3547d4e1f6","ios":"levelo://app?vid=35d7b981-f2f8-4e1f-bf58-6f3547d4e1f6"},"vehicle_type_id":"4","last_reported":1735816018,"current_range_meters":18800,"station_id":"","pricing_plan_id":"cebpf4jnsgd1na2vs0mg"},{"bike_id":"176dc94c-6fa3-4dff-84cb-4c4762966efe","system_id":"levelo_inurba_marseille","lat":43.274369,"lon":5.394215,"is_reserved":false,"is_disabled":false,"rental_uris":{"android":"levelo://app?vid=176dc94c-6fa3-4dff-84cb-4c4762966efe","ios":"levelo://app?vid=176dc94c-6fa3-4dff-84cb-4c4762966efe"},"vehicle_type_id":"4","last_reported":1735816018,"current_range_meters":32800,"station_id":"ce4bhdp2rcd13ifvqf20","pricing_plan_id":"cebpf4jnsgd1na2vs0mg"},{"bike_id":"d6b7bffe-8f80-427e-946d-3914bf2c39b8","system_id":"levelo_inurba_marseille","lat":43.279128,"lon":5.395888,"is_reserved":false,"is_disabled":false,"rental_uris":{"android":"levelo://app?vid=d6b7bffe-8f80-427e-946d-3914bf2c39b8","ios":"levelo://app?vid=d6b7bffe-8f80-427e-946d-3914bf2c39b8"},"vehicle_type_id":"4","last_reported":1735816018,"current_range_meters":35600,"station_id":"ce4bhf92rcd13ifvqf40","pricing_plan_id":"cebpf4jnsgd1na2vs0mg"},{"bike_id":"c25dfa90-8357-4c06-945d-14c7820c2818","system_id":"levelo_inurba_marseille","lat":43.30896,"lon":5.36886,"is_reserved":false,"is_disabled":false,"rental_uris":{"android":"levelo://app?vid=c25dfa90-8357-4c06-945d-14c7820c2818","ios":"levelo://app?vid=c25dfa90-8357-4c06-945d-14c7820c2818"},"vehicle_type_id":"4","last_reported":1735816018,"current_range_meters":24400,"station_id":"ce4bgn92rcd13ifvqbvg","pricing_plan_id":"cebpf4jnsgd1na2vs0mg"},{"bike_id":"5367a292-5564-4681-91cd-97babb89fc00","system_id":"levelo_inurba_marseille","lat":43.22914,"lon":5.35392,"is_reserved":false,"is_disabled":false,"rental_uris":{"android":"levelo://app?vid=5367a292-5564-4681-91cd-97babb89fc00","ios":"levelo://app?vid=5367a292-5564-4681-91cd-97babb89fc00"},"vehicle_type_id":"4","last_reported":1735816018,"current_range_meters":18800,"station_id":"cpo3532slgdg3j2ikp40","pricing_plan_id":"cebpf4jnsgd1na2vs0mg"},{"bike_id":"1d5543c4-1c87-4447-ad2e-0cc64903ea75","system_id":"levelo_inurba_marseille","lat":43.25865,"lon":5.399,"is_reserved":false,"is_disabled":false,"rental_uris":{"android":"levelo://app?vid=1d5543c4-1c87-4447-ad2e-0cc64903ea75","ios":"levelo://app?vid=1d5543c4-1c87-4447-ad2e-0cc64903ea75"},"vehicle_type_id":"4","last_reported":1735816018,"current_range_meters":39200,"station_id":"ce4bhl92rcd13ifvqghg","pricing_plan_id":"cebpf4jnsgd1na2vs0mg"},{"bike_id":"803f62e9-c5a1-4487-8219-9adcc7a476aa","system_id":"levelo_inurba_marseille","lat":43.30543,"lon":5.36545,"is_reserved":false,"is_disabled":false,"rental_uris":{"android":"levelo://app?vid=803f62e9-c5a1-4487-8219-9adcc7a476aa","ios":"levelo://app?vid=803f62e9-c5a1-4487-8219-9adcc7a476aa"},"vehicle_type_id":"4","last_reported":1735816018,"current_range_meters":37600,"station_id":"ce4bgs12rcd13ifvqcag","pricing_plan_id":"cebpf4jnsgd1na2vs0mg"},{"bike_id":"f98fde69-1f61-4a82-80ea-97f37f2d8cf7","system_id":"levelo_inurba_marseille","lat":43.30182,"lon":5.366046,"is_reserved":false,"is_disabled":false,"rental_uris":{"android":"levelo://app?vid=f98fde69-1f61-4a82-80ea-97f37f2d8cf7","ios":"levelo://app?vid=f98fde69-1f61-4a82-80ea-97f37f2d8cf7"},"vehicle_type_id":"4","last_reported":1735816018,"current_range_meters":36400,"station_id":"ce4bgrh2rcd13ifvqc8g","pricing_plan_id":"cebpf4jnsgd1na2vs0mg"},{"bike_id":"9320d020-4c62-4fe4-ac9b-ff56a3eaad5a","system_id":"levelo_inurba_marseille","lat":43.26018,"lon":5.37549,"is_reserved":false,"is_disabled":false,"rental_uris":{"android":"levelo://app?vid=9320d020-4c62-4fe4-ac9b-ff56a3eaad5a","ios":"levelo://app?vid=9320d020-4c62-4fe4-ac9b-ff56a3eaad5a"},"vehicle_type_id":"4","last_reported":1735816018,"current_range_meters":37600,"station_id":"ce4bhgh2rcd13ifvqfa0","pricing_plan_id":"cebpf4jnsgd1na2vs0mg"},{"bike_id":"5805dd1a-e108-430b-8b6a-b20a2cc619b1","system_id":"levelo_inurba_marseille","lat":43.295755,"lon":5.399844,"is_reserved":false,"is_disabled":false,"rental_uris":{"android":"levelo://app?vid=5805dd1a-e108-430b-8b6a-b20a2cc619b1","ios":"levelo://app?vid=5805dd1a-e108-430b-8b6a-b20a2cc619b1"},"vehicle_type_id":"4","last_reported":1735816018,"current_range_meters":38800,"station_id":"ce4bh312rcd13ifvqdj0","pricing_plan_id":"cebpf4jnsgd1na2vs0mg"},{"bike_id":"62076514-d312-4a15-ad75-f85cfe6d3f46","system_id":"levelo_inurba_marseille","lat":43.22946,"lon":5.35373,"is_reserved":false,"is_disabled":false,"rental_uris":{"android":"levelo://app?vid=62076514-d312-4a15-ad75-f85cfe6d3f46","ios":"levelo://app?vid=62076514-d312-4a15-ad75-f85cfe6d3f46"},"vehicle_type_id":"4","last_reported":1735816018,"current_range_meters":16800,"station_id":"cpo3532slgdg3j2ikp40","pricing_plan_id":"cebpf4jnsgd1na2vs0mg"},{"bike_id":"921c161c-81a9-4f62-88c9-fa7031ed1ea4","system_id":"levelo_inurba_marseille","lat":43.30173,"lon":5.3664,"is_reserved":false,"is_disabled":false,"rental_uris":{"android":"levelo://app?vid=921c161c-81a9-4f62-88c9-fa7031ed1ea4","ios":"levelo://app?vid=921c161c-81a9-4f62-88c9-fa7031ed1ea4"},"vehicle_type_id":"4","last_reported":1735816018,"current_range_meters":38800,"station_id":"ce4bgrh2rcd13ifvqc8g","pricing_plan_id":"cebpf4jnsgd1na2vs0mg"},{"bike_id":"337c71c9-4ec3-45b1-936a-31d8bdf83077","system_id":"levelo_inurba_marseille","lat":43.30118,"lon":5.37422,"is_reserved":false,"is_disabled":false,"rental_uris":{"android":"levelo://app?vid=337c71c9-4ec3-45b1-936a-31d8bdf83077","ios":"levelo://app?vid=337c71c9-4ec3-45b1-936a-31d8bdf83077"},"vehicle_type_id":"4","last_reported":1735816018,"current_range_meters":11600,"station_id":"ce4bgs92rcd13ifvqcc0","pricing_plan_id":"cebpf4jnsgd1na2vs0mg"},{"bike_id":"b3afc75c-abdc-4e55-84d0-a16da508bd99","system_id":"levelo_inurba_marseille","lat":43.281187,"lon":5.378389,"is_reserved":false,"is_disabled":false,"rental_uris":{"android":"levelo://app?vid=b3afc75c-abdc-4e55-84d0-a16da508bd99","ios":"levelo://app?vid=b3afc75c-abdc-4e55-84d0-a16da508bd99"},"vehicle_type_id":"4","last_reported":1735816018,"current_range_meters":38800,"station_id":"ce4bha12rcd13ifvqee0","pricing_plan_id":"cebpf4jnsgd1na2vs0mg"},{"bike_id":"515e64d3-2742-40a4-9cbd-08e53c8330a3","system_id":"levelo_inurba_marseille","lat":43.288512,"lon":5.393114,"is_reserved":false,"is_disabled":false,"rental_uris":{"android":"levelo://app?vid=515e64d3-2742-40a4-9cbd-08e53c8330a3","ios":"levelo://app?vid=515e64d3-2742-40a4-9cbd-08e53c8330a3"},"vehicle_type_id":"4","last_reported":1735816018,"current_range_meters":38800,"station_id":"ce4bh2p2rcd13ifvqdi0","pricing_plan_id":"cebpf4jnsgd1na2vs0mg"},{"bike_id":"310ae9ae-1fe3-44fd-a31d-2f3daeddd179","system_id":"levelo_inurba_marseille","lat":43.30326,"lon":5.40435,"is_reserved":false,"is_disabled":false,"rental_uris":{"android":"levelo://app?vid=310ae9ae-1fe3-44fd-a31d-2f3daeddd179","ios":"levelo://app?vid=310ae9ae-1fe3-44fd-a31d-2f3daeddd179"},"vehicle_type_id":"4","last_reported":1735816018,"current_range_meters":32000,"station_id":"ce4bh012rcd13ifvqd10","pricing_plan_id":"cebpf4jnsgd1na2vs0mg"},{"bike_id":"e9be51a1-ef71-4ae5-8ab2-1ac8e1634659","system_id":"levelo_inurba_marseille","lat":43.30184,"lon":5.3807,"is_reserved":false,"is_disabled":false,"rental_uris":{"android":"levelo://app?vid=e9be51a1-ef71-4ae5-8ab2-1ac8e1634659","ios":"levelo://app?vid=e9be51a1-ef71-4ae5-8ab2-1ac8e1634659"},"vehicle_type_id":"4","last_reported":1735816018,"current_range_meters":38800,"station_id":"ce4bgjp2rcd13ifvqbh0","pricing_plan_id":"cebpf4jnsgd1na2vs0mg"},{"bike_id":"975dd58f-37e7-4310-8d08-bb2645998887","system_id":"levelo_inurba_marseille","lat":43.25026,"lon":5.38928,"is_reserved":false,"is_disabled":false,"rental_uris":{"android":"levelo://app?vid=975dd58f-37e7-4310-8d08-bb2645998887","ios":"levelo://app?vid=975dd58f-37e7-4310-8d08-bb2645998887"},"vehicle_type_id":"4","last_reported":1735816018,"current_range_meters":36400,"station_id":"ce4bhgp2rcd13ifvqfd0","pricing_plan_id":"cebpf4jnsgd1na2vs0mg"},{"bike_id":"a3597e2d-fb98-407b-9432-8b4a2b613bde","system_id":"levelo_inurba_marseille","lat":43.30354,"lon":5.4188,"is_reserved":false,"is_disabled":false,"rental_uris":{"android":"levelo://app?vid=a3597e2d-fb98-407b-9432-8b4a2b613bde","ios":"levelo://app?vid=a3597e2d-fb98-407b-9432-8b4a2b613bde"},"vehicle_type_id":"4","last_reported":1735816018,"current_range_meters":38800,"station_id":"ce4bhop2rcd13ifvqh7g","pricing_plan_id":"cebpf4jnsgd1na2vs0mg"},{"bike_id":"9fc11948-a0d1-4b39-8d46-5ede6d39db06","system_id":"levelo_inurba_marseille","lat":43.26988,"lon":5.36595,"is_reserved":false,"is_disabled":false,"rental_uris":{"android":"levelo://app?vid=9fc11948-a0d1-4b39-8d46-5ede6d39db06","ios":"levelo://app?vid=9fc11948-a0d1-4b39-8d46-5ede6d39db06"},"vehicle_type_id":"4","last_reported":1735816018,"current_range_meters":4000,"station_id":"","pricing_plan_id":"cebpf4jnsgd1na2vs0mg"},{"bike_id":"dac94ecf-3203-4c89-acc0-21c14e979588","system_id":"levelo_inurba_marseille","lat":43.26689,"lon":5.38287,"is_reserved":false,"is_disabled":false,"rental_uris":{"android":"levelo://app?vid=dac94ecf-3203-4c89-acc0-21c14e979588","ios":"levelo://app?vid=dac94ecf-3203-4c89-acc0-21c14e979588"},"vehicle_type_id":"4","last_reported":1735816018,"current_range_meters":5600,"station_id":"ce4bhg92rcd13ifvqf90","pricing_plan_id":"cebpf4jnsgd1na2vs0mg"},{"bike_id":"de45fc42-35ce-420f-9ae9-481651f5b7a8","system_id":"levelo_inurba_marseille","lat":43.27188,"lon":5.39188,"is_reserved":false,"is_disabled":false,"rental_uris":{"android":"levelo://app?vid=de45fc42-35ce-420f-9ae9-481651f5b7a8","ios":"levelo://app?vid=de45fc42-35ce-420f-9ae9-481651f5b7a8"},"vehicle_type_id":"4","last_reported":1735816018,"current_range_meters":38800,"station_id":"ce4bhhp2rcd13ifvqfm0","pricing_plan_id":"cebpf4jnsgd1na2vs0mg"},{"bike_id":"4802f4cf-bdb4-4c46-ab2a-8cf4b2f0b54e","system_id":"levelo_inurba_marseille","lat":43.323606,"lon":5.388833,"is_reserved":false,"is_disabled":false,"rental_uris":{"android":"levelo://app?vid=4802f4cf-bdb4-4c46-ab2a-8cf4b2f0b54e","ios":"levelo://app?vid=4802f4cf-bdb4-4c46-ab2a-8cf4b2f0b54e"},"vehicle_type_id":"4","last_reported":1735816018,"current_range_meters":14000,"station_id":"ce4bhqp2rcd13ifvqhog","pricing_plan_id":"cebpf4jnsgd1na2vs0mg"},{"bike_id":"9c42c59a-a990-48ee-91ac-32ebebcaabf5","system_id":"levelo_inurba_marseille","lat":43.27557,"lon":5.38427,"is_reserved":false,"is_disabled":false,"rental_uris":{"android":"levelo://app?vid=9c42c59a-a990-48ee-91ac-32ebebcaabf5","ios":"levelo://app?vid=9c42c59a-a990-48ee-91ac-32ebebcaabf5"},"vehicle_type_id":"4","last_reported":1735816018,"current_range_meters":38800,"station_id":"ce4bhh92rcd13ifvqfi0","pricing_plan_id":"cebpf4jnsgd1na2vs0mg"},{"bike_id":"8718220a-6a37-41be-b92a-7cc1a59fedb2","system_id":"levelo_inurba_marseille","lat":43.27574,"lon":5.38445,"is_reserved":false,"is_disabled":false,"rental_uris":{"android":"levelo://app?vid=8718220a-6a37-41be-b92a-7cc1a59fedb2","ios":"levelo://app?vid=8718220a-6a37-41be-b92a-7cc1a59fedb2"},"vehicle_type_id":"4","last_reported":1735816018,"current_range_meters":7200,"station_id":"ce4bhh92rcd13ifvqfi0","pricing_plan_id":"cebpf4jnsgd1na2vs0mg"},{"bike_id":"ac4a50f1-7b84-4e9f-bca0-7ae6b4bd55d3","system_id":"levelo_inurba_marseille","lat":43.28029,"lon":5.369412,"is_reserved":false,"is_disabled":false,"rental_uris":{"android":"levelo://app?vid=ac4a50f1-7b84-4e9f-bca0-7ae6b4bd55d3","ios":"levelo://app?vid=ac4a50f1-7b84-4e9f-bca0-7ae6b4bd55d3"},"vehicle_type_id":"4","last_reported":1735816018,"current_range_meters":38000,"station_id":"ce4bha12rcd13ifvqef0","pricing_plan_id":"cebpf4jnsgd1na2vs0mg"},{"bike_id":"aedf5860-f6eb-47e7-83fc-9034dd48a1e6","system_id":"levelo_inurba_marseille","lat":43.292773,"lon":5.401299,"is_reserved":false,"is_disabled":false,"rental_uris":{"android":"levelo://app?vid=aedf5860-f6eb-47e7-83fc-9034dd48a1e6","ios":"levelo://app?vid=aedf5860-f6eb-47e7-83fc-9034dd48a1e6"},"vehicle_type_id":"4","last_reported":1735816018,"current_range_meters":38800,"station_id":"ce4bh312rcd13ifvqdk0","pricing_plan_id":"cebpf4jnsgd1na2vs0mg"},{"bike_id":"e76a1997-5d04-4a9a-b1f4-294fd443f7eb","system_id":"levelo_inurba_marseille","lat":43.26663,"lon":5.38197,"is_reserved":false,"is_disabled":false,"rental_uris":{"android":"levelo://app?vid=e76a1997-5d04-4a9a-b1f4-294fd443f7eb","ios":"levelo://app?vid=e76a1997-5d04-4a9a-b1f4-294fd443f7eb"},"vehicle_type_id":"4","last_reported":1735816018,"current_range_meters":19200,"station_id":"","pricing_plan_id":"cebpf4jnsgd1na2vs0mg"},{"bike_id":"adf2c3a9-04c5-4986-9b64-8e0eada33caa","system_id":"levelo_inurba_marseille","lat":43.29556,"lon":5.42287,"is_reserved":false,"is_disabled":false,"rental_uris":{"android":"levelo://app?vid=adf2c3a9-04c5-4986-9b64-8e0eada33caa","ios":"levelo://app?vid=adf2c3a9-04c5-4986-9b64-8e0eada33caa"},"vehicle_type_id":"4","last_reported":1735816018,"current_range_meters":10000,"station_id":"ce4bhph2rcd13ifvqhdg","pricing_plan_id":"cebpf4jnsgd1na2vs0mg"},{"bike_id":"ed8bfe29-9ee8-403b-abb1-2548d831d298","system_id":"levelo_inurba_marseille","lat":43.30409,"lon":5.39774,"is_reserved":false,"is_disabled":false,"rental_uris":{"android":"levelo://app?vid=ed8bfe29-9ee8-403b-abb1-2548d831d298","ios":"levelo://app?vid=ed8bfe29-9ee8-403b-abb1-2548d831d298"},"vehicle_type_id":"4","last_reported":1735816018,"current_range_meters":34000,"station_id":"ce4bh092rcd13ifvqd20","pricing_plan_id":"cebpf4jnsgd1na2vs0mg"},{"bike_id":"d41d5945-5cc8-478b-aaaa-223a793c25f1","system_id":"levelo_inurba_marseille","lat":43.26058,"lon":5.39406,"is_reserved":false,"is_disabled":false,"rental_uris":{"android":"levelo://app?vid=d41d5945-5cc8-478b-aaaa-223a793c25f1","ios":"levelo://app?vid=d41d5945-5cc8-478b-aaaa-223a793c25f1"},"vehicle_type_id":"4","last_reported":1735816018,"current_range_meters":36800,"station_id":"ce4bhh92rcd13ifvqfj0","pricing_plan_id":"cebpf4jnsgd1na2vs0mg"},{"bike_id":"9bf2c934-e80a-4b69-9369-b6399c81de01","system_id":"levelo_inurba_marseille","lat":43.25122,"lon":5.40321,"is_reserved":false,"is_disabled":false,"rental_uris":{"android":"levelo://app?vid=9bf2c934-e80a-4b69-9369-b6399c81de01","ios":"levelo://app?vid=9bf2c934-e80a-4b69-9369-b6399c81de01"},"vehicle_type_id":"4","last_reported":1735816018,"current_range_meters":37600,"station_id":"ce4bhlh2rcd13ifvqgig","pricing_plan_id":"cebpf4jnsgd1na2vs0mg"},{"bike_id":"4ebf17de-bff4-41e7-bb2c-a289ac3b26d3","system_id":"levelo_inurba_marseille","lat":43.29617,"lon":5.37729,"is_reserved":false,"is_disabled":false,"rental_uris":{"android":"levelo://app?vid=4ebf17de-bff4-41e7-bb2c-a289ac3b26d3","ios":"levelo://app?vid=4ebf17de-bff4-41e7-bb2c-a289ac3b26d3"},"vehicle_type_id":"4","last_reported":1735816018,"current_range_meters":19200,"station_id":"ce4bgi92rcd13ifvqb90","pricing_plan_id":"cebpf4jnsgd1na2vs0mg"},{"bike_id":"d3c4228f-831b-462d-acf4-f8bff9b98c64","system_id":"levelo_inurba_marseille","lat":43.29254,"lon":5.38442,"is_reserved":false,"is_disabled":false,"rental_uris":{"android":"levelo://app?vid=d3c4228f-831b-462d-acf4-f8bff9b98c64","ios":"levelo://app?vid=d3c4228f-831b-462d-acf4-f8bff9b98c64"},"vehicle_type_id":"4","last_reported":1735816018,"current_range_meters":38000,"station_id":"ce4bh692rcd13ifvqea0","pricing_plan_id":"cebpf4jnsgd1na2vs0mg"},{"bike_id":"9a359eb1-d7de-4d5f-a325-39e22e69049f","system_id":"levelo_inurba_marseille","lat":43.28253,"lon":5.35077,"is_reserved":false,"is_disabled":false,"rental_uris":{"android":"levelo://app?vid=9a359eb1-d7de-4d5f-a325-39e22e69049f","ios":"levelo://app?vid=9a359eb1-d7de-4d5f-a325-39e22e69049f"},"vehicle_type_id":"4","last_reported":1735816018,"current_range_meters":16400,"station_id":"ce4bhbp2rcd13ifvqerg","pricing_plan_id":"cebpf4jnsgd1na2vs0mg"},{"bike_id":"9c23194b-edc8-4913-abc5-3db87f1bd370","system_id":"levelo_inurba_marseille","lat":43.2815,"lon":5.42653,"is_reserved":false,"is_disabled":false,"rental_uris":{"android":"levelo://app?vid=9c23194b-edc8-4913-abc5-3db87f1bd370","ios":"levelo://app?vid=9c23194b-edc8-4913-abc5-3db87f1bd370"},"vehicle_type_id":"4","last_reported":1735816018,"current_range_meters":19200,"station_id":"ce4bhnh2rcd13ifvqgug","pricing_plan_id":"cebpf4jnsgd1na2vs0mg"},{"bike_id":"c14d1989-a72f-4241-a582-39661d0bcfcf","system_id":"levelo_inurba_marseille","lat":43.23201,"lon":5.35572,"is_reserved":false,"is_disabled":false,"rental_uris":{"android":"levelo://app?vid=c14d1989-a72f-4241-a582-39661d0bcfcf","ios":"levelo://app?vid=c14d1989-a72f-4241-a582-39661d0bcfcf"},"vehicle_type_id":"4","last_reported":1735816018,"current_range_meters":39200,"station_id":"ce4bhu92rcd13ifvqi70","pricing_plan_id":"cebpf4jnsgd1na2vs0mg"},{"bike_id":"ef72cdb4-465d-4178-b952-49906f159c48","system_id":"levelo_inurba_marseille","lat":43.28146,"lon":5.42642,"is_reserved":false,"is_disabled":false,"rental_uris":{"android":"levelo://app?vid=ef72cdb4-465d-4178-b952-49906f159c48","ios":"levelo://app?vid=ef72cdb4-465d-4178-b952-49906f159c48"},"vehicle_type_id":"4","last_reported":1735816018,"current_range_meters":27200,"station_id":"ce4bhnh2rcd13ifvqgug","pricing_plan_id":"cebpf4jnsgd1na2vs0mg"},{"bike_id":"11a2c895-12fd-42f9-96c6-24892dc7f066","system_id":"levelo_inurba_marseille","lat":43.29729,"lon":5.37668,"is_reserved":false,"is_disabled":false,"rental_uris":{"android":"levelo://app?vid=11a2c895-12fd-42f9-96c6-24892dc7f066","ios":"levelo://app?vid=11a2c895-12fd-42f9-96c6-24892dc7f066"},"vehicle_type_id":"4","last_reported":1735816018,"current_range_meters":38800,"station_id":"ce4bgkh2rcd13ifvqbl0","pricing_plan_id":"cebpf4jnsgd1na2vs0mg"},{"bike_id":"98d15aaa-6ceb-4650-ba87-4227af482fa2","system_id":"levelo_inurba_marseille","lat":43.31535,"lon":5.380193,"is_reserved":false,"is_disabled":false,"rental_uris":{"android":"levelo://app?vid=98d15aaa-6ceb-4650-ba87-4227af482fa2","ios":"levelo://app?vid=98d15aaa-6ceb-4650-ba87-4227af482fa2"},"vehicle_type_id":"4","last_reported":1735816018,"current_range_meters":34000,"station_id":"ce4bhsp2rcd13ifvqi50","pricing_plan_id":"cebpf4jnsgd1na2vs0mg"},{"bike_id":"b6e50ce2-c263-43bc-9c92-fd5b8337c9d2","system_id":"levelo_inurba_marseille","lat":43.29265,"lon":5.38441,"is_reserved":false,"is_disabled":false,"rental_uris":{"android":"levelo://app?vid=b6e50ce2-c263-43bc-9c92-fd5b8337c9d2","ios":"levelo://app?vid=b6e50ce2-c263-43bc-9c92-fd5b8337c9d2"},"vehicle_type_id":"4","last_reported":1735816018,"current_range_meters":37600,"station_id":"ce4bh692rcd13ifvqea0","pricing_plan_id":"cebpf4jnsgd1na2vs0mg"},{"bike_id":"7e58ac1f-0009-4b3b-8930-29dbd4e9cdf9","system_id":"levelo_inurba_marseille","lat":43.29034,"lon":5.37581,"is_reserved":false,"is_disabled":false,"rental_uris":{"android":"levelo://app?vid=7e58ac1f-0009-4b3b-8930-29dbd4e9cdf9","ios":"levelo://app?vid=7e58ac1f-0009-4b3b-8930-29dbd4e9cdf9"},"vehicle_type_id":"4","last_reported":1735816018,"current_range_meters":16400,"station_id":"ce4bh692rcd13ifvqe90","pricing_plan_id":"cebpf4jnsgd1na2vs0mg"},{"bike_id":"564705ea-2a71-4bc5-a9f6-256e74c0b024","system_id":"levelo_inurba_marseille","lat":43.28481,"lon":5.38535,"is_reserved":false,"is_disabled":false,"rental_uris":{"android":"levelo://app?vid=564705ea-2a71-4bc5-a9f6-256e74c0b024","ios":"levelo://app?vid=564705ea-2a71-4bc5-a9f6-256e74c0b024"},"vehicle_type_id":"4","last_reported":1735816018,"current_range_meters":36000,"station_id":"ce4bh8p2rcd13ifvqeb0","pricing_plan_id":"cebpf4jnsgd1na2vs0mg"},{"bike_id":"a69603b0-3c32-4371-9470-d0fd4e333f90","system_id":"levelo_inurba_marseille","lat":43.26953,"lon":5.3864,"is_reserved":false,"is_disabled":false,"rental_uris":{"android":"levelo://app?vid=a69603b0-3c32-4371-9470-d0fd4e333f90","ios":"levelo://app?vid=a69603b0-3c32-4371-9470-d0fd4e333f90"},"vehicle_type_id":"4","last_reported":1735816018,"current_range_meters":36800,"station_id":"ce4bhh92rcd13ifvqfh0","pricing_plan_id":"cebpf4jnsgd1na2vs0mg"},{"bike_id":"3a40591d-900b-4d7f-952b-f556f174a72a","system_id":"levelo_inurba_marseille","lat":43.27818,"lon":5.40746,"is_reserved":false,"is_disabled":false,"rental_uris":{"android":"levelo://app?vid=3a40591d-900b-4d7f-952b-f556f174a72a","ios":"levelo://app?vid=3a40591d-900b-4d7f-952b-f556f174a72a"},"vehicle_type_id":"4","last_reported":1735816018,"current_range_meters":16400,"station_id":"ce4bhnh2rcd13ifvqgtg","pricing_plan_id":"cebpf4jnsgd1na2vs0mg"},{"bike_id":"5260f75f-a340-4ed1-b7be-11d6dc7dcd0f","system_id":"levelo_inurba_marseille","lat":43.30528,"lon":5.3657,"is_reserved":false,"is_disabled":false,"rental_uris":{"android":"levelo://app?vid=5260f75f-a340-4ed1-b7be-11d6dc7dcd0f","ios":"levelo://app?vid=5260f75f-a340-4ed1-b7be-11d6dc7dcd0f"},"vehicle_type_id":"4","last_reported":1735816018,"current_range_meters":27200,"station_id":"ce4bgs12rcd13ifvqcag","pricing_plan_id":"cebpf4jnsgd1na2vs0mg"},{"bike_id":"d1adadd0-7c87-44a2-90dd-d7efa9d56566","system_id":"levelo_inurba_marseille","lat":43.23186,"lon":5.39988,"is_reserved":false,"is_disabled":false,"rental_uris":{"android":"levelo://app?vid=d1adadd0-7c87-44a2-90dd-d7efa9d56566","ios":"levelo://app?vid=d1adadd0-7c87-44a2-90dd-d7efa9d56566"},"vehicle_type_id":"4","last_reported":1735816018,"current_range_meters":27200,"station_id":"ce4bhn12rcd13ifvqgqg","pricing_plan_id":"cebpf4jnsgd1na2vs0mg"},