{"last_updated":1730322488,"ttl":60,"version":"2.2","data":{"bikes":[{"bike_id":"cff4c6c9-6f1d-42eb-aa93-5e57000071a7","system_id":"levelo_inurba_marseille","lat":43.3078,"lon":5.37653,"is_reserved":false,"is_disabled":false,"rental_uris":{"android":"levelo://app?vid=cff4c6c9-6f1d-42eb-aa93-5e57000071a7","ios":"levelo://app?vid=cff4c6c9-6f1d-42eb-aa93-5e57000071a7"},"vehicle_type_id":"4","last_reported":1730322488,"current_range_meters":9200,"station_id":"ce4bgv92rcd13ifvqcq0","pricing_plan_id":"cebpf4jnsgd1na2vs0mg"},{"bike_id":"a104ad06-bb07-461d-9ecb-1e4260eb4fb6","system_id":"levelo_inurba_marseille","lat":43.25814,"lon":5.39418,"is_reserved":false,"is_disabled":false,"rental_uris":{"android":"levelo://app?vid=a104ad06-bb07-461d-9ecb-1e4260eb4fb6","ios":"levelo://app?vid=a104ad06-bb07-461d-9ecb-1e4260eb4fb6"},"vehicle_type_id":"4","last_reported":1730322488,"current_range_meters":38800,"station_id":"ce4bhip2rcd13ifvqft0","pricing_plan_id":"cebpf4jnsgd1na2vs0mg"},{"bike_id":"3da51d05-81b9-4ba2-ad89-ac0f7239fef8","system_id":"levelo_inurba_marseille","lat":43.2902,"lon":5.38625,"is_reserved":false,"is_disabled":false,"rental_uris":{"android":"levelo://app?vid=3da51d05-81b9-4ba2-ad89-ac0f7239fef8","ios":"levelo://app?vid=3da51d05-81b9-4ba2-ad89-ac0f7239fef8"},"vehicle_type_id":"4","last_reported":1730322488,"current_range_meters":38800,"station_id":"ce4bh4p2rcd13ifvqe0g","pricing_plan_id":"cebpf4jnsgd1na2vs0mg"},{"bike_id":"a1e6aaac-9578-41ed-b65d-f6f2091ccdf9","system_id":"levelo_inurba_marseille","lat":43.2558,"lon":5.38234,"is_reserved":false,"is_disabled":false,"rental_uris":{"android":"levelo://app?vid=a1e6aaac-9578-41ed-b65d-f6f2091ccdf9","ios":"levelo://app?vid=a1e6aaac-9578-41ed-b65d-f6f2091ccdf9"},"vehicle_type_id":"4","last_reported":1730322488,"current_range_meters":29600,"station_id":"ce4bhih2rcd13ifvqfs0","pricing_plan_id":"cebpf4jnsgd1na2vs0mg"},{"bike_id":"02bfb880-fdef-4f92-a036-835418006895","system_id":"levelo_inurba_marseille","lat":43.28703,"lon":5.39977,"is_reserved":false,"is_disabled":false,"rental_uris":{"android":"levelo://app?vid=02bfb880-fdef-4f92-a036-835418006895","ios":"levelo://app?vid=02bfb880-fdef-4f92-a036-835418006895"},"vehicle_type_id":"4","last_reported":1730322488,"current_range_meters":33600,"station_id":"ce4bh0h2rcd13ifvqd50","pricing_plan_id":"cebpf4jnsgd1na2vs0mg"},{"bike_id":"0de6ca80-f2d2-47d7-817f-04e1396a1291","system_id":"levelo_inurba_marseille","lat":43.29419,"lon":5.3862,"is_reserved":false,"is_disabled":false,"rental_uris":{"android":"levelo://app?vid=0de6ca80-f2d2-47d7-817f-04e1396a1291","ios":"levelo://app?vid=0de6ca80-f2d2-47d7-817f-04e1396a1291"},"vehicle_type_id":"4","last_reported":1730322488,"current_range_meters":17200,"station_id":"ce4bh2h2rcd13ifvqdh0","pricing_plan_id":"cebpf4jnsgd1na2vs0mg"},{"bike_id":"f64c1e7d-3ae9-4dfc-8ec2-0a90d036364f","system_id":"levelo_inurba_marseille","lat":43.32109,"lon":5.36774,"is_reserved":false,"is_disabled":false,"rental_uris":{"android":"levelo://app?vid=f64c1e7d-3ae9-4dfc-8ec2-0a90d036364f","ios":"levelo://app?vid=f64c1e7d-3ae9-4dfc-8ec2-0a90d036364f"},"vehicle_type_id":"4","last_reported":1730322488,"current_range_meters":24000,"station_id":"ce4bhrh2rcd13ifvqhug","pricing_plan_id":"cebpf4jnsgd1na2vs0mg"},{"bike_id":"5372a642-d5b3-44d2-bd95-093c5716325a","system_id":"levelo_inurba_marseille","lat":43.29567,"lon":5.39961,"is_reserved":false,"is_disabled":false,"rental_uris":{"android":"levelo://app?vid=5372a642-d5b3-44d2-bd95-093c5716325a","ios":"levelo://app?vid=5372a642-d5b3-44d2-bd95-093c5716325a"},"vehicle_type_id":"4","last_reported":1730322488,"current_range_meters":26000,"station_id":"ce4bh312rcd13ifvqdj0","pricing_plan_id":"cebpf4jnsgd1na2vs0mg"},{"bike_id":"73d25c27-d738-480e-a6c6-c05a03ece27a","system_id":"levelo_inurba_marseille","lat":43.24169,"lon":5.39716,"is_reserved":false,"is_disabled":false,"rental_uris":{"android":"levelo://app?vid=73d25c27-d738-480e-a6c6-c05a03ece27a","ios":"levelo://app?vid=73d25c27-d738-480e-a6c6-c05a03ece27a"},"vehicle_type_id":"4","last_reported":1730322488,"current_range_meters":28800,"station_id":"ce4bhn12rcd13ifvqgpg","pricing_plan_id":"cebpf4jnsgd1na2vs0mg"},{"bike_id":"9aa63d3c-4473-4088-bebe-32d73a1a3cf1","system_id":"levelo_inurba_marseille","lat":43.29021,"lon":5.38129,"is_reserved":false,"is_disabled":false,"rental_uris":{"android":"levelo://app?vid=9aa63d3c-4473-4088-bebe-32d73a1a3cf1","ios":"levelo://app?vid=9aa63d3c-4473-4088-bebe-32d73a1a3cf1"},"vehicle_type_id":"4","last_reported":1730322488,"current_range_meters":38800,"station_id":"ce4bh4p2rcd13ifvqe1g","pricing_plan_id":"cebpf4jnsgd1na2vs0mg"},{"bike_id":"c0b460e5-bd02-440c-bbb4-47f472b80359","system_id":"levelo_inurba_marseille","lat":43.29417,"lon":5.38617,"is_reserved":false,"is_disabled":false,"rental_uris":{"android":"levelo://app?vid=c0b460e5-bd02-440c-bbb4-47f472b80359","ios":"levelo://app?vid=c0b460e5-bd02-440c-bbb4-47f472b80359"},"vehicle_type_id":"4","last_reported":1730322488,"current_range_meters":26000,"station_id":"ce4bh2h2rcd13ifvqdh0","pricing_plan_id":"cebpf4jnsgd1na2vs0mg"},{"bike_id":"c339297f-70bd-409c-84dd-00facb86bb9f","system_id":"levelo_inurba_marseille","lat":43.30327,"lon":5.40325,"is_reserved":false,"is_disabled":false,"rental_uris":{"android":"levelo://app?vid=c339297f-70bd-409c-84dd-00facb86bb9f","ios":"levelo://app?vid=c339297f-70bd-409c-84dd-00facb86bb9f"},"vehicle_type_id":"4","last_reported":1730322488,"current_range_meters":2000,"station_id":"","pricing_plan_id":"cebpf4jnsgd1na2vs0mg"},{"bike_id":"ddf9b3ae-2d28-4b9a-aa4e-ff6ba36b5432","system_id":"levelo_inurba_marseille","lat":43.30648,"lon":5.40085,"is_reserved":false,"is_disabled":false,"rental_uris":{"android":"levelo://app?vid=ddf9b3ae-2d28-4b9a-aa4e-ff6ba36b5432","ios":"levelo://app?vid=ddf9b3ae-2d28-4b9a-aa4e-ff6ba36b5432"},"vehicle_type_id":"4","last_reported":1730322488,"current_range_meters":38800,"station_id":"ce4bh112rcd13ifvqda0","pricing_plan_id":"cebpf4jnsgd1na2vs0mg"},{"bike_id":"1496c3ce-cca7-45b3-8716-c0119d2540e8","system_id":"levelo_inurba_marseille","lat":43.30798,"lon":5.3815,"is_reserved":false,"is_disabled":false,"rental_uris":{"android":"levelo://app?vid=1496c3ce-cca7-45b3-8716-c0119d2540e8","ios":"levelo://app?vid=1496c3ce-cca7-45b3-8716-c0119d2540e8"},"vehicle_type_id":"4","last_reported":1730322488,"current_range_meters":24800,"station_id":"ce4bgt12rcd13ifvqce0","pricing_plan_id":"cebpf4jnsgd1na2vs0mg"},{"bike_id":"aab306d7-157f-4168-8b9d-63846703cc70","system_id":"levelo_inurba_marseille","lat":43.31985,"lon":5.3814,"is_reserved":false,"is_disabled":false,"rental_uris":{"android":"levelo://app?vid=aab306d7-157f-4168-8b9d-63846703cc70","ios":"levelo://app?vid=aab306d7-157f-4168-8b9d-63846703cc70"},"vehicle_type_id":"4","last_reported":1730322488,"current_range_meters":8800,"station_id":"ce4bhr12rcd13ifvqhpg","pricing_plan_id":"cebpf4jnsgd1na2vs0mg"},{"bike_id":"7a5b30e6-bcdd-46db-9d3e-ec2105890f98","system_id":"levelo_inurba_marseille","lat":43.31165,"lon":5.38712,"is_reserved":false,"is_disabled":false,"rental_uris":{"android":"levelo://app?vid=7a5b30e6-bcdd-46db-9d3e-ec2105890f98","ios":"levelo://app?vid=7a5b30e6-bcdd-46db-9d3e-ec2105890f98"},"vehicle_type_id":"4","last_reported":1730322488,"current_range_meters":38000,"station_id":"ce4bgv12rcd13ifvqcp0","pricing_plan_id":"cebpf4jnsgd1na2vs0mg"},{"bike_id":"015092f6-6383-4198-b5e9-bb0e7a2d539f","system_id":"levelo_inurba_marseille","lat":43.29221,"lon":5.3819,"is_reserved":false,"is_disabled":false,"rental_uris":{"android":"levelo://app?vid=015092f6-6383-4198-b5e9-bb0e7a2d539f","ios":"levelo://app?vid=015092f6-6383-4198-b5e9-bb0e7a2d539f"},"vehicle_type_id":"4","last_reported":1730322488,"current_range_meters":6000,"station_id":"","pricing_plan_id":"cebpf4jnsgd1na2vs0mg"},{"bike_id":"bbf8f708-5e9b-41bf-bc19-afef39d244c3","system_id":"levelo_inurba_marseille","lat":43.27499,"lon":5.42448,"is_reserved":false,"is_disabled":false,"rental_uris":{"android":"levelo://app?vid=bbf8f708-5e9b-41bf-bc19-afef39d244c3","ios":"levelo://app?vid=bbf8f708-5e9b-41bf-bc19-afef39d244c3"},"vehicle_type_id":"4","last_reported":1730322488,"current_range_meters":32000,"station_id":"ce4bhn92rcd13ifvqgrg","pricing_plan_id":"cebpf4jnsgd1na2vs0mg"},{"bike_id":"32fa9473-207f-445d-af23-a2acafe02a58","system_id":"levelo_inurba_marseille","lat":43.29041,"lon":5.37565,"is_reserved":false,"is_disabled":false,"rental_uris":{"android":"levelo://app?vid=32fa9473-207f-445d-af23-a2acafe02a58","ios":"levelo://app?vid=32fa9473-207f-445d-af23-a2acafe02a58"},"vehicle_type_id":"4","last_reported":1730322488,"current_range_meters":9600,"station_id":"ce4bh692rcd13ifvqe90","pricing_plan_id":"cebpf4jnsgd1na2vs0mg"},{"bike_id":"a77625df-9ebf-4c4d-b190-0a809165c648","system_id":"levelo_inurba_marseille","lat":43.284694,"lon":5.384287,"is_reserved":false,"is_disabled":false,"rental_uris":{"android":"levelo://app?vid=a77625df-9ebf-4c4d-b190-0a809165c648","ios":"levelo://app?vid=a77625df-9ebf-4c4d-b190-0a809165c648"},"vehicle_type_id":"4","last_reported":1730322488,"current_range_meters":30000,"station_id":"ce4bho12rcd13ifvqh2g","pricing_plan_id":"cebpf4jnsgd1na2vs0mg"},{"bike_id":"91f75106-8073-486e-8037-1d5f2fa10c75","system_id":"levelo_inurba_marseille","lat":43.31987,"lon":5.38132,"is_reserved":false,"is_disabled":false,"rental_uris":{"android":"levelo://app?vid=91f75106-8073-486e-8037-1d5f2fa10c75","ios":"levelo://app?vid=91f75106-8073-486e-8037-1d5f2fa10c75"},"vehicle_type_id":"4","last_reported":1730322488,"current_range_meters":16000,"station_id":"ce4bhr12rcd13ifvqhpg","pricing_plan_id":"cebpf4jnsgd1na2vs0mg"},{"bike_id":"4075e605-7e2d-4335-883e-4292dc011012","system_id":"levelo_inurba_marseille","lat":43.23962,"lon":5.36617,"is_reserved":false,"is_disabled":false,"rental_uris":{"android":"levelo://app?vid=4075e605-7e2d-4335-883e-4292dc011012","ios":"levelo://app?vid=4075e605-7e2d-4335-883e-4292dc011012"},"vehicle_type_id":"4","last_reported":1730322488,"current_range_meters":8000,"station_id":"ce4bhi12rcd13ifvqfp0","pricing_plan_id":"cebpf4jnsgd1na2vs0mg"},{"bike_id":"581e32bb-ae71-49d3-b69e-516e7273154f","system_id":"levelo_inurba_marseille","lat":43.26494,"lon":5.39541,"is_reserved":false,"is_disabled":false,"rental_uris":{"android":"levelo://app?vid=581e32bb-ae71-49d3-b69e-516e7273154f","ios":"levelo://app?vid=581e32bb-ae71-49d3-b69e-516e7273154f"},"vehicle_type_id":"4","last_reported":1730322488,"current_range_meters":38800,"station_id":"ce4bhi12rcd13ifvqfq0","pricing_plan_id":"cebpf4jnsgd1na2vs0mg"},{"bike_id":"88b41abc-7a6a-4d0c-8b4c-c5a28531c90c","system_id":"levelo_inurba_marseille","lat":43.31683,"lon":5.40472,"is_reserved":false,"is_disabled":false,"rental_uris":{"android":"levelo://app?vid=88b41abc-7a6a-4d0c-8b4c-c5a28531c90c","ios":"levelo://app?vid=88b41abc-7a6a-4d0c-8b4c-c5a28531c90c"},"vehicle_type_id":"4","last_reported":1730322488,"current_range_meters":30400,"station_id":"ce4bh012rcd13ifvqd00","pricing_plan_id":"cebpf4jnsgd1na2vs0mg"},{"bike_id":"9d53b7ba-a06f-4e8b-969a-a35aaca3d0d9","system_id":"levelo_inurba_marseille","lat":43.30589,"lon":5.39349,"is_reserved":false,"is_disabled":false,"rental_uris":{"android":"levelo://app?vid=9d53b7ba-a06f-4e8b-969a-a35aaca3d0d9","ios":"levelo://app?vid=9d53b7ba-a06f-4e8b-969a-a35aaca3d0d9"},"vehicle_type_id":"4","last_reported":1730322488,"current_range_meters":30400,"station_id":"ce4bh0p2rcd13ifvqd80","pricing_plan_id":"cebpf4jnsgd1na2vs0mg"},{"bike_id":"50637344-4a20-4d06-ada1-2bdfc12f146e","system_id":"levelo_inurba_marseille","lat":43.3127,"lon":5.40163,"is_reserved":false,"is_disabled":false,"rental_uris":{"android":"levelo://app?vid=50637344-4a20-4d06-ada1-2bdfc12f146e","ios":"levelo://app?vid=50637344-4a20-4d06-ada1-2bdfc12f146e"},"vehicle_type_id":"4","last_reported":1730322488,"current_range_meters":38000,"station_id":"ce4bh092rcd13ifvqd30","pricing_plan_id":"cebpf4jnsgd1na2vs0mg"},{"bike_id":"0e54ecef-66f5-4de2-85af-78256b3a010d","system_id":"levelo_inurba_marseille","lat":43.29516,"lon":5.39039,"is_reserved":false,"is_disabled":false,"rental_uris":{"android":"levelo://app?vid=0e54ecef-66f5-4de2-85af-78256b3a010d","ios":"levelo://app?vid=0e54ecef-66f5-4de2-85af-78256b3a010d"},"vehicle_type_id":"4","last_reported":1730322488,"current_range_meters":32000,"station_id":"ce4bh3p2rcd13ifvqdp0","pricing_plan_id":"cebpf4jnsgd1na2vs0mg"},{"bike_id":"8cca6f8b-2fb7-4420-ba7a-feef42d6c8ff","system_id":"levelo_inurba_marseille","lat":43.29791,"lon":5.3811,"is_reserved":false,"is_disabled":false,"rental_uris":{"android":"levelo://app?vid=8cca6f8b-2fb7-4420-ba7a-feef42d6c8ff","ios":"levelo://app?vid=8cca6f8b-2fb7-4420-ba7a-feef42d6c8ff"},"vehicle_type_id":"4","last_reported":1730322488,"current_range_meters":19600,"station_id":"ce4bgip2rcd13ifvqbb0","pricing_plan_id":"cebpf4jnsgd1na2vs0mg"},{"bike_id":"42db849c-c424-40ba-b8d3-e14718fb40f6","system_id":"levelo_inurba_marseille","lat":43.2903,"lon":5.37562,"is_reserved":false,"is_disabled":false,"rental_uris":{"android":"levelo://app?vid=42db849c-c424-40ba-b8d3-e14718fb40f6","ios":"levelo://app?vid=42db849c-c424-40ba-b8d3-e14718fb40f6"},"vehicle_type_id":"4","last_reported":1730322488,"current_range_meters":8400,"station_id":"ce4bh692rcd13ifvqe90","pricing_plan_id":"cebpf4jnsgd1na2vs0mg"},{"bike_id":"7d4a14e1-6b1d-448b-848c-49d1702bdf75","system_id":"levelo_inurba_marseille","lat":43.28443,"lon":5.39199,"is_reserved":false,"is_disabled":false,"rental_uris":{"android":"levelo://app?vid=7d4a14e1-6b1d-448b-848c-49d1702bdf75","ios":"levelo://app?vid=7d4a14e1-6b1d-448b-848c-49d1702bdf75"},"vehicle_type_id":"4","last_reported":1730322488,"current_range_meters":19200,"station_id":"ce4bhoh2rcd13ifvqh5g","pricing_plan_id":"cebpf4jnsgd1na2vs0mg"},{"bike_id":"0a52d1c1-8f6f-4b50-aac6-8604eb20db08","system_id":"levelo_inurba_marseille","lat":43.29196,"lon":5.3932,"is_reserved":false,"is_disabled":false,"rental_uris":{"android":"levelo://app?vid=0a52d1c1-8f6f-4b50-aac6-8604eb20db08","ios":"levelo://app?vid=0a52d1c1-8f6f-4b50-aac6-8604eb20db08"},"vehicle_type_id":"4","last_reported":1730322488,"current_range_meters":38400,"station_id":"ce4bh192rcd13ifvqdd0","pricing_plan_id":"cebpf4jnsgd1na2vs0mg"},{"bike_id":"885c7033-5378-481c-b0e6-c11992301889","system_id":"levelo_inurba_marseille","lat":43.29413,"lon":5.38629,"is_reserved":false,"is_disabled":false,"rental_uris":{"android":"levelo://app?vid=885c7033-5378-481c-b0e6-c11992301889","ios":"levelo://app?vid=885c7033-5378-481c-b0e6-c11992301889"},"vehicle_type_id":"4","last_reported":1730322488,"current_range_meters":38800,"station_id":"ce4bh2h2rcd13ifvqdh0","pricing_plan_id":"cebpf4jnsgd1na2vs0mg"},{"bike_id":"2d65310e-a7ab-47d2-aed2-2ce5aa88e32d","system_id":"levelo_inurba_marseille","lat":43.25082,"lon":5.39516,"is_reserved":false,"is_disabled":false,"rental_uris":{"android":"levelo://app?vid=2d65310e-a7ab-47d2-aed2-2ce5aa88e32d","ios":"levelo://app?vid=2d65310e-a7ab-47d2-aed2-2ce5aa88e32d"},"vehicle_type_id":"4","last_reported":1730322488,"current_range_meters":9600,"station_id":"ce4bhm12rcd13ifvqgkg","pricing_plan_id":"cebpf4jnsgd1na2vs0mg"},{"bike_id":"acd4be18-09d6-480d-b11b-520844b93da4","system_id":"levelo_inurba_marseille","lat":43.28462,"lon":5.35886,"is_reserved":false,"is_disabled":false,"rental_uris":{"android":"levelo://app?vid=acd4be18-09d6-480d-b11b-520844b93da4","ios":"levelo://app?vid=acd4be18-09d6-480d-b11b-520844b93da4"},"vehicle_type_id":"4","last_reported":1730322488,"current_range_meters":25600,"station_id":"ce4bhah2rcd13ifvqei0","pricing_plan_id":"cebpf4jnsgd1na2vs0mg"},{"bike_id":"bcc32183-99da-4bb1-896d-4f752b6fd674","system_id":"levelo_inurba_marseille","lat":43.30093,"lon":5.39097,"is_reserved":false,"is_disabled":false,"rental_uris":{"android":"levelo://app?vid=bcc32183-99da-4bb1-896d-4f752b6fd674","ios":"levelo://app?vid=bcc32183-99da-4bb1-896d-4f752b6fd674"},"vehicle_type_id":"4","last_reported":1730322488,"current_range_meters":28000,"station_id":"ce4bh192rcd13ifvqdb0","pricing_plan_id":"cebpf4jnsgd1na2vs0mg"},{"bike_id":"e5711905-f885-4bbc-a3df-9ebdb9912423","system_id":"levelo_inurba_marseille","lat":43.31165,"lon":5.38718,"is_reserved":false,"is_disabled":false,"rental_uris":{"android":"levelo://app?vid=e5711905-f885-4bbc-a3df-9ebdb9912423","ios":"levelo://app?vid=e5711905-f885-4bbc-a3df-9ebdb9912423"},"vehicle_type_id":"4","last_reported":1730322488,"current_range_meters":24000,"station_id":"ce4bgv12rcd13ifvqcp0","pricing_plan_id":"cebpf4jnsgd1na2vs0mg"},{"bike_id":"fb5a2724-742e-49b7-bd99-72f47d63698a","system_id":"levelo_inurba_marseille","lat":43.29869,"lon":5.39729,"is_reserved":false,"is_disabled":false,"rental_uris":{"android":"levelo://app?vid=fb5a2724-742e-49b7-bd99-72f47d63698a","ios":"levelo://app?vid=fb5a2724-742e-49b7-bd99-72f47d63698a"},"vehicle_type_id":"4","last_reported":1730322488,"current_range_meters":38800,"station_id":"ce4bh0h2rcd13ifvqd50","pricing_plan_id":"cebpf4jnsgd1na2vs0mg"},{"bike_id":"42e61598-64ce-4f84-97eb-90c09ebd9abe","system_id":"levelo_inurba_marseille","lat":43.2319,"lon":5.39993,"is_reserved":false,"is_disabled":false,"rental_uris":{"android":"levelo://app?vid=42e61598-64ce-4f84-97eb-90c09ebd9abe","ios":"levelo://app?vid=42e61598-64ce-4f84-97eb-90c09ebd9abe"},"vehicle_type_id":"4","last_reported":1730322488,"current_range_meters":14000,"station_id":"ce4bhn12rcd13ifvqgqg","pricing_plan_id":"cebpf4jnsgd1na2vs0mg"},{"bike_id":"84e3706e-4f3c-4b11-89a3-977f76074d98","system_id":"levelo_inurba_marseille","lat":43.29042,"lon":5.3592,"is_reserved":false,"is_disabled":false,"rental_uris":{"android":"levelo://app?vid=84e3706e-4f3c-4b11-89a3-977f76074d98","ios":"levelo://app?vid=84e3706e-4f3c-4b11-89a3-977f76074d98"},"vehicle_type_id":"4","last_reported":1730322488,"current_range_meters":12800,"station_id":"ce4bha92rcd13ifvqeg0","pricing_plan_id":"cebpf4jnsgd1na2vs0mg"},{"bike_id":"a9d7e6e9-c401-45bf-95b8-6d2f12471466","system_id":"levelo_inurba_marseille","lat":43.29532,"lon":5.3854,"is_reserved":false,"is_disabled":false,"rental_uris":{"android":"levelo://app?vid=a9d7e6e9-c401-45bf-95b8-6d2f12471466","ios":"levelo://app?vid=a9d7e6e9-c401-45bf-95b8-6d2f12471466"},"vehicle_type_id":"4","last_reported":1730322488,"current_range_meters":38800,"station_id":"ce4bgih2rcd13ifvqba0","pricing_plan_id":"cebpf4jnsgd1na2vs0mg"},{"bike_id":"c573c73f-75e4-475a-bcd6-666ce297695e","system_id":"levelo_inurba_marseille","lat":43.23188,"lon":5.3998,"is_reserved":false,"is_disabled":false,"rental_uris":{"android":"levelo://app?vid=c573c73f-75e4-475a-bcd6-666ce297695e","ios":"levelo://app?vid=c573c73f-75e4-475a-bcd6-666ce297695e"},"vehicle_type_id":"4","last_reported":1730322488,"current_range_meters":28800,"station_id":"ce4bhn12rcd13ifvqgqg","pricing_plan_id":"cebpf4jnsgd1na2vs0mg"},{"bike_id":"22100f1e-21c2-4789-b81b-b82ca3ee087b","system_id":"levelo_inurba_marseille","lat":43.31223,"lon":5.36855,"is_reserved":false,"is_disabled":false,"rental_uris":{"android":"levelo://app?vid=22100f1e-21c2-4789-b81b-b82ca3ee087b","ios":"levelo://app?vid=22100f1e-21c2-4789-b81b-b82ca3ee087b"},"vehicle_type_id":"4","last_reported":1730322488,"current_range_meters":38800,"station_id":"ce4bgl92rcd13ifvqbq0","pricing_plan_id":"cebpf4jnsgd1na2vs0mg"},{"bike_id":"a65b7600-bc14-4cb1-bd98-91e0257743b9","system_id":"levelo_inurba_marseille","lat":43.24071,"lon":5.37754,"is_reserved":false,"is_disabled":false,"rental_uris":{"android":"levelo://app?vid=a65b7600-bc14-4cb1-bd98-91e0257743b9","ios":"levelo://app?vid=a65b7600-bc14-4cb1-bd98-91e0257743b9"},"vehicle_type_id":"4","last_reported":1730322488,"current_range_meters":8400,"station_id":"ce4bhnp2rcd13ifvqgvg","pricing_plan_id":"cebpf4jnsgd1na2vs0mg"},{"bike_id":"0b705f47-513a-4bf4-a7dd-ff3cab420f54","system_id":"levelo_inurba_marseille","lat":43.29629,"lon":5.40595,"is_reserved":false,"is_disabled":false,"rental_uris":{"android":"levelo://app?vid=0b705f47-513a-4bf4-a7dd-ff3cab420f54","ios":"levelo://app?vid=0b705f47-513a-4bf4-a7dd-ff3cab420f54"},"vehicle_type_id":"4","last_reported":1730322488,"current_range_meters":8400,"station_id":"ce4bh0h2rcd13ifvqd60","pricing_plan_id":"cebpf4jnsgd1na2vs0mg"},{"bike_id":"70bb78fe-4bef-4d56-a833-affc0bdfc9f3","system_id":"levelo_inurba_marseille","lat":43.232,"lon":5.3556,"is_reserved":false,"is_disabled":false,"rental_uris":{"android":"levelo://app?vid=70bb78fe-4bef-4d56-a833-affc0bdfc9f3","ios":"levelo://app?vid=70bb78fe-4bef-4d56-a833-affc0bdfc9f3"},"vehicle_type_id":"4","last_reported":1730322488,"current_range_meters":38800,"station_id":"ce4bhu92rcd13ifvqi70","pricing_plan_id":"cebpf4jnsgd1na2vs0mg"},{"bike_id":"5d625bc2-68ce-4557-aa47-6454b48c46f9","system_id":"levelo_inurba_marseille","lat":43.29197,"lon":5.39324,"is_reserved":false,"is_disabled":false,"rental_uris":{"android":"levelo://app?vid=5d625bc2-68ce-4557-aa47-6454b48c46f9","ios":"levelo://app?vid=5d625bc2-68ce-4557-aa47-6454b48c46f9"},"vehicle_type_id":"4","last_reported":1730322488,"current_range_meters":38000,"station_id":"ce4bh192rcd13ifvqdd0","pricing_plan_id":"cebpf4jnsgd1na2vs0mg"},{"bike_id":"c24b1b71-8503-4383-b487-f7f9a744b14c","system_id":"levelo_inurba_marseille","lat":43.29022,"lon":5.38636,"is_reserved":false,"is_disabled":false,"rental_uris":{"android":"levelo://app?vid=c24b1b71-8503-4383-b487-f7f9a744b14c","ios":"levelo://app?vid=c24b1b71-8503-4383-b487-f7f9a744b14c"},"vehicle_type_id":"4","last_reported":1730322488,"current_range_meters":35200,"station_id":"ce4bh4p2rcd13ifvqe0g","pricing_plan_id":"cebpf4jnsgd1na2vs0mg"},{"bike_id":"3c868789-73cc-418e-a715-7a914441694c","system_id":"levelo_inurba_marseille","lat":43.29531,"lon":5.38545,"is_reserved":false,"is_disabled":false,"rental_uris":{"android":"levelo://app?vid=3c868789-73cc-418e-a715-7a914441694c","ios":"levelo://app?vid=3c868789-73cc-418e-a715-7a914441694c"},"vehicle_type_id":"4","last_reported":1730322488,"current_range_meters":38800,"station_id":"ce4bgih2rcd13ifvqba0","pricing_plan_id":"cebpf4jnsgd1na2vs0mg"},{"bike_id":"8b397be0-3ef3-49f7-8a7b-a0dd80431d49","system_id":"levelo_inurba_marseille","lat":43.30587,"lon":5.39346,"is_reserved":false,"is_disabled":false,"rental_uris":{"android":"levelo://app?vid=8b397be0-3ef3-49f7-8a7b-a0dd80431d49","ios":"levelo://app?vid=8b397be0-3ef3-49f7-8a7b-a0dd80431d49"},"vehicle_type_id":"4","last_reported":1730322488,"current_range_meters":38800,"station_id":"ce4bh0p2rcd13ifvqd80","pricing_plan_id":"cebpf4jnsgd1na2vs0mg"},{"bike_id":"dacc2c28-0d92-455a-bc27-97f14e35045e","system_id":"levelo_inurba_marseille","lat":43.29527,"lon":5.38536,"is_reserved":false,"is_disabled":false,"rental_uris":{"android":"levelo://app?vid=dacc2c28-0d92-455a-bc27-97f14e35045e","ios":"levelo://app?vid=dacc2c28-0d92-455a-bc27-97f14e35045e"},"vehicle_type_id":"4","last_reported":1730322488,"current_range_meters":34000,"station_id":"ce4bgih2rcd13ifvqba0","pricing_plan_id":"cebpf4jnsgd1na2vs0mg"},{"bike_id":"5c244c3d-8fd7-4c95-b825-2f7fe2f15994","system_id":"levelo_inurba_marseille","lat":43.23189,"lon":5.35543,"is_reserved":false,"is_disabled":false,"rental_uris":{"android":"levelo://app?vid=5c244c3d-8fd7-4c95-b825-2f7fe2f15994","ios":"levelo://app?vid=5c244c3d-8fd7-4c95-b825-2f7fe2f15994"},"vehicle_type_id":"4","last_reported":1730322488,"current_range_meters":38800,"station_id":"ce4bhu92rcd13ifvqi70","pricing_plan_id":"cebpf4jnsgd1na2vs0mg"},{"bike_id":"7d1fe817-f784-45b3-a7f6-2e79abcfa29c","system_id":"levelo_inurba_marseille","lat":43.337444,"lon":5.374475,"is_reserved":false,"is_disabled":false,"rental_uris":{"android":"levelo://app?vid=7d1fe817-f784-45b3-a7f6-2e79abcfa29c","ios":"levelo://app?vid=7d1fe817-f784-45b3-a7f6-2e79abcfa29c"},"vehicle_type_id":"4","last_reported":1730322488,"current_range_meters":38000,"station_id":"","pricing_plan_id":"cebpf4jnsgd1na2vs0mg"},{"bike_id":"6d0fcc22-7d64-4b98-aeca-72a0fd533d73","system_id":"levelo_inurba_marseille","lat":43.281123,"lon":5.406059,"is_reserved":false,"is_disabled":false,"rental_uris":{"android":"levelo://app?vid=6d0fcc22-7d64-4b98-aeca-72a0fd533d73","ios":"levelo://app?vid=6d0fcc22-7d64-4b98-aeca-72a0fd533d73"},"vehicle_type_id":"4","last_reported":1730322488,"current_range_meters":25600,"station_id":"ce4bhnh2rcd13ifvqgug","pricing_plan_id":"cebpf4jnsgd1na2vs0mg"},{"bike_id":"b36e4830-2996-4a48-af1a-0e271204aae5","system_id":"levelo_inurba_marseille","lat":43.29219,"lon":5.36059,"is_reserved":false,"is_disabled":false,"rental_uris":{"android":"levelo://app?vid=b36e4830-2996-4a48-af1a-0e271204aae5","ios":"levelo://app?vid=b36e4830-2996-4a48-af1a-0e271204aae5"},"vehicle_type_id":"4","last_reported":1730322488,"current_range_meters":4400,"station_id":"ce4bhbh2rcd13ifvqeqg","pricing_plan_id":"cebpf4jnsgd1na2vs0mg"},{"bike_id":"d552518e-c7e3-4c70-a784-d671d466bdc3","system_id":"levelo_inurba_marseille","lat":43.25718,"lon":5.41106,"is_reserved":false,"is_disabled":false,"rental_uris":{"android":"levelo://app?vid=d552518e-c7e3-4c70-a784-d671d466bdc3","ios":"levelo://app?vid=d552518e-c7e3-4c70-a784-d671d466bdc3"},"vehicle_type_id":"4","last_reported":1730322488,"current_range_meters":36800,"station_id":"ce4bhkp2rcd13ifvqgd0","pricing_plan_id":"cebpf4jnsgd1na2vs0mg"},{"bike_id":"eff2b445-f410-478d-a467-43816bf3bf88","system_id":"levelo_inurba_marseille","lat":43.27836,"lon":5.39209,"is_reserved":false,"is_disabled":false,"rental_uris":{"android":"levelo://app?vid=eff2b445-f410-478d-a467-43816bf3bf88","ios":"levelo://app?vid=eff2b445-f410-478d-a467-43816bf3bf88"},"vehicle_type_id":"4","last_reported":1730322488,"current_range_meters":1600,"station_id":"ce4bhjp2rcd13ifvqga0","pricing_plan_id":"cebpf4jnsgd1na2vs0mg"},{"bike_id":"335f1a08-5da0-4ae7-a584-7d7da59362a5","system_id":"levelo_inurba_marseille","lat":43.28462,"lon":5.3589,"is_reserved":false,"is_disabled":false,"rental_uris":{"android":"levelo://app?vid=335f1a08-5da0-4ae7-a584-7d7da59362a5","ios":"levelo://app?vid=335f1a08-5da0-4ae7-a584-7d7da59362a5"},"vehicle_type_id":"4","last_reported":1730322488,"current_range_meters":30000,"station_id":"ce4bhah2rcd13ifvqei0","pricing_plan_id":"cebpf4jnsgd1na2vs0mg"},{"bike_id":"d9756f3c-8cb0-46d7-bc3b-462c65789eef","system_id":"levelo_inurba_marseille","lat":43.30881,"lon":5.39645,"is_reserved":false,"is_disabled":false,"rental_uris":{"android":"levelo://app?vid=d9756f3c-8cb0-46d7-bc3b-462c65789eef","ios":"levelo://app?vid=d9756f3c-8cb0-46d7-bc3b-462c65789eef"},"vehicle_type_id":"4","last_reported":1730322488,"current_range_meters":38800,"station_id":"ce4bh012rcd13ifvqcv0","pricing_plan_id":"cebpf4jnsgd1na2vs0mg"},{"bike_id":"37b08927-785c-42a3-8528-bd7a11bfcaf6","system_id":"levelo_inurba_marseille","lat":43.2867,"lon":5.36348,"is_reserved":false,"is_disabled":false,"rental_uris":{"android":"levelo://app?vid=37b08927-785c-42a3-8528-bd7a11bfcaf6","ios":"levelo://app?vid=37b08927-785c-42a3-8528-bd7a11bfcaf6"},"vehicle_type_id":"4","last_reported":1730322488,"current_range_meters":11200,"station_id":"ce4bhah2rcd13ifvqej0","pricing_plan_id":"cebpf4jnsgd1na2vs0mg"},{"bike_id":"d4c75cb5-db79-44b2-ae3d-0051411fdd9b","system_id":"levelo_inurba_marseille","lat":43.28105,"lon":5.37839,"is_reserved":false,"is_disabled":false,"rental_uris":{"android":"levelo://app?vid=d4c75cb5-db79-44b2-ae3d-0051411fdd9b","ios":"levelo://app?vid=d4c75cb5-db79-44b2-ae3d-0051411fdd9b"},"vehicle_type_id":"4","last_reported":1730322488,"current_range_meters":4800,"station_id":"ce4bha12rcd13ifvqee0","pricing_plan_id":"cebpf4jnsgd1na2vs0mg"},{"bike_id":"dbfb6dd1-0f5b-4e34-8e73-2f268a82fe76","system_id":"levelo_inurba_marseille","lat":43.27988,"lon":5.41648,"is_reserved":false,"is_disabled":false,"rental_uris":{"android":"levelo://app?vid=dbfb6dd1-0f5b-4e34-8e73-2f268a82fe76","ios":"levelo://app?vid=dbfb6dd1-0f5b-4e34-8e73-2f268a82fe76"},"vehicle_type_id":"4","last_reported":1730322488,"current_range_meters":28400,"station_id":"ce4bho12rcd13ifvqh1g","pricing_plan_id":"cebpf4jnsgd1na2vs0mg"},{"bike_id":"3e026cdf-ca57-4aa3-a201-aeb57c330e55","system_id":"levelo_inurba_marseille","lat":43.28916,"lon":5.39488,"is_reserved":false,"is_disabled":false,"rental_uris":{"android":"levelo://app?vid=3e026cdf-ca57-4aa3-a201-aeb57c330e55","ios":"levelo://app?vid=3e026cdf-ca57-4aa3-a201-aeb57c330e55"},"vehicle_type_id":"4","last_reported":1730322488,"current_range_meters":10800,"station_id":"ce4bh192rcd13ifvqdd0","pricing_plan_id":"cebpf4jnsgd1na2vs0mg"},{"bike_id":"92adf987-4779-4b78-ad9c-8e29ab9175f3","system_id":"levelo_inurba_marseille","lat":43.23192,"lon":5.35542,"is_reserved":false,"is_disabled":false,"rental_uris":{"android":"levelo://app?vid=92adf987-4779-4b78-ad9c-8e29ab9175f3","ios":"levelo://app?vid=92adf987-4779-4b78-ad9c-8e29ab9175f3"},"vehicle_type_id":"4","last_reported":1730322488,"current_range_meters":10000,"station_id":"ce4bhu92rcd13ifvqi70","pricing_plan_id":"cebpf4jnsgd1na2vs0mg"},{"bike_id":"1ecbf3b0-4b0f-4b59-99b0-8dceaa3eacfa","system_id":"levelo_inurba_marseille","lat":43.29528,"lon":5.38542,"is_reserved":false,"is_disabled":false,"rental_uris":{"android":"levelo://app?vid=1ecbf3b0-4b0f-4b59-99b0-8dceaa3eacfa","ios":"levelo://app?vid=1ecbf3b0-4b0f-4b59-99b0-8dceaa3eacfa"},"vehicle_type_id":"4","last_reported":1730322488,"current_range_meters":16400,"station_id":"ce4bgih2rcd13ifvqba0","pricing_plan_id":"cebpf4jnsgd1na2vs0mg"},{"bike_id":"0d9e2dc0-7e48-44a4-9d02-16fb20798af5","system_id":"levelo_inurba_marseille","lat":43.23184,"lon":5.39977,"is_reserved":false,"is_disabled":false,"rental_uris":{"android":"levelo://app?vid=0d9e2dc0-7e48-44a4-9d02-16fb20798af5","ios":"levelo://app?vid=0d9e2dc0-7e48-44a4-9d02-16fb20798af5"},"vehicle_type_id":"4","last_reported":1730322488,"current_range_meters":29600,"station_id":"ce4bhn12rcd13ifvqgqg","pricing_plan_id":"cebpf4jnsgd1na2vs0mg"},{"bike_id":"ce2310f1-0848-4180-8bb1-c79c12d253ca","system_id":"levelo_inurba_marseille","lat":43.33748,"lon":5.37434,"is_reserved":false,"is_disabled":false,"rental_uris":{"android":"levelo://app?vid=ce2310f1-0848-4180-8bb1-c79c12d253ca","ios":"levelo://app?vid=ce2310f1-0848-4180-8bb1-c79c12d253ca"},"vehicle_type_id":"4","last_reported":1730322488,"current_range_meters":34000,"station_id":"","pricing_plan_id":"cebpf4jnsgd1na2vs0mg"},{"bike_id":"ba315960-2b2d-491e-84d9-af670d674add","system_id":"levelo_inurba_marseille","lat":43.29504,"lon":5.3741,"is_reserved":false,"is_disabled":false,"rental_uris":{"android":"levelo://app?vid=ba315960-2b2d-491e-84d9-af670d674add","ios":"levelo://app?vid=ba315960-2b2d-491e-84d9-af670d674add"},"vehicle_type_id":"4","last_reported":1730322488,"current_range_meters":38400,"station_id":"","pricing_plan_id":"cebpf4jnsgd1na2vs0mg"},{"bike_id":"23022d2f-0e40-4eff-9608-2ce8f17a88ca","system_id":"levelo_inurba_marseille","lat":43.29409,"lon":5.38625,"is_reserved":false,"is_disabled":false,"rental_uris":{"android":"levelo://app?vid=23022d2f-0e40-4eff-9608-2ce8f17a88ca","ios":"levelo://app?vid=23022d2f-0e40-4eff-9608-2ce8f17a88ca"},"vehicle_type_id":"4","last_reported":1730322488,"current_range_meters":32000,"station_id":"ce4bh2h2rcd13ifvqdh0","pricing_plan_id":"cebpf4jnsgd1na2vs0mg"},{"bike_id":"732b37a6-efdd-47ef-8967-40ea3129b214","system_id":"levelo_inurba_marseille","lat":43.26499,"lon":5.3954,"is_reserved":false,"is_disabled":false,"rental_uris":{"android":"levelo://app?vid=732b37a6-efdd-47ef-8967-40ea3129b214","ios":"levelo://app?vid=732b37a6-efdd-47ef-8967-40ea3129b214"},"vehicle_type_id":"4","last_reported":1730322488,"current_range_meters":16800,"station_id":"ce4bhi12rcd13ifvqfq0","pricing_plan_id":"cebpf4jnsgd1na2vs0mg"},{"bike_id":"7dfaf496-2e50-463a-a103-b8570a0c6a9a","system_id":"levelo_inurba_marseille","lat":43.24391,"lon":5.37057,"is_reserved":false,"is_disabled":false,"rental_uris":{"android":"levelo://app?vid=7dfaf496-2e50-463a-a103-b8570a0c6a9a","ios":"levelo://app?vid=7dfaf496-2e50-463a-a103-b8570a0c6a9a"},"vehicle_type_id":"4","last_reported":1730322488,"current_range_meters":35200,"station_id":"ce4bhhh2rcd13ifvqfk0","pricing_plan_id":"cebpf4jnsgd1na2vs0mg"},{"bike_id":"9b0a1a93-17a1-4286-9078-afe26a4b76dd","system_id":"levelo_inurba_marseille","lat":43.25744,"lon":5.39489,"is_reserved":false,"is_disabled":false,"rental_uris":{"android":"levelo://app?vid=9b0a1a93-17a1-4286-9078-afe26a4b76dd","ios":"levelo://app?vid=9b0a1a93-17a1-4286-9078-afe26a4b76dd"},"vehicle_type_id":"4","last_reported":1730322488,"current_range_meters":36800,"station_id":"ce4bhip2rcd13ifvqft0","pricing_plan_id":"cebpf4jnsgd1na2vs0mg"},{"bike_id":"ec6bf2c6-81ba-4965-828b-92e734ee6e46","system_id":"levelo_inurba_marseille","lat":43.23191,"lon":5.35549,"is_reserved":false,"is_disabled":false,"rental_uris":{"android":"levelo://app?vid=ec6bf2c6-81ba-4965-828b-92e734ee6e46","ios":"levelo://app?vid=ec6bf2c6-81ba-4965-828b-92e734ee6e46"},"vehicle_type_id":"4","last_reported":1730322488,"current_range_meters":27600,"station_id":"ce4bhu92rcd13ifvqi70","pricing_plan_id":"cebpf4jnsgd1na2vs0mg"},{"bike_id":"6d549b89-b08e-4926-a157-4905dfd577bf","system_id":"levelo_inurba_marseille","lat":43.29441,"lon":5.39749,"is_reserved":false,"is_disabled":false,"rental_uris":{"android":"levelo://app?vid=6d549b89-b08e-4926-a157-4905dfd577bf","ios":"levelo://app?vid=6d549b89-b08e-4926-a157-4905dfd577bf"},"vehicle_type_id":"4","last_reported":1730322488,"current_range_meters":18000,"station_id":"ce4bh3h2rcd13ifvqdo0","pricing_plan_id":"cebpf4jnsgd1na2vs0mg"},{"bike_id":"c237e753-8def-4df1-b535-359b5fcd2537","system_id":"levelo_inurba_marseille","lat":43.2988,"lon":5.38905,"is_reserved":false,"is_disabled":false,"rental_uris":{"android":"levelo://app?vid=c237e753-8def-4df1-b535-359b5fcd2537","ios":"levelo://app?vid=c237e753-8def-4df1-b535-359b5fcd2537"},"vehicle_type_id":"4","last_reported":1730322488,"current_range_meters":38000,"station_id":"ce4bh392rcd13ifvqdl0","pricing_plan_id":"cebpf4jnsgd1na2vs0mg"},{"bike_id":"dfc15097-286b-4a19-888e-24b66d859567","system_id":"levelo_inurba_marseille","lat":43.26828,"lon":5.41118,"is_reserved":false,"is_disabled":false,"rental_uris":{"android":"levelo://app?vid=dfc15097-286b-4a19-888e-24b66d859567","ios":"levelo://app?vid=dfc15097-286b-4a19-888e-24b66d859567"},"vehicle_type_id":"4","last_reported":1730322488,"current_range_meters":12800,"station_id":"","pricing_plan_id":"cebpf4jnsgd1na2vs0mg"},{"bike_id":"62874f0c-2696-4712-9a95-c582d9bfbbaa","system_id":"levelo_inurba_marseille","lat":43.27842,"lon":5.41219,"is_reserved":false,"is_disabled":false,"rental_uris":{"android":"levelo://app?vid=62874f0c-2696-4712-9a95-c582d9bfbbaa","ios":"levelo://app?vid=62874f0c-2696-4712-9a95-c582d9bfbbaa"},"vehicle_type_id":"4","last_reported":1730322488,"current_range_meters":16800,"station_id":"","pricing_plan_id":"cebpf4jnsgd1na2vs0mg"},{"bike_id":"6ad783cb-41da-4545-85fe-6fd00e6a9ab3","system_id":"levelo_inurba_marseille","lat":43.29018,"lon":5.38625,"is_reserved":false,"is_disabled":false,"rental_uris":{"android":"levelo://app?vid=6ad783cb-41da-4545-85fe-6fd00e6a9ab3","ios":"levelo://app?vid=6ad783cb-41da-4545-85fe-6fd00e6a9ab3"},"vehicle_type_id":"4","last_reported":1730322488,"current_range_meters":38000,"station_id":"ce4bh4p2rcd13ifvqe0g","pricing_plan_id":"cebpf4jnsgd1na2vs0mg"},{"bike_id":"7b9e9323-c448-4f36-bf32-b9a660efe9b2","system_id":"levelo_inurba_marseille","lat":43.28971,"lon":5.37835,"is_reserved":false,"is_disabled":false,"rental_uris":{"android":"levelo://app?vid=7b9e9323-c448-4f36-bf32-b9a660efe9b2","ios":"levelo://app?vid=7b9e9323-c448-4f36-bf32-b9a660efe9b2"},"vehicle_type_id":"4","last_reported":1730322488,"current_range_meters":36400,"station_id":"ce4bh9p2rcd13ifvqed0","pricing_plan_id":"cebpf4jnsgd1na2vs0mg"},{"bike_id":"436a6a69-d3b4-4bdf-8c98-78260ced3e10","system_id":"levelo_inurba_marseille","lat":43.28701,"lon":5.37391,"is_reserved":false,"is_disabled":false,"rental_uris":{"android":"levelo://app?vid=436a6a69-d3b4-4bdf-8c98-78260ced3e10","ios":"levelo://app?vid=436a6a69-d3b4-4bdf-8c98-78260ced3e10"},"vehicle_type_id":"4","last_reported":1730322488,"current_range_meters":8400,"station_id":"ce4bh3p2rcd13ifvqdq0","pricing_plan_id":"cebpf4jnsgd1na2vs0mg"},{"bike_id":"5333c369-dd32-4d9e-8d39-207b938d20aa","system_id":"levelo_inurba_marseille","lat":43.30131,"lon":5.38779,"is_reserved":false,"is_disabled":false,"rental_uris":{"android":"levelo://app?vid=5333c369-dd32-4d9e-8d39-207b938d20aa","ios":"levelo://app?vid=5333c369-dd32-4d9e-8d39-207b938d20aa"},"vehicle_type_id":"4","last_reported":1730322488,"current_range_meters":38800,"station_id":"ce4bghh2rcd13ifvqb60","pricing_plan_id":"cebpf4jnsgd1na2vs0mg"},{"bike_id":"fb7c17c1-24fe-4bf6-98e4-2d7b75a8d8a8","system_id":"levelo_inurba_marseille","lat":43.308,"lon":5.38144,"is_reserved":false,"is_disabled":false,"rental_uris":{"android":"levelo://app?vid=fb7c17c1-24fe-4bf6-98e4-2d7b75a8d8a8","ios":"levelo://app?vid=fb7c17c1-24fe-4bf6-98e4-2d7b75a8d8a8"},"vehicle_type_id":"4","last_reported":1730322488,"current_range_meters":38800,"station_id":"ce4bgt12rcd13ifvqce0","pricing_plan_id":"cebpf4jnsgd1na2vs0mg"},{"bike_id":"c99f5146-7e89-4821-b397-323b7508f974","system_id":"levelo_inurba_marseille","lat":43.29535,"lon":5.38546,"is_reserved":false,"is_disabled":false,"rental_uris":{"android":"levelo://app?vid=c99f5146-7e89-4821-b397-323b7508f974","ios":"levelo://app?vid=c99f5146-7e89-4821-b397-323b7508f974"},"vehicle_type_id":"4","last_reported":1730322488,"current_range_meters":28400,"station_id":"ce4bgih2rcd13ifvqba0","pricing_plan_id":"cebpf4jnsgd1na2vs0mg"},{"bike_id":"2370a04e-d358-4a29-b67a-890bf50b34fd","system_id":"levelo_inurba_marseille","lat":43.24168,"lon":5.36405,"is_reserved":false,"is_disabled":false,"rental_uris":{"android":"levelo://app?vid=2370a04e-d358-4a29-b67a-890bf50b34fd","ios":"levelo://app?vid=2370a04e-d358-4a29-b67a-890bf50b34fd"},"vehicle_type_id":"4","last_reported":1730322488,"current_range_meters":38800,"station_id":"cpo36qri1sfpv3e86is0","pricing_plan_id":"cebpf4jnsgd1na2vs0mg"},{"bike_id":"2d09b255-c383-4598-b26d-af21dea65632","system_id":"levelo_inurba_marseille","lat":43.28399,"lon":5.37506,"is_reserved":false,"is_disabled":false,"rental_uris":{"android":"levelo://app?vid=2d09b255-c383-4598-b26d-af21dea65632","ios":"levelo://app?vid=2d09b255-c383-4598-b26d-af21dea65632"},"vehicle_type_id":"4","last_reported":1730322488,"current_range_meters":33200,"station_id":"ce4bh412rcd13ifvqds0","pricing_plan_id":"cebpf4jnsgd1na2vs0mg"},{"bike_id":"b3842801-0c7b-461b-aa8d-97adac92c8b5","system_id":"levelo_inurba_marseille","lat":43.28841,"lon":5.39317,"is_reserved":false,"is_disabled":false,"rental_uris":{"android":"levelo://app?vid=b3842801-0c7b-461b-aa8d-97adac92c8b5","ios":"levelo://app?vid=b3842801-0c7b-461b-aa8d-97adac92c8b5"},"vehicle_type_id":"4","last_reported":1730322488,"current_range_meters":38800,"station_id":"ce4bh2p2rcd13ifvqdi0","pricing_plan_id":"cebpf4jnsgd1na2vs0mg"},{"bike_id":"b7d695ab-7d26-4ccc-b81f-96502223e8a0","system_id":"levelo_inurba_marseille","lat":43.29525,"lon":5.38532,"is_reserved":false,"is_disabled":false,"rental_uris":{"android":"levelo://app?vid=b7d695ab-7d26-4ccc-b81f-96502223e8a0","ios":"levelo://app?vid=b7d695ab-7d26-4ccc-b81f-96502223e8a0"},"vehicle_type_id":"4","last_reported":1730322488,"current_range_meters":38800,"station_id":"ce4bgih2rcd13ifvqba0","pricing_plan_id":"cebpf4jnsgd1na2vs0mg"},{"bike_id":"e211564f-4f61-4066-af9f-fd09d8cad2c1","system_id":"levelo_inurba_marseille","lat":43.29536,"lon":5.3855,"is_reserved":false,"is_disabled":false,"rental_uris":{"android":"levelo://app?vid=e211564f-4f61-4066-af9f-fd09d8cad2c1","ios":"levelo://app?vid=e211564f-4f61-4066-af9f-fd09d8cad2c1"},"vehicle_type_id":"4","last_reported":1730322488,"current_range_meters":16800,"station_id":"ce4bgih2rcd13ifvqba0","pricing_plan_id":"cebpf4jnsgd1na2vs0mg"},{"bike_id":"6865a594-0529-4e73-9b45-04c7b9711cd8","system_id":"levelo_inurba_marseille","lat":43.29023,"lon":5.38632,"is_reserved":false,"is_disabled":false,"rental_uris":{"android":"levelo://app?vid=6865a594-0529-4e73-9b45-04c7b9711cd8","ios":"levelo://app?vid=6865a594-0529-4e73-9b45-04c7b9711cd8"},"vehicle_type_id":"4","last_reported":1730322488,"current_range_meters":38800,"station_id":"ce4bh4p2rcd13ifvqe0g","pricing_plan_id":"cebpf4jnsgd1na2vs0mg"},{"bike_id":"c9efc378-7d62-41af-a4a0-24b6121bafd9","system_id":"levelo_inurba_marseille","lat":43.2784,"lon":5.39215,"is_reserved":false,"is_disabled":false,"rental_uris":{"android":"levelo://app?vid=c9efc378-7d62-41af-a4a0-24b6121bafd9","ios":"levelo://app?vid=c9efc378-7d62-41af-a4a0-24b6121bafd9"},"vehicle_type_id":"4","last_reported":1730322488,"current_range_meters":37600,"station_id":"ce4bhjp2rcd13ifvqga0","pricing_plan_id":"cebpf4jnsgd1na2vs0mg"},{"bike_id":"03e26363-1adc-494c-8098-91070571fba5","system_id":"levelo_inurba_marseille","lat":43.2319,"lon":5.3554,"is_reserved":false,"is_disabled":false,"rental_uris":{"android":"levelo://app?vid=03e26363-1adc-494c-8098-91070571fba5","ios":"levelo://app?vid=03e26363-1adc-494c-8098-91070571fba5"},"vehicle_type_id":"4","last_reported":1730322488,"current_range_meters":28400,"station_id":"ce4bhu92rcd13ifvqi70","pricing_plan_id":"cebpf4jnsgd1na2vs0mg"},{"bike_id":"dc190658-8553-4551-b8cb-354443b662cd","system_id":"levelo_inurba_marseille","lat":43.23201,"lon":5.35563,"is_reserved":false,"is_disabled":false,"rental_uris":{"android":"levelo://app?vid=dc190658-8553-4551-b8cb-354443b662cd","ios":"levelo://app?vid=dc190658-8553-4551-b8cb-354443b662cd"},"vehicle_type_id":"4","last_reported":1730322488,"current_range_meters":10800,"station_id":"ce4bhu92rcd13ifvqi70","pricing_plan_id":"cebpf4jnsgd1na2vs0mg"},{"bike_id":"21ffa749-a59e-4afb-890e-95f4ea99abd6","system_id":"levelo_inurba_marseille","lat":43.26554,"lon":5.37286,"is_reserved":false,"is_disabled":false,"rental_uris":{"android":"levelo://app?vid=21ffa749-a59e-4afb-890e-95f4ea99abd6","ios":"levelo://app?vid=21ffa749-a59e-4afb-890e-95f4ea99abd6"},"vehicle_type_id":"4","last_reported":1730322488,"current_range_meters":37600,"station_id":"ce4bhg12rcd13ifvqf70","pricing_plan_id":"cebpf4jnsgd1na2vs0mg"},{"bike_id":"a5888075-94f1-417b-89d9-6d9bab652038","system_id":"levelo_inurba_marseille","lat":43.28416,"lon":5.37509,"is_reserved":false,"is_disabled":false,"rental_uris":{"android":"levelo://app?vid=a5888075-94f1-417b-89d9-6d9bab652038","ios":"levelo://app?vid=a5888075-94f1-417b-89d9-6d9bab652038"},"vehicle_type_id":"4","last_reported":1730322488,"current_range_meters":18000,"station_id":"ce4bh412rcd13ifvqds0","pricing_plan_id":"cebpf4jnsgd1na2vs0mg"},{"bike_id":"7f270bf6-247e-4179-9a7e-a15659822bc2","system_id":"levelo_inurba_marseille","lat":43.29288,"lon":5.36804,"is_reserved":false,"is_disabled":false,"rental_uris":{"android":"levelo://app?vid=7f270bf6-247e-4179-9a7e-a15659822bc2","ios":"levelo://app?vid=7f270bf6-247e-4179-9a7e-a15659822bc2"},"vehicle_type_id":"4","last_reported":1730322488,"current_range_meters":36800,"station_id":"","pricing_plan_id":"cebpf4jnsgd1na2vs0mg"},{"bike_id":"c0221c21-a114-43ce-9a63-14f14308cefc","system_id":"levelo_inurba_marseille","lat":43.31332,"lon":5.39693,"is_reserved":false,"is_disabled":false,"rental_uris":{"android":"levelo://app?vid=c0221c21-a114-43ce-9a63-14f14308cefc","ios":"levelo://app?vid=c0221c21-a114-43ce-9a63-14f14308cefc"},"vehicle_type_id":"4","last_reported":1730322488,"current_range_meters":27600,"station_id":"ce4bgvp2rcd13ifvqcu0","pricing_plan_id":"cebpf4jnsgd1na2vs0mg"},{"bike_id":"599f087a-0d72-4a42-a196-c89c14e1947a","system_id":"levelo_inurba_marseille","lat":43.31166,"lon":5.38713,"is_reserved":false,"is_disabled":false,"rental_uris":{"android":"levelo://app?vid=599f087a-0d72-4a42-a196-c89c14e1947a","ios":"levelo://app?vid=599f087a-0d72-4a42-a196-c89c14e1947a"},"vehicle_type_id":"4","last_reported":1730322488,"current_range_meters":36800,"station_id":"ce4bgv12rcd13ifvqcp0","pricing_plan_id":"cebpf4jnsgd1na2vs0mg"},{"bike_id":"f15eb44c-c3d8-4b09-a8f8-f8e8b1c103e3","system_id":"levelo_inurba_marseille","lat":43.29432,"lon":5.39739,"is_reserved":false,"is_disabled":false,"rental_uris":{"android":"levelo://app?vid=f15eb44c-c3d8-4b09-a8f8-f8e8b1c103e3","ios":"levelo://app?vid=f15eb44c-c3d8-4b09-a8f8-f8e8b1c103e3"},"vehicle_type_id":"4","last_reported":1730322488,"current_range_meters":19200,"station_id":"ce4bh3h2rcd13ifvqdo0","pricing_plan_id":"cebpf4jnsgd1na2vs0mg"},{"bike_id":"40e3037a-a407-457e-8037-a14c550ae4c0","system_id":"levelo_inurba_marseille","lat":43.32112,"lon":5.36766,"is_reserved":false,"is_disabled":false,"rental_uris":{"android":"levelo://app?vid=40e3037a-a407-457e-8037-a14c550ae4c0","ios":"levelo://app?vid=40e3037a-a407-457e-8037-a14c550ae4c0"},"vehicle_type_id":"4","last_reported":1730322488,"current_range_meters":18800,"station_id":"ce4bhrh2rcd13ifvqhug","pricing_plan_id":"cebpf4jnsgd1na2vs0mg"},{"bike_id":"5266335c-fb51-4166-a0ab-8099a4c09e4b","system_id":"levelo_inurba_marseille","lat":43.32287,"lon":5.38277,"is_reserved":false,"is_disabled":false,"rental_uris":{"android":"levelo://app?vid=5266335c-fb51-4166-a0ab-8099a4c09e4b","ios":"levelo://app?vid=5266335c-fb51-4166-a0ab-8099a4c09e4b"},"vehicle_type_id":"4","last_reported":1730322488,"current_range_meters":38800,"station_id":"ce4bhr12rcd13ifvqhqg","pricing_plan_id":"cebpf4jnsgd1na2vs0mg"},{"bike_id":"9d3de218-82a9-40c0-95a9-e5e5d318bf6f","system_id":"levelo_inurba_marseille","lat":43.32335,"lon":5.40617,"is_reserved":false,"is_disabled":false,"rental_uris":{"android":"levelo://app?vid=9d3de218-82a9-40c0-95a9-e5e5d318bf6f","ios":"levelo://app?vid=9d3de218-82a9-40c0-95a9-e5e5d318bf6f"},"vehicle_type_id":"4","last_reported":1730322488,"current_range_meters":4800,"station_id":"ce4bhq92rcd13ifvqhjg","pricing_plan_id":"cebpf4jnsgd1na2vs0mg"},{"bike_id":"203cdc68-feff-483d-ac1a-996e1a200a5a","system_id":"levelo_inurba_marseille","lat":43.27918,"lon":5.39583,"is_reserved":false,"is_disabled":false,"rental_uris":{"android":"levelo://app?vid=203cdc68-feff-483d-ac1a-996e1a200a5a","ios":"levelo://app?vid=203cdc68-feff-483d-ac1a-996e1a200a5a"},"vehicle_type_id":"4","last_reported":1730322488,"current_range_meters":30400,"station_id":"ce4bhf92rcd13ifvqf40","pricing_plan_id":"cebpf4jnsgd1na2vs0mg"},{"bike_id":"5e2729da-8449-4f1f-9dd1-92e4be3a137f","system_id":"levelo_inurba_marseille","lat":43.26952,"lon":5.38633,"is_reserved":false,"is_disabled":false,"rental_uris":{"android":"levelo://app?vid=5e2729da-8449-4f1f-9dd1-92e4be3a137f","ios":"levelo://app?vid=5e2729da-8449-4f1f-9dd1-92e4be3a137f"},"vehicle_type_id":"4","last_reported":1730322488,"current_range_meters":12400,"station_id":"ce4bhh92rcd13ifvqfh0","pricing_plan_id":"cebpf4jnsgd1na2vs0mg"},{"bike_id":"a863dbde-8004-4ac2-a94c-9a3818c68787","system_id":"levelo_inurba_marseille","lat":43.29021,"lon":5.38648,"is_reserved":false,"is_disabled":false,"rental_uris":{"android":"levelo://app?vid=a863dbde-8004-4ac2-a94c-9a3818c68787","ios":"levelo://app?vid=a863dbde-8004-4ac2-a94c-9a3818c68787"},"vehicle_type_id":"4","last_reported":1730322488,"current_range_meters":38800,"station_id":"ce4bh4p2rcd13ifvqe0g","pricing_plan_id":"cebpf4jnsgd1na2vs0mg"},{"bike_id":"c3ce1826-4735-42c8-a567-726281302379","system_id":"levelo_inurba_marseille","lat":43.28616,"lon":5.35101,"is_reserved":false,"is_disabled":false,"rental_uris":{"android":"levelo://app?vid=c3ce1826-4735-42c8-a567-726281302379","ios":"levelo://app?vid=c3ce1826-4735-42c8-a567-726281302379"},"vehicle_type_id":"4","last_reported":1730322488,"current_range_meters":18000,"station_id":"ce4bhch2rcd13ifvqeug","pricing_plan_id":"cebpf4jnsgd1na2vs0mg"},{"bike_id":"39f23235-24dc-4b02-97f6-dceb09feceb0","system_id":"levelo_inurba_marseille","lat":43.29535,"lon":5.38545,"is_reserved":false,"is_disabled":false,"rental_uris":{"android":"levelo://app?vid=39f23235-24dc-4b02-97f6-dceb09feceb0","ios":"levelo://app?vid=39f23235-24dc-4b02-97f6-dceb09feceb0"},"vehicle_type_id":"4","last_reported":1730322488,"current_range_meters":38800,"station_id":"ce4bgih2rcd13ifvqba0","pricing_plan_id":"cebpf4jnsgd1na2vs0mg"},{"bike_id":"a890a00c-2a98-4add-a6f3-ba8eebf68c2e","system_id":"levelo_inurba_marseille","lat":43.28472,"lon":5.38423,"is_reserved":false,"is_disabled":false,"rental_uris":{"android":"levelo://app?vid=a890a00c-2a98-4add-a6f3-ba8eebf68c2e","ios":"levelo://app?vid=a890a00c-2a98-4add-a6f3-ba8eebf68c2e"},"vehicle_type_id":"4","last_reported":1730322488,"current_range_meters":38800,"station_id":"ce4bh512rcd13ifvqe3g","pricing_plan_id":"cebpf4jnsgd1na2vs0mg"},{"bike_id":"fbb11bf0-6f49-45c1-810c-8f2d67e3de9e","system_id":"levelo_inurba_marseille","lat":43.29411,"lon":5.38627,"is_reserved":false,"is_disabled":false,"rental_uris":{"android":"levelo://app?vid=fbb11bf0-6f49-45c1-810c-8f2d67e3de9e","ios":"levelo://app?vid=fbb11bf0-6f49-45c1-810c-8f2d67e3de9e"},"vehicle_type_id":"4","last_reported":1730322488,"current_range_meters":38800,"station_id":"ce4bh2h2rcd13ifvqdh0","pricing_plan_id":"cebpf4jnsgd1na2vs0mg"},{"bike_id":"25f3455f-3971-4e42-a4fb-7b0650fb217b","system_id":"levelo_inurba_marseille","lat":43.30109,"lon":5.39853,"is_reserved":false,"is_disabled":false,"rental_uris":{"android":"levelo://app?vid=25f3455f-3971-4e42-a4fb-7b0650fb217b","ios":"levelo://app?vid=25f3455f-3971-4e42-a4fb-7b0650fb217b"},"vehicle_type_id":"4","last_reported":1730322488,"current_range_meters":9600,"station_id":"ce4bh312rcd13ifvqdj0","pricing_plan_id":"cebpf4jnsgd1na2vs0mg"},{"bike_id":"58f6ce57-7d4d-4ffa-83e9-e345d2bb3a78","system_id":"levelo_inurba_marseille","lat":43.29528,"lon":5.3854,"is_reserved":false,"is_disabled":false,"rental_uris":{"android":"levelo://app?vid=58f6ce57-7d4d-4ffa-83e9-e345d2bb3a78","ios":"levelo://app?vid=58f6ce57-7d4d-4ffa-83e9-e345d2bb3a78"},"vehicle_type_id":"4","last_reported":1730322488,"current_range_meters":25200,"station_id":"ce4bgih2rcd13ifvqba0","pricing_plan_id":"cebpf4jnsgd1na2vs0mg"},{"bike_id":"2f986fee-bfda-40ad-85c3-d385265561cf","system_id":"levelo_inurba_marseille","lat":43.24175,"lon":5.39725,"is_reserved":false,"is_disabled":false,"rental_uris":{"android":"levelo://app?vid=2f986fee-bfda-40ad-85c3-d385265561cf","ios":"levelo://app?vid=2f986fee-bfda-40ad-85c3-d385265561cf"},"vehicle_type_id":"4","last_reported":1730322488,"current_range_meters":4800,"station_id":"ce4bhn12rcd13ifvqgpg","pricing_plan_id":"cebpf4jnsgd1na2vs0mg"},{"bike_id":"7ad1c9ff-f920-4f37-a20f-c6324d37747c","system_id":"levelo_inurba_marseille","lat":43.29023,"lon":5.38631,"is_reserved":false,"is_disabled":false,"rental_uris":{"android":"levelo://app?vid=7ad1c9ff-f920-4f37-a20f-c6324d37747c","ios":"levelo://app?vid=7ad1c9ff-f920-4f37-a20f-c6324d37747c"},"vehicle_type_id":"4","last_reported":1730322488,"current_range_meters":37600,"station_id":"ce4bh4p2rcd13ifvqe0g","pricing_plan_id":"cebpf4jnsgd1na2vs0mg"},{"bike_id":"0843a392-a5c3-4ac9-bdf7-01fc693720d6","system_id":"levelo_inurba_marseille","lat":43.23964,"lon":5.36632,"is_reserved":false,"is_disabled":false,"rental_uris":{"android":"levelo://app?vid=0843a392-a5c3-4ac9-bdf7-01fc693720d6","ios":"levelo://app?vid=0843a392-a5c3-4ac9-bdf7-01fc693720d6"},"vehicle_type_id":"4","last_reported":1730322488,"current_range_meters":38800,"station_id":"ce4bhi12rcd13ifvqfp0","pricing_plan_id":"cebpf4jnsgd1na2vs0mg"},{"bike_id":"e826a637-15f1-4eaf-9a52-aa5a7923d99a","system_id":"levelo_inurba_marseille","lat":43.29419,"lon":5.38628,"is_reserved":false,"is_disabled":false,"rental_uris":{"android":"levelo://app?vid=e826a637-15f1-4eaf-9a52-aa5a7923d99a","ios":"levelo://app?vid=e826a637-15f1-4eaf-9a52-aa5a7923d99a"},"vehicle_type_id":"4","last_reported":1730322488,"current_range_meters":4800,"station_id":"ce4bh2h2rcd13ifvqdh0","pricing_plan_id":"cebpf4jnsgd1na2vs0mg"},{"bike_id":"ecf118ca-4185-452f-9020-81d1f189f592","system_id":"levelo_inurba_marseille","lat":43.30783,"lon":5.3765,"is_reserved":false,"is_disabled":false,"rental_uris":{"android":"levelo://app?vid=ecf118ca-4185-452f-9020-81d1f189f592","ios":"levelo://app?vid=ecf118ca-4185-452f-9020-81d1f189f592"},"vehicle_type_id":"4","last_reported":1730322488,"current_range_meters":27200,"station_id":"ce4bgv92rcd13ifvqcq0","pricing_plan_id":"cebpf4jnsgd1na2vs0mg"},{"bike_id":"02a69052-92fc-4dc8-b751-033c30fabb95","system_id":"levelo_inurba_marseille","lat":43.30933,"lon":5.40145,"is_reserved":false,"is_disabled":false,"rental_uris":{"android":"levelo://app?vid=02a69052-92fc-4dc8-b751-033c30fabb95","ios":"levelo://app?vid=02a69052-92fc-4dc8-b751-033c30fabb95"},"vehicle_type_id":"4","last_reported":1730322488,"current_range_meters":35200,"station_id":"ce4bgvp2rcd13ifvqct0","pricing_plan_id":"cebpf4jnsgd1na2vs0mg"},{"bike_id":"aea896dc-a95c-4486-a619-5a6e0d348c1d","system_id":"levelo_inurba_marseille","lat":43.25816,"lon":5.39418,"is_reserved":false,"is_disabled":false,"rental_uris":{"android":"levelo://app?vid=aea896dc-a95c-4486-a619-5a6e0d348c1d","ios":"levelo://app?vid=aea896dc-a95c-4486-a619-5a6e0d348c1d"},"vehicle_type_id":"4","last_reported":1730322488,"current_range_meters":38800,"station_id":"ce4bhip2rcd13ifvqft0","pricing_plan_id":"cebpf4jnsgd1na2vs0mg"},{"bike_id":"635f9fcf-b027-465d-97f1-e0c1c886f297","system_id":"levelo_inurba_marseille","lat":43.28437,"lon":5.39197,"is_reserved":false,"is_disabled":false,"rental_uris":{"android":"levelo://app?vid=635f9fcf-b027-465d-97f1-e0c1c886f297","ios":"levelo://app?vid=635f9fcf-b027-465d-97f1-e0c1c886f297"},"vehicle_type_id":"4","last_reported":1730322488,"current_range_meters":18000,"station_id":"ce4bhoh2rcd13ifvqh5g","pricing_plan_id":"cebpf4jnsgd1na2vs0mg"},{"bike_id":"9133542d-fc9b-4b3c-b11d-00bf63954fb8","system_id":"levelo_inurba_marseille","lat":43.29419,"lon":5.38629,"is_reserved":false,"is_disabled":false,"rental_uris":{"android":"levelo://app?vid=9133542d-fc9b-4b3c-b11d-00bf63954fb8","ios":"levelo://app?vid=9133542d-fc9b-4b3c-b11d-00bf63954fb8"},"vehicle_type_id":"4","last_reported":1730322488,"current_range_meters":28000,"station_id":"ce4bh2h2rcd13ifvqdh0","pricing_plan_id":"cebpf4jnsgd1na2vs0mg"},{"bike_id":"345dd814-9bd8-484b-ac66-95609b363e3e","system_id":"levelo_inurba_marseille","lat":43.28567,"lon":5.395,"is_reserved":false,"is_disabled":false,"rental_uris":{"android":"levelo://app?vid=345dd814-9bd8-484b-ac66-95609b363e3e","ios":"levelo://app?vid=345dd814-9bd8-484b-ac66-95609b363e3e"},"vehicle_type_id":"4","last_reported":1730322488,"current_range_meters":22000,"station_id":"ce4bh292rcd13ifvqdg0","pricing_plan_id":"cebpf4jnsgd1na2vs0mg"},{"bike_id":"58588f98-d979-4a89-a14d-d0d4a329cc8e","system_id":"levelo_inurba_marseille","lat":43.268135,"lon":5.402797,"is_reserved":false,"is_disabled":false,"rental_uris":{"android":"levelo://app?vid=58588f98-d979-4a89-a14d-d0d4a329cc8e","ios":"levelo://app?vid=58588f98-d979-4a89-a14d-d0d4a329cc8e"},"vehicle_type_id":"4","last_reported":1730322488,"current_range_meters":4800,"station_id":"ce501612rcd8frsf0b60","pricing_plan_id":"cebpf4jnsgd1na2vs0mg"},{"bike_id":"1ef31173-446f-4982-9f84-102dbfed5aa8","system_id":"levelo_inurba_marseille","lat":43.292255,"lon":5.360513,"is_reserved":false,"is_disabled":false,"rental_uris":{"android":"levelo://app?vid=1ef31173-446f-4982-9f84-102dbfed5aa8","ios":"levelo://app?vid=1ef31173-446f-4982-9f84-102dbfed5aa8"},"vehicle_type_id":"4","last_reported":1730322488,"current_range_meters":29600,"station_id":"ce4bhbh2rcd13ifvqeqg","pricing_plan_id":"cebpf4jnsgd1na2vs0mg"},{"bike_id":"77b3f473-5da5-47e8-83a3-23cb1001249b","system_id":"levelo_inurba_marseille","lat":43.28619,"lon":5.35105,"is_reserved":false,"is_disabled":false,"rental_uris":{"android":"levelo://app?vid=77b3f473-5da5-47e8-83a3-23cb1001249b","ios":"levelo://app?vid=77b3f473-5da5-47e8-83a3-23cb1001249b"},"vehicle_type_id":"4","last_reported":1730322488,"current_range_meters":38800,"station_id":"ce4bhch2rcd13ifvqeug","pricing_plan_id":"cebpf4jnsgd1na2vs0mg"},{"bike_id":"731090be-07c6-4a61-be0d-427e4f6a27a8","system_id":"levelo_inurba_marseille","lat":43.30323,"lon":5.40434,"is_reserved":false,"is_disabled":false,"rental_uris":{"android":"levelo://app?vid=731090be-07c6-4a61-be0d-427e4f6a27a8","ios":"levelo://app?vid=731090be-07c6-4a61-be0d-427e4f6a27a8"},"vehicle_type_id":"4","last_reported":1730322488,"current_range_meters":7200,"station_id":"ce4bh012rcd13ifvqd10","pricing_plan_id":"cebpf4jnsgd1na2vs0mg"},{"bike_id":"5ff74640-5d39-40f8-808a-e5695df59fd4","system_id":"levelo_inurba_marseille","lat":43.271938,"lon":5.410239,"is_reserved":false,"is_disabled":false,"rental_uris":{"android":"levelo://app?vid=5ff74640-5d39-40f8-808a-e5695df59fd4","ios":"levelo://app?vid=5ff74640-5d39-40f8-808a-e5695df59fd4"},"vehicle_type_id":"4","last_reported":1730322488,"current_range_meters":11600,"station_id":"ce4bhl12rcd13ifvqgf0","pricing_plan_id":"cebpf4jnsgd1na2vs0mg"},{"bike_id":"43f96fe9-2966-43bc-81a8-568837fb3199","system_id":"levelo_inurba_marseille","lat":43.29513,"lon":5.39396,"is_reserved":false,"is_disabled":false,"rental_uris":{"android":"levelo://app?vid=43f96fe9-2966-43bc-81a8-568837fb3199","ios":"levelo://app?vid=43f96fe9-2966-43bc-81a8-568837fb3199"},"vehicle_type_id":"4","last_reported":1730322488,"current_range_meters":24800,"station_id":"ce4bh292rcd13ifvqdf0","pricing_plan_id":"cebpf4jnsgd1na2vs0mg"},{"bike_id":"fd54f319-ba11-4beb-af32-4ac88b813a76","system_id":"levelo_inurba_marseille","lat":43.28071,"lon":5.39641,"is_reserved":false,"is_disabled":false,"rental_uris":{"android":"levelo://app?vid=fd54f319-ba11-4beb-af32-4ac88b813a76","ios":"levelo://app?vid=fd54f319-ba11-4beb-af32-4ac88b813a76"},"vehicle_type_id":"4","last_reported":1730322488,"current_range_meters":12000,"station_id":"ce4bho12rcd13ifvqh2g","pricing_plan_id":"cebpf4jnsgd1na2vs0mg"},{"bike_id":"9f94faff-1ab4-4f0a-8d8f-112d138482f1","system_id":"levelo_inurba_marseille","lat":43.25113,"lon":5.40313,"is_reserved":false,"is_disabled":false,"rental_uris":{"android":"levelo://app?vid=9f94faff-1ab4-4f0a-8d8f-112d138482f1","ios":"levelo://app?vid=9f94faff-1ab4-4f0a-8d8f-112d138482f1"},"vehicle_type_id":"4","last_reported":1730322488,"current_range_meters":31200,"station_id":"ce4bhlh2rcd13ifvqgig","pricing_plan_id":"cebpf4jnsgd1na2vs0mg"},{"bike_id":"6e1cdb7d-9542-4b7e-8415-2ab4bc268bdf","system_id":"levelo_inurba_marseille","lat":43.28371,"lon":5.38635,"is_reserved":false,"is_disabled":false,"rental_uris":{"android":"levelo://app?vid=6e1cdb7d-9542-4b7e-8415-2ab4bc268bdf","ios":"levelo://app?vid=6e1cdb7d-9542-4b7e-8415-2ab4bc268bdf"},"vehicle_type_id":"4","last_reported":1730322488,"current_range_meters":36800,"station_id":"ce4bh492rcd13ifvqdvg","pricing_plan_id":"cebpf4jnsgd1na2vs0mg"},{"bike_id":"83f99a12-7cf6-452b-9de2-694a5fd9526b","system_id":"levelo_inurba_marseille","lat":43.33715,"lon":5.3918,"is_reserved":false,"is_disabled":false,"rental_uris":{"android":"levelo://app?vid=83f99a12-7cf6-452b-9de2-694a5fd9526b","ios":"levelo://app?vid=83f99a12-7cf6-452b-9de2-694a5fd9526b"},"vehicle_type_id":"4","last_reported":1730322488,"current_range_meters":8800,"station_id":"ce4bhr92rcd13ifvqhsg","pricing_plan_id":"cebpf4jnsgd1na2vs0mg"},{"bike_id":"b1d775ea-f089-4f46-b61e-31a37f9ca64d","system_id":"levelo_inurba_marseille","lat":43.29022,"lon":5.3864,"is_reserved":false,"is_disabled":false,"rental_uris":{"android":"levelo://app?vid=b1d775ea-f089-4f46-b61e-31a37f9ca64d","ios":"levelo://app?vid=b1d775ea-f089-4f46-b61e-31a37f9ca64d"},"vehicle_type_id":"4","last_reported":1730322488,"current_range_meters":22400,"station_id":"ce4bh4p2rcd13ifvqe0g","pricing_plan_id":"cebpf4jnsgd1na2vs0mg"},{"bike_id":"62e9561e-ad05-4f0e-b75e-5d2e36048b40","system_id":"levelo_inurba_marseille","lat":43.31708,"lon":5.437,"is_reserved":false,"is_disabled":false,"rental_uris":{"android":"levelo://app?vid=62e9561e-ad05-4f0e-b75e-5d2e36048b40","ios":"levelo://app?vid=62e9561e-ad05-4f0e-b75e-5d2e36048b40"},"vehicle_type_id":"4","last_reported":1730322488,"current_range_meters":38800,"station_id":"ce4bhp92rcd13ifvqhcg","pricing_plan_id":"cebpf4jnsgd1na2vs0mg"},{"bike_id":"a89c13b3-7367-4140-bb29-c6016f983bab","system_id":"levelo_inurba_marseille","lat":43.24657,"lon":5.38895,"is_reserved":false,"is_disabled":false,"rental_uris":{"android":"levelo://app?vid=a89c13b3-7367-4140-bb29-c6016f983bab","ios":"levelo://app?vid=a89c13b3-7367-4140-bb29-c6016f983bab"},"vehicle_type_id":"4","last_reported":1730322488,"current_range_meters":8400,"station_id":"ce4bhg12rcd13ifvqf60","pricing_plan_id":"cebpf4jnsgd1na2vs0mg"},{"bike_id":"1d62463f-6312-4b72-a0ce-2ebbdeb8eea6","system_id":"levelo_inurba_marseille","lat":43.29417,"lon":5.38625,"is_reserved":false,"is_disabled":false,"rental_uris":{"android":"levelo://app?vid=1d62463f-6312-4b72-a0ce-2ebbdeb8eea6","ios":"levelo://app?vid=1d62463f-6312-4b72-a0ce-2ebbdeb8eea6"},"vehicle_type_id":"4","last_reported":1730322488,"current_range_meters":37600,"station_id":"ce4bh2h2rcd13ifvqdh0","pricing_plan_id":"cebpf4jnsgd1na2vs0mg"},{"bike_id":"c25c2169-3dc8-41aa-aaad-528d911ae769","system_id":"levelo_inurba_marseille","lat":43.28705,"lon":5.37397,"is_reserved":false,"is_disabled":false,"rental_uris":{"android":"levelo://app?vid=c25c2169-3dc8-41aa-aaad-528d911ae769","ios":"levelo://app?vid=c25c2169-3dc8-41aa-aaad-528d911ae769"},"vehicle_type_id":"4","last_reported":1730322488,"current_range_meters":27600,"station_id":"ce4bh3p2rcd13ifvqdq0","pricing_plan_id":"cebpf4jnsgd1na2vs0mg"},{"bike_id":"5e3e5e15-a26a-4370-a4d7-22b0461d60e4","system_id":"levelo_inurba_marseille","lat":43.31988,"lon":5.38143,"is_reserved":false,"is_disabled":false,"rental_uris":{"android":"levelo://app?vid=5e3e5e15-a26a-4370-a4d7-22b0461d60e4","ios":"levelo://app?vid=5e3e5e15-a26a-4370-a4d7-22b0461d60e4"},"vehicle_type_id":"4","last_reported":1730322488,"current_range_meters":19600,"station_id":"ce4bhr12rcd13ifvqhpg","pricing_plan_id":"cebpf4jnsgd1na2vs0mg"},{"bike_id":"d2e1d59f-a8a5-4e79-a74d-9d69f2a380aa","system_id":"levelo_inurba_marseille","lat":43.25577,"lon":5.38239,"is_reserved":false,"is_disabled":false,"rental_uris":{"android":"levelo://app?vid=d2e1d59f-a8a5-4e79-a74d-9d69f2a380aa","ios":"levelo://app?vid=d2e1d59f-a8a5-4e79-a74d-9d69f2a380aa"},"vehicle_type_id":"4","last_reported":1730322488,"current_range_meters":28800,"station_id":"ce4bhih2rcd13ifvqfs0","pricing_plan_id":"cebpf4jnsgd1na2vs0mg"},{"bike_id":"3271d7f6-0f65-475f-8b65-c5efde785335","system_id":"levelo_inurba_marseille","lat":43.23196,"lon":5.35558,"is_reserved":false,"is_disabled":false,"rental_uris":{"android":"levelo://app?vid=3271d7f6-0f65-475f-8b65-c5efde785335","ios":"levelo://app?vid=3271d7f6-0f65-475f-8b65-c5efde785335"},"vehicle_type_id":"4","last_reported":1730322488,"current_range_meters":38000,"station_id":"ce4bhu92rcd13ifvqi70","pricing_plan_id":"cebpf4jnsgd1na2vs0mg"},{"bike_id":"477bd4a0-15ea-4fb7-8fa3-544983b9d7ca","system_id":"levelo_inurba_marseille","lat":43.32331,"lon":5.40619,"is_reserved":false,"is_disabled":false,"rental_uris":{"android":"levelo://app?vid=477bd4a0-15ea-4fb7-8fa3-544983b9d7ca","ios":"levelo://app?vid=477bd4a0-15ea-4fb7-8fa3-544983b9d7ca"},"vehicle_type_id":"4","last_reported":1730322488,"current_range_meters":28400,"station_id":"ce4bhq92rcd13ifvqhjg","pricing_plan_id":"cebpf4jnsgd1na2vs0mg"},{"bike_id":"653c425c-e6c0-4b47-bce6-7f81508e12ee","system_id":"levelo_inurba_marseille","lat":43.23964,"lon":5.36628,"is_reserved":false,"is_disabled":false,"rental_uris":{"android":"levelo://app?vid=653c425c-e6c0-4b47-bce6-7f81508e12ee","ios":"levelo://app?vid=653c425c-e6c0-4b47-bce6-7f81508e12ee"},"vehicle_type_id":"4","last_reported":1730322488,"current_range_meters":24400,"station_id":"ce4bhi12rcd13ifvqfp0","pricing_plan_id":"cebpf4jnsgd1na2vs0mg"},{"bike_id":"27f29803-5a7f-4d26-a679-aa7edf9c0680","system_id":"levelo_inurba_marseille","lat":43.231544,"lon":5.437101,"is_reserved":false,"is_disabled":false,"rental_uris":{"android":"levelo://app?vid=27f29803-5a7f-4d26-a679-aa7edf9c0680","ios":"levelo://app?vid=27f29803-5a7f-4d26-a679-aa7edf9c0680"},"vehicle_type_id":"4","last_reported":1730322488,"current_range_meters":38800,"station_id":"ce4bhmp2rcd13ifvqgog","pricing_plan_id":"cebpf4jnsgd1na2vs0mg"},{"bike_id":"04fbc5e2-a184-4686-9c25-c93d15c9827a","system_id":"levelo_inurba_marseille","lat":43.30208,"lon":5.39452,"is_reserved":false,"is_disabled":false,"rental_uris":{"android":"levelo://app?vid=04fbc5e2-a184-4686-9c25-c93d15c9827a","ios":"levelo://app?vid=04fbc5e2-a184-4686-9c25-c93d15c9827a"},"vehicle_type_id":"4","last_reported":1730322488,"current_range_meters":38000,"station_id":"ce4bh0p2rcd13ifvqd70","pricing_plan_id":"cebpf4jnsgd1na2vs0mg"},{"bike_id":"03865702-e498-401e-a421-0f0a3bd3d7a9","system_id":"levelo_inurba_marseille","lat":43.2952,"lon":5.39407,"is_reserved":false,"is_disabled":false,"rental_uris":{"android":"levelo://app?vid=03865702-e498-401e-a421-0f0a3bd3d7a9","ios":"levelo://app?vid=03865702-e498-401e-a421-0f0a3bd3d7a9"},"vehicle_type_id":"4","last_reported":1730322488,"current_range_meters":19600,"station_id":"ce4bh292rcd13ifvqdf0","pricing_plan_id":"cebpf4jnsgd1na2vs0mg"},{"bike_id":"f99547b6-e0b7-4a86-b4bb-f600f8ca5cb2","system_id":"levelo_inurba_marseille","lat":43.24171,"lon":5.36399,"is_reserved":false,"is_disabled":false,"rental_uris":{"android":"levelo://app?vid=f99547b6-e0b7-4a86-b4bb-f600f8ca5cb2","ios":"levelo://app?vid=f99547b6-e0b7-4a86-b4bb-f600f8ca5cb2"},"vehicle_type_id":"4","last_reported":1730322488,"current_range_meters":21600,"station_id":"cpo36qri1sfpv3e86is0","pricing_plan_id":"cebpf4jnsgd1na2vs0mg"},{"bike_id":"3aef9ec9-a2ac-4017-a651-b2c523715ff6","system_id":"levelo_inurba_marseille","lat":43.29417,"lon":5.38625,"is_reserved":false,"is_disabled":false,"rental_uris":{"android":"levelo://app?vid=3aef9ec9-a2ac-4017-a651-b2c523715ff6","ios":"levelo://app?vid=3aef9ec9-a2ac-4017-a651-b2c523715ff6"},"vehicle_type_id":"4","last_reported":1730322488,"current_range_meters":36400,"station_id":"ce4bh2h2rcd13ifvqdh0","pricing_plan_id":"cebpf4jnsgd1na2vs0mg"},{"bike_id":"f671dc0c-6728-4ca7-9978-83427f241816","system_id":"levelo_inurba_marseille","lat":43.28466,"lon":5.38414,"is_reserved":false,"is_disabled":false,"rental_uris":{"android":"levelo://app?vid=f671dc0c-6728-4ca7-9978-83427f241816","ios":"levelo://app?vid=f671dc0c-6728-4ca7-9978-83427f241816"},"vehicle_type_id":"4","last_reported":1730322488,"current_range_meters":32000,"station_id":"ce4bh512rcd13ifvqe3g","pricing_plan_id":"cebpf4jnsgd1na2vs0mg"},{"bike_id":"316319bb-3e9d-410b-ab6b-6fff78134e81","system_id":"levelo_inurba_marseille","lat":43.29266,"lon":5.38445,"is_reserved":false,"is_disabled":false,"rental_uris":{"android":"levelo://app?vid=316319bb-3e9d-410b-ab6b-6fff78134e81","ios":"levelo://app?vid=316319bb-3e9d-410b-ab6b-6fff78134e81"},"vehicle_type_id":"4","last_reported":1730322488,"current_range_meters":19600,"station_id":"ce4bh692rcd13ifvqea0","pricing_plan_id":"cebpf4jnsgd1na2vs0mg"},{"bike_id":"9184f106-990f-439b-ab9f-d6ad1438786c","system_id":"levelo_inurba_marseille","lat":43.2508,"lon":5.39504,"is_reserved":false,"is_disabled":false,"rental_uris":{"android":"levelo://app?vid=9184f106-990f-439b-ab9f-d6ad1438786c","ios":"levelo://app?vid=9184f106-990f-439b-ab9f-d6ad1438786c"},"vehicle_type_id":"4","last_reported":1730322488,"current_range_meters":30400,"station_id":"ce4bhm12rcd13ifvqgkg","pricing_plan_id":"cebpf4jnsgd1na2vs0mg"},{"bike_id":"afc8a59e-718c-432c-b226-d6be0903e5fb","system_id":"levelo_inurba_marseille","lat":43.24385,"lon":5.37064,"is_reserved":false,"is_disabled":false,"rental_uris":{"android":"levelo://app?vid=afc8a59e-718c-432c-b226-d6be0903e5fb","ios":"levelo://app?vid=afc8a59e-718c-432c-b226-d6be0903e5fb"},"vehicle_type_id":"4","last_reported":1730322488,"current_range_meters":30800,"station_id":"ce4bhhh2rcd13ifvqfk0","pricing_plan_id":"cebpf4jnsgd1na2vs0mg"},{"bike_id":"7d17fd15-22e3-4d92-a512-a8f0e728950d","system_id":"levelo_inurba_marseille","lat":43.27944,"lon":5.41048,"is_reserved":false,"is_disabled":false,"rental_uris":{"android":"levelo://app?vid=7d17fd15-22e3-4d92-a512-a8f0e728950d","ios":"levelo://app?vid=7d17fd15-22e3-4d92-a512-a8f0e728950d"},"vehicle_type_id":"4","last_reported":1730322488,"current_range_meters":25200,"station_id":"ce4bhnp2rcd13ifvqh0g","pricing_plan_id":"cebpf4jnsgd1na2vs0mg"},{"bike_id":"72e37474-1bc8-4568-aec8-ce5464e6b828","system_id":"levelo_inurba_marseille","lat":43.23194,"lon":5.35552,"is_reserved":false,"is_disabled":false,"rental_uris":{"android":"levelo://app?vid=72e37474-1bc8-4568-aec8-ce5464e6b828","ios":"levelo://app?vid=72e37474-1bc8-4568-aec8-ce5464e6b828"},"vehicle_type_id":"4","last_reported":1730322488,"current_range_meters":27600,"station_id":"ce4bhu92rcd13ifvqi70","pricing_plan_id":"cebpf4jnsgd1na2vs0mg"},{"bike_id":"7ad71fe2-eb9b-4e4a-92ec-41d406fe0d94","system_id":"levelo_inurba_marseille","lat":43.27988,"lon":5.4165,"is_reserved":false,"is_disabled":false,"rental_uris":{"android":"levelo://app?vid=7ad71fe2-eb9b-4e4a-92ec-41d406fe0d94","ios":"levelo://app?vid=7ad71fe2-eb9b-4e4a-92ec-41d406fe0d94"},"vehicle_type_id":"4","last_reported":1730322488,"current_range_meters":11600,"station_id":"ce4bho12rcd13ifvqh1g","pricing_plan_id":"cebpf4jnsgd1na2vs0mg"},{"bike_id":"de1d4380-d1ce-4cfc-a68e-1c9a3c15150f","system_id":"levelo_inurba_marseille","lat":43.279092,"lon":5.395697,"is_reserved":false,"is_disabled":false,"rental_uris":{"android":"levelo://app?vid=de1d4380-d1ce-4cfc-a68e-1c9a3c15150f","ios":"levelo://app?vid=de1d4380-d1ce-4cfc-a68e-1c9a3c15150f"},"vehicle_type_id":"4","last_reported":1730322488,"current_range_meters":38800,"station_id":"ce4bhf92rcd13ifvqf40","pricing_plan_id":"cebpf4jnsgd1na2vs0mg"},{"bike_id":"b91cd24d-829b-446c-a913-61bc5de8f4dc","system_id":"levelo_inurba_marseille","lat":43.2439,"lon":5.37061,"is_reserved":false,"is_disabled":false,"rental_uris":{"android":"levelo://app?vid=b91cd24d-829b-446c-a913-61bc5de8f4dc","ios":"levelo://app?vid=b91cd24d-829b-446c-a913-61bc5de8f4dc"},"vehicle_type_id":"4","last_reported":1730322488,"current_range_meters":10800,"station_id":"ce4bhhh2rcd13ifvqfk0","pricing_plan_id":"cebpf4jnsgd1na2vs0mg"},{"bike_id":"52b6613e-af40-4869-97a3-63f1477fb874","system_id":"levelo_inurba_marseille","lat":43.29783,"lon":5.39335,"is_reserved":false,"is_disabled":false,"rental_uris":{"android":"levelo://app?vid=52b6613e-af40-4869-97a3-63f1477fb874","ios":"levelo://app?vid=52b6613e-af40-4869-97a3-63f1477fb874"},"vehicle_type_id":"4","last_reported":1730322488,"current_range_meters":27600,"station_id":"chh1huq6cuj3fo74tm60","pricing_plan_id":"cebpf4jnsgd1na2vs0mg"},{"bike_id":"b9a42de5-e92c-4a68-a4e2-5f21cbf671b3","system_id":"levelo_inurba_marseille","lat":43.29533,"lon":5.38539,"is_reserved":false,"is_disabled":false,"rental_uris":{"android":"levelo://app?vid=b9a42de5-e92c-4a68-a4e2-5f21cbf671b3","ios":"levelo://app?vid=b9a42de5-e92c-4a68-a4e2-5f21cbf671b3"},"vehicle_type_id":"4","last_reported":1730322488,"current_range_meters":38800,"station_id":"ce4bgih2rcd13ifvqba0","pricing_plan_id":"cebpf4jnsgd1na2vs0mg"},{"bike_id":"88dc58c8-a632-450d-98e1-c0f672ee9cc5","system_id":"levelo_inurba_marseille","lat":43.24387,"lon":5.37053,"is_reserved":false,"is_disabled":false,"rental_uris":{"android":"levelo://app?vid=88dc58c8-a632-450d-98e1-c0f672ee9cc5","ios":"levelo://app?vid=88dc58c8-a632-450d-98e1-c0f672ee9cc5"},"vehicle_type_id":"4","last_reported":1730322488,"current_range_meters":30400,"station_id":"ce4bhhh2rcd13ifvqfk0","pricing_plan_id":"cebpf4jnsgd1na2vs0mg"},{"bike_id":"54d2e7c1-0997-4e85-b497-01eca9eb4f00","system_id":"levelo_inurba_marseille","lat":43.23195,"lon":5.35551,"is_reserved":false,"is_disabled":false,"rental_uris":{"android":"levelo://app?vid=54d2e7c1-0997-4e85-b497-01eca9eb4f00","ios":"levelo://app?vid=54d2e7c1-0997-4e85-b497-01eca9eb4f00"},"vehicle_type_id":"4","last_reported":1730322488,"current_range_meters":13600,"station_id":"ce4bhu92rcd13ifvqi70","pricing_plan_id":"cebpf4jnsgd1na2vs0mg"},{"bike_id":"03a568f6-414d-4d28-9207-f96676ac1d4f","system_id":"levelo_inurba_marseille","lat":43.24181,"lon":5.39726,"is_reserved":false,"is_disabled":false,"rental_uris":{"android":"levelo://app?vid=03a568f6-414d-4d28-9207-f96676ac1d4f","ios":"levelo://app?vid=03a568f6-414d-4d28-9207-f96676ac1d4f"},"vehicle_type_id":"4","last_reported":1730322488,"current_range_meters":38800,"station_id":"ce4bhn12rcd13ifvqgpg","pricing_plan_id":"cebpf4jnsgd1na2vs0mg"},{"bike_id":"62a0f219-5e5a-40db-ad05-523b4b3ed5cb","system_id":"levelo_inurba_marseille","lat":43.29793,"lon":5.40402,"is_reserved":false,"is_disabled":false,"rental_uris":{"android":"levelo://app?vid=62a0f219-5e5a-40db-ad05-523b4b3ed5cb","ios":"levelo://app?vid=62a0f219-5e5a-40db-ad05-523b4b3ed5cb"},"vehicle_type_id":"4","last_reported":1730322488,"current_range_meters":24000,"station_id":"ce4bh112rcd13ifvqd90","pricing_plan_id":"cebpf4jnsgd1na2vs0mg"},{"bike_id":"5a93f91c-f767-4fb4-bed4-861622bee50c","system_id":"levelo_inurba_marseille","lat":43.28151,"lon":5.42637,"is_reserved":false,"is_disabled":false,"rental_uris":{"android":"levelo://app?vid=5a93f91c-f767-4fb4-bed4-861622bee50c","ios":"levelo://app?vid=5a93f91c-f767-4fb4-bed4-861622bee50c"},"vehicle_type_id":"4","last_reported":1730322488,"current_range_meters":36000,"station_id":"ce4bhnh2rcd13ifvqgug","pricing_plan_id":"cebpf4jnsgd1na2vs0mg"},{"bike_id":"4c75644d-a162-4189-9564-d854d09ea871","system_id":"levelo_inurba_marseille","lat":43.29589,"lon":5.38105,"is_reserved":false,"is_disabled":false,"rental_uris":{"android":"levelo://app?vid=4c75644d-a162-4189-9564-d854d09ea871","ios":"levelo://app?vid=4c75644d-a162-4189-9564-d854d09ea871"},"vehicle_type_id":"4","last_reported":1730322488,"current_range_meters":24000,"station_id":"ce4bgl12rcd13ifvqbo0","pricing_plan_id":"cebpf4jnsgd1na2vs0mg"},{"bike_id":"e7796527-3310-4152-8da1-d72e0df4c9ca","system_id":"levelo_inurba_marseille","lat":43.28155,"lon":5.42648,"is_reserved":false,"is_disabled":false,"rental_uris":{"android":"levelo://app?vid=e7796527-3310-4152-8da1-d72e0df4c9ca","ios":"levelo://app?vid=e7796527-3310-4152-8da1-d72e0df4c9ca"},"vehicle_type_id":"4","last_reported":1730322488,"current_range_meters":38800,"station_id":"ce4bhnh2rcd13ifvqgug","pricing_plan_id":"cebpf4jnsgd1na2vs0mg"},{"bike_id":"a8cc5a5c-836a-4f36-be3f-d4baa7215256","system_id":"levelo_inurba_marseille","lat":43.30783,"lon":5.37649,"is_reserved":false,"is_disabled":false,"rental_uris":{"android":"levelo://app?vid=a8cc5a5c-836a-4f36-be3f-d4baa7215256","ios":"levelo://app?vid=a8cc5a5c-836a-4f36-be3f-d4baa7215256"},"vehicle_type_id":"4","last_reported":1730322488,"current_range_meters":22000,"station_id":"ce4bgv92rcd13ifvqcq0","pricing_plan_id":"cebpf4jnsgd1na2vs0mg"},{"bike_id":"306b3b74-9e16-47f4-b031-c1bc1c35a24f","system_id":"levelo_inurba_marseille","lat":43.27176,"lon":5.40994,"is_reserved":false,"is_disabled":false,"rental_uris":{"android":"levelo://app?vid=306b3b74-9e16-47f4-b031-c1bc1c35a24f","ios":"levelo://app?vid=306b3b74-9e16-47f4-b031-c1bc1c35a24f"},"vehicle_type_id":"4","last_reported":1730322488,"current_range_meters":33200,"station_id":"ce4bhl12rcd13ifvqgf0","pricing_plan_id":"cebpf4jnsgd1na2vs0mg"},{"bike_id":"dcb84dd7-f8d6-4b0c-ad96-ba94e8d2a866","system_id":"levelo_inurba_marseille","lat":43.28419,"lon":5.34993,"is_reserved":false,"is_disabled":false,"rental_uris":{"android":"levelo://app?vid=dcb84dd7-f8d6-4b0c-ad96-ba94e8d2a866","ios":"levelo://app?vid=dcb84dd7-f8d6-4b0c-ad96-ba94e8d2a866"},"vehicle_type_id":"4","last_reported":1730322488,"current_range_meters":35600,"station_id":"ce4bhbh2rcd13ifvqepg","pricing_plan_id":"cebpf4jnsgd1na2vs0mg"},{"bike_id":"27767a98-3bc6-4150-ac6e-189ea25c7357","system_id":"levelo_inurba_marseille","lat":43.29257,"lon":5.40905,"is_reserved":false,"is_disabled":false,"rental_uris":{"android":"levelo://app?vid=27767a98-3bc6-4150-ac6e-189ea25c7357","ios":"levelo://app?vid=27767a98-3bc6-4150-ac6e-189ea25c7357"},"vehicle_type_id":"4","last_reported":1730322488,"current_range_meters":30800,"station_id":"ce4bh192rcd13ifvqdc0","pricing_plan_id":"cebpf4jnsgd1na2vs0mg"},{"bike_id":"6a82fa07-8188-4814-8932-59b917fb1e21","system_id":"levelo_inurba_marseille","lat":43.29196,"lon":5.39306,"is_reserved":false,"is_disabled":false,"rental_uris":{"android":"levelo://app?vid=6a82fa07-8188-4814-8932-59b917fb1e21","ios":"levelo://app?vid=6a82fa07-8188-4814-8932-59b917fb1e21"},"vehicle_type_id":"4","last_reported":1730322488,"current_range_meters":38000,"station_id":"ce4bh192rcd13ifvqdd0","pricing_plan_id":"cebpf4jnsgd1na2vs0mg"},{"bike_id":"50ddc3b9-0445-4606-8f39-393c248368e8","system_id":"levelo_inurba_marseille","lat":43.31167,"lon":5.3871,"is_reserved":false,"is_disabled":false,"rental_uris":{"android":"levelo://app?vid=50ddc3b9-0445-4606-8f39-393c248368e8","ios":"levelo://app?vid=50ddc3b9-0445-4606-8f39-393c248368e8"},"vehicle_type_id":"4","last_reported":1730322488,"current_range_meters":25200,"station_id":"ce4bgv12rcd13ifvqcp0","pricing_plan_id":"cebpf4jnsgd1na2vs0mg"},{"bike_id":"52eac874-0aef-4316-b446-0fe1c119d4df","system_id":"levelo_inurba_marseille","lat":43.302444,"lon":5.369349,"is_reserved":false,"is_disabled":false,"rental_uris":{"android":"levelo://app?vid=52eac874-0aef-4316-b446-0fe1c119d4df","ios":"levelo://app?vid=52eac874-0aef-4316-b446-0fe1c119d4df"},"vehicle_type_id":"4","last_reported":1730322488,"current_range_meters":4800,"station_id":"ce4bgqh2rcd13ifvqc5g","pricing_plan_id":"cebpf4jnsgd1na2vs0mg"},{"bike_id":"cbd6e71b-da90-49a9-852e-9e6ceb2a79ce","system_id":"levelo_inurba_marseille","lat":43.23184,"lon":5.39972,"is_reserved":false,"is_disabled":false,"rental_uris":{"android":"levelo://app?vid=cbd6e71b-da90-49a9-852e-9e6ceb2a79ce","ios":"levelo://app?vid=cbd6e71b-da90-49a9-852e-9e6ceb2a79ce"},"vehicle_type_id":"4","last_reported":1730322488,"current_range_meters":38800,"station_id":"ce4bhn12rcd13ifvqgqg","pricing_plan_id":"cebpf4jnsgd1na2vs0mg"},{"bike_id":"3004047f-f32d-4c87-9f16-9ecb49a728d2","system_id":"levelo_inurba_marseille","lat":43.29042,"lon":5.35904,"is_reserved":false,"is_disabled":false,"rental_uris":{"android":"levelo://app?vid=3004047f-f32d-4c87-9f16-9ecb49a728d2","ios":"levelo://app?vid=3004047f-f32d-4c87-9f16-9ecb49a728d2"},"vehicle_type_id":"4","last_reported":1730322488,"current_range_meters":22800,"station_id":"ce4bha92rcd13ifvqeg0","pricing_plan_id":"cebpf4jnsgd1na2vs0mg"},{"bike_id":"9ec77140-2846-4e58-a1b8-dfda5b93d692","system_id":"levelo_inurba_marseille","lat":43.29527,"lon":5.3853,"is_reserved":false,"is_disabled":false,"rental_uris":{"android":"levelo://app?vid=9ec77140-2846-4e58-a1b8-dfda5b93d692","ios":"levelo://app?vid=9ec77140-2846-4e58-a1b8-dfda5b93d692"},"vehicle_type_id":"4","last_reported":1730322488,"current_range_meters":38800,"station_id":"ce4bgih2rcd13ifvqba0","pricing_plan_id":"cebpf4jnsgd1na2vs0mg"},{"bike_id":"9b553abb-0a80-4879-ad0c-fdc44c7ea390","system_id":"levelo_inurba_marseille","lat":43.31713,"lon":5.43705,"is_reserved":false,"is_disabled":false,"rental_uris":{"android":"levelo://app?vid=9b553abb-0a80-4879-ad0c-fdc44c7ea390","ios":"levelo://app?vid=9b553abb-0a80-4879-ad0c-fdc44c7ea390"},"vehicle_type_id":"4","last_reported":1730322488,"current_range_meters":27600,"station_id":"ce4bhp92rcd13ifvqhcg","pricing_plan_id":"cebpf4jnsgd1na2vs0mg"},{"bike_id":"2e1f0f58-85d5-4a96-9765-92fa471f93a1","system_id":"levelo_inurba_marseille","lat":43.27962,"lon":5.38742,"is_reserved":false,"is_disabled":false,"rental_uris":{"android":"levelo://app?vid=2e1f0f58-85d5-4a96-9765-92fa471f93a1","ios":"levelo://app?vid=2e1f0f58-85d5-4a96-9765-92fa471f93a1"},"vehicle_type_id":"4","last_reported":1730322488,"current_range_meters":19200,"station_id":"ce4bhg12rcd13ifvqf80","pricing_plan_id":"cebpf4jnsgd1na2vs0mg"},{"bike_id":"1995d42f-9bb2-423e-a419-1706f5fab24e","system_id":"levelo_inurba_marseille","lat":43.27068,"lon":5.42269,"is_reserved":false,"is_disabled":false,"rental_uris":{"android":"levelo://app?vid=1995d42f-9bb2-423e-a419-1706f5fab24e","ios":"levelo://app?vid=1995d42f-9bb2-423e-a419-1706f5fab24e"},"vehicle_type_id":"4","last_reported":1730322488,"current_range_meters":32000,"station_id":"ce4bhk92rcd13ifvqgb0","pricing_plan_id":"cebpf4jnsgd1na2vs0mg"},{"bike_id":"d75a5f39-6d7e-41fe-bdc2-13c4c09528e6","system_id":"levelo_inurba_marseille","lat":43.23168,"lon":5.39995,"is_reserved":false,"is_disabled":false,"rental_uris":{"android":"levelo://app?vid=d75a5f39-6d7e-41fe-bdc2-13c4c09528e6","ios":"levelo://app?vid=d75a5f39-6d7e-41fe-bdc2-13c4c09528e6"},"vehicle_type_id":"4","last_reported":1730322488,"current_range_meters":35600,"station_id":"ce4bhn12rcd13ifvqgqg","pricing_plan_id":"cebpf4jnsgd1na2vs0mg"},{"bike_id":"be4cec61-2fbe-4c41-bc8f-6cef6f495468","system_id":"levelo_inurba_marseille","lat":43.31336,"lon":5.39699,"is_reserved":false,"is_disabled":false,"rental_uris":{"android":"levelo://app?vid=be4cec61-2fbe-4c41-bc8f-6cef6f495468","ios":"levelo://app?vid=be4cec61-2fbe-4c41-bc8f-6cef6f495468"},"vehicle_type_id":"4","last_reported":1730322488,"current_range_meters":38800,"station_id":"ce4bgvp2rcd13ifvqcu0","pricing_plan_id":"cebpf4jnsgd1na2vs0mg"},{"bike_id":"8162e4a8-23c1-4020-bbef-be4a2e70aefe","system_id":"levelo_inurba_marseille","lat":43.23195,"lon":5.35552,"is_reserved":false,"is_disabled":false,"rental_uris":{"android":"levelo://app?vid=8162e4a8-23c1-4020-bbef-be4a2e70aefe","ios":"levelo://app?vid=8162e4a8-23c1-4020-bbef-be4a2e70aefe"},"vehicle_type_id":"4","last_reported":1730322488,"current_range_meters":8000,"station_id":"ce4bhu92rcd13ifvqi70","pricing_plan_id":"cebpf4jnsgd1na2vs0mg"},{"bike_id":"3404184c-b4dd-4158-81d3-b380ad6360a5","system_id":"levelo_inurba_marseille","lat":43.30938,"lon":5.40148,"is_reserved":false,"is_disabled":false,"rental_uris":{"android":"levelo://app?vid=3404184c-b4dd-4158-81d3-b380ad6360a5","ios":"levelo://app?vid=3404184c-b4dd-4158-81d3-b380ad6360a5"},"vehicle_type_id":"4","last_reported":1730322488,"current_range_meters":38800,"station_id":"ce4bgvp2rcd13ifvqct0","pricing_plan_id":"cebpf4jnsgd1na2vs0mg"},{"bike_id":"247b3027-7725-431a-92e8-3a7d40d60ef6","system_id":"levelo_inurba_marseille","lat":43.3042,"lon":5.41284,"is_reserved":false,"is_disabled":false,"rental_uris":{"android":"levelo://app?vid=247b3027-7725-431a-92e8-3a7d40d60ef6","ios":"levelo://app?vid=247b3027-7725-431a-92e8-3a7d40d60ef6"},"vehicle_type_id":"4","last_reported":1730322488,"current_range_meters":21600,"station_id":"ce4bhop2rcd13ifvqh8g","pricing_plan_id":"cebpf4jnsgd1na2vs0mg"},{"bike_id":"4c9d1e06-f3f0-41b4-9b77-1e0a54f146d2","system_id":"levelo_inurba_marseille","lat":43.3189,"lon":5.4071,"is_reserved":false,"is_disabled":false,"rental_uris":{"android":"levelo://app?vid=4c9d1e06-f3f0-41b4-9b77-1e0a54f146d2","ios":"levelo://app?vid=4c9d1e06-f3f0-41b4-9b77-1e0a54f146d2"},"vehicle_type_id":"4","last_reported":1730322488,"current_range_meters":21600,"station_id":"ce4bhq12rcd13ifvqhig","pricing_plan_id":"cebpf4jnsgd1na2vs0mg"},{"bike_id":"28119a98-9838-4fae-a923-151b5b190589","system_id":"levelo_inurba_marseille","lat":43.29417,"lon":5.38608,"is_reserved":false,"is_disabled":false,"rental_uris":{"android":"levelo://app?vid=28119a98-9838-4fae-a923-151b5b190589","ios":"levelo://app?vid=28119a98-9838-4fae-a923-151b5b190589"},"vehicle_type_id":"4","last_reported":1730322488,"current_range_meters":14000,"station_id":"ce4bh2h2rcd13ifvqdh0","pricing_plan_id":"cebpf4jnsgd1na2vs0mg"},{"bike_id":"dede9cb1-9f36-49ac-88f6-956d5d0a7a6f","system_id":"levelo_inurba_marseille","lat":43.30238,"lon":5.4007,"is_reserved":false,"is_disabled":false,"rental_uris":{"android":"levelo://app?vid=dede9cb1-9f36-49ac-88f6-956d5d0a7a6f","ios":"levelo://app?vid=dede9cb1-9f36-49ac-88f6-956d5d0a7a6f"},"vehicle_type_id":"4","last_reported":1730322488,"current_range_meters":38800,"station_id":"ce4bgvh2rcd13ifvqcs0","pricing_plan_id":"cebpf4jnsgd1na2vs0mg"},{"bike_id":"8579512b-c8fc-422b-851d-f69c74dda96d","system_id":"levelo_inurba_marseille","lat":43.24074,"lon":5.37755,"is_reserved":false,"is_disabled":false,"rental_uris":{"android":"levelo://app?vid=8579512b-c8fc-422b-851d-f69c74dda96d","ios":"levelo://app?vid=8579512b-c8fc-422b-851d-f69c74dda96d"},"vehicle_type_id":"4","last_reported":1730322488,"current_range_meters":6800,"station_id":"ce4bhnp2rcd13ifvqgvg","pricing_plan_id":"cebpf4jnsgd1na2vs0mg"},{"bike_id":"01873621-66c2-43af-8810-09f11e46034b","system_id":"levelo_inurba_marseille","lat":43.28406,"lon":5.3751,"is_reserved":false,"is_disabled":false,"rental_uris":{"android":"levelo://app?vid=01873621-66c2-43af-8810-09f11e46034b","ios":"levelo://app?vid=01873621-66c2-43af-8810-09f11e46034b"},"vehicle_type_id":"4","last_reported":1730322488,"current_range_meters":9600,"station_id":"ce4bh412rcd13ifvqds0","pricing_plan_id":"cebpf4jnsgd1na2vs0mg"},{"bike_id":"4e56aed2-21a5-45c8-af95-efc825fda15f","system_id":"levelo_inurba_marseille","lat":43.29524,"lon":5.38535,"is_reserved":false,"is_disabled":false,"rental_uris":{"android":"levelo://app?vid=4e56aed2-21a5-45c8-af95-efc825fda15f","ios":"levelo://app?vid=4e56aed2-21a5-45c8-af95-efc825fda15f"},"vehicle_type_id":"4","last_reported":1730322488,"current_range_meters":12000,"station_id":"ce4bgih2rcd13ifvqba0","pricing_plan_id":"cebpf4jnsgd1na2vs0mg"},{"bike_id":"9a9492de-0cae-441c-870e-fc44613a99bb","system_id":"levelo_inurba_marseille","lat":43.289978,"lon":5.366773,"is_reserved":false,"is_disabled":false,"rental_uris":{"android":"levelo://app?vid=9a9492de-0cae-441c-870e-fc44613a99bb","ios":"levelo://app?vid=9a9492de-0cae-441c-870e-fc44613a99bb"},"vehicle_type_id":"4","last_reported":1730322488,"current_range_meters":7200,"station_id":"ce4bhap2rcd13ifvqek0","pricing_plan_id":"cebpf4jnsgd1na2vs0mg"},{"bike_id":"1ace14c5-1992-46b1-87cf-4a1d3c62f592","system_id":"levelo_inurba_marseille","lat":43.28153,"lon":5.42631,"is_reserved":false,"is_disabled":false,"rental_uris":{"android":"levelo://app?vid=1ace14c5-1992-46b1-87cf-4a1d3c62f592","ios":"levelo://app?vid=1ace14c5-1992-46b1-87cf-4a1d3c62f592"},"vehicle_type_id":"4","last_reported":1730322488,"current_range_meters":20000,"station_id":"ce4bhnh2rcd13ifvqgug","pricing_plan_id":"cebpf4jnsgd1na2vs0mg"},{"bike_id":"0d1d919a-0ac6-4b40-add0-6ce675499ae9","system_id":"levelo_inurba_marseille","lat":43.2407,"lon":5.37767,"is_reserved":false,"is_disabled":false,"rental_uris":{"android":"levelo://app?vid=0d1d919a-0ac6-4b40-add0-6ce675499ae9","ios":"levelo://app?vid=0d1d919a-0ac6-4b40-add0-6ce675499ae9"},"vehicle_type_id":"4","last_reported":1730322488,"current_range_meters":14000,"station_id":"ce4bhnp2rcd13ifvqgvg","pricing_plan_id":"cebpf4jnsgd1na2vs0mg"},{"bike_id":"8785c527-ebc9-4d4b-a104-dc84f78b82df","system_id":"levelo_inurba_marseille","lat":43.24077,"lon":5.37736,"is_reserved":false,"is_disabled":false,"rental_uris":{"android":"levelo://app?vid=8785c527-ebc9-4d4b-a104-dc84f78b82df","ios":"levelo://app?vid=8785c527-ebc9-4d4b-a104-dc84f78b82df"},"vehicle_type_id":"4","last_reported":1730322488,"current_range_meters":6800,"station_id":"ce4bhnp2rcd13ifvqgvg","pricing_plan_id":"cebpf4jnsgd1na2vs0mg"},{"bike_id":"49e86902-92d3-40a2-bb27-233aeb8fe5bc","system_id":"levelo_inurba_marseille","lat":43.31357,"lon":5.38492,"is_reserved":false,"is_disabled":false,"rental_uris":{"android":"levelo://app?vid=49e86902-92d3-40a2-bb27-233aeb8fe5bc","ios":"levelo://app?vid=49e86902-92d3-40a2-bb27-233aeb8fe5bc"},"vehicle_type_id":"4","last_reported":1730322488,"current_range_meters":38800,"station_id":"ce4bgt92rcd13ifvqcf0","pricing_plan_id":"cebpf4jnsgd1na2vs0mg"},{"bike_id":"379d974e-51a1-4b04-b633-c4150016c54e","system_id":"levelo_inurba_marseille","lat":43.28409,"lon":5.37521,"is_reserved":false,"is_disabled":false,"rental_uris":{"android":"levelo://app?vid=379d974e-51a1-4b04-b633-c4150016c54e","ios":"levelo://app?vid=379d974e-51a1-4b04-b633-c4150016c54e"},"vehicle_type_id":"4","last_reported":1730322488,"current_range_meters":36800,"station_id":"ce4bh412rcd13ifvqds0","pricing_plan_id":"cebpf4jnsgd1na2vs0mg"},{"bike_id":"73b91a5c-462b-445d-ac2c-3b2ae6e44141","system_id":"levelo_inurba_marseille","lat":43.28655,"lon":5.36347,"is_reserved":false,"is_disabled":false,"rental_uris":{"android":"levelo://app?vid=73b91a5c-462b-445d-ac2c-3b2ae6e44141","ios":"levelo://app?vid=73b91a5c-462b-445d-ac2c-3b2ae6e44141"},"vehicle_type_id":"4","last_reported":1730322488,"current_range_meters":34000,"station_id":"ce4bhah2rcd13ifvqej0","pricing_plan_id":"cebpf4jnsgd1na2vs0mg"},{"bike_id":"ddd2b1e9-334f-4882-9f41-cc127a3a9d93","system_id":"levelo_inurba_marseille","lat":43.29277,"lon":5.40117,"is_reserved":false,"is_disabled":false,"rental_uris":{"android":"levelo://app?vid=ddd2b1e9-334f-4882-9f41-cc127a3a9d93","ios":"levelo://app?vid=ddd2b1e9-334f-4882-9f41-cc127a3a9d93"},"vehicle_type_id":"4","last_reported":1730322488,"current_range_meters":36800,"station_id":"ce4bh312rcd13ifvqdk0","pricing_plan_id":"cebpf4jnsgd1na2vs0mg"},{"bike_id":"e2cab8bf-b1bb-433b-8bc5-b7f0976702d3","system_id":"levelo_inurba_marseille","lat":43.29302,"lon":5.3747,"is_reserved":false,"is_disabled":false,"rental_uris":{"android":"levelo://app?vid=e2cab8bf-b1bb-433b-8bc5-b7f0976702d3","ios":"levelo://app?vid=e2cab8bf-b1bb-433b-8bc5-b7f0976702d3"},"vehicle_type_id":"4","last_reported":1730322488,"current_range_meters":20800,"station_id":"ce4bgi12rcd13ifvqb70","pricing_plan_id":"cebpf4jnsgd1na2vs0mg"},{"bike_id":"68c21e97-2af1-47d0-9677-8b14c36e24b9","system_id":"levelo_inurba_marseille","lat":43.31722,"lon":5.42395,"is_reserved":false,"is_disabled":false,"rental_uris":{"android":"levelo://app?vid=68c21e97-2af1-47d0-9677-8b14c36e24b9","ios":"levelo://app?vid=68c21e97-2af1-47d0-9677-8b14c36e24b9"},"vehicle_type_id":"4","last_reported":1730322488,"current_range_meters":38800,"station_id":"ce4bhp92rcd13ifvqhbg","pricing_plan_id":"cebpf4jnsgd1na2vs0mg"},{"bike_id":"33d7239f-73a3-4ee6-886d-d4f39be7304a","system_id":"levelo_inurba_marseille","lat":43.3183,"lon":5.37438,"is_reserved":false,"is_disabled":false,"rental_uris":{"android":"levelo://app?vid=33d7239f-73a3-4ee6-886d-d4f39be7304a","ios":"levelo://app?vid=33d7239f-73a3-4ee6-886d-d4f39be7304a"},"vehicle_type_id":"4","last_reported":1730322488,"current_range_meters":18800,"station_id":"","pricing_plan_id":"cebpf4jnsgd1na2vs0mg"},{"bike_id":"c30c20a3-a003-4e47-981b-d4a01d18b8ed","system_id":"levelo_inurba_marseille","lat":43.24172,"lon":5.364,"is_reserved":false,"is_disabled":false,"rental_uris":{"android":"levelo://app?vid=c30c20a3-a003-4e47-981b-d4a01d18b8ed","ios":"levelo://app?vid=c30c20a3-a003-4e47-981b-d4a01d18b8ed"},"vehicle_type_id":"4","last_reported":1730322488,"current_range_meters":38400,"station_id":"cpo36qri1sfpv3e86is0","pricing_plan_id":"cebpf4jnsgd1na2vs0mg"},{"bike_id":"d2e0efbb-61ff-424a-9cde-183324d21273","system_id":"levelo_inurba_marseille","lat":43.23964,"lon":5.36618,"is_reserved":false,"is_disabled":false,"rental_uris":{"android":"levelo://app?vid=d2e0efbb-61ff-424a-9cde-183324d21273","ios":"levelo://app?vid=d2e0efbb-61ff-424a-9cde-183324d21273"},"vehicle_type_id":"4","last_reported":1730322488,"current_range_meters":35600,"station_id":"ce4bhi12rcd13ifvqfp0","pricing_plan_id":"cebpf4jnsgd1na2vs0mg"},{"bike_id":"291e3c4a-31f1-456d-89e3-ecfcdf51a25e","system_id":"levelo_inurba_marseille","lat":43.30426,"lon":5.39751,"is_reserved":false,"is_disabled":false,"rental_uris":{"android":"levelo://app?vid=291e3c4a-31f1-456d-89e3-ecfcdf51a25e","ios":"levelo://app?vid=291e3c4a-31f1-456d-89e3-ecfcdf51a25e"},"vehicle_type_id":"4","last_reported":1730322488,"current_range_meters":25200,"station_id":"ce4bh092rcd13ifvqd20","pricing_plan_id":"cebpf4jnsgd1na2vs0mg"},{"bike_id":"2b6c68f3-ef95-416e-8a00-afd2715afd77","system_id":"levelo_inurba_marseille","lat":43.30641,"lon":5.40078,"is_reserved":false,"is_disabled":false,"rental_uris":{"android":"levelo://app?vid=2b6c68f3-ef95-416e-8a00-afd2715afd77","ios":"levelo://app?vid=2b6c68f3-ef95-416e-8a00-afd2715afd77"},"vehicle_type_id":"4","last_reported":1730322488,"current_range_meters":39200,"station_id":"ce4bh112rcd13ifvqda0","pricing_plan_id":"cebpf4jnsgd1na2vs0mg"},{"bike_id":"06be41f9-8626-41f4-bc00-6dec28012c26","system_id":"levelo_inurba_marseille","lat":43.29592,"lon":5.38101,"is_reserved":false,"is_disabled":false,"rental_uris":{"android":"levelo://app?vid=06be41f9-8626-41f4-bc00-6dec28012c26","ios":"levelo://app?vid=06be41f9-8626-41f4-bc00-6dec28012c26"},"vehicle_type_id":"4","last_reported":1730322488,"current_range_meters":38800,"station_id":"ce4bgl12rcd13ifvqbo0","pricing_plan_id":"cebpf4jnsgd1na2vs0mg"},{"bike_id":"8fbee397-c726-4d42-ae6d-7e6a955a3eb5","system_id":"levelo_inurba_marseille","lat":43.2306,"lon":5.3549,"is_reserved":false,"is_disabled":false,"rental_uris":{"android":"levelo://app?vid=8fbee397-c726-4d42-ae6d-7e6a955a3eb5","ios":"levelo://app?vid=8fbee397-c726-4d42-ae6d-7e6a955a3eb5"},"vehicle_type_id":"4","last_reported":1730322488,"current_range_meters":38800,"station_id":"cpo3342slgdg3j2ifvpg","pricing_plan_id":"cebpf4jnsgd1na2vs0mg"},{"bike_id":"fea23d88-9bbb-4ffa-af08-7b03ca37348f","system_id":"levelo_inurba_marseille","lat":43.2317,"lon":5.39993,"is_reserved":false,"is_disabled":false,"rental_uris":{"android":"levelo://app?vid=fea23d88-9bbb-4ffa-af08-7b03ca37348f","ios":"levelo://app?vid=fea23d88-9bbb-4ffa-af08-7b03ca37348f"},"vehicle_type_id":"4","last_reported":1730322488,"current_range_meters":28800,"station_id":"ce4bhn12rcd13ifvqgqg","pricing_plan_id":"cebpf4jnsgd1na2vs0mg"},{"bike_id":"1009251a-ef86-482f-a1a5-7e198b661165","system_id":"levelo_inurba_marseille","lat":43.28936,"lon":5.3664,"is_reserved":false,"is_disabled":false,"rental_uris":{"android":"levelo://app?vid=1009251a-ef86-482f-a1a5-7e198b661165","ios":"levelo://app?vid=1009251a-ef86-482f-a1a5-7e198b661165"},"vehicle_type_id":"4","last_reported":1730322488,"current_range_meters":20000,"station_id":"ce4bhap2rcd13ifvqek0","pricing_plan_id":"cebpf4jnsgd1na2vs0mg"},{"bike_id":"160c3125-d109-49e3-a687-ede78b99dea2","system_id":"levelo_inurba_marseille","lat":43.23186,"lon":5.3554,"is_reserved":false,"is_disabled":false,"rental_uris":{"android":"levelo://app?vid=160c3125-d109-49e3-a687-ede78b99dea2","ios":"levelo://app?vid=160c3125-d109-49e3-a687-ede78b99dea2"},"vehicle_type_id":"4","last_reported":1730322488,"current_range_meters":37600,"station_id":"ce4bhu92rcd13ifvqi70","pricing_plan_id":"cebpf4jnsgd1na2vs0mg"},{"bike_id":"7eb31cb5-824d-4530-a724-655bf9400806","system_id":"levelo_inurba_marseille","lat":43.28844,"lon":5.35843,"is_reserved":false,"is_disabled":false,"rental_uris":{"android":"levelo://app?vid=7eb31cb5-824d-4530-a724-655bf9400806","ios":"levelo://app?vid=7eb31cb5-824d-4530-a724-655bf9400806"},"vehicle_type_id":"4","last_reported":1730322488,"current_range_meters":12800,"station_id":"ce4bhb12rcd13ifvqem0","pricing_plan_id":"cebpf4jnsgd1na2vs0mg"},{"bike_id":"d08dcb05-94fa-46fa-a9b5-b62e0c8f0fa5","system_id":"levelo_inurba_marseille","lat":43.30327,"lon":5.40434,"is_reserved":false,"is_disabled":false,"rental_uris":{"android":"levelo://app?vid=d08dcb05-94fa-46fa-a9b5-b62e0c8f0fa5","ios":"levelo://app?vid=d08dcb05-94fa-46fa-a9b5-b62e0c8f0fa5"},"vehicle_type_id":"4","last_reported":1730322488,"current_range_meters":10800,"station_id":"ce4bh012rcd13ifvqd10","pricing_plan_id":"cebpf4jnsgd1na2vs0mg"},{"bike_id":"44d88b6e-2587-4850-aafa-1c49fe3062ab","system_id":"levelo_inurba_marseille","lat":43.32657,"lon":5.40981,"is_reserved":false,"is_disabled":false,"rental_uris":{"android":"levelo://app?vid=44d88b6e-2587-4850-aafa-1c49fe3062ab","ios":"levelo://app?vid=44d88b6e-2587-4850-aafa-1c49fe3062ab"},"vehicle_type_id":"4","last_reported":1730322488,"current_range_meters":2000,"station_id":"ce4bhpp2rcd13ifvqhgg","pricing_plan_id":"cebpf4jnsgd1na2vs0mg"},{"bike_id":"3cafe4f8-4316-422f-a221-a87628274441","system_id":"levelo_inurba_marseille","lat":43.28102,"lon":5.37841,"is_reserved":false,"is_disabled":false,"rental_uris":{"android":"levelo://app?vid=3cafe4f8-4316-422f-a221-a87628274441","ios":"levelo://app?vid=3cafe4f8-4316-422f-a221-a87628274441"},"vehicle_type_id":"4","last_reported":1730322488,"current_range_meters":17200,"station_id":"ce4bha12rcd13ifvqee0","pricing_plan_id":"cebpf4jnsgd1na2vs0mg"},{"bike_id":"301ae3b3-4d8d-4e48-9ad6-429a6aab6593","system_id":"levelo_inurba_marseille","lat":43.29564,"lon":5.39965,"is_reserved":false,"is_disabled":false,"rental_uris":{"android":"levelo://app?vid=301ae3b3-4d8d-4e48-9ad6-429a6aab6593","ios":"levelo://app?vid=301ae3b3-4d8d-4e48-9ad6-429a6aab6593"},"vehicle_type_id":"4","last_reported":1730322488,"current_range_meters":28800,"station_id":"ce4bh312rcd13ifvqdj0","pricing_plan_id":"cebpf4jnsgd1na2vs0mg"},{"bike_id":"abc52e38-e5e4-4737-8ef0-77dc0723ae78","system_id":"levelo_inurba_marseille","lat":43.248,"lon":5.3745,"is_reserved":false,"is_disabled":false,"rental_uris":{"android":"levelo://app?vid=abc52e38-e5e4-4737-8ef0-77dc0723ae78","ios":"levelo://app?vid=abc52e38-e5e4-4737-8ef0-77dc0723ae78"},"vehicle_type_id":"4","last_reported":1730322488,"current_range_meters":2800,"station_id":"ce4bhgh2rcd13ifvqfb0","pricing_plan_id":"cebpf4jnsgd1na2vs0mg"},{"bike_id":"c9511f39-ca70-4b78-a26d-1a6d45da226b","system_id":"levelo_inurba_marseille","lat":43.2926,"lon":5.38452,"is_reserved":false,"is_disabled":false,"rental_uris":{"android":"levelo://app?vid=c9511f39-ca70-4b78-a26d-1a6d45da226b","ios":"levelo://app?vid=c9511f39-ca70-4b78-a26d-1a6d45da226b"},"vehicle_type_id":"4","last_reported":1730322488,"current_range_meters":16000,"station_id":"ce4bh692rcd13ifvqea0","pricing_plan_id":"cebpf4jnsgd1na2vs0mg"},{"bike_id":"07ade4e1-5357-41fa-9282-9fdb3d51a0af","system_id":"levelo_inurba_marseille","lat":43.28408,"lon":5.37529,"is_reserved":false,"is_disabled":false,"rental_uris":{"android":"levelo://app?vid=07ade4e1-5357-41fa-9282-9fdb3d51a0af","ios":"levelo://app?vid=07ade4e1-5357-41fa-9282-9fdb3d51a0af"},"vehicle_type_id":"4","last_reported":1730322488,"current_range_meters":33200,"station_id":"ce4bh412rcd13ifvqds0","pricing_plan_id":"cebpf4jnsgd1na2vs0mg"},{"bike_id":"88efb117-d2c1-434d-b114-55969bc9d416","system_id":"levelo_inurba_marseille","lat":43.29628,"lon":5.40602,"is_reserved":false,"is_disabled":false,"rental_uris":{"android":"levelo://app?vid=88efb117-d2c1-434d-b114-55969bc9d416","ios":"levelo://app?vid=88efb117-d2c1-434d-b114-55969bc9d416"},"vehicle_type_id":"4","last_reported":1730322488,"current_range_meters":38400,"station_id":"ce4bh0h2rcd13ifvqd60","pricing_plan_id":"cebpf4jnsgd1na2vs0mg"},{"bike_id":"59c14d9b-4823-424d-8c3d-75071815bf43","system_id":"levelo_inurba_marseille","lat":43.24389,"lon":5.37065,"is_reserved":false,"is_disabled":false,"rental_uris":{"android":"levelo://app?vid=59c14d9b-4823-424d-8c3d-75071815bf43","ios":"levelo://app?vid=59c14d9b-4823-424d-8c3d-75071815bf43"},"vehicle_type_id":"4","last_reported":1730322488,"current_range_meters":28400,"station_id":"ce4bhhh2rcd13ifvqfk0","pricing_plan_id":"cebpf4jnsgd1na2vs0mg"},{"bike_id":"2e809025-5e8a-42c1-bf86-4d20f51e1fb4","system_id":"levelo_inurba_marseille","lat":43.28063,"lon":5.39645,"is_reserved":false,"is_disabled":false,"rental_uris":{"android":"levelo://app?vid=2e809025-5e8a-42c1-bf86-4d20f51e1fb4","ios":"levelo://app?vid=2e809025-5e8a-42c1-bf86-4d20f51e1fb4"},"vehicle_type_id":"4","last_reported":1730322488,"current_range_meters":37600,"station_id":"ce4bho12rcd13ifvqh2g","pricing_plan_id":"cebpf4jnsgd1na2vs0mg"},{"bike_id":"bfb1a2f2-5dd7-404a-90bb-be56759f829f","system_id":"levelo_inurba_marseille","lat":43.27999,"lon":5.41656,"is_reserved":false,"is_disabled":false,"rental_uris":{"android":"levelo://app?vid=bfb1a2f2-5dd7-404a-90bb-be56759f829f","ios":"levelo://app?vid=bfb1a2f2-5dd7-404a-90bb-be56759f829f"},"vehicle_type_id":"4","last_reported":1730322488,"current_range_meters":35600,"station_id":"ce4bho12rcd13ifvqh1g","pricing_plan_id":"cebpf4jnsgd1na2vs0mg"},{"bike_id":"835e5ca5-d00b-4d2e-b7d9-edf0e2910335","system_id":"levelo_inurba_marseille","lat":43.29567,"lon":5.39979,"is_reserved":false,"is_disabled":false,"rental_uris":{"android":"levelo://app?vid=835e5ca5-d00b-4d2e-b7d9-edf0e2910335","ios":"levelo://app?vid=835e5ca5-d00b-4d2e-b7d9-edf0e2910335"},"vehicle_type_id":"4","last_reported":1730322488,"current_range_meters":32000,"station_id":"ce4bh312rcd13ifvqdj0","pricing_plan_id":"cebpf4jnsgd1na2vs0mg"},