{"last_updated":1683965278,"ttl":30,"version":"2.2","data":{"bikes":[{"bike_id":"7cc72136-2914-4258-88d1-7b67816020a7","system_id":"levelo_inurba_marseille","lat":43.313391,"lon":5.36706,"is_reserved":false,"is_disabled":false,"rental_uris":{"android":"levelo://app?vid=7cc72136-2914-4258-88d1-7b67816020a7","ios":"levelo://app?vid=7cc72136-2914-4258-88d1-7b67816020a7"},"vehicle_type_id":"4","last_reported":1683965279,"current_range_meters":30800,"station_id":"ce4bgr92rcd13ifvqc6g","pricing_plan_id":"free"},{"bike_id":"587d7e94-da37-4de2-80e1-426004de5738","system_id":"levelo_inurba_marseille","lat":43.313391,"lon":5.36706,"is_reserved":false,"is_disabled":false,"rental_uris":{"android":"levelo://app?vid=587d7e94-da37-4de2-80e1-426004de5738","ios":"levelo://app?vid=587d7e94-da37-4de2-80e1-426004de5738"},"vehicle_type_id":"4","last_reported":1683965279,"current_range_meters":31200,"station_id":"ce4bgr92rcd13ifvqc6g","pricing_plan_id":"free"},{"bike_id":"6b7c3507-e295-43af-a5ca-a2173ed82b2f","system_id":"levelo_inurba_marseille","lat":43.312239,"lon":5.368562,"is_reserved":false,"is_disabled":false,"rental_uris":{"android":"levelo://app?vid=6b7c3507-e295-43af-a5ca-a2173ed82b2f","ios":"levelo://app?vid=6b7c3507-e295-43af-a5ca-a2173ed82b2f"},"vehicle_type_id":"4","last_reported":1683965279,"current_range_meters":27600,"station_id":"ce4bgl92rcd13ifvqbq0","pricing_plan_id":"free"},{"bike_id":"048f28fb-86d7-489b-ba57-fe72c51a5c87","system_id":"levelo_inurba_marseille","lat":43.312239,"lon":5.368562,"is_reserved":false,"is_disabled":false,"rental_uris":{"android":"levelo://app?vid=048f28fb-86d7-489b-ba57-fe72c51a5c87","ios":"levelo://app?vid=048f28fb-86d7-489b-ba57-fe72c51a5c87"},"vehicle_type_id":"4","last_reported":1683965279,"current_range_meters":26400,"station_id":"ce4bgl92rcd13ifvqbq0","pricing_plan_id":"free"},{"bike_id":"142f6700-5d51-4b70-b614-ea33d4b62805","system_id":"levelo_inurba_marseille","lat":43.312239,"lon":5.368562,"is_reserved":false,"is_disabled":false,"rental_uris":{"android":"levelo://app?vid=142f6700-5d51-4b70-b614-ea33d4b62805","ios":"levelo://app?vid=142f6700-5d51-4b70-b614-ea33d4b62805"},"vehicle_type_id":"4","last_reported":1683965279,"current_range_meters":25600,"station_id":"ce4bgl92rcd13ifvqbq0","pricing_plan_id":"free"},{"bike_id":"236c7117-0423-4673-bd21-105819686532","system_id":"levelo_inurba_marseille","lat":43.312239,"lon":5.368562,"is_reserved":false,"is_disabled":false,"rental_uris":{"android":"levelo://app?vid=236c7117-0423-4673-bd21-105819686532","ios":"levelo://app?vid=236c7117-0423-4673-bd21-105819686532"},"vehicle_type_id":"4","last_reported":1683965279,"current_range_meters":18800,"station_id":"ce4bgl92rcd13ifvqbq0","pricing_plan_id":"free"},{"bike_id":"caf62a47-260f-4ea6-957c-2cd2b8faadb8","system_id":"levelo_inurba_marseille","lat":43.312239,"lon":5.368562,"is_reserved":false,"is_disabled":false,"rental_uris":{"android":"levelo://app?vid=caf62a47-260f-4ea6-957c-2cd2b8faadb8","ios":"levelo://app?vid=caf62a47-260f-4ea6-957c-2cd2b8faadb8"},"vehicle_type_id":"4","last_reported":1683965279,"current_range_meters":31600,"station_id":"ce4bgl92rcd13ifvqbq0","pricing_plan_id":"free"},{"bike_id":"1b4dc9f0-c01f-4537-a3cf-19135a5f610b","system_id":"levelo_inurba_marseille","lat":43.31385,"lon":5.36806,"is_reserved":false,"is_disabled":false,"rental_uris":{"android":"levelo://app?vid=1b4dc9f0-c01f-4537-a3cf-19135a5f610b","ios":"levelo://app?vid=1b4dc9f0-c01f-4537-a3cf-19135a5f610b"},"vehicle_type_id":"4","last_reported":1683965279,"current_range_meters":31600,"station_id":"","pricing_plan_id":"free"},{"bike_id":"7dec533e-2e53-48cf-b763-0250f0d304ba","system_id":"levelo_inurba_marseille","lat":43.312239,"lon":5.368562,"is_reserved":false,"is_disabled":false,"rental_uris":{"android":"levelo://app?vid=7dec533e-2e53-48cf-b763-0250f0d304ba","ios":"levelo://app?vid=7dec533e-2e53-48cf-b763-0250f0d304ba"},"vehicle_type_id":"4","last_reported":1683965279,"current_range_meters":26800,"station_id":"ce4bgl92rcd13ifvqbq0","pricing_plan_id":"free"},{"bike_id":"74b03030-f764-44f2-a651-9c6e9c253c21","system_id":"levelo_inurba_marseille","lat":43.312239,"lon":5.368562,"is_reserved":false,"is_disabled":false,"rental_uris":{"android":"levelo://app?vid=74b03030-f764-44f2-a651-9c6e9c253c21","ios":"levelo://app?vid=74b03030-f764-44f2-a651-9c6e9c253c21"},"vehicle_type_id":"4","last_reported":1683965279,"current_range_meters":28800,"station_id":"ce4bgl92rcd13ifvqbq0","pricing_plan_id":"free"},{"bike_id":"8ca62d06-aaef-4fe4-8a79-f8e1c3e6e068","system_id":"levelo_inurba_marseille","lat":43.314811,"lon":5.373104,"is_reserved":false,"is_disabled":false,"rental_uris":{"android":"levelo://app?vid=8ca62d06-aaef-4fe4-8a79-f8e1c3e6e068","ios":"levelo://app?vid=8ca62d06-aaef-4fe4-8a79-f8e1c3e6e068"},"vehicle_type_id":"4","last_reported":1683965279,"current_range_meters":31200,"station_id":"ce4bgt12rcd13ifvqcd0","pricing_plan_id":"free"},{"bike_id":"23a5928b-efc8-4079-96db-b2cf36516d93","system_id":"levelo_inurba_marseille","lat":43.314811,"lon":5.373103,"is_reserved":false,"is_disabled":false,"rental_uris":{"android":"levelo://app?vid=23a5928b-efc8-4079-96db-b2cf36516d93","ios":"levelo://app?vid=23a5928b-efc8-4079-96db-b2cf36516d93"},"vehicle_type_id":"4","last_reported":1683965279,"current_range_meters":31600,"station_id":"ce4bgt12rcd13ifvqcd0","pricing_plan_id":"free"},{"bike_id":"b302cd33-fb13-42f1-9ac2-e9e8d6827c48","system_id":"levelo_inurba_marseille","lat":43.314811,"lon":5.373104,"is_reserved":false,"is_disabled":false,"rental_uris":{"android":"levelo://app?vid=b302cd33-fb13-42f1-9ac2-e9e8d6827c48","ios":"levelo://app?vid=b302cd33-fb13-42f1-9ac2-e9e8d6827c48"},"vehicle_type_id":"4","last_reported":1683965279,"current_range_meters":27200,"station_id":"ce4bgt12rcd13ifvqcd0","pricing_plan_id":"free"},{"bike_id":"712d80da-4d8c-4f0b-845a-1ba448167734","system_id":"levelo_inurba_marseille","lat":43.308614,"lon":5.372098,"is_reserved":false,"is_disabled":false,"rental_uris":{"android":"levelo://app?vid=712d80da-4d8c-4f0b-845a-1ba448167734","ios":"levelo://app?vid=712d80da-4d8c-4f0b-845a-1ba448167734"},"vehicle_type_id":"4","last_reported":1683965279,"current_range_meters":16800,"station_id":"ce4bguh2rcd13ifvqckg","pricing_plan_id":"free"},{"bike_id":"8048eea1-a21f-447e-ac45-82c78ea043e7","system_id":"levelo_inurba_marseille","lat":43.308614,"lon":5.372098,"is_reserved":false,"is_disabled":false,"rental_uris":{"android":"levelo://app?vid=8048eea1-a21f-447e-ac45-82c78ea043e7","ios":"levelo://app?vid=8048eea1-a21f-447e-ac45-82c78ea043e7"},"vehicle_type_id":"4","last_reported":1683965279,"current_range_meters":21200,"station_id":"ce4bguh2rcd13ifvqckg","pricing_plan_id":"free"},{"bike_id":"e719c882-3281-4031-85fe-6e5791a0dc68","system_id":"levelo_inurba_marseille","lat":43.30878,"lon":5.37191,"is_reserved":false,"is_disabled":false,"rental_uris":{"android":"levelo://app?vid=e719c882-3281-4031-85fe-6e5791a0dc68","ios":"levelo://app?vid=e719c882-3281-4031-85fe-6e5791a0dc68"},"vehicle_type_id":"4","last_reported":1683965279,"current_range_meters":0,"station_id":"","pricing_plan_id":"free"},{"bike_id":"9fba2d74-e12d-467e-bb49-3618cc52e11c","system_id":"levelo_inurba_marseille","lat":43.308614,"lon":5.372098,"is_reserved":false,"is_disabled":false,"rental_uris":{"android":"levelo://app?vid=9fba2d74-e12d-467e-bb49-3618cc52e11c","ios":"levelo://app?vid=9fba2d74-e12d-467e-bb49-3618cc52e11c"},"vehicle_type_id":"4","last_reported":1683965279,"current_range_meters":6400,"station_id":"ce4bguh2rcd13ifvqckg","pricing_plan_id":"free"},{"bike_id":"bf5a8e3b-df88-409d-a143-4ca353fd525b","system_id":"levelo_inurba_marseille","lat":43.305368,"lon":5.367343,"is_reserved":false,"is_disabled":false,"rental_uris":{"android":"levelo://app?vid=bf5a8e3b-df88-409d-a143-4ca353fd525b","ios":"levelo://app?vid=bf5a8e3b-df88-409d-a143-4ca353fd525b"},"vehicle_type_id":"4","last_reported":1683965279,"current_range_meters":30000,"station_id":"ce4bgrp2rcd13ifvqc9g","pricing_plan_id":"free"},{"bike_id":"82f39c7b-147f-4bf4-8e7a-95b99f4287e0","system_id":"levelo_inurba_marseille","lat":43.305714,"lon":5.365633,"is_reserved":false,"is_disabled":false,"rental_uris":{"android":"levelo://app?vid=82f39c7b-147f-4bf4-8e7a-95b99f4287e0","ios":"levelo://app?vid=82f39c7b-147f-4bf4-8e7a-95b99f4287e0"},"vehicle_type_id":"4","last_reported":1683965279,"current_range_meters":27200,"station_id":"ce4bgs12rcd13ifvqcag","pricing_plan_id":"free"},{"bike_id":"9d26f3e0-7a81-4370-9a03-554efd7fbb1c","system_id":"levelo_inurba_marseille","lat":43.305714,"lon":5.365633,"is_reserved":false,"is_disabled":false,"rental_uris":{"android":"levelo://app?vid=9d26f3e0-7a81-4370-9a03-554efd7fbb1c","ios":"levelo://app?vid=9d26f3e0-7a81-4370-9a03-554efd7fbb1c"},"vehicle_type_id":"4","last_reported":1683965279,"current_range_meters":14400,"station_id":"ce4bgs12rcd13ifvqcag","pricing_plan_id":"free"},{"bike_id":"dc540e13-fc83-4c92-a00b-f78012805ad4","system_id":"levelo_inurba_marseille","lat":43.30534,"lon":5.36552,"is_reserved":false,"is_disabled":false,"rental_uris":{"android":"levelo://app?vid=dc540e13-fc83-4c92-a00b-f78012805ad4","ios":"levelo://app?vid=dc540e13-fc83-4c92-a00b-f78012805ad4"},"vehicle_type_id":"4","last_reported":1683965279,"current_range_meters":16800,"station_id":"","pricing_plan_id":"free"},{"bike_id":"b1af0496-764e-4073-b96f-66fda5afb230","system_id":"levelo_inurba_marseille","lat":43.305706,"lon":5.365654,"is_reserved":false,"is_disabled":false,"rental_uris":{"android":"levelo://app?vid=b1af0496-764e-4073-b96f-66fda5afb230","ios":"levelo://app?vid=b1af0496-764e-4073-b96f-66fda5afb230"},"vehicle_type_id":"4","last_reported":1683965279,"current_range_meters":26400,"station_id":"ce4bgs12rcd13ifvqcag","pricing_plan_id":"free"},{"bike_id":"151d50bc-3aee-48d5-9527-783274464e00","system_id":"levelo_inurba_marseille","lat":43.31191,"lon":5.37741,"is_reserved":false,"is_disabled":false,"rental_uris":{"android":"levelo://app?vid=151d50bc-3aee-48d5-9527-783274464e00","ios":"levelo://app?vid=151d50bc-3aee-48d5-9527-783274464e00"},"vehicle_type_id":"4","last_reported":1683965279,"current_range_meters":14000,"station_id":"","pricing_plan_id":"free"},{"bike_id":"0caf1618-f7fa-4678-b99b-3e0a5b7b0931","system_id":"levelo_inurba_marseille","lat":43.305989,"lon":5.37225,"is_reserved":false,"is_disabled":false,"rental_uris":{"android":"levelo://app?vid=0caf1618-f7fa-4678-b99b-3e0a5b7b0931","ios":"levelo://app?vid=0caf1618-f7fa-4678-b99b-3e0a5b7b0931"},"vehicle_type_id":"4","last_reported":1683965279,"current_range_meters":30000,"station_id":"ce4bgqh2rcd13ifvqc4g","pricing_plan_id":"free"},{"bike_id":"f0efbac9-c44e-43a0-b949-c5984588d242","system_id":"levelo_inurba_marseille","lat":43.305989,"lon":5.37225,"is_reserved":false,"is_disabled":false,"rental_uris":{"android":"levelo://app?vid=f0efbac9-c44e-43a0-b949-c5984588d242","ios":"levelo://app?vid=f0efbac9-c44e-43a0-b949-c5984588d242"},"vehicle_type_id":"4","last_reported":1683965279,"current_range_meters":25200,"station_id":"ce4bgqh2rcd13ifvqc4g","pricing_plan_id":"free"},{"bike_id":"30751950-d1dd-48b7-a194-28aeee355b9e","system_id":"levelo_inurba_marseille","lat":43.31125,"lon":5.37767,"is_reserved":false,"is_disabled":false,"rental_uris":{"android":"levelo://app?vid=30751950-d1dd-48b7-a194-28aeee355b9e","ios":"levelo://app?vid=30751950-d1dd-48b7-a194-28aeee355b9e"},"vehicle_type_id":"4","last_reported":1683965279,"current_range_meters":30800,"station_id":"ce4bgt92rcd13ifvqcg0","pricing_plan_id":"free"},{"bike_id":"5c118e04-8d69-4616-941e-4639c9fe4944","system_id":"levelo_inurba_marseille","lat":43.317075,"lon":5.377367,"is_reserved":false,"is_disabled":false,"rental_uris":{"android":"levelo://app?vid=5c118e04-8d69-4616-941e-4639c9fe4944","ios":"levelo://app?vid=5c118e04-8d69-4616-941e-4639c9fe4944"},"vehicle_type_id":"4","last_reported":1683965279,"current_range_meters":31200,"station_id":"ce4bgth2rcd13ifvqch0","pricing_plan_id":"free"},{"bike_id":"1fe5678a-8233-41af-b4ad-981b9c577067","system_id":"levelo_inurba_marseille","lat":43.315289,"lon":5.380349,"is_reserved":false,"is_disabled":false,"rental_uris":{"android":"levelo://app?vid=1fe5678a-8233-41af-b4ad-981b9c577067","ios":"levelo://app?vid=1fe5678a-8233-41af-b4ad-981b9c577067"},"vehicle_type_id":"4","last_reported":1683965279,"current_range_meters":29200,"station_id":"ce4bhsp2rcd13ifvqi50","pricing_plan_id":"free"},{"bike_id":"d1f7da52-f8f0-4ddf-abb3-24dd9a46784d","system_id":"levelo_inurba_marseille","lat":43.315289,"lon":5.380349,"is_reserved":false,"is_disabled":false,"rental_uris":{"android":"levelo://app?vid=d1f7da52-f8f0-4ddf-abb3-24dd9a46784d","ios":"levelo://app?vid=d1f7da52-f8f0-4ddf-abb3-24dd9a46784d"},"vehicle_type_id":"4","last_reported":1683965279,"current_range_meters":31600,"station_id":"ce4bhsp2rcd13ifvqi50","pricing_plan_id":"free"},{"bike_id":"cc2f9074-fbb8-4db4-818b-39a62d198bcc","system_id":"levelo_inurba_marseille","lat":43.301939,"lon":5.366286,"is_reserved":false,"is_disabled":false,"rental_uris":{"android":"levelo://app?vid=cc2f9074-fbb8-4db4-818b-39a62d198bcc","ios":"levelo://app?vid=cc2f9074-fbb8-4db4-818b-39a62d198bcc"},"vehicle_type_id":"4","last_reported":1683965279,"current_range_meters":26000,"station_id":"ce4bgrh2rcd13ifvqc8g","pricing_plan_id":"free"},{"bike_id":"49cd5b0f-6134-4641-b910-7ff2bcb13e8b","system_id":"levelo_inurba_marseille","lat":43.308012,"lon":5.381511,"is_reserved":false,"is_disabled":false,"rental_uris":{"android":"levelo://app?vid=49cd5b0f-6134-4641-b910-7ff2bcb13e8b","ios":"levelo://app?vid=49cd5b0f-6134-4641-b910-7ff2bcb13e8b"},"vehicle_type_id":"4","last_reported":1683965279,"current_range_meters":22000,"station_id":"ce4bgt12rcd13ifvqce0","pricing_plan_id":"free"},{"bike_id":"534455aa-5a3f-4fbd-a664-629c9e676f5f","system_id":"levelo_inurba_marseille","lat":43.308012,"lon":5.381511,"is_reserved":false,"is_disabled":false,"rental_uris":{"android":"levelo://app?vid=534455aa-5a3f-4fbd-a664-629c9e676f5f","ios":"levelo://app?vid=534455aa-5a3f-4fbd-a664-629c9e676f5f"},"vehicle_type_id":"4","last_reported":1683965279,"current_range_meters":23600,"station_id":"ce4bgt12rcd13ifvqce0","pricing_plan_id":"free"},{"bike_id":"855d1619-04b0-40fe-84c8-ba142ccc5162","system_id":"levelo_inurba_marseille","lat":43.304606,"lon":5.379026,"is_reserved":false,"is_disabled":false,"rental_uris":{"android":"levelo://app?vid=855d1619-04b0-40fe-84c8-ba142ccc5162","ios":"levelo://app?vid=855d1619-04b0-40fe-84c8-ba142ccc5162"},"vehicle_type_id":"4","last_reported":1683965279,"current_range_meters":14000,"station_id":"ce4bgup2rcd13ifvqcn0","pricing_plan_id":"free"},{"bike_id":"ef8a407f-f67d-4908-9c92-73365ec44eab","system_id":"levelo_inurba_marseille","lat":43.304606,"lon":5.379026,"is_reserved":false,"is_disabled":false,"rental_uris":{"android":"levelo://app?vid=ef8a407f-f67d-4908-9c92-73365ec44eab","ios":"levelo://app?vid=ef8a407f-f67d-4908-9c92-73365ec44eab"},"vehicle_type_id":"4","last_reported":1683965279,"current_range_meters":26400,"station_id":"ce4bgup2rcd13ifvqcn0","pricing_plan_id":"free"},{"bike_id":"8b47ea53-5d97-44ee-9714-7e51bb264dac","system_id":"levelo_inurba_marseille","lat":43.304606,"lon":5.379026,"is_reserved":false,"is_disabled":false,"rental_uris":{"android":"levelo://app?vid=8b47ea53-5d97-44ee-9714-7e51bb264dac","ios":"levelo://app?vid=8b47ea53-5d97-44ee-9714-7e51bb264dac"},"vehicle_type_id":"4","last_reported":1683965279,"current_range_meters":31600,"station_id":"ce4bgup2rcd13ifvqcn0","pricing_plan_id":"free"},{"bike_id":"c980a709-f30e-41b2-b392-a60cca74bc8c","system_id":"levelo_inurba_marseille","lat":43.304606,"lon":5.379026,"is_reserved":false,"is_disabled":false,"rental_uris":{"android":"levelo://app?vid=c980a709-f30e-41b2-b392-a60cca74bc8c","ios":"levelo://app?vid=c980a709-f30e-41b2-b392-a60cca74bc8c"},"vehicle_type_id":"4","last_reported":1683965279,"current_range_meters":31600,"station_id":"ce4bgup2rcd13ifvqcn0","pricing_plan_id":"free"},{"bike_id":"003d582e-7e5f-4a87-a622-32e3086b14b0","system_id":"levelo_inurba_marseille","lat":43.304606,"lon":5.379026,"is_reserved":false,"is_disabled":false,"rental_uris":{"android":"levelo://app?vid=003d582e-7e5f-4a87-a622-32e3086b14b0","ios":"levelo://app?vid=003d582e-7e5f-4a87-a622-32e3086b14b0"},"vehicle_type_id":"4","last_reported":1683965279,"current_range_meters":31600,"station_id":"ce4bgup2rcd13ifvqcn0","pricing_plan_id":"free"},{"bike_id":"60680915-fb24-4b19-bfde-912f36d2d614","system_id":"levelo_inurba_marseille","lat":43.304606,"lon":5.379026,"is_reserved":false,"is_disabled":false,"rental_uris":{"android":"levelo://app?vid=60680915-fb24-4b19-bfde-912f36d2d614","ios":"levelo://app?vid=60680915-fb24-4b19-bfde-912f36d2d614"},"vehicle_type_id":"4","last_reported":1683965279,"current_range_meters":31600,"station_id":"ce4bgup2rcd13ifvqcn0","pricing_plan_id":"free"},{"bike_id":"c49b7f70-ee92-443f-8de7-4d535d6f0ac6","system_id":"levelo_inurba_marseille","lat":43.304606,"lon":5.379026,"is_reserved":false,"is_disabled":false,"rental_uris":{"android":"levelo://app?vid=c49b7f70-ee92-443f-8de7-4d535d6f0ac6","ios":"levelo://app?vid=c49b7f70-ee92-443f-8de7-4d535d6f0ac6"},"vehicle_type_id":"4","last_reported":1683965279,"current_range_meters":10000,"station_id":"ce4bgup2rcd13ifvqcn0","pricing_plan_id":"free"},{"bike_id":"d84ee9cf-1ad7-45eb-aed2-5b50fce817a4","system_id":"levelo_inurba_marseille","lat":43.30466,"lon":5.37908,"is_reserved":false,"is_disabled":false,"rental_uris":{"android":"levelo://app?vid=d84ee9cf-1ad7-45eb-aed2-5b50fce817a4","ios":"levelo://app?vid=d84ee9cf-1ad7-45eb-aed2-5b50fce817a4"},"vehicle_type_id":"4","last_reported":1683965279,"current_range_meters":26800,"station_id":"ce4bgup2rcd13ifvqcn0","pricing_plan_id":"free"},{"bike_id":"0368c736-1ed6-483e-bcad-e801795778b1","system_id":"levelo_inurba_marseille","lat":43.304606,"lon":5.379026,"is_reserved":false,"is_disabled":false,"rental_uris":{"android":"levelo://app?vid=0368c736-1ed6-483e-bcad-e801795778b1","ios":"levelo://app?vid=0368c736-1ed6-483e-bcad-e801795778b1"},"vehicle_type_id":"4","last_reported":1683965279,"current_range_meters":6000,"station_id":"ce4bgup2rcd13ifvqcn0","pricing_plan_id":"free"},{"bike_id":"5f5e7486-2140-4e8d-9afa-f0c197b97c26","system_id":"levelo_inurba_marseille","lat":43.304606,"lon":5.379026,"is_reserved":false,"is_disabled":false,"rental_uris":{"android":"levelo://app?vid=5f5e7486-2140-4e8d-9afa-f0c197b97c26","ios":"levelo://app?vid=5f5e7486-2140-4e8d-9afa-f0c197b97c26"},"vehicle_type_id":"4","last_reported":1683965279,"current_range_meters":18800,"station_id":"ce4bgup2rcd13ifvqcn0","pricing_plan_id":"free"},{"bike_id":"0afad3e0-6610-44c3-bd84-886f6bd0b676","system_id":"levelo_inurba_marseille","lat":43.304606,"lon":5.379026,"is_reserved":false,"is_disabled":false,"rental_uris":{"android":"levelo://app?vid=0afad3e0-6610-44c3-bd84-886f6bd0b676","ios":"levelo://app?vid=0afad3e0-6610-44c3-bd84-886f6bd0b676"},"vehicle_type_id":"4","last_reported":1683965279,"current_range_meters":31600,"station_id":"ce4bgup2rcd13ifvqcn0","pricing_plan_id":"free"},{"bike_id":"3be21e34-8a45-4c8f-90fa-eed469a4b596","system_id":"levelo_inurba_marseille","lat":43.304606,"lon":5.379026,"is_reserved":false,"is_disabled":false,"rental_uris":{"android":"levelo://app?vid=3be21e34-8a45-4c8f-90fa-eed469a4b596","ios":"levelo://app?vid=3be21e34-8a45-4c8f-90fa-eed469a4b596"},"vehicle_type_id":"4","last_reported":1683965279,"current_range_meters":30800,"station_id":"ce4bgup2rcd13ifvqcn0","pricing_plan_id":"free"},{"bike_id":"5ebc2b59-57e9-4041-8cfa-d08e20a497fb","system_id":"levelo_inurba_marseille","lat":43.30464,"lon":5.37909,"is_reserved":false,"is_disabled":false,"rental_uris":{"android":"levelo://app?vid=5ebc2b59-57e9-4041-8cfa-d08e20a497fb","ios":"levelo://app?vid=5ebc2b59-57e9-4041-8cfa-d08e20a497fb"},"vehicle_type_id":"4","last_reported":1683965279,"current_range_meters":24000,"station_id":"ce4bgup2rcd13ifvqcn0","pricing_plan_id":"free"},{"bike_id":"4f89d854-5137-4e7e-9f60-644848ba5316","system_id":"levelo_inurba_marseille","lat":43.304606,"lon":5.379026,"is_reserved":false,"is_disabled":false,"rental_uris":{"android":"levelo://app?vid=4f89d854-5137-4e7e-9f60-644848ba5316","ios":"levelo://app?vid=4f89d854-5137-4e7e-9f60-644848ba5316"},"vehicle_type_id":"4","last_reported":1683965279,"current_range_meters":24400,"station_id":"ce4bgup2rcd13ifvqcn0","pricing_plan_id":"free"},{"bike_id":"7995e2c4-6947-4e35-88a3-bc0b2280ebad","system_id":"levelo_inurba_marseille","lat":43.304606,"lon":5.379026,"is_reserved":false,"is_disabled":false,"rental_uris":{"android":"levelo://app?vid=7995e2c4-6947-4e35-88a3-bc0b2280ebad","ios":"levelo://app?vid=7995e2c4-6947-4e35-88a3-bc0b2280ebad"},"vehicle_type_id":"4","last_reported":1683965279,"current_range_meters":26400,"station_id":"ce4bgup2rcd13ifvqcn0","pricing_plan_id":"free"},{"bike_id":"2dde4dcf-7c45-4c6a-8422-da8ba7b671b6","system_id":"levelo_inurba_marseille","lat":43.30458,"lon":5.37905,"is_reserved":false,"is_disabled":false,"rental_uris":{"android":"levelo://app?vid=2dde4dcf-7c45-4c6a-8422-da8ba7b671b6","ios":"levelo://app?vid=2dde4dcf-7c45-4c6a-8422-da8ba7b671b6"},"vehicle_type_id":"4","last_reported":1683965279,"current_range_meters":28000,"station_id":"ce4bgup2rcd13ifvqcn0","pricing_plan_id":"free"},{"bike_id":"02bcc4cc-9456-4e71-83d6-b073c76d1d70","system_id":"levelo_inurba_marseille","lat":43.304606,"lon":5.379026,"is_reserved":false,"is_disabled":false,"rental_uris":{"android":"levelo://app?vid=02bcc4cc-9456-4e71-83d6-b073c76d1d70","ios":"levelo://app?vid=02bcc4cc-9456-4e71-83d6-b073c76d1d70"},"vehicle_type_id":"4","last_reported":1683965279,"current_range_meters":19600,"station_id":"ce4bgup2rcd13ifvqcn0","pricing_plan_id":"free"},{"bike_id":"1b158cbc-f43a-45cb-8d10-ca9994e83a0a","system_id":"levelo_inurba_marseille","lat":43.304606,"lon":5.379026,"is_reserved":false,"is_disabled":false,"rental_uris":{"android":"levelo://app?vid=1b158cbc-f43a-45cb-8d10-ca9994e83a0a","ios":"levelo://app?vid=1b158cbc-f43a-45cb-8d10-ca9994e83a0a"},"vehicle_type_id":"4","last_reported":1683965279,"current_range_meters":24800,"station_id":"ce4bgup2rcd13ifvqcn0","pricing_plan_id":"free"},{"bike_id":"06f6366e-3f49-4fb2-a3b1-353ce791950b","system_id":"levelo_inurba_marseille","lat":43.304606,"lon":5.379026,"is_reserved":false,"is_disabled":false,"rental_uris":{"android":"levelo://app?vid=06f6366e-3f49-4fb2-a3b1-353ce791950b","ios":"levelo://app?vid=06f6366e-3f49-4fb2-a3b1-353ce791950b"},"vehicle_type_id":"4","last_reported":1683965279,"current_range_meters":31600,"station_id":"ce4bgup2rcd13ifvqcn0","pricing_plan_id":"free"},{"bike_id":"793c250e-af9f-4886-92ae-d9a8ffeaec64","system_id":"levelo_inurba_marseille","lat":43.30457,"lon":5.3791,"is_reserved":false,"is_disabled":false,"rental_uris":{"android":"levelo://app?vid=793c250e-af9f-4886-92ae-d9a8ffeaec64","ios":"levelo://app?vid=793c250e-af9f-4886-92ae-d9a8ffeaec64"},"vehicle_type_id":"4","last_reported":1683965279,"current_range_meters":26800,"station_id":"ce4bgup2rcd13ifvqcn0","pricing_plan_id":"free"},{"bike_id":"7fd58bde-e9d0-4819-bf16-e0c722621005","system_id":"levelo_inurba_marseille","lat":43.30456,"lon":5.3791,"is_reserved":false,"is_disabled":false,"rental_uris":{"android":"levelo://app?vid=7fd58bde-e9d0-4819-bf16-e0c722621005","ios":"levelo://app?vid=7fd58bde-e9d0-4819-bf16-e0c722621005"},"vehicle_type_id":"4","last_reported":1683965279,"current_range_meters":17200,"station_id":"ce4bgup2rcd13ifvqcn0","pricing_plan_id":"free"},{"bike_id":"a9919a7c-fa63-407d-a888-bd34356b4720","system_id":"levelo_inurba_marseille","lat":43.313571,"lon":5.384829,"is_reserved":false,"is_disabled":false,"rental_uris":{"android":"levelo://app?vid=a9919a7c-fa63-407d-a888-bd34356b4720","ios":"levelo://app?vid=a9919a7c-fa63-407d-a888-bd34356b4720"},"vehicle_type_id":"4","last_reported":1683965279,"current_range_meters":20400,"station_id":"ce4bgt92rcd13ifvqcf0","pricing_plan_id":"free"},{"bike_id":"09b041e6-6074-4df7-a048-f6981c376cfd","system_id":"levelo_inurba_marseille","lat":43.31368,"lon":5.3852,"is_reserved":false,"is_disabled":false,"rental_uris":{"android":"levelo://app?vid=09b041e6-6074-4df7-a048-f6981c376cfd","ios":"levelo://app?vid=09b041e6-6074-4df7-a048-f6981c376cfd"},"vehicle_type_id":"4","last_reported":1683965279,"current_range_meters":18400,"station_id":"ce4bgt92rcd13ifvqcf0","pricing_plan_id":"free"},{"bike_id":"9a25bed5-be90-4b63-b3a8-a906ea42dc3d","system_id":"levelo_inurba_marseille","lat":43.298433,"lon":5.362774,"is_reserved":false,"is_disabled":false,"rental_uris":{"android":"levelo://app?vid=9a25bed5-be90-4b63-b3a8-a906ea42dc3d","ios":"levelo://app?vid=9a25bed5-be90-4b63-b3a8-a906ea42dc3d"},"vehicle_type_id":"4","last_reported":1683965279,"current_range_meters":27200,"station_id":"ce4bgpp2rcd13ifvqc3g","pricing_plan_id":"free"},{"bike_id":"8a045a03-ffde-4c85-a76d-ca90164a0aad","system_id":"levelo_inurba_marseille","lat":43.298433,"lon":5.362774,"is_reserved":false,"is_disabled":false,"rental_uris":{"android":"levelo://app?vid=8a045a03-ffde-4c85-a76d-ca90164a0aad","ios":"levelo://app?vid=8a045a03-ffde-4c85-a76d-ca90164a0aad"},"vehicle_type_id":"4","last_reported":1683965279,"current_range_meters":31600,"station_id":"ce4bgpp2rcd13ifvqc3g","pricing_plan_id":"free"},{"bike_id":"a5362201-9d55-47cc-b884-236feef600ed","system_id":"levelo_inurba_marseille","lat":43.298433,"lon":5.362774,"is_reserved":false,"is_disabled":false,"rental_uris":{"android":"levelo://app?vid=a5362201-9d55-47cc-b884-236feef600ed","ios":"levelo://app?vid=a5362201-9d55-47cc-b884-236feef600ed"},"vehicle_type_id":"4","last_reported":1683965279,"current_range_meters":23200,"station_id":"ce4bgpp2rcd13ifvqc3g","pricing_plan_id":"free"},{"bike_id":"391f8dd7-0f3a-4146-8736-d720741cd62b","system_id":"levelo_inurba_marseille","lat":43.305364,"lon":5.384119,"is_reserved":false,"is_disabled":false,"rental_uris":{"android":"levelo://app?vid=391f8dd7-0f3a-4146-8736-d720741cd62b","ios":"levelo://app?vid=391f8dd7-0f3a-4146-8736-d720741cd62b"},"vehicle_type_id":"4","last_reported":1683965279,"current_range_meters":20800,"station_id":"ce4bgg92rcd13ifvqb30","pricing_plan_id":"free"},{"bike_id":"50847303-5030-42c4-a6c3-9958d46c1e9e","system_id":"levelo_inurba_marseille","lat":43.298433,"lon":5.362774,"is_reserved":false,"is_disabled":false,"rental_uris":{"android":"levelo://app?vid=50847303-5030-42c4-a6c3-9958d46c1e9e","ios":"levelo://app?vid=50847303-5030-42c4-a6c3-9958d46c1e9e"},"vehicle_type_id":"4","last_reported":1683965279,"current_range_meters":22800,"station_id":"ce4bgpp2rcd13ifvqc3g","pricing_plan_id":"free"},{"bike_id":"09e9ee45-6249-482b-8ae6-e16dc0b6eb76","system_id":"levelo_inurba_marseille","lat":43.298433,"lon":5.362774,"is_reserved":false,"is_disabled":false,"rental_uris":{"android":"levelo://app?vid=09e9ee45-6249-482b-8ae6-e16dc0b6eb76","ios":"levelo://app?vid=09e9ee45-6249-482b-8ae6-e16dc0b6eb76"},"vehicle_type_id":"4","last_reported":1683965279,"current_range_meters":26000,"station_id":"ce4bgpp2rcd13ifvqc3g","pricing_plan_id":"free"},{"bike_id":"7cd2c118-8c0c-4cc3-9dd5-54b2dc0644ea","system_id":"levelo_inurba_marseille","lat":43.298433,"lon":5.362774,"is_reserved":false,"is_disabled":false,"rental_uris":{"android":"levelo://app?vid=7cd2c118-8c0c-4cc3-9dd5-54b2dc0644ea","ios":"levelo://app?vid=7cd2c118-8c0c-4cc3-9dd5-54b2dc0644ea"},"vehicle_type_id":"4","last_reported":1683965279,"current_range_meters":9200,"station_id":"ce4bgpp2rcd13ifvqc3g","pricing_plan_id":"free"},{"bike_id":"7321ca39-b466-4173-b743-8e2a180215ba","system_id":"levelo_inurba_marseille","lat":43.298433,"lon":5.362774,"is_reserved":false,"is_disabled":false,"rental_uris":{"android":"levelo://app?vid=7321ca39-b466-4173-b743-8e2a180215ba","ios":"levelo://app?vid=7321ca39-b466-4173-b743-8e2a180215ba"},"vehicle_type_id":"4","last_reported":1683965279,"current_range_meters":20800,"station_id":"ce4bgpp2rcd13ifvqc3g","pricing_plan_id":"free"},{"bike_id":"89023bbe-2daa-49ee-84fa-85cf631fd92e","system_id":"levelo_inurba_marseille","lat":43.298433,"lon":5.362774,"is_reserved":false,"is_disabled":false,"rental_uris":{"android":"levelo://app?vid=89023bbe-2daa-49ee-84fa-85cf631fd92e","ios":"levelo://app?vid=89023bbe-2daa-49ee-84fa-85cf631fd92e"},"vehicle_type_id":"4","last_reported":1683965279,"current_range_meters":31600,"station_id":"ce4bgpp2rcd13ifvqc3g","pricing_plan_id":"free"},{"bike_id":"868c18a7-1b45-4329-b5af-1fb35a84865f","system_id":"levelo_inurba_marseille","lat":43.298433,"lon":5.362774,"is_reserved":false,"is_disabled":false,"rental_uris":{"android":"levelo://app?vid=868c18a7-1b45-4329-b5af-1fb35a84865f","ios":"levelo://app?vid=868c18a7-1b45-4329-b5af-1fb35a84865f"},"vehicle_type_id":"4","last_reported":1683965279,"current_range_meters":14800,"station_id":"ce4bgpp2rcd13ifvqc3g","pricing_plan_id":"free"},{"bike_id":"a98742f9-5c83-4432-b37a-453987e478ef","system_id":"levelo_inurba_marseille","lat":43.298433,"lon":5.362774,"is_reserved":false,"is_disabled":false,"rental_uris":{"android":"levelo://app?vid=a98742f9-5c83-4432-b37a-453987e478ef","ios":"levelo://app?vid=a98742f9-5c83-4432-b37a-453987e478ef"},"vehicle_type_id":"4","last_reported":1683965279,"current_range_meters":28400,"station_id":"ce4bgpp2rcd13ifvqc3g","pricing_plan_id":"free"},{"bike_id":"383467fc-32d4-4010-9fa0-3d57a8263a21","system_id":"levelo_inurba_marseille","lat":43.299243,"lon":5.37481,"is_reserved":false,"is_disabled":false,"rental_uris":{"android":"levelo://app?vid=383467fc-32d4-4010-9fa0-3d57a8263a21","ios":"levelo://app?vid=383467fc-32d4-4010-9fa0-3d57a8263a21"},"vehicle_type_id":"4","last_reported":1683965279,"current_range_meters":29600,"station_id":"ce4bgjh2rcd13ifvqbg0","pricing_plan_id":"free"},{"bike_id":"5e5b2265-6fd2-4b91-b7a1-a035a5678ed6","system_id":"levelo_inurba_marseille","lat":43.311722,"lon":5.387247,"is_reserved":false,"is_disabled":false,"rental_uris":{"android":"levelo://app?vid=5e5b2265-6fd2-4b91-b7a1-a035a5678ed6","ios":"levelo://app?vid=5e5b2265-6fd2-4b91-b7a1-a035a5678ed6"},"vehicle_type_id":"4","last_reported":1683965279,"current_range_meters":28000,"station_id":"ce4bgv12rcd13ifvqcp0","pricing_plan_id":"free"},{"bike_id":"7e98b92e-9c86-4e9d-86c1-c77eb8ad8452","system_id":"levelo_inurba_marseille","lat":43.298433,"lon":5.362774,"is_reserved":false,"is_disabled":false,"rental_uris":{"android":"levelo://app?vid=7e98b92e-9c86-4e9d-86c1-c77eb8ad8452","ios":"levelo://app?vid=7e98b92e-9c86-4e9d-86c1-c77eb8ad8452"},"vehicle_type_id":"4","last_reported":1683965279,"current_range_meters":26000,"station_id":"ce4bgpp2rcd13ifvqc3g","pricing_plan_id":"free"},{"bike_id":"cbbfc8a8-ac8a-48ce-8cba-e5c11eaaa3b8","system_id":"levelo_inurba_marseille","lat":43.31181,"lon":5.38718,"is_reserved":false,"is_disabled":false,"rental_uris":{"android":"levelo://app?vid=cbbfc8a8-ac8a-48ce-8cba-e5c11eaaa3b8","ios":"levelo://app?vid=cbbfc8a8-ac8a-48ce-8cba-e5c11eaaa3b8"},"vehicle_type_id":"4","last_reported":1683965279,"current_range_meters":26800,"station_id":"ce4bgv12rcd13ifvqcp0","pricing_plan_id":"free"},{"bike_id":"fee73e19-117b-4620-bdd6-e3d2e0a7d994","system_id":"levelo_inurba_marseille","lat":43.298433,"lon":5.362774,"is_reserved":false,"is_disabled":false,"rental_uris":{"android":"levelo://app?vid=fee73e19-117b-4620-bdd6-e3d2e0a7d994","ios":"levelo://app?vid=fee73e19-117b-4620-bdd6-e3d2e0a7d994"},"vehicle_type_id":"4","last_reported":1683965279,"current_range_meters":30800,"station_id":"ce4bgpp2rcd13ifvqc3g","pricing_plan_id":"free"},{"bike_id":"2f96f4b7-d3f1-4b87-b98f-caf50ba6d13d","system_id":"levelo_inurba_marseille","lat":43.32772,"lon":5.36707,"is_reserved":false,"is_disabled":false,"rental_uris":{"android":"levelo://app?vid=2f96f4b7-d3f1-4b87-b98f-caf50ba6d13d","ios":"levelo://app?vid=2f96f4b7-d3f1-4b87-b98f-caf50ba6d13d"},"vehicle_type_id":"4","last_reported":1683965279,"current_range_meters":12800,"station_id":"","pricing_plan_id":"free"},{"bike_id":"0474487f-288e-4606-b7d4-e28d2ee99d8c","system_id":"levelo_inurba_marseille","lat":43.297794,"lon":5.370888,"is_reserved":false,"is_disabled":false,"rental_uris":{"android":"levelo://app?vid=0474487f-288e-4606-b7d4-e28d2ee99d8c","ios":"levelo://app?vid=0474487f-288e-4606-b7d4-e28d2ee99d8c"},"vehicle_type_id":"4","last_reported":1683965279,"current_range_meters":26000,"station_id":"ce4bgop2rcd13ifvqc1g","pricing_plan_id":"free"},{"bike_id":"7a070e52-967e-4cda-a050-dbf621e582d9","system_id":"levelo_inurba_marseille","lat":43.297774,"lon":5.370875,"is_reserved":false,"is_disabled":false,"rental_uris":{"android":"levelo://app?vid=7a070e52-967e-4cda-a050-dbf621e582d9","ios":"levelo://app?vid=7a070e52-967e-4cda-a050-dbf621e582d9"},"vehicle_type_id":"4","last_reported":1683965279,"current_range_meters":30000,"station_id":"ce4bgop2rcd13ifvqc1g","pricing_plan_id":"free"},{"bike_id":"8a568eaa-ccec-4bc4-91a5-8a121d190a5e","system_id":"levelo_inurba_marseille","lat":43.297794,"lon":5.370888,"is_reserved":false,"is_disabled":false,"rental_uris":{"android":"levelo://app?vid=8a568eaa-ccec-4bc4-91a5-8a121d190a5e","ios":"levelo://app?vid=8a568eaa-ccec-4bc4-91a5-8a121d190a5e"},"vehicle_type_id":"4","last_reported":1683965279,"current_range_meters":31200,"station_id":"ce4bgop2rcd13ifvqc1g","pricing_plan_id":"free"},{"bike_id":"86719306-0ddc-4576-a656-570a4d550f46","system_id":"levelo_inurba_marseille","lat":43.328371,"lon":5.366912,"is_reserved":false,"is_disabled":false,"rental_uris":{"android":"levelo://app?vid=86719306-0ddc-4576-a656-570a4d550f46","ios":"levelo://app?vid=86719306-0ddc-4576-a656-570a4d550f46"},"vehicle_type_id":"4","last_reported":1683965279,"current_range_meters":30000,"station_id":"ce4bhs92rcd13ifvqi0g","pricing_plan_id":"free"},{"bike_id":"0a5c6e50-cd6f-4800-a0e5-993347926bc8","system_id":"levelo_inurba_marseille","lat":43.328371,"lon":5.366912,"is_reserved":false,"is_disabled":false,"rental_uris":{"android":"levelo://app?vid=0a5c6e50-cd6f-4800-a0e5-993347926bc8","ios":"levelo://app?vid=0a5c6e50-cd6f-4800-a0e5-993347926bc8"},"vehicle_type_id":"4","last_reported":1683965279,"current_range_meters":12800,"station_id":"ce4bhs92rcd13ifvqi0g","pricing_plan_id":"free"},{"bike_id":"05dd3660-fb8d-4649-b95f-77a48f876534","system_id":"levelo_inurba_marseille","lat":43.32831,"lon":5.36692,"is_reserved":false,"is_disabled":false,"rental_uris":{"android":"levelo://app?vid=05dd3660-fb8d-4649-b95f-77a48f876534","ios":"levelo://app?vid=05dd3660-fb8d-4649-b95f-77a48f876534"},"vehicle_type_id":"4","last_reported":1683965279,"current_range_meters":3600,"station_id":"ce4bhs92rcd13ifvqi0g","pricing_plan_id":"free"},{"bike_id":"d2fd4a69-1781-4d10-b230-5796d7806c38","system_id":"levelo_inurba_marseille","lat":43.328371,"lon":5.366912,"is_reserved":false,"is_disabled":false,"rental_uris":{"android":"levelo://app?vid=d2fd4a69-1781-4d10-b230-5796d7806c38","ios":"levelo://app?vid=d2fd4a69-1781-4d10-b230-5796d7806c38"},"vehicle_type_id":"4","last_reported":1683965279,"current_range_meters":2800,"station_id":"ce4bhs92rcd13ifvqi0g","pricing_plan_id":"free"},{"bike_id":"2f534b25-3d76-4ad4-bcb9-91101064834c","system_id":"levelo_inurba_marseille","lat":43.328371,"lon":5.366912,"is_reserved":false,"is_disabled":false,"rental_uris":{"android":"levelo://app?vid=2f534b25-3d76-4ad4-bcb9-91101064834c","ios":"levelo://app?vid=2f534b25-3d76-4ad4-bcb9-91101064834c"},"vehicle_type_id":"4","last_reported":1683965279,"current_range_meters":19200,"station_id":"ce4bhs92rcd13ifvqi0g","pricing_plan_id":"free"},{"bike_id":"173c35b5-642e-4cd5-9a42-cf3fc117f00c","system_id":"levelo_inurba_marseille","lat":43.328371,"lon":5.366912,"is_reserved":false,"is_disabled":false,"rental_uris":{"android":"levelo://app?vid=173c35b5-642e-4cd5-9a42-cf3fc117f00c","ios":"levelo://app?vid=173c35b5-642e-4cd5-9a42-cf3fc117f00c"},"vehicle_type_id":"4","last_reported":1683965279,"current_range_meters":19200,"station_id":"ce4bhs92rcd13ifvqi0g","pricing_plan_id":"free"},{"bike_id":"35c64b45-67cb-4db8-8dde-84eb3cae14a9","system_id":"levelo_inurba_marseille","lat":43.328371,"lon":5.366912,"is_reserved":false,"is_disabled":false,"rental_uris":{"android":"levelo://app?vid=35c64b45-67cb-4db8-8dde-84eb3cae14a9","ios":"levelo://app?vid=35c64b45-67cb-4db8-8dde-84eb3cae14a9"},"vehicle_type_id":"4","last_reported":1683965279,"current_range_meters":29600,"station_id":"ce4bhs92rcd13ifvqi0g","pricing_plan_id":"free"},{"bike_id":"053fa0fe-d0b8-4b77-9e9a-95a5b916daf2","system_id":"levelo_inurba_marseille","lat":43.328371,"lon":5.366912,"is_reserved":false,"is_disabled":false,"rental_uris":{"android":"levelo://app?vid=053fa0fe-d0b8-4b77-9e9a-95a5b916daf2","ios":"levelo://app?vid=053fa0fe-d0b8-4b77-9e9a-95a5b916daf2"},"vehicle_type_id":"4","last_reported":1683965279,"current_range_meters":1200,"station_id":"ce4bhs92rcd13ifvqi0g","pricing_plan_id":"free"},{"bike_id":"8ea15e6b-0302-4f6b-a369-2130aebae5f9","system_id":"levelo_inurba_marseille","lat":43.328371,"lon":5.366912,"is_reserved":false,"is_disabled":false,"rental_uris":{"android":"levelo://app?vid=8ea15e6b-0302-4f6b-a369-2130aebae5f9","ios":"levelo://app?vid=8ea15e6b-0302-4f6b-a369-2130aebae5f9"},"vehicle_type_id":"4","last_reported":1683965279,"current_range_meters":13600,"station_id":"ce4bhs92rcd13ifvqi0g","pricing_plan_id":"free"},{"bike_id":"2ede4aa6-cb68-4708-8adb-810b72dccf8e","system_id":"levelo_inurba_marseille","lat":43.328371,"lon":5.366912,"is_reserved":false,"is_disabled":false,"rental_uris":{"android":"levelo://app?vid=2ede4aa6-cb68-4708-8adb-810b72dccf8e","ios":"levelo://app?vid=2ede4aa6-cb68-4708-8adb-810b72dccf8e"},"vehicle_type_id":"4","last_reported":1683965279,"current_range_meters":6000,"station_id":"ce4bhs92rcd13ifvqi0g","pricing_plan_id":"free"},{"bike_id":"4e8d495f-48a2-4a59-a0a4-e2a0bd5ad11a","system_id":"levelo_inurba_marseille","lat":43.328371,"lon":5.366912,"is_reserved":false,"is_disabled":false,"rental_uris":{"android":"levelo://app?vid=4e8d495f-48a2-4a59-a0a4-e2a0bd5ad11a","ios":"levelo://app?vid=4e8d495f-48a2-4a59-a0a4-e2a0bd5ad11a"},"vehicle_type_id":"4","last_reported":1683965279,"current_range_meters":0,"station_id":"ce4bhs92rcd13ifvqi0g","pricing_plan_id":"free"},{"bike_id":"de56bbc2-32d1-451d-a1fa-b91eab2f6b60","system_id":"levelo_inurba_marseille","lat":43.296129,"lon":5.370777,"is_reserved":false,"is_disabled":false,"rental_uris":{"android":"levelo://app?vid=de56bbc2-32d1-451d-a1fa-b91eab2f6b60","ios":"levelo://app?vid=de56bbc2-32d1-451d-a1fa-b91eab2f6b60"},"vehicle_type_id":"4","last_reported":1683965279,"current_range_meters":31200,"station_id":"ce4bgnh2rcd13ifvqc0g","pricing_plan_id":"free"},{"bike_id":"a061142e-9950-4692-acc5-6e5562925736","system_id":"levelo_inurba_marseille","lat":43.296131,"lon":5.370791,"is_reserved":false,"is_disabled":false,"rental_uris":{"android":"levelo://app?vid=a061142e-9950-4692-acc5-6e5562925736","ios":"levelo://app?vid=a061142e-9950-4692-acc5-6e5562925736"},"vehicle_type_id":"4","last_reported":1683965279,"current_range_meters":10400,"station_id":"ce4bgnh2rcd13ifvqc0g","pricing_plan_id":"free"},{"bike_id":"be57e6c2-d6e6-45e5-9375-20c4a5424a86","system_id":"levelo_inurba_marseille","lat":43.296131,"lon":5.370791,"is_reserved":false,"is_disabled":false,"rental_uris":{"android":"levelo://app?vid=be57e6c2-d6e6-45e5-9375-20c4a5424a86","ios":"levelo://app?vid=be57e6c2-d6e6-45e5-9375-20c4a5424a86"},"vehicle_type_id":"4","last_reported":1683965279,"current_range_meters":17600,"station_id":"ce4bgnh2rcd13ifvqc0g","pricing_plan_id":"free"},{"bike_id":"dfef0405-fcde-45ca-9222-d18987efe171","system_id":"levelo_inurba_marseille","lat":43.296129,"lon":5.370777,"is_reserved":false,"is_disabled":false,"rental_uris":{"android":"levelo://app?vid=dfef0405-fcde-45ca-9222-d18987efe171","ios":"levelo://app?vid=dfef0405-fcde-45ca-9222-d18987efe171"},"vehicle_type_id":"4","last_reported":1683965279,"current_range_meters":31200,"station_id":"ce4bgnh2rcd13ifvqc0g","pricing_plan_id":"free"},{"bike_id":"b015041f-0470-42a7-b639-da2471314936","system_id":"levelo_inurba_marseille","lat":43.29573,"lon":5.367355,"is_reserved":false,"is_disabled":false,"rental_uris":{"android":"levelo://app?vid=b015041f-0470-42a7-b639-da2471314936","ios":"levelo://app?vid=b015041f-0470-42a7-b639-da2471314936"},"vehicle_type_id":"4","last_reported":1683965279,"current_range_meters":30000,"station_id":"ce4bgph2rcd13ifvqc2g","pricing_plan_id":"free"},{"bike_id":"39a531c8-e39f-4a7a-b265-611f74a9ae6e","system_id":"levelo_inurba_marseille","lat":43.29573,"lon":5.367355,"is_reserved":false,"is_disabled":false,"rental_uris":{"android":"levelo://app?vid=39a531c8-e39f-4a7a-b265-611f74a9ae6e","ios":"levelo://app?vid=39a531c8-e39f-4a7a-b265-611f74a9ae6e"},"vehicle_type_id":"4","last_reported":1683965279,"current_range_meters":28400,"station_id":"ce4bgph2rcd13ifvqc2g","pricing_plan_id":"free"},{"bike_id":"e62a4019-15e5-4aa8-ac87-39c5d1aaa8ba","system_id":"levelo_inurba_marseille","lat":43.30007,"lon":5.38276,"is_reserved":false,"is_disabled":false,"rental_uris":{"android":"levelo://app?vid=e62a4019-15e5-4aa8-ac87-39c5d1aaa8ba","ios":"levelo://app?vid=e62a4019-15e5-4aa8-ac87-39c5d1aaa8ba"},"vehicle_type_id":"4","last_reported":1683965279,"current_range_meters":800,"station_id":"","pricing_plan_id":"free"},{"bike_id":"a93ad0ef-5697-4a59-8fb3-6a718ea4359c","system_id":"levelo_inurba_marseille","lat":43.299028,"lon":5.381509,"is_reserved":false,"is_disabled":false,"rental_uris":{"android":"levelo://app?vid=a93ad0ef-5697-4a59-8fb3-6a718ea4359c","ios":"levelo://app?vid=a93ad0ef-5697-4a59-8fb3-6a718ea4359c"},"vehicle_type_id":"4","last_reported":1683965279,"current_range_meters":31200,"station_id":"ce4bgj12rcd13ifvqbc0","pricing_plan_id":"free"},{"bike_id":"4575b7ac-e9a8-4cc0-a77a-7d893f503fcb","system_id":"levelo_inurba_marseille","lat":43.29715,"lon":5.37701,"is_reserved":false,"is_disabled":false,"rental_uris":{"android":"levelo://app?vid=4575b7ac-e9a8-4cc0-a77a-7d893f503fcb","ios":"levelo://app?vid=4575b7ac-e9a8-4cc0-a77a-7d893f503fcb"},"vehicle_type_id":"4","last_reported":1683965279,"current_range_meters":29200,"station_id":"","pricing_plan_id":"free"},{"bike_id":"9b7a0054-8952-4401-8e15-1a6c41f18385","system_id":"levelo_inurba_marseille","lat":43.299028,"lon":5.381509,"is_reserved":false,"is_disabled":false,"rental_uris":{"android":"levelo://app?vid=9b7a0054-8952-4401-8e15-1a6c41f18385","ios":"levelo://app?vid=9b7a0054-8952-4401-8e15-1a6c41f18385"},"vehicle_type_id":"4","last_reported":1683965279,"current_range_meters":20400,"station_id":"ce4bgj12rcd13ifvqbc0","pricing_plan_id":"free"},{"bike_id":"0e1db9eb-d9e5-414d-9e29-1b88a5183e0e","system_id":"levelo_inurba_marseille","lat":43.296921,"lon":5.376579,"is_reserved":false,"is_disabled":false,"rental_uris":{"android":"levelo://app?vid=0e1db9eb-d9e5-414d-9e29-1b88a5183e0e","ios":"levelo://app?vid=0e1db9eb-d9e5-414d-9e29-1b88a5183e0e"},"vehicle_type_id":"4","last_reported":1683965279,"current_range_meters":31200,"station_id":"ce4bgkh2rcd13ifvqbl0","pricing_plan_id":"free"},{"bike_id":"51537b7f-63fb-4329-8f4c-b7e3d331bba8","system_id":"levelo_inurba_marseille","lat":43.299028,"lon":5.381509,"is_reserved":false,"is_disabled":false,"rental_uris":{"android":"levelo://app?vid=51537b7f-63fb-4329-8f4c-b7e3d331bba8","ios":"levelo://app?vid=51537b7f-63fb-4329-8f4c-b7e3d331bba8"},"vehicle_type_id":"4","last_reported":1683965279,"current_range_meters":16400,"station_id":"ce4bgj12rcd13ifvqbc0","pricing_plan_id":"free"},{"bike_id":"1a48ef19-a9e2-4199-b1b9-f774daf86e65","system_id":"levelo_inurba_marseille","lat":43.299028,"lon":5.381509,"is_reserved":false,"is_disabled":false,"rental_uris":{"android":"levelo://app?vid=1a48ef19-a9e2-4199-b1b9-f774daf86e65","ios":"levelo://app?vid=1a48ef19-a9e2-4199-b1b9-f774daf86e65"},"vehicle_type_id":"4","last_reported":1683965279,"current_range_meters":25200,"station_id":"ce4bgj12rcd13ifvqbc0","pricing_plan_id":"free"},{"bike_id":"32cce5c0-f1c9-4b38-bbed-e9f339fffc0b","system_id":"levelo_inurba_marseille","lat":43.299028,"lon":5.381509,"is_reserved":false,"is_disabled":false,"rental_uris":{"android":"levelo://app?vid=32cce5c0-f1c9-4b38-bbed-e9f339fffc0b","ios":"levelo://app?vid=32cce5c0-f1c9-4b38-bbed-e9f339fffc0b"},"vehicle_type_id":"4","last_reported":1683965279,"current_range_meters":26800,"station_id":"ce4bgj12rcd13ifvqbc0","pricing_plan_id":"free"},{"bike_id":"c142236f-616e-464a-8a6a-22c0e0945ddb","system_id":"levelo_inurba_marseille","lat":43.296921,"lon":5.376579,"is_reserved":false,"is_disabled":false,"rental_uris":{"android":"levelo://app?vid=c142236f-616e-464a-8a6a-22c0e0945ddb","ios":"levelo://app?vid=c142236f-616e-464a-8a6a-22c0e0945ddb"},"vehicle_type_id":"4","last_reported":1683965279,"current_range_meters":29600,"station_id":"ce4bgkh2rcd13ifvqbl0","pricing_plan_id":"free"},{"bike_id":"73c2808e-6983-4817-9d81-6d9754cbe3fb","system_id":"levelo_inurba_marseille","lat":43.309589,"lon":5.390258,"is_reserved":false,"is_disabled":false,"rental_uris":{"android":"levelo://app?vid=73c2808e-6983-4817-9d81-6d9754cbe3fb","ios":"levelo://app?vid=73c2808e-6983-4817-9d81-6d9754cbe3fb"},"vehicle_type_id":"4","last_reported":1683965279,"current_range_meters":30400,"station_id":"ce4bgup2rcd13ifvqco0","pricing_plan_id":"free"},{"bike_id":"e5aac9f4-7bf8-4b66-83fb-360eab9a195a","system_id":"levelo_inurba_marseille","lat":43.309589,"lon":5.390258,"is_reserved":false,"is_disabled":false,"rental_uris":{"android":"levelo://app?vid=e5aac9f4-7bf8-4b66-83fb-360eab9a195a","ios":"levelo://app?vid=e5aac9f4-7bf8-4b66-83fb-360eab9a195a"},"vehicle_type_id":"4","last_reported":1683965279,"current_range_meters":27600,"station_id":"ce4bgup2rcd13ifvqco0","pricing_plan_id":"free"},{"bike_id":"316d6e8b-366e-4c80-b7c0-8f2d0f1dc835","system_id":"levelo_inurba_marseille","lat":43.309589,"lon":5.390258,"is_reserved":false,"is_disabled":false,"rental_uris":{"android":"levelo://app?vid=316d6e8b-366e-4c80-b7c0-8f2d0f1dc835","ios":"levelo://app?vid=316d6e8b-366e-4c80-b7c0-8f2d0f1dc835"},"vehicle_type_id":"4","last_reported":1683965279,"current_range_meters":31600,"station_id":"ce4bgup2rcd13ifvqco0","pricing_plan_id":"free"},{"bike_id":"002d39e0-544e-450b-b6e2-5fab2746121e","system_id":"levelo_inurba_marseille","lat":43.309589,"lon":5.390258,"is_reserved":false,"is_disabled":false,"rental_uris":{"android":"levelo://app?vid=002d39e0-544e-450b-b6e2-5fab2746121e","ios":"levelo://app?vid=002d39e0-544e-450b-b6e2-5fab2746121e"},"vehicle_type_id":"4","last_reported":1683965279,"current_range_meters":29200,"station_id":"ce4bgup2rcd13ifvqco0","pricing_plan_id":"free"},{"bike_id":"7e101d88-7926-4513-a08a-b2a6fdb92c65","system_id":"levelo_inurba_marseille","lat":43.31761,"lon":5.39012,"is_reserved":false,"is_disabled":false,"rental_uris":{"android":"levelo://app?vid=7e101d88-7926-4513-a08a-b2a6fdb92c65","ios":"levelo://app?vid=7e101d88-7926-4513-a08a-b2a6fdb92c65"},"vehicle_type_id":"4","last_reported":1683965279,"current_range_meters":30800,"station_id":"ce4bhqp2rcd13ifvqhng","pricing_plan_id":"free"},{"bike_id":"eb214527-8203-4410-a520-f2f2d1c67bb7","system_id":"levelo_inurba_marseille","lat":43.317557,"lon":5.390173,"is_reserved":false,"is_disabled":false,"rental_uris":{"android":"levelo://app?vid=eb214527-8203-4410-a520-f2f2d1c67bb7","ios":"levelo://app?vid=eb214527-8203-4410-a520-f2f2d1c67bb7"},"vehicle_type_id":"4","last_reported":1683965279,"current_range_meters":12800,"station_id":"ce4bhqp2rcd13ifvqhng","pricing_plan_id":"free"},{"bike_id":"0fc58f57-9b97-43fd-bf85-095790cf2e1a","system_id":"levelo_inurba_marseille","lat":43.299028,"lon":5.381509,"is_reserved":false,"is_disabled":false,"rental_uris":{"android":"levelo://app?vid=0fc58f57-9b97-43fd-bf85-095790cf2e1a","ios":"levelo://app?vid=0fc58f57-9b97-43fd-bf85-095790cf2e1a"},"vehicle_type_id":"4","last_reported":1683965279,"current_range_meters":800,"station_id":"ce4bgj12rcd13ifvqbc0","pricing_plan_id":"free"},{"bike_id":"80b60f6f-28ee-4635-a30c-377c46bb9c86","system_id":"levelo_inurba_marseille","lat":43.317557,"lon":5.390173,"is_reserved":false,"is_disabled":false,"rental_uris":{"android":"levelo://app?vid=80b60f6f-28ee-4635-a30c-377c46bb9c86","ios":"levelo://app?vid=80b60f6f-28ee-4635-a30c-377c46bb9c86"},"vehicle_type_id":"4","last_reported":1683965279,"current_range_meters":17600,"station_id":"ce4bhqp2rcd13ifvqhng","pricing_plan_id":"free"},{"bike_id":"1b8e8455-d974-44bb-9a4e-7e7867c76231","system_id":"levelo_inurba_marseille","lat":43.31751,"lon":5.3902,"is_reserved":false,"is_disabled":false,"rental_uris":{"android":"levelo://app?vid=1b8e8455-d974-44bb-9a4e-7e7867c76231","ios":"levelo://app?vid=1b8e8455-d974-44bb-9a4e-7e7867c76231"},"vehicle_type_id":"4","last_reported":1683965279,"current_range_meters":18800,"station_id":"ce4bhqp2rcd13ifvqhng","pricing_plan_id":"free"},{"bike_id":"ebb64d41-4b06-49bb-a55c-b83574a6111f","system_id":"levelo_inurba_marseille","lat":43.3176,"lon":5.39017,"is_reserved":false,"is_disabled":false,"rental_uris":{"android":"levelo://app?vid=ebb64d41-4b06-49bb-a55c-b83574a6111f","ios":"levelo://app?vid=ebb64d41-4b06-49bb-a55c-b83574a6111f"},"vehicle_type_id":"4","last_reported":1683965279,"current_range_meters":5200,"station_id":"ce4bhqp2rcd13ifvqhng","pricing_plan_id":"free"},{"bike_id":"a1c564bc-7833-41f9-a7ef-52015e433698","system_id":"levelo_inurba_marseille","lat":43.31759,"lon":5.39018,"is_reserved":false,"is_disabled":false,"rental_uris":{"android":"levelo://app?vid=a1c564bc-7833-41f9-a7ef-52015e433698","ios":"levelo://app?vid=a1c564bc-7833-41f9-a7ef-52015e433698"},"vehicle_type_id":"4","last_reported":1683965279,"current_range_meters":0,"station_id":"ce4bhqp2rcd13ifvqhng","pricing_plan_id":"free"},{"bike_id":"01208a13-824a-4a94-be8d-2a48a5b6b683","system_id":"levelo_inurba_marseille","lat":43.31754,"lon":5.3902,"is_reserved":false,"is_disabled":false,"rental_uris":{"android":"levelo://app?vid=01208a13-824a-4a94-be8d-2a48a5b6b683","ios":"levelo://app?vid=01208a13-824a-4a94-be8d-2a48a5b6b683"},"vehicle_type_id":"4","last_reported":1683965279,"current_range_meters":10000,"station_id":"ce4bhqp2rcd13ifvqhng","pricing_plan_id":"free"},{"bike_id":"8d249c4e-5841-43df-a8c1-1ee71a14ff90","system_id":"levelo_inurba_marseille","lat":43.31784,"lon":5.39018,"is_reserved":false,"is_disabled":false,"rental_uris":{"android":"levelo://app?vid=8d249c4e-5841-43df-a8c1-1ee71a14ff90","ios":"levelo://app?vid=8d249c4e-5841-43df-a8c1-1ee71a14ff90"},"vehicle_type_id":"4","last_reported":1683965279,"current_range_meters":30400,"station_id":"ce4bhqp2rcd13ifvqhng","pricing_plan_id":"free"},{"bike_id":"365ac165-9ca8-49ef-910d-07364fc9a104","system_id":"levelo_inurba_marseille","lat":43.298037,"lon":5.381066,"is_reserved":false,"is_disabled":false,"rental_uris":{"android":"levelo://app?vid=365ac165-9ca8-49ef-910d-07364fc9a104","ios":"levelo://app?vid=365ac165-9ca8-49ef-910d-07364fc9a104"},"vehicle_type_id":"4","last_reported":1683965279,"current_range_meters":31600,"station_id":"ce4bgip2rcd13ifvqbb0","pricing_plan_id":"free"},{"bike_id":"fada3c0c-3338-4c4f-9e02-137314a02e29","system_id":"levelo_inurba_marseille","lat":43.298037,"lon":5.381066,"is_reserved":false,"is_disabled":false,"rental_uris":{"android":"levelo://app?vid=fada3c0c-3338-4c4f-9e02-137314a02e29","ios":"levelo://app?vid=fada3c0c-3338-4c4f-9e02-137314a02e29"},"vehicle_type_id":"4","last_reported":1683965279,"current_range_meters":27200,"station_id":"ce4bgip2rcd13ifvqbb0","pricing_plan_id":"free"},{"bike_id":"2769183c-671f-4ce4-9ab5-273785762595","system_id":"levelo_inurba_marseille","lat":43.298037,"lon":5.381066,"is_reserved":false,"is_disabled":false,"rental_uris":{"android":"levelo://app?vid=2769183c-671f-4ce4-9ab5-273785762595","ios":"levelo://app?vid=2769183c-671f-4ce4-9ab5-273785762595"},"vehicle_type_id":"4","last_reported":1683965279,"current_range_meters":19600,"station_id":"ce4bgip2rcd13ifvqbb0","pricing_plan_id":"free"},{"bike_id":"0779af64-00f5-46ad-8401-22dd5c02f6aa","system_id":"levelo_inurba_marseille","lat":43.298037,"lon":5.381066,"is_reserved":false,"is_disabled":false,"rental_uris":{"android":"levelo://app?vid=0779af64-00f5-46ad-8401-22dd5c02f6aa","ios":"levelo://app?vid=0779af64-00f5-46ad-8401-22dd5c02f6aa"},"vehicle_type_id":"4","last_reported":1683965279,"current_range_meters":21600,"station_id":"ce4bgip2rcd13ifvqbb0","pricing_plan_id":"free"},{"bike_id":"9a8f4c95-ba30-49ff-9ce9-5c6c5f83fb12","system_id":"levelo_inurba_marseille","lat":43.29807,"lon":5.381016,"is_reserved":false,"is_disabled":false,"rental_uris":{"android":"levelo://app?vid=9a8f4c95-ba30-49ff-9ce9-5c6c5f83fb12","ios":"levelo://app?vid=9a8f4c95-ba30-49ff-9ce9-5c6c5f83fb12"},"vehicle_type_id":"4","last_reported":1683965279,"current_range_meters":26400,"station_id":"","pricing_plan_id":"free"},{"bike_id":"cc648482-bfc0-4d88-bc5b-3e771f49f350","system_id":"levelo_inurba_marseille","lat":43.298037,"lon":5.381066,"is_reserved":false,"is_disabled":false,"rental_uris":{"android":"levelo://app?vid=cc648482-bfc0-4d88-bc5b-3e771f49f350","ios":"levelo://app?vid=cc648482-bfc0-4d88-bc5b-3e771f49f350"},"vehicle_type_id":"4","last_reported":1683965279,"current_range_meters":32000,"station_id":"ce4bgip2rcd13ifvqbb0","pricing_plan_id":"free"},{"bike_id":"fd9c8c61-5744-4376-8e49-1808e8a65cfa","system_id":"levelo_inurba_marseille","lat":43.298037,"lon":5.381066,"is_reserved":false,"is_disabled":false,"rental_uris":{"android":"levelo://app?vid=fd9c8c61-5744-4376-8e49-1808e8a65cfa","ios":"levelo://app?vid=fd9c8c61-5744-4376-8e49-1808e8a65cfa"},"vehicle_type_id":"4","last_reported":1683965279,"current_range_meters":17600,"station_id":"ce4bgip2rcd13ifvqbb0","pricing_plan_id":"free"},{"bike_id":"9a1266e1-7f83-4fd8-bded-ddce5176bb36","system_id":"levelo_inurba_marseille","lat":43.298037,"lon":5.381066,"is_reserved":false,"is_disabled":false,"rental_uris":{"android":"levelo://app?vid=9a1266e1-7f83-4fd8-bded-ddce5176bb36","ios":"levelo://app?vid=9a1266e1-7f83-4fd8-bded-ddce5176bb36"},"vehicle_type_id":"4","last_reported":1683965279,"current_range_meters":28800,"station_id":"ce4bgip2rcd13ifvqbb0","pricing_plan_id":"free"},{"bike_id":"2467f5a6-40fb-4e98-b640-742f6f697862","system_id":"levelo_inurba_marseille","lat":43.298037,"lon":5.381066,"is_reserved":false,"is_disabled":false,"rental_uris":{"android":"levelo://app?vid=2467f5a6-40fb-4e98-b640-742f6f697862","ios":"levelo://app?vid=2467f5a6-40fb-4e98-b640-742f6f697862"},"vehicle_type_id":"4","last_reported":1683965279,"current_range_meters":28400,"station_id":"ce4bgip2rcd13ifvqbb0","pricing_plan_id":"free"},{"bike_id":"b2e5f890-917b-425c-a619-9cd484dc5b1c","system_id":"levelo_inurba_marseille","lat":43.298037,"lon":5.381066,"is_reserved":false,"is_disabled":false,"rental_uris":{"android":"levelo://app?vid=b2e5f890-917b-425c-a619-9cd484dc5b1c","ios":"levelo://app?vid=b2e5f890-917b-425c-a619-9cd484dc5b1c"},"vehicle_type_id":"4","last_reported":1683965279,"current_range_meters":28800,"station_id":"ce4bgip2rcd13ifvqbb0","pricing_plan_id":"free"},{"bike_id":"d4d6abed-d344-4940-9631-3cc0352bd86c","system_id":"levelo_inurba_marseille","lat":43.29797,"lon":5.38095,"is_reserved":false,"is_disabled":false,"rental_uris":{"android":"levelo://app?vid=d4d6abed-d344-4940-9631-3cc0352bd86c","ios":"levelo://app?vid=d4d6abed-d344-4940-9631-3cc0352bd86c"},"vehicle_type_id":"4","last_reported":1683965279,"current_range_meters":5200,"station_id":"ce4bgip2rcd13ifvqbb0","pricing_plan_id":"free"},{"bike_id":"07b82013-5a8c-4469-af63-a79bbf8e27d2","system_id":"levelo_inurba_marseille","lat":43.298037,"lon":5.381066,"is_reserved":false,"is_disabled":false,"rental_uris":{"android":"levelo://app?vid=07b82013-5a8c-4469-af63-a79bbf8e27d2","ios":"levelo://app?vid=07b82013-5a8c-4469-af63-a79bbf8e27d2"},"vehicle_type_id":"4","last_reported":1683965279,"current_range_meters":25600,"station_id":"ce4bgip2rcd13ifvqbb0","pricing_plan_id":"free"},{"bike_id":"84e745b6-8978-44e1-9a14-9d53f97b2bcf","system_id":"levelo_inurba_marseille","lat":43.29795,"lon":5.38092,"is_reserved":false,"is_disabled":false,"rental_uris":{"android":"levelo://app?vid=84e745b6-8978-44e1-9a14-9d53f97b2bcf","ios":"levelo://app?vid=84e745b6-8978-44e1-9a14-9d53f97b2bcf"},"vehicle_type_id":"4","last_reported":1683965279,"current_range_meters":15600,"station_id":"ce4bgip2rcd13ifvqbb0","pricing_plan_id":"free"},{"bike_id":"82b33690-8674-4d6c-9d03-1a4e05890060","system_id":"levelo_inurba_marseille","lat":43.298037,"lon":5.381066,"is_reserved":false,"is_disabled":false,"rental_uris":{"android":"levelo://app?vid=82b33690-8674-4d6c-9d03-1a4e05890060","ios":"levelo://app?vid=82b33690-8674-4d6c-9d03-1a4e05890060"},"vehicle_type_id":"4","last_reported":1683965279,"current_range_meters":31200,"station_id":"ce4bgip2rcd13ifvqbb0","pricing_plan_id":"free"},{"bike_id":"9be31a47-feae-446f-9726-0edbe80b9143","system_id":"levelo_inurba_marseille","lat":43.298037,"lon":5.381066,"is_reserved":false,"is_disabled":false,"rental_uris":{"android":"levelo://app?vid=9be31a47-feae-446f-9726-0edbe80b9143","ios":"levelo://app?vid=9be31a47-feae-446f-9726-0edbe80b9143"},"vehicle_type_id":"4","last_reported":1683965279,"current_range_meters":30800,"station_id":"ce4bgip2rcd13ifvqbb0","pricing_plan_id":"free"},{"bike_id":"2d307ada-4c07-41b7-ae76-b6e3ef73a421","system_id":"levelo_inurba_marseille","lat":43.298037,"lon":5.381066,"is_reserved":false,"is_disabled":false,"rental_uris":{"android":"levelo://app?vid=2d307ada-4c07-41b7-ae76-b6e3ef73a421","ios":"levelo://app?vid=2d307ada-4c07-41b7-ae76-b6e3ef73a421"},"vehicle_type_id":"4","last_reported":1683965279,"current_range_meters":26000,"station_id":"ce4bgip2rcd13ifvqbb0","pricing_plan_id":"free"},{"bike_id":"bdb9da33-352e-43fb-be75-a6e3afc205a8","system_id":"levelo_inurba_marseille","lat":43.295748,"lon":5.37522,"is_reserved":false,"is_disabled":false,"rental_uris":{"android":"levelo://app?vid=bdb9da33-352e-43fb-be75-a6e3afc205a8","ios":"levelo://app?vid=bdb9da33-352e-43fb-be75-a6e3afc205a8"},"vehicle_type_id":"4","last_reported":1683965279,"current_range_meters":25200,"station_id":"ce4bgh92rcd13ifvqb50","pricing_plan_id":"free"},{"bike_id":"eca97663-b98f-46ba-a6c1-fba285384a13","system_id":"levelo_inurba_marseille","lat":43.298037,"lon":5.381066,"is_reserved":false,"is_disabled":false,"rental_uris":{"android":"levelo://app?vid=eca97663-b98f-46ba-a6c1-fba285384a13","ios":"levelo://app?vid=eca97663-b98f-46ba-a6c1-fba285384a13"},"vehicle_type_id":"4","last_reported":1683965279,"current_range_meters":17200,"station_id":"ce4bgip2rcd13ifvqbb0","pricing_plan_id":"free"},{"bike_id":"a0a02c1b-5016-442b-b951-87f9d87ae102","system_id":"levelo_inurba_marseille","lat":43.304278,"lon":5.388868,"is_reserved":false,"is_disabled":false,"rental_uris":{"android":"levelo://app?vid=a0a02c1b-5016-442b-b951-87f9d87ae102","ios":"levelo://app?vid=a0a02c1b-5016-442b-b951-87f9d87ae102"},"vehicle_type_id":"4","last_reported":1683965279,"current_range_meters":14000,"station_id":"ce4bgk12rcd13ifvqbi0","pricing_plan_id":"free"},{"bike_id":"a1928829-9c98-40cb-ad1d-6152932c35da","system_id":"levelo_inurba_marseille","lat":43.298037,"lon":5.381066,"is_reserved":false,"is_disabled":false,"rental_uris":{"android":"levelo://app?vid=a1928829-9c98-40cb-ad1d-6152932c35da","ios":"levelo://app?vid=a1928829-9c98-40cb-ad1d-6152932c35da"},"vehicle_type_id":"4","last_reported":1683965279,"current_range_meters":17200,"station_id":"ce4bgip2rcd13ifvqbb0","pricing_plan_id":"free"},{"bike_id":"291aa194-49a8-4465-809a-3d7a84efde78","system_id":"levelo_inurba_marseille","lat":43.295748,"lon":5.37522,"is_reserved":false,"is_disabled":false,"rental_uris":{"android":"levelo://app?vid=291aa194-49a8-4465-809a-3d7a84efde78","ios":"levelo://app?vid=291aa194-49a8-4465-809a-3d7a84efde78"},"vehicle_type_id":"4","last_reported":1683965279,"current_range_meters":30000,"station_id":"ce4bgh92rcd13ifvqb50","pricing_plan_id":"free"},{"bike_id":"3f46f6b3-5ca4-4fa0-bdc9-0f02d28530ba","system_id":"levelo_inurba_marseille","lat":43.298037,"lon":5.381066,"is_reserved":false,"is_disabled":false,"rental_uris":{"android":"levelo://app?vid=3f46f6b3-5ca4-4fa0-bdc9-0f02d28530ba","ios":"levelo://app?vid=3f46f6b3-5ca4-4fa0-bdc9-0f02d28530ba"},"vehicle_type_id":"4","last_reported":1683965279,"current_range_meters":25200,"station_id":"ce4bgip2rcd13ifvqbb0","pricing_plan_id":"free"},{"bike_id":"7e0c7a5c-0c07-4d93-bbed-dfc49dd25cc0","system_id":"levelo_inurba_marseille","lat":43.295748,"lon":5.37522,"is_reserved":false,"is_disabled":false,"rental_uris":{"android":"levelo://app?vid=7e0c7a5c-0c07-4d93-bbed-dfc49dd25cc0","ios":"levelo://app?vid=7e0c7a5c-0c07-4d93-bbed-dfc49dd25cc0"},"vehicle_type_id":"4","last_reported":1683965279,"current_range_meters":31600,"station_id":"ce4bgh92rcd13ifvqb50","pricing_plan_id":"free"},{"bike_id":"088953be-ee31-4c65-892d-dca232363e3a","system_id":"levelo_inurba_marseille","lat":43.298037,"lon":5.381066,"is_reserved":false,"is_disabled":false,"rental_uris":{"android":"levelo://app?vid=088953be-ee31-4c65-892d-dca232363e3a","ios":"levelo://app?vid=088953be-ee31-4c65-892d-dca232363e3a"},"vehicle_type_id":"4","last_reported":1683965279,"current_range_meters":28400,"station_id":"ce4bgip2rcd13ifvqbb0","pricing_plan_id":"free"},{"bike_id":"9c3acfe4-8cab-4cec-a8d6-86993de9e3f9","system_id":"levelo_inurba_marseille","lat":43.295748,"lon":5.37522,"is_reserved":false,"is_disabled":false,"rental_uris":{"android":"levelo://app?vid=9c3acfe4-8cab-4cec-a8d6-86993de9e3f9","ios":"levelo://app?vid=9c3acfe4-8cab-4cec-a8d6-86993de9e3f9"},"vehicle_type_id":"4","last_reported":1683965279,"current_range_meters":25200,"station_id":"ce4bgh92rcd13ifvqb50","pricing_plan_id":"free"},{"bike_id":"48d6d2b8-c3e8-4271-9cba-3177c6d8fec8","system_id":"levelo_inurba_marseille","lat":43.2978,"lon":5.38087,"is_reserved":false,"is_disabled":false,"rental_uris":{"android":"levelo://app?vid=48d6d2b8-c3e8-4271-9cba-3177c6d8fec8","ios":"levelo://app?vid=48d6d2b8-c3e8-4271-9cba-3177c6d8fec8"},"vehicle_type_id":"4","last_reported":1683965279,"current_range_meters":26800,"station_id":"","pricing_plan_id":"free"},{"bike_id":"78391e36-6134-42bf-aee3-4b52a8a27141","system_id":"levelo_inurba_marseille","lat":43.295952,"lon":5.3761,"is_reserved":false,"is_disabled":false,"rental_uris":{"android":"levelo://app?vid=78391e36-6134-42bf-aee3-4b52a8a27141","ios":"levelo://app?vid=78391e36-6134-42bf-aee3-4b52a8a27141"},"vehicle_type_id":"4","last_reported":1683965279,"current_range_meters":24000,"station_id":"ce4bhh12rcd13ifvqfg0","pricing_plan_id":"free"},{"bike_id":"144809d3-2c08-4b6e-bf36-dbd042d4d18b","system_id":"levelo_inurba_marseille","lat":43.304278,"lon":5.388868,"is_reserved":false,"is_disabled":false,"rental_uris":{"android":"levelo://app?vid=144809d3-2c08-4b6e-bf36-dbd042d4d18b","ios":"levelo://app?vid=144809d3-2c08-4b6e-bf36-dbd042d4d18b"},"vehicle_type_id":"4","last_reported":1683965279,"current_range_meters":6400,"station_id":"ce4bgk12rcd13ifvqbi0","pricing_plan_id":"free"},{"bike_id":"f78d9425-be5b-4e00-ad8a-a4896d0080b4","system_id":"levelo_inurba_marseille","lat":43.304278,"lon":5.388868,"is_reserved":false,"is_disabled":false,"rental_uris":{"android":"levelo://app?vid=f78d9425-be5b-4e00-ad8a-a4896d0080b4","ios":"levelo://app?vid=f78d9425-be5b-4e00-ad8a-a4896d0080b4"},"vehicle_type_id":"4","last_reported":1683965279,"current_range_meters":23600,"station_id":"ce4bgk12rcd13ifvqbi0","pricing_plan_id":"free"},{"bike_id":"afdbe2ea-a5ab-4b0b-94f7-ca102e4de36b","system_id":"levelo_inurba_marseille","lat":43.30439,"lon":5.38898,"is_reserved":false,"is_disabled":false,"rental_uris":{"android":"levelo://app?vid=afdbe2ea-a5ab-4b0b-94f7-ca102e4de36b","ios":"levelo://app?vid=afdbe2ea-a5ab-4b0b-94f7-ca102e4de36b"},"vehicle_type_id":"4","last_reported":1683965279,"current_range_meters":0,"station_id":"ce4bgk12rcd13ifvqbi0","pricing_plan_id":"free"},{"bike_id":"9db2343c-32cd-4269-ab54-4cce429e3320","system_id":"levelo_inurba_marseille","lat":43.296277,"lon":5.377108,"is_reserved":false,"is_disabled":false,"rental_uris":{"android":"levelo://app?vid=9db2343c-32cd-4269-ab54-4cce429e3320","ios":"levelo://app?vid=9db2343c-32cd-4269-ab54-4cce429e3320"},"vehicle_type_id":"4","last_reported":1683965279,"current_range_meters":12400,"station_id":"ce4bgi92rcd13ifvqb90","pricing_plan_id":"free"},{"bike_id":"bf0ce62a-95b1-43f0-86a1-d1f6f901cad2","system_id":"levelo_inurba_marseille","lat":43.295748,"lon":5.37522,"is_reserved":false,"is_disabled":false,"rental_uris":{"android":"levelo://app?vid=bf0ce62a-95b1-43f0-86a1-d1f6f901cad2","ios":"levelo://app?vid=bf0ce62a-95b1-43f0-86a1-d1f6f901cad2"},"vehicle_type_id":"4","last_reported":1683965279,"current_range_meters":23600,"station_id":"ce4bgh92rcd13ifvqb50","pricing_plan_id":"free"},{"bike_id":"e25d9ec1-86b0-4790-9af8-7837c3f07c91","system_id":"levelo_inurba_marseille","lat":43.296263,"lon":5.377094,"is_reserved":false,"is_disabled":false,"rental_uris":{"android":"levelo://app?vid=e25d9ec1-86b0-4790-9af8-7837c3f07c91","ios":"levelo://app?vid=e25d9ec1-86b0-4790-9af8-7837c3f07c91"},"vehicle_type_id":"4","last_reported":1683965279,"current_range_meters":31600,"station_id":"ce4bgi92rcd13ifvqb90","pricing_plan_id":"free"},{"bike_id":"2abf43cd-cf6e-43a8-a699-92badcea8054","system_id":"levelo_inurba_marseille","lat":43.295748,"lon":5.37522,"is_reserved":false,"is_disabled":false,"rental_uris":{"android":"levelo://app?vid=2abf43cd-cf6e-43a8-a699-92badcea8054","ios":"levelo://app?vid=2abf43cd-cf6e-43a8-a699-92badcea8054"},"vehicle_type_id":"4","last_reported":1683965279,"current_range_meters":26400,"station_id":"ce4bgh92rcd13ifvqb50","pricing_plan_id":"free"},{"bike_id":"950f7ab5-72bc-43e2-9d62-b79a9350cfa0","system_id":"levelo_inurba_marseille","lat":43.304278,"lon":5.388868,"is_reserved":false,"is_disabled":false,"rental_uris":{"android":"levelo://app?vid=950f7ab5-72bc-43e2-9d62-b79a9350cfa0","ios":"levelo://app?vid=950f7ab5-72bc-43e2-9d62-b79a9350cfa0"},"vehicle_type_id":"4","last_reported":1683965279,"current_range_meters":25200,"station_id":"ce4bgk12rcd13ifvqbi0","pricing_plan_id":"free"},{"bike_id":"330533cb-b158-4931-b4be-1ba38674d039","system_id":"levelo_inurba_marseille","lat":43.29783,"lon":5.38114,"is_reserved":false,"is_disabled":false,"rental_uris":{"android":"levelo://app?vid=330533cb-b158-4931-b4be-1ba38674d039","ios":"levelo://app?vid=330533cb-b158-4931-b4be-1ba38674d039"},"vehicle_type_id":"4","last_reported":1683965279,"current_range_meters":21200,"station_id":"ce4bgip2rcd13ifvqbb0","pricing_plan_id":"free"},{"bike_id":"ccdbd145-cfc7-4c42-bc43-4ceee589b4b3","system_id":"levelo_inurba_marseille","lat":43.295748,"lon":5.37522,"is_reserved":false,"is_disabled":false,"rental_uris":{"android":"levelo://app?vid=ccdbd145-cfc7-4c42-bc43-4ceee589b4b3","ios":"levelo://app?vid=ccdbd145-cfc7-4c42-bc43-4ceee589b4b3"},"vehicle_type_id":"4","last_reported":1683965279,"current_range_meters":28400,"station_id":"ce4bgh92rcd13ifvqb50","pricing_plan_id":"free"},{"bike_id":"896f2c39-8017-4ea9-b0de-4e26784a89b7","system_id":"levelo_inurba_marseille","lat":43.29555,"lon":5.37528,"is_reserved":false,"is_disabled":false,"rental_uris":{"android":"levelo://app?vid=896f2c39-8017-4ea9-b0de-4e26784a89b7","ios":"levelo://app?vid=896f2c39-8017-4ea9-b0de-4e26784a89b7"},"vehicle_type_id":"4","last_reported":1683965279,"current_range_meters":29600,"station_id":"ce4bgh92rcd13ifvqb50","pricing_plan_id":"free"},{"bike_id":"773eda3b-e474-4a18-a0ce-e5c3cbd3349a","system_id":"levelo_inurba_marseille","lat":43.296277,"lon":5.377108,"is_reserved":false,"is_disabled":false,"rental_uris":{"android":"levelo://app?vid=773eda3b-e474-4a18-a0ce-e5c3cbd3349a","ios":"levelo://app?vid=773eda3b-e474-4a18-a0ce-e5c3cbd3349a"},"vehicle_type_id":"4","last_reported":1683965279,"current_range_meters":31200,"station_id":"ce4bgi92rcd13ifvqb90","pricing_plan_id":"free"},{"bike_id":"c0fa42b4-68e7-45cd-a78e-418396e91d9c","system_id":"levelo_inurba_marseille","lat":43.296277,"lon":5.377108,"is_reserved":false,"is_disabled":false,"rental_uris":{"android":"levelo://app?vid=c0fa42b4-68e7-45cd-a78e-418396e91d9c","ios":"levelo://app?vid=c0fa42b4-68e7-45cd-a78e-418396e91d9c"},"vehicle_type_id":"4","last_reported":1683965279,"current_range_meters":31200,"station_id":"ce4bgi92rcd13ifvqb90","pricing_plan_id":"free"},{"bike_id":"a5b1bdd9-dd6e-4158-aea7-5a66d2e4a970","system_id":"levelo_inurba_marseille","lat":43.295748,"lon":5.37522,"is_reserved":false,"is_disabled":false,"rental_uris":{"android":"levelo://app?vid=a5b1bdd9-dd6e-4158-aea7-5a66d2e4a970","ios":"levelo://app?vid=a5b1bdd9-dd6e-4158-aea7-5a66d2e4a970"},"vehicle_type_id":"4","last_reported":1683965279,"current_range_meters":29200,"station_id":"ce4bgh92rcd13ifvqb50","pricing_plan_id":"free"},{"bike_id":"5c725c06-4210-4afa-81ad-25e34ea59def","system_id":"levelo_inurba_marseille","lat":43.296263,"lon":5.377094,"is_reserved":false,"is_disabled":false,"rental_uris":{"android":"levelo://app?vid=5c725c06-4210-4afa-81ad-25e34ea59def","ios":"levelo://app?vid=5c725c06-4210-4afa-81ad-25e34ea59def"},"vehicle_type_id":"4","last_reported":1683965279,"current_range_meters":31200,"station_id":"ce4bgi92rcd13ifvqb90","pricing_plan_id":"free"},{"bike_id":"63fa7e13-6858-4b30-a631-e18e8ba062c3","system_id":"levelo_inurba_marseille","lat":43.296277,"lon":5.377108,"is_reserved":false,"is_disabled":false,"rental_uris":{"android":"levelo://app?vid=63fa7e13-6858-4b30-a631-e18e8ba062c3","ios":"levelo://app?vid=63fa7e13-6858-4b30-a631-e18e8ba062c3"},"vehicle_type_id":"4","last_reported":1683965279,"current_range_meters":31600,"station_id":"ce4bgi92rcd13ifvqb90","pricing_plan_id":"free"},{"bike_id":"94a0f1f4-3902-4b17-92b0-e2f749325968","system_id":"levelo_inurba_marseille","lat":43.296277,"lon":5.377108,"is_reserved":false,"is_disabled":false,"rental_uris":{"android":"levelo://app?vid=94a0f1f4-3902-4b17-92b0-e2f749325968","ios":"levelo://app?vid=94a0f1f4-3902-4b17-92b0-e2f749325968"},"vehicle_type_id":"4","last_reported":1683965279,"current_range_meters":31600,"station_id":"ce4bgi92rcd13ifvqb90","pricing_plan_id":"free"},{"bike_id":"a0c63549-f8b4-4350-a3ac-d58780044177","system_id":"levelo_inurba_marseille","lat":43.296277,"lon":5.377108,"is_reserved":false,"is_disabled":false,"rental_uris":{"android":"levelo://app?vid=a0c63549-f8b4-4350-a3ac-d58780044177","ios":"levelo://app?vid=a0c63549-f8b4-4350-a3ac-d58780044177"},"vehicle_type_id":"4","last_reported":1683965279,"current_range_meters":31600,"station_id":"ce4bgi92rcd13ifvqb90","pricing_plan_id":"free"},{"bike_id":"269c3e81-9abe-42ae-91be-299ae3974219","system_id":"levelo_inurba_marseille","lat":43.295279,"lon":5.375048,"is_reserved":false,"is_disabled":false,"rental_uris":{"android":"levelo://app?vid=269c3e81-9abe-42ae-91be-299ae3974219","ios":"levelo://app?vid=269c3e81-9abe-42ae-91be-299ae3974219"},"vehicle_type_id":"4","last_reported":1683965279,"current_range_meters":31600,"station_id":"ce4bgkp2rcd13ifvqbmg","pricing_plan_id":"free"},{"bike_id":"f67e485d-f8b2-44a7-8c8b-4f53a7ffc871","system_id":"levelo_inurba_marseille","lat":43.295279,"lon":5.375048,"is_reserved":false,"is_disabled":false,"rental_uris":{"android":"levelo://app?vid=f67e485d-f8b2-44a7-8c8b-4f53a7ffc871","ios":"levelo://app?vid=f67e485d-f8b2-44a7-8c8b-4f53a7ffc871"},"vehicle_type_id":"4","last_reported":1683965279,"current_range_meters":31600,"station_id":"ce4bgkp2rcd13ifvqbmg","pricing_plan_id":"free"},{"bike_id":"b1df7b7d-d06d-4cfe-acb6-c2ce0bfbd32d","system_id":"levelo_inurba_marseille","lat":43.295279,"lon":5.375048,"is_reserved":false,"is_disabled":false,"rental_uris":{"android":"levelo://app?vid=b1df7b7d-d06d-4cfe-acb6-c2ce0bfbd32d","ios":"levelo://app?vid=b1df7b7d-d06d-4cfe-acb6-c2ce0bfbd32d"},"vehicle_type_id":"4","last_reported":1683965279,"current_range_meters":29200,"station_id":"ce4bgkp2rcd13ifvqbmg","pricing_plan_id":"free"},{"bike_id":"cc50c958-ba33-4085-9de8-8ab1c1eb820c","system_id":"levelo_inurba_marseille","lat":43.295279,"lon":5.375048,"is_reserved":false,"is_disabled":false,"rental_uris":{"android":"levelo://app?vid=cc50c958-ba33-4085-9de8-8ab1c1eb820c","ios":"levelo://app?vid=cc50c958-ba33-4085-9de8-8ab1c1eb820c"},"vehicle_type_id":"4","last_reported":1683965279,"current_range_meters":22000,"station_id":"ce4bgkp2rcd13ifvqbmg","pricing_plan_id":"free"},{"bike_id":"99c9f3e1-5f74-43fb-9f5c-36cd944e6dda","system_id":"levelo_inurba_marseille","lat":43.295279,"lon":5.375048,"is_reserved":false,"is_disabled":false,"rental_uris":{"android":"levelo://app?vid=99c9f3e1-5f74-43fb-9f5c-36cd944e6dda","ios":"levelo://app?vid=99c9f3e1-5f74-43fb-9f5c-36cd944e6dda"},"vehicle_type_id":"4","last_reported":1683965279,"current_range_meters":29600,"station_id":"ce4bgkp2rcd13ifvqbmg","pricing_plan_id":"free"},{"bike_id":"2813d3d3-8a9e-45f7-9f59-25f56b4da41c","system_id":"levelo_inurba_marseille","lat":43.296263,"lon":5.377094,"is_reserved":false,"is_disabled":false,"rental_uris":{"android":"levelo://app?vid=2813d3d3-8a9e-45f7-9f59-25f56b4da41c","ios":"levelo://app?vid=2813d3d3-8a9e-45f7-9f59-25f56b4da41c"},"vehicle_type_id":"4","last_reported":1683965279,"current_range_meters":31600,"station_id":"ce4bgi92rcd13ifvqb90","pricing_plan_id":"free"},{"bike_id":"d5ca1229-e224-48d4-a09a-822036e7f494","system_id":"levelo_inurba_marseille","lat":43.295279,"lon":5.375048,"is_reserved":false,"is_disabled":false,"rental_uris":{"android":"levelo://app?vid=d5ca1229-e224-48d4-a09a-822036e7f494","ios":"levelo://app?vid=d5ca1229-e224-48d4-a09a-822036e7f494"},"vehicle_type_id":"4","last_reported":1683965279,"current_range_meters":26000,"station_id":"ce4bgkp2rcd13ifvqbmg","pricing_plan_id":"free"},{"bike_id":"98d43089-ff1e-40ee-a123-f18e174ce1c4","system_id":"levelo_inurba_marseille","lat":43.31446,"lon":5.39275,"is_reserved":false,"is_disabled":false,"rental_uris":{"android":"levelo://app?vid=98d43089-ff1e-40ee-a123-f18e174ce1c4","ios":"levelo://app?vid=98d43089-ff1e-40ee-a123-f18e174ce1c4"},"vehicle_type_id":"4","last_reported":1683965279,"current_range_meters":4800,"station_id":"","pricing_plan_id":"free"},{"bike_id":"6f6b02ce-a50b-443a-a31d-aed834771e7b","system_id":"levelo_inurba_marseille","lat":43.31444,"lon":5.39293,"is_reserved":false,"is_disabled":false,"rental_uris":{"android":"levelo://app?vid=6f6b02ce-a50b-443a-a31d-aed834771e7b","ios":"levelo://app?vid=6f6b02ce-a50b-443a-a31d-aed834771e7b"},"vehicle_type_id":"4","last_reported":1683965279,"current_range_meters":6800,"station_id":"","pricing_plan_id":"free"},{"bike_id":"255d23e2-6607-47f9-ae02-1fececf67c6c","system_id":"levelo_inurba_marseille","lat":43.32908,"lon":5.38209,"is_reserved":false,"is_disabled":false,"rental_uris":{"android":"levelo://app?vid=255d23e2-6607-47f9-ae02-1fececf67c6c","ios":"levelo://app?vid=255d23e2-6607-47f9-ae02-1fececf67c6c"},"vehicle_type_id":"4","last_reported":1683965279,"current_range_meters":14000,"station_id":"","pricing_plan_id":"free"},{"bike_id":"df7647b1-99a9-4742-b9f2-9d2bc408c020","system_id":"levelo_inurba_marseille","lat":43.29479,"lon":5.37868,"is_reserved":false,"is_disabled":false,"rental_uris":{"android":"levelo://app?vid=df7647b1-99a9-4742-b9f2-9d2bc408c020","ios":"levelo://app?vid=df7647b1-99a9-4742-b9f2-9d2bc408c020"},"vehicle_type_id":"4","last_reported":1683965279,"current_range_meters":26000,"station_id":"","pricing_plan_id":"free"},{"bike_id":"0131734a-b31f-4386-97ab-ea2b65fd6220","system_id":"levelo_inurba_marseille","lat":43.293249,"lon":5.371578,"is_reserved":false,"is_disabled":false,"rental_uris":{"android":"levelo://app?vid=0131734a-b31f-4386-97ab-ea2b65fd6220","ios":"levelo://app?vid=0131734a-b31f-4386-97ab-ea2b65fd6220"},"vehicle_type_id":"4","last_reported":1683965279,"current_range_meters":27200,"station_id":"ce4bgh92rcd13ifvqb40","pricing_plan_id":"free"},{"bike_id":"96953f62-27ab-43a9-ae24-8d51069179e7","system_id":"levelo_inurba_marseille","lat":43.292749,"lon":5.368402,"is_reserved":false,"is_disabled":false,"rental_uris":{"android":"levelo://app?vid=96953f62-27ab-43a9-ae24-8d51069179e7","ios":"levelo://app?vid=96953f62-27ab-43a9-ae24-8d51069179e7"},"vehicle_type_id":"4","last_reported":1683965279,"current_range_meters":30800,"station_id":"ce4bhbp2rcd13ifvqesg","pricing_plan_id":"free"},{"bike_id":"88593624-c250-4a46-8a73-077423d799d6","system_id":"levelo_inurba_marseille","lat":43.29308,"lon":5.37188,"is_reserved":false,"is_disabled":false,"rental_uris":{"android":"levelo://app?vid=88593624-c250-4a46-8a73-077423d799d6","ios":"levelo://app?vid=88593624-c250-4a46-8a73-077423d799d6"},"vehicle_type_id":"4","last_reported":1683965279,"current_range_meters":3200,"station_id":"","pricing_plan_id":"free"},{"bike_id":"ee9df043-635c-474d-b4bd-8e9da09abc4f","system_id":"levelo_inurba_marseille","lat":43.292749,"lon":5.368398,"is_reserved":false,"is_disabled":false,"rental_uris":{"android":"levelo://app?vid=ee9df043-635c-474d-b4bd-8e9da09abc4f","ios":"levelo://app?vid=ee9df043-635c-474d-b4bd-8e9da09abc4f"},"vehicle_type_id":"4","last_reported":1683965279,"current_range_meters":23600,"station_id":"ce4bhbp2rcd13ifvqesg","pricing_plan_id":"free"},{"bike_id":"b2a0b0d7-e8e2-4b2f-b074-aa5146fe51e7","system_id":"levelo_inurba_marseille","lat":43.292745,"lon":5.36843,"is_reserved":false,"is_disabled":false,"rental_uris":{"android":"levelo://app?vid=b2a0b0d7-e8e2-4b2f-b074-aa5146fe51e7","ios":"levelo://app?vid=b2a0b0d7-e8e2-4b2f-b074-aa5146fe51e7"},"vehicle_type_id":"4","last_reported":1683965279,"current_range_meters":30400,"station_id":"ce4bhbp2rcd13ifvqesg","pricing_plan_id":"free"},{"bike_id":"4e3f9ff7-9e99-46dd-b38e-b497ffca2158","system_id":"levelo_inurba_marseille","lat":43.292749,"lon":5.368402,"is_reserved":false,"is_disabled":false,"rental_uris":{"android":"levelo://app?vid=4e3f9ff7-9e99-46dd-b38e-b497ffca2158","ios":"levelo://app?vid=4e3f9ff7-9e99-46dd-b38e-b497ffca2158"},"vehicle_type_id":"4","last_reported":1683965279,"current_range_meters":26400,"station_id":"ce4bhbp2rcd13ifvqesg","pricing_plan_id":"free"},{"bike_id":"583b1714-363a-4bb3-bfff-efba62c9c48c","system_id":"levelo_inurba_marseille","lat":43.292749,"lon":5.368398,"is_reserved":false,"is_disabled":false,"rental_uris":{"android":"levelo://app?vid=583b1714-363a-4bb3-bfff-efba62c9c48c","ios":"levelo://app?vid=583b1714-363a-4bb3-bfff-efba62c9c48c"},"vehicle_type_id":"4","last_reported":1683965279,"current_range_meters":31600,"station_id":"ce4bhbp2rcd13ifvqesg","pricing_plan_id":"free"},{"bike_id":"05fc6deb-33a6-4311-9070-5080f3b0c8f1","system_id":"levelo_inurba_marseille","lat":43.292749,"lon":5.368398,"is_reserved":false,"is_disabled":false,"rental_uris":{"android":"levelo://app?vid=05fc6deb-33a6-4311-9070-5080f3b0c8f1","ios":"levelo://app?vid=05fc6deb-33a6-4311-9070-5080f3b0c8f1"},"vehicle_type_id":"4","last_reported":1683965279,"current_range_meters":10800,"station_id":"ce4bhbp2rcd13ifvqesg","pricing_plan_id":"free"},{"bike_id":"18b46cce-0b8b-4f3b-99cb-7e9a6fc4c685","system_id":"levelo_inurba_marseille","lat":43.293009,"lon":5.374584,"is_reserved":false,"is_disabled":false,"rental_uris":{"android":"levelo://app?vid=18b46cce-0b8b-4f3b-99cb-7e9a6fc4c685","ios":"levelo://app?vid=18b46cce-0b8b-4f3b-99cb-7e9a6fc4c685"},"vehicle_type_id":"4","last_reported":1683965279,"current_range_meters":31200,"station_id":"ce4bgi12rcd13ifvqb70","pricing_plan_id":"free"},{"bike_id":"56e09569-ea2d-4ec2-a622-170c6938b9f8","system_id":"levelo_inurba_marseille","lat":43.293009,"lon":5.374584,"is_reserved":false,"is_disabled":false,"rental_uris":{"android":"levelo://app?vid=56e09569-ea2d-4ec2-a622-170c6938b9f8","ios":"levelo://app?vid=56e09569-ea2d-4ec2-a622-170c6938b9f8"},"vehicle_type_id":"4","last_reported":1683965279,"current_range_meters":6000,"station_id":"ce4bgi12rcd13ifvqb70","pricing_plan_id":"free"},{"bike_id":"4bb46b1d-bf52-4548-8547-5b2a7e7e8aa0","system_id":"levelo_inurba_marseille","lat":43.293009,"lon":5.374584,"is_reserved":false,"is_disabled":false,"rental_uris":{"android":"levelo://app?vid=4bb46b1d-bf52-4548-8547-5b2a7e7e8aa0","ios":"levelo://app?vid=4bb46b1d-bf52-4548-8547-5b2a7e7e8aa0"},"vehicle_type_id":"4","last_reported":1683965279,"current_range_meters":29600,"station_id":"ce4bgi12rcd13ifvqb70","pricing_plan_id":"free"},{"bike_id":"b5872e5d-e724-4f27-9950-14032af06d02","system_id":"levelo_inurba_marseille","lat":43.293009,"lon":5.374584,"is_reserved":false,"is_disabled":false,"rental_uris":{"android":"levelo://app?vid=b5872e5d-e724-4f27-9950-14032af06d02","ios":"levelo://app?vid=b5872e5d-e724-4f27-9950-14032af06d02"},"vehicle_type_id":"4","last_reported":1683965279,"current_range_meters":24400,"station_id":"ce4bgi12rcd13ifvqb70","pricing_plan_id":"free"},{"bike_id":"d2ef2220-ad11-4338-aa6f-91673f8e70d2","system_id":"levelo_inurba_marseille","lat":43.305994,"lon":5.393687,"is_reserved":false,"is_disabled":false,"rental_uris":{"android":"levelo://app?vid=d2ef2220-ad11-4338-aa6f-91673f8e70d2","ios":"levelo://app?vid=d2ef2220-ad11-4338-aa6f-91673f8e70d2"},"vehicle_type_id":"4","last_reported":1683965279,"current_range_meters":19600,"station_id":"ce4bh0p2rcd13ifvqd80","pricing_plan_id":"free"},{"bike_id":"d1bbf04a-efa8-47f5-839f-05cd1bde2eb2","system_id":"levelo_inurba_marseille","lat":43.293009,"lon":5.374584,"is_reserved":false,"is_disabled":false,"rental_uris":{"android":"levelo://app?vid=d1bbf04a-efa8-47f5-839f-05cd1bde2eb2","ios":"levelo://app?vid=d1bbf04a-efa8-47f5-839f-05cd1bde2eb2"},"vehicle_type_id":"4","last_reported":1683965279,"current_range_meters":31600,"station_id":"ce4bgi12rcd13ifvqb70","pricing_plan_id":"free"},{"bike_id":"7c98dd26-e4cf-4620-9718-b5f6b0eaa9e6","system_id":"levelo_inurba_marseille","lat":43.303002,"lon":5.392142,"is_reserved":false,"is_disabled":false,"rental_uris":{"android":"levelo://app?vid=7c98dd26-e4cf-4620-9718-b5f6b0eaa9e6","ios":"levelo://app?vid=7c98dd26-e4cf-4620-9718-b5f6b0eaa9e6"},"vehicle_type_id":"4","last_reported":1683965279,"current_range_meters":31200,"station_id":"ce4bgkh2rcd13ifvqbk0","pricing_plan_id":"free"},{"bike_id":"3e59165d-bbe1-4342-a4cb-44bb7e385d33","system_id":"levelo_inurba_marseille","lat":43.303002,"lon":5.392142,"is_reserved":false,"is_disabled":false,"rental_uris":{"android":"levelo://app?vid=3e59165d-bbe1-4342-a4cb-44bb7e385d33","ios":"levelo://app?vid=3e59165d-bbe1-4342-a4cb-44bb7e385d33"},"vehicle_type_id":"4","last_reported":1683965279,"current_range_meters":24800,"station_id":"ce4bgkh2rcd13ifvqbk0","pricing_plan_id":"free"},{"bike_id":"6ffbefff-55c4-4d0e-80b5-4a18e7eb56da","system_id":"levelo_inurba_marseille","lat":43.302992,"lon":5.392136,"is_reserved":false,"is_disabled":false,"rental_uris":{"android":"levelo://app?vid=6ffbefff-55c4-4d0e-80b5-4a18e7eb56da","ios":"levelo://app?vid=6ffbefff-55c4-4d0e-80b5-4a18e7eb56da"},"vehicle_type_id":"4","last_reported":1683965279,"current_range_meters":31600,"station_id":"ce4bgkh2rcd13ifvqbk0","pricing_plan_id":"free"},{"bike_id":"04dbe639-8c46-4cf4-9503-76c517867d7f","system_id":"levelo_inurba_marseille","lat":43.303002,"lon":5.392142,"is_reserved":false,"is_disabled":false,"rental_uris":{"android":"levelo://app?vid=04dbe639-8c46-4cf4-9503-76c517867d7f","ios":"levelo://app?vid=04dbe639-8c46-4cf4-9503-76c517867d7f"},"vehicle_type_id":"4","last_reported":1683965279,"current_range_meters":31200,"station_id":"ce4bgkh2rcd13ifvqbk0","pricing_plan_id":"free"},{"bike_id":"9046523d-c80c-41c7-be30-4db1dfdc604a","system_id":"levelo_inurba_marseille","lat":43.2936,"lon":5.37835,"is_reserved":false,"is_disabled":false,"rental_uris":{"android":"levelo://app?vid=9046523d-c80c-41c7-be30-4db1dfdc604a","ios":"levelo://app?vid=9046523d-c80c-41c7-be30-4db1dfdc604a"},"vehicle_type_id":"4","last_reported":1683965279,"current_range_meters":31200,"station_id":"ce4bgjh2rcd13ifvqbf0","pricing_plan_id":"free"},{"bike_id":"821aa72e-ee3d-45b1-a3d8-67627a307f70","system_id":"levelo_inurba_marseille","lat":43.298764,"lon":5.388973,"is_reserved":false,"is_disabled":false,"rental_uris":{"android":"levelo://app?vid=821aa72e-ee3d-45b1-a3d8-67627a307f70","ios":"levelo://app?vid=821aa72e-ee3d-45b1-a3d8-67627a307f70"},"vehicle_type_id":"4","last_reported":1683965279,"current_range_meters":31200,"station_id":"ce4bh392rcd13ifvqdl0","pricing_plan_id":"free"},{"bike_id":"560ea34e-feb5-4660-9bff-cf551c95db90","system_id":"levelo_inurba_marseille","lat":43.309038,"lon":5.396546,"is_reserved":false,"is_disabled":false,"rental_uris":{"android":"levelo://app?vid=560ea34e-feb5-4660-9bff-cf551c95db90","ios":"levelo://app?vid=560ea34e-feb5-4660-9bff-cf551c95db90"},"vehicle_type_id":"4","last_reported":1683965279,"current_range_meters":16800,"station_id":"ce4bh012rcd13ifvqcv0","pricing_plan_id":"free"},{"bike_id":"e71689db-57e7-4985-91ce-820b6c7ab2ef","system_id":"levelo_inurba_marseille","lat":43.309038,"lon":5.396546,"is_reserved":false,"is_disabled":false,"rental_uris":{"android":"levelo://app?vid=e71689db-57e7-4985-91ce-820b6c7ab2ef","ios":"levelo://app?vid=e71689db-57e7-4985-91ce-820b6c7ab2ef"},"vehicle_type_id":"4","last_reported":1683965279,"current_range_meters":30800,"station_id":"ce4bh012rcd13ifvqcv0","pricing_plan_id":"free"},{"bike_id":"1fc2ebab-8602-40c6-ad3d-33e08383f9df","system_id":"levelo_inurba_marseille","lat":43.309038,"lon":5.396546,"is_reserved":false,"is_disabled":false,"rental_uris":{"android":"levelo://app?vid=1fc2ebab-8602-40c6-ad3d-33e08383f9df","ios":"levelo://app?vid=1fc2ebab-8602-40c6-ad3d-33e08383f9df"},"vehicle_type_id":"4","last_reported":1683965279,"current_range_meters":14000,"station_id":"ce4bh012rcd13ifvqcv0","pricing_plan_id":"free"},{"bike_id":"94cfdd85-7708-4d18-8858-9edd985a492a","system_id":"levelo_inurba_marseille","lat":43.309038,"lon":5.396546,"is_reserved":false,"is_disabled":false,"rental_uris":{"android":"levelo://app?vid=94cfdd85-7708-4d18-8858-9edd985a492a","ios":"levelo://app?vid=94cfdd85-7708-4d18-8858-9edd985a492a"},"vehicle_type_id":"4","last_reported":1683965279,"current_range_meters":30800,"station_id":"ce4bh012rcd13ifvqcv0","pricing_plan_id":"free"},{"bike_id":"960dc9d5-3255-4e54-8386-d7f163f39be6","system_id":"levelo_inurba_marseille","lat":43.309038,"lon":5.396546,"is_reserved":false,"is_disabled":false,"rental_uris":{"android":"levelo://app?vid=960dc9d5-3255-4e54-8386-d7f163f39be6","ios":"levelo://app?vid=960dc9d5-3255-4e54-8386-d7f163f39be6"},"vehicle_type_id":"4","last_reported":1683965279,"current_range_meters":29600,"station_id":"ce4bh012rcd13ifvqcv0","pricing_plan_id":"free"},{"bike_id":"9eaf9e9c-c5d9-4bc0-93b0-d9afdb0afe79","system_id":"levelo_inurba_marseille","lat":43.29192,"lon":5.3581,"is_reserved":false,"is_disabled":false,"rental_uris":{"android":"levelo://app?vid=9eaf9e9c-c5d9-4bc0-93b0-d9afdb0afe79","ios":"levelo://app?vid=9eaf9e9c-c5d9-4bc0-93b0-d9afdb0afe79"},"vehicle_type_id":"4","last_reported":1683965279,"current_range_meters":18400,"station_id":"","pricing_plan_id":"free"},{"bike_id":"53227ca6-0425-4d55-aa20-ae2d700371fc","system_id":"levelo_inurba_marseille","lat":43.309038,"lon":5.396546,"is_reserved":false,"is_disabled":false,"rental_uris":{"android":"levelo://app?vid=53227ca6-0425-4d55-aa20-ae2d700371fc","ios":"levelo://app?vid=53227ca6-0425-4d55-aa20-ae2d700371fc"},"vehicle_type_id":"4","last_reported":1683965279,"current_range_meters":17600,"station_id":"ce4bh012rcd13ifvqcv0","pricing_plan_id":"free"},{"bike_id":"1f08c3cb-ba17-4d1b-9c29-da16e9aaf7c4","system_id":"levelo_inurba_marseille","lat":43.309038,"lon":5.396546,"is_reserved":false,"is_disabled":false,"rental_uris":{"android":"levelo://app?vid=1f08c3cb-ba17-4d1b-9c29-da16e9aaf7c4","ios":"levelo://app?vid=1f08c3cb-ba17-4d1b-9c29-da16e9aaf7c4"},"vehicle_type_id":"4","last_reported":1683965279,"current_range_meters":15200,"station_id":"ce4bh012rcd13ifvqcv0","pricing_plan_id":"free"},{"bike_id":"0d17488f-4cc0-4c1b-a45d-b7eabcae8585","system_id":"levelo_inurba_marseille","lat":43.2919,"lon":5.35811,"is_reserved":false,"is_disabled":false,"rental_uris":{"android":"levelo://app?vid=0d17488f-4cc0-4c1b-a45d-b7eabcae8585","ios":"levelo://app?vid=0d17488f-4cc0-4c1b-a45d-b7eabcae8585"},"vehicle_type_id":"4","last_reported":1683965279,"current_range_meters":4800,"station_id":"","pricing_plan_id":"free"},{"bike_id":"43ea94fb-f0bc-48af-bd2d-c866d6def370","system_id":"levelo_inurba_marseille","lat":43.29192,"lon":5.35802,"is_reserved":false,"is_disabled":false,"rental_uris":{"android":"levelo://app?vid=43ea94fb-f0bc-48af-bd2d-c866d6def370","ios":"levelo://app?vid=43ea94fb-f0bc-48af-bd2d-c866d6def370"},"vehicle_type_id":"4","last_reported":1683965279,"current_range_meters":21600,"station_id":"ce4bhb12rcd13ifvqel0","pricing_plan_id":"free"},{"bike_id":"ebe7a3c3-9add-4be2-9d92-63b05eb0fafe","system_id":"levelo_inurba_marseille","lat":43.309038,"lon":5.396546,"is_reserved":false,"is_disabled":false,"rental_uris":{"android":"levelo://app?vid=ebe7a3c3-9add-4be2-9d92-63b05eb0fafe","ios":"levelo://app?vid=ebe7a3c3-9add-4be2-9d92-63b05eb0fafe"},"vehicle_type_id":"4","last_reported":1683965279,"current_range_meters":31200,"station_id":"ce4bh012rcd13ifvqcv0","pricing_plan_id":"free"},{"bike_id":"b1dbe5d2-9911-4db5-b317-0332f405d3d1","system_id":"levelo_inurba_marseille","lat":43.2919,"lon":5.35797,"is_reserved":false,"is_disabled":false,"rental_uris":{"android":"levelo://app?vid=b1dbe5d2-9911-4db5-b317-0332f405d3d1","ios":"levelo://app?vid=b1dbe5d2-9911-4db5-b317-0332f405d3d1"},"vehicle_type_id":"4","last_reported":1683965279,"current_range_meters":6400,"station_id":"ce4bhb12rcd13ifvqel0","pricing_plan_id":"free"},{"bike_id":"65f9ef14-ab34-416f-b202-39faa754b043","system_id":"levelo_inurba_marseille","lat":43.29527,"lon":5.3855,"is_reserved":false,"is_disabled":false,"rental_uris":{"android":"levelo://app?vid=65f9ef14-ab34-416f-b202-39faa754b043","ios":"levelo://app?vid=65f9ef14-ab34-416f-b202-39faa754b043"},"vehicle_type_id":"4","last_reported":1683965279,"current_range_meters":22800,"station_id":"ce4bgih2rcd13ifvqba0","pricing_plan_id":"free"},{"bike_id":"9eb45ac2-4f91-41cd-a8a1-dc2e32b3a943","system_id":"levelo_inurba_marseille","lat":43.29061,"lon":5.37226,"is_reserved":false,"is_disabled":false,"rental_uris":{"android":"levelo://app?vid=9eb45ac2-4f91-41cd-a8a1-dc2e32b3a943","ios":"levelo://app?vid=9eb45ac2-4f91-41cd-a8a1-dc2e32b3a943"},"vehicle_type_id":"4","last_reported":1683965279,"current_range_meters":28800,"station_id":"ce4bhb92rcd13ifvqen0","pricing_plan_id":"free"},{"bike_id":"9dc16098-713f-49a9-931c-52bd664187dd","system_id":"levelo_inurba_marseille","lat":43.294153,"lon":5.386305,"is_reserved":false,"is_disabled":false,"rental_uris":{"android":"levelo://app?vid=9dc16098-713f-49a9-931c-52bd664187dd","ios":"levelo://app?vid=9dc16098-713f-49a9-931c-52bd664187dd"},"vehicle_type_id":"4","last_reported":1683965279,"current_range_meters":25200,"station_id":"ce4bh2h2rcd13ifvqdh0","pricing_plan_id":"free"},{"bike_id":"9f129774-36e1-42f1-8229-a7c2be11d89e","system_id":"levelo_inurba_marseille","lat":43.3049,"lon":5.39705,"is_reserved":false,"is_disabled":false,"rental_uris":{"android":"levelo://app?vid=9f129774-36e1-42f1-8229-a7c2be11d89e","ios":"levelo://app?vid=9f129774-36e1-42f1-8229-a7c2be11d89e"},"vehicle_type_id":"4","last_reported":1683965279,"current_range_meters":20800,"station_id":"","pricing_plan_id":"free"},{"bike_id":"bedee10e-5dfc-450e-8b51-ca83bf1109a6","system_id":"levelo_inurba_marseille","lat":43.30491,"lon":5.39711,"is_reserved":false,"is_disabled":false,"rental_uris":{"android":"levelo://app?vid=bedee10e-5dfc-450e-8b51-ca83bf1109a6","ios":"levelo://app?vid=bedee10e-5dfc-450e-8b51-ca83bf1109a6"},"vehicle_type_id":"4","last_reported":1683965279,"current_range_meters":4000,"station_id":"","pricing_plan_id":"free"},{"bike_id":"3dd0b3bc-f06e-40f4-be2b-e6dfd7420021","system_id":"levelo_inurba_marseille","lat":43.28941,"lon":5.36635,"is_reserved":false,"is_disabled":false,"rental_uris":{"android":"levelo://app?vid=3dd0b3bc-f06e-40f4-be2b-e6dfd7420021","ios":"levelo://app?vid=3dd0b3bc-f06e-40f4-be2b-e6dfd7420021"},"vehicle_type_id":"4","last_reported":1683965279,"current_range_meters":30800,"station_id":"ce4bhap2rcd13ifvqek0","pricing_plan_id":"free"},{"bike_id":"bef6cb8b-81c6-4b30-9d48-bbc5b3d04082","system_id":"levelo_inurba_marseille","lat":43.294162,"lon":5.386292,"is_reserved":false,"is_disabled":false,"rental_uris":{"android":"levelo://app?vid=bef6cb8b-81c6-4b30-9d48-bbc5b3d04082","ios":"levelo://app?vid=bef6cb8b-81c6-4b30-9d48-bbc5b3d04082"},"vehicle_type_id":"4","last_reported":1683965279,"current_range_meters":27600,"station_id":"ce4bh2h2rcd13ifvqdh0","pricing_plan_id":"free"},{"bike_id":"0d3fe0f5-a710-47ba-8153-3149e7955c85","system_id":"levelo_inurba_marseille","lat":43.304274,"lon":5.397513,"is_reserved":false,"is_disabled":false,"rental_uris":{"android":"levelo://app?vid=0d3fe0f5-a710-47ba-8153-3149e7955c85","ios":"levelo://app?vid=0d3fe0f5-a710-47ba-8153-3149e7955c85"},"vehicle_type_id":"4","last_reported":1683965279,"current_range_meters":16800,"station_id":"ce4bh092rcd13ifvqd20","pricing_plan_id":"free"},{"bike_id":"2a407094-017a-4913-a060-9c237119859b","system_id":"levelo_inurba_marseille","lat":43.304274,"lon":5.397513,"is_reserved":false,"is_disabled":false,"rental_uris":{"android":"levelo://app?vid=2a407094-017a-4913-a060-9c237119859b","ios":"levelo://app?vid=2a407094-017a-4913-a060-9c237119859b"},"vehicle_type_id":"4","last_reported":1683965279,"current_range_meters":2400,"station_id":"ce4bh092rcd13ifvqd20","pricing_plan_id":"free"},{"bike_id":"029a36ef-ef53-4877-b396-5b39b2c2ac28","system_id":"levelo_inurba_marseille","lat":43.304296,"lon":5.397513,"is_reserved":false,"is_disabled":false,"rental_uris":{"android":"levelo://app?vid=029a36ef-ef53-4877-b396-5b39b2c2ac28","ios":"levelo://app?vid=029a36ef-ef53-4877-b396-5b39b2c2ac28"},"vehicle_type_id":"4","last_reported":1683965279,"current_range_meters":30400,"station_id":"ce4bh092rcd13ifvqd20","pricing_plan_id":"free"},{"bike_id":"7dfb63d7-3cea-4571-aa06-76c88bd9f321","system_id":"levelo_inurba_marseille","lat":43.33039,"lon":5.3892,"is_reserved":false,"is_disabled":false,"rental_uris":{"android":"levelo://app?vid=7dfb63d7-3cea-4571-aa06-76c88bd9f321","ios":"levelo://app?vid=7dfb63d7-3cea-4571-aa06-76c88bd9f321"},"vehicle_type_id":"4","last_reported":1683965279,"current_range_meters":29200,"station_id":"ce4bhr92rcd13ifvqhrg","pricing_plan_id":"free"},{"bike_id":"99d11ff8-cd4f-4243-907c-822c17bc769b","system_id":"levelo_inurba_marseille","lat":43.33043,"lon":5.38917,"is_reserved":false,"is_disabled":false,"rental_uris":{"android":"levelo://app?vid=99d11ff8-cd4f-4243-907c-822c17bc769b","ios":"levelo://app?vid=99d11ff8-cd4f-4243-907c-822c17bc769b"},"vehicle_type_id":"4","last_reported":1683965279,"current_range_meters":21600,"station_id":"ce4bhr92rcd13ifvqhrg","pricing_plan_id":"free"},{"bike_id":"b8d0a2d7-4443-405c-9e1e-71d351b2ac12","system_id":"levelo_inurba_marseille","lat":43.33039,"lon":5.38923,"is_reserved":false,"is_disabled":false,"rental_uris":{"android":"levelo://app?vid=b8d0a2d7-4443-405c-9e1e-71d351b2ac12","ios":"levelo://app?vid=b8d0a2d7-4443-405c-9e1e-71d351b2ac12"},"vehicle_type_id":"4","last_reported":1683965279,"current_range_meters":22800,"station_id":"ce4bhr92rcd13ifvqhrg","pricing_plan_id":"free"},{"bike_id":"a7d25894-5089-4fd8-b9bd-f4bbee681436","system_id":"levelo_inurba_marseille","lat":43.290103,"lon":5.356114,"is_reserved":false,"is_disabled":false,"rental_uris":{"android":"levelo://app?vid=a7d25894-5089-4fd8-b9bd-f4bbee681436","ios":"levelo://app?vid=a7d25894-5089-4fd8-b9bd-f4bbee681436"},"vehicle_type_id":"4","last_reported":1683965279,"current_range_meters":31600,"station_id":"ce4bhb92rcd13ifvqen0","pricing_plan_id":"free"},{"bike_id":"754ef565-0150-4f0d-8c0d-a8a5d6927613","system_id":"levelo_inurba_marseille","lat":43.3304,"lon":5.38923,"is_reserved":false,"is_disabled":false,"rental_uris":{"android":"levelo://app?vid=754ef565-0150-4f0d-8c0d-a8a5d6927613","ios":"levelo://app?vid=754ef565-0150-4f0d-8c0d-a8a5d6927613"},"vehicle_type_id":"4","last_reported":1683965279,"current_range_meters":20000,"station_id":"ce4bhr92rcd13ifvqhrg","pricing_plan_id":"free"},{"bike_id":"d9c65fb5-b538-43a6-8b06-cce8ee9f5b2a","system_id":"levelo_inurba_marseille","lat":43.3304,"lon":5.38924,"is_reserved":false,"is_disabled":false,"rental_uris":{"android":"levelo://app?vid=d9c65fb5-b538-43a6-8b06-cce8ee9f5b2a","ios":"levelo://app?vid=d9c65fb5-b538-43a6-8b06-cce8ee9f5b2a"},"vehicle_type_id":"4","last_reported":1683965279,"current_range_meters":30000,"station_id":"ce4bhr92rcd13ifvqhrg","pricing_plan_id":"free"},{"bike_id":"11b65974-b9ae-4b70-8498-db205cf3d032","system_id":"levelo_inurba_marseille","lat":43.290103,"lon":5.356114,"is_reserved":false,"is_disabled":false,"rental_uris":{"android":"levelo://app?vid=11b65974-b9ae-4b70-8498-db205cf3d032","ios":"levelo://app?vid=11b65974-b9ae-4b70-8498-db205cf3d032"},"vehicle_type_id":"4","last_reported":1683965279,"current_range_meters":31600,"station_id":"ce4bhb92rcd13ifvqen0","pricing_plan_id":"free"},{"bike_id":"b01649f7-fb55-4a6a-b4a9-686210b3d763","system_id":"levelo_inurba_marseille","lat":43.290103,"lon":5.356114,"is_reserved":false,"is_disabled":false,"rental_uris":{"android":"levelo://app?vid=b01649f7-fb55-4a6a-b4a9-686210b3d763","ios":"levelo://app?vid=b01649f7-fb55-4a6a-b4a9-686210b3d763"},"vehicle_type_id":"4","last_reported":1683965279,"current_range_meters":28400,"station_id":"ce4bhb92rcd13ifvqen0","pricing_plan_id":"free"},{"bike_id":"f32bd144-4c28-4f25-977c-d46ef977af5c","system_id":"levelo_inurba_marseille","lat":43.290104,"lon":5.356111,"is_reserved":false,"is_disabled":false,"rental_uris":{"android":"levelo://app?vid=f32bd144-4c28-4f25-977c-d46ef977af5c","ios":"levelo://app?vid=f32bd144-4c28-4f25-977c-d46ef977af5c"},"vehicle_type_id":"4","last_reported":1683965279,"current_range_meters":28000,"station_id":"ce4bhb92rcd13ifvqen0","pricing_plan_id":"free"},{"bike_id":"fcfc439f-14e9-4946-a92b-ca3041248f3c","system_id":"levelo_inurba_marseille","lat":43.295169,"lon":5.390426,"is_reserved":false,"is_disabled":false,"rental_uris":{"android":"levelo://app?vid=fcfc439f-14e9-4946-a92b-ca3041248f3c","ios":"levelo://app?vid=fcfc439f-14e9-4946-a92b-ca3041248f3c"},"vehicle_type_id":"4","last_reported":1683965279,"current_range_meters":1200,"station_id":"ce4bh3p2rcd13ifvqdp0","pricing_plan_id":"free"},{"bike_id":"a7871d1a-7a0e-4f2b-ad6e-60fde4b88a84","system_id":"levelo_inurba_marseille","lat":43.290094,"lon":5.381264,"is_reserved":false,"is_disabled":false,"rental_uris":{"android":"levelo://app?vid=a7871d1a-7a0e-4f2b-ad6e-60fde4b88a84","ios":"levelo://app?vid=a7871d1a-7a0e-4f2b-ad6e-60fde4b88a84"},"vehicle_type_id":"4","last_reported":1683965279,"current_range_meters":0,"station_id":"ce4bh4p2rcd13ifvqe1g","pricing_plan_id":"free"},{"bike_id":"e64a085f-ec0e-45ca-a567-e2fc1bba9431","system_id":"levelo_inurba_marseille","lat":43.290094,"lon":5.381264,"is_reserved":false,"is_disabled":false,"rental_uris":{"android":"levelo://app?vid=e64a085f-ec0e-45ca-a567-e2fc1bba9431","ios":"levelo://app?vid=e64a085f-ec0e-45ca-a567-e2fc1bba9431"},"vehicle_type_id":"4","last_reported":1683965279,"current_range_meters":0,"station_id":"ce4bh4p2rcd13ifvqe1g","pricing_plan_id":"free"},{"bike_id":"4b5d1898-ca0d-4e89-9f5a-03d37f156b08","system_id":"levelo_inurba_marseille","lat":43.3374,"lon":5.3747,"is_reserved":false,"is_disabled":false,"rental_uris":{"android":"levelo://app?vid=4b5d1898-ca0d-4e89-9f5a-03d37f156b08","ios":"levelo://app?vid=4b5d1898-ca0d-4e89-9f5a-03d37f156b08"},"vehicle_type_id":"4","last_reported":1683965279,"current_range_meters":30400,"station_id":"","pricing_plan_id":"free"},{"bike_id":"7d45944e-d7ef-4cc4-ab14-f45b4fe8e950","system_id":"levelo_inurba_marseille","lat":43.33747,"lon":5.37477,"is_reserved":false,"is_disabled":false,"rental_uris":{"android":"levelo://app?vid=7d45944e-d7ef-4cc4-ab14-f45b4fe8e950","ios":"levelo://app?vid=7d45944e-d7ef-4cc4-ab14-f45b4fe8e950"},"vehicle_type_id":"4","last_reported":1683965279,"current_range_meters":30400,"station_id":"","pricing_plan_id":"free"},{"bike_id":"7050c15b-a483-4d0c-a11b-097fc7e96ca2","system_id":"levelo_inurba_marseille","lat":43.33752,"lon":5.3745,"is_reserved":false,"is_disabled":false,"rental_uris":{"android":"levelo://app?vid=7050c15b-a483-4d0c-a11b-097fc7e96ca2","ios":"levelo://app?vid=7050c15b-a483-4d0c-a11b-097fc7e96ca2"},