{"last_updated":1686953144,"ttl":30,"version":"2.2","data":{"bikes":[{"bike_id":"b4b4dc15-cb17-4587-a725-4c75cd1af347","system_id":"levelo_inurba_marseille","lat":43.309076,"lon":5.368465,"is_reserved":false,"is_disabled":false,"rental_uris":{"android":"levelo://app?vid=b4b4dc15-cb17-4587-a725-4c75cd1af347","ios":"levelo://app?vid=b4b4dc15-cb17-4587-a725-4c75cd1af347"},"vehicle_type_id":"4","last_reported":1686953145,"current_range_meters":27200,"station_id":"ce4bgn92rcd13ifvqbvg","pricing_plan_id":"free"},{"bike_id":"b06c5cb5-b0a0-4b6c-a210-46ba9664efd9","system_id":"levelo_inurba_marseille","lat":43.314811,"lon":5.373103,"is_reserved":false,"is_disabled":false,"rental_uris":{"android":"levelo://app?vid=b06c5cb5-b0a0-4b6c-a210-46ba9664efd9","ios":"levelo://app?vid=b06c5cb5-b0a0-4b6c-a210-46ba9664efd9"},"vehicle_type_id":"4","last_reported":1686953145,"current_range_meters":2400,"station_id":"ce4bgt12rcd13ifvqcd0","pricing_plan_id":"free"},{"bike_id":"7b118a9c-fb85-47a8-978e-6cf9d29cd710","system_id":"levelo_inurba_marseille","lat":43.314811,"lon":5.373104,"is_reserved":false,"is_disabled":false,"rental_uris":{"android":"levelo://app?vid=7b118a9c-fb85-47a8-978e-6cf9d29cd710","ios":"levelo://app?vid=7b118a9c-fb85-47a8-978e-6cf9d29cd710"},"vehicle_type_id":"4","last_reported":1686953145,"current_range_meters":30800,"station_id":"ce4bgt12rcd13ifvqcd0","pricing_plan_id":"free"},{"bike_id":"6dd8e396-0120-4a1f-a2dc-fec75c4677a5","system_id":"levelo_inurba_marseille","lat":43.305368,"lon":5.367343,"is_reserved":false,"is_disabled":false,"rental_uris":{"android":"levelo://app?vid=6dd8e396-0120-4a1f-a2dc-fec75c4677a5","ios":"levelo://app?vid=6dd8e396-0120-4a1f-a2dc-fec75c4677a5"},"vehicle_type_id":"4","last_reported":1686953145,"current_range_meters":14000,"station_id":"ce4bgrp2rcd13ifvqc9g","pricing_plan_id":"free"},{"bike_id":"c8180d9c-6e76-457c-baa3-66fab8c4bcf8","system_id":"levelo_inurba_marseille","lat":43.305368,"lon":5.367343,"is_reserved":false,"is_disabled":false,"rental_uris":{"android":"levelo://app?vid=c8180d9c-6e76-457c-baa3-66fab8c4bcf8","ios":"levelo://app?vid=c8180d9c-6e76-457c-baa3-66fab8c4bcf8"},"vehicle_type_id":"4","last_reported":1686953145,"current_range_meters":31200,"station_id":"ce4bgrp2rcd13ifvqc9g","pricing_plan_id":"free"},{"bike_id":"d8edadcf-bae6-4763-a7b6-69b1b3e6db30","system_id":"levelo_inurba_marseille","lat":43.305714,"lon":5.365633,"is_reserved":false,"is_disabled":false,"rental_uris":{"android":"levelo://app?vid=d8edadcf-bae6-4763-a7b6-69b1b3e6db30","ios":"levelo://app?vid=d8edadcf-bae6-4763-a7b6-69b1b3e6db30"},"vehicle_type_id":"4","last_reported":1686953145,"current_range_meters":800,"station_id":"ce4bgs12rcd13ifvqcag","pricing_plan_id":"free"},{"bike_id":"ec631e2f-e7ea-414b-9d75-50d939e3959f","system_id":"levelo_inurba_marseille","lat":43.297794,"lon":5.370888,"is_reserved":false,"is_disabled":false,"rental_uris":{"android":"levelo://app?vid=ec631e2f-e7ea-414b-9d75-50d939e3959f","ios":"levelo://app?vid=ec631e2f-e7ea-414b-9d75-50d939e3959f"},"vehicle_type_id":"4","last_reported":1686953145,"current_range_meters":26800,"station_id":"ce4bgop2rcd13ifvqc1g","pricing_plan_id":"free"},{"bike_id":"c0943b7b-1dc0-4ebc-9158-a230ab2ebeeb","system_id":"levelo_inurba_marseille","lat":43.305989,"lon":5.37225,"is_reserved":false,"is_disabled":false,"rental_uris":{"android":"levelo://app?vid=c0943b7b-1dc0-4ebc-9158-a230ab2ebeeb","ios":"levelo://app?vid=c0943b7b-1dc0-4ebc-9158-a230ab2ebeeb"},"vehicle_type_id":"4","last_reported":1686953145,"current_range_meters":27600,"station_id":"ce4bgqh2rcd13ifvqc4g","pricing_plan_id":"free"},{"bike_id":"d6daecbb-361b-49c6-a5cc-62f2d95483fb","system_id":"levelo_inurba_marseille","lat":43.305989,"lon":5.37225,"is_reserved":false,"is_disabled":false,"rental_uris":{"android":"levelo://app?vid=d6daecbb-361b-49c6-a5cc-62f2d95483fb","ios":"levelo://app?vid=d6daecbb-361b-49c6-a5cc-62f2d95483fb"},"vehicle_type_id":"4","last_reported":1686953145,"current_range_meters":13200,"station_id":"ce4bgqh2rcd13ifvqc4g","pricing_plan_id":"free"},{"bike_id":"646db752-f8dd-414c-8b54-ec7f9e8a263c","system_id":"levelo_inurba_marseille","lat":43.311125,"lon":5.377624,"is_reserved":false,"is_disabled":false,"rental_uris":{"android":"levelo://app?vid=646db752-f8dd-414c-8b54-ec7f9e8a263c","ios":"levelo://app?vid=646db752-f8dd-414c-8b54-ec7f9e8a263c"},"vehicle_type_id":"4","last_reported":1686953145,"current_range_meters":24800,"station_id":"ce4bgt92rcd13ifvqcg0","pricing_plan_id":"free"},{"bike_id":"c3ba90eb-a943-4a9c-b70d-d355daca4f1d","system_id":"levelo_inurba_marseille","lat":43.311125,"lon":5.377624,"is_reserved":false,"is_disabled":false,"rental_uris":{"android":"levelo://app?vid=c3ba90eb-a943-4a9c-b70d-d355daca4f1d","ios":"levelo://app?vid=c3ba90eb-a943-4a9c-b70d-d355daca4f1d"},"vehicle_type_id":"4","last_reported":1686953145,"current_range_meters":22000,"station_id":"ce4bgt92rcd13ifvqcg0","pricing_plan_id":"free"},{"bike_id":"09941c8e-d9e9-4d84-87eb-77d4dbb68a64","system_id":"levelo_inurba_marseille","lat":43.31698,"lon":5.37768,"is_reserved":false,"is_disabled":false,"rental_uris":{"android":"levelo://app?vid=09941c8e-d9e9-4d84-87eb-77d4dbb68a64","ios":"levelo://app?vid=09941c8e-d9e9-4d84-87eb-77d4dbb68a64"},"vehicle_type_id":"4","last_reported":1686953145,"current_range_meters":14400,"station_id":"","pricing_plan_id":"free"},{"bike_id":"2424216c-0462-4ad0-b127-d0366c91b61c","system_id":"levelo_inurba_marseille","lat":43.31708,"lon":5.37762,"is_reserved":false,"is_disabled":false,"rental_uris":{"android":"levelo://app?vid=2424216c-0462-4ad0-b127-d0366c91b61c","ios":"levelo://app?vid=2424216c-0462-4ad0-b127-d0366c91b61c"},"vehicle_type_id":"4","last_reported":1686953145,"current_range_meters":30400,"station_id":"ce4bgth2rcd13ifvqch0","pricing_plan_id":"free"},{"bike_id":"cd1d5b53-181e-4202-a40b-370ba28547cc","system_id":"levelo_inurba_marseille","lat":43.30304,"lon":5.368987,"is_reserved":false,"is_disabled":false,"rental_uris":{"android":"levelo://app?vid=cd1d5b53-181e-4202-a40b-370ba28547cc","ios":"levelo://app?vid=cd1d5b53-181e-4202-a40b-370ba28547cc"},"vehicle_type_id":"4","last_reported":1686953145,"current_range_meters":3200,"station_id":"ce4bgqh2rcd13ifvqc5g","pricing_plan_id":"free"},{"bike_id":"e037b9cd-5627-4ec0-be63-340c1fb5b2ef","system_id":"levelo_inurba_marseille","lat":43.303046,"lon":5.368981,"is_reserved":false,"is_disabled":false,"rental_uris":{"android":"levelo://app?vid=e037b9cd-5627-4ec0-be63-340c1fb5b2ef","ios":"levelo://app?vid=e037b9cd-5627-4ec0-be63-340c1fb5b2ef"},"vehicle_type_id":"4","last_reported":1686953145,"current_range_meters":8400,"station_id":"ce4bgqh2rcd13ifvqc5g","pricing_plan_id":"free"},{"bike_id":"46bb3f47-908b-4b9e-9d58-bbeb1fffa81a","system_id":"levelo_inurba_marseille","lat":43.315293,"lon":5.380349,"is_reserved":false,"is_disabled":false,"rental_uris":{"android":"levelo://app?vid=46bb3f47-908b-4b9e-9d58-bbeb1fffa81a","ios":"levelo://app?vid=46bb3f47-908b-4b9e-9d58-bbeb1fffa81a"},"vehicle_type_id":"4","last_reported":1686953145,"current_range_meters":14800,"station_id":"ce4bhsp2rcd13ifvqi50","pricing_plan_id":"free"},{"bike_id":"721ca755-5419-4da8-8f0f-ef8c35c044cc","system_id":"levelo_inurba_marseille","lat":43.308012,"lon":5.381511,"is_reserved":false,"is_disabled":false,"rental_uris":{"android":"levelo://app?vid=721ca755-5419-4da8-8f0f-ef8c35c044cc","ios":"levelo://app?vid=721ca755-5419-4da8-8f0f-ef8c35c044cc"},"vehicle_type_id":"4","last_reported":1686953145,"current_range_meters":24800,"station_id":"ce4bgt12rcd13ifvqce0","pricing_plan_id":"free"},{"bike_id":"ae33307b-fcd5-479b-9ae1-9002ed226c6e","system_id":"levelo_inurba_marseille","lat":43.308012,"lon":5.381511,"is_reserved":false,"is_disabled":false,"rental_uris":{"android":"levelo://app?vid=ae33307b-fcd5-479b-9ae1-9002ed226c6e","ios":"levelo://app?vid=ae33307b-fcd5-479b-9ae1-9002ed226c6e"},"vehicle_type_id":"4","last_reported":1686953145,"current_range_meters":13200,"station_id":"ce4bgt12rcd13ifvqce0","pricing_plan_id":"free"},{"bike_id":"fc4a69da-5dee-4c68-8631-20ee11bc487b","system_id":"levelo_inurba_marseille","lat":43.304606,"lon":5.379026,"is_reserved":false,"is_disabled":false,"rental_uris":{"android":"levelo://app?vid=fc4a69da-5dee-4c68-8631-20ee11bc487b","ios":"levelo://app?vid=fc4a69da-5dee-4c68-8631-20ee11bc487b"},"vehicle_type_id":"4","last_reported":1686953145,"current_range_meters":30000,"station_id":"ce4bgup2rcd13ifvqcn0","pricing_plan_id":"free"},{"bike_id":"43fc693e-f2a9-4aec-8fd9-d094bb02cb70","system_id":"levelo_inurba_marseille","lat":43.304606,"lon":5.379026,"is_reserved":false,"is_disabled":false,"rental_uris":{"android":"levelo://app?vid=43fc693e-f2a9-4aec-8fd9-d094bb02cb70","ios":"levelo://app?vid=43fc693e-f2a9-4aec-8fd9-d094bb02cb70"},"vehicle_type_id":"4","last_reported":1686953145,"current_range_meters":23600,"station_id":"ce4bgup2rcd13ifvqcn0","pricing_plan_id":"free"},{"bike_id":"32827146-2d6b-4fb1-b00e-6b2f535ca544","system_id":"levelo_inurba_marseille","lat":43.30494,"lon":5.37972,"is_reserved":false,"is_disabled":false,"rental_uris":{"android":"levelo://app?vid=32827146-2d6b-4fb1-b00e-6b2f535ca544","ios":"levelo://app?vid=32827146-2d6b-4fb1-b00e-6b2f535ca544"},"vehicle_type_id":"4","last_reported":1686953145,"current_range_meters":30800,"station_id":"","pricing_plan_id":"free"},{"bike_id":"f47de650-738d-469c-803d-ea625472004d","system_id":"levelo_inurba_marseille","lat":43.30077,"lon":5.36388,"is_reserved":false,"is_disabled":false,"rental_uris":{"android":"levelo://app?vid=f47de650-738d-469c-803d-ea625472004d","ios":"levelo://app?vid=f47de650-738d-469c-803d-ea625472004d"},"vehicle_type_id":"4","last_reported":1686953145,"current_range_meters":22400,"station_id":"","pricing_plan_id":"free"},{"bike_id":"ab9ca354-a02c-4fa0-b7b8-3180993efd41","system_id":"levelo_inurba_marseille","lat":43.30074,"lon":5.3639,"is_reserved":false,"is_disabled":false,"rental_uris":{"android":"levelo://app?vid=ab9ca354-a02c-4fa0-b7b8-3180993efd41","ios":"levelo://app?vid=ab9ca354-a02c-4fa0-b7b8-3180993efd41"},"vehicle_type_id":"4","last_reported":1686953145,"current_range_meters":25200,"station_id":"","pricing_plan_id":"free"},{"bike_id":"9f3a129a-ea77-4460-b3f5-662da8601911","system_id":"levelo_inurba_marseille","lat":43.30146,"lon":5.37413,"is_reserved":false,"is_disabled":false,"rental_uris":{"android":"levelo://app?vid=9f3a129a-ea77-4460-b3f5-662da8601911","ios":"levelo://app?vid=9f3a129a-ea77-4460-b3f5-662da8601911"},"vehicle_type_id":"4","last_reported":1686953145,"current_range_meters":31200,"station_id":"ce4bgs92rcd13ifvqcc0","pricing_plan_id":"free"},{"bike_id":"dfc0cbe9-e7d8-46b1-8fc9-450226ff9a63","system_id":"levelo_inurba_marseille","lat":43.30137,"lon":5.37403,"is_reserved":false,"is_disabled":false,"rental_uris":{"android":"levelo://app?vid=dfc0cbe9-e7d8-46b1-8fc9-450226ff9a63","ios":"levelo://app?vid=dfc0cbe9-e7d8-46b1-8fc9-450226ff9a63"},"vehicle_type_id":"4","last_reported":1686953145,"current_range_meters":14000,"station_id":"ce4bgs92rcd13ifvqcc0","pricing_plan_id":"free"},{"bike_id":"84c99c38-6e6e-4243-9a18-a434754e8380","system_id":"levelo_inurba_marseille","lat":43.30139,"lon":5.37411,"is_reserved":false,"is_disabled":false,"rental_uris":{"android":"levelo://app?vid=84c99c38-6e6e-4243-9a18-a434754e8380","ios":"levelo://app?vid=84c99c38-6e6e-4243-9a18-a434754e8380"},"vehicle_type_id":"4","last_reported":1686953145,"current_range_meters":31600,"station_id":"ce4bgs92rcd13ifvqcc0","pricing_plan_id":"free"},{"bike_id":"8f1baaf5-0cd7-4213-8819-3cd99c0dec58","system_id":"levelo_inurba_marseille","lat":43.30137,"lon":5.37417,"is_reserved":false,"is_disabled":false,"rental_uris":{"android":"levelo://app?vid=8f1baaf5-0cd7-4213-8819-3cd99c0dec58","ios":"levelo://app?vid=8f1baaf5-0cd7-4213-8819-3cd99c0dec58"},"vehicle_type_id":"4","last_reported":1686953145,"current_range_meters":17200,"station_id":"ce4bgs92rcd13ifvqcc0","pricing_plan_id":"free"},{"bike_id":"ef8b104a-a4d6-479c-bbb7-5ce95d85ea82","system_id":"levelo_inurba_marseille","lat":43.301429,"lon":5.37413,"is_reserved":false,"is_disabled":false,"rental_uris":{"android":"levelo://app?vid=ef8b104a-a4d6-479c-bbb7-5ce95d85ea82","ios":"levelo://app?vid=ef8b104a-a4d6-479c-bbb7-5ce95d85ea82"},"vehicle_type_id":"4","last_reported":1686953145,"current_range_meters":31200,"station_id":"ce4bgs92rcd13ifvqcc0","pricing_plan_id":"free"},{"bike_id":"3f535af0-37d0-49bd-98d7-bd9dcccbdbc4","system_id":"levelo_inurba_marseille","lat":43.301429,"lon":5.37413,"is_reserved":false,"is_disabled":false,"rental_uris":{"android":"levelo://app?vid=3f535af0-37d0-49bd-98d7-bd9dcccbdbc4","ios":"levelo://app?vid=3f535af0-37d0-49bd-98d7-bd9dcccbdbc4"},"vehicle_type_id":"4","last_reported":1686953145,"current_range_meters":13600,"station_id":"ce4bgs92rcd13ifvqcc0","pricing_plan_id":"free"},{"bike_id":"a29bde0a-83ef-4275-9205-99e332e1df63","system_id":"levelo_inurba_marseille","lat":43.301429,"lon":5.37413,"is_reserved":false,"is_disabled":false,"rental_uris":{"android":"levelo://app?vid=a29bde0a-83ef-4275-9205-99e332e1df63","ios":"levelo://app?vid=a29bde0a-83ef-4275-9205-99e332e1df63"},"vehicle_type_id":"4","last_reported":1686953145,"current_range_meters":27200,"station_id":"ce4bgs92rcd13ifvqcc0","pricing_plan_id":"free"},{"bike_id":"35c2b480-e69a-4543-9412-895f27c2a34e","system_id":"levelo_inurba_marseille","lat":43.319935,"lon":5.381699,"is_reserved":false,"is_disabled":false,"rental_uris":{"android":"levelo://app?vid=35c2b480-e69a-4543-9412-895f27c2a34e","ios":"levelo://app?vid=35c2b480-e69a-4543-9412-895f27c2a34e"},"vehicle_type_id":"4","last_reported":1686953145,"current_range_meters":5200,"station_id":"ce4bhr12rcd13ifvqhpg","pricing_plan_id":"free"},{"bike_id":"8fce8128-d8b9-4e54-b948-117df1579464","system_id":"levelo_inurba_marseille","lat":43.319935,"lon":5.381699,"is_reserved":false,"is_disabled":false,"rental_uris":{"android":"levelo://app?vid=8fce8128-d8b9-4e54-b948-117df1579464","ios":"levelo://app?vid=8fce8128-d8b9-4e54-b948-117df1579464"},"vehicle_type_id":"4","last_reported":1686953145,"current_range_meters":20400,"station_id":"ce4bhr12rcd13ifvqhpg","pricing_plan_id":"free"},{"bike_id":"6ab70fa5-f07a-41ab-bc3a-37757bb35c77","system_id":"levelo_inurba_marseille","lat":43.313571,"lon":5.384829,"is_reserved":false,"is_disabled":false,"rental_uris":{"android":"levelo://app?vid=6ab70fa5-f07a-41ab-bc3a-37757bb35c77","ios":"levelo://app?vid=6ab70fa5-f07a-41ab-bc3a-37757bb35c77"},"vehicle_type_id":"4","last_reported":1686953145,"current_range_meters":15200,"station_id":"ce4bgt92rcd13ifvqcf0","pricing_plan_id":"free"},{"bike_id":"8d9d5263-de87-473b-bac5-6a426a005a84","system_id":"levelo_inurba_marseille","lat":43.313571,"lon":5.384829,"is_reserved":false,"is_disabled":false,"rental_uris":{"android":"levelo://app?vid=8d9d5263-de87-473b-bac5-6a426a005a84","ios":"levelo://app?vid=8d9d5263-de87-473b-bac5-6a426a005a84"},"vehicle_type_id":"4","last_reported":1686953145,"current_range_meters":27200,"station_id":"ce4bgt92rcd13ifvqcf0","pricing_plan_id":"free"},{"bike_id":"19b331cb-4c88-4ccf-90ac-12e3b75cc718","system_id":"levelo_inurba_marseille","lat":43.313571,"lon":5.384829,"is_reserved":false,"is_disabled":false,"rental_uris":{"android":"levelo://app?vid=19b331cb-4c88-4ccf-90ac-12e3b75cc718","ios":"levelo://app?vid=19b331cb-4c88-4ccf-90ac-12e3b75cc718"},"vehicle_type_id":"4","last_reported":1686953145,"current_range_meters":13200,"station_id":"ce4bgt92rcd13ifvqcf0","pricing_plan_id":"free"},{"bike_id":"4be3dee9-0a87-4edc-9ee6-a8fa4f420efa","system_id":"levelo_inurba_marseille","lat":43.299389,"lon":5.365534,"is_reserved":false,"is_disabled":false,"rental_uris":{"android":"levelo://app?vid=4be3dee9-0a87-4edc-9ee6-a8fa4f420efa","ios":"levelo://app?vid=4be3dee9-0a87-4edc-9ee6-a8fa4f420efa"},"vehicle_type_id":"4","last_reported":1686953145,"current_range_meters":24400,"station_id":"","pricing_plan_id":"free"},{"bike_id":"330412da-b9eb-49fa-9ba0-9288ee9ddd31","system_id":"levelo_inurba_marseille","lat":43.30038,"lon":5.37526,"is_reserved":false,"is_disabled":false,"rental_uris":{"android":"levelo://app?vid=330412da-b9eb-49fa-9ba0-9288ee9ddd31","ios":"levelo://app?vid=330412da-b9eb-49fa-9ba0-9288ee9ddd31"},"vehicle_type_id":"4","last_reported":1686953145,"current_range_meters":21600,"station_id":"","pricing_plan_id":"free"},{"bike_id":"e66323a5-3f1d-4020-b436-ad9e2f00c6b5","system_id":"levelo_inurba_marseille","lat":43.299243,"lon":5.37481,"is_reserved":false,"is_disabled":false,"rental_uris":{"android":"levelo://app?vid=e66323a5-3f1d-4020-b436-ad9e2f00c6b5","ios":"levelo://app?vid=e66323a5-3f1d-4020-b436-ad9e2f00c6b5"},"vehicle_type_id":"4","last_reported":1686953145,"current_range_meters":0,"station_id":"ce4bgjh2rcd13ifvqbg0","pricing_plan_id":"free"},{"bike_id":"176f4894-d7fc-460e-aa5d-7c8c1e206dc3","system_id":"levelo_inurba_marseille","lat":43.297163,"lon":5.365866,"is_reserved":false,"is_disabled":false,"rental_uris":{"android":"levelo://app?vid=176f4894-d7fc-460e-aa5d-7c8c1e206dc3","ios":"levelo://app?vid=176f4894-d7fc-460e-aa5d-7c8c1e206dc3"},"vehicle_type_id":"4","last_reported":1686953145,"current_range_meters":18800,"station_id":"ce4bgn12rcd13ifvqbt0","pricing_plan_id":"free"},{"bike_id":"88d0330c-5bb0-4a19-9b65-d4683b42e015","system_id":"levelo_inurba_marseille","lat":43.29683,"lon":5.36046,"is_reserved":false,"is_disabled":false,"rental_uris":{"android":"levelo://app?vid=88d0330c-5bb0-4a19-9b65-d4683b42e015","ios":"levelo://app?vid=88d0330c-5bb0-4a19-9b65-d4683b42e015"},"vehicle_type_id":"4","last_reported":1686953145,"current_range_meters":8800,"station_id":"ce4bgpp2rcd13ifvqc3g","pricing_plan_id":"free"},{"bike_id":"24f41ca5-b432-4feb-a0c8-a15026b97306","system_id":"levelo_inurba_marseille","lat":43.296131,"lon":5.370773,"is_reserved":false,"is_disabled":false,"rental_uris":{"android":"levelo://app?vid=24f41ca5-b432-4feb-a0c8-a15026b97306","ios":"levelo://app?vid=24f41ca5-b432-4feb-a0c8-a15026b97306"},"vehicle_type_id":"4","last_reported":1686953145,"current_range_meters":18400,"station_id":"ce4bgnh2rcd13ifvqc0g","pricing_plan_id":"free"},{"bike_id":"f0d398ba-5fbd-40a2-8eb4-3daf2a765a19","system_id":"levelo_inurba_marseille","lat":43.3175,"lon":5.39007,"is_reserved":false,"is_disabled":false,"rental_uris":{"android":"levelo://app?vid=f0d398ba-5fbd-40a2-8eb4-3daf2a765a19","ios":"levelo://app?vid=f0d398ba-5fbd-40a2-8eb4-3daf2a765a19"},"vehicle_type_id":"4","last_reported":1686953145,"current_range_meters":27200,"station_id":"ce4bhqp2rcd13ifvqhng","pricing_plan_id":"free"},{"bike_id":"250c8a96-8498-4211-b8f3-1b00a8d1fbaf","system_id":"levelo_inurba_marseille","lat":43.296477,"lon":5.37768,"is_reserved":false,"is_disabled":false,"rental_uris":{"android":"levelo://app?vid=250c8a96-8498-4211-b8f3-1b00a8d1fbaf","ios":"levelo://app?vid=250c8a96-8498-4211-b8f3-1b00a8d1fbaf"},"vehicle_type_id":"4","last_reported":1686953145,"current_range_meters":18800,"station_id":"","pricing_plan_id":"free"},{"bike_id":"5a2be942-eb74-4d02-b446-be02a784316f","system_id":"levelo_inurba_marseille","lat":43.32367,"lon":5.388836,"is_reserved":false,"is_disabled":false,"rental_uris":{"android":"levelo://app?vid=5a2be942-eb74-4d02-b446-be02a784316f","ios":"levelo://app?vid=5a2be942-eb74-4d02-b446-be02a784316f"},"vehicle_type_id":"4","last_reported":1686953145,"current_range_meters":5600,"station_id":"ce4bhqp2rcd13ifvqhog","pricing_plan_id":"free"},{"bike_id":"2c9ad911-25e0-4222-8751-d809dfadd582","system_id":"levelo_inurba_marseille","lat":43.32367,"lon":5.388836,"is_reserved":false,"is_disabled":false,"rental_uris":{"android":"levelo://app?vid=2c9ad911-25e0-4222-8751-d809dfadd582","ios":"levelo://app?vid=2c9ad911-25e0-4222-8751-d809dfadd582"},"vehicle_type_id":"4","last_reported":1686953145,"current_range_meters":28800,"station_id":"ce4bhqp2rcd13ifvqhog","pricing_plan_id":"free"},{"bike_id":"4e4ada0f-35fd-4753-9468-ed6564a42d3a","system_id":"levelo_inurba_marseille","lat":43.32367,"lon":5.388836,"is_reserved":false,"is_disabled":false,"rental_uris":{"android":"levelo://app?vid=4e4ada0f-35fd-4753-9468-ed6564a42d3a","ios":"levelo://app?vid=4e4ada0f-35fd-4753-9468-ed6564a42d3a"},"vehicle_type_id":"4","last_reported":1686953145,"current_range_meters":23200,"station_id":"ce4bhqp2rcd13ifvqhog","pricing_plan_id":"free"},{"bike_id":"6563fc8f-37de-404e-be9b-a296b574b350","system_id":"levelo_inurba_marseille","lat":43.32367,"lon":5.388836,"is_reserved":false,"is_disabled":false,"rental_uris":{"android":"levelo://app?vid=6563fc8f-37de-404e-be9b-a296b574b350","ios":"levelo://app?vid=6563fc8f-37de-404e-be9b-a296b574b350"},"vehicle_type_id":"4","last_reported":1686953145,"current_range_meters":8000,"station_id":"ce4bhqp2rcd13ifvqhog","pricing_plan_id":"free"},{"bike_id":"6a262f0e-f14a-4b8c-a27e-1f19206efa3b","system_id":"levelo_inurba_marseille","lat":43.31417,"lon":5.39379,"is_reserved":false,"is_disabled":false,"rental_uris":{"android":"levelo://app?vid=6a262f0e-f14a-4b8c-a27e-1f19206efa3b","ios":"levelo://app?vid=6a262f0e-f14a-4b8c-a27e-1f19206efa3b"},"vehicle_type_id":"4","last_reported":1686953145,"current_range_meters":27600,"station_id":"","pricing_plan_id":"free"},{"bike_id":"3e662818-e625-4488-b167-1240b38e659f","system_id":"levelo_inurba_marseille","lat":43.29222,"lon":5.3606,"is_reserved":false,"is_disabled":false,"rental_uris":{"android":"levelo://app?vid=3e662818-e625-4488-b167-1240b38e659f","ios":"levelo://app?vid=3e662818-e625-4488-b167-1240b38e659f"},"vehicle_type_id":"4","last_reported":1686953145,"current_range_meters":23600,"station_id":"ce4bhbh2rcd13ifvqeqg","pricing_plan_id":"free"},{"bike_id":"edd27ecf-5e8a-44a0-82e6-021137b2b9de","system_id":"levelo_inurba_marseille","lat":43.293,"lon":5.35678,"is_reserved":false,"is_disabled":false,"rental_uris":{"android":"levelo://app?vid=edd27ecf-5e8a-44a0-82e6-021137b2b9de","ios":"levelo://app?vid=edd27ecf-5e8a-44a0-82e6-021137b2b9de"},"vehicle_type_id":"4","last_reported":1686953145,"current_range_meters":4000,"station_id":"","pricing_plan_id":"free"},{"bike_id":"eec9743f-fce6-4a6f-bb45-5a4a7d109958","system_id":"levelo_inurba_marseille","lat":43.309038,"lon":5.396546,"is_reserved":false,"is_disabled":false,"rental_uris":{"android":"levelo://app?vid=eec9743f-fce6-4a6f-bb45-5a4a7d109958","ios":"levelo://app?vid=eec9743f-fce6-4a6f-bb45-5a4a7d109958"},"vehicle_type_id":"4","last_reported":1686953145,"current_range_meters":4400,"station_id":"ce4bh012rcd13ifvqcv0","pricing_plan_id":"free"},{"bike_id":"a599d736-91d5-4137-981e-54cbfaa30792","system_id":"levelo_inurba_marseille","lat":43.309038,"lon":5.396546,"is_reserved":false,"is_disabled":false,"rental_uris":{"android":"levelo://app?vid=a599d736-91d5-4137-981e-54cbfaa30792","ios":"levelo://app?vid=a599d736-91d5-4137-981e-54cbfaa30792"},"vehicle_type_id":"4","last_reported":1686953145,"current_range_meters":0,"station_id":"ce4bh012rcd13ifvqcv0","pricing_plan_id":"free"},{"bike_id":"5a9f00bd-cd48-4368-9c6b-f11b48f8ee67","system_id":"levelo_inurba_marseille","lat":43.313291,"lon":5.396838,"is_reserved":false,"is_disabled":false,"rental_uris":{"android":"levelo://app?vid=5a9f00bd-cd48-4368-9c6b-f11b48f8ee67","ios":"levelo://app?vid=5a9f00bd-cd48-4368-9c6b-f11b48f8ee67"},"vehicle_type_id":"4","last_reported":1686953145,"current_range_meters":3200,"station_id":"ce4bgvp2rcd13ifvqcu0","pricing_plan_id":"free"},{"bike_id":"5a5052c7-f094-443c-a7b0-11d428b8412d","system_id":"levelo_inurba_marseille","lat":43.309038,"lon":5.396546,"is_reserved":false,"is_disabled":false,"rental_uris":{"android":"levelo://app?vid=5a5052c7-f094-443c-a7b0-11d428b8412d","ios":"levelo://app?vid=5a5052c7-f094-443c-a7b0-11d428b8412d"},"vehicle_type_id":"4","last_reported":1686953145,"current_range_meters":14000,"station_id":"ce4bh012rcd13ifvqcv0","pricing_plan_id":"free"},{"bike_id":"d1d8351a-380b-4ec5-9792-88a18e055988","system_id":"levelo_inurba_marseille","lat":43.29063,"lon":5.37178,"is_reserved":false,"is_disabled":false,"rental_uris":{"android":"levelo://app?vid=d1d8351a-380b-4ec5-9792-88a18e055988","ios":"levelo://app?vid=d1d8351a-380b-4ec5-9792-88a18e055988"},"vehicle_type_id":"4","last_reported":1686953145,"current_range_meters":0,"station_id":"","pricing_plan_id":"free"},{"bike_id":"8f4010d5-bf52-411a-a573-7f12122c3a02","system_id":"levelo_inurba_marseille","lat":43.302008,"lon":5.394694,"is_reserved":false,"is_disabled":false,"rental_uris":{"android":"levelo://app?vid=8f4010d5-bf52-411a-a573-7f12122c3a02","ios":"levelo://app?vid=8f4010d5-bf52-411a-a573-7f12122c3a02"},"vehicle_type_id":"4","last_reported":1686953145,"current_range_meters":15200,"station_id":"ce4bh0p2rcd13ifvqd70","pricing_plan_id":"free"},{"bike_id":"38eb09af-7166-42b9-865e-84246929498f","system_id":"levelo_inurba_marseille","lat":43.2925,"lon":5.38455,"is_reserved":false,"is_disabled":false,"rental_uris":{"android":"levelo://app?vid=38eb09af-7166-42b9-865e-84246929498f","ios":"levelo://app?vid=38eb09af-7166-42b9-865e-84246929498f"},"vehicle_type_id":"4","last_reported":1686953145,"current_range_meters":31200,"station_id":"","pricing_plan_id":"free"},{"bike_id":"efd9ad73-20e4-48a8-9273-d79e81729f94","system_id":"levelo_inurba_marseille","lat":43.33044,"lon":5.3892,"is_reserved":false,"is_disabled":false,"rental_uris":{"android":"levelo://app?vid=efd9ad73-20e4-48a8-9273-d79e81729f94","ios":"levelo://app?vid=efd9ad73-20e4-48a8-9273-d79e81729f94"},"vehicle_type_id":"4","last_reported":1686953145,"current_range_meters":3200,"station_id":"ce4bhr92rcd13ifvqhrg","pricing_plan_id":"free"},{"bike_id":"6293f34c-1ab7-4acd-81cf-c821cc94a2af","system_id":"levelo_inurba_marseille","lat":43.290995,"lon":5.381361,"is_reserved":false,"is_disabled":false,"rental_uris":{"android":"levelo://app?vid=6293f34c-1ab7-4acd-81cf-c821cc94a2af","ios":"levelo://app?vid=6293f34c-1ab7-4acd-81cf-c821cc94a2af"},"vehicle_type_id":"4","last_reported":1686953145,"current_range_meters":6800,"station_id":"ce4bh512rcd13ifvqe2g","pricing_plan_id":"free"},{"bike_id":"46ef7315-6f65-4010-9310-b4930df703a8","system_id":"levelo_inurba_marseille","lat":43.290995,"lon":5.381361,"is_reserved":false,"is_disabled":false,"rental_uris":{"android":"levelo://app?vid=46ef7315-6f65-4010-9310-b4930df703a8","ios":"levelo://app?vid=46ef7315-6f65-4010-9310-b4930df703a8"},"vehicle_type_id":"4","last_reported":1686953145,"current_range_meters":31200,"station_id":"ce4bh512rcd13ifvqe2g","pricing_plan_id":"free"},{"bike_id":"fb135534-f977-4895-addb-ce192085a728","system_id":"levelo_inurba_marseille","lat":43.28856,"lon":5.358371,"is_reserved":false,"is_disabled":false,"rental_uris":{"android":"levelo://app?vid=fb135534-f977-4895-addb-ce192085a728","ios":"levelo://app?vid=fb135534-f977-4895-addb-ce192085a728"},"vehicle_type_id":"4","last_reported":1686953145,"current_range_meters":18800,"station_id":"ce4bhb12rcd13ifvqem0","pricing_plan_id":"free"},{"bike_id":"c0fb8083-e02d-4dec-b1b9-fa095e6c5b75","system_id":"levelo_inurba_marseille","lat":43.337396,"lon":5.374526,"is_reserved":false,"is_disabled":false,"rental_uris":{"android":"levelo://app?vid=c0fb8083-e02d-4dec-b1b9-fa095e6c5b75","ios":"levelo://app?vid=c0fb8083-e02d-4dec-b1b9-fa095e6c5b75"},"vehicle_type_id":"4","last_reported":1686953145,"current_range_meters":0,"station_id":"ce4bhp92rcd13ifvqhag","pricing_plan_id":"free"},{"bike_id":"d5e6bd0f-c204-4df0-a839-e4ec2e2e56d8","system_id":"levelo_inurba_marseille","lat":43.309371,"lon":5.401449,"is_reserved":false,"is_disabled":false,"rental_uris":{"android":"levelo://app?vid=d5e6bd0f-c204-4df0-a839-e4ec2e2e56d8","ios":"levelo://app?vid=d5e6bd0f-c204-4df0-a839-e4ec2e2e56d8"},"vehicle_type_id":"4","last_reported":1686953145,"current_range_meters":24400,"station_id":"ce4bgvp2rcd13ifvqct0","pricing_plan_id":"free"},{"bike_id":"db3ef8fc-0c04-43e7-a028-7b3fcc410f45","system_id":"levelo_inurba_marseille","lat":43.309371,"lon":5.401449,"is_reserved":false,"is_disabled":false,"rental_uris":{"android":"levelo://app?vid=db3ef8fc-0c04-43e7-a028-7b3fcc410f45","ios":"levelo://app?vid=db3ef8fc-0c04-43e7-a028-7b3fcc410f45"},"vehicle_type_id":"4","last_reported":1686953145,"current_range_meters":21200,"station_id":"ce4bgvp2rcd13ifvqct0","pricing_plan_id":"free"},{"bike_id":"59b3f6f1-0ebf-42d2-b30f-1502a92c4eb2","system_id":"levelo_inurba_marseille","lat":43.306412,"lon":5.401035,"is_reserved":false,"is_disabled":false,"rental_uris":{"android":"levelo://app?vid=59b3f6f1-0ebf-42d2-b30f-1502a92c4eb2","ios":"levelo://app?vid=59b3f6f1-0ebf-42d2-b30f-1502a92c4eb2"},"vehicle_type_id":"4","last_reported":1686953145,"current_range_meters":19200,"station_id":"ce4bh112rcd13ifvqda0","pricing_plan_id":"free"},{"bike_id":"a3914528-27ba-4acc-bec1-258d2b2744ea","system_id":"levelo_inurba_marseille","lat":43.309371,"lon":5.401449,"is_reserved":false,"is_disabled":false,"rental_uris":{"android":"levelo://app?vid=a3914528-27ba-4acc-bec1-258d2b2744ea","ios":"levelo://app?vid=a3914528-27ba-4acc-bec1-258d2b2744ea"},"vehicle_type_id":"4","last_reported":1686953145,"current_range_meters":9200,"station_id":"ce4bgvp2rcd13ifvqct0","pricing_plan_id":"free"},{"bike_id":"829fcc70-faf8-43cb-81ae-858e61c66ed9","system_id":"levelo_inurba_marseille","lat":43.30642,"lon":5.401031,"is_reserved":false,"is_disabled":false,"rental_uris":{"android":"levelo://app?vid=829fcc70-faf8-43cb-81ae-858e61c66ed9","ios":"levelo://app?vid=829fcc70-faf8-43cb-81ae-858e61c66ed9"},"vehicle_type_id":"4","last_reported":1686953145,"current_range_meters":16400,"station_id":"ce4bh112rcd13ifvqda0","pricing_plan_id":"free"},{"bike_id":"e5f0f0c6-611e-488d-8805-7a8d5d647a69","system_id":"levelo_inurba_marseille","lat":43.287,"lon":5.37378,"is_reserved":false,"is_disabled":false,"rental_uris":{"android":"levelo://app?vid=e5f0f0c6-611e-488d-8805-7a8d5d647a69","ios":"levelo://app?vid=e5f0f0c6-611e-488d-8805-7a8d5d647a69"},"vehicle_type_id":"4","last_reported":1686953145,"current_range_meters":0,"station_id":"ce4bh3p2rcd13ifvqdq0","pricing_plan_id":"free"},{"bike_id":"961633b3-5b31-4300-bf83-7b9b93fece3b","system_id":"levelo_inurba_marseille","lat":43.286593,"lon":5.363346,"is_reserved":false,"is_disabled":false,"rental_uris":{"android":"levelo://app?vid=961633b3-5b31-4300-bf83-7b9b93fece3b","ios":"levelo://app?vid=961633b3-5b31-4300-bf83-7b9b93fece3b"},"vehicle_type_id":"4","last_reported":1686953145,"current_range_meters":11200,"station_id":"ce4bhah2rcd13ifvqej0","pricing_plan_id":"free"},{"bike_id":"24fdee23-3960-4f97-b366-c82ca33cc7c8","system_id":"levelo_inurba_marseille","lat":43.298681,"lon":5.397225,"is_reserved":false,"is_disabled":false,"rental_uris":{"android":"levelo://app?vid=24fdee23-3960-4f97-b366-c82ca33cc7c8","ios":"levelo://app?vid=24fdee23-3960-4f97-b366-c82ca33cc7c8"},"vehicle_type_id":"4","last_reported":1686953145,"current_range_meters":2800,"station_id":"ce4bh0h2rcd13ifvqd50","pricing_plan_id":"free"},{"bike_id":"6d2cf71b-d70b-4c81-9785-9c0b9ac1d404","system_id":"levelo_inurba_marseille","lat":43.302759,"lon":5.400793,"is_reserved":false,"is_disabled":false,"rental_uris":{"android":"levelo://app?vid=6d2cf71b-d70b-4c81-9785-9c0b9ac1d404","ios":"levelo://app?vid=6d2cf71b-d70b-4c81-9785-9c0b9ac1d404"},"vehicle_type_id":"4","last_reported":1686953145,"current_range_meters":4400,"station_id":"ce4bgvh2rcd13ifvqcs0","pricing_plan_id":"free"},{"bike_id":"390aa4e9-3e65-4450-a4c8-262c5d38ed9d","system_id":"levelo_inurba_marseille","lat":43.302759,"lon":5.400793,"is_reserved":false,"is_disabled":false,"rental_uris":{"android":"levelo://app?vid=390aa4e9-3e65-4450-a4c8-262c5d38ed9d","ios":"levelo://app?vid=390aa4e9-3e65-4450-a4c8-262c5d38ed9d"},"vehicle_type_id":"4","last_reported":1686953145,"current_range_meters":800,"station_id":"ce4bgvh2rcd13ifvqcs0","pricing_plan_id":"free"},{"bike_id":"b3d2be59-64d9-4f2a-8018-dbdc243d5523","system_id":"levelo_inurba_marseille","lat":43.287185,"lon":5.379373,"is_reserved":false,"is_disabled":false,"rental_uris":{"android":"levelo://app?vid=b3d2be59-64d9-4f2a-8018-dbdc243d5523","ios":"levelo://app?vid=b3d2be59-64d9-4f2a-8018-dbdc243d5523"},"vehicle_type_id":"4","last_reported":1686953145,"current_range_meters":20000,"station_id":"ce4bh9p2rcd13ifvqec0","pricing_plan_id":"free"},{"bike_id":"05bfcb13-8d8c-4459-88ab-54decfff20d8","system_id":"levelo_inurba_marseille","lat":43.287185,"lon":5.379373,"is_reserved":false,"is_disabled":false,"rental_uris":{"android":"levelo://app?vid=05bfcb13-8d8c-4459-88ab-54decfff20d8","ios":"levelo://app?vid=05bfcb13-8d8c-4459-88ab-54decfff20d8"},"vehicle_type_id":"4","last_reported":1686953145,"current_range_meters":16000,"station_id":"ce4bh9p2rcd13ifvqec0","pricing_plan_id":"free"},{"bike_id":"b0dba032-03a3-4000-98cd-f647f9584167","system_id":"levelo_inurba_marseille","lat":43.316517,"lon":5.404375,"is_reserved":false,"is_disabled":false,"rental_uris":{"android":"levelo://app?vid=b0dba032-03a3-4000-98cd-f647f9584167","ios":"levelo://app?vid=b0dba032-03a3-4000-98cd-f647f9584167"},"vehicle_type_id":"4","last_reported":1686953145,"current_range_meters":1600,"station_id":"ce4bh012rcd13ifvqd00","pricing_plan_id":"free"},{"bike_id":"cef5cdce-dc4b-4d3a-8808-65cdfca7f04d","system_id":"levelo_inurba_marseille","lat":43.28912,"lon":5.38752,"is_reserved":false,"is_disabled":false,"rental_uris":{"android":"levelo://app?vid=cef5cdce-dc4b-4d3a-8808-65cdfca7f04d","ios":"levelo://app?vid=cef5cdce-dc4b-4d3a-8808-65cdfca7f04d"},"vehicle_type_id":"4","last_reported":1686953145,"current_range_meters":0,"station_id":"","pricing_plan_id":"free"},{"bike_id":"44c97735-82a4-44d6-b0d8-1138cbdbf52e","system_id":"levelo_inurba_marseille","lat":43.285848,"lon":5.350787,"is_reserved":false,"is_disabled":false,"rental_uris":{"android":"levelo://app?vid=44c97735-82a4-44d6-b0d8-1138cbdbf52e","ios":"levelo://app?vid=44c97735-82a4-44d6-b0d8-1138cbdbf52e"},"vehicle_type_id":"4","last_reported":1686953145,"current_range_meters":6000,"station_id":"ce4bhch2rcd13ifvqeug","pricing_plan_id":"free"},{"bike_id":"1edd4e87-d564-4f8b-b8dc-cc1ab29d4645","system_id":"levelo_inurba_marseille","lat":43.295713,"lon":5.399639,"is_reserved":false,"is_disabled":false,"rental_uris":{"android":"levelo://app?vid=1edd4e87-d564-4f8b-b8dc-cc1ab29d4645","ios":"levelo://app?vid=1edd4e87-d564-4f8b-b8dc-cc1ab29d4645"},"vehicle_type_id":"4","last_reported":1686953145,"current_range_meters":400,"station_id":"ce4bh312rcd13ifvqdj0","pricing_plan_id":"free"},{"bike_id":"10a96ded-f935-4554-9e40-b7b720f815e8","system_id":"levelo_inurba_marseille","lat":43.28678,"lon":5.38662,"is_reserved":false,"is_disabled":false,"rental_uris":{"android":"levelo://app?vid=10a96ded-f935-4554-9e40-b7b720f815e8","ios":"levelo://app?vid=10a96ded-f935-4554-9e40-b7b720f815e8"},"vehicle_type_id":"4","last_reported":1686953145,"current_range_meters":10800,"station_id":"","pricing_plan_id":"free"},{"bike_id":"62ce3d7d-117f-4275-ad1b-78f02d6b2ec1","system_id":"levelo_inurba_marseille","lat":43.286595,"lon":5.386795,"is_reserved":false,"is_disabled":false,"rental_uris":{"android":"levelo://app?vid=62ce3d7d-117f-4275-ad1b-78f02d6b2ec1","ios":"levelo://app?vid=62ce3d7d-117f-4275-ad1b-78f02d6b2ec1"},"vehicle_type_id":"4","last_reported":1686953145,"current_range_meters":8000,"station_id":"ce4bh492rcd13ifvqdug","pricing_plan_id":"free"},{"bike_id":"01491683-b9c7-4021-acb2-841d634ad1bd","system_id":"levelo_inurba_marseille","lat":43.286595,"lon":5.386795,"is_reserved":false,"is_disabled":false,"rental_uris":{"android":"levelo://app?vid=01491683-b9c7-4021-acb2-841d634ad1bd","ios":"levelo://app?vid=01491683-b9c7-4021-acb2-841d634ad1bd"},"vehicle_type_id":"4","last_reported":1686953145,"current_range_meters":25600,"station_id":"ce4bh492rcd13ifvqdug","pricing_plan_id":"free"},{"bike_id":"16e5fedd-6e86-436a-a0a2-72c7cd60a6ea","system_id":"levelo_inurba_marseille","lat":43.32343,"lon":5.40616,"is_reserved":false,"is_disabled":false,"rental_uris":{"android":"levelo://app?vid=16e5fedd-6e86-436a-a0a2-72c7cd60a6ea","ios":"levelo://app?vid=16e5fedd-6e86-436a-a0a2-72c7cd60a6ea"},"vehicle_type_id":"4","last_reported":1686953145,"current_range_meters":31200,"station_id":"ce4bhq92rcd13ifvqhjg","pricing_plan_id":"free"},{"bike_id":"c0bd92e4-aa39-4525-accc-100ab5bda5bd","system_id":"levelo_inurba_marseille","lat":43.284793,"lon":5.384113,"is_reserved":false,"is_disabled":false,"rental_uris":{"android":"levelo://app?vid=c0bd92e4-aa39-4525-accc-100ab5bda5bd","ios":"levelo://app?vid=c0bd92e4-aa39-4525-accc-100ab5bda5bd"},"vehicle_type_id":"4","last_reported":1686953145,"current_range_meters":11600,"station_id":"ce4bh512rcd13ifvqe3g","pricing_plan_id":"free"},{"bike_id":"020416a0-9b91-4459-818d-6bda42d650d3","system_id":"levelo_inurba_marseille","lat":43.284793,"lon":5.384113,"is_reserved":false,"is_disabled":false,"rental_uris":{"android":"levelo://app?vid=020416a0-9b91-4459-818d-6bda42d650d3","ios":"levelo://app?vid=020416a0-9b91-4459-818d-6bda42d650d3"},"vehicle_type_id":"4","last_reported":1686953145,"current_range_meters":6800,"station_id":"ce4bh512rcd13ifvqe3g","pricing_plan_id":"free"},{"bike_id":"f03da343-1539-419e-8c81-0205968b4dcd","system_id":"levelo_inurba_marseille","lat":43.28847,"lon":5.39303,"is_reserved":false,"is_disabled":false,"rental_uris":{"android":"levelo://app?vid=f03da343-1539-419e-8c81-0205968b4dcd","ios":"levelo://app?vid=f03da343-1539-419e-8c81-0205968b4dcd"},"vehicle_type_id":"4","last_reported":1686953145,"current_range_meters":400,"station_id":"ce4bh2p2rcd13ifvqdi0","pricing_plan_id":"free"},{"bike_id":"00b4d942-d645-4a17-a320-9c02b5ecca68","system_id":"levelo_inurba_marseille","lat":43.288501,"lon":5.393087,"is_reserved":false,"is_disabled":false,"rental_uris":{"android":"levelo://app?vid=00b4d942-d645-4a17-a320-9c02b5ecca68","ios":"levelo://app?vid=00b4d942-d645-4a17-a320-9c02b5ecca68"},"vehicle_type_id":"4","last_reported":1686953145,"current_range_meters":28000,"station_id":"ce4bh2p2rcd13ifvqdi0","pricing_plan_id":"free"},{"bike_id":"0b2255d6-041e-4c6e-bc51-050e0d1bf26b","system_id":"levelo_inurba_marseille","lat":43.28348,"lon":5.38102,"is_reserved":false,"is_disabled":false,"rental_uris":{"android":"levelo://app?vid=0b2255d6-041e-4c6e-bc51-050e0d1bf26b","ios":"levelo://app?vid=0b2255d6-041e-4c6e-bc51-050e0d1bf26b"},"vehicle_type_id":"4","last_reported":1686953145,"current_range_meters":16800,"station_id":"ce4bh412rcd13ifvqdr0","pricing_plan_id":"free"},{"bike_id":"03e9432d-fdbd-4952-b809-57d3c25eebeb","system_id":"levelo_inurba_marseille","lat":43.302759,"lon":5.400793,"is_reserved":false,"is_disabled":false,"rental_uris":{"android":"levelo://app?vid=03e9432d-fdbd-4952-b809-57d3c25eebeb","ios":"levelo://app?vid=03e9432d-fdbd-4952-b809-57d3c25eebeb"},"vehicle_type_id":"4","last_reported":1686953145,"current_range_meters":4400,"station_id":"ce4bgvh2rcd13ifvqcs0","pricing_plan_id":"free"},{"bike_id":"0c2e25d7-6886-4a35-806d-78e67aace874","system_id":"levelo_inurba_marseille","lat":43.289363,"lon":5.396322,"is_reserved":false,"is_disabled":false,"rental_uris":{"android":"levelo://app?vid=0c2e25d7-6886-4a35-806d-78e67aace874","ios":"levelo://app?vid=0c2e25d7-6886-4a35-806d-78e67aace874"},"vehicle_type_id":"4","last_reported":1686953145,"current_range_meters":12000,"station_id":"ce4bh3h2rcd13ifvqdn0","pricing_plan_id":"free"},{"bike_id":"0fb4a44f-82d5-4b91-89c3-ee68415ac6d8","system_id":"levelo_inurba_marseille","lat":43.29348,"lon":5.40203,"is_reserved":false,"is_disabled":false,"rental_uris":{"android":"levelo://app?vid=0fb4a44f-82d5-4b91-89c3-ee68415ac6d8","ios":"levelo://app?vid=0fb4a44f-82d5-4b91-89c3-ee68415ac6d8"},"vehicle_type_id":"4","last_reported":1686953145,"current_range_meters":31200,"station_id":"","pricing_plan_id":"free"},{"bike_id":"e2c3a0aa-7f22-492a-a04d-15e355466059","system_id":"levelo_inurba_marseille","lat":43.32879,"lon":5.40534,"is_reserved":false,"is_disabled":false,"rental_uris":{"android":"levelo://app?vid=e2c3a0aa-7f22-492a-a04d-15e355466059","ios":"levelo://app?vid=e2c3a0aa-7f22-492a-a04d-15e355466059"},"vehicle_type_id":"4","last_reported":1686953145,"current_range_meters":11600,"station_id":"","pricing_plan_id":"free"},{"bike_id":"be655f2d-2542-471c-9d61-3330b75add0b","system_id":"levelo_inurba_marseille","lat":43.283502,"lon":5.386471,"is_reserved":false,"is_disabled":false,"rental_uris":{"android":"levelo://app?vid=be655f2d-2542-471c-9d61-3330b75add0b","ios":"levelo://app?vid=be655f2d-2542-471c-9d61-3330b75add0b"},"vehicle_type_id":"4","last_reported":1686953145,"current_range_meters":11600,"station_id":"ce4bh492rcd13ifvqdvg","pricing_plan_id":"free"},{"bike_id":"ddfbac80-1818-49d3-a173-0754ef59bc30","system_id":"levelo_inurba_marseille","lat":43.28039,"lon":5.369297,"is_reserved":false,"is_disabled":false,"rental_uris":{"android":"levelo://app?vid=ddfbac80-1818-49d3-a173-0754ef59bc30","ios":"levelo://app?vid=ddfbac80-1818-49d3-a173-0754ef59bc30"},"vehicle_type_id":"4","last_reported":1686953145,"current_range_meters":9600,"station_id":"ce4bha12rcd13ifvqef0","pricing_plan_id":"free"},{"bike_id":"f2cc7047-b9a7-46b8-a7ab-7405466122ec","system_id":"levelo_inurba_marseille","lat":43.28104,"lon":5.37836,"is_reserved":false,"is_disabled":false,"rental_uris":{"android":"levelo://app?vid=f2cc7047-b9a7-46b8-a7ab-7405466122ec","ios":"levelo://app?vid=f2cc7047-b9a7-46b8-a7ab-7405466122ec"},"vehicle_type_id":"4","last_reported":1686953145,"current_range_meters":6400,"station_id":"ce4bha12rcd13ifvqee0","pricing_plan_id":"free"},{"bike_id":"9dbae541-f064-488b-a98b-fd7ceb77cc79","system_id":"levelo_inurba_marseille","lat":43.281044,"lon":5.378308,"is_reserved":false,"is_disabled":false,"rental_uris":{"android":"levelo://app?vid=9dbae541-f064-488b-a98b-fd7ceb77cc79","ios":"levelo://app?vid=9dbae541-f064-488b-a98b-fd7ceb77cc79"},"vehicle_type_id":"4","last_reported":1686953145,"current_range_meters":16000,"station_id":"ce4bha12rcd13ifvqee0","pricing_plan_id":"free"},{"bike_id":"13619278-1640-46f8-b139-26c25727e077","system_id":"levelo_inurba_marseille","lat":43.28118,"lon":5.38201,"is_reserved":false,"is_disabled":false,"rental_uris":{"android":"levelo://app?vid=13619278-1640-46f8-b139-26c25727e077","ios":"levelo://app?vid=13619278-1640-46f8-b139-26c25727e077"},"vehicle_type_id":"4","last_reported":1686953145,"current_range_meters":0,"station_id":"","pricing_plan_id":"free"},{"bike_id":"dbe00079-873c-4c00-8ee0-ada168d49597","system_id":"levelo_inurba_marseille","lat":43.284462,"lon":5.392121,"is_reserved":false,"is_disabled":false,"rental_uris":{"android":"levelo://app?vid=dbe00079-873c-4c00-8ee0-ada168d49597","ios":"levelo://app?vid=dbe00079-873c-4c00-8ee0-ada168d49597"},"vehicle_type_id":"4","last_reported":1686953145,"current_range_meters":6400,"station_id":"ce4bhoh2rcd13ifvqh5g","pricing_plan_id":"free"},{"bike_id":"7a04a0f7-b5ee-4baf-90c0-1b24512321f6","system_id":"levelo_inurba_marseille","lat":43.284462,"lon":5.392121,"is_reserved":false,"is_disabled":false,"rental_uris":{"android":"levelo://app?vid=7a04a0f7-b5ee-4baf-90c0-1b24512321f6","ios":"levelo://app?vid=7a04a0f7-b5ee-4baf-90c0-1b24512321f6"},"vehicle_type_id":"4","last_reported":1686953145,"current_range_meters":4400,"station_id":"ce4bhoh2rcd13ifvqh5g","pricing_plan_id":"free"},{"bike_id":"d8fa76e8-69ea-4286-bd3a-0135edfb363e","system_id":"levelo_inurba_marseille","lat":43.326605,"lon":5.409903,"is_reserved":false,"is_disabled":false,"rental_uris":{"android":"levelo://app?vid=d8fa76e8-69ea-4286-bd3a-0135edfb363e","ios":"levelo://app?vid=d8fa76e8-69ea-4286-bd3a-0135edfb363e"},"vehicle_type_id":"4","last_reported":1686953145,"current_range_meters":25600,"station_id":"ce4bhpp2rcd13ifvqhgg","pricing_plan_id":"free"},{"bike_id":"754f7c48-605d-49d0-8c09-49672226dac9","system_id":"levelo_inurba_marseille","lat":43.32658,"lon":5.40995,"is_reserved":false,"is_disabled":false,"rental_uris":{"android":"levelo://app?vid=754f7c48-605d-49d0-8c09-49672226dac9","ios":"levelo://app?vid=754f7c48-605d-49d0-8c09-49672226dac9"},"vehicle_type_id":"4","last_reported":1686953145,"current_range_meters":4800,"station_id":"ce4bhpp2rcd13ifvqhgg","pricing_plan_id":"free"},{"bike_id":"7b98889d-dff9-45a4-b1d6-61e6722fd02c","system_id":"levelo_inurba_marseille","lat":43.32655,"lon":5.40998,"is_reserved":false,"is_disabled":false,"rental_uris":{"android":"levelo://app?vid=7b98889d-dff9-45a4-b1d6-61e6722fd02c","ios":"levelo://app?vid=7b98889d-dff9-45a4-b1d6-61e6722fd02c"},"vehicle_type_id":"4","last_reported":1686953145,"current_range_meters":19200,"station_id":"ce4bhpp2rcd13ifvqhgg","pricing_plan_id":"free"},{"bike_id":"5a8b8605-c58c-4f64-861a-86afe4b0a9bf","system_id":"levelo_inurba_marseille","lat":43.304188,"lon":5.412904,"is_reserved":false,"is_disabled":false,"rental_uris":{"android":"levelo://app?vid=5a8b8605-c58c-4f64-861a-86afe4b0a9bf","ios":"levelo://app?vid=5a8b8605-c58c-4f64-861a-86afe4b0a9bf"},"vehicle_type_id":"4","last_reported":1686953145,"current_range_meters":0,"station_id":"ce4bhop2rcd13ifvqh8g","pricing_plan_id":"free"},{"bike_id":"f6ef4476-5e99-4db4-97b2-11e013f686dd","system_id":"levelo_inurba_marseille","lat":43.27904,"lon":5.38011,"is_reserved":false,"is_disabled":false,"rental_uris":{"android":"levelo://app?vid=f6ef4476-5e99-4db4-97b2-11e013f686dd","ios":"levelo://app?vid=f6ef4476-5e99-4db4-97b2-11e013f686dd"},"vehicle_type_id":"4","last_reported":1686953145,"current_range_meters":1200,"station_id":"","pricing_plan_id":"free"},{"bike_id":"78ee79ad-62b9-4afb-aae1-892fa768ba15","system_id":"levelo_inurba_marseille","lat":43.27901,"lon":5.38006,"is_reserved":false,"is_disabled":false,"rental_uris":{"android":"levelo://app?vid=78ee79ad-62b9-4afb-aae1-892fa768ba15","ios":"levelo://app?vid=78ee79ad-62b9-4afb-aae1-892fa768ba15"},"vehicle_type_id":"4","last_reported":1686953145,"current_range_meters":20400,"station_id":"","pricing_plan_id":"free"},{"bike_id":"f1f5e810-e5bd-4704-a74f-9438e0035fb0","system_id":"levelo_inurba_marseille","lat":43.27901,"lon":5.3801,"is_reserved":false,"is_disabled":false,"rental_uris":{"android":"levelo://app?vid=f1f5e810-e5bd-4704-a74f-9438e0035fb0","ios":"levelo://app?vid=f1f5e810-e5bd-4704-a74f-9438e0035fb0"},"vehicle_type_id":"4","last_reported":1686953145,"current_range_meters":18800,"station_id":"","pricing_plan_id":"free"},{"bike_id":"5ddb55f6-3e92-4f9a-8e95-4d5880813dc9","system_id":"levelo_inurba_marseille","lat":43.279,"lon":5.38006,"is_reserved":false,"is_disabled":false,"rental_uris":{"android":"levelo://app?vid=5ddb55f6-3e92-4f9a-8e95-4d5880813dc9","ios":"levelo://app?vid=5ddb55f6-3e92-4f9a-8e95-4d5880813dc9"},"vehicle_type_id":"4","last_reported":1686953145,"current_range_meters":23600,"station_id":"","pricing_plan_id":"free"},{"bike_id":"cd420fd4-762e-4fd4-bb99-f0561f4b7ee5","system_id":"levelo_inurba_marseille","lat":43.279742,"lon":5.38744,"is_reserved":false,"is_disabled":false,"rental_uris":{"android":"levelo://app?vid=cd420fd4-762e-4fd4-bb99-f0561f4b7ee5","ios":"levelo://app?vid=cd420fd4-762e-4fd4-bb99-f0561f4b7ee5"},"vehicle_type_id":"4","last_reported":1686953145,"current_range_meters":30400,"station_id":"ce4bhg12rcd13ifvqf80","pricing_plan_id":"free"},{"bike_id":"50c46654-229d-49e3-acaf-a5edade8ce84","system_id":"levelo_inurba_marseille","lat":43.27966,"lon":5.38742,"is_reserved":false,"is_disabled":false,"rental_uris":{"android":"levelo://app?vid=50c46654-229d-49e3-acaf-a5edade8ce84","ios":"levelo://app?vid=50c46654-229d-49e3-acaf-a5edade8ce84"},"vehicle_type_id":"4","last_reported":1686953145,"current_range_meters":30000,"station_id":"ce4bhg12rcd13ifvqf80","pricing_plan_id":"free"},{"bike_id":"93fda244-ad3a-4eac-8648-6ad60cca4c09","system_id":"levelo_inurba_marseille","lat":43.279742,"lon":5.38744,"is_reserved":false,"is_disabled":false,"rental_uris":{"android":"levelo://app?vid=93fda244-ad3a-4eac-8648-6ad60cca4c09","ios":"levelo://app?vid=93fda244-ad3a-4eac-8648-6ad60cca4c09"},"vehicle_type_id":"4","last_reported":1686953145,"current_range_meters":9200,"station_id":"ce4bhg12rcd13ifvqf80","pricing_plan_id":"free"},{"bike_id":"3f5ac565-c8a5-42dd-b980-eeb59bac77e9","system_id":"levelo_inurba_marseille","lat":43.2795,"lon":5.38718,"is_reserved":false,"is_disabled":false,"rental_uris":{"android":"levelo://app?vid=3f5ac565-c8a5-42dd-b980-eeb59bac77e9","ios":"levelo://app?vid=3f5ac565-c8a5-42dd-b980-eeb59bac77e9"},"vehicle_type_id":"4","last_reported":1686953145,"current_range_meters":9200,"station_id":"","pricing_plan_id":"free"},{"bike_id":"2d5eed87-456b-489c-9853-1b59cbd96c3f","system_id":"levelo_inurba_marseille","lat":43.29262,"lon":5.40922,"is_reserved":false,"is_disabled":false,"rental_uris":{"android":"levelo://app?vid=2d5eed87-456b-489c-9853-1b59cbd96c3f","ios":"levelo://app?vid=2d5eed87-456b-489c-9853-1b59cbd96c3f"},"vehicle_type_id":"4","last_reported":1686953145,"current_range_meters":400,"station_id":"ce4bh192rcd13ifvqdc0","pricing_plan_id":"free"},{"bike_id":"bca1cc85-c35d-476c-9224-09adf91608e8","system_id":"levelo_inurba_marseille","lat":43.276186,"lon":5.361101,"is_reserved":false,"is_disabled":false,"rental_uris":{"android":"levelo://app?vid=bca1cc85-c35d-476c-9224-09adf91608e8","ios":"levelo://app?vid=bca1cc85-c35d-476c-9224-09adf91608e8"},"vehicle_type_id":"4","last_reported":1686953145,"current_range_meters":4400,"station_id":"ce4bgj92rcd13ifvqbe0","pricing_plan_id":"free"},{"bike_id":"6d1bbe17-ca62-4b09-9155-47eff896e3e5","system_id":"levelo_inurba_marseille","lat":43.28071,"lon":5.39655,"is_reserved":false,"is_disabled":false,"rental_uris":{"android":"levelo://app?vid=6d1bbe17-ca62-4b09-9155-47eff896e3e5","ios":"levelo://app?vid=6d1bbe17-ca62-4b09-9155-47eff896e3e5"},"vehicle_type_id":"4","last_reported":1686953145,"current_range_meters":24000,"station_id":"ce4bho12rcd13ifvqh2g","pricing_plan_id":"free"},{"bike_id":"2388aa98-ed4e-4c72-a835-59885366efd6","system_id":"levelo_inurba_marseille","lat":43.30354,"lon":5.41877,"is_reserved":false,"is_disabled":false,"rental_uris":{"android":"levelo://app?vid=2388aa98-ed4e-4c72-a835-59885366efd6","ios":"levelo://app?vid=2388aa98-ed4e-4c72-a835-59885366efd6"},"vehicle_type_id":"4","last_reported":1686953145,"current_range_meters":9200,"station_id":"","pricing_plan_id":"free"},{"bike_id":"e336abfd-2939-4de5-96f8-2e2d1ead4bc0","system_id":"levelo_inurba_marseille","lat":43.303837,"lon":5.418724,"is_reserved":false,"is_disabled":false,"rental_uris":{"android":"levelo://app?vid=e336abfd-2939-4de5-96f8-2e2d1ead4bc0","ios":"levelo://app?vid=e336abfd-2939-4de5-96f8-2e2d1ead4bc0"},"vehicle_type_id":"4","last_reported":1686953145,"current_range_meters":7200,"station_id":"ce4bhop2rcd13ifvqh7g","pricing_plan_id":"free"},{"bike_id":"24321a1f-a344-45e1-8ef8-59d003c35d8e","system_id":"levelo_inurba_marseille","lat":43.278401,"lon":5.392152,"is_reserved":false,"is_disabled":false,"rental_uris":{"android":"levelo://app?vid=24321a1f-a344-45e1-8ef8-59d003c35d8e","ios":"levelo://app?vid=24321a1f-a344-45e1-8ef8-59d003c35d8e"},"vehicle_type_id":"4","last_reported":1686953145,"current_range_meters":28800,"station_id":"ce4bhjp2rcd13ifvqga0","pricing_plan_id":"free"},{"bike_id":"a82d4ad7-6b61-4a0d-b5a4-ed8c76702254","system_id":"levelo_inurba_marseille","lat":43.278401,"lon":5.392152,"is_reserved":false,"is_disabled":false,"rental_uris":{"android":"levelo://app?vid=a82d4ad7-6b61-4a0d-b5a4-ed8c76702254","ios":"levelo://app?vid=a82d4ad7-6b61-4a0d-b5a4-ed8c76702254"},"vehicle_type_id":"4","last_reported":1686953145,"current_range_meters":20000,"station_id":"ce4bhjp2rcd13ifvqga0","pricing_plan_id":"free"},{"bike_id":"381c6f25-c7b9-447c-aec6-a5592aac017e","system_id":"levelo_inurba_marseille","lat":43.278399,"lon":5.392139,"is_reserved":false,"is_disabled":false,"rental_uris":{"android":"levelo://app?vid=381c6f25-c7b9-447c-aec6-a5592aac017e","ios":"levelo://app?vid=381c6f25-c7b9-447c-aec6-a5592aac017e"},"vehicle_type_id":"4","last_reported":1686953145,"current_range_meters":30000,"station_id":"ce4bhjp2rcd13ifvqga0","pricing_plan_id":"free"},{"bike_id":"fddded41-1f18-46e6-9307-6083692dee9b","system_id":"levelo_inurba_marseille","lat":43.33612,"lon":5.410321,"is_reserved":false,"is_disabled":false,"rental_uris":{"android":"levelo://app?vid=fddded41-1f18-46e6-9307-6083692dee9b","ios":"levelo://app?vid=fddded41-1f18-46e6-9307-6083692dee9b"},"vehicle_type_id":"4","last_reported":1686953145,"current_range_meters":13600,"station_id":"ce4bhqh2rcd13ifvqhmg","pricing_plan_id":"free"},{"bike_id":"c9a58cb1-73dd-4294-8881-af8c21e92dd4","system_id":"levelo_inurba_marseille","lat":43.275625,"lon":5.384392,"is_reserved":false,"is_disabled":false,"rental_uris":{"android":"levelo://app?vid=c9a58cb1-73dd-4294-8881-af8c21e92dd4","ios":"levelo://app?vid=c9a58cb1-73dd-4294-8881-af8c21e92dd4"},"vehicle_type_id":"4","last_reported":1686953145,"current_range_meters":31600,"station_id":"ce4bhh92rcd13ifvqfi0","pricing_plan_id":"free"},{"bike_id":"4925872a-8876-4fab-add7-ee78e4afe9c7","system_id":"levelo_inurba_marseille","lat":43.275625,"lon":5.384392,"is_reserved":false,"is_disabled":false,"rental_uris":{"android":"levelo://app?vid=4925872a-8876-4fab-add7-ee78e4afe9c7","ios":"levelo://app?vid=4925872a-8876-4fab-add7-ee78e4afe9c7"},"vehicle_type_id":"4","last_reported":1686953145,"current_range_meters":12800,"station_id":"ce4bhh92rcd13ifvqfi0","pricing_plan_id":"free"},{"bike_id":"24a2e770-e5fe-4c98-bb12-1177fd923504","system_id":"levelo_inurba_marseille","lat":43.33604,"lon":5.41034,"is_reserved":false,"is_disabled":false,"rental_uris":{"android":"levelo://app?vid=24a2e770-e5fe-4c98-bb12-1177fd923504","ios":"levelo://app?vid=24a2e770-e5fe-4c98-bb12-1177fd923504"},"vehicle_type_id":"4","last_reported":1686953145,"current_range_meters":17600,"station_id":"ce4bhqh2rcd13ifvqhmg","pricing_plan_id":"free"},{"bike_id":"381b217b-5ce9-40b4-85ab-306435a59afe","system_id":"levelo_inurba_marseille","lat":43.336134,"lon":5.410341,"is_reserved":false,"is_disabled":false,"rental_uris":{"android":"levelo://app?vid=381b217b-5ce9-40b4-85ab-306435a59afe","ios":"levelo://app?vid=381b217b-5ce9-40b4-85ab-306435a59afe"},"vehicle_type_id":"4","last_reported":1686953145,"current_range_meters":26800,"station_id":"ce4bhqh2rcd13ifvqhmg","pricing_plan_id":"free"},{"bike_id":"073d6a4c-fcb7-4972-a534-6028dd4afa10","system_id":"levelo_inurba_marseille","lat":43.276769,"lon":5.388787,"is_reserved":false,"is_disabled":false,"rental_uris":{"android":"levelo://app?vid=073d6a4c-fcb7-4972-a534-6028dd4afa10","ios":"levelo://app?vid=073d6a4c-fcb7-4972-a534-6028dd4afa10"},"vehicle_type_id":"4","last_reported":1686953145,"current_range_meters":6000,"station_id":"ce4bhi12rcd13ifvqfo0","pricing_plan_id":"free"},{"bike_id":"b7c90117-1c4e-4c6b-a4a5-0ecefef8ef53","system_id":"levelo_inurba_marseille","lat":43.276771,"lon":5.388799,"is_reserved":false,"is_disabled":false,"rental_uris":{"android":"levelo://app?vid=b7c90117-1c4e-4c6b-a4a5-0ecefef8ef53","ios":"levelo://app?vid=b7c90117-1c4e-4c6b-a4a5-0ecefef8ef53"},"vehicle_type_id":"4","last_reported":1686953145,"current_range_meters":400,"station_id":"ce4bhi12rcd13ifvqfo0","pricing_plan_id":"free"},{"bike_id":"2263c6d7-b228-48c7-92b5-a8d61ec6c431","system_id":"levelo_inurba_marseille","lat":43.317121,"lon":5.423936,"is_reserved":false,"is_disabled":false,"rental_uris":{"android":"levelo://app?vid=2263c6d7-b228-48c7-92b5-a8d61ec6c431","ios":"levelo://app?vid=2263c6d7-b228-48c7-92b5-a8d61ec6c431"},"vehicle_type_id":"4","last_reported":1686953145,"current_range_meters":16400,"station_id":"ce4bhp92rcd13ifvqhbg","pricing_plan_id":"free"},{"bike_id":"d924a432-9541-41dc-8775-e19175f75871","system_id":"levelo_inurba_marseille","lat":43.31084,"lon":5.42432,"is_reserved":false,"is_disabled":false,"rental_uris":{"android":"levelo://app?vid=d924a432-9541-41dc-8775-e19175f75871","ios":"levelo://app?vid=d924a432-9541-41dc-8775-e19175f75871"},"vehicle_type_id":"4","last_reported":1686953145,"current_range_meters":16000,"station_id":"ce4bhp92rcd13ifvqhag","pricing_plan_id":"free"},{"bike_id":"f82c4e0b-ce86-4de4-962b-f266d6ba506e","system_id":"levelo_inurba_marseille","lat":43.273125,"lon":5.390731,"is_reserved":false,"is_disabled":false,"rental_uris":{"android":"levelo://app?vid=f82c4e0b-ce86-4de4-962b-f266d6ba506e","ios":"levelo://app?vid=f82c4e0b-ce86-4de4-962b-f266d6ba506e"},"vehicle_type_id":"4","last_reported":1686953145,"current_range_meters":26800,"station_id":"ce4bhgp2rcd13ifvqfe0","pricing_plan_id":"free"},{"bike_id":"fe4eb1e6-6ad9-4496-95fd-7daa31236351","system_id":"levelo_inurba_marseille","lat":43.295511,"lon":5.422926,"is_reserved":false,"is_disabled":false,"rental_uris":{"android":"levelo://app?vid=fe4eb1e6-6ad9-4496-95fd-7daa31236351","ios":"levelo://app?vid=fe4eb1e6-6ad9-4496-95fd-7daa31236351"},"vehicle_type_id":"4","last_reported":1686953145,"current_range_meters":19600,"station_id":"ce4bhph2rcd13ifvqhdg","pricing_plan_id":"free"},{"bike_id":"c69a06ff-19cd-469d-90eb-3daad752c733","system_id":"levelo_inurba_marseille","lat":43.27216,"lon":5.39188,"is_reserved":false,"is_disabled":false,"rental_uris":{"android":"levelo://app?vid=c69a06ff-19cd-469d-90eb-3daad752c733","ios":"levelo://app?vid=c69a06ff-19cd-469d-90eb-3daad752c733"},"vehicle_type_id":"4","last_reported":1686953145,"current_range_meters":400,"station_id":"","pricing_plan_id":"free"},{"bike_id":"3d3f4e3a-dfc0-4486-829b-5b66f1cf50ea","system_id":"levelo_inurba_marseille","lat":43.27208,"lon":5.3918,"is_reserved":false,"is_disabled":false,"rental_uris":{"android":"levelo://app?vid=3d3f4e3a-dfc0-4486-829b-5b66f1cf50ea","ios":"levelo://app?vid=3d3f4e3a-dfc0-4486-829b-5b66f1cf50ea"},"vehicle_type_id":"4","last_reported":1686953145,"current_range_meters":8800,"station_id":"ce4bhhp2rcd13ifvqfm0","pricing_plan_id":"free"},{"bike_id":"3007e959-6146-4600-a283-988e9b091a4d","system_id":"levelo_inurba_marseille","lat":43.27209,"lon":5.39185,"is_reserved":false,"is_disabled":false,"rental_uris":{"android":"levelo://app?vid=3007e959-6146-4600-a283-988e9b091a4d","ios":"levelo://app?vid=3007e959-6146-4600-a283-988e9b091a4d"},"vehicle_type_id":"4","last_reported":1686953145,"current_range_meters":4400,"station_id":"ce4bhhp2rcd13ifvqfm0","pricing_plan_id":"free"},{"bike_id":"042183ca-d3fe-49d5-bdc5-b0defb870f4a","system_id":"levelo_inurba_marseille","lat":43.272118,"lon":5.391758,"is_reserved":false,"is_disabled":false,"rental_uris":{"android":"levelo://app?vid=042183ca-d3fe-49d5-bdc5-b0defb870f4a","ios":"levelo://app?vid=042183ca-d3fe-49d5-bdc5-b0defb870f4a"},"vehicle_type_id":"4","last_reported":1686953145,"current_range_meters":9200,"station_id":"ce4bhhp2rcd13ifvqfm0","pricing_plan_id":"free"},{"bike_id":"075a0ab9-4b17-4c7e-8bb1-44c8d0e3dfac","system_id":"levelo_inurba_marseille","lat":43.27205,"lon":5.39177,"is_reserved":false,"is_disabled":false,"rental_uris":{"android":"levelo://app?vid=075a0ab9-4b17-4c7e-8bb1-44c8d0e3dfac","ios":"levelo://app?vid=075a0ab9-4b17-4c7e-8bb1-44c8d0e3dfac"},"vehicle_type_id":"4","last_reported":1686953145,"current_range_meters":18800,"station_id":"ce4bhhp2rcd13ifvqfm0","pricing_plan_id":"free"},{"bike_id":"81858f26-88c9-4408-b3fb-24f4c2b358d1","system_id":"levelo_inurba_marseille","lat":43.27118,"lon":5.38954,"is_reserved":false,"is_disabled":false,"rental_uris":{"android":"levelo://app?vid=81858f26-88c9-4408-b3fb-24f4c2b358d1","ios":"levelo://app?vid=81858f26-88c9-4408-b3fb-24f4c2b358d1"},"vehicle_type_id":"4","last_reported":1686953145,"current_range_meters":31200,"station_id":"","pricing_plan_id":"free"},{"bike_id":"aeafe444-f0b4-45c3-8f37-7deb6ba4be0b","system_id":"levelo_inurba_marseille","lat":43.278128,"lon":5.407195,"is_reserved":false,"is_disabled":false,"rental_uris":{"android":"levelo://app?vid=aeafe444-f0b4-45c3-8f37-7deb6ba4be0b","ios":"levelo://app?vid=aeafe444-f0b4-45c3-8f37-7deb6ba4be0b"},"vehicle_type_id":"4","last_reported":1686953145,"current_range_meters":17200,"station_id":"ce4bhnh2rcd13ifvqgtg","pricing_plan_id":"free"},{"bike_id":"4315823b-b2d3-4830-80e6-52822cbeedc3","system_id":"levelo_inurba_marseille","lat":43.269467,"lon":5.386439,"is_reserved":false,"is_disabled":false,"rental_uris":{"android":"levelo://app?vid=4315823b-b2d3-4830-80e6-52822cbeedc3","ios":"levelo://app?vid=4315823b-b2d3-4830-80e6-52822cbeedc3"},"vehicle_type_id":"4","last_reported":1686953145,"current_range_meters":0,"station_id":"ce4bhh92rcd13ifvqfh0","pricing_plan_id":"free"},{"bike_id":"0b8442da-7f50-4867-b016-d8042103ded9","system_id":"levelo_inurba_marseille","lat":43.269467,"lon":5.386439,"is_reserved":false,"is_disabled":false,"rental_uris":{"android":"levelo://app?vid=0b8442da-7f50-4867-b016-d8042103ded9","ios":"levelo://app?vid=0b8442da-7f50-4867-b016-d8042103ded9"},"vehicle_type_id":"4","last_reported":1686953145,"current_range_meters":6800,"station_id":"ce4bhh92rcd13ifvqfh0","pricing_plan_id":"free"},{"bike_id":"7d932b3b-3492-4b55-b299-2b86f20dab74","system_id":"levelo_inurba_marseille","lat":43.26952,"lon":5.3864,"is_reserved":false,"is_disabled":false,"rental_uris":{"android":"levelo://app?vid=7d932b3b-3492-4b55-b299-2b86f20dab74","ios":"levelo://app?vid=7d932b3b-3492-4b55-b299-2b86f20dab74"},"vehicle_type_id":"4","last_reported":1686953145,"current_range_meters":0,"station_id":"ce4bhh92rcd13ifvqfh0","pricing_plan_id":"free"},{"bike_id":"3c36f439-1a24-48f8-ab55-e1c693333192","system_id":"levelo_inurba_marseille","lat":43.26685,"lon":5.38279,"is_reserved":false,"is_disabled":false,"rental_uris":{"android":"levelo://app?vid=3c36f439-1a24-48f8-ab55-e1c693333192","ios":"levelo://app?vid=3c36f439-1a24-48f8-ab55-e1c693333192"},"vehicle_type_id":"4","last_reported":1686953145,"current_range_meters":31200,"station_id":"ce4bhg92rcd13ifvqf90","pricing_plan_id":"free"},{"bike_id":"08ef1fb7-7b5e-4fd7-84db-b6da78b62b54","system_id":"levelo_inurba_marseille","lat":43.26684,"lon":5.38277,"is_reserved":false,"is_disabled":false,"rental_uris":{"android":"levelo://app?vid=08ef1fb7-7b5e-4fd7-84db-b6da78b62b54","ios":"levelo://app?vid=08ef1fb7-7b5e-4fd7-84db-b6da78b62b54"},"vehicle_type_id":"4","last_reported":1686953145,"current_range_meters":0,"station_id":"ce4bhg92rcd13ifvqf90","pricing_plan_id":"free"},{"bike_id":"cfba2fbe-9ed5-423f-b411-8d6c38451715","system_id":"levelo_inurba_marseille","lat":43.26682,"lon":5.38267,"is_reserved":false,"is_disabled":false,"rental_uris":{"android":"levelo://app?vid=cfba2fbe-9ed5-423f-b411-8d6c38451715","ios":"levelo://app?vid=cfba2fbe-9ed5-423f-b411-8d6c38451715"},"vehicle_type_id":"4","last_reported":1686953145,"current_range_meters":31200,"station_id":"ce4bhg92rcd13ifvqf90","pricing_plan_id":"free"},{"bike_id":"0e04b268-fb93-4490-be6d-8f761ba4e61f","system_id":"levelo_inurba_marseille","lat":43.26681,"lon":5.382694,"is_reserved":false,"is_disabled":false,"rental_uris":{"android":"levelo://app?vid=0e04b268-fb93-4490-be6d-8f761ba4e61f","ios":"levelo://app?vid=0e04b268-fb93-4490-be6d-8f761ba4e61f"},"vehicle_type_id":"4","last_reported":1686953145,"current_range_meters":0,"station_id":"ce4bhg92rcd13ifvqf90","pricing_plan_id":"free"},{"bike_id":"66923e8e-6ff7-4966-a284-68c9ac852228","system_id":"levelo_inurba_marseille","lat":43.26681,"lon":5.38277,"is_reserved":false,"is_disabled":false,"rental_uris":{"android":"levelo://app?vid=66923e8e-6ff7-4966-a284-68c9ac852228","ios":"levelo://app?vid=66923e8e-6ff7-4966-a284-68c9ac852228"},"vehicle_type_id":"4","last_reported":1686953145,"current_range_meters":31200,"station_id":"ce4bhg92rcd13ifvqf90","pricing_plan_id":"free"},{"bike_id":"bfad2f2c-ec66-4743-babf-e17b3d3afae4","system_id":"levelo_inurba_marseille","lat":43.26679,"lon":5.38268,"is_reserved":false,"is_disabled":false,"rental_uris":{"android":"levelo://app?vid=bfad2f2c-ec66-4743-babf-e17b3d3afae4","ios":"levelo://app?vid=bfad2f2c-ec66-4743-babf-e17b3d3afae4"},"vehicle_type_id":"4","last_reported":1686953145,"current_range_meters":31200,"station_id":"ce4bhg92rcd13ifvqf90","pricing_plan_id":"free"},{"bike_id":"f99fd54c-4e12-4eee-8394-00b6c5a087ff","system_id":"levelo_inurba_marseille","lat":43.26681,"lon":5.382694,"is_reserved":false,"is_disabled":false,"rental_uris":{"android":"levelo://app?vid=f99fd54c-4e12-4eee-8394-00b6c5a087ff","ios":"levelo://app?vid=f99fd54c-4e12-4eee-8394-00b6c5a087ff"},"vehicle_type_id":"4","last_reported":1686953145,"current_range_meters":31200,"station_id":"ce4bhg92rcd13ifvqf90","pricing_plan_id":"free"},{"bike_id":"6275aaca-a354-407f-be44-df40f2969d44","system_id":"levelo_inurba_marseille","lat":43.266798,"lon":5.382735,"is_reserved":false,"is_disabled":false,"rental_uris":{"android":"levelo://app?vid=6275aaca-a354-407f-be44-df40f2969d44","ios":"levelo://app?vid=6275aaca-a354-407f-be44-df40f2969d44"},"vehicle_type_id":"4","last_reported":1686953145,"current_range_meters":31200,"station_id":"ce4bhg92rcd13ifvqf90","pricing_plan_id":"free"},{"bike_id":"15ec3f5b-2b3a-4805-85fc-5061a84ccf17","system_id":"levelo_inurba_marseille","lat":43.26678,"lon":5.38266,"is_reserved":false,"is_disabled":false,"rental_uris":{"android":"levelo://app?vid=15ec3f5b-2b3a-4805-85fc-5061a84ccf17","ios":"levelo://app?vid=15ec3f5b-2b3a-4805-85fc-5061a84ccf17"},"vehicle_type_id":"4","last_reported":1686953145,"current_range_meters":31600,"station_id":"ce4bhg92rcd13ifvqf90","pricing_plan_id":"free"},{"bike_id":"45fd3b3e-60cc-485d-9e79-70c5523b4573","system_id":"levelo_inurba_marseille","lat":43.266796,"lon":5.382748,"is_reserved":false,"is_disabled":false,"rental_uris":{"android":"levelo://app?vid=45fd3b3e-60cc-485d-9e79-70c5523b4573","ios":"levelo://app?vid=45fd3b3e-60cc-485d-9e79-70c5523b4573"},"vehicle_type_id":"4","last_reported":1686953145,"current_range_meters":24800,"station_id":"ce4bhg92rcd13ifvqf90","pricing_plan_id":"free"},{"bike_id":"79c99247-1128-43cb-9015-93c15d2bb2fe","system_id":"levelo_inurba_marseille","lat":43.26681,"lon":5.382694,"is_reserved":false,"is_disabled":false,"rental_uris":{"android":"levelo://app?vid=79c99247-1128-43cb-9015-93c15d2bb2fe","ios":"levelo://app?vid=79c99247-1128-43cb-9015-93c15d2bb2fe"},"vehicle_type_id":"4","last_reported":1686953145,"current_range_meters":31200,"station_id":"ce4bhg92rcd13ifvqf90","pricing_plan_id":"free"},{"bike_id":"204eebd6-1904-4ab1-93fc-f375b6e9f3c3","system_id":"levelo_inurba_marseille","lat":43.26681,"lon":5.382694,"is_reserved":false,"is_disabled":false,"rental_uris":{"android":"levelo://app?vid=204eebd6-1904-4ab1-93fc-f375b6e9f3c3","ios":"levelo://app?vid=204eebd6-1904-4ab1-93fc-f375b6e9f3c3"},"vehicle_type_id":"4","last_reported":1686953145,"current_range_meters":31200,"station_id":"ce4bhg92rcd13ifvqf90","pricing_plan_id":"free"},{"bike_id":"131412c0-90cc-45ab-bdac-a4f2b3a3bc1e","system_id":"levelo_inurba_marseille","lat":43.26681,"lon":5.382694,"is_reserved":false,"is_disabled":false,"rental_uris":{"android":"levelo://app?vid=131412c0-90cc-45ab-bdac-a4f2b3a3bc1e","ios":"levelo://app?vid=131412c0-90cc-45ab-bdac-a4f2b3a3bc1e"},"vehicle_type_id":"4","last_reported":1686953145,"current_range_meters":31200,"station_id":"ce4bhg92rcd13ifvqf90","pricing_plan_id":"free"},{"bike_id":"463c326f-73c9-423c-967a-feb827919fdc","system_id":"levelo_inurba_marseille","lat":43.26678,"lon":5.38275,"is_reserved":false,"is_disabled":false,"rental_uris":{"android":"levelo://app?vid=463c326f-73c9-423c-967a-feb827919fdc","ios":"levelo://app?vid=463c326f-73c9-423c-967a-feb827919fdc"},"vehicle_type_id":"4","last_reported":1686953145,"current_range_meters":30800,"station_id":"ce4bhg92rcd13ifvqf90","pricing_plan_id":"free"},{"bike_id":"27555105-c2d2-4fc3-a139-bd6e522cbc91","system_id":"levelo_inurba_marseille","lat":43.27996,"lon":5.416624,"is_reserved":false,"is_disabled":false,"rental_uris":{"android":"levelo://app?vid=27555105-c2d2-4fc3-a139-bd6e522cbc91","ios":"levelo://app?vid=27555105-c2d2-4fc3-a139-bd6e522cbc91"},"vehicle_type_id":"4","last_reported":1686953145,"current_range_meters":0,"station_id":"ce4bho12rcd13ifvqh1g","pricing_plan_id":"free"},{"bike_id":"3987290e-fd4b-4f2b-81c0-57fca98f9cde","system_id":"levelo_inurba_marseille","lat":43.26786,"lon":5.39417,"is_reserved":false,"is_disabled":false,"rental_uris":{"android":"levelo://app?vid=3987290e-fd4b-4f2b-81c0-57fca98f9cde","ios":"levelo://app?vid=3987290e-fd4b-4f2b-81c0-57fca98f9cde"},"vehicle_type_id":"4","last_reported":1686953145,"current_range_meters":31200,"station_id":"ce4bhh12rcd13ifvqfg0","pricing_plan_id":"free"},{"bike_id":"28531303-4372-4d97-8724-e9ba193a4f39","system_id":"levelo_inurba_marseille","lat":43.26197,"lon":5.3744,"is_reserved":false,"is_disabled":false,"rental_uris":{"android":"levelo://app?vid=28531303-4372-4d97-8724-e9ba193a4f39","ios":"levelo://app?vid=28531303-4372-4d97-8724-e9ba193a4f39"},"vehicle_type_id":"4","last_reported":1686953145,"current_range_meters":19600,"station_id":"ce4bhgp2rcd13ifvqfc0","pricing_plan_id":"free"},{"bike_id":"86d017be-d261-40e8-b223-d326d8cc0bf3","system_id":"levelo_inurba_marseille","lat":43.261782,"lon":5.374515,"is_reserved":false,"is_disabled":false,"rental_uris":{"android":"levelo://app?vid=86d017be-d261-40e8-b223-d326d8cc0bf3","ios":"levelo://app?vid=86d017be-d261-40e8-b223-d326d8cc0bf3"},"vehicle_type_id":"4","last_reported":1686953145,"current_range_meters":30000,"station_id":"ce4bhgp2rcd13ifvqfc0","pricing_plan_id":"free"},{"bike_id":"cfcf92c9-a058-4bbb-8586-5e140ccefd27","system_id":"levelo_inurba_marseille","lat":43.261782,"lon":5.374515,"is_reserved":false,"is_disabled":false,"rental_uris":{"android":"levelo://app?vid=cfcf92c9-a058-4bbb-8586-5e140ccefd27","ios":"levelo://app?vid=cfcf92c9-a058-4bbb-8586-5e140ccefd27"},"vehicle_type_id":"4","last_reported":1686953145,"current_range_meters":31200,"station_id":"ce4bhgp2rcd13ifvqfc0","pricing_plan_id":"free"},{"bike_id":"99eb64bf-ec52-45d5-83e6-3fde2c333740","system_id":"levelo_inurba_marseille","lat":43.261782,"lon":5.374515,"is_reserved":false,"is_disabled":false,"rental_uris":{"android":"levelo://app?vid=99eb64bf-ec52-45d5-83e6-3fde2c333740","ios":"levelo://app?vid=99eb64bf-ec52-45d5-83e6-3fde2c333740"},"vehicle_type_id":"4","last_reported":1686953145,"current_range_meters":31200,"station_id":"ce4bhgp2rcd13ifvqfc0","pricing_plan_id":"free"},{"bike_id":"41ee0ba9-04c1-453c-bd70-60e266360227","system_id":"levelo_inurba_marseille","lat":43.26182,"lon":5.37445,"is_reserved":false,"is_disabled":false,"rental_uris":{"android":"levelo://app?vid=41ee0ba9-04c1-453c-bd70-60e266360227","ios":"levelo://app?vid=41ee0ba9-04c1-453c-bd70-60e266360227"},"vehicle_type_id":"4","last_reported":1686953145,"current_range_meters":0,"station_id":"ce4bhgp2rcd13ifvqfc0","pricing_plan_id":"free"},{"bike_id":"6391ea03-bc0c-4216-886b-ec1a0bbd3963","system_id":"levelo_inurba_marseille","lat":43.31713,"lon":5.43708,"is_reserved":false,"is_disabled":false,"rental_uris":{"android":"levelo://app?vid=6391ea03-bc0c-4216-886b-ec1a0bbd3963","ios":"levelo://app?vid=6391ea03-bc0c-4216-886b-ec1a0bbd3963"},"vehicle_type_id":"4","last_reported":1686953145,"current_range_meters":12000,"station_id":"ce4bhp92rcd13ifvqhcg","pricing_plan_id":"free"},{"bike_id":"e46ab0ec-88c0-43db-8bd4-4a4e071aa25d","system_id":"levelo_inurba_marseille","lat":43.2621,"lon":5.37923,"is_reserved":false,"is_disabled":false,"rental_uris":{"android":"levelo://app?vid=e46ab0ec-88c0-43db-8bd4-4a4e071aa25d","ios":"levelo://app?vid=e46ab0ec-88c0-43db-8bd4-4a4e071aa25d"},"vehicle_type_id":"4","last_reported":1686953145,"current_range_meters":16400,"station_id":"ce4bhjp2rcd13ifvqg90","pricing_plan_id":"free"},{"bike_id":"c622a3d2-c0d0-4fed-a4ef-52de91303c57","system_id":"levelo_inurba_marseille","lat":43.2621,"lon":5.37926,"is_reserved":false,"is_disabled":false,"rental_uris":{"android":"levelo://app?vid=c622a3d2-c0d0-4fed-a4ef-52de91303c57","ios":"levelo://app?vid=c622a3d2-c0d0-4fed-a4ef-52de91303c57"},"vehicle_type_id":"4","last_reported":1686953145,"current_range_meters":31200,"station_id":"ce4bhjp2rcd13ifvqg90","pricing_plan_id":"free"},{"bike_id":"851c9955-70c2-4aba-a52d-1e5e8722bb78","system_id":"levelo_inurba_marseille","lat":43.26208,"lon":5.37928,"is_reserved":false,"is_disabled":false,"rental_uris":{"android":"levelo://app?vid=851c9955-70c2-4aba-a52d-1e5e8722bb78","ios":"levelo://app?vid=851c9955-70c2-4aba-a52d-1e5e8722bb78"},"vehicle_type_id":"4","last_reported":1686953145,"current_range_meters":31200,"station_id":"ce4bhjp2rcd13ifvqg90","pricing_plan_id":"free"},{"bike_id":"daac0333-dbfc-48a5-8160-31833bb5fd7c","system_id":"levelo_inurba_marseille","lat":43.262079,"lon":5.37931,"is_reserved":false,"is_disabled":false,"rental_uris":{"android":"levelo://app?vid=daac0333-dbfc-48a5-8160-31833bb5fd7c","ios":"levelo://app?vid=daac0333-dbfc-48a5-8160-31833bb5fd7c"},"vehicle_type_id":"4","last_reported":1686953145,"current_range_meters":26000,"station_id":"ce4bhjp2rcd13ifvqg90","pricing_plan_id":"free"},{"bike_id":"f9909835-627c-4078-ab97-e12422b8eb75","system_id":"levelo_inurba_marseille","lat":43.26207,"lon":5.37931,"is_reserved":false,"is_disabled":false,"rental_uris":{"android":"levelo://app?vid=f9909835-627c-4078-ab97-e12422b8eb75","ios":"levelo://app?vid=f9909835-627c-4078-ab97-e12422b8eb75"},"vehicle_type_id":"4","last_reported":1686953145,"current_range_meters":31200,"station_id":"ce4bhjp2rcd13ifvqg90","pricing_plan_id":"free"},{"bike_id":"45d2bc06-0e14-48ef-af8a-2f65edf72e83","system_id":"levelo_inurba_marseille","lat":43.26206,"lon":5.37924,"is_reserved":false,"is_disabled":false,"rental_uris":{"android":"levelo://app?vid=45d2bc06-0e14-48ef-af8a-2f65edf72e83","ios":"levelo://app?vid=45d2bc06-0e14-48ef-af8a-2f65edf72e83"},"vehicle_type_id":"4","last_reported":1686953145,"current_range_meters":25200,"station_id":"ce4bhjp2rcd13ifvqg90","pricing_plan_id":"free"},{"bike_id":"78e411fd-aa0d-4f13-9a32-490d6825736e","system_id":"levelo_inurba_marseille","lat":43.262068,"lon":5.379326,"is_reserved":false,"is_disabled":false,"rental_uris":{"android":"levelo://app?vid=78e411fd-aa0d-4f13-9a32-490d6825736e","ios":"levelo://app?vid=78e411fd-aa0d-4f13-9a32-490d6825736e"},"vehicle_type_id":"4","last_reported":1686953145,"current_range_meters":26800,"station_id":"ce4bhjp2rcd13ifvqg90","pricing_plan_id":"free"},{"bike_id":"ef5be7a3-ecb1-4133-940e-31397df5ec24","system_id":"levelo_inurba_marseille","lat":43.26204,"lon":5.37916,"is_reserved":false,"is_disabled":false,"rental_uris":{"android":"levelo://app?vid=ef5be7a3-ecb1-4133-940e-31397df5ec24","ios":"levelo://app?vid=ef5be7a3-ecb1-4133-940e-31397df5ec24"},"vehicle_type_id":"4","last_reported":1686953145,"current_range_meters":31200,"station_id":"ce4bhjp2rcd13ifvqg90","pricing_plan_id":"free"},{"bike_id":"6c9b2446-e41d-4f27-86ef-6b3d46ce64d4","system_id":"levelo_inurba_marseille","lat":43.26205,"lon":5.37926,"is_reserved":false,"is_disabled":false,"rental_uris":{"android":"levelo://app?vid=6c9b2446-e41d-4f27-86ef-6b3d46ce64d4","ios":"levelo://app?vid=6c9b2446-e41d-4f27-86ef-6b3d46ce64d4"},"vehicle_type_id":"4","last_reported":1686953145,"current_range_meters":31200,"station_id":"ce4bhjp2rcd13ifvqg90","pricing_plan_id":"free"},{"bike_id":"996200f4-0a4a-48d9-a4d2-3ebe89756dc9","system_id":"levelo_inurba_marseille","lat":43.26205,"lon":5.37926,"is_reserved":false,"is_disabled":false,"rental_uris":{"android":"levelo://app?vid=996200f4-0a4a-48d9-a4d2-3ebe89756dc9","ios":"levelo://app?vid=996200f4-0a4a-48d9-a4d2-3ebe89756dc9"},"vehicle_type_id":"4","last_reported":1686953145,"current_range_meters":8800,"station_id":"ce4bhjp2rcd13ifvqg90","pricing_plan_id":"free"},{"bike_id":"9675edd2-e071-4555-8d25-6570bf35413c","system_id":"levelo_inurba_marseille","lat":43.26204,"lon":5.37923,"is_reserved":false,"is_disabled":false,"rental_uris":{"android":"levelo://app?vid=9675edd2-e071-4555-8d25-6570bf35413c","ios":"levelo://app?vid=9675edd2-e071-4555-8d25-6570bf35413c"},"vehicle_type_id":"4","last_reported":1686953145,"current_range_meters":11200,"station_id":"ce4bhjp2rcd13ifvqg90","pricing_plan_id":"free"},{"bike_id":"af87371b-abc9-4142-abfc-17410517b812","system_id":"levelo_inurba_marseille","lat":43.26204,"lon":5.37923,"is_reserved":false,"is_disabled":false,"rental_uris":{"android":"levelo://app?vid=af87371b-abc9-4142-abfc-17410517b812","ios":"levelo://app?vid=af87371b-abc9-4142-abfc-17410517b812"},"vehicle_type_id":"4","last_reported":1686953145,"current_range_meters":29600,"station_id":"ce4bhjp2rcd13ifvqg90","pricing_plan_id":"free"},{"bike_id":"de736fe5-a26a-49f8-9b10-7db3ba026eab","system_id":"levelo_inurba_marseille","lat":43.26204,"lon":5.37925,"is_reserved":false,"is_disabled":false,"rental_uris":{"android":"levelo://app?vid=de736fe5-a26a-49f8-9b10-7db3ba026eab","ios":"levelo://app?vid=de736fe5-a26a-49f8-9b10-7db3ba026eab"},"vehicle_type_id":"4","last_reported":1686953145,"current_range_meters":16400,"station_id":"ce4bhjp2rcd13ifvqg90","pricing_plan_id":"free"},{"bike_id":"1c50530b-b2e4-4b41-ae0c-282e246b3ee9","system_id":"levelo_inurba_marseille","lat":43.26203,"lon":5.37925,"is_reserved":false,"is_disabled":false,"rental_uris":{"android":"levelo://app?vid=1c50530b-b2e4-4b41-ae0c-282e246b3ee9","ios":"levelo://app?vid=1c50530b-b2e4-4b41-ae0c-282e246b3ee9"},"vehicle_type_id":"4","last_reported":1686953145,"current_range_meters":25200,"station_id":"ce4bhjp2rcd13ifvqg90","pricing_plan_id":"free"},{"bike_id":"c1852bfd-6840-44ca-b507-a10564223d89","system_id":"levelo_inurba_marseille","lat":43.26203,"lon":5.37925,"is_reserved":false,"is_disabled":false,"rental_uris":{"android":"levelo://app?vid=c1852bfd-6840-44ca-b507-a10564223d89","ios":"levelo://app?vid=c1852bfd-6840-44ca-b507-a10564223d89"},"vehicle_type_id":"4","last_reported":1686953145,"current_range_meters":30800,"station_id":"ce4bhjp2rcd13ifvqg90","pricing_plan_id":"free"},{"bike_id":"b4438a96-040d-4da3-8190-6e8427d21e32","system_id":"levelo_inurba_marseille","lat":43.26203,"lon":5.37926,"is_reserved":false,"is_disabled":false,"rental_uris":{"android":"levelo://app?vid=b4438a96-040d-4da3-8190-6e8427d21e32","ios":"levelo://app?vid=b4438a96-040d-4da3-8190-6e8427d21e32"},"vehicle_type_id":"4","last_reported":1686953145,"current_range_meters":31200,"station_id":"ce4bhjp2rcd13ifvqg90","pricing_plan_id":"free"},{"bike_id":"0e60e233-b07f-48cd-a83e-99e3950ea7ae","system_id":"levelo_inurba_marseille","lat":43.26202,"lon":5.379299,"is_reserved":false,"is_disabled":false,"rental_uris":{"android":"levelo://app?vid=0e60e233-b07f-48cd-a83e-99e3950ea7ae","ios":"levelo://app?vid=0e60e233-b07f-48cd-a83e-99e3950ea7ae"},"vehicle_type_id":"4","last_reported":1686953145,"current_range_meters":20800,"station_id":"ce4bhjp2rcd13ifvqg90","pricing_plan_id":"free"},{"bike_id":"44cbad98-a421-43d5-80c7-559e2e2e5a3e","system_id":"levelo_inurba_marseille","lat":43.26203,"lon":5.37932,"is_reserved":false,"is_disabled":false,"rental_uris":{"android":"levelo://app?vid=44cbad98-a421-43d5-80c7-559e2e2e5a3e","ios":"levelo://app?vid=44cbad98-a421-43d5-80c7-559e2e2e5a3e"},"vehicle_type_id":"4","last_reported":1686953145,"current_range_meters":18000,"station_id":"ce4bhjp2rcd13ifvqg90","pricing_plan_id":"free"},{"bike_id":"77530772-8f69-4892-92d0-d22941ccc740","system_id":"levelo_inurba_marseille","lat":43.26202,"lon":5.37927,"is_reserved":false,"is_disabled":false,"rental_uris":{"android":"levelo://app?vid=77530772-8f69-4892-92d0-d22941ccc740","ios":"levelo://app?vid=77530772-8f69-4892-92d0-d22941ccc740"},"vehicle_type_id":"4","last_reported":1686953145,"current_range_meters":31200,"station_id":"ce4bhjp2rcd13ifvqg90","pricing_plan_id":"free"},{"bike_id":"6e8d19a1-1e6b-44ed-ab7a-3d47883a6e8f","system_id":"levelo_inurba_marseille","lat":43.26201,"lon":5.37921,"is_reserved":false,"is_disabled":false,"rental_uris":{"android":"levelo://app?vid=6e8d19a1-1e6b-44ed-ab7a-3d47883a6e8f","ios":"levelo://app?vid=6e8d19a1-1e6b-44ed-ab7a-3d47883a6e8f"},"vehicle_type_id":"4","last_reported":1686953145,"current_range_meters":27600,"station_id":"ce4bhjp2rcd13ifvqg90","pricing_plan_id":"free"},{"bike_id":"022b8a81-e07e-4f94-bdf1-f40e4a6d68a6","system_id":"levelo_inurba_marseille","lat":43.26201,"lon":5.37924,"is_reserved":false,"is_disabled":false,"rental_uris":{"android":"levelo://app?vid=022b8a81-e07e-4f94-bdf1-f40e4a6d68a6","ios":"levelo://app?vid=022b8a81-e07e-4f94-bdf1-f40e4a6d68a6"},"vehicle_type_id":"4","last_reported":1686953145,"current_range_meters":31200,"station_id":"ce4bhjp2rcd13ifvqg90","pricing_plan_id":"free"},{"bike_id":"2a1b23f2-dabb-4511-ba16-c075d2484d5d","system_id":"levelo_inurba_marseille","lat":43.26202,"lon":5.379299,"is_reserved":false,"is_disabled":false,"rental_uris":{"android":"levelo://app?vid=2a1b23f2-dabb-4511-ba16-c075d2484d5d","ios":"levelo://app?vid=2a1b23f2-dabb-4511-ba16-c075d2484d5d"},"vehicle_type_id":"4","last_reported":1686953145,"current_range_meters":31200,"station_id":"ce4bhjp2rcd13ifvqg90","pricing_plan_id":"free"},{"bike_id":"7cb31352-5dd2-4392-86bc-b23964a6b79a","system_id":"levelo_inurba_marseille","lat":43.26202,"lon":5.379299,"is_reserved":false,"is_disabled":false,"rental_uris":{"android":"levelo://app?vid=7cb31352-5dd2-4392-86bc-b23964a6b79a","ios":"levelo://app?vid=7cb31352-5dd2-4392-86bc-b23964a6b79a"},"vehicle_type_id":"4","last_reported":1686953145,"current_range_meters":31200,"station_id":"ce4bhjp2rcd13ifvqg90","pricing_plan_id":"free"},{"bike_id":"6fcd2756-ea57-4564-b4a6-a7b5b66c16b1","system_id":"levelo_inurba_marseille","lat":43.26201,"lon":5.37927,"is_reserved":false,"is_disabled":false,"rental_uris":{"android":"levelo://app?vid=6fcd2756-ea57-4564-b4a6-a7b5b66c16b1","ios":"levelo://app?vid=6fcd2756-ea57-4564-b4a6-a7b5b66c16b1"},"vehicle_type_id":"4","last_reported":1686953145,"current_range_meters":31200,"station_id":"ce4bhjp2rcd13ifvqg90","pricing_plan_id":"free"},{"bike_id":"40a30b95-5688-45be-ac3d-11a6e4cadaac","system_id":"levelo_inurba_marseille","lat":43.262015,"lon":5.379309,"is_reserved":false,"is_disabled":false,"rental_uris":{"android":"levelo://app?vid=40a30b95-5688-45be-ac3d-11a6e4cadaac","ios":"levelo://app?vid=40a30b95-5688-45be-ac3d-11a6e4cadaac"},"vehicle_type_id":"4","last_reported":1686953145,"current_range_meters":31200,"station_id":"ce4bhjp2rcd13ifvqg90","pricing_plan_id":"free"},{"bike_id":"6d1534cd-8426-4f59-8814-affd2b327db3","system_id":"levelo_inurba_marseille","lat":43.26201,"lon":5.37928,"is_reserved":false,"is_disabled":false,"rental_uris":{"android":"levelo://app?vid=6d1534cd-8426-4f59-8814-affd2b327db3","ios":"levelo://app?vid=6d1534cd-8426-4f59-8814-affd2b327db3"},"vehicle_type_id":"4","last_reported":1686953145,"current_range_meters":19200,"station_id":"ce4bhjp2rcd13ifvqg90","pricing_plan_id":"free"},{"bike_id":"b15816cc-e74c-4248-afc4-52d13181d055","system_id":"levelo_inurba_marseille","lat":43.26201,"lon":5.37931,"is_reserved":false,"is_disabled":false,"rental_uris":{"android":"levelo://app?vid=b15816cc-e74c-4248-afc4-52d13181d055","ios":"levelo://app?vid=b15816cc-e74c-4248-afc4-52d13181d055"},"vehicle_type_id":"4","last_reported":1686953145,"current_range_meters":16400,"station_id":"ce4bhjp2rcd13ifvqg90","pricing_plan_id":"free"},{"bike_id":"fea41673-a085-442a-92a0-90fd61618e6f","system_id":"levelo_inurba_marseille","lat":43.26201,"lon":5.37933,"is_reserved":false,"is_disabled":false,"rental_uris":{"android":"levelo://app?vid=fea41673-a085-442a-92a0-90fd61618e6f","ios":"levelo://app?vid=fea41673-a085-442a-92a0-90fd61618e6f"},"vehicle_type_id":"4","last_reported":1686953145,"current_range_meters":31200,"station_id":"ce4bhjp2rcd13ifvqg90","pricing_plan_id":"free"},{"bike_id":"d968640c-41ff-48e7-b790-82f7b592cd6f","system_id":"levelo_inurba_marseille","lat":43.26202,"lon":5.379299,"is_reserved":false,"is_disabled":false,"rental_uris":{"android":"levelo://app?vid=d968640c-41ff-48e7-b790-82f7b592cd6f","ios":"levelo://app?vid=d968640c-41ff-48e7-b790-82f7b592cd6f"},"vehicle_type_id":"4","last_reported":1686953145,"current_range_meters":14400,"station_id":"ce4bhjp2rcd13ifvqg90","pricing_plan_id":"free"},{"bike_id":"6867bdb6-91aa-49c3-b63c-816c0b897b04","system_id":"levelo_inurba_marseille","lat":43.262,"lon":5.3793,"is_reserved":false,"is_disabled":false,"rental_uris":{"android":"levelo://app?vid=6867bdb6-91aa-49c3-b63c-816c0b897b04","ios":"levelo://app?vid=6867bdb6-91aa-49c3-b63c-816c0b897b04"},"vehicle_type_id":"4","last_reported":1686953145,"current_range_meters":30400,"station_id":"ce4bhjp2rcd13ifvqg90","pricing_plan_id":"free"},{"bike_id":"ab612d6f-c5bd-41f7-af93-6b463582f745","system_id":"levelo_inurba_marseille","lat":43.262,"lon":5.37932,"is_reserved":false,"is_disabled":false,"rental_uris":{"android":"levelo://app?vid=ab612d6f-c5bd-41f7-af93-6b463582f745","ios":"levelo://app?vid=ab612d6f-c5bd-41f7-af93-6b463582f745"},"vehicle_type_id":"4","last_reported":1686953145,"current_range_meters":13200,"station_id":"ce4bhjp2rcd13ifvqg90","pricing_plan_id":"free"},{"bike_id":"ffb9e2cd-e096-4cde-b0ee-feb81ef79d74","system_id":"levelo_inurba_marseille","lat":43.262,"lon":5.37933,"is_reserved":false,"is_disabled":false,"rental_uris":{"android":"levelo://app?vid=ffb9e2cd-e096-4cde-b0ee-feb81ef79d74","ios":"levelo://app?vid=ffb9e2cd-e096-4cde-b0ee-feb81ef79d74"},"vehicle_type_id":"4","last_reported":1686953145,"current_range_meters":9200,"station_id":"ce4bhjp2rcd13ifvqg90","pricing_plan_id":"free"},{"bike_id":"a43604cf-6338-465e-b30a-55c742f1264b","system_id":"levelo_inurba_marseille","lat":43.26202,"lon":5.379299,"is_reserved":false,"is_disabled":false,"rental_uris":{"android":"levelo://app?vid=a43604cf-6338-465e-b30a-55c742f1264b","ios":"levelo://app?vid=a43604cf-6338-465e-b30a-55c742f1264b"},"vehicle_type_id":"4","last_reported":1686953145,"current_range_meters":21600,"station_id":"ce4bhjp2rcd13ifvqg90","pricing_plan_id":"free"},{"bike_id":"a0ec0c8d-8bd5-4563-8cda-d2699a6d39dc","system_id":"levelo_inurba_marseille","lat":43.267959,"lon":5.402685,"is_reserved":false,"is_disabled":false,"rental_uris":{"android":"levelo://app?vid=a0ec0c8d-8bd5-4563-8cda-d2699a6d39dc","ios":"levelo://app?vid=a0ec0c8d-8bd5-4563-8cda-d2699a6d39dc"},"vehicle_type_id":"4","last_reported":1686953145,"current_range_meters":21600,"station_id":"ce501612rcd8frsf0b60","pricing_plan_id":"free"},{"bike_id":"e572aed1-71e6-49ea-a174-5691c7cd1da6","system_id":"levelo_inurba_marseille","lat":43.26202,"lon":5.379299,"is_reserved":false,"is_disabled":false,"rental_uris":{"android":"levelo://app?vid=e572aed1-71e6-49ea-a174-5691c7cd1da6","ios":"levelo://app?vid=e572aed1-71e6-49ea-a174-5691c7cd1da6"},"vehicle_type_id":"4","last_reported":1686953145,"current_range_meters":30400,"station_id":"ce4bhjp2rcd13ifvqg90","pricing_plan_id":"free"},{"bike_id":"9c45573d-7e2a-4e16-a7ba-cfe7257710aa","system_id":"levelo_inurba_marseille","lat":43.26198,"lon":5.37929,"is_reserved":false,"is_disabled":false,"rental_uris":{"android":"levelo://app?vid=9c45573d-7e2a-4e16-a7ba-cfe7257710aa","ios":"levelo://app?vid=9c45573d-7e2a-4e16-a7ba-cfe7257710aa"},"vehicle_type_id":"4","last_reported":1686953145,"current_range_meters":16400,"station_id":"ce4bhjp2rcd13ifvqg90","pricing_plan_id":"free"},{"bike_id":"02a89742-31a3-4ee4-a871-dc9c8ec9400b","system_id":"levelo_inurba_marseille","lat":43.26197,"lon":5.37924,"is_reserved":false,"is_disabled":false,"rental_uris":{"android":"levelo://app?vid=02a89742-31a3-4ee4-a871-dc9c8ec9400b","ios":"levelo://app?vid=02a89742-31a3-4ee4-a871-dc9c8ec9400b"},"vehicle_type_id":"4","last_reported":1686953145,"current_range_meters":31200,"station_id":"ce4bhjp2rcd13ifvqg90","pricing_plan_id":"free"},{"bike_id":"6345dde2-8be5-4b14-b554-75b467131e9d","system_id":"levelo_inurba_marseille","lat":43.26202,"lon":5.379299,"is_reserved":false,"is_disabled":false,"rental_uris":{"android":"levelo://app?vid=6345dde2-8be5-4b14-b554-75b467131e9d","ios":"levelo://app?vid=6345dde2-8be5-4b14-b554-75b467131e9d"},"vehicle_type_id":"4","last_reported":1686953145,"current_range_meters":22000,"station_id":"ce4bhjp2rcd13ifvqg90","pricing_plan_id":"free"},{"bike_id":"1d6ad414-f440-435b-925f-80dabaa65f3a","system_id":"levelo_inurba_marseille","lat":43.271388,"lon":5.409269,"is_reserved":false,"is_disabled":false,"rental_uris":{"android":"levelo://app?vid=1d6ad414-f440-435b-925f-80dabaa65f3a","ios":"levelo://app?vid=1d6ad414-f440-435b-925f-80dabaa65f3a"},"vehicle_type_id":"4","last_reported":1686953145,"current_range_meters":2000,"station_id":"ce4bhl12rcd13ifvqgf0","pricing_plan_id":"free"},{"bike_id":"c8eb0559-fc74-4432-89ca-60edd849ba8a","system_id":"levelo_inurba_marseille","lat":43.26197,"lon":5.3793,"is_reserved":false,"is_disabled":false,"rental_uris":{"android":"levelo://app?vid=c8eb0559-fc74-4432-89ca-60edd849ba8a","ios":"levelo://app?vid=c8eb0559-fc74-4432-89ca-60edd849ba8a"},"vehicle_type_id":"4","last_reported":1686953145,"current_range_meters":15600,"station_id":"ce4bhjp2rcd13ifvqg90","pricing_plan_id":"free"},{"bike_id":"2ed7b7c2-8a07-4615-90fa-91057de4c68c","system_id":"levelo_inurba_marseille","lat":43.26202,"lon":5.379299,"is_reserved":false,"is_disabled":false,"rental_uris":{"android":"levelo://app?vid=2ed7b7c2-8a07-4615-90fa-91057de4c68c","ios":"levelo://app?vid=2ed7b7c2-8a07-4615-90fa-91057de4c68c"},"vehicle_type_id":"4","last_reported":1686953145,"current_range_meters":30800,"station_id":"ce4bhjp2rcd13ifvqg90","pricing_plan_id":"free"},{"bike_id":"f0131918-ab65-4b47-8927-30b44a9bf665","system_id":"levelo_inurba_marseille","lat":43.26202,"lon":5.379299,"is_reserved":false,"is_disabled":false,"rental_uris":{"android":"levelo://app?vid=f0131918-ab65-4b47-8927-30b44a9bf665","ios":"levelo://app?vid=f0131918-ab65-4b47-8927-30b44a9bf665"},"vehicle_type_id":"4","last_reported":1686953145,"current_range_meters":6000,"station_id":"ce4bhjp2rcd13ifvqg90","pricing_plan_id":"free"},{"bike_id":"ccec55c2-5e25-4a0d-ba89-4f1b42bdd650","system_id":"levelo_inurba_marseille","lat":43.26195,"lon":5.37925,"is_reserved":false,"is_disabled":false,"rental_uris":{"android":"levelo://app?vid=ccec55c2-5e25-4a0d-ba89-4f1b42bdd650","ios":"levelo://app?vid=ccec55c2-5e25-4a0d-ba89-4f1b42bdd650"},"vehicle_type_id":"4","last_reported":1686953145,"current_range_meters":31200,"station_id":"ce4bhjp2rcd13ifvqg90","pricing_plan_id":"free"},{"bike_id":"994a06b7-6a83-465e-94fa-29161181f580","system_id":"levelo_inurba_marseille","lat":43.271368,"lon":5.40928,"is_reserved":false,"is_disabled":false,"rental_uris":{"android":"levelo://app?vid=994a06b7-6a83-465e-94fa-29161181f580","ios":"levelo://app?vid=994a06b7-6a83-465e-94fa-29161181f580"},"vehicle_type_id":"4","last_reported":1686953145,"current_range_meters":0,"station_id":"ce4bhl12rcd13ifvqgf0","pricing_plan_id":"free"},{"bike_id":"b9765a6f-f3d2-4480-a13b-28e90420ca3e","system_id":"levelo_inurba_marseille","lat":43.26195,"lon":5.37926,"is_reserved":false,"is_disabled":false,"rental_uris":{"android":"levelo://app?vid=b9765a6f-f3d2-4480-a13b-28e90420ca3e","ios":"levelo://app?vid=b9765a6f-f3d2-4480-a13b-28e90420ca3e"},"vehicle_type_id":"4","last_reported":1686953145,"current_range_meters":31200,"station_id":"ce4bhjp2rcd13ifvqg90","pricing_plan_id":"free"},{"bike_id":"71fea6fb-52fc-48a5-a2d7-29dc72612712","system_id":"levelo_inurba_marseille","lat":43.267959,"lon":5.402687,"is_reserved":false,"is_disabled":false,"rental_uris":{"android":"levelo://app?vid=71fea6fb-52fc-48a5-a2d7-29dc72612712","ios":"levelo://app?vid=71fea6fb-52fc-48a5-a2d7-29dc72612712"},"vehicle_type_id":"4","last_reported":1686953145,"current_range_meters":11600,"station_id":"ce501612rcd8frsf0b60","pricing_plan_id":"free"},{"bike_id":"9d5b67b8-a9c4-4896-be07-b4c1e795b919","system_id":"levelo_inurba_marseille","lat":43.267959,"lon":5.402687,"is_reserved":false,"is_disabled":false,"rental_uris":{"android":"levelo://app?vid=9d5b67b8-a9c4-4896-be07-b4c1e795b919","ios":"levelo://app?vid=9d5b67b8-a9c4-4896-be07-b4c1e795b919"},"vehicle_type_id":"4","last_reported":1686953145,"current_range_meters":20000,"station_id":"ce501612rcd8frsf0b60","pricing_plan_id":"free"},{"bike_id":"ecda948c-4e46-492c-8d6a-466ee3c57832","system_id":"levelo_inurba_marseille","lat":43.267959,"lon":5.402687,"is_reserved":false,"is_disabled":false,"rental_uris":{"android":"levelo://app?vid=ecda948c-4e46-492c-8d6a-466ee3c57832","ios":"levelo://app?vid=ecda948c-4e46-492c-8d6a-466ee3c57832"},"vehicle_type_id":"4","last_reported":1686953145,"current_range_meters":20000,"station_id":"ce501612rcd8frsf0b60","pricing_plan_id":"free"},{"bike_id":"a203a4af-618a-4254-b277-cf192465455c","system_id":"levelo_inurba_marseille","lat":43.267959,"lon":5.402687,"is_reserved":false,"is_disabled":false,"rental_uris":{"android":"levelo://app?vid=a203a4af-618a-4254-b277-cf192465455c","ios":"levelo://app?vid=a203a4af-618a-4254-b277-cf192465455c"},"vehicle_type_id":"4","last_reported":1686953145,"current_range_meters":29200,"station_id":"ce501612rcd8frsf0b60","pricing_plan_id":"free"},{"bike_id":"a198524d-5d0a-4964-8c83-d650548fb399","system_id":"levelo_inurba_marseille","lat":43.267959,"lon":5.402685,"is_reserved":false,"is_disabled":false,"rental_uris":{"android":"levelo://app?vid=a198524d-5d0a-4964-8c83-d650548fb399","ios":"levelo://app?vid=a198524d-5d0a-4964-8c83-d650548fb399"},"vehicle_type_id":"4","last_reported":1686953145,"current_range_meters":22400,"station_id":"ce501612rcd8frsf0b60","pricing_plan_id":"free"},{"bike_id":"86a91cfb-6e45-470b-9852-a55060b27fa0","system_id":"levelo_inurba_marseille","lat":43.2603,"lon":5.37554,"is_reserved":false,"is_disabled":false,"rental_uris":{"android":"levelo://app?vid=86a91cfb-6e45-470b-9852-a55060b27fa0","ios":"levelo://app?vid=86a91cfb-6e45-470b-9852-a55060b27fa0"},"vehicle_type_id":"4","last_reported":1686953145,"current_range_meters":0,"station_id":"ce4bhgh2rcd13ifvqfa0","pricing_plan_id":"free"},{"bike_id":"61c90903-f473-40c2-9527-2f7fc5497beb","system_id":"levelo_inurba_marseille","lat":43.26029,"lon":5.37546,"is_reserved":false,"is_disabled":false,"rental_uris":{"android":"levelo://app?vid=61c90903-f473-40c2-9527-2f7fc5497beb","ios":"levelo://app?vid=61c90903-f473-40c2-9527-2f7fc5497beb"},"vehicle_type_id":"4","last_reported":1686953145,"current_range_meters":0,"station_id":"ce4bhgh2rcd13ifvqfa0","pricing_plan_id":"free"},{"bike_id":"48fd9ed1-66eb-4144-bf27-60a2848eeffd","system_id":"levelo_inurba_marseille","lat":43.26029,"lon":5.37548,"is_reserved":false,"is_disabled":false,"rental_uris":{"android":"levelo://app?vid=48fd9ed1-66eb-4144-bf27-60a2848eeffd","ios":"levelo://app?vid=48fd9ed1-66eb-4144-bf27-60a2848eeffd"},"vehicle_type_id":"4","last_reported":1686953145,"current_range_meters":26400,"station_id":"ce4bhgh2rcd13ifvqfa0","pricing_plan_id":"free"},{"bike_id":"a54eab0a-876b-453c-bbe5-7b8fc8c8fa20","system_id":"levelo_inurba_marseille","lat":43.26027,"lon":5.37552,"is_reserved":false,"is_disabled":false,"rental_uris":{"android":"levelo://app?vid=a54eab0a-876b-453c-bbe5-7b8fc8c8fa20","ios":"levelo://app?vid=a54eab0a-876b-453c-bbe5-7b8fc8c8fa20"},"vehicle_type_id":"4","last_reported":1686953145,"current_range_meters":22400,"station_id":"ce4bhgh2rcd13ifvqfa0","pricing_plan_id":"free"},{"bike_id":"a1d2bb86-1603-4271-8da0-0d18461887c5","system_id":"levelo_inurba_marseille","lat":43.26026,"lon":5.37549,"is_reserved":false,"is_disabled":false,"rental_uris":{"android":"levelo://app?vid=a1d2bb86-1603-4271-8da0-0d18461887c5","ios":"levelo://app?vid=a1d2bb86-1603-4271-8da0-0d18461887c5"},"vehicle_type_id":"4","last_reported":1686953145,"current_range_meters":4800,"station_id":"ce4bhgh2rcd13ifvqfa0","pricing_plan_id":"free"},{"bike_id":"7e4e4f89-fab9-4e8a-9112-52798112a820","system_id":"levelo_inurba_marseille","lat":43.26023,"lon":5.37553,"is_reserved":false,"is_disabled":false,"rental_uris":{"android":"levelo://app?vid=7e4e4f89-fab9-4e8a-9112-52798112a820","ios":"levelo://app?vid=7e4e4f89-fab9-4e8a-9112-52798112a820"},"vehicle_type_id":"4","last_reported":1686953145,"current_range_meters":30400,"station_id":"ce4bhgh2rcd13ifvqfa0","pricing_plan_id":"free"},{"bike_id":"5329d6e3-027f-42ab-a933-e6e8ba33d6c1","system_id":"levelo_inurba_marseille","lat":43.26022,"lon":5.3755,"is_reserved":false,"is_disabled":false,"rental_uris":{"android":"levelo://app?vid=5329d6e3-027f-42ab-a933-e6e8ba33d6c1","ios":"levelo://app?vid=5329d6e3-027f-42ab-a933-e6e8ba33d6c1"},"vehicle_type_id":"4","last_reported":1686953145,"current_range_meters":31200,"station_id":"ce4bhgh2rcd13ifvqfa0","pricing_plan_id":"free"},{"bike_id":"bb886e93-87d8-4bb2-8125-2ea1916256b7","system_id":"levelo_inurba_marseille","lat":43.26022,"lon":5.37552,"is_reserved":false,"is_disabled":false,"rental_uris":{"android":"levelo://app?vid=bb886e93-87d8-4bb2-8125-2ea1916256b7","ios":"levelo://app?vid=bb886e93-87d8-4bb2-8125-2ea1916256b7"},"vehicle_type_id":"4","last_reported":1686953145,"current_range_meters":30400,"station_id":"ce4bhgh2rcd13ifvqfa0","pricing_plan_id":"free"},{"bike_id":"6f86d618-2929-4a05-8847-3b16c14efad8","system_id":"levelo_inurba_marseille","lat":43.275028,"lon":5.424534,"is_reserved":false,"is_disabled":false,"rental_uris":{"android":"levelo://app?vid=6f86d618-2929-4a05-8847-3b16c14efad8","ios":"levelo://app?vid=6f86d618-2929-4a05-8847-3b16c14efad8"},"vehicle_type_id":"4","last_reported":1686953145,"current_range_meters":14800,"station_id":"ce4bhn92rcd13ifvqgrg","pricing_plan_id":"free"},{"bike_id":"263d3b8d-c497-4142-8856-300c01a3739b","system_id":"levelo_inurba_marseille","lat":43.25583,"lon":5.38244,"is_reserved":false,"is_disabled":false,"rental_uris":{"android":"levelo://app?vid=263d3b8d-c497-4142-8856-300c01a3739b","ios":"levelo://app?vid=263d3b8d-c497-4142-8856-300c01a3739b"},"vehicle_type_id":"4","last_reported":1686953145,"current_range_meters":0,"station_id":"ce4bhih2rcd13ifvqfs0","pricing_plan_id":"free"},{"bike_id":"fbb1a2e7-44af-468a-a89b-ee3993d98cc2","system_id":"levelo_inurba_marseille","lat":43.25579,"lon":5.38241,"is_reserved":false,"is_disabled":false,"rental_uris":{"android":"levelo://app?vid=fbb1a2e7-44af-468a-a89b-ee3993d98cc2","ios":"levelo://app?vid=fbb1a2e7-44af-468a-a89b-ee3993d98cc2"},"vehicle_type_id":"4","last_reported":1686953145,"current_range_meters":28800,"station_id":"ce4bhih2rcd13ifvqfs0","pricing_plan_id":"free"},{"bike_id":"b228db97-8122-43f0-aa98-22c5f45f1b46","system_id":"levelo_inurba_marseille","lat":43.2707,"lon":5.42277,"is_reserved":false,"is_disabled":false,"rental_uris":{"android":"levelo://app?vid=b228db97-8122-43f0-aa98-22c5f45f1b46","ios":"levelo://app?vid=b228db97-8122-43f0-aa98-22c5f45f1b46"},"vehicle_type_id":"4","last_reported":1686953145,"current_range_meters":25600,"station_id":"ce4bhk92rcd13ifvqgb0","pricing_plan_id":"free"},{"bike_id":"a82f1342-4425-490c-94cd-edfee8293be0","system_id":"levelo_inurba_marseille","lat":43.270721,"lon":5.422764,"is_reserved":false,"is_disabled":false,"rental_uris":{"android":"levelo://app?vid=a82f1342-4425-490c-94cd-edfee8293be0","ios":"levelo://app?vid=a82f1342-4425-490c-94cd-edfee8293be0"},"vehicle_type_id":"4","last_reported":1686953145,"current_range_meters":3600,"station_id":"ce4bhk92rcd13ifvqgb0","pricing_plan_id":"free"},{"bike_id":"187e0379-a966-44e5-aeea-b272d851f1c9","system_id":"levelo_inurba_marseille","lat":43.259013,"lon":5.409301,"is_reserved":false,"is_disabled":false,"rental_uris":{"android":"levelo://app?vid=187e0379-a966-44e5-aeea-b272d851f1c9","ios":"levelo://app?vid=187e0379-a966-44e5-aeea-b272d851f1c9"},"vehicle_type_id":"4","last_reported":1686953145,"current_range_meters":17600,"station_id":"ce4bhm92rcd13ifvqglg","pricing_plan_id":"free"},{"bike_id":"f44e6d11-6fdb-4946-a083-d97bec6a15f0","system_id":"levelo_inurba_marseille","lat":43.259013,"lon":5.409301,"is_reserved":false,"is_disabled":false,"rental_uris":{"android":"levelo://app?vid=f44e6d11-6fdb-4946-a083-d97bec6a15f0","ios":"levelo://app?vid=f44e6d11-6fdb-4946-a083-d97bec6a15f0"},"vehicle_type_id":"4","last_reported":1686953145,"current_range_meters":17200,"station_id":"ce4bhm92rcd13ifvqglg","pricing_plan_id":"free"},{"bike_id":"380ea018-6d53-423b-b8cb-4a86fff7f762","system_id":"levelo_inurba_marseille","lat":43.259013,"lon":5.409301,"is_reserved":false,"is_disabled":false,"rental_uris":{"android":"levelo://app?vid=380ea018-6d53-423b-b8cb-4a86fff7f762","ios":"levelo://app?vid=380ea018-6d53-423b-b8cb-4a86fff7f762"},"vehicle_type_id":"4","last_reported":1686953145,"current_range_meters":12400,"station_id":"ce4bhm92rcd13ifvqglg","pricing_plan_id":"free"},