{"last_updated":1702735623,"ttl":30,"version":"2.2","data":{"bikes":[{"bike_id":"690db9f8-ea73-493c-9f70-2806267dd016","system_id":"levelo_inurba_marseille","lat":43.313391,"lon":5.36706,"is_reserved":false,"is_disabled":false,"rental_uris":{"android":"levelo://app?vid=690db9f8-ea73-493c-9f70-2806267dd016","ios":"levelo://app?vid=690db9f8-ea73-493c-9f70-2806267dd016"},"vehicle_type_id":"4","last_reported":1702735623,"current_range_meters":13600,"station_id":"ce4bgr92rcd13ifvqc6g","pricing_plan_id":"free"},{"bike_id":"c14b6a18-f8b2-4a06-9367-c499840eaf9e","system_id":"levelo_inurba_marseille","lat":43.312239,"lon":5.368562,"is_reserved":false,"is_disabled":false,"rental_uris":{"android":"levelo://app?vid=c14b6a18-f8b2-4a06-9367-c499840eaf9e","ios":"levelo://app?vid=c14b6a18-f8b2-4a06-9367-c499840eaf9e"},"vehicle_type_id":"4","last_reported":1702735623,"current_range_meters":6800,"station_id":"ce4bgl92rcd13ifvqbq0","pricing_plan_id":"free"},{"bike_id":"3f8b821f-e430-4a35-bf14-f8b6e777ea11","system_id":"levelo_inurba_marseille","lat":43.313939,"lon":5.375306,"is_reserved":false,"is_disabled":false,"rental_uris":{"android":"levelo://app?vid=3f8b821f-e430-4a35-bf14-f8b6e777ea11","ios":"levelo://app?vid=3f8b821f-e430-4a35-bf14-f8b6e777ea11"},"vehicle_type_id":"4","last_reported":1702735623,"current_range_meters":0,"station_id":"","pricing_plan_id":"free"},{"bike_id":"c0b71835-e43e-4ee7-974c-1f27538f7973","system_id":"levelo_inurba_marseille","lat":43.305368,"lon":5.367343,"is_reserved":false,"is_disabled":false,"rental_uris":{"android":"levelo://app?vid=c0b71835-e43e-4ee7-974c-1f27538f7973","ios":"levelo://app?vid=c0b71835-e43e-4ee7-974c-1f27538f7973"},"vehicle_type_id":"4","last_reported":1702735623,"current_range_meters":26800,"station_id":"ce4bgrp2rcd13ifvqc9g","pricing_plan_id":"free"},{"bike_id":"0b31403c-0573-4a9d-9a27-c964e4c5370b","system_id":"levelo_inurba_marseille","lat":43.305368,"lon":5.367343,"is_reserved":false,"is_disabled":false,"rental_uris":{"android":"levelo://app?vid=0b31403c-0573-4a9d-9a27-c964e4c5370b","ios":"levelo://app?vid=0b31403c-0573-4a9d-9a27-c964e4c5370b"},"vehicle_type_id":"4","last_reported":1702735623,"current_range_meters":10000,"station_id":"ce4bgrp2rcd13ifvqc9g","pricing_plan_id":"free"},{"bike_id":"50a4efb9-80fb-40ab-8260-57b7d5af76a8","system_id":"levelo_inurba_marseille","lat":43.30543,"lon":5.36705,"is_reserved":false,"is_disabled":false,"rental_uris":{"android":"levelo://app?vid=50a4efb9-80fb-40ab-8260-57b7d5af76a8","ios":"levelo://app?vid=50a4efb9-80fb-40ab-8260-57b7d5af76a8"},"vehicle_type_id":"4","last_reported":1702735623,"current_range_meters":19200,"station_id":"ce4bgrp2rcd13ifvqc9g","pricing_plan_id":"free"},{"bike_id":"1e1cf768-09db-48e7-a1fe-d0bd16cb4c34","system_id":"levelo_inurba_marseille","lat":43.305706,"lon":5.365654,"is_reserved":false,"is_disabled":false,"rental_uris":{"android":"levelo://app?vid=1e1cf768-09db-48e7-a1fe-d0bd16cb4c34","ios":"levelo://app?vid=1e1cf768-09db-48e7-a1fe-d0bd16cb4c34"},"vehicle_type_id":"4","last_reported":1702735623,"current_range_meters":16000,"station_id":"ce4bgs12rcd13ifvqcag","pricing_plan_id":"free"},{"bike_id":"7ce66f9f-9b13-4b8a-bde8-d2d0a76f055b","system_id":"levelo_inurba_marseille","lat":43.305706,"lon":5.365654,"is_reserved":false,"is_disabled":false,"rental_uris":{"android":"levelo://app?vid=7ce66f9f-9b13-4b8a-bde8-d2d0a76f055b","ios":"levelo://app?vid=7ce66f9f-9b13-4b8a-bde8-d2d0a76f055b"},"vehicle_type_id":"4","last_reported":1702735623,"current_range_meters":4800,"station_id":"ce4bgs12rcd13ifvqcag","pricing_plan_id":"free"},{"bike_id":"955e4ab2-16e5-44e8-a986-a2f50ff96c06","system_id":"levelo_inurba_marseille","lat":43.305382,"lon":5.365389,"is_reserved":false,"is_disabled":false,"rental_uris":{"android":"levelo://app?vid=955e4ab2-16e5-44e8-a986-a2f50ff96c06","ios":"levelo://app?vid=955e4ab2-16e5-44e8-a986-a2f50ff96c06"},"vehicle_type_id":"4","last_reported":1702735623,"current_range_meters":15200,"station_id":"","pricing_plan_id":"free"},{"bike_id":"f7c2f8c2-f0f4-4524-af2c-fda0494fcabd","system_id":"levelo_inurba_marseille","lat":43.305368,"lon":5.367343,"is_reserved":false,"is_disabled":false,"rental_uris":{"android":"levelo://app?vid=f7c2f8c2-f0f4-4524-af2c-fda0494fcabd","ios":"levelo://app?vid=f7c2f8c2-f0f4-4524-af2c-fda0494fcabd"},"vehicle_type_id":"4","last_reported":1702735623,"current_range_meters":27600,"station_id":"ce4bgrp2rcd13ifvqc9g","pricing_plan_id":"free"},{"bike_id":"c0973b70-e2fe-438d-a9b7-02d9eba92822","system_id":"levelo_inurba_marseille","lat":43.30527,"lon":5.36723,"is_reserved":false,"is_disabled":false,"rental_uris":{"android":"levelo://app?vid=c0973b70-e2fe-438d-a9b7-02d9eba92822","ios":"levelo://app?vid=c0973b70-e2fe-438d-a9b7-02d9eba92822"},"vehicle_type_id":"4","last_reported":1702735623,"current_range_meters":23600,"station_id":"ce4bgrp2rcd13ifvqc9g","pricing_plan_id":"free"},{"bike_id":"647d6995-eca8-4b06-a197-144cd9174c91","system_id":"levelo_inurba_marseille","lat":43.305368,"lon":5.367343,"is_reserved":false,"is_disabled":false,"rental_uris":{"android":"levelo://app?vid=647d6995-eca8-4b06-a197-144cd9174c91","ios":"levelo://app?vid=647d6995-eca8-4b06-a197-144cd9174c91"},"vehicle_type_id":"4","last_reported":1702735623,"current_range_meters":18800,"station_id":"ce4bgrp2rcd13ifvqc9g","pricing_plan_id":"free"},{"bike_id":"1d3ab29e-c883-4609-ac9e-c813fe54b2f0","system_id":"levelo_inurba_marseille","lat":43.305368,"lon":5.367343,"is_reserved":false,"is_disabled":false,"rental_uris":{"android":"levelo://app?vid=1d3ab29e-c883-4609-ac9e-c813fe54b2f0","ios":"levelo://app?vid=1d3ab29e-c883-4609-ac9e-c813fe54b2f0"},"vehicle_type_id":"4","last_reported":1702735623,"current_range_meters":14000,"station_id":"ce4bgrp2rcd13ifvqc9g","pricing_plan_id":"free"},{"bike_id":"a56c66f3-e7a1-4dc9-b5ac-8945327e629c","system_id":"levelo_inurba_marseille","lat":43.305706,"lon":5.365654,"is_reserved":false,"is_disabled":false,"rental_uris":{"android":"levelo://app?vid=a56c66f3-e7a1-4dc9-b5ac-8945327e629c","ios":"levelo://app?vid=a56c66f3-e7a1-4dc9-b5ac-8945327e629c"},"vehicle_type_id":"4","last_reported":1702735623,"current_range_meters":6400,"station_id":"ce4bgs12rcd13ifvqcag","pricing_plan_id":"free"},{"bike_id":"8ca06f85-0a67-4f2f-b47b-6329136aa613","system_id":"levelo_inurba_marseille","lat":43.317075,"lon":5.377367,"is_reserved":false,"is_disabled":false,"rental_uris":{"android":"levelo://app?vid=8ca06f85-0a67-4f2f-b47b-6329136aa613","ios":"levelo://app?vid=8ca06f85-0a67-4f2f-b47b-6329136aa613"},"vehicle_type_id":"4","last_reported":1702735623,"current_range_meters":28800,"station_id":"ce4bgth2rcd13ifvqch0","pricing_plan_id":"free"},{"bike_id":"cb32d9d7-bf61-43a8-842d-114dcec8cfc1","system_id":"levelo_inurba_marseille","lat":43.301939,"lon":5.366286,"is_reserved":false,"is_disabled":false,"rental_uris":{"android":"levelo://app?vid=cb32d9d7-bf61-43a8-842d-114dcec8cfc1","ios":"levelo://app?vid=cb32d9d7-bf61-43a8-842d-114dcec8cfc1"},"vehicle_type_id":"4","last_reported":1702735623,"current_range_meters":28000,"station_id":"ce4bgrh2rcd13ifvqc8g","pricing_plan_id":"free"},{"bike_id":"dfe62985-6f65-471f-8bdb-4e96693a7937","system_id":"levelo_inurba_marseille","lat":43.324776,"lon":5.365731,"is_reserved":false,"is_disabled":false,"rental_uris":{"android":"levelo://app?vid=dfe62985-6f65-471f-8bdb-4e96693a7937","ios":"levelo://app?vid=dfe62985-6f65-471f-8bdb-4e96693a7937"},"vehicle_type_id":"4","last_reported":1702735623,"current_range_meters":18400,"station_id":"ce4bhs12rcd13ifvqhvg","pricing_plan_id":"free"},{"bike_id":"f1cde3ff-6cd4-4e86-99bc-06e7a73fc0a0","system_id":"levelo_inurba_marseille","lat":43.324771,"lon":5.36557,"is_reserved":false,"is_disabled":false,"rental_uris":{"android":"levelo://app?vid=f1cde3ff-6cd4-4e86-99bc-06e7a73fc0a0","ios":"levelo://app?vid=f1cde3ff-6cd4-4e86-99bc-06e7a73fc0a0"},"vehicle_type_id":"4","last_reported":1702735623,"current_range_meters":16800,"station_id":"ce4bhs12rcd13ifvqhvg","pricing_plan_id":"free"},{"bike_id":"88f7ea2a-62f7-4a88-9e9d-900940b4d7e5","system_id":"levelo_inurba_marseille","lat":43.324771,"lon":5.36557,"is_reserved":false,"is_disabled":false,"rental_uris":{"android":"levelo://app?vid=88f7ea2a-62f7-4a88-9e9d-900940b4d7e5","ios":"levelo://app?vid=88f7ea2a-62f7-4a88-9e9d-900940b4d7e5"},"vehicle_type_id":"4","last_reported":1702735623,"current_range_meters":15600,"station_id":"ce4bhs12rcd13ifvqhvg","pricing_plan_id":"free"},{"bike_id":"bb6795b2-4581-43dd-b88e-3e27e33f1715","system_id":"levelo_inurba_marseille","lat":43.302784,"lon":5.377158,"is_reserved":false,"is_disabled":false,"rental_uris":{"android":"levelo://app?vid=bb6795b2-4581-43dd-b88e-3e27e33f1715","ios":"levelo://app?vid=bb6795b2-4581-43dd-b88e-3e27e33f1715"},"vehicle_type_id":"4","last_reported":1702735623,"current_range_meters":13200,"station_id":"ce4bguh2rcd13ifvqcj0","pricing_plan_id":"free"},{"bike_id":"2d9dd232-bfc9-428e-9343-2d17c4a692ca","system_id":"levelo_inurba_marseille","lat":43.302784,"lon":5.377158,"is_reserved":false,"is_disabled":false,"rental_uris":{"android":"levelo://app?vid=2d9dd232-bfc9-428e-9343-2d17c4a692ca","ios":"levelo://app?vid=2d9dd232-bfc9-428e-9343-2d17c4a692ca"},"vehicle_type_id":"4","last_reported":1702735623,"current_range_meters":26400,"station_id":"ce4bguh2rcd13ifvqcj0","pricing_plan_id":"free"},{"bike_id":"9edb63ba-201c-4e3c-b2c0-344e9f0b789b","system_id":"levelo_inurba_marseille","lat":43.313571,"lon":5.384829,"is_reserved":false,"is_disabled":false,"rental_uris":{"android":"levelo://app?vid=9edb63ba-201c-4e3c-b2c0-344e9f0b789b","ios":"levelo://app?vid=9edb63ba-201c-4e3c-b2c0-344e9f0b789b"},"vehicle_type_id":"4","last_reported":1702735623,"current_range_meters":11200,"station_id":"ce4bgt92rcd13ifvqcf0","pricing_plan_id":"free"},{"bike_id":"2260660a-9c90-4f5c-886e-7621afd1ab3f","system_id":"levelo_inurba_marseille","lat":43.299724,"lon":5.371829,"is_reserved":false,"is_disabled":false,"rental_uris":{"android":"levelo://app?vid=2260660a-9c90-4f5c-886e-7621afd1ab3f","ios":"levelo://app?vid=2260660a-9c90-4f5c-886e-7621afd1ab3f"},"vehicle_type_id":"4","last_reported":1702735623,"current_range_meters":12800,"station_id":"ce4bgr92rcd13ifvqc7g","pricing_plan_id":"free"},{"bike_id":"468e9f51-a7e3-494b-94f6-1feeb2b36f2f","system_id":"levelo_inurba_marseille","lat":43.298433,"lon":5.362774,"is_reserved":false,"is_disabled":false,"rental_uris":{"android":"levelo://app?vid=468e9f51-a7e3-494b-94f6-1feeb2b36f2f","ios":"levelo://app?vid=468e9f51-a7e3-494b-94f6-1feeb2b36f2f"},"vehicle_type_id":"4","last_reported":1702735623,"current_range_meters":12400,"station_id":"ce4bgpp2rcd13ifvqc3g","pricing_plan_id":"free"},{"bike_id":"c4e77394-aef9-4077-b745-e99148625344","system_id":"levelo_inurba_marseille","lat":43.32733,"lon":5.36707,"is_reserved":false,"is_disabled":false,"rental_uris":{"android":"levelo://app?vid=c4e77394-aef9-4077-b745-e99148625344","ios":"levelo://app?vid=c4e77394-aef9-4077-b745-e99148625344"},"vehicle_type_id":"4","last_reported":1702735623,"current_range_meters":22400,"station_id":"","pricing_plan_id":"free"},{"bike_id":"2bf725e1-1b13-4432-98d4-4de1bc75692a","system_id":"levelo_inurba_marseille","lat":43.299243,"lon":5.374807,"is_reserved":false,"is_disabled":false,"rental_uris":{"android":"levelo://app?vid=2bf725e1-1b13-4432-98d4-4de1bc75692a","ios":"levelo://app?vid=2bf725e1-1b13-4432-98d4-4de1bc75692a"},"vehicle_type_id":"4","last_reported":1702735623,"current_range_meters":21200,"station_id":"ce4bgjh2rcd13ifvqbg0","pricing_plan_id":"free"},{"bike_id":"819cb438-2e9c-4e0b-902b-5e19ef554d5c","system_id":"levelo_inurba_marseille","lat":43.305457,"lon":5.384503,"is_reserved":false,"is_disabled":false,"rental_uris":{"android":"levelo://app?vid=819cb438-2e9c-4e0b-902b-5e19ef554d5c","ios":"levelo://app?vid=819cb438-2e9c-4e0b-902b-5e19ef554d5c"},"vehicle_type_id":"4","last_reported":1702735623,"current_range_meters":16400,"station_id":"ce4bgg92rcd13ifvqb30","pricing_plan_id":"free"},{"bike_id":"576b5a6e-b395-407c-a958-0a7055d999ea","system_id":"levelo_inurba_marseille","lat":43.299243,"lon":5.374807,"is_reserved":false,"is_disabled":false,"rental_uris":{"android":"levelo://app?vid=576b5a6e-b395-407c-a958-0a7055d999ea","ios":"levelo://app?vid=576b5a6e-b395-407c-a958-0a7055d999ea"},"vehicle_type_id":"4","last_reported":1702735623,"current_range_meters":8800,"station_id":"ce4bgjh2rcd13ifvqbg0","pricing_plan_id":"free"},{"bike_id":"28373ef2-4c93-4f2c-89bf-5610b755a20a","system_id":"levelo_inurba_marseille","lat":43.311722,"lon":5.387247,"is_reserved":false,"is_disabled":false,"rental_uris":{"android":"levelo://app?vid=28373ef2-4c93-4f2c-89bf-5610b755a20a","ios":"levelo://app?vid=28373ef2-4c93-4f2c-89bf-5610b755a20a"},"vehicle_type_id":"4","last_reported":1702735623,"current_range_meters":26400,"station_id":"ce4bgv12rcd13ifvqcp0","pricing_plan_id":"free"},{"bike_id":"ca24a042-4e85-42e9-9990-6f52f6ecafc7","system_id":"levelo_inurba_marseille","lat":43.328371,"lon":5.366909,"is_reserved":false,"is_disabled":false,"rental_uris":{"android":"levelo://app?vid=ca24a042-4e85-42e9-9990-6f52f6ecafc7","ios":"levelo://app?vid=ca24a042-4e85-42e9-9990-6f52f6ecafc7"},"vehicle_type_id":"4","last_reported":1702735623,"current_range_meters":21200,"station_id":"ce4bhs92rcd13ifvqi0g","pricing_plan_id":"free"},{"bike_id":"1737724e-cb2c-4de9-82f2-77dd2021971f","system_id":"levelo_inurba_marseille","lat":43.328371,"lon":5.366909,"is_reserved":false,"is_disabled":false,"rental_uris":{"android":"levelo://app?vid=1737724e-cb2c-4de9-82f2-77dd2021971f","ios":"levelo://app?vid=1737724e-cb2c-4de9-82f2-77dd2021971f"},"vehicle_type_id":"4","last_reported":1702735623,"current_range_meters":16400,"station_id":"ce4bhs92rcd13ifvqi0g","pricing_plan_id":"free"},{"bike_id":"10a57283-682b-4610-a2f4-9836f387a132","system_id":"levelo_inurba_marseille","lat":43.328301,"lon":5.366898,"is_reserved":false,"is_disabled":false,"rental_uris":{"android":"levelo://app?vid=10a57283-682b-4610-a2f4-9836f387a132","ios":"levelo://app?vid=10a57283-682b-4610-a2f4-9836f387a132"},"vehicle_type_id":"4","last_reported":1702735623,"current_range_meters":12800,"station_id":"ce4bhs92rcd13ifvqi0g","pricing_plan_id":"free"},{"bike_id":"555dbac5-ad80-4d0f-b692-b419ae52149c","system_id":"levelo_inurba_marseille","lat":43.296131,"lon":5.370791,"is_reserved":false,"is_disabled":false,"rental_uris":{"android":"levelo://app?vid=555dbac5-ad80-4d0f-b692-b419ae52149c","ios":"levelo://app?vid=555dbac5-ad80-4d0f-b692-b419ae52149c"},"vehicle_type_id":"4","last_reported":1702735623,"current_range_meters":19600,"station_id":"ce4bgnh2rcd13ifvqc0g","pricing_plan_id":"free"},{"bike_id":"09141660-2b90-4852-a531-7f095203e2cb","system_id":"levelo_inurba_marseille","lat":43.29573,"lon":5.367355,"is_reserved":false,"is_disabled":false,"rental_uris":{"android":"levelo://app?vid=09141660-2b90-4852-a531-7f095203e2cb","ios":"levelo://app?vid=09141660-2b90-4852-a531-7f095203e2cb"},"vehicle_type_id":"4","last_reported":1702735623,"current_range_meters":26800,"station_id":"ce4bgph2rcd13ifvqc2g","pricing_plan_id":"free"},{"bike_id":"49798b00-140a-449c-bc86-2dcf7080e3bc","system_id":"levelo_inurba_marseille","lat":43.299028,"lon":5.381509,"is_reserved":false,"is_disabled":false,"rental_uris":{"android":"levelo://app?vid=49798b00-140a-449c-bc86-2dcf7080e3bc","ios":"levelo://app?vid=49798b00-140a-449c-bc86-2dcf7080e3bc"},"vehicle_type_id":"4","last_reported":1702735623,"current_range_meters":10000,"station_id":"ce4bgj12rcd13ifvqbc0","pricing_plan_id":"free"},{"bike_id":"b0f0a74f-bb4f-4fdf-a15d-464b4e12f201","system_id":"levelo_inurba_marseille","lat":43.299028,"lon":5.381509,"is_reserved":false,"is_disabled":false,"rental_uris":{"android":"levelo://app?vid=b0f0a74f-bb4f-4fdf-a15d-464b4e12f201","ios":"levelo://app?vid=b0f0a74f-bb4f-4fdf-a15d-464b4e12f201"},"vehicle_type_id":"4","last_reported":1702735623,"current_range_meters":27200,"station_id":"ce4bgj12rcd13ifvqbc0","pricing_plan_id":"free"},{"bike_id":"785769bb-cd7a-46de-ade2-4100aabf5465","system_id":"levelo_inurba_marseille","lat":43.29799,"lon":5.38099,"is_reserved":false,"is_disabled":false,"rental_uris":{"android":"levelo://app?vid=785769bb-cd7a-46de-ade2-4100aabf5465","ios":"levelo://app?vid=785769bb-cd7a-46de-ade2-4100aabf5465"},"vehicle_type_id":"4","last_reported":1702735623,"current_range_meters":27200,"station_id":"ce4bgip2rcd13ifvqbb0","pricing_plan_id":"free"},{"bike_id":"0d3a8eea-d030-421f-b9e1-38ac425aa570","system_id":"levelo_inurba_marseille","lat":43.29795,"lon":5.38108,"is_reserved":false,"is_disabled":false,"rental_uris":{"android":"levelo://app?vid=0d3a8eea-d030-421f-b9e1-38ac425aa570","ios":"levelo://app?vid=0d3a8eea-d030-421f-b9e1-38ac425aa570"},"vehicle_type_id":"4","last_reported":1702735623,"current_range_meters":18000,"station_id":"ce4bgip2rcd13ifvqbb0","pricing_plan_id":"free"},{"bike_id":"91b58209-b20d-4e1c-b862-e36b6f5511dc","system_id":"levelo_inurba_marseille","lat":43.296263,"lon":5.377094,"is_reserved":false,"is_disabled":false,"rental_uris":{"android":"levelo://app?vid=91b58209-b20d-4e1c-b862-e36b6f5511dc","ios":"levelo://app?vid=91b58209-b20d-4e1c-b862-e36b6f5511dc"},"vehicle_type_id":"4","last_reported":1702735623,"current_range_meters":24800,"station_id":"ce4bgi92rcd13ifvqb90","pricing_plan_id":"free"},{"bike_id":"2628431f-da41-45b9-bb5b-b864794506d1","system_id":"levelo_inurba_marseille","lat":43.29584,"lon":5.37583,"is_reserved":false,"is_disabled":false,"rental_uris":{"android":"levelo://app?vid=2628431f-da41-45b9-bb5b-b864794506d1","ios":"levelo://app?vid=2628431f-da41-45b9-bb5b-b864794506d1"},"vehicle_type_id":"4","last_reported":1702735623,"current_range_meters":4000,"station_id":"","pricing_plan_id":"free"},{"bike_id":"9f6740c4-4ed6-407b-8420-de123d6fb84e","system_id":"levelo_inurba_marseille","lat":43.296277,"lon":5.377108,"is_reserved":false,"is_disabled":false,"rental_uris":{"android":"levelo://app?vid=9f6740c4-4ed6-407b-8420-de123d6fb84e","ios":"levelo://app?vid=9f6740c4-4ed6-407b-8420-de123d6fb84e"},"vehicle_type_id":"4","last_reported":1702735623,"current_range_meters":6400,"station_id":"ce4bgi92rcd13ifvqb90","pricing_plan_id":"free"},{"bike_id":"884dad66-fdd6-4adb-82bd-fb3a032903c3","system_id":"levelo_inurba_marseille","lat":43.295279,"lon":5.375048,"is_reserved":false,"is_disabled":false,"rental_uris":{"android":"levelo://app?vid=884dad66-fdd6-4adb-82bd-fb3a032903c3","ios":"levelo://app?vid=884dad66-fdd6-4adb-82bd-fb3a032903c3"},"vehicle_type_id":"4","last_reported":1702735623,"current_range_meters":9600,"station_id":"ce4bgkp2rcd13ifvqbmg","pricing_plan_id":"free"},{"bike_id":"59714292-8fbb-4680-9091-f6716d92c77d","system_id":"levelo_inurba_marseille","lat":43.32366,"lon":5.38887,"is_reserved":false,"is_disabled":false,"rental_uris":{"android":"levelo://app?vid=59714292-8fbb-4680-9091-f6716d92c77d","ios":"levelo://app?vid=59714292-8fbb-4680-9091-f6716d92c77d"},"vehicle_type_id":"4","last_reported":1702735623,"current_range_meters":7600,"station_id":"ce4bhqp2rcd13ifvqhog","pricing_plan_id":"free"},{"bike_id":"0941a1c6-067d-4f71-9723-a971a61e465a","system_id":"levelo_inurba_marseille","lat":43.29602,"lon":5.381084,"is_reserved":false,"is_disabled":false,"rental_uris":{"android":"levelo://app?vid=0941a1c6-067d-4f71-9723-a971a61e465a","ios":"levelo://app?vid=0941a1c6-067d-4f71-9723-a971a61e465a"},"vehicle_type_id":"4","last_reported":1702735623,"current_range_meters":14800,"station_id":"ce4bgl12rcd13ifvqbo0","pricing_plan_id":"free"},{"bike_id":"b81930b7-99a9-4b15-835d-bf45d2ddeda6","system_id":"levelo_inurba_marseille","lat":43.29601,"lon":5.381084,"is_reserved":false,"is_disabled":false,"rental_uris":{"android":"levelo://app?vid=b81930b7-99a9-4b15-835d-bf45d2ddeda6","ios":"levelo://app?vid=b81930b7-99a9-4b15-835d-bf45d2ddeda6"},"vehicle_type_id":"4","last_reported":1702735623,"current_range_meters":16400,"station_id":"ce4bgl12rcd13ifvqbo0","pricing_plan_id":"free"},{"bike_id":"856e805e-23e3-47cc-bbec-86732ec09341","system_id":"levelo_inurba_marseille","lat":43.293259,"lon":5.371586,"is_reserved":false,"is_disabled":false,"rental_uris":{"android":"levelo://app?vid=856e805e-23e3-47cc-bbec-86732ec09341","ios":"levelo://app?vid=856e805e-23e3-47cc-bbec-86732ec09341"},"vehicle_type_id":"4","last_reported":1702735623,"current_range_meters":12000,"station_id":"ce4bgh92rcd13ifvqb40","pricing_plan_id":"free"},{"bike_id":"5c0576ad-db19-45ab-a376-3a2fb69be5c0","system_id":"levelo_inurba_marseille","lat":43.293009,"lon":5.374584,"is_reserved":false,"is_disabled":false,"rental_uris":{"android":"levelo://app?vid=5c0576ad-db19-45ab-a376-3a2fb69be5c0","ios":"levelo://app?vid=5c0576ad-db19-45ab-a376-3a2fb69be5c0"},"vehicle_type_id":"4","last_reported":1702735623,"current_range_meters":13600,"station_id":"ce4bgi12rcd13ifvqb70","pricing_plan_id":"free"},{"bike_id":"d3d7fde4-ec14-4051-a88a-4f3be9173df8","system_id":"levelo_inurba_marseille","lat":43.293009,"lon":5.374584,"is_reserved":false,"is_disabled":false,"rental_uris":{"android":"levelo://app?vid=d3d7fde4-ec14-4051-a88a-4f3be9173df8","ios":"levelo://app?vid=d3d7fde4-ec14-4051-a88a-4f3be9173df8"},"vehicle_type_id":"4","last_reported":1702735623,"current_range_meters":23600,"station_id":"ce4bgi12rcd13ifvqb70","pricing_plan_id":"free"},{"bike_id":"0bffa3cb-9259-4a6b-bc7d-a7f90644e9d6","system_id":"levelo_inurba_marseille","lat":43.2936,"lon":5.37835,"is_reserved":false,"is_disabled":false,"rental_uris":{"android":"levelo://app?vid=0bffa3cb-9259-4a6b-bc7d-a7f90644e9d6","ios":"levelo://app?vid=0bffa3cb-9259-4a6b-bc7d-a7f90644e9d6"},"vehicle_type_id":"4","last_reported":1702735623,"current_range_meters":2400,"station_id":"ce4bgjh2rcd13ifvqbf0","pricing_plan_id":"free"},{"bike_id":"db944a65-11fa-47e9-a531-c98e5700edf6","system_id":"levelo_inurba_marseille","lat":43.2936,"lon":5.37835,"is_reserved":false,"is_disabled":false,"rental_uris":{"android":"levelo://app?vid=db944a65-11fa-47e9-a531-c98e5700edf6","ios":"levelo://app?vid=db944a65-11fa-47e9-a531-c98e5700edf6"},"vehicle_type_id":"4","last_reported":1702735623,"current_range_meters":2000,"station_id":"ce4bgjh2rcd13ifvqbf0","pricing_plan_id":"free"},{"bike_id":"c5601d23-e019-41f7-aeb2-e8aed216c7a6","system_id":"levelo_inurba_marseille","lat":43.292311,"lon":5.360731,"is_reserved":false,"is_disabled":false,"rental_uris":{"android":"levelo://app?vid=c5601d23-e019-41f7-aeb2-e8aed216c7a6","ios":"levelo://app?vid=c5601d23-e019-41f7-aeb2-e8aed216c7a6"},"vehicle_type_id":"4","last_reported":1702735623,"current_range_meters":2000,"station_id":"ce4bhbh2rcd13ifvqeqg","pricing_plan_id":"free"},{"bike_id":"ed7e89cd-2bc1-4425-aa9d-1ddaf553bcd8","system_id":"levelo_inurba_marseille","lat":43.291675,"lon":5.371583,"is_reserved":false,"is_disabled":false,"rental_uris":{"android":"levelo://app?vid=ed7e89cd-2bc1-4425-aa9d-1ddaf553bcd8","ios":"levelo://app?vid=ed7e89cd-2bc1-4425-aa9d-1ddaf553bcd8"},"vehicle_type_id":"4","last_reported":1702735623,"current_range_meters":1200,"station_id":"ce4bha92rcd13ifvqeh0","pricing_plan_id":"free"},{"bike_id":"7c5612ba-d99e-4d91-a563-6f793de06b5d","system_id":"levelo_inurba_marseille","lat":43.291675,"lon":5.371583,"is_reserved":false,"is_disabled":false,"rental_uris":{"android":"levelo://app?vid=7c5612ba-d99e-4d91-a563-6f793de06b5d","ios":"levelo://app?vid=7c5612ba-d99e-4d91-a563-6f793de06b5d"},"vehicle_type_id":"4","last_reported":1702735623,"current_range_meters":27600,"station_id":"ce4bha92rcd13ifvqeh0","pricing_plan_id":"free"},{"bike_id":"71a6337e-35b7-4ea5-94b9-30b523f1baf7","system_id":"levelo_inurba_marseille","lat":43.291671,"lon":5.371575,"is_reserved":false,"is_disabled":false,"rental_uris":{"android":"levelo://app?vid=71a6337e-35b7-4ea5-94b9-30b523f1baf7","ios":"levelo://app?vid=71a6337e-35b7-4ea5-94b9-30b523f1baf7"},"vehicle_type_id":"4","last_reported":1702735623,"current_range_meters":29600,"station_id":"ce4bha92rcd13ifvqeh0","pricing_plan_id":"free"},{"bike_id":"f01fbc45-4529-4c35-b864-203d8da8714c","system_id":"levelo_inurba_marseille","lat":43.290327,"lon":5.375711,"is_reserved":false,"is_disabled":false,"rental_uris":{"android":"levelo://app?vid=f01fbc45-4529-4c35-b864-203d8da8714c","ios":"levelo://app?vid=f01fbc45-4529-4c35-b864-203d8da8714c"},"vehicle_type_id":"4","last_reported":1702735623,"current_range_meters":29200,"station_id":"ce4bh692rcd13ifvqe90","pricing_plan_id":"free"},{"bike_id":"206ddf87-f24f-4ae6-9ea7-94da5eae26be","system_id":"levelo_inurba_marseille","lat":43.290327,"lon":5.375711,"is_reserved":false,"is_disabled":false,"rental_uris":{"android":"levelo://app?vid=206ddf87-f24f-4ae6-9ea7-94da5eae26be","ios":"levelo://app?vid=206ddf87-f24f-4ae6-9ea7-94da5eae26be"},"vehicle_type_id":"4","last_reported":1702735623,"current_range_meters":27200,"station_id":"ce4bh692rcd13ifvqe90","pricing_plan_id":"free"},{"bike_id":"dfa3af7f-0317-457b-9024-d605d35e79c6","system_id":"levelo_inurba_marseille","lat":43.290327,"lon":5.375711,"is_reserved":false,"is_disabled":false,"rental_uris":{"android":"levelo://app?vid=dfa3af7f-0317-457b-9024-d605d35e79c6","ios":"levelo://app?vid=dfa3af7f-0317-457b-9024-d605d35e79c6"},"vehicle_type_id":"4","last_reported":1702735623,"current_range_meters":13200,"station_id":"ce4bh692rcd13ifvqe90","pricing_plan_id":"free"},{"bike_id":"b72386e4-03da-495d-a13a-2977af9b23dc","system_id":"levelo_inurba_marseille","lat":43.290327,"lon":5.375711,"is_reserved":false,"is_disabled":false,"rental_uris":{"android":"levelo://app?vid=b72386e4-03da-495d-a13a-2977af9b23dc","ios":"levelo://app?vid=b72386e4-03da-495d-a13a-2977af9b23dc"},"vehicle_type_id":"4","last_reported":1702735623,"current_range_meters":4800,"station_id":"ce4bh692rcd13ifvqe90","pricing_plan_id":"free"},{"bike_id":"2a260b22-3466-4fe7-aeb5-e40f22450968","system_id":"levelo_inurba_marseille","lat":43.292644,"lon":5.384257,"is_reserved":false,"is_disabled":false,"rental_uris":{"android":"levelo://app?vid=2a260b22-3466-4fe7-aeb5-e40f22450968","ios":"levelo://app?vid=2a260b22-3466-4fe7-aeb5-e40f22450968"},"vehicle_type_id":"4","last_reported":1702735623,"current_range_meters":20000,"station_id":"ce4bh692rcd13ifvqea0","pricing_plan_id":"free"},{"bike_id":"bcad5370-fb7d-4da8-8be2-c46f549e2c14","system_id":"levelo_inurba_marseille","lat":43.292642,"lon":5.384254,"is_reserved":false,"is_disabled":false,"rental_uris":{"android":"levelo://app?vid=bcad5370-fb7d-4da8-8be2-c46f549e2c14","ios":"levelo://app?vid=bcad5370-fb7d-4da8-8be2-c46f549e2c14"},"vehicle_type_id":"4","last_reported":1702735623,"current_range_meters":17200,"station_id":"ce4bh692rcd13ifvqea0","pricing_plan_id":"free"},{"bike_id":"144eddbf-9730-4acd-a7b3-af1ef7671af9","system_id":"levelo_inurba_marseille","lat":43.292644,"lon":5.384257,"is_reserved":false,"is_disabled":false,"rental_uris":{"android":"levelo://app?vid=144eddbf-9730-4acd-a7b3-af1ef7671af9","ios":"levelo://app?vid=144eddbf-9730-4acd-a7b3-af1ef7671af9"},"vehicle_type_id":"4","last_reported":1702735623,"current_range_meters":800,"station_id":"ce4bh692rcd13ifvqea0","pricing_plan_id":"free"},{"bike_id":"6ae2900b-1708-47ca-ac17-6f5c0a3caaf0","system_id":"levelo_inurba_marseille","lat":43.29258,"lon":5.38449,"is_reserved":false,"is_disabled":false,"rental_uris":{"android":"levelo://app?vid=6ae2900b-1708-47ca-ac17-6f5c0a3caaf0","ios":"levelo://app?vid=6ae2900b-1708-47ca-ac17-6f5c0a3caaf0"},"vehicle_type_id":"4","last_reported":1702735623,"current_range_meters":0,"station_id":"ce4bh692rcd13ifvqea0","pricing_plan_id":"free"},{"bike_id":"2af1ec1d-db50-4675-b168-902ca134119a","system_id":"levelo_inurba_marseille","lat":43.330442,"lon":5.389148,"is_reserved":false,"is_disabled":false,"rental_uris":{"android":"levelo://app?vid=2af1ec1d-db50-4675-b168-902ca134119a","ios":"levelo://app?vid=2af1ec1d-db50-4675-b168-902ca134119a"},"vehicle_type_id":"4","last_reported":1702735623,"current_range_meters":0,"station_id":"ce4bhr92rcd13ifvqhrg","pricing_plan_id":"free"},{"bike_id":"57462c40-af79-4174-b4f3-a79d5360b703","system_id":"levelo_inurba_marseille","lat":43.290065,"lon":5.356124,"is_reserved":false,"is_disabled":false,"rental_uris":{"android":"levelo://app?vid=57462c40-af79-4174-b4f3-a79d5360b703","ios":"levelo://app?vid=57462c40-af79-4174-b4f3-a79d5360b703"},"vehicle_type_id":"4","last_reported":1702735623,"current_range_meters":22400,"station_id":"ce4bhb92rcd13ifvqen0","pricing_plan_id":"free"},{"bike_id":"87c6169c-5e73-4769-b840-064483d7bbe2","system_id":"levelo_inurba_marseille","lat":43.29003,"lon":5.3562,"is_reserved":false,"is_disabled":false,"rental_uris":{"android":"levelo://app?vid=87c6169c-5e73-4769-b840-064483d7bbe2","ios":"levelo://app?vid=87c6169c-5e73-4769-b840-064483d7bbe2"},"vehicle_type_id":"4","last_reported":1702735623,"current_range_meters":0,"station_id":"ce4bhb92rcd13ifvqen0","pricing_plan_id":"free"},{"bike_id":"5b8a32e2-1f51-4d4d-9ab6-e5170198a50d","system_id":"levelo_inurba_marseille","lat":43.29006,"lon":5.35607,"is_reserved":false,"is_disabled":false,"rental_uris":{"android":"levelo://app?vid=5b8a32e2-1f51-4d4d-9ab6-e5170198a50d","ios":"levelo://app?vid=5b8a32e2-1f51-4d4d-9ab6-e5170198a50d"},"vehicle_type_id":"4","last_reported":1702735623,"current_range_meters":22800,"station_id":"ce4bhb92rcd13ifvqen0","pricing_plan_id":"free"},{"bike_id":"c2e25369-c0dc-46fa-aaad-9066ef6e960b","system_id":"levelo_inurba_marseille","lat":43.290995,"lon":5.381361,"is_reserved":false,"is_disabled":false,"rental_uris":{"android":"levelo://app?vid=c2e25369-c0dc-46fa-aaad-9066ef6e960b","ios":"levelo://app?vid=c2e25369-c0dc-46fa-aaad-9066ef6e960b"},"vehicle_type_id":"4","last_reported":1702735623,"current_range_meters":3600,"station_id":"ce4bh512rcd13ifvqe2g","pricing_plan_id":"free"},{"bike_id":"62b2c2f2-3f77-43b9-b5bd-cd86f3f08aca","system_id":"levelo_inurba_marseille","lat":43.297815,"lon":5.393548,"is_reserved":false,"is_disabled":false,"rental_uris":{"android":"levelo://app?vid=62b2c2f2-3f77-43b9-b5bd-cd86f3f08aca","ios":"levelo://app?vid=62b2c2f2-3f77-43b9-b5bd-cd86f3f08aca"},"vehicle_type_id":"4","last_reported":1702735623,"current_range_meters":18800,"station_id":"chh1huq6cuj3fo74tm60","pricing_plan_id":"free"},{"bike_id":"ee1c983a-aec1-40e7-bd76-97ce01d2c41a","system_id":"levelo_inurba_marseille","lat":43.289767,"lon":5.378435,"is_reserved":false,"is_disabled":false,"rental_uris":{"android":"levelo://app?vid=ee1c983a-aec1-40e7-bd76-97ce01d2c41a","ios":"levelo://app?vid=ee1c983a-aec1-40e7-bd76-97ce01d2c41a"},"vehicle_type_id":"4","last_reported":1702735623,"current_range_meters":22400,"station_id":"","pricing_plan_id":"free"},{"bike_id":"17103a2f-353a-49b5-93b3-c0bebf540915","system_id":"levelo_inurba_marseille","lat":43.295169,"lon":5.390426,"is_reserved":false,"is_disabled":false,"rental_uris":{"android":"levelo://app?vid=17103a2f-353a-49b5-93b3-c0bebf540915","ios":"levelo://app?vid=17103a2f-353a-49b5-93b3-c0bebf540915"},"vehicle_type_id":"4","last_reported":1702735623,"current_range_meters":18400,"station_id":"ce4bh3p2rcd13ifvqdp0","pricing_plan_id":"free"},{"bike_id":"4877fed7-ff8f-4894-aec9-4a991349afdc","system_id":"levelo_inurba_marseille","lat":43.288518,"lon":5.358492,"is_reserved":false,"is_disabled":false,"rental_uris":{"android":"levelo://app?vid=4877fed7-ff8f-4894-aec9-4a991349afdc","ios":"levelo://app?vid=4877fed7-ff8f-4894-aec9-4a991349afdc"},"vehicle_type_id":"4","last_reported":1702735623,"current_range_meters":0,"station_id":"ce4bhb12rcd13ifvqem0","pricing_plan_id":"free"},{"bike_id":"f0cd831c-cfb9-44c7-9487-103b6df223ca","system_id":"levelo_inurba_marseille","lat":43.337445,"lon":5.374592,"is_reserved":false,"is_disabled":false,"rental_uris":{"android":"levelo://app?vid=f0cd831c-cfb9-44c7-9487-103b6df223ca","ios":"levelo://app?vid=f0cd831c-cfb9-44c7-9487-103b6df223ca"},"vehicle_type_id":"4","last_reported":1702735623,"current_range_meters":29200,"station_id":"","pricing_plan_id":"free"},{"bike_id":"70261e2b-9250-4fc2-8f2f-b6b80fa3c4b7","system_id":"levelo_inurba_marseille","lat":43.31273,"lon":5.40175,"is_reserved":false,"is_disabled":false,"rental_uris":{"android":"levelo://app?vid=70261e2b-9250-4fc2-8f2f-b6b80fa3c4b7","ios":"levelo://app?vid=70261e2b-9250-4fc2-8f2f-b6b80fa3c4b7"},"vehicle_type_id":"4","last_reported":1702735623,"current_range_meters":7600,"station_id":"ce4bh092rcd13ifvqd30","pricing_plan_id":"free"},{"bike_id":"a15a6f31-d26a-498f-aab0-fad2629bd007","system_id":"levelo_inurba_marseille","lat":43.337535,"lon":5.37446,"is_reserved":false,"is_disabled":false,"rental_uris":{"android":"levelo://app?vid=a15a6f31-d26a-498f-aab0-fad2629bd007","ios":"levelo://app?vid=a15a6f31-d26a-498f-aab0-fad2629bd007"},"vehicle_type_id":"4","last_reported":1702735623,"current_range_meters":0,"station_id":"","pricing_plan_id":"free"},{"bike_id":"ef80ceab-dc9f-4b6c-8f52-707d5177f481","system_id":"levelo_inurba_marseille","lat":43.33752,"lon":5.37466,"is_reserved":false,"is_disabled":false,"rental_uris":{"android":"levelo://app?vid=ef80ceab-dc9f-4b6c-8f52-707d5177f481","ios":"levelo://app?vid=ef80ceab-dc9f-4b6c-8f52-707d5177f481"},"vehicle_type_id":"4","last_reported":1702735623,"current_range_meters":28400,"station_id":"","pricing_plan_id":"free"},{"bike_id":"d1afab47-d977-4c8a-b326-5f94d8da46aa","system_id":"levelo_inurba_marseille","lat":43.301117,"lon":5.398795,"is_reserved":false,"is_disabled":false,"rental_uris":{"android":"levelo://app?vid=d1afab47-d977-4c8a-b326-5f94d8da46aa","ios":"levelo://app?vid=d1afab47-d977-4c8a-b326-5f94d8da46aa"},"vehicle_type_id":"4","last_reported":1702735623,"current_range_meters":16000,"station_id":"ce4bh0h2rcd13ifvqd40","pricing_plan_id":"free"},{"bike_id":"e608665c-a0fa-449d-b33f-ed0cd033c740","system_id":"levelo_inurba_marseille","lat":43.337675,"lon":5.37441,"is_reserved":false,"is_disabled":false,"rental_uris":{"android":"levelo://app?vid=e608665c-a0fa-449d-b33f-ed0cd033c740","ios":"levelo://app?vid=e608665c-a0fa-449d-b33f-ed0cd033c740"},"vehicle_type_id":"4","last_reported":1702735623,"current_range_meters":24800,"station_id":"","pricing_plan_id":"free"},{"bike_id":"cb8f75f4-7a4e-46fc-b24c-0105dcc5b993","system_id":"levelo_inurba_marseille","lat":43.301117,"lon":5.398795,"is_reserved":false,"is_disabled":false,"rental_uris":{"android":"levelo://app?vid=cb8f75f4-7a4e-46fc-b24c-0105dcc5b993","ios":"levelo://app?vid=cb8f75f4-7a4e-46fc-b24c-0105dcc5b993"},"vehicle_type_id":"4","last_reported":1702735623,"current_range_meters":20400,"station_id":"ce4bh0h2rcd13ifvqd40","pricing_plan_id":"free"},{"bike_id":"965f5c05-8817-4f1a-aa9a-23511a5130b2","system_id":"levelo_inurba_marseille","lat":43.286591,"lon":5.363346,"is_reserved":false,"is_disabled":false,"rental_uris":{"android":"levelo://app?vid=965f5c05-8817-4f1a-aa9a-23511a5130b2","ios":"levelo://app?vid=965f5c05-8817-4f1a-aa9a-23511a5130b2"},"vehicle_type_id":"4","last_reported":1702735623,"current_range_meters":6400,"station_id":"ce4bhah2rcd13ifvqej0","pricing_plan_id":"free"},{"bike_id":"68d501cc-3481-4fab-9bc5-3d722c500f03","system_id":"levelo_inurba_marseille","lat":43.295194,"lon":5.39397,"is_reserved":false,"is_disabled":false,"rental_uris":{"android":"levelo://app?vid=68d501cc-3481-4fab-9bc5-3d722c500f03","ios":"levelo://app?vid=68d501cc-3481-4fab-9bc5-3d722c500f03"},"vehicle_type_id":"4","last_reported":1702735623,"current_range_meters":27200,"station_id":"ce4bh292rcd13ifvqdf0","pricing_plan_id":"free"},{"bike_id":"46937d05-36c2-495a-9b30-7603f646a5e5","system_id":"levelo_inurba_marseille","lat":43.307455,"lon":5.402783,"is_reserved":false,"is_disabled":false,"rental_uris":{"android":"levelo://app?vid=46937d05-36c2-495a-9b30-7603f646a5e5","ios":"levelo://app?vid=46937d05-36c2-495a-9b30-7603f646a5e5"},"vehicle_type_id":"4","last_reported":1702735623,"current_range_meters":13600,"station_id":"","pricing_plan_id":"free"},{"bike_id":"8fe2ce97-fea6-4d3a-bbd1-6da7a56bb1d4","system_id":"levelo_inurba_marseille","lat":43.317115,"lon":5.404598,"is_reserved":false,"is_disabled":false,"rental_uris":{"android":"levelo://app?vid=8fe2ce97-fea6-4d3a-bbd1-6da7a56bb1d4","ios":"levelo://app?vid=8fe2ce97-fea6-4d3a-bbd1-6da7a56bb1d4"},"vehicle_type_id":"4","last_reported":1702735623,"current_range_meters":27200,"station_id":"ce4bh012rcd13ifvqd00","pricing_plan_id":"free"},{"bike_id":"b60c3390-9dab-46de-a059-435c8222e4aa","system_id":"levelo_inurba_marseille","lat":43.294314,"lon":5.397498,"is_reserved":false,"is_disabled":false,"rental_uris":{"android":"levelo://app?vid=b60c3390-9dab-46de-a059-435c8222e4aa","ios":"levelo://app?vid=b60c3390-9dab-46de-a059-435c8222e4aa"},"vehicle_type_id":"4","last_reported":1702735623,"current_range_meters":25200,"station_id":"ce4bh3h2rcd13ifvqdo0","pricing_plan_id":"free"},{"bike_id":"f12d2c06-bae6-4b54-a938-11de5a53c092","system_id":"levelo_inurba_marseille","lat":43.286595,"lon":5.386795,"is_reserved":false,"is_disabled":false,"rental_uris":{"android":"levelo://app?vid=f12d2c06-bae6-4b54-a938-11de5a53c092","ios":"levelo://app?vid=f12d2c06-bae6-4b54-a938-11de5a53c092"},"vehicle_type_id":"4","last_reported":1702735623,"current_range_meters":0,"station_id":"ce4bh492rcd13ifvqdug","pricing_plan_id":"free"},{"bike_id":"74c5cf30-49f6-42f3-835f-9c531e7566b4","system_id":"levelo_inurba_marseille","lat":43.319179,"lon":5.407725,"is_reserved":false,"is_disabled":false,"rental_uris":{"android":"levelo://app?vid=74c5cf30-49f6-42f3-835f-9c531e7566b4","ios":"levelo://app?vid=74c5cf30-49f6-42f3-835f-9c531e7566b4"},"vehicle_type_id":"4","last_reported":1702735623,"current_range_meters":28400,"station_id":"ce4bhq12rcd13ifvqhig","pricing_plan_id":"free"},{"bike_id":"eca0d983-9da9-46e9-9ca9-8ca06c05ddd8","system_id":"levelo_inurba_marseille","lat":43.32345,"lon":5.40614,"is_reserved":false,"is_disabled":false,"rental_uris":{"android":"levelo://app?vid=eca0d983-9da9-46e9-9ca9-8ca06c05ddd8","ios":"levelo://app?vid=eca0d983-9da9-46e9-9ca9-8ca06c05ddd8"},"vehicle_type_id":"4","last_reported":1702735623,"current_range_meters":12400,"station_id":"ce4bhq92rcd13ifvqhjg","pricing_plan_id":"free"},{"bike_id":"16373837-b161-407f-b0fa-3d0f27559010","system_id":"levelo_inurba_marseille","lat":43.323464,"lon":5.406297,"is_reserved":false,"is_disabled":false,"rental_uris":{"android":"levelo://app?vid=16373837-b161-407f-b0fa-3d0f27559010","ios":"levelo://app?vid=16373837-b161-407f-b0fa-3d0f27559010"},"vehicle_type_id":"4","last_reported":1702735623,"current_range_meters":31200,"station_id":"ce4bhq92rcd13ifvqhjg","pricing_plan_id":"free"},{"bike_id":"9cafbd46-443b-45b4-ab61-dc2bc1541fbf","system_id":"levelo_inurba_marseille","lat":43.32337,"lon":5.40621,"is_reserved":false,"is_disabled":false,"rental_uris":{"android":"levelo://app?vid=9cafbd46-443b-45b4-ab61-dc2bc1541fbf","ios":"levelo://app?vid=9cafbd46-443b-45b4-ab61-dc2bc1541fbf"},"vehicle_type_id":"4","last_reported":1702735623,"current_range_meters":22400,"station_id":"ce4bhq92rcd13ifvqhjg","pricing_plan_id":"free"},{"bike_id":"7083128a-9326-4eaf-b115-63ef6a79747b","system_id":"levelo_inurba_marseille","lat":43.284787,"lon":5.384116,"is_reserved":false,"is_disabled":false,"rental_uris":{"android":"levelo://app?vid=7083128a-9326-4eaf-b115-63ef6a79747b","ios":"levelo://app?vid=7083128a-9326-4eaf-b115-63ef6a79747b"},"vehicle_type_id":"4","last_reported":1702735623,"current_range_meters":0,"station_id":"ce4bh512rcd13ifvqe3g","pricing_plan_id":"free"},{"bike_id":"f4474e33-7a76-4abc-b335-416cce1d3c80","system_id":"levelo_inurba_marseille","lat":43.288505,"lon":5.39312,"is_reserved":false,"is_disabled":false,"rental_uris":{"android":"levelo://app?vid=f4474e33-7a76-4abc-b335-416cce1d3c80","ios":"levelo://app?vid=f4474e33-7a76-4abc-b335-416cce1d3c80"},"vehicle_type_id":"4","last_reported":1702735623,"current_range_meters":0,"station_id":"ce4bh2p2rcd13ifvqdi0","pricing_plan_id":"free"},{"bike_id":"01528d82-690b-4cd6-9eea-6f1a7e719b27","system_id":"levelo_inurba_marseille","lat":43.283498,"lon":5.380948,"is_reserved":false,"is_disabled":false,"rental_uris":{"android":"levelo://app?vid=01528d82-690b-4cd6-9eea-6f1a7e719b27","ios":"levelo://app?vid=01528d82-690b-4cd6-9eea-6f1a7e719b27"},"vehicle_type_id":"4","last_reported":1702735623,"current_range_meters":24000,"station_id":"ce4bh412rcd13ifvqdr0","pricing_plan_id":"free"},{"bike_id":"1bf376f2-6b8b-4668-96d9-00157bf392f1","system_id":"levelo_inurba_marseille","lat":43.292724,"lon":5.401131,"is_reserved":false,"is_disabled":false,"rental_uris":{"android":"levelo://app?vid=1bf376f2-6b8b-4668-96d9-00157bf392f1","ios":"levelo://app?vid=1bf376f2-6b8b-4668-96d9-00157bf392f1"},"vehicle_type_id":"4","last_reported":1702735623,"current_range_meters":26000,"station_id":"ce4bh312rcd13ifvqdk0","pricing_plan_id":"free"},{"bike_id":"6857b0fc-6f3d-4210-9829-b47f95f4cd6e","system_id":"levelo_inurba_marseille","lat":43.292724,"lon":5.401131,"is_reserved":false,"is_disabled":false,"rental_uris":{"android":"levelo://app?vid=6857b0fc-6f3d-4210-9829-b47f95f4cd6e","ios":"levelo://app?vid=6857b0fc-6f3d-4210-9829-b47f95f4cd6e"},"vehicle_type_id":"4","last_reported":1702735623,"current_range_meters":30000,"station_id":"ce4bh312rcd13ifvqdk0","pricing_plan_id":"free"},{"bike_id":"5b29bf42-e300-4d58-b051-4c29cab61d0f","system_id":"levelo_inurba_marseille","lat":43.282754,"lon":5.350519,"is_reserved":false,"is_disabled":false,"rental_uris":{"android":"levelo://app?vid=5b29bf42-e300-4d58-b051-4c29cab61d0f","ios":"levelo://app?vid=5b29bf42-e300-4d58-b051-4c29cab61d0f"},"vehicle_type_id":"4","last_reported":1702735623,"current_range_meters":12400,"station_id":"ce4bhbp2rcd13ifvqerg","pricing_plan_id":"free"},{"bike_id":"d6013eb4-7ce6-401c-8d1b-63c57736b231","system_id":"levelo_inurba_marseille","lat":43.282754,"lon":5.350519,"is_reserved":false,"is_disabled":false,"rental_uris":{"android":"levelo://app?vid=d6013eb4-7ce6-401c-8d1b-63c57736b231","ios":"levelo://app?vid=d6013eb4-7ce6-401c-8d1b-63c57736b231"},"vehicle_type_id":"4","last_reported":1702735623,"current_range_meters":17200,"station_id":"ce4bhbp2rcd13ifvqerg","pricing_plan_id":"free"},{"bike_id":"b361fed0-bbf3-4456-9821-cfcaa4876ebd","system_id":"levelo_inurba_marseille","lat":43.283502,"lon":5.386471,"is_reserved":false,"is_disabled":false,"rental_uris":{"android":"levelo://app?vid=b361fed0-bbf3-4456-9821-cfcaa4876ebd","ios":"levelo://app?vid=b361fed0-bbf3-4456-9821-cfcaa4876ebd"},"vehicle_type_id":"4","last_reported":1702735623,"current_range_meters":16000,"station_id":"ce4bh492rcd13ifvqdvg","pricing_plan_id":"free"},{"bike_id":"ffeb295f-636e-4bd5-aa7b-aad2df790ac6","system_id":"levelo_inurba_marseille","lat":43.281044,"lon":5.378308,"is_reserved":false,"is_disabled":false,"rental_uris":{"android":"levelo://app?vid=ffeb295f-636e-4bd5-aa7b-aad2df790ac6","ios":"levelo://app?vid=ffeb295f-636e-4bd5-aa7b-aad2df790ac6"},"vehicle_type_id":"4","last_reported":1702735623,"current_range_meters":2000,"station_id":"ce4bha12rcd13ifvqee0","pricing_plan_id":"free"},{"bike_id":"9d2b9725-ed5a-4a86-8451-c3d4e51c4462","system_id":"levelo_inurba_marseille","lat":43.296263,"lon":5.40601,"is_reserved":false,"is_disabled":false,"rental_uris":{"android":"levelo://app?vid=9d2b9725-ed5a-4a86-8451-c3d4e51c4462","ios":"levelo://app?vid=9d2b9725-ed5a-4a86-8451-c3d4e51c4462"},"vehicle_type_id":"4","last_reported":1702735623,"current_range_meters":9200,"station_id":"ce4bh0h2rcd13ifvqd60","pricing_plan_id":"free"},{"bike_id":"28a9afce-9d39-4230-b0a3-7cb925da3588","system_id":"levelo_inurba_marseille","lat":43.326605,"lon":5.409903,"is_reserved":false,"is_disabled":false,"rental_uris":{"android":"levelo://app?vid=28a9afce-9d39-4230-b0a3-7cb925da3588","ios":"levelo://app?vid=28a9afce-9d39-4230-b0a3-7cb925da3588"},"vehicle_type_id":"4","last_reported":1702735623,"current_range_meters":7600,"station_id":"ce4bhpp2rcd13ifvqhgg","pricing_plan_id":"free"},{"bike_id":"d47ef631-900e-477e-89c1-8b5dbb3e230b","system_id":"levelo_inurba_marseille","lat":43.304188,"lon":5.412904,"is_reserved":false,"is_disabled":false,"rental_uris":{"android":"levelo://app?vid=d47ef631-900e-477e-89c1-8b5dbb3e230b","ios":"levelo://app?vid=d47ef631-900e-477e-89c1-8b5dbb3e230b"},"vehicle_type_id":"4","last_reported":1702735623,"current_range_meters":7600,"station_id":"ce4bhop2rcd13ifvqh8g","pricing_plan_id":"free"},{"bike_id":"4b4681e8-5ae5-40ac-b6b6-d29c248b4938","system_id":"levelo_inurba_marseille","lat":43.304188,"lon":5.412904,"is_reserved":false,"is_disabled":false,"rental_uris":{"android":"levelo://app?vid=4b4681e8-5ae5-40ac-b6b6-d29c248b4938","ios":"levelo://app?vid=4b4681e8-5ae5-40ac-b6b6-d29c248b4938"},"vehicle_type_id":"4","last_reported":1702735623,"current_range_meters":32000,"station_id":"ce4bhop2rcd13ifvqh8g","pricing_plan_id":"free"},{"bike_id":"d63939dd-1652-4ca4-9412-d924d14a3874","system_id":"levelo_inurba_marseille","lat":43.279087,"lon":5.380114,"is_reserved":false,"is_disabled":false,"rental_uris":{"android":"levelo://app?vid=d63939dd-1652-4ca4-9412-d924d14a3874","ios":"levelo://app?vid=d63939dd-1652-4ca4-9412-d924d14a3874"},"vehicle_type_id":"4","last_reported":1702735623,"current_range_meters":31200,"station_id":"ce4bhf92rcd13ifvqf50","pricing_plan_id":"free"},{"bike_id":"d7165970-d21f-4a5a-8753-47daa742087e","system_id":"levelo_inurba_marseille","lat":43.279087,"lon":5.380114,"is_reserved":false,"is_disabled":false,"rental_uris":{"android":"levelo://app?vid=d7165970-d21f-4a5a-8753-47daa742087e","ios":"levelo://app?vid=d7165970-d21f-4a5a-8753-47daa742087e"},"vehicle_type_id":"4","last_reported":1702735623,"current_range_meters":20400,"station_id":"ce4bhf92rcd13ifvqf50","pricing_plan_id":"free"},{"bike_id":"b88adf89-97a2-49b7-9f52-bdc8e076a378","system_id":"levelo_inurba_marseille","lat":43.299579,"lon":5.413255,"is_reserved":false,"is_disabled":false,"rental_uris":{"android":"levelo://app?vid=b88adf89-97a2-49b7-9f52-bdc8e076a378","ios":"levelo://app?vid=b88adf89-97a2-49b7-9f52-bdc8e076a378"},"vehicle_type_id":"4","last_reported":1702735623,"current_range_meters":29600,"station_id":"ce4bhp12rcd13ifvqh9g","pricing_plan_id":"free"},{"bike_id":"6607f7ce-30ab-40a6-95a9-ad48d9b140ff","system_id":"levelo_inurba_marseille","lat":43.320441,"lon":5.415547,"is_reserved":false,"is_disabled":false,"rental_uris":{"android":"levelo://app?vid=6607f7ce-30ab-40a6-95a9-ad48d9b140ff","ios":"levelo://app?vid=6607f7ce-30ab-40a6-95a9-ad48d9b140ff"},"vehicle_type_id":"4","last_reported":1702735623,"current_range_meters":22000,"station_id":"ce4bhq92rcd13ifvqhkg","pricing_plan_id":"free"},{"bike_id":"77003e33-0070-4d21-bc8b-d304fc4f0ad4","system_id":"levelo_inurba_marseille","lat":43.320466,"lon":5.415628,"is_reserved":false,"is_disabled":false,"rental_uris":{"android":"levelo://app?vid=77003e33-0070-4d21-bc8b-d304fc4f0ad4","ios":"levelo://app?vid=77003e33-0070-4d21-bc8b-d304fc4f0ad4"},"vehicle_type_id":"4","last_reported":1702735623,"current_range_meters":28000,"station_id":"ce4bhq92rcd13ifvqhkg","pricing_plan_id":"free"},{"bike_id":"f67808f8-08e5-455e-bcb4-14b25d65fb53","system_id":"levelo_inurba_marseille","lat":43.320045,"lon":5.415046,"is_reserved":false,"is_disabled":false,"rental_uris":{"android":"levelo://app?vid=f67808f8-08e5-455e-bcb4-14b25d65fb53","ios":"levelo://app?vid=f67808f8-08e5-455e-bcb4-14b25d65fb53"},"vehicle_type_id":"4","last_reported":1702735623,"current_range_meters":14000,"station_id":"ce4bhq92rcd13ifvqhkg","pricing_plan_id":"free"},{"bike_id":"89260fe8-7f3f-4a6f-9bd9-e7c3a93a9eca","system_id":"levelo_inurba_marseille","lat":43.303837,"lon":5.418724,"is_reserved":false,"is_disabled":false,"rental_uris":{"android":"levelo://app?vid=89260fe8-7f3f-4a6f-9bd9-e7c3a93a9eca","ios":"levelo://app?vid=89260fe8-7f3f-4a6f-9bd9-e7c3a93a9eca"},"vehicle_type_id":"4","last_reported":1702735623,"current_range_meters":31200,"station_id":"ce4bhop2rcd13ifvqh7g","pricing_plan_id":"free"},{"bike_id":"b23173a5-9918-4c10-b92b-d155857f9d95","system_id":"levelo_inurba_marseille","lat":43.27381,"lon":5.36258,"is_reserved":false,"is_disabled":false,"rental_uris":{"android":"levelo://app?vid=b23173a5-9918-4c10-b92b-d155857f9d95","ios":"levelo://app?vid=b23173a5-9918-4c10-b92b-d155857f9d95"},"vehicle_type_id":"4","last_reported":1702735623,"current_range_meters":10000,"station_id":"ce4bhbh2rcd13ifvqeo0","pricing_plan_id":"free"},{"bike_id":"a16003f8-6ee5-400e-b9cc-95a819cc5e64","system_id":"levelo_inurba_marseille","lat":43.273811,"lon":5.362384,"is_reserved":false,"is_disabled":false,"rental_uris":{"android":"levelo://app?vid=a16003f8-6ee5-400e-b9cc-95a819cc5e64","ios":"levelo://app?vid=a16003f8-6ee5-400e-b9cc-95a819cc5e64"},"vehicle_type_id":"4","last_reported":1702735623,"current_range_meters":28000,"station_id":"","pricing_plan_id":"free"},{"bike_id":"18f3955c-e9af-463f-a69a-d1d31f6c414e","system_id":"levelo_inurba_marseille","lat":43.27377,"lon":5.362597,"is_reserved":false,"is_disabled":false,"rental_uris":{"android":"levelo://app?vid=18f3955c-e9af-463f-a69a-d1d31f6c414e","ios":"levelo://app?vid=18f3955c-e9af-463f-a69a-d1d31f6c414e"},"vehicle_type_id":"4","last_reported":1702735623,"current_range_meters":28400,"station_id":"ce4bhbh2rcd13ifvqeo0","pricing_plan_id":"free"},{"bike_id":"2e5a31ae-9403-424e-b9e5-8d76ee863680","system_id":"levelo_inurba_marseille","lat":43.273613,"lon":5.362705,"is_reserved":false,"is_disabled":false,"rental_uris":{"android":"levelo://app?vid=2e5a31ae-9403-424e-b9e5-8d76ee863680","ios":"levelo://app?vid=2e5a31ae-9403-424e-b9e5-8d76ee863680"},"vehicle_type_id":"4","last_reported":1702735623,"current_range_meters":30400,"station_id":"ce4bhbh2rcd13ifvqeo0","pricing_plan_id":"free"},{"bike_id":"7c3da292-cf45-4b7b-90ee-560711d5b3cd","system_id":"levelo_inurba_marseille","lat":43.273613,"lon":5.362705,"is_reserved":false,"is_disabled":false,"rental_uris":{"android":"levelo://app?vid=7c3da292-cf45-4b7b-90ee-560711d5b3cd","ios":"levelo://app?vid=7c3da292-cf45-4b7b-90ee-560711d5b3cd"},"vehicle_type_id":"4","last_reported":1702735623,"current_range_meters":15600,"station_id":"ce4bhbh2rcd13ifvqeo0","pricing_plan_id":"free"},{"bike_id":"462fb428-40b3-4580-b7bf-003bd1f563d0","system_id":"levelo_inurba_marseille","lat":43.273613,"lon":5.362705,"is_reserved":false,"is_disabled":false,"rental_uris":{"android":"levelo://app?vid=462fb428-40b3-4580-b7bf-003bd1f563d0","ios":"levelo://app?vid=462fb428-40b3-4580-b7bf-003bd1f563d0"},"vehicle_type_id":"4","last_reported":1702735623,"current_range_meters":19200,"station_id":"ce4bhbh2rcd13ifvqeo0","pricing_plan_id":"free"},{"bike_id":"ce4e205a-6ee7-486f-a41d-63b17e2bca45","system_id":"levelo_inurba_marseille","lat":43.273613,"lon":5.362705,"is_reserved":false,"is_disabled":false,"rental_uris":{"android":"levelo://app?vid=ce4e205a-6ee7-486f-a41d-63b17e2bca45","ios":"levelo://app?vid=ce4e205a-6ee7-486f-a41d-63b17e2bca45"},"vehicle_type_id":"4","last_reported":1702735623,"current_range_meters":29600,"station_id":"ce4bhbh2rcd13ifvqeo0","pricing_plan_id":"free"},{"bike_id":"5ebbafd3-4425-4b56-91c5-ba048b8c65b7","system_id":"levelo_inurba_marseille","lat":43.273609,"lon":5.362708,"is_reserved":false,"is_disabled":false,"rental_uris":{"android":"levelo://app?vid=5ebbafd3-4425-4b56-91c5-ba048b8c65b7","ios":"levelo://app?vid=5ebbafd3-4425-4b56-91c5-ba048b8c65b7"},"vehicle_type_id":"4","last_reported":1702735623,"current_range_meters":0,"station_id":"ce4bhbh2rcd13ifvqeo0","pricing_plan_id":"free"},{"bike_id":"8e53e589-38d4-46dd-af93-d78efa505df3","system_id":"levelo_inurba_marseille","lat":43.273609,"lon":5.362708,"is_reserved":false,"is_disabled":false,"rental_uris":{"android":"levelo://app?vid=8e53e589-38d4-46dd-af93-d78efa505df3","ios":"levelo://app?vid=8e53e589-38d4-46dd-af93-d78efa505df3"},"vehicle_type_id":"4","last_reported":1702735623,"current_range_meters":10400,"station_id":"ce4bhbh2rcd13ifvqeo0","pricing_plan_id":"free"},{"bike_id":"7f2c5036-bbca-45ec-975a-7e0fbea4945c","system_id":"levelo_inurba_marseille","lat":43.273609,"lon":5.362708,"is_reserved":false,"is_disabled":false,"rental_uris":{"android":"levelo://app?vid=7f2c5036-bbca-45ec-975a-7e0fbea4945c","ios":"levelo://app?vid=7f2c5036-bbca-45ec-975a-7e0fbea4945c"},"vehicle_type_id":"4","last_reported":1702735623,"current_range_meters":16400,"station_id":"ce4bhbh2rcd13ifvqeo0","pricing_plan_id":"free"},{"bike_id":"d42e8555-6019-4631-9aaf-667d76b0507f","system_id":"levelo_inurba_marseille","lat":43.273609,"lon":5.362708,"is_reserved":false,"is_disabled":false,"rental_uris":{"android":"levelo://app?vid=d42e8555-6019-4631-9aaf-667d76b0507f","ios":"levelo://app?vid=d42e8555-6019-4631-9aaf-667d76b0507f"},"vehicle_type_id":"4","last_reported":1702735623,"current_range_meters":17600,"station_id":"ce4bhbh2rcd13ifvqeo0","pricing_plan_id":"free"},{"bike_id":"4fb10199-dc92-4f96-9690-8a45c8c8a07a","system_id":"levelo_inurba_marseille","lat":43.279952,"lon":5.400085,"is_reserved":false,"is_disabled":false,"rental_uris":{"android":"levelo://app?vid=4fb10199-dc92-4f96-9690-8a45c8c8a07a","ios":"levelo://app?vid=4fb10199-dc92-4f96-9690-8a45c8c8a07a"},"vehicle_type_id":"4","last_reported":1702735623,"current_range_meters":18000,"station_id":"ce4bho92rcd13ifvqh4g","pricing_plan_id":"free"},{"bike_id":"e7f3199b-16c7-4ec8-844a-fb3b2f233e43","system_id":"levelo_inurba_marseille","lat":43.317121,"lon":5.423936,"is_reserved":false,"is_disabled":false,"rental_uris":{"android":"levelo://app?vid=e7f3199b-16c7-4ec8-844a-fb3b2f233e43","ios":"levelo://app?vid=e7f3199b-16c7-4ec8-844a-fb3b2f233e43"},"vehicle_type_id":"4","last_reported":1702735623,"current_range_meters":31200,"station_id":"ce4bhp92rcd13ifvqhbg","pricing_plan_id":"free"},{"bike_id":"13b63d08-aaa3-4985-bf57-1f32727c58d1","system_id":"levelo_inurba_marseille","lat":43.310785,"lon":5.424305,"is_reserved":false,"is_disabled":false,"rental_uris":{"android":"levelo://app?vid=13b63d08-aaa3-4985-bf57-1f32727c58d1","ios":"levelo://app?vid=13b63d08-aaa3-4985-bf57-1f32727c58d1"},"vehicle_type_id":"4","last_reported":1702735623,"current_range_meters":30800,"station_id":"ce4bhp92rcd13ifvqhag","pricing_plan_id":"free"},{"bike_id":"93a9a0b0-f09a-4679-973e-f3ebca0caf36","system_id":"levelo_inurba_marseille","lat":43.310785,"lon":5.424305,"is_reserved":false,"is_disabled":false,"rental_uris":{"android":"levelo://app?vid=93a9a0b0-f09a-4679-973e-f3ebca0caf36","ios":"levelo://app?vid=93a9a0b0-f09a-4679-973e-f3ebca0caf36"},"vehicle_type_id":"4","last_reported":1702735623,"current_range_meters":31600,"station_id":"ce4bhp92rcd13ifvqhag","pricing_plan_id":"free"},{"bike_id":"88d21734-a1ec-434c-836c-b0fde0b8c8e9","system_id":"levelo_inurba_marseille","lat":43.310785,"lon":5.424305,"is_reserved":false,"is_disabled":false,"rental_uris":{"android":"levelo://app?vid=88d21734-a1ec-434c-836c-b0fde0b8c8e9","ios":"levelo://app?vid=88d21734-a1ec-434c-836c-b0fde0b8c8e9"},"vehicle_type_id":"4","last_reported":1702735623,"current_range_meters":31600,"station_id":"ce4bhp92rcd13ifvqhag","pricing_plan_id":"free"},{"bike_id":"cdc69067-dad5-415d-b4f3-0a438e350196","system_id":"levelo_inurba_marseille","lat":43.317121,"lon":5.423936,"is_reserved":false,"is_disabled":false,"rental_uris":{"android":"levelo://app?vid=cdc69067-dad5-415d-b4f3-0a438e350196","ios":"levelo://app?vid=cdc69067-dad5-415d-b4f3-0a438e350196"},"vehicle_type_id":"4","last_reported":1702735623,"current_range_meters":26400,"station_id":"ce4bhp92rcd13ifvqhbg","pricing_plan_id":"free"},{"bike_id":"882bb515-0ba4-4c21-83bc-3aa9401cde34","system_id":"levelo_inurba_marseille","lat":43.310785,"lon":5.424305,"is_reserved":false,"is_disabled":false,"rental_uris":{"android":"levelo://app?vid=882bb515-0ba4-4c21-83bc-3aa9401cde34","ios":"levelo://app?vid=882bb515-0ba4-4c21-83bc-3aa9401cde34"},"vehicle_type_id":"4","last_reported":1702735623,"current_range_meters":27600,"station_id":"ce4bhp92rcd13ifvqhag","pricing_plan_id":"free"},{"bike_id":"10eadedf-b2e9-4bb9-a1f0-77df69175439","system_id":"levelo_inurba_marseille","lat":43.28386,"lon":5.40852,"is_reserved":false,"is_disabled":false,"rental_uris":{"android":"levelo://app?vid=10eadedf-b2e9-4bb9-a1f0-77df69175439","ios":"levelo://app?vid=10eadedf-b2e9-4bb9-a1f0-77df69175439"},"vehicle_type_id":"4","last_reported":1702735623,"current_range_meters":12000,"station_id":"","pricing_plan_id":"free"},{"bike_id":"3ca2c2d2-99b0-4aa6-a05d-e30f02e6a7fb","system_id":"levelo_inurba_marseille","lat":43.276092,"lon":5.395289,"is_reserved":false,"is_disabled":false,"rental_uris":{"android":"levelo://app?vid=3ca2c2d2-99b0-4aa6-a05d-e30f02e6a7fb","ios":"levelo://app?vid=3ca2c2d2-99b0-4aa6-a05d-e30f02e6a7fb"},"vehicle_type_id":"4","last_reported":1702735623,"current_range_meters":22400,"station_id":"","pricing_plan_id":"free"},{"bike_id":"afad583d-1698-4e9b-a579-63567944a41b","system_id":"levelo_inurba_marseille","lat":43.273125,"lon":5.390731,"is_reserved":false,"is_disabled":false,"rental_uris":{"android":"levelo://app?vid=afad583d-1698-4e9b-a579-63567944a41b","ios":"levelo://app?vid=afad583d-1698-4e9b-a579-63567944a41b"},"vehicle_type_id":"4","last_reported":1702735623,"current_range_meters":14800,"station_id":"ce4bhgp2rcd13ifvqfe0","pricing_plan_id":"free"},{"bike_id":"a0f66a47-a227-4971-9d65-1edeb35e27d7","system_id":"levelo_inurba_marseille","lat":43.274103,"lon":5.394016,"is_reserved":false,"is_disabled":false,"rental_uris":{"android":"levelo://app?vid=a0f66a47-a227-4971-9d65-1edeb35e27d7","ios":"levelo://app?vid=a0f66a47-a227-4971-9d65-1edeb35e27d7"},"vehicle_type_id":"4","last_reported":1702735623,"current_range_meters":19600,"station_id":"ce4bhdp2rcd13ifvqf20","pricing_plan_id":"free"},{"bike_id":"549600fb-47b9-4312-8242-de53dbdf980c","system_id":"levelo_inurba_marseille","lat":43.30417,"lon":5.42539,"is_reserved":false,"is_disabled":false,"rental_uris":{"android":"levelo://app?vid=549600fb-47b9-4312-8242-de53dbdf980c","ios":"levelo://app?vid=549600fb-47b9-4312-8242-de53dbdf980c"},"vehicle_type_id":"4","last_reported":1702735623,"current_range_meters":6400,"station_id":"ce4bhoh2rcd13ifvqh6g","pricing_plan_id":"free"},{"bike_id":"9fa6895d-0e68-493e-b1fb-bfed75b1d89e","system_id":"levelo_inurba_marseille","lat":43.30408,"lon":5.42547,"is_reserved":false,"is_disabled":false,"rental_uris":{"android":"levelo://app?vid=9fa6895d-0e68-493e-b1fb-bfed75b1d89e","ios":"levelo://app?vid=9fa6895d-0e68-493e-b1fb-bfed75b1d89e"},"vehicle_type_id":"4","last_reported":1702735623,"current_range_meters":13200,"station_id":"ce4bhoh2rcd13ifvqh6g","pricing_plan_id":"free"},{"bike_id":"99bcb4da-9698-4512-a158-470244d69d6c","system_id":"levelo_inurba_marseille","lat":43.30463,"lon":5.425657,"is_reserved":false,"is_disabled":false,"rental_uris":{"android":"levelo://app?vid=99bcb4da-9698-4512-a158-470244d69d6c","ios":"levelo://app?vid=99bcb4da-9698-4512-a158-470244d69d6c"},"vehicle_type_id":"4","last_reported":1702735623,"current_range_meters":28000,"station_id":"","pricing_plan_id":"free"},{"bike_id":"54598bfe-b463-404d-b0a9-319a9ffed791","system_id":"levelo_inurba_marseille","lat":43.295511,"lon":5.422926,"is_reserved":false,"is_disabled":false,"rental_uris":{"android":"levelo://app?vid=54598bfe-b463-404d-b0a9-319a9ffed791","ios":"levelo://app?vid=54598bfe-b463-404d-b0a9-319a9ffed791"},"vehicle_type_id":"4","last_reported":1702735623,"current_range_meters":27600,"station_id":"ce4bhph2rcd13ifvqhdg","pricing_plan_id":"free"},{"bike_id":"fbe934cb-d728-4856-b29d-fde06fbb142f","system_id":"levelo_inurba_marseille","lat":43.272124,"lon":5.391768,"is_reserved":false,"is_disabled":false,"rental_uris":{"android":"levelo://app?vid=fbe934cb-d728-4856-b29d-fde06fbb142f","ios":"levelo://app?vid=fbe934cb-d728-4856-b29d-fde06fbb142f"},"vehicle_type_id":"4","last_reported":1702735623,"current_range_meters":10000,"station_id":"ce4bhhp2rcd13ifvqfm0","pricing_plan_id":"free"},{"bike_id":"724989c5-98a8-4fcc-86cc-a08870958594","system_id":"levelo_inurba_marseille","lat":43.272116,"lon":5.391763,"is_reserved":false,"is_disabled":false,"rental_uris":{"android":"levelo://app?vid=724989c5-98a8-4fcc-86cc-a08870958594","ios":"levelo://app?vid=724989c5-98a8-4fcc-86cc-a08870958594"},"vehicle_type_id":"4","last_reported":1702735623,"current_range_meters":26400,"station_id":"ce4bhhp2rcd13ifvqfm0","pricing_plan_id":"free"},{"bike_id":"a2a0716c-47ad-4f9c-ba8c-c923f858d404","system_id":"levelo_inurba_marseille","lat":43.272118,"lon":5.391758,"is_reserved":false,"is_disabled":false,"rental_uris":{"android":"levelo://app?vid=a2a0716c-47ad-4f9c-ba8c-c923f858d404","ios":"levelo://app?vid=a2a0716c-47ad-4f9c-ba8c-c923f858d404"},"vehicle_type_id":"4","last_reported":1702735623,"current_range_meters":15600,"station_id":"ce4bhhp2rcd13ifvqfm0","pricing_plan_id":"free"},{"bike_id":"7c5e5a9a-9f39-4a14-9573-d5b8ab599dd5","system_id":"levelo_inurba_marseille","lat":43.27191,"lon":5.39229,"is_reserved":false,"is_disabled":false,"rental_uris":{"android":"levelo://app?vid=7c5e5a9a-9f39-4a14-9573-d5b8ab599dd5","ios":"levelo://app?vid=7c5e5a9a-9f39-4a14-9573-d5b8ab599dd5"},"vehicle_type_id":"4","last_reported":1702735623,"current_range_meters":18800,"station_id":"ce4bhhp2rcd13ifvqfm0","pricing_plan_id":"free"},{"bike_id":"b5a1b877-0657-4957-9b84-2b8674032702","system_id":"levelo_inurba_marseille","lat":43.269314,"lon":5.389185,"is_reserved":false,"is_disabled":false,"rental_uris":{"android":"levelo://app?vid=b5a1b877-0657-4957-9b84-2b8674032702","ios":"levelo://app?vid=b5a1b877-0657-4957-9b84-2b8674032702"},"vehicle_type_id":"4","last_reported":1702735623,"current_range_meters":27600,"station_id":"","pricing_plan_id":"free"},{"bike_id":"db774753-4382-453e-a138-c32d538f9839","system_id":"levelo_inurba_marseille","lat":43.358629,"lon":5.356706,"is_reserved":false,"is_disabled":false,"rental_uris":{"android":"levelo://app?vid=db774753-4382-453e-a138-c32d538f9839","ios":"levelo://app?vid=db774753-4382-453e-a138-c32d538f9839"},"vehicle_type_id":"4","last_reported":1702735623,"current_range_meters":10000,"station_id":"","pricing_plan_id":"free"},{"bike_id":"16686a1f-b81e-44f2-b8b6-2c941eb19796","system_id":"levelo_inurba_marseille","lat":43.2656,"lon":5.37287,"is_reserved":false,"is_disabled":false,"rental_uris":{"android":"levelo://app?vid=16686a1f-b81e-44f2-b8b6-2c941eb19796","ios":"levelo://app?vid=16686a1f-b81e-44f2-b8b6-2c941eb19796"},"vehicle_type_id":"4","last_reported":1702735623,"current_range_meters":28800,"station_id":"ce4bhg12rcd13ifvqf70","pricing_plan_id":"free"},{"bike_id":"e3bc192f-1ec4-44d3-b257-da06d9167b19","system_id":"levelo_inurba_marseille","lat":43.26558,"lon":5.37282,"is_reserved":false,"is_disabled":false,"rental_uris":{"android":"levelo://app?vid=e3bc192f-1ec4-44d3-b257-da06d9167b19","ios":"levelo://app?vid=e3bc192f-1ec4-44d3-b257-da06d9167b19"},"vehicle_type_id":"4","last_reported":1702735623,"current_range_meters":27200,"station_id":"ce4bhg12rcd13ifvqf70","pricing_plan_id":"free"},{"bike_id":"dc9e0f75-22c3-488d-8c19-0895426d9919","system_id":"levelo_inurba_marseille","lat":43.26558,"lon":5.37283,"is_reserved":false,"is_disabled":false,"rental_uris":{"android":"levelo://app?vid=dc9e0f75-22c3-488d-8c19-0895426d9919","ios":"levelo://app?vid=dc9e0f75-22c3-488d-8c19-0895426d9919"},"vehicle_type_id":"4","last_reported":1702735623,"current_range_meters":15200,"station_id":"ce4bhg12rcd13ifvqf70","pricing_plan_id":"free"},{"bike_id":"9b4435bb-f73a-4921-ba4a-62608975e466","system_id":"levelo_inurba_marseille","lat":43.265573,"lon":5.372874,"is_reserved":false,"is_disabled":false,"rental_uris":{"android":"levelo://app?vid=9b4435bb-f73a-4921-ba4a-62608975e466","ios":"levelo://app?vid=9b4435bb-f73a-4921-ba4a-62608975e466"},"vehicle_type_id":"4","last_reported":1702735623,"current_range_meters":31200,"station_id":"ce4bhg12rcd13ifvqf70","pricing_plan_id":"free"},{"bike_id":"ec84586d-c2b9-4c47-827c-a899f7121341","system_id":"levelo_inurba_marseille","lat":43.265566,"lon":5.372805,"is_reserved":false,"is_disabled":false,"rental_uris":{"android":"levelo://app?vid=ec84586d-c2b9-4c47-827c-a899f7121341","ios":"levelo://app?vid=ec84586d-c2b9-4c47-827c-a899f7121341"},"vehicle_type_id":"4","last_reported":1702735623,"current_range_meters":24800,"station_id":"ce4bhg12rcd13ifvqf70","pricing_plan_id":"free"},{"bike_id":"a795f19a-b1c6-494e-9dd3-86b3dfe13e0c","system_id":"levelo_inurba_marseille","lat":43.265714,"lon":5.372891,"is_reserved":false,"is_disabled":false,"rental_uris":{"android":"levelo://app?vid=a795f19a-b1c6-494e-9dd3-86b3dfe13e0c","ios":"levelo://app?vid=a795f19a-b1c6-494e-9dd3-86b3dfe13e0c"},"vehicle_type_id":"4","last_reported":1702735623,"current_range_meters":26000,"station_id":"ce4bhg12rcd13ifvqf70","pricing_plan_id":"free"},{"bike_id":"adaeda46-2754-4a8b-a527-0c7f44bb0c39","system_id":"levelo_inurba_marseille","lat":43.265714,"lon":5.372891,"is_reserved":false,"is_disabled":false,"rental_uris":{"android":"levelo://app?vid=adaeda46-2754-4a8b-a527-0c7f44bb0c39","ios":"levelo://app?vid=adaeda46-2754-4a8b-a527-0c7f44bb0c39"},"vehicle_type_id":"4","last_reported":1702735623,"current_range_meters":26400,"station_id":"ce4bhg12rcd13ifvqf70","pricing_plan_id":"free"},{"bike_id":"677111a4-0900-4082-9f2a-02f518f69c5f","system_id":"levelo_inurba_marseille","lat":43.265539,"lon":5.372864,"is_reserved":false,"is_disabled":false,"rental_uris":{"android":"levelo://app?vid=677111a4-0900-4082-9f2a-02f518f69c5f","ios":"levelo://app?vid=677111a4-0900-4082-9f2a-02f518f69c5f"},"vehicle_type_id":"4","last_reported":1702735623,"current_range_meters":26000,"station_id":"ce4bhg12rcd13ifvqf70","pricing_plan_id":"free"},{"bike_id":"606a0fa5-3f6e-40c3-93cb-11997652773a","system_id":"levelo_inurba_marseille","lat":43.27996,"lon":5.416624,"is_reserved":false,"is_disabled":false,"rental_uris":{"android":"levelo://app?vid=606a0fa5-3f6e-40c3-93cb-11997652773a","ios":"levelo://app?vid=606a0fa5-3f6e-40c3-93cb-11997652773a"},"vehicle_type_id":"4","last_reported":1702735623,"current_range_meters":19200,"station_id":"ce4bho12rcd13ifvqh1g","pricing_plan_id":"free"},{"bike_id":"f9e63a65-a4b8-444f-9007-eff8dba3eec9","system_id":"levelo_inurba_marseille","lat":43.27996,"lon":5.416624,"is_reserved":false,"is_disabled":false,"rental_uris":{"android":"levelo://app?vid=f9e63a65-a4b8-444f-9007-eff8dba3eec9","ios":"levelo://app?vid=f9e63a65-a4b8-444f-9007-eff8dba3eec9"},"vehicle_type_id":"4","last_reported":1702735623,"current_range_meters":31200,"station_id":"ce4bho12rcd13ifvqh1g","pricing_plan_id":"free"},{"bike_id":"2dfd8526-ec84-4820-bf93-7f6c2d3662ba","system_id":"levelo_inurba_marseille","lat":43.267966,"lon":5.393976,"is_reserved":false,"is_disabled":false,"rental_uris":{"android":"levelo://app?vid=2dfd8526-ec84-4820-bf93-7f6c2d3662ba","ios":"levelo://app?vid=2dfd8526-ec84-4820-bf93-7f6c2d3662ba"},"vehicle_type_id":"4","last_reported":1702735623,"current_range_meters":29200,"station_id":"ce4bhh12rcd13ifvqfg0","pricing_plan_id":"free"},{"bike_id":"b6e02764-22af-46c1-a930-a9617486f5e3","system_id":"levelo_inurba_marseille","lat":43.265714,"lon":5.372891,"is_reserved":false,"is_disabled":false,"rental_uris":{"android":"levelo://app?vid=b6e02764-22af-46c1-a930-a9617486f5e3","ios":"levelo://app?vid=b6e02764-22af-46c1-a930-a9617486f5e3"},"vehicle_type_id":"4","last_reported":1702735623,"current_range_meters":22800,"station_id":"ce4bhg12rcd13ifvqf70","pricing_plan_id":"free"},{"bike_id":"4487138c-edef-4f75-bc7a-fba8265f3cba","system_id":"levelo_inurba_marseille","lat":43.265714,"lon":5.372891,"is_reserved":false,"is_disabled":false,"rental_uris":{"android":"levelo://app?vid=4487138c-edef-4f75-bc7a-fba8265f3cba","ios":"levelo://app?vid=4487138c-edef-4f75-bc7a-fba8265f3cba"},"vehicle_type_id":"4","last_reported":1702735623,"current_range_meters":23600,"station_id":"ce4bhg12rcd13ifvqf70","pricing_plan_id":"free"},{"bike_id":"7b3acfec-7269-4a55-abfa-7819202d73ef","system_id":"levelo_inurba_marseille","lat":43.308051,"lon":5.43527,"is_reserved":false,"is_disabled":false,"rental_uris":{"android":"levelo://app?vid=7b3acfec-7269-4a55-abfa-7819202d73ef","ios":"levelo://app?vid=7b3acfec-7269-4a55-abfa-7819202d73ef"},"vehicle_type_id":"4","last_reported":1702735623,"current_range_meters":28400,"station_id":"ce4bhph2rcd13ifvqheg","pricing_plan_id":"free"},{"bike_id":"9726cde2-1bbe-4a61-9dad-9ea7ca6c8d20","system_id":"levelo_inurba_marseille","lat":43.265569,"lon":5.390047,"is_reserved":false,"is_disabled":false,"rental_uris":{"android":"levelo://app?vid=9726cde2-1bbe-4a61-9dad-9ea7ca6c8d20","ios":"levelo://app?vid=9726cde2-1bbe-4a61-9dad-9ea7ca6c8d20"},"vehicle_type_id":"4","last_reported":1702735623,"current_range_meters":12400,"station_id":"ce4bhe12rcd13ifvqf30","pricing_plan_id":"free"},{"bike_id":"8486699d-b946-477f-b86c-ac1a31556ca9","system_id":"levelo_inurba_marseille","lat":43.265569,"lon":5.390047,"is_reserved":false,"is_disabled":false,"rental_uris":{"android":"levelo://app?vid=8486699d-b946-477f-b86c-ac1a31556ca9","ios":"levelo://app?vid=8486699d-b946-477f-b86c-ac1a31556ca9"},"vehicle_type_id":"4","last_reported":1702735623,"current_range_meters":6000,"station_id":"ce4bhe12rcd13ifvqf30","pricing_plan_id":"free"},{"bike_id":"63a5be26-ca79-42ce-b963-ff2f251917d4","system_id":"levelo_inurba_marseille","lat":43.26558,"lon":5.39024,"is_reserved":false,"is_disabled":false,"rental_uris":{"android":"levelo://app?vid=63a5be26-ca79-42ce-b963-ff2f251917d4","ios":"levelo://app?vid=63a5be26-ca79-42ce-b963-ff2f251917d4"},"vehicle_type_id":"4","last_reported":1702735623,"current_range_meters":0,"station_id":"ce4bhe12rcd13ifvqf30","pricing_plan_id":"free"},{"bike_id":"21187d67-c0c0-4715-83b9-383209db93eb","system_id":"levelo_inurba_marseille","lat":43.265569,"lon":5.390047,"is_reserved":false,"is_disabled":false,"rental_uris":{"android":"levelo://app?vid=21187d67-c0c0-4715-83b9-383209db93eb","ios":"levelo://app?vid=21187d67-c0c0-4715-83b9-383209db93eb"},"vehicle_type_id":"4","last_reported":1702735623,"current_range_meters":22000,"station_id":"ce4bhe12rcd13ifvqf30","pricing_plan_id":"free"},{"bike_id":"00fc8c2b-e764-45f4-af64-792a7dcc80f7","system_id":"levelo_inurba_marseille","lat":43.26949,"lon":5.40262,"is_reserved":false,"is_disabled":false,"rental_uris":{"android":"levelo://app?vid=00fc8c2b-e764-45f4-af64-792a7dcc80f7","ios":"levelo://app?vid=00fc8c2b-e764-45f4-af64-792a7dcc80f7"},"vehicle_type_id":"4","last_reported":1702735623,"current_range_meters":24800,"station_id":"cjm6bp8fraef2m0cb0m0","pricing_plan_id":"free"},{"bike_id":"f562dc53-d2be-45f7-8702-d13c70b26510","system_id":"levelo_inurba_marseille","lat":43.26949,"lon":5.40262,"is_reserved":false,"is_disabled":false,"rental_uris":{"android":"levelo://app?vid=f562dc53-d2be-45f7-8702-d13c70b26510","ios":"levelo://app?vid=f562dc53-d2be-45f7-8702-d13c70b26510"},"vehicle_type_id":"4","last_reported":1702735623,"current_range_meters":17600,"station_id":"cjm6bp8fraef2m0cb0m0","pricing_plan_id":"free"},{"bike_id":"3f89a02b-bdc2-4eb0-bdc8-f06806993e8a","system_id":"levelo_inurba_marseille","lat":43.317104,"lon":5.436818,"is_reserved":false,"is_disabled":false,"rental_uris":{"android":"levelo://app?vid=3f89a02b-bdc2-4eb0-bdc8-f06806993e8a","ios":"levelo://app?vid=3f89a02b-bdc2-4eb0-bdc8-f06806993e8a"},"vehicle_type_id":"4","last_reported":1702735623,"current_range_meters":28800,"station_id":"ce4bhp92rcd13ifvqhcg","pricing_plan_id":"free"},{"bike_id":"5bbbe66c-61cd-4750-945d-eb3c296f9462","system_id":"levelo_inurba_marseille","lat":43.271388,"lon":5.409269,"is_reserved":false,"is_disabled":false,"rental_uris":{"android":"levelo://app?vid=5bbbe66c-61cd-4750-945d-eb3c296f9462","ios":"levelo://app?vid=5bbbe66c-61cd-4750-945d-eb3c296f9462"},"vehicle_type_id":"4","last_reported":1702735623,"current_range_meters":28400,"station_id":"ce4bhl12rcd13ifvqgf0","pricing_plan_id":"free"},{"bike_id":"9a565409-9e4d-4447-8a35-ed26f5edc19c","system_id":"levelo_inurba_marseille","lat":43.26197,"lon":5.37928,"is_reserved":false,"is_disabled":false,"rental_uris":{"android":"levelo://app?vid=9a565409-9e4d-4447-8a35-ed26f5edc19c","ios":"levelo://app?vid=9a565409-9e4d-4447-8a35-ed26f5edc19c"},"vehicle_type_id":"4","last_reported":1702735623,"current_range_meters":0,"station_id":"ce4bhjp2rcd13ifvqg90","pricing_plan_id":"free"},{"bike_id":"13d8f21a-915d-4b44-a5d4-e05dbec66ced","system_id":"levelo_inurba_marseille","lat":43.26499,"lon":5.39549,"is_reserved":false,"is_disabled":false,"rental_uris":{"android":"levelo://app?vid=13d8f21a-915d-4b44-a5d4-e05dbec66ced","ios":"levelo://app?vid=13d8f21a-915d-4b44-a5d4-e05dbec66ced"},"vehicle_type_id":"4","last_reported":1702735623,"current_range_meters":15600,"station_id":"","pricing_plan_id":"free"},{"bike_id":"7b0436b3-ff96-4c5c-8bad-aa3b2a2477cd","system_id":"levelo_inurba_marseille","lat":43.275028,"lon":5.424534,"is_reserved":false,"is_disabled":false,"rental_uris":{"android":"levelo://app?vid=7b0436b3-ff96-4c5c-8bad-aa3b2a2477cd","ios":"levelo://app?vid=7b0436b3-ff96-4c5c-8bad-aa3b2a2477cd"},"vehicle_type_id":"4","last_reported":1702735623,"current_range_meters":30400,"station_id":"ce4bhn92rcd13ifvqgrg","pricing_plan_id":"free"},{"bike_id":"eadd3c4d-f16c-4035-8e55-227066638d63","system_id":"levelo_inurba_marseille","lat":43.258224,"lon":5.394369,"is_reserved":false,"is_disabled":false,"rental_uris":{"android":"levelo://app?vid=eadd3c4d-f16c-4035-8e55-227066638d63","ios":"levelo://app?vid=eadd3c4d-f16c-4035-8e55-227066638d63"},"vehicle_type_id":"4","last_reported":1702735623,"current_range_meters":6800,"station_id":"ce4bhip2rcd13ifvqft0","pricing_plan_id":"free"},{"bike_id":"c98d070b-1c6e-483c-b054-c855006c48f8","system_id":"levelo_inurba_marseille","lat":43.270721,"lon":5.422764,"is_reserved":false,"is_disabled":false,"rental_uris":{"android":"levelo://app?vid=c98d070b-1c6e-483c-b054-c855006c48f8","ios":"levelo://app?vid=c98d070b-1c6e-483c-b054-c855006c48f8"},"vehicle_type_id":"4","last_reported":1702735623,"current_range_meters":19600,"station_id":"ce4bhk92rcd13ifvqgb0","pricing_plan_id":"free"},{"bike_id":"e0e8bd05-cb01-417f-9cef-59d9a584620d","system_id":"levelo_inurba_marseille","lat":43.258658,"lon":5.398935,"is_reserved":false,"is_disabled":false,"rental_uris":{"android":"levelo://app?vid=e0e8bd05-cb01-417f-9cef-59d9a584620d","ios":"levelo://app?vid=e0e8bd05-cb01-417f-9cef-59d9a584620d"},"vehicle_type_id":"4","last_reported":1702735623,"current_range_meters":30000,"station_id":"ce4bhl92rcd13ifvqghg","pricing_plan_id":"free"},{"bike_id":"d580425e-fb16-4470-bb41-0d899b50c75c","system_id":"levelo_inurba_marseille","lat":43.257079,"lon":5.411051,"is_reserved":false,"is_disabled":false,"rental_uris":{"android":"levelo://app?vid=d580425e-fb16-4470-bb41-0d899b50c75c","ios":"levelo://app?vid=d580425e-fb16-4470-bb41-0d899b50c75c"},"vehicle_type_id":"4","last_reported":1702735623,"current_range_meters":1600,"station_id":"ce4bhkp2rcd13ifvqgd0","pricing_plan_id":"free"},{"bike_id":"d28d9c39-0396-48a1-b3ef-fd713a59f260","system_id":"levelo_inurba_marseille","lat":43.2479,"lon":5.374457,"is_reserved":false,"is_disabled":false,"rental_uris":{"android":"levelo://app?vid=d28d9c39-0396-48a1-b3ef-fd713a59f260","ios":"levelo://app?vid=d28d9c39-0396-48a1-b3ef-fd713a59f260"},"vehicle_type_id":"4","last_reported":1702735623,"current_range_meters":16800,"station_id":"ce4bhgh2rcd13ifvqfb0","pricing_plan_id":"free"},{"bike_id":"6457eea5-2e99-47d8-8c36-7c72a2ed2512","system_id":"levelo_inurba_marseille","lat":43.250966,"lon":5.395186,"is_reserved":false,"is_disabled":false,"rental_uris":{"android":"levelo://app?vid=6457eea5-2e99-47d8-8c36-7c72a2ed2512","ios":"levelo://app?vid=6457eea5-2e99-47d8-8c36-7c72a2ed2512"},"vehicle_type_id":"4","last_reported":1702735623,"current_range_meters":28000,"station_id":"ce4bhm12rcd13ifvqgkg","pricing_plan_id":"free"},{"bike_id":"fc13cdc3-2706-4b4c-86d4-d1263cdb6fb2","system_id":"levelo_inurba_marseille","lat":43.24693,"lon":5.382096,"is_reserved":false,"is_disabled":false,"rental_uris":{"android":"levelo://app?vid=fc13cdc3-2706-4b4c-86d4-d1263cdb6fb2","ios":"levelo://app?vid=fc13cdc3-2706-4b4c-86d4-d1263cdb6fb2"},"vehicle_type_id":"4","last_reported":1702735623,"current_range_meters":19200,"station_id":"ce4bhih2rcd13ifvqfr0","pricing_plan_id":"free"},{"bike_id":"1702049a-caec-411e-8f4a-989bd2873a1d","system_id":"levelo_inurba_marseille","lat":43.25112,"lon":5.40323,"is_reserved":false,"is_disabled":false,"rental_uris":{"android":"levelo://app?vid=1702049a-caec-411e-8f4a-989bd2873a1d","ios":"levelo://app?vid=1702049a-caec-411e-8f4a-989bd2873a1d"},"vehicle_type_id":"4","last_reported":1702735623,"current_range_meters":16400,"station_id":"ce4bhlh2rcd13ifvqgig","pricing_plan_id":"free"},{"bike_id":"e34d5bc1-fa38-4a8d-9369-ce2bb2b6aca7","system_id":"levelo_inurba_marseille","lat":43.25102,"lon":5.403214,"is_reserved":false,"is_disabled":false,"rental_uris":{"android":"levelo://app?vid=e34d5bc1-fa38-4a8d-9369-ce2bb2b6aca7","ios":"levelo://app?vid=e34d5bc1-fa38-4a8d-9369-ce2bb2b6aca7"},"vehicle_type_id":"4","last_reported":1702735623,"current_range_meters":24800,"station_id":"ce4bhlh2rcd13ifvqgig","pricing_plan_id":"free"},{"bike_id":"cda151f2-9ad2-46c9-9115-b73ba9a06619","system_id":"levelo_inurba_marseille","lat":43.25211,"lon":5.40638,"is_reserved":false,"is_disabled":false,"rental_uris":{"android":"levelo://app?vid=cda151f2-9ad2-46c9-9115-b73ba9a06619","ios":"levelo://app?vid=cda151f2-9ad2-46c9-9115-b73ba9a06619"},"vehicle_type_id":"4","last_reported":1702735623,"current_range_meters":4000,"station_id":"","pricing_plan_id":"free"},{"bike_id":"cdac1541-5386-4289-a8a7-e6a538a4c9e2","system_id":"levelo_inurba_marseille","lat":43.25108,"lon":5.4033,"is_reserved":false,"is_disabled":false,"rental_uris":{"android":"levelo://app?vid=cdac1541-5386-4289-a8a7-e6a538a4c9e2","ios":"levelo://app?vid=cdac1541-5386-4289-a8a7-e6a538a4c9e2"},"vehicle_type_id":"4","last_reported":1702735623,"current_range_meters":16400,"station_id":"ce4bhlh2rcd13ifvqgig","pricing_plan_id":"free"},{"bike_id":"949d15e9-8df3-4d8f-90d6-7e91ac0bdddf","system_id":"levelo_inurba_marseille","lat":43.246461,"lon":5.389014,"is_reserved":false,"is_disabled":false,"rental_uris":{"android":"levelo://app?vid=949d15e9-8df3-4d8f-90d6-7e91ac0bdddf","ios":"levelo://app?vid=949d15e9-8df3-4d8f-90d6-7e91ac0bdddf"},"vehicle_type_id":"4","last_reported":1702735623,"current_range_meters":27600,"station_id":"ce4bhg12rcd13ifvqf60","pricing_plan_id":"free"},{"bike_id":"5922e712-e356-4367-894d-8b433b5f4d21","system_id":"levelo_inurba_marseille","lat":43.2439,"lon":5.37059,"is_reserved":false,"is_disabled":false,"rental_uris":{"android":"levelo://app?vid=5922e712-e356-4367-894d-8b433b5f4d21","ios":"levelo://app?vid=5922e712-e356-4367-894d-8b433b5f4d21"},"vehicle_type_id":"4","last_reported":1702735623,"current_range_meters":28800,"station_id":"ce4bhhh2rcd13ifvqfk0","pricing_plan_id":"free"},{"bike_id":"8c259827-20ab-4a6e-bedf-5a33fa5e436a","system_id":"levelo_inurba_marseille","lat":43.2439,"lon":5.37062,"is_reserved":false,"is_disabled":false,"rental_uris":{"android":"levelo://app?vid=8c259827-20ab-4a6e-bedf-5a33fa5e436a","ios":"levelo://app?vid=8c259827-20ab-4a6e-bedf-5a33fa5e436a"},"vehicle_type_id":"4","last_reported":1702735623,"current_range_meters":5600,"station_id":"ce4bhhh2rcd13ifvqfk0","pricing_plan_id":"free"},{"bike_id":"bcdbedcb-f5bd-4f41-b02b-0a17a2f80771","system_id":"levelo_inurba_marseille","lat":43.243884,"lon":5.370736,"is_reserved":false,"is_disabled":false,"rental_uris":{"android":"levelo://app?vid=bcdbedcb-f5bd-4f41-b02b-0a17a2f80771","ios":"levelo://app?vid=bcdbedcb-f5bd-4f41-b02b-0a17a2f80771"},"vehicle_type_id":"4","last_reported":1702735623,"current_range_meters":20800,"station_id":"ce4bhhh2rcd13ifvqfk0","pricing_plan_id":"free"},{"bike_id":"2913b0e3-c44c-49f1-ba84-d9d46d3f68b0","system_id":"levelo_inurba_marseille","lat":43.24869,"lon":5.41,"is_reserved":false,"is_disabled":false,"rental_uris":{"android":"levelo://app?vid=2913b0e3-c44c-49f1-ba84-d9d46d3f68b0","ios":"levelo://app?vid=2913b0e3-c44c-49f1-ba84-d9d46d3f68b0"},"vehicle_type_id":"4","last_reported":1702735623,"current_range_meters":18800,"station_id":"","pricing_plan_id":"free"},{"bike_id":"a29e20d4-18d0-4f9c-a13d-90cc9f50c878","system_id":"levelo_inurba_marseille","lat":43.273609,"lon":5.362708,"is_reserved":false,"is_disabled":false,"rental_uris":{"android":"levelo://app?vid=a29e20d4-18d0-4f9c-a13d-90cc9f50c878","ios":"levelo://app?vid=a29e20d4-18d0-4f9c-a13d-90cc9f50c878"},"vehicle_type_id":"4","last_reported":1702735623,"current_range_meters":26800,"station_id":"ce4bhbh2rcd13ifvqeo0","pricing_plan_id":"free"},{"bike_id":"410d0304-b9ad-46df-b182-6dae39cf04c0","system_id":"levelo_inurba_marseille","lat":43.23966,"lon":5.36636,"is_reserved":false,"is_disabled":false,"rental_uris":{"android":"levelo://app?vid=410d0304-b9ad-46df-b182-6dae39cf04c0","ios":"levelo://app?vid=410d0304-b9ad-46df-b182-6dae39cf04c0"},"vehicle_type_id":"4","last_reported":1702735623,"current_range_meters":29200,"station_id":"ce4bhi12rcd13ifvqfp0","pricing_plan_id":"free"},{"bike_id":"015d5d8f-a6cd-49a8-8ebe-be3b67b47721","system_id":"levelo_inurba_marseille","lat":43.239588,"lon":5.366238,"is_reserved":false,"is_disabled":false,"rental_uris":{"android":"levelo://app?vid=015d5d8f-a6cd-49a8-8ebe-be3b67b47721","ios":"levelo://app?vid=015d5d8f-a6cd-49a8-8ebe-be3b67b47721"},"vehicle_type_id":"4","last_reported":1702735623,"current_range_meters":20400,"station_id":"ce4bhi12rcd13ifvqfp0","pricing_plan_id":"free"},{"bike_id":"ac976593-78be-4851-bc74-6afdb33cfcee","system_id":"levelo_inurba_marseille","lat":43.241782,"lon":5.397261,"is_reserved":false,"is_disabled":false,"rental_uris":{"android":"levelo://app?vid=ac976593-78be-4851-bc74-6afdb33cfcee","ios":"levelo://app?vid=ac976593-78be-4851-bc74-6afdb33cfcee"},"vehicle_type_id":"4","last_reported":1702735623,"current_range_meters":22400,"station_id":"ce4bhn12rcd13ifvqgpg","pricing_plan_id":"free"},{"bike_id":"435d75ee-de91-4ee4-89fb-fa5635ccaf42","system_id":"levelo_inurba_marseille","lat":43.231919,"lon":5.355532,"is_reserved":false,"is_disabled":false,"rental_uris":{"android":"levelo://app?vid=435d75ee-de91-4ee4-89fb-fa5635ccaf42","ios":"levelo://app?vid=435d75ee-de91-4ee4-89fb-fa5635ccaf42"},"vehicle_type_id":"4","last_reported":1702735623,"current_range_meters":31200,"station_id":"ce4bhu92rcd13ifvqi70","pricing_plan_id":"free"},{"bike_id":"a5be7a02-752c-452e-81d7-6afcc7acad03","system_id":"levelo_inurba_marseille","lat":43.231919,"lon":5.355532,"is_reserved":false,"is_disabled":false,"rental_uris":{"android":"levelo://app?vid=a5be7a02-752c-452e-81d7-6afcc7acad03","ios":"levelo://app?vid=a5be7a02-752c-452e-81d7-6afcc7acad03"},"vehicle_type_id":"4","last_reported":1702735623,"current_range_meters":17200,"station_id":"ce4bhu92rcd13ifvqi70","pricing_plan_id":"free"},{"bike_id":"9ca3011f-2d0a-4b46-84e2-5e1bb5df7278","system_id":"levelo_inurba_marseille","lat":43.231993,"lon":5.355523,"is_reserved":false,"is_disabled":false,"rental_uris":{"android":"levelo://app?vid=9ca3011f-2d0a-4b46-84e2-5e1bb5df7278","ios":"levelo://app?vid=9ca3011f-2d0a-4b46-84e2-5e1bb5df7278"},"vehicle_type_id":"4","last_reported":1702735623,"current_range_meters":31200,"station_id":"ce4bhu92rcd13ifvqi70","pricing_plan_id":"free"},{"bike_id":"bf3e6daf-e882-4943-8888-2e2ca6915d4a","system_id":"levelo_inurba_marseille","lat":43.23198,"lon":5.35554,"is_reserved":false,"is_disabled":false,"rental_uris":{"android":"levelo://app?vid=bf3e6daf-e882-4943-8888-2e2ca6915d4a","ios":"levelo://app?vid=bf3e6daf-e882-4943-8888-2e2ca6915d4a"},"vehicle_type_id":"4","last_reported":1702735623,"current_range_meters":14000,"station_id":"ce4bhu92rcd13ifvqi70","pricing_plan_id":"free"},{"bike_id":"547672b1-18af-4711-b9a3-86e73cab70b4","system_id":"levelo_inurba_marseille","lat":43.23198,"lon":5.35552,"is_reserved":false,"is_disabled":false,"rental_uris":{"android":"levelo://app?vid=547672b1-18af-4711-b9a3-86e73cab70b4","ios":"levelo://app?vid=547672b1-18af-4711-b9a3-86e73cab70b4"},"vehicle_type_id":"4","last_reported":1702735623,"current_range_meters":16400,"station_id":"ce4bhu92rcd13ifvqi70","pricing_plan_id":"free"},{"bike_id":"9c8cce66-4278-48f8-9ce8-4f41e5a392c5","system_id":"levelo_inurba_marseille","lat":43.231919,"lon":5.355532,"is_reserved":false,"is_disabled":false,"rental_uris":{"android":"levelo://app?vid=9c8cce66-4278-48f8-9ce8-4f41e5a392c5","ios":"levelo://app?vid=9c8cce66-4278-48f8-9ce8-4f41e5a392c5"},"vehicle_type_id":"4","last_reported":1702735623,"current_range_meters":31200,"station_id":"ce4bhu92rcd13ifvqi70","pricing_plan_id":"free"},{"bike_id":"e4f94050-aae1-4821-b78a-030e7070af2a","system_id":"levelo_inurba_marseille","lat":43.23197,"lon":5.35552,"is_reserved":false,"is_disabled":false,"rental_uris":{"android":"levelo://app?vid=e4f94050-aae1-4821-b78a-030e7070af2a","ios":"levelo://app?vid=e4f94050-aae1-4821-b78a-030e7070af2a"},"vehicle_type_id":"4","last_reported":1702735623,"current_range_meters":7600,"station_id":"ce4bhu92rcd13ifvqi70","pricing_plan_id":"free"},{"bike_id":"be641546-dcea-4309-ad5a-32c7507f146a","system_id":"levelo_inurba_marseille","lat":43.23196,"lon":5.35552,"is_reserved":false,"is_disabled":false,"rental_uris":{"android":"levelo://app?vid=be641546-dcea-4309-ad5a-32c7507f146a","ios":"levelo://app?vid=be641546-dcea-4309-ad5a-32c7507f146a"},"vehicle_type_id":"4","last_reported":1702735623,"current_range_meters":14400,"station_id":"ce4bhu92rcd13ifvqi70","pricing_plan_id":"free"},{"bike_id":"c0509687-6622-44dd-a042-9b19ef27d0ea","system_id":"levelo_inurba_marseille","lat":43.231953,"lon":5.355563,"is_reserved":false,"is_disabled":false,"rental_uris":{"android":"levelo://app?vid=c0509687-6622-44dd-a042-9b19ef27d0ea","ios":"levelo://app?vid=c0509687-6622-44dd-a042-9b19ef27d0ea"},"vehicle_type_id":"4","last_reported":1702735623,"current_range_meters":31200,"station_id":"ce4bhu92rcd13ifvqi70","pricing_plan_id":"free"},{"bike_id":"760219ab-0887-48ce-b49e-5a40cc3afc6e","system_id":"levelo_inurba_marseille","lat":43.23196,"lon":5.35547,"is_reserved":false,"is_disabled":false,"rental_uris":{"android":"levelo://app?vid=760219ab-0887-48ce-b49e-5a40cc3afc6e","ios":"levelo://app?vid=760219ab-0887-48ce-b49e-5a40cc3afc6e"},"vehicle_type_id":"4","last_reported":1702735623,"current_range_meters":22400,"station_id":"ce4bhu92rcd13ifvqi70","pricing_plan_id":"free"},{"bike_id":"6eb66c81-4f2d-442c-ae6a-a2979e409f48","system_id":"levelo_inurba_marseille","lat":43.231919,"lon":5.355532,"is_reserved":false,"is_disabled":false,"rental_uris":{"android":"levelo://app?vid=6eb66c81-4f2d-442c-ae6a-a2979e409f48","ios":"levelo://app?vid=6eb66c81-4f2d-442c-ae6a-a2979e409f48"},"vehicle_type_id":"4","last_reported":1702735623,"current_range_meters":17200,"station_id":"ce4bhu92rcd13ifvqi70","pricing_plan_id":"free"},{"bike_id":"c1f76b82-4e66-4ae8-8e5d-049d6742016a","system_id":"levelo_inurba_marseille","lat":43.231919,"lon":5.355532,"is_reserved":false,"is_disabled":false,"rental_uris":{"android":"levelo://app?vid=c1f76b82-4e66-4ae8-8e5d-049d6742016a","ios":"levelo://app?vid=c1f76b82-4e66-4ae8-8e5d-049d6742016a"},"vehicle_type_id":"4","last_reported":1702735623,"current_range_meters":19200,"station_id":"ce4bhu92rcd13ifvqi70","pricing_plan_id":"free"},{"bike_id":"bb21ca5a-cb13-451e-943b-2dfa4a3b7fbc","system_id":"levelo_inurba_marseille","lat":43.231919,"lon":5.355532,"is_reserved":false,"is_disabled":false,"rental_uris":{"android":"levelo://app?vid=bb21ca5a-cb13-451e-943b-2dfa4a3b7fbc","ios":"levelo://app?vid=bb21ca5a-cb13-451e-943b-2dfa4a3b7fbc"},"vehicle_type_id":"4","last_reported":1702735623,"current_range_meters":31600,"station_id":"ce4bhu92rcd13ifvqi70","pricing_plan_id":"free"},{"bike_id":"a6ab5f0e-f0ee-41be-b237-17726a43f065","system_id":"levelo_inurba_marseille","lat":43.23194,"lon":5.35551,"is_reserved":false,"is_disabled":false,"rental_uris":{"android":"levelo://app?vid=a6ab5f0e-f0ee-41be-b237-17726a43f065","ios":"levelo://app?vid=a6ab5f0e-f0ee-41be-b237-17726a43f065"},"vehicle_type_id":"4","last_reported":1702735623,"current_range_meters":29200,"station_id":"ce4bhu92rcd13ifvqi70","pricing_plan_id":"free"},{"bike_id":"039c8836-5750-4239-bfe5-c54c2d49b674","system_id":"levelo_inurba_marseille","lat":43.231919,"lon":5.355532,"is_reserved":false,"is_disabled":false,"rental_uris":{"android":"levelo://app?vid=039c8836-5750-4239-bfe5-c54c2d49b674","ios":"levelo://app?vid=039c8836-5750-4239-bfe5-c54c2d49b674"},"vehicle_type_id":"4","last_reported":1702735623,"current_range_meters":14000,"station_id":"ce4bhu92rcd13ifvqi70","pricing_plan_id":"free"},{"bike_id":"90458881-97e2-4d19-a7dd-597c18dc1844","system_id":"levelo_inurba_marseille","lat":43.23193,"lon":5.35562,"is_reserved":false,"is_disabled":false,"rental_uris":{"android":"levelo://app?vid=90458881-97e2-4d19-a7dd-597c18dc1844","ios":"levelo://app?vid=90458881-97e2-4d19-a7dd-597c18dc1844"},"vehicle_type_id":"4","last_reported":1702735623,"current_range_meters":22000,"station_id":"ce4bhu92rcd13ifvqi70","pricing_plan_id":"free"},{"bike_id":"1941891e-39f7-4cab-a101-89db57bf9cfa","system_id":"levelo_inurba_marseille","lat":43.23193,"lon":5.35556,"is_reserved":false,"is_disabled":false,"rental_uris":{"android":"levelo://app?vid=1941891e-39f7-4cab-a101-89db57bf9cfa","ios":"levelo://app?vid=1941891e-39f7-4cab-a101-89db57bf9cfa"},"vehicle_type_id":"4","last_reported":1702735623,"current_range_meters":30800,"station_id":"ce4bhu92rcd13ifvqi70","pricing_plan_id":"free"},{"bike_id":"d5db4656-3785-4da7-813e-6fbad81b5e15","system_id":"levelo_inurba_marseille","lat":43.231919,"lon":5.355532,"is_reserved":false,"is_disabled":false,"rental_uris":{"android":"levelo://app?vid=d5db4656-3785-4da7-813e-6fbad81b5e15","ios":"levelo://app?vid=d5db4656-3785-4da7-813e-6fbad81b5e15"},"vehicle_type_id":"4","last_reported":1702735623,"current_range_meters":30000,"station_id":"ce4bhu92rcd13ifvqi70","pricing_plan_id":"free"},{"bike_id":"bad9b33d-de7d-4c7c-82d1-be01fc455f93","system_id":"levelo_inurba_marseille","lat":43.23193,"lon":5.3555,"is_reserved":false,"is_disabled":false,"rental_uris":{"android":"levelo://app?vid=bad9b33d-de7d-4c7c-82d1-be01fc455f93","ios":"levelo://app?vid=bad9b33d-de7d-4c7c-82d1-be01fc455f93"},"vehicle_type_id":"4","last_reported":1702735623,"current_range_meters":22800,"station_id":"ce4bhu92rcd13ifvqi70","pricing_plan_id":"free"},{"bike_id":"64295fcd-ca67-4243-ac5e-95b32e82d391","system_id":"levelo_inurba_marseille","lat":43.231919,"lon":5.355532,"is_reserved":false,"is_disabled":false,"rental_uris":{"android":"levelo://app?vid=64295fcd-ca67-4243-ac5e-95b32e82d391","ios":"levelo://app?vid=64295fcd-ca67-4243-ac5e-95b32e82d391"},"vehicle_type_id":"4","last_reported":1702735623,"current_range_meters":14800,"station_id":"ce4bhu92rcd13ifvqi70","pricing_plan_id":"free"},{"bike_id":"59a5075d-8f46-4a64-85f3-6c3e0f3bcf1e","system_id":"levelo_inurba_marseille","lat":43.231919,"lon":5.355532,"is_reserved":false,"is_disabled":false,"rental_uris":{"android":"levelo://app?vid=59a5075d-8f46-4a64-85f3-6c3e0f3bcf1e","ios":"levelo://app?vid=59a5075d-8f46-4a64-85f3-6c3e0f3bcf1e"},"vehicle_type_id":"4","last_reported":1702735623,"current_range_meters":22400,"station_id":"ce4bhu92rcd13ifvqi70","pricing_plan_id":"free"},{"bike_id":"8f40641d-ea03-4e11-8c81-5cd047455ed4","system_id":"levelo_inurba_marseille","lat":43.231919,"lon":5.355532,"is_reserved":false,"is_disabled":false,"rental_uris":{"android":"levelo://app?vid=8f40641d-ea03-4e11-8c81-5cd047455ed4","ios":"levelo://app?vid=8f40641d-ea03-4e11-8c81-5cd047455ed4"},"vehicle_type_id":"4","last_reported":1702735623,"current_range_meters":19600,"station_id":"ce4bhu92rcd13ifvqi70","pricing_plan_id":"free"},{"bike_id":"c58c2105-152a-4be3-96b7-ef7d8114d5d4","system_id":"levelo_inurba_marseille","lat":43.23192,"lon":5.35554,"is_reserved":false,"is_disabled":false,"rental_uris":{"android":"levelo://app?vid=c58c2105-152a-4be3-96b7-ef7d8114d5d4","ios":"levelo://app?vid=c58c2105-152a-4be3-96b7-ef7d8114d5d4"},"vehicle_type_id":"4","last_reported":1702735623,"current_range_meters":17600,"station_id":"ce4bhu92rcd13ifvqi70","pricing_plan_id":"free"},{"bike_id":"347bd90a-5bb8-4868-8e5d-abc75467a716","system_id":"levelo_inurba_marseille","lat":43.231919,"lon":5.355532,"is_reserved":false,"is_disabled":false,"rental_uris":{"android":"levelo://app?vid=347bd90a-5bb8-4868-8e5d-abc75467a716","ios":"levelo://app?vid=347bd90a-5bb8-4868-8e5d-abc75467a716"},"vehicle_type_id":"4","last_reported":1702735623,"current_range_meters":16400,"station_id":"ce4bhu92rcd13ifvqi70","pricing_plan_id":"free"},{"bike_id":"e2effc20-8600-4cb3-88e5-e93a2f872714","system_id":"levelo_inurba_marseille","lat":43.23191,"lon":5.35549,"is_reserved":false,"is_disabled":false,"rental_uris":{"android":"levelo://app?vid=e2effc20-8600-4cb3-88e5-e93a2f872714","ios":"levelo://app?vid=e2effc20-8600-4cb3-88e5-e93a2f872714"},"vehicle_type_id":"4","last_reported":1702735623,"current_range_meters":28800,"station_id":"ce4bhu92rcd13ifvqi70","pricing_plan_id":"free"},{"bike_id":"449edb6f-74d5-4959-ae49-d1a79af7aa0a","system_id":"levelo_inurba_marseille","lat":43.231919,"lon":5.355532,"is_reserved":false,"is_disabled":false,"rental_uris":{"android":"levelo://app?vid=449edb6f-74d5-4959-ae49-d1a79af7aa0a","ios":"levelo://app?vid=449edb6f-74d5-4959-ae49-d1a79af7aa0a"},"vehicle_type_id":"4","last_reported":1702735623,"current_range_meters":20000,"station_id":"ce4bhu92rcd13ifvqi70","pricing_plan_id":"free"},{"bike_id":"8c500cc3-4f32-4f1f-a359-374d35f20ffd","system_id":"levelo_inurba_marseille","lat":43.231919,"lon":5.355532,"is_reserved":false,"is_disabled":false,"rental_uris":{"android":"levelo://app?vid=8c500cc3-4f32-4f1f-a359-374d35f20ffd","ios":"levelo://app?vid=8c500cc3-4f32-4f1f-a359-374d35f20ffd"},"vehicle_type_id":"4","last_reported":1702735623,"current_range_meters":30800,"station_id":"ce4bhu92rcd13ifvqi70","pricing_plan_id":"free"},{"bike_id":"600bdeb8-ea2a-4d1c-a6da-f7a255388a48","system_id":"levelo_inurba_marseille","lat":43.23189,"lon":5.35548,"is_reserved":false,"is_disabled":false,"rental_uris":{"android":"levelo://app?vid=600bdeb8-ea2a-4d1c-a6da-f7a255388a48","ios":"levelo://app?vid=600bdeb8-ea2a-4d1c-a6da-f7a255388a48"},"vehicle_type_id":"4","last_reported":1702735623,"current_range_meters":10400,"station_id":"ce4bhu92rcd13ifvqi70","pricing_plan_id":"free"},{"bike_id":"0914bc04-89c8-46f4-bf04-78aea5230869","system_id":"levelo_inurba_marseille","lat":43.23188,"lon":5.35559,"is_reserved":false,"is_disabled":false,"rental_uris":{"android":"levelo://app?vid=0914bc04-89c8-46f4-bf04-78aea5230869","ios":"levelo://app?vid=0914bc04-89c8-46f4-bf04-78aea5230869"},"vehicle_type_id":"4","last_reported":1702735623,"current_range_meters":30000,"station_id":"ce4bhu92rcd13ifvqi70","pricing_plan_id":"free"},{"bike_id":"9c1c07ed-3609-4a39-97ae-94381b87de66","system_id":"levelo_inurba_marseille","lat":43.231919,"lon":5.355532,"is_reserved":false,"is_disabled":false,"rental_uris":{"android":"levelo://app?vid=9c1c07ed-3609-4a39-97ae-94381b87de66","ios":"levelo://app?vid=9c1c07ed-3609-4a39-97ae-94381b87de66"},"vehicle_type_id":"4","last_reported":1702735623,"current_range_meters":30000,"station_id":"ce4bhu92rcd13ifvqi70","pricing_plan_id":"free"},{"bike_id":"73cd9c87-b558-4a96-b49b-b12814d070b1","system_id":"levelo_inurba_marseille","lat":43.23186,"lon":5.35551,"is_reserved":false,"is_disabled":false,"rental_uris":{"android":"levelo://app?vid=73cd9c87-b558-4a96-b49b-b12814d070b1","ios":"levelo://app?vid=73cd9c87-b558-4a96-b49b-b12814d070b1"},"vehicle_type_id":"4","last_reported":1702735623,"current_range_meters":31200,"station_id":"ce4bhu92rcd13ifvqi70","pricing_plan_id":"free"},{"bike_id":"7591c304-548e-4cab-b2c2-be1de5925a19","system_id":"levelo_inurba_marseille","lat":43.231793,"lon":5.400044,"is_reserved":false,"is_disabled":false,"rental_uris":{"android":"levelo://app?vid=7591c304-548e-4cab-b2c2-be1de5925a19","ios":"levelo://app?vid=7591c304-548e-4cab-b2c2-be1de5925a19"},"vehicle_type_id":"4","last_reported":1702735623,"current_range_meters":17600,"station_id":"ce4bhn12rcd13ifvqgqg","pricing_plan_id":"free"},{"bike_id":"ad4a709a-3bbc-4b66-b7ec-31b555a6fb6f","system_id":"levelo_inurba_marseille","lat":43.231794,"lon":5.400052,"is_reserved":false,"is_disabled":false,"rental_uris":{"android":"levelo://app?vid=ad4a709a-3bbc-4b66-b7ec-31b555a6fb6f","ios":"levelo://app?vid=ad4a709a-3bbc-4b66-b7ec-31b555a6fb6f"},"vehicle_type_id":"4","last_reported":1702735623,"current_range_meters":31200,"station_id":"ce4bhn12rcd13ifvqgqg","pricing_plan_id":"free"},{"bike_id":"8a04d705-70fc-4764-a567-30461e79474e","system_id":"levelo_inurba_marseille","lat":43.231793,"lon":5.400044,"is_reserved":false,"is_disabled":false,"rental_uris":{"android":"levelo://app?vid=8a04d705-70fc-4764-a567-30461e79474e","ios":"levelo://app?vid=8a04d705-70fc-4764-a567-30461e79474e"},"vehicle_type_id":"4","last_reported":1702735623,"current_range_meters":31200,"station_id":"ce4bhn12rcd13ifvqgqg","pricing_plan_id":"free"},{"bike_id":"f0daebf7-48d1-4965-9af4-f0c1a8bd3366","system_id":"levelo_inurba_marseille","lat":43.231793,"lon":5.400044,"is_reserved":false,"is_disabled":false,"rental_uris":{"android":"levelo://app?vid=f0daebf7-48d1-4965-9af4-f0c1a8bd3366","ios":"levelo://app?vid=f0daebf7-48d1-4965-9af4-f0c1a8bd3366"},"vehicle_type_id":"4","last_reported":1702735623,"current_range_meters":17200,"station_id":"ce4bhn12rcd13ifvqgqg","pricing_plan_id":"free"},{"bike_id":"ec581d4d-1082-4c90-a328-a478afe1dfb6","system_id":"levelo_inurba_marseille","lat":43.231793,"lon":5.400044,"is_reserved":false,"is_disabled":false,"rental_uris":{"android":"levelo://app?vid=ec581d4d-1082-4c90-a328-a478afe1dfb6","ios":"levelo://app?vid=ec581d4d-1082-4c90-a328-a478afe1dfb6"},"vehicle_type_id":"4","last_reported":1702735623,"current_range_meters":16800,"station_id":"ce4bhn12rcd13ifvqgqg","pricing_plan_id":"free"},{"bike_id":"c5b64799-e4ed-4b74-b61b-5eb6057bea8c","system_id":"levelo_inurba_marseille","lat":43.231562,"lon":5.436933,"is_reserved":false,"is_disabled":false,"rental_uris":{"android":"levelo://app?vid=c5b64799-e4ed-4b74-b61b-5eb6057bea8c","ios":"levelo://app?vid=c5b64799-e4ed-4b74-b61b-5eb6057bea8c"},"vehicle_type_id":"4","last_reported":1702735623,"current_range_meters":23200,"station_id":"ce4bhmp2rcd13ifvqgog","pricing_plan_id":"free"},{"bike_id":"5fde57ad-c5be-4ba5-81df-3cd56888aeb9","system_id":"levelo_inurba_marseille","lat":43.2315,"lon":5.43718,"is_reserved":false,"is_disabled":false,"rental_uris":{"android":"levelo://app?vid=5fde57ad-c5be-4ba5-81df-3cd56888aeb9","ios":"levelo://app?vid=5fde57ad-c5be-4ba5-81df-3cd56888aeb9"},"vehicle_type_id":"4","last_reported":1702735623,"current_range_meters":25600,"station_id":"ce4bhmp2rcd13ifvqgog","pricing_plan_id":"free"},{"bike_id":"1b0ba279-6159-46b2-9848-e5d6471a9e80","system_id":"levelo_inurba_marseille","lat":43.231562,"lon":5.436933,"is_reserved":false,"is_disabled":false,"rental_uris":{"android":"levelo://app?vid=1b0ba279-6159-46b2-9848-e5d6471a9e80","ios":"levelo://app?vid=1b0ba279-6159-46b2-9848-e5d6471a9e80"},"vehicle_type_id":"4","last_reported":1702735623,"current_range_meters":22000,"station_id":"ce4bhmp2rcd13ifvqgog","pricing_plan_id":"free"},{"bike_id":"6b61053f-bac2-4eec-afc3-09477082396f","system_id":"levelo_inurba_marseille","lat":43.231562,"lon":5.436933,"is_reserved":false,"is_disabled":false,"rental_uris":{"android":"levelo://app?vid=6b61053f-bac2-4eec-afc3-09477082396f","ios":"levelo://app?vid=6b61053f-bac2-4eec-afc3-09477082396f"},"vehicle_type_id":"4","last_reported":1702735623,"current_range_meters":17600,"station_id":"ce4bhmp2rcd13ifvqgog","pricing_plan_id":"free"}]}}