{"last_updated":1720822037,"ttl":30,"version":"2.2","data":{"bikes":[{"bike_id":"737b4a9f-eca1-4f4f-9509-bd3ddc92a32a","system_id":"levelo_inurba_marseille","lat":43.312333,"lon":5.368297,"is_reserved":false,"is_disabled":false,"rental_uris":{"android":"levelo://app?vid=737b4a9f-eca1-4f4f-9509-bd3ddc92a32a","ios":"levelo://app?vid=737b4a9f-eca1-4f4f-9509-bd3ddc92a32a"},"vehicle_type_id":"4","last_reported":1720822037,"current_range_meters":13600,"station_id":"ce4bgl92rcd13ifvqbq0","pricing_plan_id":"cebpf4jnsgd1na2vs0mg"},{"bike_id":"4da0e1ef-4866-44d1-8641-ee53d5077039","system_id":"levelo_inurba_marseille","lat":43.312239,"lon":5.368562,"is_reserved":false,"is_disabled":false,"rental_uris":{"android":"levelo://app?vid=4da0e1ef-4866-44d1-8641-ee53d5077039","ios":"levelo://app?vid=4da0e1ef-4866-44d1-8641-ee53d5077039"},"vehicle_type_id":"4","last_reported":1720822037,"current_range_meters":7200,"station_id":"ce4bgl92rcd13ifvqbq0","pricing_plan_id":"cebpf4jnsgd1na2vs0mg"},{"bike_id":"5a503fb7-b452-40ea-b747-ccdb6fd97d8c","system_id":"levelo_inurba_marseille","lat":43.312239,"lon":5.368562,"is_reserved":false,"is_disabled":false,"rental_uris":{"android":"levelo://app?vid=5a503fb7-b452-40ea-b747-ccdb6fd97d8c","ios":"levelo://app?vid=5a503fb7-b452-40ea-b747-ccdb6fd97d8c"},"vehicle_type_id":"4","last_reported":1720822037,"current_range_meters":26400,"station_id":"ce4bgl92rcd13ifvqbq0","pricing_plan_id":"cebpf4jnsgd1na2vs0mg"},{"bike_id":"d3477a77-b7c1-4771-98ce-ee1898a9b84b","system_id":"levelo_inurba_marseille","lat":43.309076,"lon":5.368465,"is_reserved":false,"is_disabled":false,"rental_uris":{"android":"levelo://app?vid=d3477a77-b7c1-4771-98ce-ee1898a9b84b","ios":"levelo://app?vid=d3477a77-b7c1-4771-98ce-ee1898a9b84b"},"vehicle_type_id":"4","last_reported":1720822037,"current_range_meters":3200,"station_id":"ce4bgn92rcd13ifvqbvg","pricing_plan_id":"cebpf4jnsgd1na2vs0mg"},{"bike_id":"caceba36-5252-48ca-a001-75aeb7c1f03a","system_id":"levelo_inurba_marseille","lat":43.309076,"lon":5.368465,"is_reserved":false,"is_disabled":false,"rental_uris":{"android":"levelo://app?vid=caceba36-5252-48ca-a001-75aeb7c1f03a","ios":"levelo://app?vid=caceba36-5252-48ca-a001-75aeb7c1f03a"},"vehicle_type_id":"4","last_reported":1720822037,"current_range_meters":15600,"station_id":"ce4bgn92rcd13ifvqbvg","pricing_plan_id":"cebpf4jnsgd1na2vs0mg"},{"bike_id":"5f234477-2f21-49f8-ac29-a8f7fc1cdc8c","system_id":"levelo_inurba_marseille","lat":43.31272,"lon":5.37286,"is_reserved":false,"is_disabled":false,"rental_uris":{"android":"levelo://app?vid=5f234477-2f21-49f8-ac29-a8f7fc1cdc8c","ios":"levelo://app?vid=5f234477-2f21-49f8-ac29-a8f7fc1cdc8c"},"vehicle_type_id":"4","last_reported":1720822037,"current_range_meters":21200,"station_id":"","pricing_plan_id":"cebpf4jnsgd1na2vs0mg"},{"bike_id":"30ea1db7-c5f9-44c0-97e7-d7534ff11697","system_id":"levelo_inurba_marseille","lat":43.314811,"lon":5.373103,"is_reserved":false,"is_disabled":false,"rental_uris":{"android":"levelo://app?vid=30ea1db7-c5f9-44c0-97e7-d7534ff11697","ios":"levelo://app?vid=30ea1db7-c5f9-44c0-97e7-d7534ff11697"},"vehicle_type_id":"4","last_reported":1720822037,"current_range_meters":11600,"station_id":"ce4bgt12rcd13ifvqcd0","pricing_plan_id":"cebpf4jnsgd1na2vs0mg"},{"bike_id":"f412f887-0881-458a-b59a-f1f54a22c73a","system_id":"levelo_inurba_marseille","lat":43.31449,"lon":5.37373,"is_reserved":false,"is_disabled":false,"rental_uris":{"android":"levelo://app?vid=f412f887-0881-458a-b59a-f1f54a22c73a","ios":"levelo://app?vid=f412f887-0881-458a-b59a-f1f54a22c73a"},"vehicle_type_id":"4","last_reported":1720822037,"current_range_meters":23200,"station_id":"","pricing_plan_id":"cebpf4jnsgd1na2vs0mg"},{"bike_id":"9a171de9-e0ca-4f34-a24b-88e82680b87c","system_id":"levelo_inurba_marseille","lat":43.308979,"lon":5.372,"is_reserved":false,"is_disabled":false,"rental_uris":{"android":"levelo://app?vid=9a171de9-e0ca-4f34-a24b-88e82680b87c","ios":"levelo://app?vid=9a171de9-e0ca-4f34-a24b-88e82680b87c"},"vehicle_type_id":"4","last_reported":1720822037,"current_range_meters":0,"station_id":"ce4bguh2rcd13ifvqckg","pricing_plan_id":"cebpf4jnsgd1na2vs0mg"},{"bike_id":"ae86b06a-d10a-4242-ac49-73ab241fe5ec","system_id":"levelo_inurba_marseille","lat":43.309039,"lon":5.371797,"is_reserved":false,"is_disabled":false,"rental_uris":{"android":"levelo://app?vid=ae86b06a-d10a-4242-ac49-73ab241fe5ec","ios":"levelo://app?vid=ae86b06a-d10a-4242-ac49-73ab241fe5ec"},"vehicle_type_id":"4","last_reported":1720822037,"current_range_meters":22800,"station_id":"ce4bguh2rcd13ifvqckg","pricing_plan_id":"cebpf4jnsgd1na2vs0mg"},{"bike_id":"5bba8864-bed2-4d4a-a60b-54e0132b7d9c","system_id":"levelo_inurba_marseille","lat":43.30883,"lon":5.37188,"is_reserved":false,"is_disabled":false,"rental_uris":{"android":"levelo://app?vid=5bba8864-bed2-4d4a-a60b-54e0132b7d9c","ios":"levelo://app?vid=5bba8864-bed2-4d4a-a60b-54e0132b7d9c"},"vehicle_type_id":"4","last_reported":1720822037,"current_range_meters":1600,"station_id":"ce4bguh2rcd13ifvqckg","pricing_plan_id":"cebpf4jnsgd1na2vs0mg"},{"bike_id":"c60342b4-51c7-4702-b982-ac1172edfe8f","system_id":"levelo_inurba_marseille","lat":43.309039,"lon":5.371797,"is_reserved":false,"is_disabled":false,"rental_uris":{"android":"levelo://app?vid=c60342b4-51c7-4702-b982-ac1172edfe8f","ios":"levelo://app?vid=c60342b4-51c7-4702-b982-ac1172edfe8f"},"vehicle_type_id":"4","last_reported":1720822037,"current_range_meters":14000,"station_id":"ce4bguh2rcd13ifvqckg","pricing_plan_id":"cebpf4jnsgd1na2vs0mg"},{"bike_id":"e7bc8485-f392-4b43-b1da-b6795f9d6695","system_id":"levelo_inurba_marseille","lat":43.305714,"lon":5.365633,"is_reserved":false,"is_disabled":false,"rental_uris":{"android":"levelo://app?vid=e7bc8485-f392-4b43-b1da-b6795f9d6695","ios":"levelo://app?vid=e7bc8485-f392-4b43-b1da-b6795f9d6695"},"vehicle_type_id":"4","last_reported":1720822037,"current_range_meters":0,"station_id":"ce4bgs12rcd13ifvqcag","pricing_plan_id":"cebpf4jnsgd1na2vs0mg"},{"bike_id":"712a62d7-72fd-4c78-a48a-f8ca30b3a045","system_id":"levelo_inurba_marseille","lat":43.305989,"lon":5.37225,"is_reserved":false,"is_disabled":false,"rental_uris":{"android":"levelo://app?vid=712a62d7-72fd-4c78-a48a-f8ca30b3a045","ios":"levelo://app?vid=712a62d7-72fd-4c78-a48a-f8ca30b3a045"},"vehicle_type_id":"4","last_reported":1720822037,"current_range_meters":13600,"station_id":"ce4bgqh2rcd13ifvqc4g","pricing_plan_id":"cebpf4jnsgd1na2vs0mg"},{"bike_id":"ff930445-c7b3-4d25-9809-426b01c841c4","system_id":"levelo_inurba_marseille","lat":43.30686,"lon":5.37423,"is_reserved":false,"is_disabled":false,"rental_uris":{"android":"levelo://app?vid=ff930445-c7b3-4d25-9809-426b01c841c4","ios":"levelo://app?vid=ff930445-c7b3-4d25-9809-426b01c841c4"},"vehicle_type_id":"4","last_reported":1720822037,"current_range_meters":8800,"station_id":"","pricing_plan_id":"cebpf4jnsgd1na2vs0mg"},{"bike_id":"dff1392b-969e-4547-bdc6-cb959baa52be","system_id":"levelo_inurba_marseille","lat":43.311125,"lon":5.377624,"is_reserved":false,"is_disabled":false,"rental_uris":{"android":"levelo://app?vid=dff1392b-969e-4547-bdc6-cb959baa52be","ios":"levelo://app?vid=dff1392b-969e-4547-bdc6-cb959baa52be"},"vehicle_type_id":"4","last_reported":1720822037,"current_range_meters":22400,"station_id":"ce4bgt92rcd13ifvqcg0","pricing_plan_id":"cebpf4jnsgd1na2vs0mg"},{"bike_id":"9baa9745-3fd9-4ba9-b1bc-2d4cc324edf0","system_id":"levelo_inurba_marseille","lat":43.311125,"lon":5.377624,"is_reserved":false,"is_disabled":false,"rental_uris":{"android":"levelo://app?vid=9baa9745-3fd9-4ba9-b1bc-2d4cc324edf0","ios":"levelo://app?vid=9baa9745-3fd9-4ba9-b1bc-2d4cc324edf0"},"vehicle_type_id":"4","last_reported":1720822037,"current_range_meters":18800,"station_id":"ce4bgt92rcd13ifvqcg0","pricing_plan_id":"cebpf4jnsgd1na2vs0mg"},{"bike_id":"b1750662-5951-4ada-aa20-eba37a04eb37","system_id":"levelo_inurba_marseille","lat":43.311125,"lon":5.377624,"is_reserved":false,"is_disabled":false,"rental_uris":{"android":"levelo://app?vid=b1750662-5951-4ada-aa20-eba37a04eb37","ios":"levelo://app?vid=b1750662-5951-4ada-aa20-eba37a04eb37"},"vehicle_type_id":"4","last_reported":1720822037,"current_range_meters":30000,"station_id":"ce4bgt92rcd13ifvqcg0","pricing_plan_id":"cebpf4jnsgd1na2vs0mg"},{"bike_id":"68485782-1527-4331-9b3e-d939075c3658","system_id":"levelo_inurba_marseille","lat":43.311125,"lon":5.377624,"is_reserved":false,"is_disabled":false,"rental_uris":{"android":"levelo://app?vid=68485782-1527-4331-9b3e-d939075c3658","ios":"levelo://app?vid=68485782-1527-4331-9b3e-d939075c3658"},"vehicle_type_id":"4","last_reported":1720822037,"current_range_meters":24000,"station_id":"ce4bgt92rcd13ifvqcg0","pricing_plan_id":"cebpf4jnsgd1na2vs0mg"},{"bike_id":"d724e6ff-9d38-407e-b2b3-981dd7f99fe8","system_id":"levelo_inurba_marseille","lat":43.306516,"lon":5.374034,"is_reserved":false,"is_disabled":false,"rental_uris":{"android":"levelo://app?vid=d724e6ff-9d38-407e-b2b3-981dd7f99fe8","ios":"levelo://app?vid=d724e6ff-9d38-407e-b2b3-981dd7f99fe8"},"vehicle_type_id":"4","last_reported":1720822037,"current_range_meters":29200,"station_id":"","pricing_plan_id":"cebpf4jnsgd1na2vs0mg"},{"bike_id":"3d78960d-3873-4588-ad0d-575703e76cae","system_id":"levelo_inurba_marseille","lat":43.307945,"lon":5.376487,"is_reserved":false,"is_disabled":false,"rental_uris":{"android":"levelo://app?vid=3d78960d-3873-4588-ad0d-575703e76cae","ios":"levelo://app?vid=3d78960d-3873-4588-ad0d-575703e76cae"},"vehicle_type_id":"4","last_reported":1720822037,"current_range_meters":25200,"station_id":"ce4bgv92rcd13ifvqcq0","pricing_plan_id":"cebpf4jnsgd1na2vs0mg"},{"bike_id":"1a34e53c-4bbf-42fd-94f1-2acdad862b32","system_id":"levelo_inurba_marseille","lat":43.307945,"lon":5.376487,"is_reserved":false,"is_disabled":false,"rental_uris":{"android":"levelo://app?vid=1a34e53c-4bbf-42fd-94f1-2acdad862b32","ios":"levelo://app?vid=1a34e53c-4bbf-42fd-94f1-2acdad862b32"},"vehicle_type_id":"4","last_reported":1720822037,"current_range_meters":12000,"station_id":"ce4bgv92rcd13ifvqcq0","pricing_plan_id":"cebpf4jnsgd1na2vs0mg"},{"bike_id":"86e9b96a-210c-42e1-94f2-1d76cc393a09","system_id":"levelo_inurba_marseille","lat":43.305989,"lon":5.37225,"is_reserved":false,"is_disabled":false,"rental_uris":{"android":"levelo://app?vid=86e9b96a-210c-42e1-94f2-1d76cc393a09","ios":"levelo://app?vid=86e9b96a-210c-42e1-94f2-1d76cc393a09"},"vehicle_type_id":"4","last_reported":1720822037,"current_range_meters":26000,"station_id":"ce4bgqh2rcd13ifvqc4g","pricing_plan_id":"cebpf4jnsgd1na2vs0mg"},{"bike_id":"62207b5c-e5a3-4a86-80dd-27e32b14b032","system_id":"levelo_inurba_marseille","lat":43.317075,"lon":5.377367,"is_reserved":false,"is_disabled":false,"rental_uris":{"android":"levelo://app?vid=62207b5c-e5a3-4a86-80dd-27e32b14b032","ios":"levelo://app?vid=62207b5c-e5a3-4a86-80dd-27e32b14b032"},"vehicle_type_id":"4","last_reported":1720822037,"current_range_meters":16400,"station_id":"ce4bgth2rcd13ifvqch0","pricing_plan_id":"cebpf4jnsgd1na2vs0mg"},{"bike_id":"6caf57a1-9569-4486-8be9-3ed50c7372a7","system_id":"levelo_inurba_marseille","lat":43.317075,"lon":5.377367,"is_reserved":false,"is_disabled":false,"rental_uris":{"android":"levelo://app?vid=6caf57a1-9569-4486-8be9-3ed50c7372a7","ios":"levelo://app?vid=6caf57a1-9569-4486-8be9-3ed50c7372a7"},"vehicle_type_id":"4","last_reported":1720822037,"current_range_meters":26000,"station_id":"ce4bgth2rcd13ifvqch0","pricing_plan_id":"cebpf4jnsgd1na2vs0mg"},{"bike_id":"fe27bad0-7b0f-40e7-9ad5-8a02ad3be72e","system_id":"levelo_inurba_marseille","lat":43.317075,"lon":5.377367,"is_reserved":false,"is_disabled":false,"rental_uris":{"android":"levelo://app?vid=fe27bad0-7b0f-40e7-9ad5-8a02ad3be72e","ios":"levelo://app?vid=fe27bad0-7b0f-40e7-9ad5-8a02ad3be72e"},"vehicle_type_id":"4","last_reported":1720822037,"current_range_meters":20800,"station_id":"ce4bgth2rcd13ifvqch0","pricing_plan_id":"cebpf4jnsgd1na2vs0mg"},{"bike_id":"7b8ff767-47a1-4e4a-80e4-5ae660d341c3","system_id":"levelo_inurba_marseille","lat":43.317075,"lon":5.377367,"is_reserved":false,"is_disabled":false,"rental_uris":{"android":"levelo://app?vid=7b8ff767-47a1-4e4a-80e4-5ae660d341c3","ios":"levelo://app?vid=7b8ff767-47a1-4e4a-80e4-5ae660d341c3"},"vehicle_type_id":"4","last_reported":1720822037,"current_range_meters":2400,"station_id":"ce4bgth2rcd13ifvqch0","pricing_plan_id":"cebpf4jnsgd1na2vs0mg"},{"bike_id":"980d1937-f495-4926-8439-ebbe5ec90660","system_id":"levelo_inurba_marseille","lat":43.315289,"lon":5.380349,"is_reserved":false,"is_disabled":false,"rental_uris":{"android":"levelo://app?vid=980d1937-f495-4926-8439-ebbe5ec90660","ios":"levelo://app?vid=980d1937-f495-4926-8439-ebbe5ec90660"},"vehicle_type_id":"4","last_reported":1720822037,"current_range_meters":6800,"station_id":"ce4bhsp2rcd13ifvqi50","pricing_plan_id":"cebpf4jnsgd1na2vs0mg"},{"bike_id":"4ef029b9-091c-41f8-80d6-a50204720fcf","system_id":"levelo_inurba_marseille","lat":43.315289,"lon":5.380349,"is_reserved":false,"is_disabled":false,"rental_uris":{"android":"levelo://app?vid=4ef029b9-091c-41f8-80d6-a50204720fcf","ios":"levelo://app?vid=4ef029b9-091c-41f8-80d6-a50204720fcf"},"vehicle_type_id":"4","last_reported":1720822037,"current_range_meters":9600,"station_id":"ce4bhsp2rcd13ifvqi50","pricing_plan_id":"cebpf4jnsgd1na2vs0mg"},{"bike_id":"2b4da476-2e26-40be-9aee-5dbf144bd864","system_id":"levelo_inurba_marseille","lat":43.31003,"lon":5.38053,"is_reserved":false,"is_disabled":false,"rental_uris":{"android":"levelo://app?vid=2b4da476-2e26-40be-9aee-5dbf144bd864","ios":"levelo://app?vid=2b4da476-2e26-40be-9aee-5dbf144bd864"},"vehicle_type_id":"4","last_reported":1720822037,"current_range_meters":11200,"station_id":"","pricing_plan_id":"cebpf4jnsgd1na2vs0mg"},{"bike_id":"1e52581d-6e84-4c92-8aa6-bf2801ea765a","system_id":"levelo_inurba_marseille","lat":43.301939,"lon":5.366286,"is_reserved":false,"is_disabled":false,"rental_uris":{"android":"levelo://app?vid=1e52581d-6e84-4c92-8aa6-bf2801ea765a","ios":"levelo://app?vid=1e52581d-6e84-4c92-8aa6-bf2801ea765a"},"vehicle_type_id":"4","last_reported":1720822037,"current_range_meters":11200,"station_id":"ce4bgrh2rcd13ifvqc8g","pricing_plan_id":"cebpf4jnsgd1na2vs0mg"},{"bike_id":"a47285e7-2616-4dee-abb3-999bd832caf8","system_id":"levelo_inurba_marseille","lat":43.3017,"lon":5.36824,"is_reserved":false,"is_disabled":false,"rental_uris":{"android":"levelo://app?vid=a47285e7-2616-4dee-abb3-999bd832caf8","ios":"levelo://app?vid=a47285e7-2616-4dee-abb3-999bd832caf8"},"vehicle_type_id":"4","last_reported":1720822037,"current_range_meters":12800,"station_id":"","pricing_plan_id":"cebpf4jnsgd1na2vs0mg"},{"bike_id":"54078337-8d14-42b0-a21d-6a1e7c4a867d","system_id":"levelo_inurba_marseille","lat":43.308012,"lon":5.381511,"is_reserved":false,"is_disabled":false,"rental_uris":{"android":"levelo://app?vid=54078337-8d14-42b0-a21d-6a1e7c4a867d","ios":"levelo://app?vid=54078337-8d14-42b0-a21d-6a1e7c4a867d"},"vehicle_type_id":"4","last_reported":1720822037,"current_range_meters":22000,"station_id":"ce4bgt12rcd13ifvqce0","pricing_plan_id":"cebpf4jnsgd1na2vs0mg"},{"bike_id":"d0e26a6f-1a9a-4a8a-b9f3-60c28df43169","system_id":"levelo_inurba_marseille","lat":43.308012,"lon":5.381511,"is_reserved":false,"is_disabled":false,"rental_uris":{"android":"levelo://app?vid=d0e26a6f-1a9a-4a8a-b9f3-60c28df43169","ios":"levelo://app?vid=d0e26a6f-1a9a-4a8a-b9f3-60c28df43169"},"vehicle_type_id":"4","last_reported":1720822037,"current_range_meters":0,"station_id":"ce4bgt12rcd13ifvqce0","pricing_plan_id":"cebpf4jnsgd1na2vs0mg"},{"bike_id":"c9805e51-5931-4bbe-b67e-158b040b5e4b","system_id":"levelo_inurba_marseille","lat":43.308012,"lon":5.381511,"is_reserved":false,"is_disabled":false,"rental_uris":{"android":"levelo://app?vid=c9805e51-5931-4bbe-b67e-158b040b5e4b","ios":"levelo://app?vid=c9805e51-5931-4bbe-b67e-158b040b5e4b"},"vehicle_type_id":"4","last_reported":1720822037,"current_range_meters":28400,"station_id":"ce4bgt12rcd13ifvqce0","pricing_plan_id":"cebpf4jnsgd1na2vs0mg"},{"bike_id":"6be8462a-d286-44ef-89e4-09be4b3f81cb","system_id":"levelo_inurba_marseille","lat":43.308012,"lon":5.381511,"is_reserved":false,"is_disabled":false,"rental_uris":{"android":"levelo://app?vid=6be8462a-d286-44ef-89e4-09be4b3f81cb","ios":"levelo://app?vid=6be8462a-d286-44ef-89e4-09be4b3f81cb"},"vehicle_type_id":"4","last_reported":1720822037,"current_range_meters":17200,"station_id":"ce4bgt12rcd13ifvqce0","pricing_plan_id":"cebpf4jnsgd1na2vs0mg"},{"bike_id":"2c79445e-1099-4120-bb34-ea1ffeffb86e","system_id":"levelo_inurba_marseille","lat":43.304606,"lon":5.379026,"is_reserved":false,"is_disabled":false,"rental_uris":{"android":"levelo://app?vid=2c79445e-1099-4120-bb34-ea1ffeffb86e","ios":"levelo://app?vid=2c79445e-1099-4120-bb34-ea1ffeffb86e"},"vehicle_type_id":"4","last_reported":1720822037,"current_range_meters":3200,"station_id":"ce4bgup2rcd13ifvqcn0","pricing_plan_id":"cebpf4jnsgd1na2vs0mg"},{"bike_id":"ab457348-91bd-4b87-8478-5213753749bb","system_id":"levelo_inurba_marseille","lat":43.304606,"lon":5.379026,"is_reserved":false,"is_disabled":false,"rental_uris":{"android":"levelo://app?vid=ab457348-91bd-4b87-8478-5213753749bb","ios":"levelo://app?vid=ab457348-91bd-4b87-8478-5213753749bb"},"vehicle_type_id":"4","last_reported":1720822037,"current_range_meters":16800,"station_id":"ce4bgup2rcd13ifvqcn0","pricing_plan_id":"cebpf4jnsgd1na2vs0mg"},{"bike_id":"ab2249cd-5f7b-4452-8db9-8b1fecafdb69","system_id":"levelo_inurba_marseille","lat":43.304606,"lon":5.379026,"is_reserved":false,"is_disabled":false,"rental_uris":{"android":"levelo://app?vid=ab2249cd-5f7b-4452-8db9-8b1fecafdb69","ios":"levelo://app?vid=ab2249cd-5f7b-4452-8db9-8b1fecafdb69"},"vehicle_type_id":"4","last_reported":1720822037,"current_range_meters":23600,"station_id":"ce4bgup2rcd13ifvqcn0","pricing_plan_id":"cebpf4jnsgd1na2vs0mg"},{"bike_id":"92181b16-064f-426b-8f1a-253ce375f839","system_id":"levelo_inurba_marseille","lat":43.304606,"lon":5.379026,"is_reserved":false,"is_disabled":false,"rental_uris":{"android":"levelo://app?vid=92181b16-064f-426b-8f1a-253ce375f839","ios":"levelo://app?vid=92181b16-064f-426b-8f1a-253ce375f839"},"vehicle_type_id":"4","last_reported":1720822037,"current_range_meters":21200,"station_id":"ce4bgup2rcd13ifvqcn0","pricing_plan_id":"cebpf4jnsgd1na2vs0mg"},{"bike_id":"c67a052d-227f-41fa-acab-360ee750cd1d","system_id":"levelo_inurba_marseille","lat":43.304606,"lon":5.379026,"is_reserved":false,"is_disabled":false,"rental_uris":{"android":"levelo://app?vid=c67a052d-227f-41fa-acab-360ee750cd1d","ios":"levelo://app?vid=c67a052d-227f-41fa-acab-360ee750cd1d"},"vehicle_type_id":"4","last_reported":1720822037,"current_range_meters":18400,"station_id":"ce4bgup2rcd13ifvqcn0","pricing_plan_id":"cebpf4jnsgd1na2vs0mg"},{"bike_id":"76fb8869-0736-4116-a353-e0fd2e15798f","system_id":"levelo_inurba_marseille","lat":43.304606,"lon":5.379026,"is_reserved":false,"is_disabled":false,"rental_uris":{"android":"levelo://app?vid=76fb8869-0736-4116-a353-e0fd2e15798f","ios":"levelo://app?vid=76fb8869-0736-4116-a353-e0fd2e15798f"},"vehicle_type_id":"4","last_reported":1720822037,"current_range_meters":20000,"station_id":"ce4bgup2rcd13ifvqcn0","pricing_plan_id":"cebpf4jnsgd1na2vs0mg"},{"bike_id":"81d4b8cf-ff44-4cd0-b2d7-cb7ff1043975","system_id":"levelo_inurba_marseille","lat":43.304606,"lon":5.379026,"is_reserved":false,"is_disabled":false,"rental_uris":{"android":"levelo://app?vid=81d4b8cf-ff44-4cd0-b2d7-cb7ff1043975","ios":"levelo://app?vid=81d4b8cf-ff44-4cd0-b2d7-cb7ff1043975"},"vehicle_type_id":"4","last_reported":1720822037,"current_range_meters":13600,"station_id":"ce4bgup2rcd13ifvqcn0","pricing_plan_id":"cebpf4jnsgd1na2vs0mg"},{"bike_id":"538460e9-ac90-4638-bc2e-6e5fcf1705cc","system_id":"levelo_inurba_marseille","lat":43.304606,"lon":5.379026,"is_reserved":false,"is_disabled":false,"rental_uris":{"android":"levelo://app?vid=538460e9-ac90-4638-bc2e-6e5fcf1705cc","ios":"levelo://app?vid=538460e9-ac90-4638-bc2e-6e5fcf1705cc"},"vehicle_type_id":"4","last_reported":1720822037,"current_range_meters":13200,"station_id":"ce4bgup2rcd13ifvqcn0","pricing_plan_id":"cebpf4jnsgd1na2vs0mg"},{"bike_id":"cef96278-59e3-4a9e-8c24-3a7b6b1a00c5","system_id":"levelo_inurba_marseille","lat":43.304606,"lon":5.379026,"is_reserved":false,"is_disabled":false,"rental_uris":{"android":"levelo://app?vid=cef96278-59e3-4a9e-8c24-3a7b6b1a00c5","ios":"levelo://app?vid=cef96278-59e3-4a9e-8c24-3a7b6b1a00c5"},"vehicle_type_id":"4","last_reported":1720822037,"current_range_meters":22000,"station_id":"ce4bgup2rcd13ifvqcn0","pricing_plan_id":"cebpf4jnsgd1na2vs0mg"},{"bike_id":"bb95c8d8-ba6d-4f9d-8661-c99f552846f4","system_id":"levelo_inurba_marseille","lat":43.32474,"lon":5.36566,"is_reserved":false,"is_disabled":false,"rental_uris":{"android":"levelo://app?vid=bb95c8d8-ba6d-4f9d-8661-c99f552846f4","ios":"levelo://app?vid=bb95c8d8-ba6d-4f9d-8661-c99f552846f4"},"vehicle_type_id":"4","last_reported":1720822037,"current_range_meters":30400,"station_id":"ce4bhs12rcd13ifvqhvg","pricing_plan_id":"cebpf4jnsgd1na2vs0mg"},{"bike_id":"845b308a-ca15-4af5-8f22-b137ac57faad","system_id":"levelo_inurba_marseille","lat":43.304606,"lon":5.379026,"is_reserved":false,"is_disabled":false,"rental_uris":{"android":"levelo://app?vid=845b308a-ca15-4af5-8f22-b137ac57faad","ios":"levelo://app?vid=845b308a-ca15-4af5-8f22-b137ac57faad"},"vehicle_type_id":"4","last_reported":1720822037,"current_range_meters":12000,"station_id":"ce4bgup2rcd13ifvqcn0","pricing_plan_id":"cebpf4jnsgd1na2vs0mg"},{"bike_id":"9c945801-01ce-4536-bdfe-6a6a2e5057ef","system_id":"levelo_inurba_marseille","lat":43.304606,"lon":5.379026,"is_reserved":false,"is_disabled":false,"rental_uris":{"android":"levelo://app?vid=9c945801-01ce-4536-bdfe-6a6a2e5057ef","ios":"levelo://app?vid=9c945801-01ce-4536-bdfe-6a6a2e5057ef"},"vehicle_type_id":"4","last_reported":1720822037,"current_range_meters":5600,"station_id":"ce4bgup2rcd13ifvqcn0","pricing_plan_id":"cebpf4jnsgd1na2vs0mg"},{"bike_id":"fa8aacf6-b0f1-437e-a948-88c5c8a77fed","system_id":"levelo_inurba_marseille","lat":43.324771,"lon":5.36557,"is_reserved":false,"is_disabled":false,"rental_uris":{"android":"levelo://app?vid=fa8aacf6-b0f1-437e-a948-88c5c8a77fed","ios":"levelo://app?vid=fa8aacf6-b0f1-437e-a948-88c5c8a77fed"},"vehicle_type_id":"4","last_reported":1720822037,"current_range_meters":18400,"station_id":"ce4bhs12rcd13ifvqhvg","pricing_plan_id":"cebpf4jnsgd1na2vs0mg"},{"bike_id":"81086735-f153-4daa-883e-468fe9f98951","system_id":"levelo_inurba_marseille","lat":43.324771,"lon":5.36557,"is_reserved":false,"is_disabled":false,"rental_uris":{"android":"levelo://app?vid=81086735-f153-4daa-883e-468fe9f98951","ios":"levelo://app?vid=81086735-f153-4daa-883e-468fe9f98951"},"vehicle_type_id":"4","last_reported":1720822037,"current_range_meters":6400,"station_id":"ce4bhs12rcd13ifvqhvg","pricing_plan_id":"cebpf4jnsgd1na2vs0mg"},{"bike_id":"2552e0d5-838e-4ff9-8772-70adc00a90a2","system_id":"levelo_inurba_marseille","lat":43.324771,"lon":5.36557,"is_reserved":false,"is_disabled":false,"rental_uris":{"android":"levelo://app?vid=2552e0d5-838e-4ff9-8772-70adc00a90a2","ios":"levelo://app?vid=2552e0d5-838e-4ff9-8772-70adc00a90a2"},"vehicle_type_id":"4","last_reported":1720822037,"current_range_meters":31200,"station_id":"ce4bhs12rcd13ifvqhvg","pricing_plan_id":"cebpf4jnsgd1na2vs0mg"},{"bike_id":"21252025-cf9c-4852-ab78-01d2cbced8b0","system_id":"levelo_inurba_marseille","lat":43.324771,"lon":5.36557,"is_reserved":false,"is_disabled":false,"rental_uris":{"android":"levelo://app?vid=21252025-cf9c-4852-ab78-01d2cbced8b0","ios":"levelo://app?vid=21252025-cf9c-4852-ab78-01d2cbced8b0"},"vehicle_type_id":"4","last_reported":1720822037,"current_range_meters":30800,"station_id":"ce4bhs12rcd13ifvqhvg","pricing_plan_id":"cebpf4jnsgd1na2vs0mg"},{"bike_id":"8cef89db-5f5e-49ee-9ae1-a8cf17c4a2ad","system_id":"levelo_inurba_marseille","lat":43.324771,"lon":5.36557,"is_reserved":false,"is_disabled":false,"rental_uris":{"android":"levelo://app?vid=8cef89db-5f5e-49ee-9ae1-a8cf17c4a2ad","ios":"levelo://app?vid=8cef89db-5f5e-49ee-9ae1-a8cf17c4a2ad"},"vehicle_type_id":"4","last_reported":1720822037,"current_range_meters":4000,"station_id":"ce4bhs12rcd13ifvqhvg","pricing_plan_id":"cebpf4jnsgd1na2vs0mg"},{"bike_id":"ea9427d3-3844-4ab0-8397-5150365c96a8","system_id":"levelo_inurba_marseille","lat":43.324771,"lon":5.36557,"is_reserved":false,"is_disabled":false,"rental_uris":{"android":"levelo://app?vid=ea9427d3-3844-4ab0-8397-5150365c96a8","ios":"levelo://app?vid=ea9427d3-3844-4ab0-8397-5150365c96a8"},"vehicle_type_id":"4","last_reported":1720822037,"current_range_meters":23200,"station_id":"ce4bhs12rcd13ifvqhvg","pricing_plan_id":"cebpf4jnsgd1na2vs0mg"},{"bike_id":"ce3fc0c9-e0e2-499e-b03d-c6979aec24c7","system_id":"levelo_inurba_marseille","lat":43.31066,"lon":5.38338,"is_reserved":false,"is_disabled":false,"rental_uris":{"android":"levelo://app?vid=ce3fc0c9-e0e2-499e-b03d-c6979aec24c7","ios":"levelo://app?vid=ce3fc0c9-e0e2-499e-b03d-c6979aec24c7"},"vehicle_type_id":"4","last_reported":1720822037,"current_range_meters":31200,"station_id":"ce4bgv92rcd13ifvqcr0","pricing_plan_id":"cebpf4jnsgd1na2vs0mg"},{"bike_id":"b21f63c7-d8bf-45c9-97eb-cee0dc5a5636","system_id":"levelo_inurba_marseille","lat":43.324771,"lon":5.36557,"is_reserved":false,"is_disabled":false,"rental_uris":{"android":"levelo://app?vid=b21f63c7-d8bf-45c9-97eb-cee0dc5a5636","ios":"levelo://app?vid=b21f63c7-d8bf-45c9-97eb-cee0dc5a5636"},"vehicle_type_id":"4","last_reported":1720822037,"current_range_meters":25200,"station_id":"ce4bhs12rcd13ifvqhvg","pricing_plan_id":"cebpf4jnsgd1na2vs0mg"},{"bike_id":"27d3119d-00da-4b62-8b82-042e5eee28f1","system_id":"levelo_inurba_marseille","lat":43.31076,"lon":5.3835,"is_reserved":false,"is_disabled":false,"rental_uris":{"android":"levelo://app?vid=27d3119d-00da-4b62-8b82-042e5eee28f1","ios":"levelo://app?vid=27d3119d-00da-4b62-8b82-042e5eee28f1"},"vehicle_type_id":"4","last_reported":1720822037,"current_range_meters":31200,"station_id":"ce4bgv92rcd13ifvqcr0","pricing_plan_id":"cebpf4jnsgd1na2vs0mg"},{"bike_id":"9aa16aa7-2e86-42c1-b194-47bc017fbe6e","system_id":"levelo_inurba_marseille","lat":43.310804,"lon":5.38359,"is_reserved":false,"is_disabled":false,"rental_uris":{"android":"levelo://app?vid=9aa16aa7-2e86-42c1-b194-47bc017fbe6e","ios":"levelo://app?vid=9aa16aa7-2e86-42c1-b194-47bc017fbe6e"},"vehicle_type_id":"4","last_reported":1720822037,"current_range_meters":24400,"station_id":"ce4bgv92rcd13ifvqcr0","pricing_plan_id":"cebpf4jnsgd1na2vs0mg"},{"bike_id":"424ca4d3-5a11-4656-acf1-342b1dd476dd","system_id":"levelo_inurba_marseille","lat":43.310804,"lon":5.38359,"is_reserved":false,"is_disabled":false,"rental_uris":{"android":"levelo://app?vid=424ca4d3-5a11-4656-acf1-342b1dd476dd","ios":"levelo://app?vid=424ca4d3-5a11-4656-acf1-342b1dd476dd"},"vehicle_type_id":"4","last_reported":1720822037,"current_range_meters":25600,"station_id":"ce4bgv92rcd13ifvqcr0","pricing_plan_id":"cebpf4jnsgd1na2vs0mg"},{"bike_id":"716d3bdf-7cea-41bb-ae56-8e344f585a12","system_id":"levelo_inurba_marseille","lat":43.310804,"lon":5.38359,"is_reserved":false,"is_disabled":false,"rental_uris":{"android":"levelo://app?vid=716d3bdf-7cea-41bb-ae56-8e344f585a12","ios":"levelo://app?vid=716d3bdf-7cea-41bb-ae56-8e344f585a12"},"vehicle_type_id":"4","last_reported":1720822037,"current_range_meters":20800,"station_id":"ce4bgv92rcd13ifvqcr0","pricing_plan_id":"cebpf4jnsgd1na2vs0mg"},{"bike_id":"de9f5f42-36da-4842-afa5-08d3d72e3987","system_id":"levelo_inurba_marseille","lat":43.310804,"lon":5.38359,"is_reserved":false,"is_disabled":false,"rental_uris":{"android":"levelo://app?vid=de9f5f42-36da-4842-afa5-08d3d72e3987","ios":"levelo://app?vid=de9f5f42-36da-4842-afa5-08d3d72e3987"},"vehicle_type_id":"4","last_reported":1720822037,"current_range_meters":24800,"station_id":"ce4bgv92rcd13ifvqcr0","pricing_plan_id":"cebpf4jnsgd1na2vs0mg"},{"bike_id":"9c24ff91-3872-4546-8e71-58d722402785","system_id":"levelo_inurba_marseille","lat":43.310804,"lon":5.38359,"is_reserved":false,"is_disabled":false,"rental_uris":{"android":"levelo://app?vid=9c24ff91-3872-4546-8e71-58d722402785","ios":"levelo://app?vid=9c24ff91-3872-4546-8e71-58d722402785"},"vehicle_type_id":"4","last_reported":1720822037,"current_range_meters":9600,"station_id":"ce4bgv92rcd13ifvqcr0","pricing_plan_id":"cebpf4jnsgd1na2vs0mg"},{"bike_id":"bd1fe651-ba22-46dc-865e-c3959ac46372","system_id":"levelo_inurba_marseille","lat":43.30787,"lon":5.38262,"is_reserved":false,"is_disabled":false,"rental_uris":{"android":"levelo://app?vid=bd1fe651-ba22-46dc-865e-c3959ac46372","ios":"levelo://app?vid=bd1fe651-ba22-46dc-865e-c3959ac46372"},"vehicle_type_id":"4","last_reported":1720822037,"current_range_meters":24800,"station_id":"","pricing_plan_id":"cebpf4jnsgd1na2vs0mg"},{"bike_id":"4b63609b-758f-4d70-a4f5-ecfaad39bd0b","system_id":"levelo_inurba_marseille","lat":43.301429,"lon":5.37413,"is_reserved":false,"is_disabled":false,"rental_uris":{"android":"levelo://app?vid=4b63609b-758f-4d70-a4f5-ecfaad39bd0b","ios":"levelo://app?vid=4b63609b-758f-4d70-a4f5-ecfaad39bd0b"},"vehicle_type_id":"4","last_reported":1720822037,"current_range_meters":2400,"station_id":"ce4bgs92rcd13ifvqcc0","pricing_plan_id":"cebpf4jnsgd1na2vs0mg"},{"bike_id":"37d09ba5-d7e4-4ee6-b7d3-b7f788776ef7","system_id":"levelo_inurba_marseille","lat":43.31992,"lon":5.38153,"is_reserved":false,"is_disabled":false,"rental_uris":{"android":"levelo://app?vid=37d09ba5-d7e4-4ee6-b7d3-b7f788776ef7","ios":"levelo://app?vid=37d09ba5-d7e4-4ee6-b7d3-b7f788776ef7"},"vehicle_type_id":"4","last_reported":1720822037,"current_range_meters":25200,"station_id":"ce4bhr12rcd13ifvqhpg","pricing_plan_id":"cebpf4jnsgd1na2vs0mg"},{"bike_id":"d79663e1-2e50-4ae5-985a-b8a1ffad9aaf","system_id":"levelo_inurba_marseille","lat":43.30578,"lon":5.3818,"is_reserved":false,"is_disabled":false,"rental_uris":{"android":"levelo://app?vid=d79663e1-2e50-4ae5-985a-b8a1ffad9aaf","ios":"levelo://app?vid=d79663e1-2e50-4ae5-985a-b8a1ffad9aaf"},"vehicle_type_id":"4","last_reported":1720822037,"current_range_meters":16800,"station_id":"","pricing_plan_id":"cebpf4jnsgd1na2vs0mg"},{"bike_id":"28bebbb9-d568-486f-9a19-78b10106b4ab","system_id":"levelo_inurba_marseille","lat":43.32006,"lon":5.38166,"is_reserved":false,"is_disabled":false,"rental_uris":{"android":"levelo://app?vid=28bebbb9-d568-486f-9a19-78b10106b4ab","ios":"levelo://app?vid=28bebbb9-d568-486f-9a19-78b10106b4ab"},"vehicle_type_id":"4","last_reported":1720822037,"current_range_meters":25600,"station_id":"ce4bhr12rcd13ifvqhpg","pricing_plan_id":"cebpf4jnsgd1na2vs0mg"},{"bike_id":"ffc6fb09-aa36-49a2-9ff0-2bc01ed20cc8","system_id":"levelo_inurba_marseille","lat":43.313571,"lon":5.384829,"is_reserved":false,"is_disabled":false,"rental_uris":{"android":"levelo://app?vid=ffc6fb09-aa36-49a2-9ff0-2bc01ed20cc8","ios":"levelo://app?vid=ffc6fb09-aa36-49a2-9ff0-2bc01ed20cc8"},"vehicle_type_id":"4","last_reported":1720822037,"current_range_meters":32000,"station_id":"ce4bgt92rcd13ifvqcf0","pricing_plan_id":"cebpf4jnsgd1na2vs0mg"},{"bike_id":"41761f60-ae62-4bea-99e4-06d5a840916f","system_id":"levelo_inurba_marseille","lat":43.313571,"lon":5.384829,"is_reserved":false,"is_disabled":false,"rental_uris":{"android":"levelo://app?vid=41761f60-ae62-4bea-99e4-06d5a840916f","ios":"levelo://app?vid=41761f60-ae62-4bea-99e4-06d5a840916f"},"vehicle_type_id":"4","last_reported":1720822037,"current_range_meters":32000,"station_id":"ce4bgt92rcd13ifvqcf0","pricing_plan_id":"cebpf4jnsgd1na2vs0mg"},{"bike_id":"6811fe15-1d4c-4b61-9425-2a55d54461f9","system_id":"levelo_inurba_marseille","lat":43.313571,"lon":5.384829,"is_reserved":false,"is_disabled":false,"rental_uris":{"android":"levelo://app?vid=6811fe15-1d4c-4b61-9425-2a55d54461f9","ios":"levelo://app?vid=6811fe15-1d4c-4b61-9425-2a55d54461f9"},"vehicle_type_id":"4","last_reported":1720822037,"current_range_meters":2800,"station_id":"ce4bgt92rcd13ifvqcf0","pricing_plan_id":"cebpf4jnsgd1na2vs0mg"},{"bike_id":"63c7920b-e038-4005-94d9-5b067ac564a6","system_id":"levelo_inurba_marseille","lat":43.313571,"lon":5.384829,"is_reserved":false,"is_disabled":false,"rental_uris":{"android":"levelo://app?vid=63c7920b-e038-4005-94d9-5b067ac564a6","ios":"levelo://app?vid=63c7920b-e038-4005-94d9-5b067ac564a6"},"vehicle_type_id":"4","last_reported":1720822037,"current_range_meters":8000,"station_id":"ce4bgt92rcd13ifvqcf0","pricing_plan_id":"cebpf4jnsgd1na2vs0mg"},{"bike_id":"bd5f9000-1e8b-4d15-b7d3-c5b6c8035361","system_id":"levelo_inurba_marseille","lat":43.313625,"lon":5.38494,"is_reserved":false,"is_disabled":false,"rental_uris":{"android":"levelo://app?vid=bd5f9000-1e8b-4d15-b7d3-c5b6c8035361","ios":"levelo://app?vid=bd5f9000-1e8b-4d15-b7d3-c5b6c8035361"},"vehicle_type_id":"4","last_reported":1720822037,"current_range_meters":21600,"station_id":"ce4bgt92rcd13ifvqcf0","pricing_plan_id":"cebpf4jnsgd1na2vs0mg"},{"bike_id":"0392ff5a-d4af-47e3-9953-110f985c3496","system_id":"levelo_inurba_marseille","lat":43.313571,"lon":5.384829,"is_reserved":false,"is_disabled":false,"rental_uris":{"android":"levelo://app?vid=0392ff5a-d4af-47e3-9953-110f985c3496","ios":"levelo://app?vid=0392ff5a-d4af-47e3-9953-110f985c3496"},"vehicle_type_id":"4","last_reported":1720822037,"current_range_meters":14800,"station_id":"ce4bgt92rcd13ifvqcf0","pricing_plan_id":"cebpf4jnsgd1na2vs0mg"},{"bike_id":"2330ca18-c8b9-4a07-86d4-fb1d5e6f5aec","system_id":"levelo_inurba_marseille","lat":43.313571,"lon":5.384829,"is_reserved":false,"is_disabled":false,"rental_uris":{"android":"levelo://app?vid=2330ca18-c8b9-4a07-86d4-fb1d5e6f5aec","ios":"levelo://app?vid=2330ca18-c8b9-4a07-86d4-fb1d5e6f5aec"},"vehicle_type_id":"4","last_reported":1720822037,"current_range_meters":31200,"station_id":"ce4bgt92rcd13ifvqcf0","pricing_plan_id":"cebpf4jnsgd1na2vs0mg"},{"bike_id":"85eb078c-5255-4514-b114-3c3ce70cf338","system_id":"levelo_inurba_marseille","lat":43.313571,"lon":5.384829,"is_reserved":false,"is_disabled":false,"rental_uris":{"android":"levelo://app?vid=85eb078c-5255-4514-b114-3c3ce70cf338","ios":"levelo://app?vid=85eb078c-5255-4514-b114-3c3ce70cf338"},"vehicle_type_id":"4","last_reported":1720822037,"current_range_meters":32000,"station_id":"ce4bgt92rcd13ifvqcf0","pricing_plan_id":"cebpf4jnsgd1na2vs0mg"},{"bike_id":"7db3e7e8-fcea-4a83-9b83-d35a52212745","system_id":"levelo_inurba_marseille","lat":43.29983,"lon":5.37178,"is_reserved":false,"is_disabled":false,"rental_uris":{"android":"levelo://app?vid=7db3e7e8-fcea-4a83-9b83-d35a52212745","ios":"levelo://app?vid=7db3e7e8-fcea-4a83-9b83-d35a52212745"},"vehicle_type_id":"4","last_reported":1720822037,"current_range_meters":0,"station_id":"ce4bgr92rcd13ifvqc7g","pricing_plan_id":"cebpf4jnsgd1na2vs0mg"},{"bike_id":"fe5af85e-71fb-4866-9cff-72b505cf37ed","system_id":"levelo_inurba_marseille","lat":43.29981,"lon":5.37181,"is_reserved":false,"is_disabled":false,"rental_uris":{"android":"levelo://app?vid=fe5af85e-71fb-4866-9cff-72b505cf37ed","ios":"levelo://app?vid=fe5af85e-71fb-4866-9cff-72b505cf37ed"},"vehicle_type_id":"4","last_reported":1720822037,"current_range_meters":1200,"station_id":"ce4bgr92rcd13ifvqc7g","pricing_plan_id":"cebpf4jnsgd1na2vs0mg"},{"bike_id":"c309e1da-aa3b-486e-9232-82d027b734cf","system_id":"levelo_inurba_marseille","lat":43.29848,"lon":5.364737,"is_reserved":false,"is_disabled":false,"rental_uris":{"android":"levelo://app?vid=c309e1da-aa3b-486e-9232-82d027b734cf","ios":"levelo://app?vid=c309e1da-aa3b-486e-9232-82d027b734cf"},"vehicle_type_id":"4","last_reported":1720822037,"current_range_meters":14400,"station_id":"","pricing_plan_id":"cebpf4jnsgd1na2vs0mg"},{"bike_id":"aeaef48e-5333-4329-b67e-7485872077f0","system_id":"levelo_inurba_marseille","lat":43.298433,"lon":5.362774,"is_reserved":false,"is_disabled":false,"rental_uris":{"android":"levelo://app?vid=aeaef48e-5333-4329-b67e-7485872077f0","ios":"levelo://app?vid=aeaef48e-5333-4329-b67e-7485872077f0"},"vehicle_type_id":"4","last_reported":1720822037,"current_range_meters":26000,"station_id":"ce4bgpp2rcd13ifvqc3g","pricing_plan_id":"cebpf4jnsgd1na2vs0mg"},{"bike_id":"5d3922ed-f18f-4a38-868f-1c4d33d67246","system_id":"levelo_inurba_marseille","lat":43.305427,"lon":5.384317,"is_reserved":false,"is_disabled":false,"rental_uris":{"android":"levelo://app?vid=5d3922ed-f18f-4a38-868f-1c4d33d67246","ios":"levelo://app?vid=5d3922ed-f18f-4a38-868f-1c4d33d67246"},"vehicle_type_id":"4","last_reported":1720822037,"current_range_meters":31200,"station_id":"ce4bgg92rcd13ifvqb30","pricing_plan_id":"cebpf4jnsgd1na2vs0mg"},{"bike_id":"463af3e5-a22e-4850-937e-36aa51e62dee","system_id":"levelo_inurba_marseille","lat":43.298433,"lon":5.362774,"is_reserved":false,"is_disabled":false,"rental_uris":{"android":"levelo://app?vid=463af3e5-a22e-4850-937e-36aa51e62dee","ios":"levelo://app?vid=463af3e5-a22e-4850-937e-36aa51e62dee"},"vehicle_type_id":"4","last_reported":1720822037,"current_range_meters":5200,"station_id":"ce4bgpp2rcd13ifvqc3g","pricing_plan_id":"cebpf4jnsgd1na2vs0mg"},{"bike_id":"1e1b4323-e8b7-4340-a5cb-c0617891e972","system_id":"levelo_inurba_marseille","lat":43.299243,"lon":5.37481,"is_reserved":false,"is_disabled":false,"rental_uris":{"android":"levelo://app?vid=1e1b4323-e8b7-4340-a5cb-c0617891e972","ios":"levelo://app?vid=1e1b4323-e8b7-4340-a5cb-c0617891e972"},"vehicle_type_id":"4","last_reported":1720822037,"current_range_meters":17200,"station_id":"ce4bgjh2rcd13ifvqbg0","pricing_plan_id":"cebpf4jnsgd1na2vs0mg"},{"bike_id":"faa37590-2526-40a9-ace9-3ea0824ca75c","system_id":"levelo_inurba_marseille","lat":43.299243,"lon":5.374807,"is_reserved":false,"is_disabled":false,"rental_uris":{"android":"levelo://app?vid=faa37590-2526-40a9-ace9-3ea0824ca75c","ios":"levelo://app?vid=faa37590-2526-40a9-ace9-3ea0824ca75c"},"vehicle_type_id":"4","last_reported":1720822037,"current_range_meters":18800,"station_id":"ce4bgjh2rcd13ifvqbg0","pricing_plan_id":"cebpf4jnsgd1na2vs0mg"},{"bike_id":"7956605a-cb4a-4273-9711-6b4c214f8b56","system_id":"levelo_inurba_marseille","lat":43.311697,"lon":5.38714,"is_reserved":false,"is_disabled":false,"rental_uris":{"android":"levelo://app?vid=7956605a-cb4a-4273-9711-6b4c214f8b56","ios":"levelo://app?vid=7956605a-cb4a-4273-9711-6b4c214f8b56"},"vehicle_type_id":"4","last_reported":1720822037,"current_range_meters":3200,"station_id":"ce4bgv12rcd13ifvqcp0","pricing_plan_id":"cebpf4jnsgd1na2vs0mg"},{"bike_id":"9c9653b0-6adc-4da6-96f3-6074900a3195","system_id":"levelo_inurba_marseille","lat":43.299243,"lon":5.37481,"is_reserved":false,"is_disabled":false,"rental_uris":{"android":"levelo://app?vid=9c9653b0-6adc-4da6-96f3-6074900a3195","ios":"levelo://app?vid=9c9653b0-6adc-4da6-96f3-6074900a3195"},"vehicle_type_id":"4","last_reported":1720822037,"current_range_meters":14800,"station_id":"ce4bgjh2rcd13ifvqbg0","pricing_plan_id":"cebpf4jnsgd1na2vs0mg"},{"bike_id":"489da037-f6fc-49f6-b683-ee9e80e5fe0e","system_id":"levelo_inurba_marseille","lat":43.297163,"lon":5.365866,"is_reserved":false,"is_disabled":false,"rental_uris":{"android":"levelo://app?vid=489da037-f6fc-49f6-b683-ee9e80e5fe0e","ios":"levelo://app?vid=489da037-f6fc-49f6-b683-ee9e80e5fe0e"},"vehicle_type_id":"4","last_reported":1720822037,"current_range_meters":7600,"station_id":"ce4bgn12rcd13ifvqbt0","pricing_plan_id":"cebpf4jnsgd1na2vs0mg"},{"bike_id":"43c548c4-382e-4f15-8fb4-27aad2ad9205","system_id":"levelo_inurba_marseille","lat":43.3094,"lon":5.39061,"is_reserved":false,"is_disabled":false,"rental_uris":{"android":"levelo://app?vid=43c548c4-382e-4f15-8fb4-27aad2ad9205","ios":"levelo://app?vid=43c548c4-382e-4f15-8fb4-27aad2ad9205"},"vehicle_type_id":"4","last_reported":1720822037,"current_range_meters":22800,"station_id":"","pricing_plan_id":"cebpf4jnsgd1na2vs0mg"},{"bike_id":"059741f0-c333-48df-99b7-18731991929d","system_id":"levelo_inurba_marseille","lat":43.317557,"lon":5.390173,"is_reserved":false,"is_disabled":false,"rental_uris":{"android":"levelo://app?vid=059741f0-c333-48df-99b7-18731991929d","ios":"levelo://app?vid=059741f0-c333-48df-99b7-18731991929d"},"vehicle_type_id":"4","last_reported":1720822037,"current_range_meters":15600,"station_id":"ce4bhqp2rcd13ifvqhng","pricing_plan_id":"cebpf4jnsgd1na2vs0mg"},{"bike_id":"36fc81c1-146a-4e07-b979-24fb09b956f2","system_id":"levelo_inurba_marseille","lat":43.298037,"lon":5.381066,"is_reserved":false,"is_disabled":false,"rental_uris":{"android":"levelo://app?vid=36fc81c1-146a-4e07-b979-24fb09b956f2","ios":"levelo://app?vid=36fc81c1-146a-4e07-b979-24fb09b956f2"},"vehicle_type_id":"4","last_reported":1720822037,"current_range_meters":3200,"station_id":"ce4bgip2rcd13ifvqbb0","pricing_plan_id":"cebpf4jnsgd1na2vs0mg"},{"bike_id":"b3df0181-a5be-4cc3-9087-8232f88ccde7","system_id":"levelo_inurba_marseille","lat":43.304274,"lon":5.388873,"is_reserved":false,"is_disabled":false,"rental_uris":{"android":"levelo://app?vid=b3df0181-a5be-4cc3-9087-8232f88ccde7","ios":"levelo://app?vid=b3df0181-a5be-4cc3-9087-8232f88ccde7"},"vehicle_type_id":"4","last_reported":1720822037,"current_range_meters":4800,"station_id":"ce4bgk12rcd13ifvqbi0","pricing_plan_id":"cebpf4jnsgd1na2vs0mg"},{"bike_id":"0c7bc248-994a-431d-86b3-5a47866d4ed1","system_id":"levelo_inurba_marseille","lat":43.3044,"lon":5.38889,"is_reserved":false,"is_disabled":false,"rental_uris":{"android":"levelo://app?vid=0c7bc248-994a-431d-86b3-5a47866d4ed1","ios":"levelo://app?vid=0c7bc248-994a-431d-86b3-5a47866d4ed1"},"vehicle_type_id":"4","last_reported":1720822037,"current_range_meters":20400,"station_id":"ce4bgk12rcd13ifvqbi0","pricing_plan_id":"cebpf4jnsgd1na2vs0mg"},{"bike_id":"c2a8ece5-10b5-4e11-8187-fd98f7211d4e","system_id":"levelo_inurba_marseille","lat":43.29573,"lon":5.37521,"is_reserved":false,"is_disabled":false,"rental_uris":{"android":"levelo://app?vid=c2a8ece5-10b5-4e11-8187-fd98f7211d4e","ios":"levelo://app?vid=c2a8ece5-10b5-4e11-8187-fd98f7211d4e"},"vehicle_type_id":"4","last_reported":1720822037,"current_range_meters":8000,"station_id":"ce4bgh92rcd13ifvqb50","pricing_plan_id":"cebpf4jnsgd1na2vs0mg"},{"bike_id":"13625d8a-ee54-4c31-8f3e-86bb1ae331bb","system_id":"levelo_inurba_marseille","lat":43.304274,"lon":5.388873,"is_reserved":false,"is_disabled":false,"rental_uris":{"android":"levelo://app?vid=13625d8a-ee54-4c31-8f3e-86bb1ae331bb","ios":"levelo://app?vid=13625d8a-ee54-4c31-8f3e-86bb1ae331bb"},"vehicle_type_id":"4","last_reported":1720822037,"current_range_meters":11600,"station_id":"ce4bgk12rcd13ifvqbi0","pricing_plan_id":"cebpf4jnsgd1na2vs0mg"},{"bike_id":"02c23b61-a881-4fdc-98d6-150533479686","system_id":"levelo_inurba_marseille","lat":43.29571,"lon":5.37527,"is_reserved":false,"is_disabled":false,"rental_uris":{"android":"levelo://app?vid=02c23b61-a881-4fdc-98d6-150533479686","ios":"levelo://app?vid=02c23b61-a881-4fdc-98d6-150533479686"},"vehicle_type_id":"4","last_reported":1720822037,"current_range_meters":0,"station_id":"ce4bgh92rcd13ifvqb50","pricing_plan_id":"cebpf4jnsgd1na2vs0mg"},{"bike_id":"4bae0429-15df-47dd-8816-f4739b185061","system_id":"levelo_inurba_marseille","lat":43.304274,"lon":5.388873,"is_reserved":false,"is_disabled":false,"rental_uris":{"android":"levelo://app?vid=4bae0429-15df-47dd-8816-f4739b185061","ios":"levelo://app?vid=4bae0429-15df-47dd-8816-f4739b185061"},"vehicle_type_id":"4","last_reported":1720822037,"current_range_meters":27200,"station_id":"ce4bgk12rcd13ifvqbi0","pricing_plan_id":"cebpf4jnsgd1na2vs0mg"},{"bike_id":"cc98810d-1216-4101-9147-448c2b41b6bf","system_id":"levelo_inurba_marseille","lat":43.295257,"lon":5.373837,"is_reserved":false,"is_disabled":false,"rental_uris":{"android":"levelo://app?vid=cc98810d-1216-4101-9147-448c2b41b6bf","ios":"levelo://app?vid=cc98810d-1216-4101-9147-448c2b41b6bf"},"vehicle_type_id":"4","last_reported":1720822037,"current_range_meters":29600,"station_id":"","pricing_plan_id":"cebpf4jnsgd1na2vs0mg"},{"bike_id":"19206486-17d6-4cc2-b9d6-ca7acb87bc75","system_id":"levelo_inurba_marseille","lat":43.295279,"lon":5.375048,"is_reserved":false,"is_disabled":false,"rental_uris":{"android":"levelo://app?vid=19206486-17d6-4cc2-b9d6-ca7acb87bc75","ios":"levelo://app?vid=19206486-17d6-4cc2-b9d6-ca7acb87bc75"},"vehicle_type_id":"4","last_reported":1720822037,"current_range_meters":0,"station_id":"ce4bgkp2rcd13ifvqbmg","pricing_plan_id":"cebpf4jnsgd1na2vs0mg"},{"bike_id":"2899386e-ab7a-475f-a0ce-fc98d729509c","system_id":"levelo_inurba_marseille","lat":43.29757,"lon":5.38113,"is_reserved":false,"is_disabled":false,"rental_uris":{"android":"levelo://app?vid=2899386e-ab7a-475f-a0ce-fc98d729509c","ios":"levelo://app?vid=2899386e-ab7a-475f-a0ce-fc98d729509c"},"vehicle_type_id":"4","last_reported":1720822037,"current_range_meters":9200,"station_id":"","pricing_plan_id":"cebpf4jnsgd1na2vs0mg"},{"bike_id":"b7619077-12a2-4a60-baf2-55c76d7835ae","system_id":"levelo_inurba_marseille","lat":43.299707,"lon":5.384859,"is_reserved":false,"is_disabled":false,"rental_uris":{"android":"levelo://app?vid=b7619077-12a2-4a60-baf2-55c76d7835ae","ios":"levelo://app?vid=b7619077-12a2-4a60-baf2-55c76d7835ae"},"vehicle_type_id":"4","last_reported":1720822037,"current_range_meters":21600,"station_id":"ce4bgj92rcd13ifvqbd0","pricing_plan_id":"cebpf4jnsgd1na2vs0mg"},{"bike_id":"04e56001-4780-42a0-bec6-af308fd74bb1","system_id":"levelo_inurba_marseille","lat":43.299717,"lon":5.384845,"is_reserved":false,"is_disabled":false,"rental_uris":{"android":"levelo://app?vid=04e56001-4780-42a0-bec6-af308fd74bb1","ios":"levelo://app?vid=04e56001-4780-42a0-bec6-af308fd74bb1"},"vehicle_type_id":"4","last_reported":1720822037,"current_range_meters":28400,"station_id":"ce4bgj92rcd13ifvqbd0","pricing_plan_id":"cebpf4jnsgd1na2vs0mg"},{"bike_id":"33069006-6496-4a47-8025-12952904cd1c","system_id":"levelo_inurba_marseille","lat":43.29481,"lon":5.37424,"is_reserved":false,"is_disabled":false,"rental_uris":{"android":"levelo://app?vid=33069006-6496-4a47-8025-12952904cd1c","ios":"levelo://app?vid=33069006-6496-4a47-8025-12952904cd1c"},"vehicle_type_id":"4","last_reported":1720822037,"current_range_meters":21600,"station_id":"","pricing_plan_id":"cebpf4jnsgd1na2vs0mg"},{"bike_id":"1ea94a64-1a04-4660-b2c1-1a779e4b2f42","system_id":"levelo_inurba_marseille","lat":43.30134,"lon":5.38776,"is_reserved":false,"is_disabled":false,"rental_uris":{"android":"levelo://app?vid=1ea94a64-1a04-4660-b2c1-1a779e4b2f42","ios":"levelo://app?vid=1ea94a64-1a04-4660-b2c1-1a779e4b2f42"},"vehicle_type_id":"4","last_reported":1720822037,"current_range_meters":30000,"station_id":"ce4bghh2rcd13ifvqb60","pricing_plan_id":"cebpf4jnsgd1na2vs0mg"},{"bike_id":"1c82ab29-3b85-4284-a3c8-1f5d166e2f09","system_id":"levelo_inurba_marseille","lat":43.301396,"lon":5.387812,"is_reserved":false,"is_disabled":false,"rental_uris":{"android":"levelo://app?vid=1c82ab29-3b85-4284-a3c8-1f5d166e2f09","ios":"levelo://app?vid=1c82ab29-3b85-4284-a3c8-1f5d166e2f09"},"vehicle_type_id":"4","last_reported":1720822037,"current_range_meters":0,"station_id":"ce4bghh2rcd13ifvqb60","pricing_plan_id":"cebpf4jnsgd1na2vs0mg"},{"bike_id":"20f51656-df24-4e85-b32f-94bf677d3fe3","system_id":"levelo_inurba_marseille","lat":43.301396,"lon":5.387812,"is_reserved":false,"is_disabled":false,"rental_uris":{"android":"levelo://app?vid=20f51656-df24-4e85-b32f-94bf677d3fe3","ios":"levelo://app?vid=20f51656-df24-4e85-b32f-94bf677d3fe3"},"vehicle_type_id":"4","last_reported":1720822037,"current_range_meters":800,"station_id":"ce4bghh2rcd13ifvqb60","pricing_plan_id":"cebpf4jnsgd1na2vs0mg"},{"bike_id":"e7b6146d-2184-48e1-b006-bd32e11fc9c7","system_id":"levelo_inurba_marseille","lat":43.32367,"lon":5.388836,"is_reserved":false,"is_disabled":false,"rental_uris":{"android":"levelo://app?vid=e7b6146d-2184-48e1-b006-bd32e11fc9c7","ios":"levelo://app?vid=e7b6146d-2184-48e1-b006-bd32e11fc9c7"},"vehicle_type_id":"4","last_reported":1720822037,"current_range_meters":17200,"station_id":"ce4bhqp2rcd13ifvqhog","pricing_plan_id":"cebpf4jnsgd1na2vs0mg"},{"bike_id":"eda3f9e5-e424-4959-a9bd-c01fc6b0120a","system_id":"levelo_inurba_marseille","lat":43.32367,"lon":5.388836,"is_reserved":false,"is_disabled":false,"rental_uris":{"android":"levelo://app?vid=eda3f9e5-e424-4959-a9bd-c01fc6b0120a","ios":"levelo://app?vid=eda3f9e5-e424-4959-a9bd-c01fc6b0120a"},"vehicle_type_id":"4","last_reported":1720822037,"current_range_meters":17600,"station_id":"ce4bhqp2rcd13ifvqhog","pricing_plan_id":"cebpf4jnsgd1na2vs0mg"},{"bike_id":"e4c42a1e-3a96-4efa-9cc7-b4890254ee1a","system_id":"levelo_inurba_marseille","lat":43.32367,"lon":5.388836,"is_reserved":false,"is_disabled":false,"rental_uris":{"android":"levelo://app?vid=e4c42a1e-3a96-4efa-9cc7-b4890254ee1a","ios":"levelo://app?vid=e4c42a1e-3a96-4efa-9cc7-b4890254ee1a"},"vehicle_type_id":"4","last_reported":1720822037,"current_range_meters":31200,"station_id":"ce4bhqp2rcd13ifvqhog","pricing_plan_id":"cebpf4jnsgd1na2vs0mg"},{"bike_id":"2cf07c4b-6eee-45c8-9bd4-66a5f00c03d8","system_id":"levelo_inurba_marseille","lat":43.32367,"lon":5.388836,"is_reserved":false,"is_disabled":false,"rental_uris":{"android":"levelo://app?vid=2cf07c4b-6eee-45c8-9bd4-66a5f00c03d8","ios":"levelo://app?vid=2cf07c4b-6eee-45c8-9bd4-66a5f00c03d8"},"vehicle_type_id":"4","last_reported":1720822037,"current_range_meters":31200,"station_id":"ce4bhqp2rcd13ifvqhog","pricing_plan_id":"cebpf4jnsgd1na2vs0mg"},{"bike_id":"34404ba5-3d85-40fd-80d1-6caeea61a6d5","system_id":"levelo_inurba_marseille","lat":43.32365,"lon":5.38885,"is_reserved":false,"is_disabled":false,"rental_uris":{"android":"levelo://app?vid=34404ba5-3d85-40fd-80d1-6caeea61a6d5","ios":"levelo://app?vid=34404ba5-3d85-40fd-80d1-6caeea61a6d5"},"vehicle_type_id":"4","last_reported":1720822037,"current_range_meters":30000,"station_id":"ce4bhqp2rcd13ifvqhog","pricing_plan_id":"cebpf4jnsgd1na2vs0mg"},{"bike_id":"2cd6bf21-13ab-4750-8176-c32414372f81","system_id":"levelo_inurba_marseille","lat":43.32367,"lon":5.388836,"is_reserved":false,"is_disabled":false,"rental_uris":{"android":"levelo://app?vid=2cd6bf21-13ab-4750-8176-c32414372f81","ios":"levelo://app?vid=2cd6bf21-13ab-4750-8176-c32414372f81"},"vehicle_type_id":"4","last_reported":1720822037,"current_range_meters":25600,"station_id":"ce4bhqp2rcd13ifvqhog","pricing_plan_id":"cebpf4jnsgd1na2vs0mg"},{"bike_id":"df40c980-6c60-4df9-a834-4129eb66c65a","system_id":"levelo_inurba_marseille","lat":43.32371,"lon":5.38883,"is_reserved":false,"is_disabled":false,"rental_uris":{"android":"levelo://app?vid=df40c980-6c60-4df9-a834-4129eb66c65a","ios":"levelo://app?vid=df40c980-6c60-4df9-a834-4129eb66c65a"},"vehicle_type_id":"4","last_reported":1720822037,"current_range_meters":2800,"station_id":"ce4bhqp2rcd13ifvqhog","pricing_plan_id":"cebpf4jnsgd1na2vs0mg"},{"bike_id":"0c3c76a0-de80-4609-b249-7830e689187f","system_id":"levelo_inurba_marseille","lat":43.32367,"lon":5.388836,"is_reserved":false,"is_disabled":false,"rental_uris":{"android":"levelo://app?vid=0c3c76a0-de80-4609-b249-7830e689187f","ios":"levelo://app?vid=0c3c76a0-de80-4609-b249-7830e689187f"},"vehicle_type_id":"4","last_reported":1720822037,"current_range_meters":31200,"station_id":"ce4bhqp2rcd13ifvqhog","pricing_plan_id":"cebpf4jnsgd1na2vs0mg"},{"bike_id":"84afae22-7654-4422-ba25-48093af55b1c","system_id":"levelo_inurba_marseille","lat":43.295538,"lon":5.379202,"is_reserved":false,"is_disabled":false,"rental_uris":{"android":"levelo://app?vid=84afae22-7654-4422-ba25-48093af55b1c","ios":"levelo://app?vid=84afae22-7654-4422-ba25-48093af55b1c"},"vehicle_type_id":"4","last_reported":1720822037,"current_range_meters":4000,"station_id":"","pricing_plan_id":"cebpf4jnsgd1na2vs0mg"},{"bike_id":"8d222e9a-8b0d-4e01-a50a-b73808cf32be","system_id":"levelo_inurba_marseille","lat":43.299073,"lon":5.3865,"is_reserved":false,"is_disabled":false,"rental_uris":{"android":"levelo://app?vid=8d222e9a-8b0d-4e01-a50a-b73808cf32be","ios":"levelo://app?vid=8d222e9a-8b0d-4e01-a50a-b73808cf32be"},"vehicle_type_id":"4","last_reported":1720822037,"current_range_meters":21600,"station_id":"","pricing_plan_id":"cebpf4jnsgd1na2vs0mg"},{"bike_id":"4fb7f8d7-f324-4ac5-b860-fa9dbbb21a9f","system_id":"levelo_inurba_marseille","lat":43.293056,"lon":5.371838,"is_reserved":false,"is_disabled":false,"rental_uris":{"android":"levelo://app?vid=4fb7f8d7-f324-4ac5-b860-fa9dbbb21a9f","ios":"levelo://app?vid=4fb7f8d7-f324-4ac5-b860-fa9dbbb21a9f"},"vehicle_type_id":"4","last_reported":1720822037,"current_range_meters":0,"station_id":"ce4bgh92rcd13ifvqb40","pricing_plan_id":"cebpf4jnsgd1na2vs0mg"},{"bike_id":"9a4c2434-e9b2-42c6-8a38-92da8bdbdf37","system_id":"levelo_inurba_marseille","lat":43.293044,"lon":5.371824,"is_reserved":false,"is_disabled":false,"rental_uris":{"android":"levelo://app?vid=9a4c2434-e9b2-42c6-8a38-92da8bdbdf37","ios":"levelo://app?vid=9a4c2434-e9b2-42c6-8a38-92da8bdbdf37"},"vehicle_type_id":"4","last_reported":1720822037,"current_range_meters":0,"station_id":"ce4bgh92rcd13ifvqb40","pricing_plan_id":"cebpf4jnsgd1na2vs0mg"},{"bike_id":"51e8c32a-5f99-41ae-9c2e-5d32cd4e652d","system_id":"levelo_inurba_marseille","lat":43.29301,"lon":5.37178,"is_reserved":false,"is_disabled":false,"rental_uris":{"android":"levelo://app?vid=51e8c32a-5f99-41ae-9c2e-5d32cd4e652d","ios":"levelo://app?vid=51e8c32a-5f99-41ae-9c2e-5d32cd4e652d"},"vehicle_type_id":"4","last_reported":1720822037,"current_range_meters":6000,"station_id":"ce4bgh92rcd13ifvqb40","pricing_plan_id":"cebpf4jnsgd1na2vs0mg"},{"bike_id":"5697cca3-948f-450b-a977-2b847e67eab1","system_id":"levelo_inurba_marseille","lat":43.29298,"lon":5.37172,"is_reserved":false,"is_disabled":false,"rental_uris":{"android":"levelo://app?vid=5697cca3-948f-450b-a977-2b847e67eab1","ios":"levelo://app?vid=5697cca3-948f-450b-a977-2b847e67eab1"},"vehicle_type_id":"4","last_reported":1720822037,"current_range_meters":7200,"station_id":"ce4bgh92rcd13ifvqb40","pricing_plan_id":"cebpf4jnsgd1na2vs0mg"},{"bike_id":"525101ee-2ffa-483d-9309-e4c7ce6b4da2","system_id":"levelo_inurba_marseille","lat":43.29309,"lon":5.3745,"is_reserved":false,"is_disabled":false,"rental_uris":{"android":"levelo://app?vid=525101ee-2ffa-483d-9309-e4c7ce6b4da2","ios":"levelo://app?vid=525101ee-2ffa-483d-9309-e4c7ce6b4da2"},"vehicle_type_id":"4","last_reported":1720822037,"current_range_meters":0,"station_id":"ce4bgi12rcd13ifvqb70","pricing_plan_id":"cebpf4jnsgd1na2vs0mg"},{"bike_id":"a14fb9c2-5b44-4d2d-a991-93c6d5947231","system_id":"levelo_inurba_marseille","lat":43.29232,"lon":5.3645,"is_reserved":false,"is_disabled":false,"rental_uris":{"android":"levelo://app?vid=a14fb9c2-5b44-4d2d-a991-93c6d5947231","ios":"levelo://app?vid=a14fb9c2-5b44-4d2d-a991-93c6d5947231"},"vehicle_type_id":"4","last_reported":1720822037,"current_range_meters":0,"station_id":"","pricing_plan_id":"cebpf4jnsgd1na2vs0mg"},{"bike_id":"57d238c4-43ad-4e32-8642-579b94617d73","system_id":"levelo_inurba_marseille","lat":43.29574,"lon":5.38306,"is_reserved":false,"is_disabled":false,"rental_uris":{"android":"levelo://app?vid=57d238c4-43ad-4e32-8642-579b94617d73","ios":"levelo://app?vid=57d238c4-43ad-4e32-8642-579b94617d73"},"vehicle_type_id":"4","last_reported":1720822037,"current_range_meters":2000,"station_id":"","pricing_plan_id":"cebpf4jnsgd1na2vs0mg"},{"bike_id":"78b0fe4a-3a41-4090-afff-1c8937f0b586","system_id":"levelo_inurba_marseille","lat":43.29377,"lon":5.37853,"is_reserved":false,"is_disabled":false,"rental_uris":{"android":"levelo://app?vid=78b0fe4a-3a41-4090-afff-1c8937f0b586","ios":"levelo://app?vid=78b0fe4a-3a41-4090-afff-1c8937f0b586"},"vehicle_type_id":"4","last_reported":1720822037,"current_range_meters":0,"station_id":"ce4bgjh2rcd13ifvqbf0","pricing_plan_id":"cebpf4jnsgd1na2vs0mg"},{"bike_id":"b4fff363-9a13-48cb-9fef-b95f94a754c0","system_id":"levelo_inurba_marseille","lat":43.2923,"lon":5.36059,"is_reserved":false,"is_disabled":false,"rental_uris":{"android":"levelo://app?vid=b4fff363-9a13-48cb-9fef-b95f94a754c0","ios":"levelo://app?vid=b4fff363-9a13-48cb-9fef-b95f94a754c0"},"vehicle_type_id":"4","last_reported":1720822037,"current_range_meters":0,"station_id":"ce4bhbh2rcd13ifvqeqg","pricing_plan_id":"cebpf4jnsgd1na2vs0mg"},{"bike_id":"96a87894-81a8-4b0a-b70d-c5bd9f276da6","system_id":"levelo_inurba_marseille","lat":43.292311,"lon":5.360731,"is_reserved":false,"is_disabled":false,"rental_uris":{"android":"levelo://app?vid=96a87894-81a8-4b0a-b70d-c5bd9f276da6","ios":"levelo://app?vid=96a87894-81a8-4b0a-b70d-c5bd9f276da6"},"vehicle_type_id":"4","last_reported":1720822037,"current_range_meters":19600,"station_id":"ce4bhbh2rcd13ifvqeqg","pricing_plan_id":"cebpf4jnsgd1na2vs0mg"},{"bike_id":"7f70fb12-6129-40a7-a99b-d32fb3c63ab1","system_id":"levelo_inurba_marseille","lat":43.300852,"lon":5.390859,"is_reserved":false,"is_disabled":false,"rental_uris":{"android":"levelo://app?vid=7f70fb12-6129-40a7-a99b-d32fb3c63ab1","ios":"levelo://app?vid=7f70fb12-6129-40a7-a99b-d32fb3c63ab1"},"vehicle_type_id":"4","last_reported":1720822037,"current_range_meters":26400,"station_id":"ce4bh192rcd13ifvqdb0","pricing_plan_id":"cebpf4jnsgd1na2vs0mg"},{"bike_id":"e39714fb-844e-41c4-a2d6-ca25a96c7d2b","system_id":"levelo_inurba_marseille","lat":43.300852,"lon":5.390859,"is_reserved":false,"is_disabled":false,"rental_uris":{"android":"levelo://app?vid=e39714fb-844e-41c4-a2d6-ca25a96c7d2b","ios":"levelo://app?vid=e39714fb-844e-41c4-a2d6-ca25a96c7d2b"},"vehicle_type_id":"4","last_reported":1720822037,"current_range_meters":14400,"station_id":"ce4bh192rcd13ifvqdb0","pricing_plan_id":"cebpf4jnsgd1na2vs0mg"},{"bike_id":"54309f2d-3902-46ab-95b0-f9f6d716e1fb","system_id":"levelo_inurba_marseille","lat":43.30085,"lon":5.390856,"is_reserved":false,"is_disabled":false,"rental_uris":{"android":"levelo://app?vid=54309f2d-3902-46ab-95b0-f9f6d716e1fb","ios":"levelo://app?vid=54309f2d-3902-46ab-95b0-f9f6d716e1fb"},"vehicle_type_id":"4","last_reported":1720822037,"current_range_meters":12800,"station_id":"ce4bh192rcd13ifvqdb0","pricing_plan_id":"cebpf4jnsgd1na2vs0mg"},{"bike_id":"b5ee7579-99ef-4ade-89de-6a645f3d296c","system_id":"levelo_inurba_marseille","lat":43.29884,"lon":5.389,"is_reserved":false,"is_disabled":false,"rental_uris":{"android":"levelo://app?vid=b5ee7579-99ef-4ade-89de-6a645f3d296c","ios":"levelo://app?vid=b5ee7579-99ef-4ade-89de-6a645f3d296c"},"vehicle_type_id":"4","last_reported":1720822037,"current_range_meters":22400,"station_id":"ce4bh392rcd13ifvqdl0","pricing_plan_id":"cebpf4jnsgd1na2vs0mg"},{"bike_id":"e4356858-70f2-4537-96ce-cf9a87c1bda4","system_id":"levelo_inurba_marseille","lat":43.29893,"lon":5.38923,"is_reserved":false,"is_disabled":false,"rental_uris":{"android":"levelo://app?vid=e4356858-70f2-4537-96ce-cf9a87c1bda4","ios":"levelo://app?vid=e4356858-70f2-4537-96ce-cf9a87c1bda4"},"vehicle_type_id":"4","last_reported":1720822037,"current_range_meters":30400,"station_id":"ce4bh392rcd13ifvqdl0","pricing_plan_id":"cebpf4jnsgd1na2vs0mg"},{"bike_id":"972f8c36-040c-4656-935c-0b57b1ea648f","system_id":"levelo_inurba_marseille","lat":43.29878,"lon":5.3891,"is_reserved":false,"is_disabled":false,"rental_uris":{"android":"levelo://app?vid=972f8c36-040c-4656-935c-0b57b1ea648f","ios":"levelo://app?vid=972f8c36-040c-4656-935c-0b57b1ea648f"},"vehicle_type_id":"4","last_reported":1720822037,"current_range_meters":16000,"station_id":"ce4bh392rcd13ifvqdl0","pricing_plan_id":"cebpf4jnsgd1na2vs0mg"},{"bike_id":"1aa2dc08-b4b5-4df7-9cba-29c4cbfc76ed","system_id":"levelo_inurba_marseille","lat":43.29877,"lon":5.3891,"is_reserved":false,"is_disabled":false,"rental_uris":{"android":"levelo://app?vid=1aa2dc08-b4b5-4df7-9cba-29c4cbfc76ed","ios":"levelo://app?vid=1aa2dc08-b4b5-4df7-9cba-29c4cbfc76ed"},"vehicle_type_id":"4","last_reported":1720822037,"current_range_meters":25600,"station_id":"ce4bh392rcd13ifvqdl0","pricing_plan_id":"cebpf4jnsgd1na2vs0mg"},{"bike_id":"f1b8aecf-00c5-4e83-8d09-147d5246bd67","system_id":"levelo_inurba_marseille","lat":43.29876,"lon":5.38909,"is_reserved":false,"is_disabled":false,"rental_uris":{"android":"levelo://app?vid=f1b8aecf-00c5-4e83-8d09-147d5246bd67","ios":"levelo://app?vid=f1b8aecf-00c5-4e83-8d09-147d5246bd67"},"vehicle_type_id":"4","last_reported":1720822037,"current_range_meters":10800,"station_id":"ce4bh392rcd13ifvqdl0","pricing_plan_id":"cebpf4jnsgd1na2vs0mg"},{"bike_id":"358b5b61-10c1-4c08-80bf-b8b5e4be586c","system_id":"levelo_inurba_marseille","lat":43.291671,"lon":5.371575,"is_reserved":false,"is_disabled":false,"rental_uris":{"android":"levelo://app?vid=358b5b61-10c1-4c08-80bf-b8b5e4be586c","ios":"levelo://app?vid=358b5b61-10c1-4c08-80bf-b8b5e4be586c"},"vehicle_type_id":"4","last_reported":1720822037,"current_range_meters":4800,"station_id":"ce4bha92rcd13ifvqeh0","pricing_plan_id":"cebpf4jnsgd1na2vs0mg"},{"bike_id":"b2e0c9c9-3245-4af0-9c4d-c7a1136127e2","system_id":"levelo_inurba_marseille","lat":43.29869,"lon":5.38905,"is_reserved":false,"is_disabled":false,"rental_uris":{"android":"levelo://app?vid=b2e0c9c9-3245-4af0-9c4d-c7a1136127e2","ios":"levelo://app?vid=b2e0c9c9-3245-4af0-9c4d-c7a1136127e2"},"vehicle_type_id":"4","last_reported":1720822037,"current_range_meters":29600,"station_id":"ce4bh392rcd13ifvqdl0","pricing_plan_id":"cebpf4jnsgd1na2vs0mg"},{"bike_id":"988550db-e01e-40f3-9181-c0e00c13dc73","system_id":"levelo_inurba_marseille","lat":43.29878,"lon":5.38918,"is_reserved":false,"is_disabled":false,"rental_uris":{"android":"levelo://app?vid=988550db-e01e-40f3-9181-c0e00c13dc73","ios":"levelo://app?vid=988550db-e01e-40f3-9181-c0e00c13dc73"},"vehicle_type_id":"4","last_reported":1720822037,"current_range_meters":16400,"station_id":"ce4bh392rcd13ifvqdl0","pricing_plan_id":"cebpf4jnsgd1na2vs0mg"},{"bike_id":"db3c7b36-e237-47e1-992b-ab2a033f9168","system_id":"levelo_inurba_marseille","lat":43.29869,"lon":5.38915,"is_reserved":false,"is_disabled":false,"rental_uris":{"android":"levelo://app?vid=db3c7b36-e237-47e1-992b-ab2a033f9168","ios":"levelo://app?vid=db3c7b36-e237-47e1-992b-ab2a033f9168"},"vehicle_type_id":"4","last_reported":1720822037,"current_range_meters":22000,"station_id":"ce4bh392rcd13ifvqdl0","pricing_plan_id":"cebpf4jnsgd1na2vs0mg"},{"bike_id":"de074a24-3f38-4606-bd17-c867b053772c","system_id":"levelo_inurba_marseille","lat":43.29199,"lon":5.35814,"is_reserved":false,"is_disabled":false,"rental_uris":{"android":"levelo://app?vid=de074a24-3f38-4606-bd17-c867b053772c","ios":"levelo://app?vid=de074a24-3f38-4606-bd17-c867b053772c"},"vehicle_type_id":"4","last_reported":1720822037,"current_range_meters":0,"station_id":"ce4bhb12rcd13ifvqel0","pricing_plan_id":"cebpf4jnsgd1na2vs0mg"},{"bike_id":"3f33e652-7ed3-47b0-ab2a-57be29820205","system_id":"levelo_inurba_marseille","lat":43.309038,"lon":5.396546,"is_reserved":false,"is_disabled":false,"rental_uris":{"android":"levelo://app?vid=3f33e652-7ed3-47b0-ab2a-57be29820205","ios":"levelo://app?vid=3f33e652-7ed3-47b0-ab2a-57be29820205"},"vehicle_type_id":"4","last_reported":1720822037,"current_range_meters":23200,"station_id":"ce4bh012rcd13ifvqcv0","pricing_plan_id":"cebpf4jnsgd1na2vs0mg"},{"bike_id":"11d00028-8945-4b0e-bb37-597c6cb43690","system_id":"levelo_inurba_marseille","lat":43.313291,"lon":5.396838,"is_reserved":false,"is_disabled":false,"rental_uris":{"android":"levelo://app?vid=11d00028-8945-4b0e-bb37-597c6cb43690","ios":"levelo://app?vid=11d00028-8945-4b0e-bb37-597c6cb43690"},"vehicle_type_id":"4","last_reported":1720822037,"current_range_meters":21600,"station_id":"ce4bgvp2rcd13ifvqcu0","pricing_plan_id":"cebpf4jnsgd1na2vs0mg"},{"bike_id":"b5e01129-b3ed-4e9e-a131-242e8593a284","system_id":"levelo_inurba_marseille","lat":43.313291,"lon":5.396838,"is_reserved":false,"is_disabled":false,"rental_uris":{"android":"levelo://app?vid=b5e01129-b3ed-4e9e-a131-242e8593a284","ios":"levelo://app?vid=b5e01129-b3ed-4e9e-a131-242e8593a284"},"vehicle_type_id":"4","last_reported":1720822037,"current_range_meters":24400,"station_id":"ce4bgvp2rcd13ifvqcu0","pricing_plan_id":"cebpf4jnsgd1na2vs0mg"},{"bike_id":"c77d75c4-9059-4c30-9242-f243c1a18b15","system_id":"levelo_inurba_marseille","lat":43.31335,"lon":5.39697,"is_reserved":false,"is_disabled":false,"rental_uris":{"android":"levelo://app?vid=c77d75c4-9059-4c30-9242-f243c1a18b15","ios":"levelo://app?vid=c77d75c4-9059-4c30-9242-f243c1a18b15"},"vehicle_type_id":"4","last_reported":1720822037,"current_range_meters":10400,"station_id":"ce4bgvp2rcd13ifvqcu0","pricing_plan_id":"cebpf4jnsgd1na2vs0mg"},{"bike_id":"ad9512d5-723e-4401-96c7-df1dde0726a1","system_id":"levelo_inurba_marseille","lat":43.309047,"lon":5.396551,"is_reserved":false,"is_disabled":false,"rental_uris":{"android":"levelo://app?vid=ad9512d5-723e-4401-96c7-df1dde0726a1","ios":"levelo://app?vid=ad9512d5-723e-4401-96c7-df1dde0726a1"},"vehicle_type_id":"4","last_reported":1720822037,"current_range_meters":22400,"station_id":"ce4bh012rcd13ifvqcv0","pricing_plan_id":"cebpf4jnsgd1na2vs0mg"},{"bike_id":"e835a1a3-1ad8-4cd1-b853-34c7954cccf2","system_id":"levelo_inurba_marseille","lat":43.313291,"lon":5.396838,"is_reserved":false,"is_disabled":false,"rental_uris":{"android":"levelo://app?vid=e835a1a3-1ad8-4cd1-b853-34c7954cccf2","ios":"levelo://app?vid=e835a1a3-1ad8-4cd1-b853-34c7954cccf2"},"vehicle_type_id":"4","last_reported":1720822037,"current_range_meters":15600,"station_id":"ce4bgvp2rcd13ifvqcu0","pricing_plan_id":"cebpf4jnsgd1na2vs0mg"},{"bike_id":"16575e7b-f1c2-4339-a488-fb293b2d7838","system_id":"levelo_inurba_marseille","lat":43.30867,"lon":5.39651,"is_reserved":false,"is_disabled":false,"rental_uris":{"android":"levelo://app?vid=16575e7b-f1c2-4339-a488-fb293b2d7838","ios":"levelo://app?vid=16575e7b-f1c2-4339-a488-fb293b2d7838"},"vehicle_type_id":"4","last_reported":1720822037,"current_range_meters":17200,"station_id":"ce4bh012rcd13ifvqcv0","pricing_plan_id":"cebpf4jnsgd1na2vs0mg"},{"bike_id":"d942563b-2dc6-41f6-89d7-538fe40b6ae9","system_id":"levelo_inurba_marseille","lat":43.309047,"lon":5.396551,"is_reserved":false,"is_disabled":false,"rental_uris":{"android":"levelo://app?vid=d942563b-2dc6-41f6-89d7-538fe40b6ae9","ios":"levelo://app?vid=d942563b-2dc6-41f6-89d7-538fe40b6ae9"},"vehicle_type_id":"4","last_reported":1720822037,"current_range_meters":18800,"station_id":"ce4bh012rcd13ifvqcv0","pricing_plan_id":"cebpf4jnsgd1na2vs0mg"},{"bike_id":"f60ced42-6c9e-41cf-8740-4ea625f1b0ce","system_id":"levelo_inurba_marseille","lat":43.33235,"lon":5.3804,"is_reserved":false,"is_disabled":false,"rental_uris":{"android":"levelo://app?vid=f60ced42-6c9e-41cf-8740-4ea625f1b0ce","ios":"levelo://app?vid=f60ced42-6c9e-41cf-8740-4ea625f1b0ce"},"vehicle_type_id":"4","last_reported":1720822037,"current_range_meters":6000,"station_id":"","pricing_plan_id":"cebpf4jnsgd1na2vs0mg"},{"bike_id":"fe2e4ebd-9a3b-45f6-898e-8279d61ef7c4","system_id":"levelo_inurba_marseille","lat":43.29529,"lon":5.385581,"is_reserved":false,"is_disabled":false,"rental_uris":{"android":"levelo://app?vid=fe2e4ebd-9a3b-45f6-898e-8279d61ef7c4","ios":"levelo://app?vid=fe2e4ebd-9a3b-45f6-898e-8279d61ef7c4"},"vehicle_type_id":"4","last_reported":1720822037,"current_range_meters":12800,"station_id":"ce4bgih2rcd13ifvqba0","pricing_plan_id":"cebpf4jnsgd1na2vs0mg"},{"bike_id":"ce87d3f3-7239-4480-b853-0cb1c8ca864e","system_id":"levelo_inurba_marseille","lat":43.29529,"lon":5.385581,"is_reserved":false,"is_disabled":false,"rental_uris":{"android":"levelo://app?vid=ce87d3f3-7239-4480-b853-0cb1c8ca864e","ios":"levelo://app?vid=ce87d3f3-7239-4480-b853-0cb1c8ca864e"},"vehicle_type_id":"4","last_reported":1720822037,"current_range_meters":30400,"station_id":"ce4bgih2rcd13ifvqba0","pricing_plan_id":"cebpf4jnsgd1na2vs0mg"},{"bike_id":"4e1ebdf2-b0b6-4db3-85c8-6969c8835bd4","system_id":"levelo_inurba_marseille","lat":43.29529,"lon":5.385581,"is_reserved":false,"is_disabled":false,"rental_uris":{"android":"levelo://app?vid=4e1ebdf2-b0b6-4db3-85c8-6969c8835bd4","ios":"levelo://app?vid=4e1ebdf2-b0b6-4db3-85c8-6969c8835bd4"},"vehicle_type_id":"4","last_reported":1720822037,"current_range_meters":28400,"station_id":"ce4bgih2rcd13ifvqba0","pricing_plan_id":"cebpf4jnsgd1na2vs0mg"},{"bike_id":"c01b5d98-eed3-46f3-9151-0cbc4faa39c3","system_id":"levelo_inurba_marseille","lat":43.290779,"lon":5.371482,"is_reserved":false,"is_disabled":false,"rental_uris":{"android":"levelo://app?vid=c01b5d98-eed3-46f3-9151-0cbc4faa39c3","ios":"levelo://app?vid=c01b5d98-eed3-46f3-9151-0cbc4faa39c3"},"vehicle_type_id":"4","last_reported":1720822037,"current_range_meters":0,"station_id":"ce4bh5p2rcd13ifvqe4g","pricing_plan_id":"cebpf4jnsgd1na2vs0mg"},{"bike_id":"18766a25-a26c-4a94-b7d7-54ac8b75ad0c","system_id":"levelo_inurba_marseille","lat":43.294536,"lon":5.384888,"is_reserved":false,"is_disabled":false,"rental_uris":{"android":"levelo://app?vid=18766a25-a26c-4a94-b7d7-54ac8b75ad0c","ios":"levelo://app?vid=18766a25-a26c-4a94-b7d7-54ac8b75ad0c"},"vehicle_type_id":"4","last_reported":1720822037,"current_range_meters":3200,"station_id":"","pricing_plan_id":"cebpf4jnsgd1na2vs0mg"},{"bike_id":"e82c86ea-176a-4e99-b992-1c99a522fc1b","system_id":"levelo_inurba_marseille","lat":43.29151,"lon":5.35577,"is_reserved":false,"is_disabled":false,"rental_uris":{"android":"levelo://app?vid=e82c86ea-176a-4e99-b992-1c99a522fc1b","ios":"levelo://app?vid=e82c86ea-176a-4e99-b992-1c99a522fc1b"},"vehicle_type_id":"4","last_reported":1720822037,"current_range_meters":16800,"station_id":"","pricing_plan_id":"cebpf4jnsgd1na2vs0mg"},{"bike_id":"b27ef914-a8d9-484b-b0a2-ecae71b277d7","system_id":"levelo_inurba_marseille","lat":43.290624,"lon":5.359245,"is_reserved":false,"is_disabled":false,"rental_uris":{"android":"levelo://app?vid=b27ef914-a8d9-484b-b0a2-ecae71b277d7","ios":"levelo://app?vid=b27ef914-a8d9-484b-b0a2-ecae71b277d7"},"vehicle_type_id":"4","last_reported":1720822037,"current_range_meters":28000,"station_id":"ce4bha92rcd13ifvqeg0","pricing_plan_id":"cebpf4jnsgd1na2vs0mg"},{"bike_id":"dcc89869-811c-4c55-889b-dba6ad122bd5","system_id":"levelo_inurba_marseille","lat":43.29921,"lon":5.39248,"is_reserved":false,"is_disabled":false,"rental_uris":{"android":"levelo://app?vid=dcc89869-811c-4c55-889b-dba6ad122bd5","ios":"levelo://app?vid=dcc89869-811c-4c55-889b-dba6ad122bd5"},"vehicle_type_id":"4","last_reported":1720822037,"current_range_meters":22400,"station_id":"","pricing_plan_id":"cebpf4jnsgd1na2vs0mg"},{"bike_id":"c34106b9-2f54-4d37-a703-c6af858abde1","system_id":"levelo_inurba_marseille","lat":43.29423,"lon":5.38618,"is_reserved":false,"is_disabled":false,"rental_uris":{"android":"levelo://app?vid=c34106b9-2f54-4d37-a703-c6af858abde1","ios":"levelo://app?vid=c34106b9-2f54-4d37-a703-c6af858abde1"},"vehicle_type_id":"4","last_reported":1720822037,"current_range_meters":16000,"station_id":"ce4bh2h2rcd13ifvqdh0","pricing_plan_id":"cebpf4jnsgd1na2vs0mg"},{"bike_id":"b73354ff-d5db-46c6-9d05-326a2f9d7249","system_id":"levelo_inurba_marseille","lat":43.29421,"lon":5.3862,"is_reserved":false,"is_disabled":false,"rental_uris":{"android":"levelo://app?vid=b73354ff-d5db-46c6-9d05-326a2f9d7249","ios":"levelo://app?vid=b73354ff-d5db-46c6-9d05-326a2f9d7249"},"vehicle_type_id":"4","last_reported":1720822037,"current_range_meters":16400,"station_id":"ce4bh2h2rcd13ifvqdh0","pricing_plan_id":"cebpf4jnsgd1na2vs0mg"},{"bike_id":"53cf9901-320f-40da-8ac9-4ecde90241d1","system_id":"levelo_inurba_marseille","lat":43.29425,"lon":5.3863,"is_reserved":false,"is_disabled":false,"rental_uris":{"android":"levelo://app?vid=53cf9901-320f-40da-8ac9-4ecde90241d1","ios":"levelo://app?vid=53cf9901-320f-40da-8ac9-4ecde90241d1"},"vehicle_type_id":"4","last_reported":1720822037,"current_range_meters":24000,"station_id":"ce4bh2h2rcd13ifvqdh0","pricing_plan_id":"cebpf4jnsgd1na2vs0mg"},{"bike_id":"d182b6ce-a7ec-436e-bcee-9eaf1e60a5ef","system_id":"levelo_inurba_marseille","lat":43.294162,"lon":5.386292,"is_reserved":false,"is_disabled":false,"rental_uris":{"android":"levelo://app?vid=d182b6ce-a7ec-436e-bcee-9eaf1e60a5ef","ios":"levelo://app?vid=d182b6ce-a7ec-436e-bcee-9eaf1e60a5ef"},"vehicle_type_id":"4","last_reported":1720822037,"current_range_meters":32000,"station_id":"ce4bh2h2rcd13ifvqdh0","pricing_plan_id":"cebpf4jnsgd1na2vs0mg"},{"bike_id":"6bf16d18-dfde-438e-95e1-e3bd9a072ebd","system_id":"levelo_inurba_marseille","lat":43.29419,"lon":5.38622,"is_reserved":false,"is_disabled":false,"rental_uris":{"android":"levelo://app?vid=6bf16d18-dfde-438e-95e1-e3bd9a072ebd","ios":"levelo://app?vid=6bf16d18-dfde-438e-95e1-e3bd9a072ebd"},"vehicle_type_id":"4","last_reported":1720822037,"current_range_meters":11200,"station_id":"ce4bh2h2rcd13ifvqdh0","pricing_plan_id":"cebpf4jnsgd1na2vs0mg"},{"bike_id":"befa0f06-ca59-454c-9aed-eb5363706983","system_id":"levelo_inurba_marseille","lat":43.2942,"lon":5.38624,"is_reserved":false,"is_disabled":false,"rental_uris":{"android":"levelo://app?vid=befa0f06-ca59-454c-9aed-eb5363706983","ios":"levelo://app?vid=befa0f06-ca59-454c-9aed-eb5363706983"},"vehicle_type_id":"4","last_reported":1720822037,"current_range_meters":20000,"station_id":"ce4bh2h2rcd13ifvqdh0","pricing_plan_id":"cebpf4jnsgd1na2vs0mg"},{"bike_id":"f4236302-c813-450e-8820-7e75a5ab68a6","system_id":"levelo_inurba_marseille","lat":43.29417,"lon":5.3862,"is_reserved":false,"is_disabled":false,"rental_uris":{"android":"levelo://app?vid=f4236302-c813-450e-8820-7e75a5ab68a6","ios":"levelo://app?vid=f4236302-c813-450e-8820-7e75a5ab68a6"},"vehicle_type_id":"4","last_reported":1720822037,"current_range_meters":5200,"station_id":"ce4bh2h2rcd13ifvqdh0","pricing_plan_id":"cebpf4jnsgd1na2vs0mg"},{"bike_id":"f4545624-6d90-4dd4-a06b-68a38541a428","system_id":"levelo_inurba_marseille","lat":43.294153,"lon":5.386305,"is_reserved":false,"is_disabled":false,"rental_uris":{"android":"levelo://app?vid=f4545624-6d90-4dd4-a06b-68a38541a428","ios":"levelo://app?vid=f4545624-6d90-4dd4-a06b-68a38541a428"},"vehicle_type_id":"4","last_reported":1720822037,"current_range_meters":30400,"station_id":"ce4bh2h2rcd13ifvqdh0","pricing_plan_id":"cebpf4jnsgd1na2vs0mg"},{"bike_id":"86cf7472-5c38-43f4-aa96-2bc4b4e97d0a","system_id":"levelo_inurba_marseille","lat":43.29421,"lon":5.3863,"is_reserved":false,"is_disabled":false,"rental_uris":{"android":"levelo://app?vid=86cf7472-5c38-43f4-aa96-2bc4b4e97d0a","ios":"levelo://app?vid=86cf7472-5c38-43f4-aa96-2bc4b4e97d0a"},"vehicle_type_id":"4","last_reported":1720822037,"current_range_meters":0,"station_id":"ce4bh2h2rcd13ifvqdh0","pricing_plan_id":"cebpf4jnsgd1na2vs0mg"},{"bike_id":"376db593-499c-4dcf-8809-bb1f0db34f79","system_id":"levelo_inurba_marseille","lat":43.294162,"lon":5.386292,"is_reserved":false,"is_disabled":false,"rental_uris":{"android":"levelo://app?vid=376db593-499c-4dcf-8809-bb1f0db34f79","ios":"levelo://app?vid=376db593-499c-4dcf-8809-bb1f0db34f79"},"vehicle_type_id":"4","last_reported":1720822037,"current_range_meters":6800,"station_id":"ce4bh2h2rcd13ifvqdh0","pricing_plan_id":"cebpf4jnsgd1na2vs0mg"},{"bike_id":"e3a71183-3273-4b17-9c5c-a5b50c31543b","system_id":"levelo_inurba_marseille","lat":43.29417,"lon":5.38624,"is_reserved":false,"is_disabled":false,"rental_uris":{"android":"levelo://app?vid=e3a71183-3273-4b17-9c5c-a5b50c31543b","ios":"levelo://app?vid=e3a71183-3273-4b17-9c5c-a5b50c31543b"},"vehicle_type_id":"4","last_reported":1720822037,"current_range_meters":0,"station_id":"ce4bh2h2rcd13ifvqdh0","pricing_plan_id":"cebpf4jnsgd1na2vs0mg"},{"bike_id":"a1e63cb8-3b86-49b4-add1-44aaef9cdc25","system_id":"levelo_inurba_marseille","lat":43.29416,"lon":5.38623,"is_reserved":false,"is_disabled":false,"rental_uris":{"android":"levelo://app?vid=a1e63cb8-3b86-49b4-add1-44aaef9cdc25","ios":"levelo://app?vid=a1e63cb8-3b86-49b4-add1-44aaef9cdc25"},"vehicle_type_id":"4","last_reported":1720822037,"current_range_meters":800,"station_id":"ce4bh2h2rcd13ifvqdh0","pricing_plan_id":"cebpf4jnsgd1na2vs0mg"},{"bike_id":"14e2fbbd-fd27-4a12-912f-cb5d1ced15e6","system_id":"levelo_inurba_marseille","lat":43.2942,"lon":5.38631,"is_reserved":false,"is_disabled":false,"rental_uris":{"android":"levelo://app?vid=14e2fbbd-fd27-4a12-912f-cb5d1ced15e6","ios":"levelo://app?vid=14e2fbbd-fd27-4a12-912f-cb5d1ced15e6"},"vehicle_type_id":"4","last_reported":1720822037,"current_range_meters":0,"station_id":"ce4bh2h2rcd13ifvqdh0","pricing_plan_id":"cebpf4jnsgd1na2vs0mg"},{"bike_id":"a79493bc-9c4f-4d22-9f5c-a633b275c0a7","system_id":"levelo_inurba_marseille","lat":43.29416,"lon":5.38625,"is_reserved":false,"is_disabled":false,"rental_uris":{"android":"levelo://app?vid=a79493bc-9c4f-4d22-9f5c-a633b275c0a7","ios":"levelo://app?vid=a79493bc-9c4f-4d22-9f5c-a633b275c0a7"},"vehicle_type_id":"4","last_reported":1720822037,"current_range_meters":18400,"station_id":"ce4bh2h2rcd13ifvqdh0","pricing_plan_id":"cebpf4jnsgd1na2vs0mg"},{"bike_id":"dae20290-6d1b-4348-9065-c7e28984d2b5","system_id":"levelo_inurba_marseille","lat":43.29419,"lon":5.38631,"is_reserved":false,"is_disabled":false,"rental_uris":{"android":"levelo://app?vid=dae20290-6d1b-4348-9065-c7e28984d2b5","ios":"levelo://app?vid=dae20290-6d1b-4348-9065-c7e28984d2b5"},"vehicle_type_id":"4","last_reported":1720822037,"current_range_meters":9200,"station_id":"ce4bh2h2rcd13ifvqdh0","pricing_plan_id":"cebpf4jnsgd1na2vs0mg"},{"bike_id":"fc530993-65e9-455a-97fb-a1e6c897ecfc","system_id":"levelo_inurba_marseille","lat":43.29416,"lon":5.38628,"is_reserved":false,"is_disabled":false,"rental_uris":{"android":"levelo://app?vid=fc530993-65e9-455a-97fb-a1e6c897ecfc","ios":"levelo://app?vid=fc530993-65e9-455a-97fb-a1e6c897ecfc"},"vehicle_type_id":"4","last_reported":1720822037,"current_range_meters":17600,"station_id":"ce4bh2h2rcd13ifvqdh0","pricing_plan_id":"cebpf4jnsgd1na2vs0mg"},{"bike_id":"698d49c2-c321-4728-8bed-683954398dbc","system_id":"levelo_inurba_marseille","lat":43.29411,"lon":5.38619,"is_reserved":false,"is_disabled":false,"rental_uris":{"android":"levelo://app?vid=698d49c2-c321-4728-8bed-683954398dbc","ios":"levelo://app?vid=698d49c2-c321-4728-8bed-683954398dbc"},"vehicle_type_id":"4","last_reported":1720822037,"current_range_meters":0,"station_id":"ce4bh2h2rcd13ifvqdh0","pricing_plan_id":"cebpf4jnsgd1na2vs0mg"},{"bike_id":"798dc85c-200c-497c-b898-bbe94259e100","system_id":"levelo_inurba_marseille","lat":43.29417,"lon":5.38631,"is_reserved":false,"is_disabled":false,"rental_uris":{"android":"levelo://app?vid=798dc85c-200c-497c-b898-bbe94259e100","ios":"levelo://app?vid=798dc85c-200c-497c-b898-bbe94259e100"},"vehicle_type_id":"4","last_reported":1720822037,"current_range_meters":8800,"station_id":"ce4bh2h2rcd13ifvqdh0","pricing_plan_id":"cebpf4jnsgd1na2vs0mg"},{"bike_id":"2a58fc22-d420-4a45-8389-71e57daabf8b","system_id":"levelo_inurba_marseille","lat":43.29417,"lon":5.38632,"is_reserved":false,"is_disabled":false,"rental_uris":{"android":"levelo://app?vid=2a58fc22-d420-4a45-8389-71e57daabf8b","ios":"levelo://app?vid=2a58fc22-d420-4a45-8389-71e57daabf8b"},"vehicle_type_id":"4","last_reported":1720822037,"current_range_meters":2000,"station_id":"ce4bh2h2rcd13ifvqdh0","pricing_plan_id":"cebpf4jnsgd1na2vs0mg"},{"bike_id":"67b14223-1cbf-474f-bd00-f72c4a2d2938","system_id":"levelo_inurba_marseille","lat":43.29416,"lon":5.38635,"is_reserved":false,"is_disabled":false,"rental_uris":{"android":"levelo://app?vid=67b14223-1cbf-474f-bd00-f72c4a2d2938","ios":"levelo://app?vid=67b14223-1cbf-474f-bd00-f72c4a2d2938"},"vehicle_type_id":"4","last_reported":1720822037,"current_range_meters":28800,"station_id":"ce4bh2h2rcd13ifvqdh0","pricing_plan_id":"cebpf4jnsgd1na2vs0mg"},{"bike_id":"980c3612-7803-49ed-96de-cedc66424863","system_id":"levelo_inurba_marseille","lat":43.29412,"lon":5.38629,"is_reserved":false,"is_disabled":false,"rental_uris":{"android":"levelo://app?vid=980c3612-7803-49ed-96de-cedc66424863","ios":"levelo://app?vid=980c3612-7803-49ed-96de-cedc66424863"},"vehicle_type_id":"4","last_reported":1720822037,"current_range_meters":0,"station_id":"ce4bh2h2rcd13ifvqdh0","pricing_plan_id":"cebpf4jnsgd1na2vs0mg"},{"bike_id":"2baadfd9-51d3-4fcd-92e0-4a81bbcdd434","system_id":"levelo_inurba_marseille","lat":43.29416,"lon":5.38637,"is_reserved":false,"is_disabled":false,"rental_uris":{"android":"levelo://app?vid=2baadfd9-51d3-4fcd-92e0-4a81bbcdd434","ios":"levelo://app?vid=2baadfd9-51d3-4fcd-92e0-4a81bbcdd434"},"vehicle_type_id":"4","last_reported":1720822037,"current_range_meters":12800,"station_id":"ce4bh2h2rcd13ifvqdh0","pricing_plan_id":"cebpf4jnsgd1na2vs0mg"},{"bike_id":"be6e10f8-f076-45f6-b144-545ebc93cfb7","system_id":"levelo_inurba_marseille","lat":43.289468,"lon":5.363719,"is_reserved":false,"is_disabled":false,"rental_uris":{"android":"levelo://app?vid=be6e10f8-f076-45f6-b144-545ebc93cfb7","ios":"levelo://app?vid=be6e10f8-f076-45f6-b144-545ebc93cfb7"},"vehicle_type_id":"4","last_reported":1720822037,"current_range_meters":24000,"station_id":"ce4bhc92rcd13ifvqetg","pricing_plan_id":"cebpf4jnsgd1na2vs0mg"},{"bike_id":"8806bc5b-6d57-4243-af08-8fee2e90650e","system_id":"levelo_inurba_marseille","lat":43.292748,"lon":5.384474,"is_reserved":false,"is_disabled":false,"rental_uris":{"android":"levelo://app?vid=8806bc5b-6d57-4243-af08-8fee2e90650e","ios":"levelo://app?vid=8806bc5b-6d57-4243-af08-8fee2e90650e"},"vehicle_type_id":"4","last_reported":1720822037,"current_range_meters":0,"station_id":"ce4bh692rcd13ifvqea0","pricing_plan_id":"cebpf4jnsgd1na2vs0mg"},{"bike_id":"25a5852f-d29c-4d81-b9f0-d355dcfaca8b","system_id":"levelo_inurba_marseille","lat":43.29271,"lon":5.38444,"is_reserved":false,"is_disabled":false,"rental_uris":{"android":"levelo://app?vid=25a5852f-d29c-4d81-b9f0-d355dcfaca8b","ios":"levelo://app?vid=25a5852f-d29c-4d81-b9f0-d355dcfaca8b"},"vehicle_type_id":"4","last_reported":1720822037,"current_range_meters":0,"station_id":"ce4bh692rcd13ifvqea0","pricing_plan_id":"cebpf4jnsgd1na2vs0mg"},{"bike_id":"b6790342-540b-4ccd-bb38-80ba00e649cd","system_id":"levelo_inurba_marseille","lat":43.2927,"lon":5.38442,"is_reserved":false,"is_disabled":false,"rental_uris":{"android":"levelo://app?vid=b6790342-540b-4ccd-bb38-80ba00e649cd","ios":"levelo://app?vid=b6790342-540b-4ccd-bb38-80ba00e649cd"},"vehicle_type_id":"4","last_reported":1720822037,"current_range_meters":0,"station_id":"ce4bh692rcd13ifvqea0","pricing_plan_id":"cebpf4jnsgd1na2vs0mg"},{"bike_id":"98066ca6-96b4-4d76-a62a-c01167139c89","system_id":"levelo_inurba_marseille","lat":43.292644,"lon":5.384257,"is_reserved":false,"is_disabled":false,"rental_uris":{"android":"levelo://app?vid=98066ca6-96b4-4d76-a62a-c01167139c89","ios":"levelo://app?vid=98066ca6-96b4-4d76-a62a-c01167139c89"},"vehicle_type_id":"4","last_reported":1720822037,"current_range_meters":0,"station_id":"ce4bh692rcd13ifvqea0","pricing_plan_id":"cebpf4jnsgd1na2vs0mg"},{"bike_id":"9fe6b91b-61e3-4753-97cc-79c1298a057c","system_id":"levelo_inurba_marseille","lat":43.292644,"lon":5.384257,"is_reserved":false,"is_disabled":false,"rental_uris":{"android":"levelo://app?vid=9fe6b91b-61e3-4753-97cc-79c1298a057c","ios":"levelo://app?vid=9fe6b91b-61e3-4753-97cc-79c1298a057c"},"vehicle_type_id":"4","last_reported":1720822037,"current_range_meters":24800,"station_id":"ce4bh692rcd13ifvqea0","pricing_plan_id":"cebpf4jnsgd1na2vs0mg"},{"bike_id":"395e87d7-1a81-45cf-93a3-960996d35a25","system_id":"levelo_inurba_marseille","lat":43.304296,"lon":5.397513,"is_reserved":false,"is_disabled":false,"rental_uris":{"android":"levelo://app?vid=395e87d7-1a81-45cf-93a3-960996d35a25","ios":"levelo://app?vid=395e87d7-1a81-45cf-93a3-960996d35a25"},"vehicle_type_id":"4","last_reported":1720822037,"current_range_meters":8800,"station_id":"ce4bh092rcd13ifvqd20","pricing_plan_id":"cebpf4jnsgd1na2vs0mg"},{"bike_id":"3994cdbd-174e-4415-9aee-7842cbfe35e9","system_id":"levelo_inurba_marseille","lat":43.304296,"lon":5.397513,"is_reserved":false,"is_disabled":false,"rental_uris":{"android":"levelo://app?vid=3994cdbd-174e-4415-9aee-7842cbfe35e9","ios":"levelo://app?vid=3994cdbd-174e-4415-9aee-7842cbfe35e9"},"vehicle_type_id":"4","last_reported":1720822037,"current_range_meters":9200,"station_id":"ce4bh092rcd13ifvqd20","pricing_plan_id":"cebpf4jnsgd1na2vs0mg"},{"bike_id":"374d43ef-86c1-45d6-9a82-cd68096077d8","system_id":"levelo_inurba_marseille","lat":43.290007,"lon":5.356427,"is_reserved":false,"is_disabled":false,"rental_uris":{"android":"levelo://app?vid=374d43ef-86c1-45d6-9a82-cd68096077d8","ios":"levelo://app?vid=374d43ef-86c1-45d6-9a82-cd68096077d8"},"vehicle_type_id":"4","last_reported":1720822037,"current_range_meters":800,"station_id":"ce4bhb92rcd13ifvqen0","pricing_plan_id":"cebpf4jnsgd1na2vs0mg"},{"bike_id":"21ba3780-2692-4d5a-9f79-f343c05fe143","system_id":"levelo_inurba_marseille","lat":43.32961,"lon":5.39044,"is_reserved":false,"is_disabled":false,"rental_uris":{"android":"levelo://app?vid=21ba3780-2692-4d5a-9f79-f343c05fe143","ios":"levelo://app?vid=21ba3780-2692-4d5a-9f79-f343c05fe143"},"vehicle_type_id":"4","last_reported":1720822037,"current_range_meters":800,"station_id":"","pricing_plan_id":"cebpf4jnsgd1na2vs0mg"},{"bike_id":"659e07fc-b850-4235-8f9a-addbf43e3220","system_id":"levelo_inurba_marseille","lat":43.33024,"lon":5.39033,"is_reserved":false,"is_disabled":false,"rental_uris":{"android":"levelo://app?vid=659e07fc-b850-4235-8f9a-addbf43e3220","ios":"levelo://app?vid=659e07fc-b850-4235-8f9a-addbf43e3220"},"vehicle_type_id":"4","last_reported":1720822037,"current_range_meters":16400,"station_id":"ce4bhr92rcd13ifvqhrg","pricing_plan_id":"cebpf4jnsgd1na2vs0mg"},{"bike_id":"c1e8b50f-b714-4122-b929-37bdb3b92222","system_id":"levelo_inurba_marseille","lat":43.29786,"lon":5.393557,"is_reserved":false,"is_disabled":false,"rental_uris":{"android":"levelo://app?vid=c1e8b50f-b714-4122-b929-37bdb3b92222","ios":"levelo://app?vid=c1e8b50f-b714-4122-b929-37bdb3b92222"},"vehicle_type_id":"4","last_reported":1720822037,"current_range_meters":7200,"station_id":"chh1huq6cuj3fo74tm60","pricing_plan_id":"cebpf4jnsgd1na2vs0mg"},{"bike_id":"cf5ff277-b092-41f9-9b3c-c505746b5d87","system_id":"levelo_inurba_marseille","lat":43.295169,"lon":5.390426,"is_reserved":false,"is_disabled":false,"rental_uris":{"android":"levelo://app?vid=cf5ff277-b092-41f9-9b3c-c505746b5d87","ios":"levelo://app?vid=cf5ff277-b092-41f9-9b3c-c505746b5d87"},"vehicle_type_id":"4","last_reported":1720822037,"current_range_meters":10000,"station_id":"ce4bh3p2rcd13ifvqdp0","pricing_plan_id":"cebpf4jnsgd1na2vs0mg"},{"bike_id":"79007e20-cb54-4fa3-b3a5-e03a093bbafc","system_id":"levelo_inurba_marseille","lat":43.29523,"lon":5.39037,"is_reserved":false,"is_disabled":false,"rental_uris":{"android":"levelo://app?vid=79007e20-cb54-4fa3-b3a5-e03a093bbafc","ios":"levelo://app?vid=79007e20-cb54-4fa3-b3a5-e03a093bbafc"},"vehicle_type_id":"4","last_reported":1720822037,"current_range_meters":28000,"station_id":"ce4bh3p2rcd13ifvqdp0","pricing_plan_id":"cebpf4jnsgd1na2vs0mg"},{"bike_id":"67a153be-da30-46b3-bf3d-dde24b1e42b5","system_id":"levelo_inurba_marseille","lat":43.330442,"lon":5.389148,"is_reserved":false,"is_disabled":false,"rental_uris":{"android":"levelo://app?vid=67a153be-da30-46b3-bf3d-dde24b1e42b5","ios":"levelo://app?vid=67a153be-da30-46b3-bf3d-dde24b1e42b5"},"vehicle_type_id":"4","last_reported":1720822037,"current_range_meters":26000,"station_id":"ce4bhr92rcd13ifvqhrg","pricing_plan_id":"cebpf4jnsgd1na2vs0mg"},{"bike_id":"caad35c3-db6f-48c6-9531-e70913fe3868","system_id":"levelo_inurba_marseille","lat":43.289717,"lon":5.378377,"is_reserved":false,"is_disabled":false,"rental_uris":{"android":"levelo://app?vid=caad35c3-db6f-48c6-9531-e70913fe3868","ios":"levelo://app?vid=caad35c3-db6f-48c6-9531-e70913fe3868"},"vehicle_type_id":"4","last_reported":1720822037,"current_range_meters":0,"station_id":"ce4bh9p2rcd13ifvqed0","pricing_plan_id":"cebpf4jnsgd1na2vs0mg"},{"bike_id":"e6dd8002-548d-4399-8536-f6781d3a9fd1","system_id":"levelo_inurba_marseille","lat":43.330442,"lon":5.389148,"is_reserved":false,"is_disabled":false,"rental_uris":{"android":"levelo://app?vid=e6dd8002-548d-4399-8536-f6781d3a9fd1","ios":"levelo://app?vid=e6dd8002-548d-4399-8536-f6781d3a9fd1"},"vehicle_type_id":"4","last_reported":1720822037,"current_range_meters":2400,"station_id":"ce4bhr92rcd13ifvqhrg","pricing_plan_id":"cebpf4jnsgd1na2vs0mg"},{"bike_id":"c24ea212-a1f1-40c8-96eb-3b92af25db46","system_id":"levelo_inurba_marseille","lat":43.330442,"lon":5.389148,"is_reserved":false,"is_disabled":false,"rental_uris":{"android":"levelo://app?vid=c24ea212-a1f1-40c8-96eb-3b92af25db46","ios":"levelo://app?vid=c24ea212-a1f1-40c8-96eb-3b92af25db46"},"vehicle_type_id":"4","last_reported":1720822037,"current_range_meters":16800,"station_id":"ce4bhr92rcd13ifvqhrg","pricing_plan_id":"cebpf4jnsgd1na2vs0mg"},{"bike_id":"08a18900-c756-4301-8e42-bcffab973d3f","system_id":"levelo_inurba_marseille","lat":43.330442,"lon":5.389148,"is_reserved":false,"is_disabled":false,"rental_uris":{"android":"levelo://app?vid=08a18900-c756-4301-8e42-bcffab973d3f","ios":"levelo://app?vid=08a18900-c756-4301-8e42-bcffab973d3f"},"vehicle_type_id":"4","last_reported":1720822037,"current_range_meters":1600,"station_id":"ce4bhr92rcd13ifvqhrg","pricing_plan_id":"cebpf4jnsgd1na2vs0mg"},{"bike_id":"03b7ef5a-f624-48e7-aedc-0c73f74c42fe","system_id":"levelo_inurba_marseille","lat":43.295169,"lon":5.390426,"is_reserved":false,"is_disabled":false,"rental_uris":{"android":"levelo://app?vid=03b7ef5a-f624-48e7-aedc-0c73f74c42fe","ios":"levelo://app?vid=03b7ef5a-f624-48e7-aedc-0c73f74c42fe"},"vehicle_type_id":"4","last_reported":1720822037,"current_range_meters":10800,"station_id":"ce4bh3p2rcd13ifvqdp0","pricing_plan_id":"cebpf4jnsgd1na2vs0mg"},{"bike_id":"7ba6ba6b-5c87-40a5-90f2-6c5839401b3d","system_id":"levelo_inurba_marseille","lat":43.295169,"lon":5.390426,"is_reserved":false,"is_disabled":false,"rental_uris":{"android":"levelo://app?vid=7ba6ba6b-5c87-40a5-90f2-6c5839401b3d","ios":"levelo://app?vid=7ba6ba6b-5c87-40a5-90f2-6c5839401b3d"},"vehicle_type_id":"4","last_reported":1720822037,"current_range_meters":22000,"station_id":"ce4bh3p2rcd13ifvqdp0","pricing_plan_id":"cebpf4jnsgd1na2vs0mg"},{"bike_id":"20a7104a-9edc-483f-b931-5e8ec9679ffe","system_id":"levelo_inurba_marseille","lat":43.295169,"lon":5.390426,"is_reserved":false,"is_disabled":false,"rental_uris":{"android":"levelo://app?vid=20a7104a-9edc-483f-b931-5e8ec9679ffe","ios":"levelo://app?vid=20a7104a-9edc-483f-b931-5e8ec9679ffe"},"vehicle_type_id":"4","last_reported":1720822037,"current_range_meters":400,"station_id":"ce4bh3p2rcd13ifvqdp0","pricing_plan_id":"cebpf4jnsgd1na2vs0mg"},{"bike_id":"be56a5f0-8249-4479-8070-f77e93fea06e","system_id":"levelo_inurba_marseille","lat":43.309974,"lon":5.400654,"is_reserved":false,"is_disabled":false,"rental_uris":{"android":"levelo://app?vid=be56a5f0-8249-4479-8070-f77e93fea06e","ios":"levelo://app?vid=be56a5f0-8249-4479-8070-f77e93fea06e"},"vehicle_type_id":"4","last_reported":1720822037,"current_range_meters":0,"station_id":"","pricing_plan_id":"cebpf4jnsgd1na2vs0mg"},{"bike_id":"af8ada33-2702-4cb2-a0cc-1b85e55df506","system_id":"levelo_inurba_marseille","lat":43.29032,"lon":5.38142,"is_reserved":false,"is_disabled":false,"rental_uris":{"android":"levelo://app?vid=af8ada33-2702-4cb2-a0cc-1b85e55df506","ios":"levelo://app?vid=af8ada33-2702-4cb2-a0cc-1b85e55df506"},"vehicle_type_id":"4","last_reported":1720822037,"current_range_meters":12800,"station_id":"ce4bh4p2rcd13ifvqe1g","pricing_plan_id":"cebpf4jnsgd1na2vs0mg"},{"bike_id":"5bf45622-b39d-4551-9368-7a857ed0feeb","system_id":"levelo_inurba_marseille","lat":43.290288,"lon":5.381388,"is_reserved":false,"is_disabled":false,"rental_uris":{"android":"levelo://app?vid=5bf45622-b39d-4551-9368-7a857ed0feeb","ios":"levelo://app?vid=5bf45622-b39d-4551-9368-7a857ed0feeb"},"vehicle_type_id":"4","last_reported":1720822037,"current_range_meters":0,"station_id":"ce4bh4p2rcd13ifvqe1g","pricing_plan_id":"cebpf4jnsgd1na2vs0mg"},{"bike_id":"120d0032-e0fd-4079-9979-cd8e62490755","system_id":"levelo_inurba_marseille","lat":43.28856,"lon":5.358371,"is_reserved":false,"is_disabled":false,"rental_uris":{"android":"levelo://app?vid=120d0032-e0fd-4079-9979-cd8e62490755","ios":"levelo://app?vid=120d0032-e0fd-4079-9979-cd8e62490755"},"vehicle_type_id":"4","last_reported":1720822037,"current_range_meters":4000,"station_id":"ce4bhb12rcd13ifvqem0","pricing_plan_id":"cebpf4jnsgd1na2vs0mg"},{"bike_id":"5789aaeb-4385-437b-ad60-7641016f7465","system_id":"levelo_inurba_marseille","lat":43.290094,"lon":5.381264,"is_reserved":false,"is_disabled":false,"rental_uris":{"android":"levelo://app?vid=5789aaeb-4385-437b-ad60-7641016f7465","ios":"levelo://app?vid=5789aaeb-4385-437b-ad60-7641016f7465"},"vehicle_type_id":"4","last_reported":1720822037,"current_range_meters":18000,"station_id":"ce4bh4p2rcd13ifvqe1g","pricing_plan_id":"cebpf4jnsgd1na2vs0mg"},{"bike_id":"542940b3-ae80-4fed-ada3-8ed41eb63afe","system_id":"levelo_inurba_marseille","lat":43.28945,"lon":5.35479,"is_reserved":false,"is_disabled":false,"rental_uris":{"android":"levelo://app?vid=542940b3-ae80-4fed-ada3-8ed41eb63afe","ios":"levelo://app?vid=542940b3-ae80-4fed-ada3-8ed41eb63afe"},"vehicle_type_id":"4","last_reported":1720822037,"current_range_meters":16800,"station_id":"","pricing_plan_id":"cebpf4jnsgd1na2vs0mg"},{"bike_id":"9772cfa5-c834-47c2-880f-5c1656f6836c","system_id":"levelo_inurba_marseille","lat":43.28856,"lon":5.358371,"is_reserved":false,"is_disabled":false,"rental_uris":{"android":"levelo://app?vid=9772cfa5-c834-47c2-880f-5c1656f6836c","ios":"levelo://app?vid=9772cfa5-c834-47c2-880f-5c1656f6836c"},"vehicle_type_id":"4","last_reported":1720822037,"current_range_meters":0,"station_id":"ce4bhb12rcd13ifvqem0","pricing_plan_id":"cebpf4jnsgd1na2vs0mg"},{"bike_id":"4282d866-2b61-42d2-bfca-e9b33bbb600b","system_id":"levelo_inurba_marseille","lat":43.290094,"lon":5.381264,"is_reserved":false,"is_disabled":false,"rental_uris":{"android":"levelo://app?vid=4282d866-2b61-42d2-bfca-e9b33bbb600b","ios":"levelo://app?vid=4282d866-2b61-42d2-bfca-e9b33bbb600b"},"vehicle_type_id":"4","last_reported":1720822037,"current_range_meters":5600,"station_id":"ce4bh4p2rcd13ifvqe1g","pricing_plan_id":"cebpf4jnsgd1na2vs0mg"},{"bike_id":"6e136d8c-2cb8-40e0-b925-fa6bc58ec452","system_id":"levelo_inurba_marseille","lat":43.33663,"lon":5.35584,"is_reserved":false,"is_disabled":false,"rental_uris":{"android":"levelo://app?vid=6e136d8c-2cb8-40e0-b925-fa6bc58ec452","ios":"levelo://app?vid=6e136d8c-2cb8-40e0-b925-fa6bc58ec452"},"vehicle_type_id":"4","last_reported":1720822037,"current_range_meters":14400,"station_id":"","pricing_plan_id":"cebpf4jnsgd1na2vs0mg"},{"bike_id":"668c5784-2bfb-4241-9caf-b9a5b8ecf12a","system_id":"levelo_inurba_marseille","lat":43.309371,"lon":5.401449,"is_reserved":false,"is_disabled":false,"rental_uris":{"android":"levelo://app?vid=668c5784-2bfb-4241-9caf-b9a5b8ecf12a","ios":"levelo://app?vid=668c5784-2bfb-4241-9caf-b9a5b8ecf12a"},"vehicle_type_id":"4","last_reported":1720822037,"current_range_meters":22800,"station_id":"ce4bgvp2rcd13ifvqct0","pricing_plan_id":"cebpf4jnsgd1na2vs0mg"},{"bike_id":"c2f03952-a61f-48da-a2be-c0e0277542bf","system_id":"levelo_inurba_marseille","lat":43.312609,"lon":5.401662,"is_reserved":false,"is_disabled":false,"rental_uris":{"android":"levelo://app?vid=c2f03952-a61f-48da-a2be-c0e0277542bf","ios":"levelo://app?vid=c2f03952-a61f-48da-a2be-c0e0277542bf"},"vehicle_type_id":"4","last_reported":1720822037,"current_range_meters":6000,"station_id":"ce4bh092rcd13ifvqd30","pricing_plan_id":"cebpf4jnsgd1na2vs0mg"},{"bike_id":"6ec1f88e-ecaa-468f-9b88-4508b8b17a16","system_id":"levelo_inurba_marseille","lat":43.312609,"lon":5.401662,"is_reserved":false,"is_disabled":false,"rental_uris":{"android":"levelo://app?vid=6ec1f88e-ecaa-468f-9b88-4508b8b17a16","ios":"levelo://app?vid=6ec1f88e-ecaa-468f-9b88-4508b8b17a16"},"vehicle_type_id":"4","last_reported":1720822037,"current_range_meters":12800,"station_id":"ce4bh092rcd13ifvqd30","pricing_plan_id":"cebpf4jnsgd1na2vs0mg"},{"bike_id":"cf1421ca-27f5-4ea4-9607-bd1765031a55","system_id":"levelo_inurba_marseille","lat":43.312609,"lon":5.401662,"is_reserved":false,"is_disabled":false,"rental_uris":{"android":"levelo://app?vid=cf1421ca-27f5-4ea4-9607-bd1765031a55","ios":"levelo://app?vid=cf1421ca-27f5-4ea4-9607-bd1765031a55"},"vehicle_type_id":"4","last_reported":1720822037,"current_range_meters":19600,"station_id":"ce4bh092rcd13ifvqd30","pricing_plan_id":"cebpf4jnsgd1na2vs0mg"},{"bike_id":"b4d942c6-3b24-408c-b5b9-35ce86d44f49","system_id":"levelo_inurba_marseille","lat":43.312609,"lon":5.401662,"is_reserved":false,"is_disabled":false,"rental_uris":{"android":"levelo://app?vid=b4d942c6-3b24-408c-b5b9-35ce86d44f49","ios":"levelo://app?vid=b4d942c6-3b24-408c-b5b9-35ce86d44f49"},"vehicle_type_id":"4","last_reported":1720822037,"current_range_meters":0,"station_id":"ce4bh092rcd13ifvqd30","pricing_plan_id":"cebpf4jnsgd1na2vs0mg"},{"bike_id":"0fdc5dd3-c56e-4f50-8d24-f3a81189ae0c","system_id":"levelo_inurba_marseille","lat":43.312609,"lon":5.401662,"is_reserved":false,"is_disabled":false,"rental_uris":{"android":"levelo://app?vid=0fdc5dd3-c56e-4f50-8d24-f3a81189ae0c","ios":"levelo://app?vid=0fdc5dd3-c56e-4f50-8d24-f3a81189ae0c"},"vehicle_type_id":"4","last_reported":1720822037,"current_range_meters":26800,"station_id":"ce4bh092rcd13ifvqd30","pricing_plan_id":"cebpf4jnsgd1na2vs0mg"},{"bike_id":"c8d9ff5e-fe94-47ab-8df4-ac8104e7e764","system_id":"levelo_inurba_marseille","lat":43.312609,"lon":5.401662,"is_reserved":false,"is_disabled":false,"rental_uris":{"android":"levelo://app?vid=c8d9ff5e-fe94-47ab-8df4-ac8104e7e764","ios":"levelo://app?vid=c8d9ff5e-fe94-47ab-8df4-ac8104e7e764"},"vehicle_type_id":"4","last_reported":1720822037,"current_range_meters":4000,"station_id":"ce4bh092rcd13ifvqd30","pricing_plan_id":"cebpf4jnsgd1na2vs0mg"},{"bike_id":"7bbb8004-87a1-4a35-844c-72670dd79211","system_id":"levelo_inurba_marseille","lat":43.312609,"lon":5.401662,"is_reserved":false,"is_disabled":false,"rental_uris":{"android":"levelo://app?vid=7bbb8004-87a1-4a35-844c-72670dd79211","ios":"levelo://app?vid=7bbb8004-87a1-4a35-844c-72670dd79211"},"vehicle_type_id":"4","last_reported":1720822037,"current_range_meters":8000,"station_id":"ce4bh092rcd13ifvqd30","pricing_plan_id":"cebpf4jnsgd1na2vs0mg"},{"bike_id":"6708ec02-0d97-4939-a17d-3cf97e0baba4","system_id":"levelo_inurba_marseille","lat":43.309371,"lon":5.401449,"is_reserved":false,"is_disabled":false,"rental_uris":{"android":"levelo://app?vid=6708ec02-0d97-4939-a17d-3cf97e0baba4","ios":"levelo://app?vid=6708ec02-0d97-4939-a17d-3cf97e0baba4"},"vehicle_type_id":"4","last_reported":1720822037,"current_range_meters":28800,"station_id":"ce4bgvp2rcd13ifvqct0","pricing_plan_id":"cebpf4jnsgd1na2vs0mg"},{"bike_id":"219d0d76-9416-4543-8766-4dd8adcfbf6b","system_id":"levelo_inurba_marseille","lat":43.33745,"lon":5.37459,"is_reserved":false,"is_disabled":false,"rental_uris":{"android":"levelo://app?vid=219d0d76-9416-4543-8766-4dd8adcfbf6b","ios":"levelo://app?vid=219d0d76-9416-4543-8766-4dd8adcfbf6b"},"vehicle_type_id":"4","last_reported":1720822037,"current_range_meters":29200,"station_id":"","pricing_plan_id":"cebpf4jnsgd1na2vs0mg"},{"bike_id":"7eda1e7d-b15c-4507-a807-6a77db903ee7","system_id":"levelo_inurba_marseille","lat":43.337466,"lon":5.374504,"is_reserved":false,"is_disabled":false,"rental_uris":{"android":"levelo://app?vid=7eda1e7d-b15c-4507-a807-6a77db903ee7","ios":"levelo://app?vid=7eda1e7d-b15c-4507-a807-6a77db903ee7"},"vehicle_type_id":"4","last_reported":1720822037,"current_range_meters":6800,"station_id":"","pricing_plan_id":"cebpf4jnsgd1na2vs0mg"},{"bike_id":"fa66ffe0-737f-4e0d-b1a1-00060d73ce2e","system_id":"levelo_inurba_marseille","lat":43.309371,"lon":5.401449,"is_reserved":false,"is_disabled":false,"rental_uris":{"android":"levelo://app?vid=fa66ffe0-737f-4e0d-b1a1-00060d73ce2e","ios":"levelo://app?vid=fa66ffe0-737f-4e0d-b1a1-00060d73ce2e"},"vehicle_type_id":"4","last_reported":1720822037,"current_range_meters":0,"station_id":"ce4bgvp2rcd13ifvqct0","pricing_plan_id":"cebpf4jnsgd1na2vs0mg"},{"bike_id":"8a8ab2de-f1ce-4bf6-81e6-e0ea61138e0a","system_id":"levelo_inurba_marseille","lat":43.309371,"lon":5.401449,"is_reserved":false,"is_disabled":false,"rental_uris":{"android":"levelo://app?vid=8a8ab2de-f1ce-4bf6-81e6-e0ea61138e0a","ios":"levelo://app?vid=8a8ab2de-f1ce-4bf6-81e6-e0ea61138e0a"},