{"last_updated":1701022076,"ttl":30,"version":"2.2","data":{"bikes":[{"bike_id":"c26dbb15-0dc1-4c22-a9fe-ecd9e6e1141f","system_id":"levelo_inurba_marseille","lat":43.312239,"lon":5.368562,"is_reserved":false,"is_disabled":false,"rental_uris":{"android":"levelo://app?vid=c26dbb15-0dc1-4c22-a9fe-ecd9e6e1141f","ios":"levelo://app?vid=c26dbb15-0dc1-4c22-a9fe-ecd9e6e1141f"},"vehicle_type_id":"4","last_reported":1701022076,"current_range_meters":800,"station_id":"ce4bgl92rcd13ifvqbq0","pricing_plan_id":"free"},{"bike_id":"917df3e3-58e3-4125-bcf8-e4af980bafa7","system_id":"levelo_inurba_marseille","lat":43.314811,"lon":5.373103,"is_reserved":false,"is_disabled":false,"rental_uris":{"android":"levelo://app?vid=917df3e3-58e3-4125-bcf8-e4af980bafa7","ios":"levelo://app?vid=917df3e3-58e3-4125-bcf8-e4af980bafa7"},"vehicle_type_id":"4","last_reported":1701022076,"current_range_meters":8800,"station_id":"ce4bgt12rcd13ifvqcd0","pricing_plan_id":"free"},{"bike_id":"6bcb3805-ba65-4bc6-9ea9-df8d4253141d","system_id":"levelo_inurba_marseille","lat":43.309039,"lon":5.371797,"is_reserved":false,"is_disabled":false,"rental_uris":{"android":"levelo://app?vid=6bcb3805-ba65-4bc6-9ea9-df8d4253141d","ios":"levelo://app?vid=6bcb3805-ba65-4bc6-9ea9-df8d4253141d"},"vehicle_type_id":"4","last_reported":1701022076,"current_range_meters":20800,"station_id":"ce4bguh2rcd13ifvqckg","pricing_plan_id":"free"},{"bike_id":"9e254fb1-0a84-4708-acee-ed1fc071c1e8","system_id":"levelo_inurba_marseille","lat":43.309039,"lon":5.371797,"is_reserved":false,"is_disabled":false,"rental_uris":{"android":"levelo://app?vid=9e254fb1-0a84-4708-acee-ed1fc071c1e8","ios":"levelo://app?vid=9e254fb1-0a84-4708-acee-ed1fc071c1e8"},"vehicle_type_id":"4","last_reported":1701022076,"current_range_meters":5200,"station_id":"ce4bguh2rcd13ifvqckg","pricing_plan_id":"free"},{"bike_id":"eb91ab1e-20dc-4b1e-ac33-07df588d47a7","system_id":"levelo_inurba_marseille","lat":43.30879,"lon":5.37187,"is_reserved":false,"is_disabled":false,"rental_uris":{"android":"levelo://app?vid=eb91ab1e-20dc-4b1e-ac33-07df588d47a7","ios":"levelo://app?vid=eb91ab1e-20dc-4b1e-ac33-07df588d47a7"},"vehicle_type_id":"4","last_reported":1701022076,"current_range_meters":400,"station_id":"ce4bguh2rcd13ifvqckg","pricing_plan_id":"free"},{"bike_id":"b04e92f9-bbe8-48d2-8cad-044771be346d","system_id":"levelo_inurba_marseille","lat":43.305368,"lon":5.367343,"is_reserved":false,"is_disabled":false,"rental_uris":{"android":"levelo://app?vid=b04e92f9-bbe8-48d2-8cad-044771be346d","ios":"levelo://app?vid=b04e92f9-bbe8-48d2-8cad-044771be346d"},"vehicle_type_id":"4","last_reported":1701022076,"current_range_meters":1600,"station_id":"ce4bgrp2rcd13ifvqc9g","pricing_plan_id":"free"},{"bike_id":"9ebec130-a4a3-49c0-8622-5b999d72710b","system_id":"levelo_inurba_marseille","lat":43.3112,"lon":5.37773,"is_reserved":false,"is_disabled":false,"rental_uris":{"android":"levelo://app?vid=9ebec130-a4a3-49c0-8622-5b999d72710b","ios":"levelo://app?vid=9ebec130-a4a3-49c0-8622-5b999d72710b"},"vehicle_type_id":"4","last_reported":1701022076,"current_range_meters":0,"station_id":"ce4bgt92rcd13ifvqcg0","pricing_plan_id":"free"},{"bike_id":"86b1d425-230d-4bd5-8472-5c7574690a22","system_id":"levelo_inurba_marseille","lat":43.311131,"lon":5.377651,"is_reserved":false,"is_disabled":false,"rental_uris":{"android":"levelo://app?vid=86b1d425-230d-4bd5-8472-5c7574690a22","ios":"levelo://app?vid=86b1d425-230d-4bd5-8472-5c7574690a22"},"vehicle_type_id":"4","last_reported":1701022076,"current_range_meters":0,"station_id":"ce4bgt92rcd13ifvqcg0","pricing_plan_id":"free"},{"bike_id":"573a870a-b6c4-429d-8587-8103772b84bc","system_id":"levelo_inurba_marseille","lat":43.308208,"lon":5.376611,"is_reserved":false,"is_disabled":false,"rental_uris":{"android":"levelo://app?vid=573a870a-b6c4-429d-8587-8103772b84bc","ios":"levelo://app?vid=573a870a-b6c4-429d-8587-8103772b84bc"},"vehicle_type_id":"4","last_reported":1701022076,"current_range_meters":0,"station_id":"ce4bgv92rcd13ifvqcq0","pricing_plan_id":"free"},{"bike_id":"f427a2c3-6e4a-446b-ae2f-9be8aa7f4122","system_id":"levelo_inurba_marseille","lat":43.31719,"lon":5.376813,"is_reserved":false,"is_disabled":false,"rental_uris":{"android":"levelo://app?vid=f427a2c3-6e4a-446b-ae2f-9be8aa7f4122","ios":"levelo://app?vid=f427a2c3-6e4a-446b-ae2f-9be8aa7f4122"},"vehicle_type_id":"4","last_reported":1701022076,"current_range_meters":20400,"station_id":"ce4bgth2rcd13ifvqch0","pricing_plan_id":"free"},{"bike_id":"b898b018-f57d-4901-bab2-fdd15d391de9","system_id":"levelo_inurba_marseille","lat":43.317168,"lon":5.376883,"is_reserved":false,"is_disabled":false,"rental_uris":{"android":"levelo://app?vid=b898b018-f57d-4901-bab2-fdd15d391de9","ios":"levelo://app?vid=b898b018-f57d-4901-bab2-fdd15d391de9"},"vehicle_type_id":"4","last_reported":1701022076,"current_range_meters":22400,"station_id":"ce4bgth2rcd13ifvqch0","pricing_plan_id":"free"},{"bike_id":"93476d61-529e-4fe5-9fcd-ca8912eb21f8","system_id":"levelo_inurba_marseille","lat":43.303046,"lon":5.368981,"is_reserved":false,"is_disabled":false,"rental_uris":{"android":"levelo://app?vid=93476d61-529e-4fe5-9fcd-ca8912eb21f8","ios":"levelo://app?vid=93476d61-529e-4fe5-9fcd-ca8912eb21f8"},"vehicle_type_id":"4","last_reported":1701022076,"current_range_meters":5600,"station_id":"ce4bgqh2rcd13ifvqc5g","pricing_plan_id":"free"},{"bike_id":"9dd512cb-1da4-425d-942e-c20474143127","system_id":"levelo_inurba_marseille","lat":43.32176,"lon":5.37495,"is_reserved":false,"is_disabled":false,"rental_uris":{"android":"levelo://app?vid=9dd512cb-1da4-425d-942e-c20474143127","ios":"levelo://app?vid=9dd512cb-1da4-425d-942e-c20474143127"},"vehicle_type_id":"4","last_reported":1701022076,"current_range_meters":10800,"station_id":"","pricing_plan_id":"free"},{"bike_id":"8ef87ac3-8a0d-4ac6-80c0-266e2621bf7f","system_id":"levelo_inurba_marseille","lat":43.32174,"lon":5.375,"is_reserved":false,"is_disabled":false,"rental_uris":{"android":"levelo://app?vid=8ef87ac3-8a0d-4ac6-80c0-266e2621bf7f","ios":"levelo://app?vid=8ef87ac3-8a0d-4ac6-80c0-266e2621bf7f"},"vehicle_type_id":"4","last_reported":1701022076,"current_range_meters":21200,"station_id":"","pricing_plan_id":"free"},{"bike_id":"3a87389c-b9fb-4af2-b9cb-812147cc4fa0","system_id":"levelo_inurba_marseille","lat":43.301939,"lon":5.366286,"is_reserved":false,"is_disabled":false,"rental_uris":{"android":"levelo://app?vid=3a87389c-b9fb-4af2-b9cb-812147cc4fa0","ios":"levelo://app?vid=3a87389c-b9fb-4af2-b9cb-812147cc4fa0"},"vehicle_type_id":"4","last_reported":1701022076,"current_range_meters":800,"station_id":"ce4bgrh2rcd13ifvqc8g","pricing_plan_id":"free"},{"bike_id":"54503c99-7025-44a3-b7bf-52ea939cbfb5","system_id":"levelo_inurba_marseille","lat":43.308012,"lon":5.381511,"is_reserved":false,"is_disabled":false,"rental_uris":{"android":"levelo://app?vid=54503c99-7025-44a3-b7bf-52ea939cbfb5","ios":"levelo://app?vid=54503c99-7025-44a3-b7bf-52ea939cbfb5"},"vehicle_type_id":"4","last_reported":1701022076,"current_range_meters":13200,"station_id":"ce4bgt12rcd13ifvqce0","pricing_plan_id":"free"},{"bike_id":"683049c5-7b0c-4e5b-a14c-06ff1555eb75","system_id":"levelo_inurba_marseille","lat":43.304096,"lon":5.425385,"is_reserved":false,"is_disabled":false,"rental_uris":{"android":"levelo://app?vid=683049c5-7b0c-4e5b-a14c-06ff1555eb75","ios":"levelo://app?vid=683049c5-7b0c-4e5b-a14c-06ff1555eb75"},"vehicle_type_id":"4","last_reported":1701022076,"current_range_meters":24800,"station_id":"ce4bhoh2rcd13ifvqh6g","pricing_plan_id":"free"},{"bike_id":"47b4b25e-39db-48fa-b30b-d53efbb942eb","system_id":"levelo_inurba_marseille","lat":43.304606,"lon":5.379026,"is_reserved":false,"is_disabled":false,"rental_uris":{"android":"levelo://app?vid=47b4b25e-39db-48fa-b30b-d53efbb942eb","ios":"levelo://app?vid=47b4b25e-39db-48fa-b30b-d53efbb942eb"},"vehicle_type_id":"4","last_reported":1701022076,"current_range_meters":10000,"station_id":"ce4bgup2rcd13ifvqcn0","pricing_plan_id":"free"},{"bike_id":"08123242-e162-47ac-83c9-f4ba62937703","system_id":"levelo_inurba_marseille","lat":43.304606,"lon":5.379026,"is_reserved":false,"is_disabled":false,"rental_uris":{"android":"levelo://app?vid=08123242-e162-47ac-83c9-f4ba62937703","ios":"levelo://app?vid=08123242-e162-47ac-83c9-f4ba62937703"},"vehicle_type_id":"4","last_reported":1701022076,"current_range_meters":19200,"station_id":"ce4bgup2rcd13ifvqcn0","pricing_plan_id":"free"},{"bike_id":"34e6f1aa-e4e6-4f4f-8abe-7474523b9fd3","system_id":"levelo_inurba_marseille","lat":43.304606,"lon":5.379026,"is_reserved":false,"is_disabled":false,"rental_uris":{"android":"levelo://app?vid=34e6f1aa-e4e6-4f4f-8abe-7474523b9fd3","ios":"levelo://app?vid=34e6f1aa-e4e6-4f4f-8abe-7474523b9fd3"},"vehicle_type_id":"4","last_reported":1701022076,"current_range_meters":28000,"station_id":"ce4bgup2rcd13ifvqcn0","pricing_plan_id":"free"},{"bike_id":"78ab4ace-44cf-4cd5-ab17-875f3074223c","system_id":"levelo_inurba_marseille","lat":43.31635,"lon":5.38341,"is_reserved":false,"is_disabled":false,"rental_uris":{"android":"levelo://app?vid=78ab4ace-44cf-4cd5-ab17-875f3074223c","ios":"levelo://app?vid=78ab4ace-44cf-4cd5-ab17-875f3074223c"},"vehicle_type_id":"4","last_reported":1701022076,"current_range_meters":13600,"station_id":"","pricing_plan_id":"free"},{"bike_id":"c87aff9c-f529-49a8-adcb-edb40db68340","system_id":"levelo_inurba_marseille","lat":43.301429,"lon":5.37413,"is_reserved":false,"is_disabled":false,"rental_uris":{"android":"levelo://app?vid=c87aff9c-f529-49a8-adcb-edb40db68340","ios":"levelo://app?vid=c87aff9c-f529-49a8-adcb-edb40db68340"},"vehicle_type_id":"4","last_reported":1701022076,"current_range_meters":9200,"station_id":"ce4bgs92rcd13ifvqcc0","pricing_plan_id":"free"},{"bike_id":"4960cd84-5f51-4fcb-bf4f-043f77c0faa0","system_id":"levelo_inurba_marseille","lat":43.31477,"lon":5.38402,"is_reserved":false,"is_disabled":false,"rental_uris":{"android":"levelo://app?vid=4960cd84-5f51-4fcb-bf4f-043f77c0faa0","ios":"levelo://app?vid=4960cd84-5f51-4fcb-bf4f-043f77c0faa0"},"vehicle_type_id":"4","last_reported":1701022076,"current_range_meters":16800,"station_id":"","pricing_plan_id":"free"},{"bike_id":"e1c5179b-1edf-4c62-9406-4fcf9e0f97a4","system_id":"levelo_inurba_marseille","lat":43.3199,"lon":5.38166,"is_reserved":false,"is_disabled":false,"rental_uris":{"android":"levelo://app?vid=e1c5179b-1edf-4c62-9406-4fcf9e0f97a4","ios":"levelo://app?vid=e1c5179b-1edf-4c62-9406-4fcf9e0f97a4"},"vehicle_type_id":"4","last_reported":1701022076,"current_range_meters":2400,"station_id":"","pricing_plan_id":"free"},{"bike_id":"bae413ef-c11a-41ee-961d-5ec46730bf33","system_id":"levelo_inurba_marseille","lat":43.299724,"lon":5.371829,"is_reserved":false,"is_disabled":false,"rental_uris":{"android":"levelo://app?vid=bae413ef-c11a-41ee-961d-5ec46730bf33","ios":"levelo://app?vid=bae413ef-c11a-41ee-961d-5ec46730bf33"},"vehicle_type_id":"4","last_reported":1701022076,"current_range_meters":2400,"station_id":"ce4bgr92rcd13ifvqc7g","pricing_plan_id":"free"},{"bike_id":"f1cba095-3c08-40f8-8f66-31322db71ad2","system_id":"levelo_inurba_marseille","lat":43.299724,"lon":5.371829,"is_reserved":false,"is_disabled":false,"rental_uris":{"android":"levelo://app?vid=f1cba095-3c08-40f8-8f66-31322db71ad2","ios":"levelo://app?vid=f1cba095-3c08-40f8-8f66-31322db71ad2"},"vehicle_type_id":"4","last_reported":1701022076,"current_range_meters":6800,"station_id":"ce4bgr92rcd13ifvqc7g","pricing_plan_id":"free"},{"bike_id":"2fc9ae6d-439c-4cdb-8140-8b942f09147b","system_id":"levelo_inurba_marseille","lat":43.299724,"lon":5.371829,"is_reserved":false,"is_disabled":false,"rental_uris":{"android":"levelo://app?vid=2fc9ae6d-439c-4cdb-8140-8b942f09147b","ios":"levelo://app?vid=2fc9ae6d-439c-4cdb-8140-8b942f09147b"},"vehicle_type_id":"4","last_reported":1701022076,"current_range_meters":20800,"station_id":"ce4bgr92rcd13ifvqc7g","pricing_plan_id":"free"},{"bike_id":"f000f183-7371-4c48-9d14-fff27215dd8f","system_id":"levelo_inurba_marseille","lat":43.298433,"lon":5.362774,"is_reserved":false,"is_disabled":false,"rental_uris":{"android":"levelo://app?vid=f000f183-7371-4c48-9d14-fff27215dd8f","ios":"levelo://app?vid=f000f183-7371-4c48-9d14-fff27215dd8f"},"vehicle_type_id":"4","last_reported":1701022076,"current_range_meters":4800,"station_id":"ce4bgpp2rcd13ifvqc3g","pricing_plan_id":"free"},{"bike_id":"0f228817-0f6a-4b6a-b1b2-d2639a0f01af","system_id":"levelo_inurba_marseille","lat":43.305364,"lon":5.384119,"is_reserved":false,"is_disabled":false,"rental_uris":{"android":"levelo://app?vid=0f228817-0f6a-4b6a-b1b2-d2639a0f01af","ios":"levelo://app?vid=0f228817-0f6a-4b6a-b1b2-d2639a0f01af"},"vehicle_type_id":"4","last_reported":1701022076,"current_range_meters":30000,"station_id":"ce4bgg92rcd13ifvqb30","pricing_plan_id":"free"},{"bike_id":"9fbf1a30-0f38-40e2-aecd-5ed6e5df72f2","system_id":"levelo_inurba_marseille","lat":43.31171,"lon":5.3872,"is_reserved":false,"is_disabled":false,"rental_uris":{"android":"levelo://app?vid=9fbf1a30-0f38-40e2-aecd-5ed6e5df72f2","ios":"levelo://app?vid=9fbf1a30-0f38-40e2-aecd-5ed6e5df72f2"},"vehicle_type_id":"4","last_reported":1701022076,"current_range_meters":19600,"station_id":"ce4bgv12rcd13ifvqcp0","pricing_plan_id":"free"},{"bike_id":"efcf965d-8a14-411d-8964-3ca541e5c8ce","system_id":"levelo_inurba_marseille","lat":43.31172,"lon":5.38721,"is_reserved":false,"is_disabled":false,"rental_uris":{"android":"levelo://app?vid=efcf965d-8a14-411d-8964-3ca541e5c8ce","ios":"levelo://app?vid=efcf965d-8a14-411d-8964-3ca541e5c8ce"},"vehicle_type_id":"4","last_reported":1701022076,"current_range_meters":400,"station_id":"ce4bgv12rcd13ifvqcp0","pricing_plan_id":"free"},{"bike_id":"29e76194-c3c1-42d6-a96f-3ba56a43cb67","system_id":"levelo_inurba_marseille","lat":43.297163,"lon":5.365866,"is_reserved":false,"is_disabled":false,"rental_uris":{"android":"levelo://app?vid=29e76194-c3c1-42d6-a96f-3ba56a43cb67","ios":"levelo://app?vid=29e76194-c3c1-42d6-a96f-3ba56a43cb67"},"vehicle_type_id":"4","last_reported":1701022076,"current_range_meters":25600,"station_id":"ce4bgn12rcd13ifvqbt0","pricing_plan_id":"free"},{"bike_id":"7bc395e9-78ef-4702-acfd-92ac1238ec91","system_id":"levelo_inurba_marseille","lat":43.2968,"lon":5.37291,"is_reserved":false,"is_disabled":false,"rental_uris":{"android":"levelo://app?vid=7bc395e9-78ef-4702-acfd-92ac1238ec91","ios":"levelo://app?vid=7bc395e9-78ef-4702-acfd-92ac1238ec91"},"vehicle_type_id":"4","last_reported":1701022076,"current_range_meters":0,"station_id":"ce4bgk12rcd13ifvqbj0","pricing_plan_id":"free"},{"bike_id":"30550596-e52f-4a4f-b197-304f24a6f89c","system_id":"levelo_inurba_marseille","lat":43.299028,"lon":5.381509,"is_reserved":false,"is_disabled":false,"rental_uris":{"android":"levelo://app?vid=30550596-e52f-4a4f-b197-304f24a6f89c","ios":"levelo://app?vid=30550596-e52f-4a4f-b197-304f24a6f89c"},"vehicle_type_id":"4","last_reported":1701022076,"current_range_meters":7200,"station_id":"ce4bgj12rcd13ifvqbc0","pricing_plan_id":"free"},{"bike_id":"882aa299-3d58-4920-8326-a06ddfb83407","system_id":"levelo_inurba_marseille","lat":43.309589,"lon":5.390258,"is_reserved":false,"is_disabled":false,"rental_uris":{"android":"levelo://app?vid=882aa299-3d58-4920-8326-a06ddfb83407","ios":"levelo://app?vid=882aa299-3d58-4920-8326-a06ddfb83407"},"vehicle_type_id":"4","last_reported":1701022076,"current_range_meters":10000,"station_id":"ce4bgup2rcd13ifvqco0","pricing_plan_id":"free"},{"bike_id":"1e31f1da-b974-4527-82e9-a4d160a41255","system_id":"levelo_inurba_marseille","lat":43.317557,"lon":5.390173,"is_reserved":false,"is_disabled":false,"rental_uris":{"android":"levelo://app?vid=1e31f1da-b974-4527-82e9-a4d160a41255","ios":"levelo://app?vid=1e31f1da-b974-4527-82e9-a4d160a41255"},"vehicle_type_id":"4","last_reported":1701022076,"current_range_meters":6400,"station_id":"ce4bhqp2rcd13ifvqhng","pricing_plan_id":"free"},{"bike_id":"a67dc042-a91b-4d39-b49d-aa7421e3a859","system_id":"levelo_inurba_marseille","lat":43.309589,"lon":5.390258,"is_reserved":false,"is_disabled":false,"rental_uris":{"android":"levelo://app?vid=a67dc042-a91b-4d39-b49d-aa7421e3a859","ios":"levelo://app?vid=a67dc042-a91b-4d39-b49d-aa7421e3a859"},"vehicle_type_id":"4","last_reported":1701022076,"current_range_meters":24400,"station_id":"ce4bgup2rcd13ifvqco0","pricing_plan_id":"free"},{"bike_id":"67f7378b-e03e-467e-a5c6-6efad2a2953b","system_id":"levelo_inurba_marseille","lat":43.295748,"lon":5.37522,"is_reserved":false,"is_disabled":false,"rental_uris":{"android":"levelo://app?vid=67f7378b-e03e-467e-a5c6-6efad2a2953b","ios":"levelo://app?vid=67f7378b-e03e-467e-a5c6-6efad2a2953b"},"vehicle_type_id":"4","last_reported":1701022076,"current_range_meters":18400,"station_id":"ce4bgh92rcd13ifvqb50","pricing_plan_id":"free"},{"bike_id":"010996c0-4348-4c0b-8c0b-4f0a340e11a0","system_id":"levelo_inurba_marseille","lat":43.304278,"lon":5.388868,"is_reserved":false,"is_disabled":false,"rental_uris":{"android":"levelo://app?vid=010996c0-4348-4c0b-8c0b-4f0a340e11a0","ios":"levelo://app?vid=010996c0-4348-4c0b-8c0b-4f0a340e11a0"},"vehicle_type_id":"4","last_reported":1701022076,"current_range_meters":16800,"station_id":"ce4bgk12rcd13ifvqbi0","pricing_plan_id":"free"},{"bike_id":"52d3ef3f-b6a4-4475-8d31-20d486183472","system_id":"levelo_inurba_marseille","lat":43.299724,"lon":5.384848,"is_reserved":false,"is_disabled":false,"rental_uris":{"android":"levelo://app?vid=52d3ef3f-b6a4-4475-8d31-20d486183472","ios":"levelo://app?vid=52d3ef3f-b6a4-4475-8d31-20d486183472"},"vehicle_type_id":"4","last_reported":1701022076,"current_range_meters":0,"station_id":"ce4bgj92rcd13ifvqbd0","pricing_plan_id":"free"},{"bike_id":"61b18ebd-4f3e-4605-b64b-4f46efd7fd6e","system_id":"levelo_inurba_marseille","lat":43.295279,"lon":5.375048,"is_reserved":false,"is_disabled":false,"rental_uris":{"android":"levelo://app?vid=61b18ebd-4f3e-4605-b64b-4f46efd7fd6e","ios":"levelo://app?vid=61b18ebd-4f3e-4605-b64b-4f46efd7fd6e"},"vehicle_type_id":"4","last_reported":1701022076,"current_range_meters":10800,"station_id":"ce4bgkp2rcd13ifvqbmg","pricing_plan_id":"free"},{"bike_id":"6b621983-5e9e-42f7-990d-ad5a093820d2","system_id":"levelo_inurba_marseille","lat":43.293801,"lon":5.363066,"is_reserved":false,"is_disabled":false,"rental_uris":{"android":"levelo://app?vid=6b621983-5e9e-42f7-990d-ad5a093820d2","ios":"levelo://app?vid=6b621983-5e9e-42f7-990d-ad5a093820d2"},"vehicle_type_id":"4","last_reported":1701022076,"current_range_meters":0,"station_id":"","pricing_plan_id":"free"},{"bike_id":"df25f6c2-d285-4e87-97d4-41e0630e71fc","system_id":"levelo_inurba_marseille","lat":43.32367,"lon":5.388836,"is_reserved":false,"is_disabled":false,"rental_uris":{"android":"levelo://app?vid=df25f6c2-d285-4e87-97d4-41e0630e71fc","ios":"levelo://app?vid=df25f6c2-d285-4e87-97d4-41e0630e71fc"},"vehicle_type_id":"4","last_reported":1701022076,"current_range_meters":10400,"station_id":"ce4bhqp2rcd13ifvqhog","pricing_plan_id":"free"},{"bike_id":"963d08e7-0c6b-4154-8977-073d329a6b99","system_id":"levelo_inurba_marseille","lat":43.32369,"lon":5.38891,"is_reserved":false,"is_disabled":false,"rental_uris":{"android":"levelo://app?vid=963d08e7-0c6b-4154-8977-073d329a6b99","ios":"levelo://app?vid=963d08e7-0c6b-4154-8977-073d329a6b99"},"vehicle_type_id":"4","last_reported":1701022076,"current_range_meters":5600,"station_id":"ce4bhqp2rcd13ifvqhog","pricing_plan_id":"free"},{"bike_id":"c91caa24-ccd9-44a0-a7dc-ef3dd0691d85","system_id":"levelo_inurba_marseille","lat":43.295322,"lon":5.379024,"is_reserved":false,"is_disabled":false,"rental_uris":{"android":"levelo://app?vid=c91caa24-ccd9-44a0-a7dc-ef3dd0691d85","ios":"levelo://app?vid=c91caa24-ccd9-44a0-a7dc-ef3dd0691d85"},"vehicle_type_id":"4","last_reported":1701022076,"current_range_meters":15200,"station_id":"","pricing_plan_id":"free"},{"bike_id":"192e2ed1-fa52-4c17-8265-13ea47d771f1","system_id":"levelo_inurba_marseille","lat":43.2936,"lon":5.37835,"is_reserved":false,"is_disabled":false,"rental_uris":{"android":"levelo://app?vid=192e2ed1-fa52-4c17-8265-13ea47d771f1","ios":"levelo://app?vid=192e2ed1-fa52-4c17-8265-13ea47d771f1"},"vehicle_type_id":"4","last_reported":1701022076,"current_range_meters":16400,"station_id":"ce4bgjh2rcd13ifvqbf0","pricing_plan_id":"free"},{"bike_id":"c7f4b57d-5dc1-4f04-95b7-0f4cdc9ae016","system_id":"levelo_inurba_marseille","lat":43.2936,"lon":5.37835,"is_reserved":false,"is_disabled":false,"rental_uris":{"android":"levelo://app?vid=c7f4b57d-5dc1-4f04-95b7-0f4cdc9ae016","ios":"levelo://app?vid=c7f4b57d-5dc1-4f04-95b7-0f4cdc9ae016"},"vehicle_type_id":"4","last_reported":1701022076,"current_range_meters":21200,"station_id":"ce4bgjh2rcd13ifvqbf0","pricing_plan_id":"free"},{"bike_id":"4794d31d-11b5-4ec4-a3c8-266e4e4869dd","system_id":"levelo_inurba_marseille","lat":43.2936,"lon":5.37835,"is_reserved":false,"is_disabled":false,"rental_uris":{"android":"levelo://app?vid=4794d31d-11b5-4ec4-a3c8-266e4e4869dd","ios":"levelo://app?vid=4794d31d-11b5-4ec4-a3c8-266e4e4869dd"},"vehicle_type_id":"4","last_reported":1701022076,"current_range_meters":22800,"station_id":"ce4bgjh2rcd13ifvqbf0","pricing_plan_id":"free"},{"bike_id":"902947ca-d42a-4f99-a12a-3b9641cb4041","system_id":"levelo_inurba_marseille","lat":43.300852,"lon":5.390859,"is_reserved":false,"is_disabled":false,"rental_uris":{"android":"levelo://app?vid=902947ca-d42a-4f99-a12a-3b9641cb4041","ios":"levelo://app?vid=902947ca-d42a-4f99-a12a-3b9641cb4041"},"vehicle_type_id":"4","last_reported":1701022076,"current_range_meters":13200,"station_id":"ce4bh192rcd13ifvqdb0","pricing_plan_id":"free"},{"bike_id":"9bd8cef9-49cc-4f7c-b695-66b742eff26c","system_id":"levelo_inurba_marseille","lat":43.298764,"lon":5.388973,"is_reserved":false,"is_disabled":false,"rental_uris":{"android":"levelo://app?vid=9bd8cef9-49cc-4f7c-b695-66b742eff26c","ios":"levelo://app?vid=9bd8cef9-49cc-4f7c-b695-66b742eff26c"},"vehicle_type_id":"4","last_reported":1701022076,"current_range_meters":19200,"station_id":"ce4bh392rcd13ifvqdl0","pricing_plan_id":"free"},{"bike_id":"96845b3f-a3c4-48ba-86e4-dace7036cfeb","system_id":"levelo_inurba_marseille","lat":43.291675,"lon":5.371583,"is_reserved":false,"is_disabled":false,"rental_uris":{"android":"levelo://app?vid=96845b3f-a3c4-48ba-86e4-dace7036cfeb","ios":"levelo://app?vid=96845b3f-a3c4-48ba-86e4-dace7036cfeb"},"vehicle_type_id":"4","last_reported":1701022076,"current_range_meters":18800,"station_id":"ce4bha92rcd13ifvqeh0","pricing_plan_id":"free"},{"bike_id":"c0cd5854-defc-4d71-8959-f455554f06e5","system_id":"levelo_inurba_marseille","lat":43.291671,"lon":5.371575,"is_reserved":false,"is_disabled":false,"rental_uris":{"android":"levelo://app?vid=c0cd5854-defc-4d71-8959-f455554f06e5","ios":"levelo://app?vid=c0cd5854-defc-4d71-8959-f455554f06e5"},"vehicle_type_id":"4","last_reported":1701022076,"current_range_meters":24400,"station_id":"ce4bha92rcd13ifvqeh0","pricing_plan_id":"free"},{"bike_id":"6bbafb0e-de5a-4e53-8fdf-6383a175b2b5","system_id":"levelo_inurba_marseille","lat":43.313291,"lon":5.396838,"is_reserved":false,"is_disabled":false,"rental_uris":{"android":"levelo://app?vid=6bbafb0e-de5a-4e53-8fdf-6383a175b2b5","ios":"levelo://app?vid=6bbafb0e-de5a-4e53-8fdf-6383a175b2b5"},"vehicle_type_id":"4","last_reported":1701022076,"current_range_meters":13600,"station_id":"ce4bgvp2rcd13ifvqcu0","pricing_plan_id":"free"},{"bike_id":"29417bda-6f02-40ad-b708-6ae76170b4da","system_id":"levelo_inurba_marseille","lat":43.313291,"lon":5.396838,"is_reserved":false,"is_disabled":false,"rental_uris":{"android":"levelo://app?vid=29417bda-6f02-40ad-b708-6ae76170b4da","ios":"levelo://app?vid=29417bda-6f02-40ad-b708-6ae76170b4da"},"vehicle_type_id":"4","last_reported":1701022076,"current_range_meters":8800,"station_id":"ce4bgvp2rcd13ifvqcu0","pricing_plan_id":"free"},{"bike_id":"6db89a8b-ca1b-4360-a74b-d6358b674628","system_id":"levelo_inurba_marseille","lat":43.31334,"lon":5.39692,"is_reserved":false,"is_disabled":false,"rental_uris":{"android":"levelo://app?vid=6db89a8b-ca1b-4360-a74b-d6358b674628","ios":"levelo://app?vid=6db89a8b-ca1b-4360-a74b-d6358b674628"},"vehicle_type_id":"4","last_reported":1701022076,"current_range_meters":12400,"station_id":"ce4bgvp2rcd13ifvqcu0","pricing_plan_id":"free"},{"bike_id":"47b8b96e-5b11-41a3-a8f4-f93a9ad8af4d","system_id":"levelo_inurba_marseille","lat":43.291994,"lon":5.357886,"is_reserved":false,"is_disabled":false,"rental_uris":{"android":"levelo://app?vid=47b8b96e-5b11-41a3-a8f4-f93a9ad8af4d","ios":"levelo://app?vid=47b8b96e-5b11-41a3-a8f4-f93a9ad8af4d"},"vehicle_type_id":"4","last_reported":1701022076,"current_range_meters":16400,"station_id":"ce4bhb12rcd13ifvqel0","pricing_plan_id":"free"},{"bike_id":"9b2e1058-1757-4554-8289-030ac81166e7","system_id":"levelo_inurba_marseille","lat":43.313291,"lon":5.396838,"is_reserved":false,"is_disabled":false,"rental_uris":{"android":"levelo://app?vid=9b2e1058-1757-4554-8289-030ac81166e7","ios":"levelo://app?vid=9b2e1058-1757-4554-8289-030ac81166e7"},"vehicle_type_id":"4","last_reported":1701022076,"current_range_meters":12400,"station_id":"ce4bgvp2rcd13ifvqcu0","pricing_plan_id":"free"},{"bike_id":"27a1fb51-e2a2-46ec-8e2c-944133fc787d","system_id":"levelo_inurba_marseille","lat":43.2953,"lon":5.385497,"is_reserved":false,"is_disabled":false,"rental_uris":{"android":"levelo://app?vid=27a1fb51-e2a2-46ec-8e2c-944133fc787d","ios":"levelo://app?vid=27a1fb51-e2a2-46ec-8e2c-944133fc787d"},"vehicle_type_id":"4","last_reported":1701022076,"current_range_meters":0,"station_id":"ce4bgih2rcd13ifvqba0","pricing_plan_id":"free"},{"bike_id":"8aac72b4-e731-4164-a11b-9896098226fc","system_id":"levelo_inurba_marseille","lat":43.302008,"lon":5.394694,"is_reserved":false,"is_disabled":false,"rental_uris":{"android":"levelo://app?vid=8aac72b4-e731-4164-a11b-9896098226fc","ios":"levelo://app?vid=8aac72b4-e731-4164-a11b-9896098226fc"},"vehicle_type_id":"4","last_reported":1701022076,"current_range_meters":14000,"station_id":"ce4bh0p2rcd13ifvqd70","pricing_plan_id":"free"},{"bike_id":"5d4ff82e-b5b2-4a4e-b905-d16825288c63","system_id":"levelo_inurba_marseille","lat":43.290631,"lon":5.359244,"is_reserved":false,"is_disabled":false,"rental_uris":{"android":"levelo://app?vid=5d4ff82e-b5b2-4a4e-b905-d16825288c63","ios":"levelo://app?vid=5d4ff82e-b5b2-4a4e-b905-d16825288c63"},"vehicle_type_id":"4","last_reported":1701022076,"current_range_meters":14000,"station_id":"ce4bha92rcd13ifvqeg0","pricing_plan_id":"free"},{"bike_id":"6575f6f1-f280-449b-a302-b24b121c9bb5","system_id":"levelo_inurba_marseille","lat":43.294162,"lon":5.386292,"is_reserved":false,"is_disabled":false,"rental_uris":{"android":"levelo://app?vid=6575f6f1-f280-449b-a302-b24b121c9bb5","ios":"levelo://app?vid=6575f6f1-f280-449b-a302-b24b121c9bb5"},"vehicle_type_id":"4","last_reported":1701022076,"current_range_meters":20000,"station_id":"ce4bh2h2rcd13ifvqdh0","pricing_plan_id":"free"},{"bike_id":"eefb6328-8f00-45bb-a4b1-cb0c3f30b929","system_id":"levelo_inurba_marseille","lat":43.292644,"lon":5.384257,"is_reserved":false,"is_disabled":false,"rental_uris":{"android":"levelo://app?vid=eefb6328-8f00-45bb-a4b1-cb0c3f30b929","ios":"levelo://app?vid=eefb6328-8f00-45bb-a4b1-cb0c3f30b929"},"vehicle_type_id":"4","last_reported":1701022076,"current_range_meters":0,"station_id":"ce4bh692rcd13ifvqea0","pricing_plan_id":"free"},{"bike_id":"d5a830f2-3e5f-411c-bc4c-7921205b337a","system_id":"levelo_inurba_marseille","lat":43.292642,"lon":5.384254,"is_reserved":false,"is_disabled":false,"rental_uris":{"android":"levelo://app?vid=d5a830f2-3e5f-411c-bc4c-7921205b337a","ios":"levelo://app?vid=d5a830f2-3e5f-411c-bc4c-7921205b337a"},"vehicle_type_id":"4","last_reported":1701022076,"current_range_meters":25200,"station_id":"ce4bh692rcd13ifvqea0","pricing_plan_id":"free"},{"bike_id":"de6d841e-f2ff-4a07-ac76-4a50daaddbb8","system_id":"levelo_inurba_marseille","lat":43.292642,"lon":5.384254,"is_reserved":false,"is_disabled":false,"rental_uris":{"android":"levelo://app?vid=de6d841e-f2ff-4a07-ac76-4a50daaddbb8","ios":"levelo://app?vid=de6d841e-f2ff-4a07-ac76-4a50daaddbb8"},"vehicle_type_id":"4","last_reported":1701022076,"current_range_meters":22400,"station_id":"ce4bh692rcd13ifvqea0","pricing_plan_id":"free"},{"bike_id":"37ef5cdc-323c-4cfe-ae20-e449dcfc97cc","system_id":"levelo_inurba_marseille","lat":43.292642,"lon":5.384254,"is_reserved":false,"is_disabled":false,"rental_uris":{"android":"levelo://app?vid=37ef5cdc-323c-4cfe-ae20-e449dcfc97cc","ios":"levelo://app?vid=37ef5cdc-323c-4cfe-ae20-e449dcfc97cc"},"vehicle_type_id":"4","last_reported":1701022076,"current_range_meters":11200,"station_id":"ce4bh692rcd13ifvqea0","pricing_plan_id":"free"},{"bike_id":"8c8ef7b8-d18c-45af-99a2-f5e7693c25bf","system_id":"levelo_inurba_marseille","lat":43.29788,"lon":5.39347,"is_reserved":false,"is_disabled":false,"rental_uris":{"android":"levelo://app?vid=8c8ef7b8-d18c-45af-99a2-f5e7693c25bf","ios":"levelo://app?vid=8c8ef7b8-d18c-45af-99a2-f5e7693c25bf"},"vehicle_type_id":"4","last_reported":1701022076,"current_range_meters":10000,"station_id":"chh1huq6cuj3fo74tm60","pricing_plan_id":"free"},{"bike_id":"1a75b6da-3082-4b7f-8965-31451ab0ea9f","system_id":"levelo_inurba_marseille","lat":43.31267,"lon":5.40171,"is_reserved":false,"is_disabled":false,"rental_uris":{"android":"levelo://app?vid=1a75b6da-3082-4b7f-8965-31451ab0ea9f","ios":"levelo://app?vid=1a75b6da-3082-4b7f-8965-31451ab0ea9f"},"vehicle_type_id":"4","last_reported":1701022076,"current_range_meters":13600,"station_id":"ce4bh092rcd13ifvqd30","pricing_plan_id":"free"},{"bike_id":"ece8d793-07dd-45a6-bcf6-b7e8bfd23e4c","system_id":"levelo_inurba_marseille","lat":43.301117,"lon":5.398795,"is_reserved":false,"is_disabled":false,"rental_uris":{"android":"levelo://app?vid=ece8d793-07dd-45a6-bcf6-b7e8bfd23e4c","ios":"levelo://app?vid=ece8d793-07dd-45a6-bcf6-b7e8bfd23e4c"},"vehicle_type_id":"4","last_reported":1701022076,"current_range_meters":0,"station_id":"ce4bh0h2rcd13ifvqd40","pricing_plan_id":"free"},{"bike_id":"b4a932d8-3f23-4eb4-b358-6c9940527cf3","system_id":"levelo_inurba_marseille","lat":43.29975,"lon":5.39765,"is_reserved":false,"is_disabled":false,"rental_uris":{"android":"levelo://app?vid=b4a932d8-3f23-4eb4-b358-6c9940527cf3","ios":"levelo://app?vid=b4a932d8-3f23-4eb4-b358-6c9940527cf3"},"vehicle_type_id":"4","last_reported":1701022076,"current_range_meters":8800,"station_id":"","pricing_plan_id":"free"},{"bike_id":"ca25d9c1-4f19-424d-807d-70610c016d13","system_id":"levelo_inurba_marseille","lat":43.28727,"lon":5.36078,"is_reserved":false,"is_disabled":false,"rental_uris":{"android":"levelo://app?vid=ca25d9c1-4f19-424d-807d-70610c016d13","ios":"levelo://app?vid=ca25d9c1-4f19-424d-807d-70610c016d13"},"vehicle_type_id":"4","last_reported":1701022076,"current_range_meters":18800,"station_id":"cki0cbj6b192h4jlfktg","pricing_plan_id":"free"},{"bike_id":"2e46bdc4-6ca9-492e-a039-67d62d664d65","system_id":"levelo_inurba_marseille","lat":43.28727,"lon":5.36078,"is_reserved":false,"is_disabled":false,"rental_uris":{"android":"levelo://app?vid=2e46bdc4-6ca9-492e-a039-67d62d664d65","ios":"levelo://app?vid=2e46bdc4-6ca9-492e-a039-67d62d664d65"},"vehicle_type_id":"4","last_reported":1701022076,"current_range_meters":21200,"station_id":"cki0cbj6b192h4jlfktg","pricing_plan_id":"free"},{"bike_id":"01c564d2-6af3-4dff-b228-c9c253208d15","system_id":"levelo_inurba_marseille","lat":43.298681,"lon":5.397225,"is_reserved":false,"is_disabled":false,"rental_uris":{"android":"levelo://app?vid=01c564d2-6af3-4dff-b228-c9c253208d15","ios":"levelo://app?vid=01c564d2-6af3-4dff-b228-c9c253208d15"},"vehicle_type_id":"4","last_reported":1701022076,"current_range_meters":31200,"station_id":"ce4bh0h2rcd13ifvqd50","pricing_plan_id":"free"},{"bike_id":"8159b20d-75a0-4383-b102-b7b28814de7f","system_id":"levelo_inurba_marseille","lat":43.298681,"lon":5.397225,"is_reserved":false,"is_disabled":false,"rental_uris":{"android":"levelo://app?vid=8159b20d-75a0-4383-b102-b7b28814de7f","ios":"levelo://app?vid=8159b20d-75a0-4383-b102-b7b28814de7f"},"vehicle_type_id":"4","last_reported":1701022076,"current_range_meters":8000,"station_id":"ce4bh0h2rcd13ifvqd50","pricing_plan_id":"free"},{"bike_id":"57af6cba-84e8-41d2-a016-b1f1d1e8f811","system_id":"levelo_inurba_marseille","lat":43.298681,"lon":5.397225,"is_reserved":false,"is_disabled":false,"rental_uris":{"android":"levelo://app?vid=57af6cba-84e8-41d2-a016-b1f1d1e8f811","ios":"levelo://app?vid=57af6cba-84e8-41d2-a016-b1f1d1e8f811"},"vehicle_type_id":"4","last_reported":1701022076,"current_range_meters":6400,"station_id":"ce4bh0h2rcd13ifvqd50","pricing_plan_id":"free"},{"bike_id":"50e7640b-aaa7-4331-befd-ef7b7ab9400c","system_id":"levelo_inurba_marseille","lat":43.286997,"lon":5.373877,"is_reserved":false,"is_disabled":false,"rental_uris":{"android":"levelo://app?vid=50e7640b-aaa7-4331-befd-ef7b7ab9400c","ios":"levelo://app?vid=50e7640b-aaa7-4331-befd-ef7b7ab9400c"},"vehicle_type_id":"4","last_reported":1701022076,"current_range_meters":0,"station_id":"ce4bh3p2rcd13ifvqdq0","pricing_plan_id":"free"},{"bike_id":"366d8fc6-475b-4c13-85a5-d5f112c3f0d0","system_id":"levelo_inurba_marseille","lat":43.287184,"lon":5.37937,"is_reserved":false,"is_disabled":false,"rental_uris":{"android":"levelo://app?vid=366d8fc6-475b-4c13-85a5-d5f112c3f0d0","ios":"levelo://app?vid=366d8fc6-475b-4c13-85a5-d5f112c3f0d0"},"vehicle_type_id":"4","last_reported":1701022076,"current_range_meters":16000,"station_id":"ce4bh9p2rcd13ifvqec0","pricing_plan_id":"free"},{"bike_id":"016e6d5d-ec92-42ba-96ac-5fce4f40d47c","system_id":"levelo_inurba_marseille","lat":43.298681,"lon":5.397225,"is_reserved":false,"is_disabled":false,"rental_uris":{"android":"levelo://app?vid=016e6d5d-ec92-42ba-96ac-5fce4f40d47c","ios":"levelo://app?vid=016e6d5d-ec92-42ba-96ac-5fce4f40d47c"},"vehicle_type_id":"4","last_reported":1701022076,"current_range_meters":14000,"station_id":"ce4bh0h2rcd13ifvqd50","pricing_plan_id":"free"},{"bike_id":"8cf35fae-e5fb-4e01-8b9e-12745013ac69","system_id":"levelo_inurba_marseille","lat":43.295194,"lon":5.39397,"is_reserved":false,"is_disabled":false,"rental_uris":{"android":"levelo://app?vid=8cf35fae-e5fb-4e01-8b9e-12745013ac69","ios":"levelo://app?vid=8cf35fae-e5fb-4e01-8b9e-12745013ac69"},"vehicle_type_id":"4","last_reported":1701022076,"current_range_meters":16400,"station_id":"ce4bh292rcd13ifvqdf0","pricing_plan_id":"free"},{"bike_id":"8fcea724-fc14-48c9-9cb0-56ef0cfbd6e4","system_id":"levelo_inurba_marseille","lat":43.295194,"lon":5.39397,"is_reserved":false,"is_disabled":false,"rental_uris":{"android":"levelo://app?vid=8fcea724-fc14-48c9-9cb0-56ef0cfbd6e4","ios":"levelo://app?vid=8fcea724-fc14-48c9-9cb0-56ef0cfbd6e4"},"vehicle_type_id":"4","last_reported":1701022076,"current_range_meters":10400,"station_id":"ce4bh292rcd13ifvqdf0","pricing_plan_id":"free"},{"bike_id":"5a89fe57-4929-4c13-a0e3-11e9ba835597","system_id":"levelo_inurba_marseille","lat":43.29031,"lon":5.38638,"is_reserved":false,"is_disabled":false,"rental_uris":{"android":"levelo://app?vid=5a89fe57-4929-4c13-a0e3-11e9ba835597","ios":"levelo://app?vid=5a89fe57-4929-4c13-a0e3-11e9ba835597"},"vehicle_type_id":"4","last_reported":1701022076,"current_range_meters":12400,"station_id":"","pricing_plan_id":"free"},{"bike_id":"44fbbc28-6117-45e8-9f2d-739018f99af7","system_id":"levelo_inurba_marseille","lat":43.29027,"lon":5.38639,"is_reserved":false,"is_disabled":false,"rental_uris":{"android":"levelo://app?vid=44fbbc28-6117-45e8-9f2d-739018f99af7","ios":"levelo://app?vid=44fbbc28-6117-45e8-9f2d-739018f99af7"},"vehicle_type_id":"4","last_reported":1701022076,"current_range_meters":21200,"station_id":"","pricing_plan_id":"free"},{"bike_id":"aac3b7c1-c156-4058-b4db-e872c3050caa","system_id":"levelo_inurba_marseille","lat":43.29028,"lon":5.38646,"is_reserved":false,"is_disabled":false,"rental_uris":{"android":"levelo://app?vid=aac3b7c1-c156-4058-b4db-e872c3050caa","ios":"levelo://app?vid=aac3b7c1-c156-4058-b4db-e872c3050caa"},"vehicle_type_id":"4","last_reported":1701022076,"current_range_meters":0,"station_id":"","pricing_plan_id":"free"},{"bike_id":"18cf2a38-76ed-4829-8cbc-3b082626e934","system_id":"levelo_inurba_marseille","lat":43.286108,"lon":5.370669,"is_reserved":false,"is_disabled":false,"rental_uris":{"android":"levelo://app?vid=18cf2a38-76ed-4829-8cbc-3b082626e934","ios":"levelo://app?vid=18cf2a38-76ed-4829-8cbc-3b082626e934"},"vehicle_type_id":"4","last_reported":1701022076,"current_range_meters":6800,"station_id":"","pricing_plan_id":"free"},{"bike_id":"0256ff5d-12f5-44a1-b7ef-0eb21d90dd49","system_id":"levelo_inurba_marseille","lat":43.2861,"lon":5.37069,"is_reserved":false,"is_disabled":false,"rental_uris":{"android":"levelo://app?vid=0256ff5d-12f5-44a1-b7ef-0eb21d90dd49","ios":"levelo://app?vid=0256ff5d-12f5-44a1-b7ef-0eb21d90dd49"},"vehicle_type_id":"4","last_reported":1701022076,"current_range_meters":24800,"station_id":"ce4bht12rcd13ifvqi60","pricing_plan_id":"free"},{"bike_id":"e759da6d-46e9-4f6c-be84-c5aa1b715af3","system_id":"levelo_inurba_marseille","lat":43.291994,"lon":5.392907,"is_reserved":false,"is_disabled":false,"rental_uris":{"android":"levelo://app?vid=e759da6d-46e9-4f6c-be84-c5aa1b715af3","ios":"levelo://app?vid=e759da6d-46e9-4f6c-be84-c5aa1b715af3"},"vehicle_type_id":"4","last_reported":1701022076,"current_range_meters":0,"station_id":"ce4bh192rcd13ifvqdd0","pricing_plan_id":"free"},{"bike_id":"3a12544e-6647-4f7d-916e-8dd35fbfa4a7","system_id":"levelo_inurba_marseille","lat":43.284538,"lon":5.358657,"is_reserved":false,"is_disabled":false,"rental_uris":{"android":"levelo://app?vid=3a12544e-6647-4f7d-916e-8dd35fbfa4a7","ios":"levelo://app?vid=3a12544e-6647-4f7d-916e-8dd35fbfa4a7"},"vehicle_type_id":"4","last_reported":1701022076,"current_range_meters":21200,"station_id":"ce4bhah2rcd13ifvqei0","pricing_plan_id":"free"},{"bike_id":"c2267585-6099-44fd-8c74-85997bcc0857","system_id":"levelo_inurba_marseille","lat":43.284538,"lon":5.358657,"is_reserved":false,"is_disabled":false,"rental_uris":{"android":"levelo://app?vid=c2267585-6099-44fd-8c74-85997bcc0857","ios":"levelo://app?vid=c2267585-6099-44fd-8c74-85997bcc0857"},"vehicle_type_id":"4","last_reported":1701022076,"current_range_meters":8800,"station_id":"ce4bhah2rcd13ifvqei0","pricing_plan_id":"free"},{"bike_id":"b50ae186-df09-4f5a-b559-f9ad162971a5","system_id":"levelo_inurba_marseille","lat":43.284534,"lon":5.358662,"is_reserved":false,"is_disabled":false,"rental_uris":{"android":"levelo://app?vid=b50ae186-df09-4f5a-b559-f9ad162971a5","ios":"levelo://app?vid=b50ae186-df09-4f5a-b559-f9ad162971a5"},"vehicle_type_id":"4","last_reported":1701022076,"current_range_meters":20400,"station_id":"ce4bhah2rcd13ifvqei0","pricing_plan_id":"free"},{"bike_id":"7532337c-74f9-4bac-b4e9-6c57698b2866","system_id":"levelo_inurba_marseille","lat":43.294314,"lon":5.397498,"is_reserved":false,"is_disabled":false,"rental_uris":{"android":"levelo://app?vid=7532337c-74f9-4bac-b4e9-6c57698b2866","ios":"levelo://app?vid=7532337c-74f9-4bac-b4e9-6c57698b2866"},"vehicle_type_id":"4","last_reported":1701022076,"current_range_meters":9600,"station_id":"ce4bh3h2rcd13ifvqdo0","pricing_plan_id":"free"},{"bike_id":"9ed66d95-7444-4926-83dc-9337e5f8e3bd","system_id":"levelo_inurba_marseille","lat":43.283998,"lon":5.375062,"is_reserved":false,"is_disabled":false,"rental_uris":{"android":"levelo://app?vid=9ed66d95-7444-4926-83dc-9337e5f8e3bd","ios":"levelo://app?vid=9ed66d95-7444-4926-83dc-9337e5f8e3bd"},"vehicle_type_id":"4","last_reported":1701022076,"current_range_meters":30400,"station_id":"ce4bh412rcd13ifvqds0","pricing_plan_id":"free"},{"bike_id":"17cf97ea-4242-4d99-93ff-0455bd43fc6d","system_id":"levelo_inurba_marseille","lat":43.295713,"lon":5.399639,"is_reserved":false,"is_disabled":false,"rental_uris":{"android":"levelo://app?vid=17cf97ea-4242-4d99-93ff-0455bd43fc6d","ios":"levelo://app?vid=17cf97ea-4242-4d99-93ff-0455bd43fc6d"},"vehicle_type_id":"4","last_reported":1701022076,"current_range_meters":15600,"station_id":"ce4bh312rcd13ifvqdj0","pricing_plan_id":"free"},{"bike_id":"dfbe7ccb-60b5-4ede-8244-bb94470c5d84","system_id":"levelo_inurba_marseille","lat":43.286065,"lon":5.383912,"is_reserved":false,"is_disabled":false,"rental_uris":{"android":"levelo://app?vid=dfbe7ccb-60b5-4ede-8244-bb94470c5d84","ios":"levelo://app?vid=dfbe7ccb-60b5-4ede-8244-bb94470c5d84"},"vehicle_type_id":"4","last_reported":1701022076,"current_range_meters":30000,"station_id":"","pricing_plan_id":"free"},{"bike_id":"06016045-5bd7-4335-8b56-8b07aea36e29","system_id":"levelo_inurba_marseille","lat":43.283998,"lon":5.375062,"is_reserved":false,"is_disabled":false,"rental_uris":{"android":"levelo://app?vid=06016045-5bd7-4335-8b56-8b07aea36e29","ios":"levelo://app?vid=06016045-5bd7-4335-8b56-8b07aea36e29"},"vehicle_type_id":"4","last_reported":1701022076,"current_range_meters":24400,"station_id":"ce4bh412rcd13ifvqds0","pricing_plan_id":"free"},{"bike_id":"d7291cda-b47c-4b21-ad1d-adea30d670c7","system_id":"levelo_inurba_marseille","lat":43.319179,"lon":5.407725,"is_reserved":false,"is_disabled":false,"rental_uris":{"android":"levelo://app?vid=d7291cda-b47c-4b21-ad1d-adea30d670c7","ios":"levelo://app?vid=d7291cda-b47c-4b21-ad1d-adea30d670c7"},"vehicle_type_id":"4","last_reported":1701022076,"current_range_meters":31200,"station_id":"ce4bhq12rcd13ifvqhig","pricing_plan_id":"free"},{"bike_id":"5b3bb01f-e6fd-486d-94d5-0af0ba6741fa","system_id":"levelo_inurba_marseille","lat":43.323464,"lon":5.406297,"is_reserved":false,"is_disabled":false,"rental_uris":{"android":"levelo://app?vid=5b3bb01f-e6fd-486d-94d5-0af0ba6741fa","ios":"levelo://app?vid=5b3bb01f-e6fd-486d-94d5-0af0ba6741fa"},"vehicle_type_id":"4","last_reported":1701022076,"current_range_meters":25600,"station_id":"ce4bhq92rcd13ifvqhjg","pricing_plan_id":"free"},{"bike_id":"e695af4a-f69a-4845-a48b-0521737c9d20","system_id":"levelo_inurba_marseille","lat":43.283498,"lon":5.380948,"is_reserved":false,"is_disabled":false,"rental_uris":{"android":"levelo://app?vid=e695af4a-f69a-4845-a48b-0521737c9d20","ios":"levelo://app?vid=e695af4a-f69a-4845-a48b-0521737c9d20"},"vehicle_type_id":"4","last_reported":1701022076,"current_range_meters":0,"station_id":"ce4bh412rcd13ifvqdr0","pricing_plan_id":"free"},{"bike_id":"e2284003-4e46-4e0a-93e7-73d05c3666d9","system_id":"levelo_inurba_marseille","lat":43.33508,"lon":5.397755,"is_reserved":false,"is_disabled":false,"rental_uris":{"android":"levelo://app?vid=e2284003-4e46-4e0a-93e7-73d05c3666d9","ios":"levelo://app?vid=e2284003-4e46-4e0a-93e7-73d05c3666d9"},"vehicle_type_id":"4","last_reported":1701022076,"current_range_meters":18000,"station_id":"","pricing_plan_id":"free"},{"bike_id":"b79fcaa7-c964-4223-9658-a23ecbc4d3b4","system_id":"levelo_inurba_marseille","lat":43.28274,"lon":5.35073,"is_reserved":false,"is_disabled":false,"rental_uris":{"android":"levelo://app?vid=b79fcaa7-c964-4223-9658-a23ecbc4d3b4","ios":"levelo://app?vid=b79fcaa7-c964-4223-9658-a23ecbc4d3b4"},"vehicle_type_id":"4","last_reported":1701022076,"current_range_meters":31200,"station_id":"ce4bhbp2rcd13ifvqerg","pricing_plan_id":"free"},{"bike_id":"bac6088f-6bc3-42d3-8bba-42726760c5cd","system_id":"levelo_inurba_marseille","lat":43.282754,"lon":5.350519,"is_reserved":false,"is_disabled":false,"rental_uris":{"android":"levelo://app?vid=bac6088f-6bc3-42d3-8bba-42726760c5cd","ios":"levelo://app?vid=bac6088f-6bc3-42d3-8bba-42726760c5cd"},"vehicle_type_id":"4","last_reported":1701022076,"current_range_meters":2800,"station_id":"ce4bhbp2rcd13ifvqerg","pricing_plan_id":"free"},{"bike_id":"c67805a5-7ffc-4c89-bbf0-6494e2872814","system_id":"levelo_inurba_marseille","lat":43.282754,"lon":5.350519,"is_reserved":false,"is_disabled":false,"rental_uris":{"android":"levelo://app?vid=c67805a5-7ffc-4c89-bbf0-6494e2872814","ios":"levelo://app?vid=c67805a5-7ffc-4c89-bbf0-6494e2872814"},"vehicle_type_id":"4","last_reported":1701022076,"current_range_meters":31600,"station_id":"ce4bhbp2rcd13ifvqerg","pricing_plan_id":"free"},{"bike_id":"6b0f7bb4-d7c0-4aec-9bc1-3e53a2e8a5bd","system_id":"levelo_inurba_marseille","lat":43.282744,"lon":5.350533,"is_reserved":false,"is_disabled":false,"rental_uris":{"android":"levelo://app?vid=6b0f7bb4-d7c0-4aec-9bc1-3e53a2e8a5bd","ios":"levelo://app?vid=6b0f7bb4-d7c0-4aec-9bc1-3e53a2e8a5bd"},"vehicle_type_id":"4","last_reported":1701022076,"current_range_meters":24000,"station_id":"ce4bhbp2rcd13ifvqerg","pricing_plan_id":"free"},{"bike_id":"00584029-8953-4993-b331-cbca650b790e","system_id":"levelo_inurba_marseille","lat":43.282644,"lon":5.350552,"is_reserved":false,"is_disabled":false,"rental_uris":{"android":"levelo://app?vid=00584029-8953-4993-b331-cbca650b790e","ios":"levelo://app?vid=00584029-8953-4993-b331-cbca650b790e"},"vehicle_type_id":"4","last_reported":1701022076,"current_range_meters":23200,"station_id":"ce4bhbp2rcd13ifvqerg","pricing_plan_id":"free"},{"bike_id":"59774753-ee6f-4231-9434-3d844a52292e","system_id":"levelo_inurba_marseille","lat":43.280382,"lon":5.369291,"is_reserved":false,"is_disabled":false,"rental_uris":{"android":"levelo://app?vid=59774753-ee6f-4231-9434-3d844a52292e","ios":"levelo://app?vid=59774753-ee6f-4231-9434-3d844a52292e"},"vehicle_type_id":"4","last_reported":1701022076,"current_range_meters":27600,"station_id":"ce4bha12rcd13ifvqef0","pricing_plan_id":"free"},{"bike_id":"9da362a8-ca99-49f2-aa37-8e35a69e2e8e","system_id":"levelo_inurba_marseille","lat":43.28039,"lon":5.369297,"is_reserved":false,"is_disabled":false,"rental_uris":{"android":"levelo://app?vid=9da362a8-ca99-49f2-aa37-8e35a69e2e8e","ios":"levelo://app?vid=9da362a8-ca99-49f2-aa37-8e35a69e2e8e"},"vehicle_type_id":"4","last_reported":1701022076,"current_range_meters":30400,"station_id":"ce4bha12rcd13ifvqef0","pricing_plan_id":"free"},{"bike_id":"0899a500-b3e6-467f-9582-11323a78ae2d","system_id":"levelo_inurba_marseille","lat":43.28039,"lon":5.369297,"is_reserved":false,"is_disabled":false,"rental_uris":{"android":"levelo://app?vid=0899a500-b3e6-467f-9582-11323a78ae2d","ios":"levelo://app?vid=0899a500-b3e6-467f-9582-11323a78ae2d"},"vehicle_type_id":"4","last_reported":1701022076,"current_range_meters":22400,"station_id":"ce4bha12rcd13ifvqef0","pricing_plan_id":"free"},{"bike_id":"da1c80e6-7246-4802-896c-9f9d067906dc","system_id":"levelo_inurba_marseille","lat":43.281044,"lon":5.378308,"is_reserved":false,"is_disabled":false,"rental_uris":{"android":"levelo://app?vid=da1c80e6-7246-4802-896c-9f9d067906dc","ios":"levelo://app?vid=da1c80e6-7246-4802-896c-9f9d067906dc"},"vehicle_type_id":"4","last_reported":1701022076,"current_range_meters":10400,"station_id":"ce4bha12rcd13ifvqee0","pricing_plan_id":"free"},{"bike_id":"3f2f8341-2146-4387-8998-988029eef34c","system_id":"levelo_inurba_marseille","lat":43.296263,"lon":5.40601,"is_reserved":false,"is_disabled":false,"rental_uris":{"android":"levelo://app?vid=3f2f8341-2146-4387-8998-988029eef34c","ios":"levelo://app?vid=3f2f8341-2146-4387-8998-988029eef34c"},"vehicle_type_id":"4","last_reported":1701022076,"current_range_meters":6400,"station_id":"ce4bh0h2rcd13ifvqd60","pricing_plan_id":"free"},{"bike_id":"38712249-4249-4879-8811-e9ecab1f5f87","system_id":"levelo_inurba_marseille","lat":43.284462,"lon":5.392121,"is_reserved":false,"is_disabled":false,"rental_uris":{"android":"levelo://app?vid=38712249-4249-4879-8811-e9ecab1f5f87","ios":"levelo://app?vid=38712249-4249-4879-8811-e9ecab1f5f87"},"vehicle_type_id":"4","last_reported":1701022076,"current_range_meters":1600,"station_id":"ce4bhoh2rcd13ifvqh5g","pricing_plan_id":"free"},{"bike_id":"35f70d60-013b-41bb-a39e-e6beeec8cafa","system_id":"levelo_inurba_marseille","lat":43.285742,"lon":5.395004,"is_reserved":false,"is_disabled":false,"rental_uris":{"android":"levelo://app?vid=35f70d60-013b-41bb-a39e-e6beeec8cafa","ios":"levelo://app?vid=35f70d60-013b-41bb-a39e-e6beeec8cafa"},"vehicle_type_id":"4","last_reported":1701022076,"current_range_meters":19600,"station_id":"ce4bh292rcd13ifvqdg0","pricing_plan_id":"free"},{"bike_id":"6f1961ba-4ffc-4438-aa11-95452833e55d","system_id":"levelo_inurba_marseille","lat":43.326605,"lon":5.409903,"is_reserved":false,"is_disabled":false,"rental_uris":{"android":"levelo://app?vid=6f1961ba-4ffc-4438-aa11-95452833e55d","ios":"levelo://app?vid=6f1961ba-4ffc-4438-aa11-95452833e55d"},"vehicle_type_id":"4","last_reported":1701022076,"current_range_meters":24000,"station_id":"ce4bhpp2rcd13ifvqhgg","pricing_plan_id":"free"},{"bike_id":"3931939f-6dc7-4b16-abe4-fda1c8e1fb92","system_id":"levelo_inurba_marseille","lat":43.304188,"lon":5.412904,"is_reserved":false,"is_disabled":false,"rental_uris":{"android":"levelo://app?vid=3931939f-6dc7-4b16-abe4-fda1c8e1fb92","ios":"levelo://app?vid=3931939f-6dc7-4b16-abe4-fda1c8e1fb92"},"vehicle_type_id":"4","last_reported":1701022076,"current_range_meters":22000,"station_id":"ce4bhop2rcd13ifvqh8g","pricing_plan_id":"free"},{"bike_id":"064cf4cb-d40a-47a3-bb84-802c2defe67c","system_id":"levelo_inurba_marseille","lat":43.304188,"lon":5.412904,"is_reserved":false,"is_disabled":false,"rental_uris":{"android":"levelo://app?vid=064cf4cb-d40a-47a3-bb84-802c2defe67c","ios":"levelo://app?vid=064cf4cb-d40a-47a3-bb84-802c2defe67c"},"vehicle_type_id":"4","last_reported":1701022076,"current_range_meters":24000,"station_id":"ce4bhop2rcd13ifvqh8g","pricing_plan_id":"free"},{"bike_id":"4eafc249-a85d-4181-aeba-e8fcc9e94f4e","system_id":"levelo_inurba_marseille","lat":43.279087,"lon":5.380114,"is_reserved":false,"is_disabled":false,"rental_uris":{"android":"levelo://app?vid=4eafc249-a85d-4181-aeba-e8fcc9e94f4e","ios":"levelo://app?vid=4eafc249-a85d-4181-aeba-e8fcc9e94f4e"},"vehicle_type_id":"4","last_reported":1701022076,"current_range_meters":3200,"station_id":"ce4bhf92rcd13ifvqf50","pricing_plan_id":"free"},{"bike_id":"b20f0108-436f-47f7-bb1f-edd5a0bb8632","system_id":"levelo_inurba_marseille","lat":43.279087,"lon":5.380114,"is_reserved":false,"is_disabled":false,"rental_uris":{"android":"levelo://app?vid=b20f0108-436f-47f7-bb1f-edd5a0bb8632","ios":"levelo://app?vid=b20f0108-436f-47f7-bb1f-edd5a0bb8632"},"vehicle_type_id":"4","last_reported":1701022076,"current_range_meters":15200,"station_id":"ce4bhf92rcd13ifvqf50","pricing_plan_id":"free"},{"bike_id":"896e9b73-0e56-4516-8d80-d4d0d4cd5324","system_id":"levelo_inurba_marseille","lat":43.320045,"lon":5.415046,"is_reserved":false,"is_disabled":false,"rental_uris":{"android":"levelo://app?vid=896e9b73-0e56-4516-8d80-d4d0d4cd5324","ios":"levelo://app?vid=896e9b73-0e56-4516-8d80-d4d0d4cd5324"},"vehicle_type_id":"4","last_reported":1701022076,"current_range_meters":28000,"station_id":"ce4bhq92rcd13ifvqhkg","pricing_plan_id":"free"},{"bike_id":"b9d7568b-b0a1-4542-8d33-559a9aa73299","system_id":"levelo_inurba_marseille","lat":43.320045,"lon":5.415048,"is_reserved":false,"is_disabled":false,"rental_uris":{"android":"levelo://app?vid=b9d7568b-b0a1-4542-8d33-559a9aa73299","ios":"levelo://app?vid=b9d7568b-b0a1-4542-8d33-559a9aa73299"},"vehicle_type_id":"4","last_reported":1701022076,"current_range_meters":14800,"station_id":"ce4bhq92rcd13ifvqhkg","pricing_plan_id":"free"},{"bike_id":"c103b530-9c6d-4ac7-adf6-4ae019cb5aa9","system_id":"levelo_inurba_marseille","lat":43.299579,"lon":5.413255,"is_reserved":false,"is_disabled":false,"rental_uris":{"android":"levelo://app?vid=c103b530-9c6d-4ac7-adf6-4ae019cb5aa9","ios":"levelo://app?vid=c103b530-9c6d-4ac7-adf6-4ae019cb5aa9"},"vehicle_type_id":"4","last_reported":1701022076,"current_range_meters":30400,"station_id":"ce4bhp12rcd13ifvqh9g","pricing_plan_id":"free"},{"bike_id":"6526cad1-2f4b-4db1-8d6b-ce04bc407b31","system_id":"levelo_inurba_marseille","lat":43.34883,"lon":5.37501,"is_reserved":false,"is_disabled":false,"rental_uris":{"android":"levelo://app?vid=6526cad1-2f4b-4db1-8d6b-ce04bc407b31","ios":"levelo://app?vid=6526cad1-2f4b-4db1-8d6b-ce04bc407b31"},"vehicle_type_id":"4","last_reported":1701022076,"current_range_meters":0,"station_id":"","pricing_plan_id":"free"},{"bike_id":"40b9a1fb-ab63-49a6-877d-6e83737869d3","system_id":"levelo_inurba_marseille","lat":43.292571,"lon":5.409107,"is_reserved":false,"is_disabled":false,"rental_uris":{"android":"levelo://app?vid=40b9a1fb-ab63-49a6-877d-6e83737869d3","ios":"levelo://app?vid=40b9a1fb-ab63-49a6-877d-6e83737869d3"},"vehicle_type_id":"4","last_reported":1701022076,"current_range_meters":28400,"station_id":"ce4bh192rcd13ifvqdc0","pricing_plan_id":"free"},{"bike_id":"aa943662-a3b8-4f7f-83bf-e7e9d1d920a7","system_id":"levelo_inurba_marseille","lat":43.292571,"lon":5.409107,"is_reserved":false,"is_disabled":false,"rental_uris":{"android":"levelo://app?vid=aa943662-a3b8-4f7f-83bf-e7e9d1d920a7","ios":"levelo://app?vid=aa943662-a3b8-4f7f-83bf-e7e9d1d920a7"},"vehicle_type_id":"4","last_reported":1701022076,"current_range_meters":13200,"station_id":"ce4bh192rcd13ifvqdc0","pricing_plan_id":"free"},{"bike_id":"ea97ff8c-669e-4c95-8b1d-a9d6b5aa2231","system_id":"levelo_inurba_marseille","lat":43.27618,"lon":5.361009,"is_reserved":false,"is_disabled":false,"rental_uris":{"android":"levelo://app?vid=ea97ff8c-669e-4c95-8b1d-a9d6b5aa2231","ios":"levelo://app?vid=ea97ff8c-669e-4c95-8b1d-a9d6b5aa2231"},"vehicle_type_id":"4","last_reported":1701022076,"current_range_meters":6800,"station_id":"ce4bgj92rcd13ifvqbe0","pricing_plan_id":"free"},{"bike_id":"c25ea147-e804-4786-9d25-91f61a8ed59a","system_id":"levelo_inurba_marseille","lat":43.293651,"lon":5.41268,"is_reserved":false,"is_disabled":false,"rental_uris":{"android":"levelo://app?vid=c25ea147-e804-4786-9d25-91f61a8ed59a","ios":"levelo://app?vid=c25ea147-e804-4786-9d25-91f61a8ed59a"},"vehicle_type_id":"4","last_reported":1701022076,"current_range_meters":0,"station_id":"","pricing_plan_id":"free"},{"bike_id":"df690db2-78f4-4f38-b187-78245c82cf01","system_id":"levelo_inurba_marseille","lat":43.280784,"lon":5.396622,"is_reserved":false,"is_disabled":false,"rental_uris":{"android":"levelo://app?vid=df690db2-78f4-4f38-b187-78245c82cf01","ios":"levelo://app?vid=df690db2-78f4-4f38-b187-78245c82cf01"},"vehicle_type_id":"4","last_reported":1701022076,"current_range_meters":21600,"station_id":"ce4bho12rcd13ifvqh2g","pricing_plan_id":"free"},{"bike_id":"085626ed-9f6f-4464-8606-58c32e520b52","system_id":"levelo_inurba_marseille","lat":43.280784,"lon":5.396622,"is_reserved":false,"is_disabled":false,"rental_uris":{"android":"levelo://app?vid=085626ed-9f6f-4464-8606-58c32e520b52","ios":"levelo://app?vid=085626ed-9f6f-4464-8606-58c32e520b52"},"vehicle_type_id":"4","last_reported":1701022076,"current_range_meters":18400,"station_id":"ce4bho12rcd13ifvqh2g","pricing_plan_id":"free"},{"bike_id":"c46ead31-db15-4e00-8746-5d6960427e80","system_id":"levelo_inurba_marseille","lat":43.280784,"lon":5.396622,"is_reserved":false,"is_disabled":false,"rental_uris":{"android":"levelo://app?vid=c46ead31-db15-4e00-8746-5d6960427e80","ios":"levelo://app?vid=c46ead31-db15-4e00-8746-5d6960427e80"},"vehicle_type_id":"4","last_reported":1701022076,"current_range_meters":11200,"station_id":"ce4bho12rcd13ifvqh2g","pricing_plan_id":"free"},{"bike_id":"5ee57155-df57-4962-9544-56ad6c09b1e3","system_id":"levelo_inurba_marseille","lat":43.3035,"lon":5.41875,"is_reserved":false,"is_disabled":false,"rental_uris":{"android":"levelo://app?vid=5ee57155-df57-4962-9544-56ad6c09b1e3","ios":"levelo://app?vid=5ee57155-df57-4962-9544-56ad6c09b1e3"},"vehicle_type_id":"4","last_reported":1701022076,"current_range_meters":26400,"station_id":"ce4bhop2rcd13ifvqh7g","pricing_plan_id":"free"},{"bike_id":"d7d5ad38-a706-46bf-a9f7-837653392e36","system_id":"levelo_inurba_marseille","lat":43.30348,"lon":5.41882,"is_reserved":false,"is_disabled":false,"rental_uris":{"android":"levelo://app?vid=d7d5ad38-a706-46bf-a9f7-837653392e36","ios":"levelo://app?vid=d7d5ad38-a706-46bf-a9f7-837653392e36"},"vehicle_type_id":"4","last_reported":1701022076,"current_range_meters":15600,"station_id":"ce4bhop2rcd13ifvqh7g","pricing_plan_id":"free"},{"bike_id":"b0ed4a91-f4d2-43e8-b684-e4e09d3127b8","system_id":"levelo_inurba_marseille","lat":43.30354,"lon":5.41885,"is_reserved":false,"is_disabled":false,"rental_uris":{"android":"levelo://app?vid=b0ed4a91-f4d2-43e8-b684-e4e09d3127b8","ios":"levelo://app?vid=b0ed4a91-f4d2-43e8-b684-e4e09d3127b8"},"vehicle_type_id":"4","last_reported":1701022076,"current_range_meters":8000,"station_id":"ce4bhop2rcd13ifvqh7g","pricing_plan_id":"free"},{"bike_id":"89025d48-4f26-41bc-bb01-d2526a673d8b","system_id":"levelo_inurba_marseille","lat":43.275625,"lon":5.384392,"is_reserved":false,"is_disabled":false,"rental_uris":{"android":"levelo://app?vid=89025d48-4f26-41bc-bb01-d2526a673d8b","ios":"levelo://app?vid=89025d48-4f26-41bc-bb01-d2526a673d8b"},"vehicle_type_id":"4","last_reported":1701022076,"current_range_meters":4400,"station_id":"ce4bhh92rcd13ifvqfi0","pricing_plan_id":"free"},{"bike_id":"21f4e7d6-ef7a-48e2-9647-153eda6f8f21","system_id":"levelo_inurba_marseille","lat":43.279952,"lon":5.400085,"is_reserved":false,"is_disabled":false,"rental_uris":{"android":"levelo://app?vid=21f4e7d6-ef7a-48e2-9647-153eda6f8f21","ios":"levelo://app?vid=21f4e7d6-ef7a-48e2-9647-153eda6f8f21"},"vehicle_type_id":"4","last_reported":1701022076,"current_range_meters":0,"station_id":"ce4bho92rcd13ifvqh4g","pricing_plan_id":"free"},{"bike_id":"a7eb0564-379f-4948-82dd-e79ec8392f9e","system_id":"levelo_inurba_marseille","lat":43.279952,"lon":5.400085,"is_reserved":false,"is_disabled":false,"rental_uris":{"android":"levelo://app?vid=a7eb0564-379f-4948-82dd-e79ec8392f9e","ios":"levelo://app?vid=a7eb0564-379f-4948-82dd-e79ec8392f9e"},"vehicle_type_id":"4","last_reported":1701022076,"current_range_meters":12800,"station_id":"ce4bho92rcd13ifvqh4g","pricing_plan_id":"free"},{"bike_id":"4e046f2f-6d5a-48ae-a7ef-ad917e1d50b0","system_id":"levelo_inurba_marseille","lat":43.279952,"lon":5.400085,"is_reserved":false,"is_disabled":false,"rental_uris":{"android":"levelo://app?vid=4e046f2f-6d5a-48ae-a7ef-ad917e1d50b0","ios":"levelo://app?vid=4e046f2f-6d5a-48ae-a7ef-ad917e1d50b0"},"vehicle_type_id":"4","last_reported":1701022076,"current_range_meters":5600,"station_id":"ce4bho92rcd13ifvqh4g","pricing_plan_id":"free"},{"bike_id":"1cb3efbc-7ae5-4c1f-b63b-a26cb1bf82fb","system_id":"levelo_inurba_marseille","lat":43.279952,"lon":5.400085,"is_reserved":false,"is_disabled":false,"rental_uris":{"android":"levelo://app?vid=1cb3efbc-7ae5-4c1f-b63b-a26cb1bf82fb","ios":"levelo://app?vid=1cb3efbc-7ae5-4c1f-b63b-a26cb1bf82fb"},"vehicle_type_id":"4","last_reported":1701022076,"current_range_meters":3600,"station_id":"ce4bho92rcd13ifvqh4g","pricing_plan_id":"free"},{"bike_id":"82df2174-145e-45ab-b9e5-7d702aa7ff08","system_id":"levelo_inurba_marseille","lat":43.27999,"lon":5.40012,"is_reserved":false,"is_disabled":false,"rental_uris":{"android":"levelo://app?vid=82df2174-145e-45ab-b9e5-7d702aa7ff08","ios":"levelo://app?vid=82df2174-145e-45ab-b9e5-7d702aa7ff08"},"vehicle_type_id":"4","last_reported":1701022076,"current_range_meters":10800,"station_id":"ce4bho92rcd13ifvqh4g","pricing_plan_id":"free"},{"bike_id":"effb185b-90d2-4d52-8928-7a1f2044aea7","system_id":"levelo_inurba_marseille","lat":43.27996,"lon":5.4001,"is_reserved":false,"is_disabled":false,"rental_uris":{"android":"levelo://app?vid=effb185b-90d2-4d52-8928-7a1f2044aea7","ios":"levelo://app?vid=effb185b-90d2-4d52-8928-7a1f2044aea7"},"vehicle_type_id":"4","last_reported":1701022076,"current_range_meters":27600,"station_id":"ce4bho92rcd13ifvqh4g","pricing_plan_id":"free"},{"bike_id":"6429ba20-232e-4b5f-aaee-b1d1c1be9e1e","system_id":"levelo_inurba_marseille","lat":43.27996,"lon":5.40011,"is_reserved":false,"is_disabled":false,"rental_uris":{"android":"levelo://app?vid=6429ba20-232e-4b5f-aaee-b1d1c1be9e1e","ios":"levelo://app?vid=6429ba20-232e-4b5f-aaee-b1d1c1be9e1e"},"vehicle_type_id":"4","last_reported":1701022076,"current_range_meters":18800,"station_id":"ce4bho92rcd13ifvqh4g","pricing_plan_id":"free"},{"bike_id":"20ce23bf-5e6d-4daf-b258-e9da32065251","system_id":"levelo_inurba_marseille","lat":43.27993,"lon":5.40007,"is_reserved":false,"is_disabled":false,"rental_uris":{"android":"levelo://app?vid=20ce23bf-5e6d-4daf-b258-e9da32065251","ios":"levelo://app?vid=20ce23bf-5e6d-4daf-b258-e9da32065251"},"vehicle_type_id":"4","last_reported":1701022076,"current_range_meters":16800,"station_id":"ce4bho92rcd13ifvqh4g","pricing_plan_id":"free"},{"bike_id":"7e3063ea-913b-44ca-86d6-1cd4a8d4bf98","system_id":"levelo_inurba_marseille","lat":43.279952,"lon":5.400085,"is_reserved":false,"is_disabled":false,"rental_uris":{"android":"levelo://app?vid=7e3063ea-913b-44ca-86d6-1cd4a8d4bf98","ios":"levelo://app?vid=7e3063ea-913b-44ca-86d6-1cd4a8d4bf98"},"vehicle_type_id":"4","last_reported":1701022076,"current_range_meters":30400,"station_id":"ce4bho92rcd13ifvqh4g","pricing_plan_id":"free"},{"bike_id":"7293d802-2a86-4cd7-884c-8c7c8624822c","system_id":"levelo_inurba_marseille","lat":43.279952,"lon":5.400085,"is_reserved":false,"is_disabled":false,"rental_uris":{"android":"levelo://app?vid=7293d802-2a86-4cd7-884c-8c7c8624822c","ios":"levelo://app?vid=7293d802-2a86-4cd7-884c-8c7c8624822c"},"vehicle_type_id":"4","last_reported":1701022076,"current_range_meters":13600,"station_id":"ce4bho92rcd13ifvqh4g","pricing_plan_id":"free"},{"bike_id":"f3efd8f4-44d5-4cba-9800-3dee2cdf11d7","system_id":"levelo_inurba_marseille","lat":43.27991,"lon":5.40014,"is_reserved":false,"is_disabled":false,"rental_uris":{"android":"levelo://app?vid=f3efd8f4-44d5-4cba-9800-3dee2cdf11d7","ios":"levelo://app?vid=f3efd8f4-44d5-4cba-9800-3dee2cdf11d7"},"vehicle_type_id":"4","last_reported":1701022076,"current_range_meters":10800,"station_id":"ce4bho92rcd13ifvqh4g","pricing_plan_id":"free"},{"bike_id":"2bac63be-2248-4f83-9913-6fa6e719b914","system_id":"levelo_inurba_marseille","lat":43.31082,"lon":5.42427,"is_reserved":false,"is_disabled":false,"rental_uris":{"android":"levelo://app?vid=2bac63be-2248-4f83-9913-6fa6e719b914","ios":"levelo://app?vid=2bac63be-2248-4f83-9913-6fa6e719b914"},"vehicle_type_id":"4","last_reported":1701022076,"current_range_meters":12000,"station_id":"ce4bhp92rcd13ifvqhag","pricing_plan_id":"free"},{"bike_id":"7424a429-0fb8-48ee-b6d6-d90c89061a07","system_id":"levelo_inurba_marseille","lat":43.31084,"lon":5.42428,"is_reserved":false,"is_disabled":false,"rental_uris":{"android":"levelo://app?vid=7424a429-0fb8-48ee-b6d6-d90c89061a07","ios":"levelo://app?vid=7424a429-0fb8-48ee-b6d6-d90c89061a07"},"vehicle_type_id":"4","last_reported":1701022076,"current_range_meters":27600,"station_id":"ce4bhp92rcd13ifvqhag","pricing_plan_id":"free"},{"bike_id":"73c4b3a7-78f1-4de0-8816-83b9e1b2047e","system_id":"levelo_inurba_marseille","lat":43.31079,"lon":5.4243,"is_reserved":false,"is_disabled":false,"rental_uris":{"android":"levelo://app?vid=73c4b3a7-78f1-4de0-8816-83b9e1b2047e","ios":"levelo://app?vid=73c4b3a7-78f1-4de0-8816-83b9e1b2047e"},"vehicle_type_id":"4","last_reported":1701022076,"current_range_meters":0,"station_id":"ce4bhp92rcd13ifvqhag","pricing_plan_id":"free"},{"bike_id":"8eb5bdb0-5c9b-4999-93c3-a1a499ccf536","system_id":"levelo_inurba_marseille","lat":43.31083,"lon":5.42432,"is_reserved":false,"is_disabled":false,"rental_uris":{"android":"levelo://app?vid=8eb5bdb0-5c9b-4999-93c3-a1a499ccf536","ios":"levelo://app?vid=8eb5bdb0-5c9b-4999-93c3-a1a499ccf536"},"vehicle_type_id":"4","last_reported":1701022076,"current_range_meters":30400,"station_id":"ce4bhp92rcd13ifvqhag","pricing_plan_id":"free"},{"bike_id":"d53f32a6-814f-4f07-94f0-385ab9644adc","system_id":"levelo_inurba_marseille","lat":43.274016,"lon":5.390581,"is_reserved":false,"is_disabled":false,"rental_uris":{"android":"levelo://app?vid=d53f32a6-814f-4f07-94f0-385ab9644adc","ios":"levelo://app?vid=d53f32a6-814f-4f07-94f0-385ab9644adc"},"vehicle_type_id":"4","last_reported":1701022076,"current_range_meters":21600,"station_id":"","pricing_plan_id":"free"},{"bike_id":"8ec770f4-9f34-4d13-aa16-278923fa497c","system_id":"levelo_inurba_marseille","lat":43.274099,"lon":5.394019,"is_reserved":false,"is_disabled":false,"rental_uris":{"android":"levelo://app?vid=8ec770f4-9f34-4d13-aa16-278923fa497c","ios":"levelo://app?vid=8ec770f4-9f34-4d13-aa16-278923fa497c"},"vehicle_type_id":"4","last_reported":1701022076,"current_range_meters":25600,"station_id":"ce4bhdp2rcd13ifvqf20","pricing_plan_id":"free"},{"bike_id":"bc252c12-3fb2-4403-a49d-cea449b2aa21","system_id":"levelo_inurba_marseille","lat":43.274099,"lon":5.394019,"is_reserved":false,"is_disabled":false,"rental_uris":{"android":"levelo://app?vid=bc252c12-3fb2-4403-a49d-cea449b2aa21","ios":"levelo://app?vid=bc252c12-3fb2-4403-a49d-cea449b2aa21"},"vehicle_type_id":"4","last_reported":1701022076,"current_range_meters":8800,"station_id":"ce4bhdp2rcd13ifvqf20","pricing_plan_id":"free"},{"bike_id":"8a1cf7e3-fa6f-4b6e-bd98-695a70f1e85e","system_id":"levelo_inurba_marseille","lat":43.274103,"lon":5.394016,"is_reserved":false,"is_disabled":false,"rental_uris":{"android":"levelo://app?vid=8a1cf7e3-fa6f-4b6e-bd98-695a70f1e85e","ios":"levelo://app?vid=8a1cf7e3-fa6f-4b6e-bd98-695a70f1e85e"},"vehicle_type_id":"4","last_reported":1701022076,"current_range_meters":3200,"station_id":"ce4bhdp2rcd13ifvqf20","pricing_plan_id":"free"},{"bike_id":"487e8935-2222-4e65-8507-6d483307a42a","system_id":"levelo_inurba_marseille","lat":43.295511,"lon":5.422926,"is_reserved":false,"is_disabled":false,"rental_uris":{"android":"levelo://app?vid=487e8935-2222-4e65-8507-6d483307a42a","ios":"levelo://app?vid=487e8935-2222-4e65-8507-6d483307a42a"},"vehicle_type_id":"4","last_reported":1701022076,"current_range_meters":26000,"station_id":"ce4bhph2rcd13ifvqhdg","pricing_plan_id":"free"},{"bike_id":"c4702c5a-dbbf-430a-a5f0-7bbc0c843a9c","system_id":"levelo_inurba_marseille","lat":43.272116,"lon":5.391747,"is_reserved":false,"is_disabled":false,"rental_uris":{"android":"levelo://app?vid=c4702c5a-dbbf-430a-a5f0-7bbc0c843a9c","ios":"levelo://app?vid=c4702c5a-dbbf-430a-a5f0-7bbc0c843a9c"},"vehicle_type_id":"4","last_reported":1701022076,"current_range_meters":14000,"station_id":"ce4bhhp2rcd13ifvqfm0","pricing_plan_id":"free"},{"bike_id":"11c530ef-3a1e-4341-9786-f43509d01bc1","system_id":"levelo_inurba_marseille","lat":43.2993,"lon":5.42563,"is_reserved":false,"is_disabled":false,"rental_uris":{"android":"levelo://app?vid=11c530ef-3a1e-4341-9786-f43509d01bc1","ios":"levelo://app?vid=11c530ef-3a1e-4341-9786-f43509d01bc1"},"vehicle_type_id":"4","last_reported":1701022076,"current_range_meters":4000,"station_id":"","pricing_plan_id":"free"},{"bike_id":"0d37c74b-b317-4b8b-9dae-c96829bfd787","system_id":"levelo_inurba_marseille","lat":43.278128,"lon":5.407195,"is_reserved":false,"is_disabled":false,"rental_uris":{"android":"levelo://app?vid=0d37c74b-b317-4b8b-9dae-c96829bfd787","ios":"levelo://app?vid=0d37c74b-b317-4b8b-9dae-c96829bfd787"},"vehicle_type_id":"4","last_reported":1701022076,"current_range_meters":10800,"station_id":"ce4bhnh2rcd13ifvqgtg","pricing_plan_id":"free"},{"bike_id":"722c4e9d-b01d-4804-8327-7484a4b9a912","system_id":"levelo_inurba_marseille","lat":43.305989,"lon":5.37225,"is_reserved":false,"is_disabled":false,"rental_uris":{"android":"levelo://app?vid=722c4e9d-b01d-4804-8327-7484a4b9a912","ios":"levelo://app?vid=722c4e9d-b01d-4804-8327-7484a4b9a912"},"vehicle_type_id":"4","last_reported":1701022076,"current_range_meters":18800,"station_id":"ce4bgqh2rcd13ifvqc4g","pricing_plan_id":"free"},{"bike_id":"437874cc-a3d6-48d1-acea-3a7fd02d0a08","system_id":"levelo_inurba_marseille","lat":43.278128,"lon":5.407195,"is_reserved":false,"is_disabled":false,"rental_uris":{"android":"levelo://app?vid=437874cc-a3d6-48d1-acea-3a7fd02d0a08","ios":"levelo://app?vid=437874cc-a3d6-48d1-acea-3a7fd02d0a08"},"vehicle_type_id":"4","last_reported":1701022076,"current_range_meters":1200,"station_id":"ce4bhnh2rcd13ifvqgtg","pricing_plan_id":"free"},{"bike_id":"041d94ef-3cdd-4585-b795-7c52a1adbe3f","system_id":"levelo_inurba_marseille","lat":43.269467,"lon":5.386439,"is_reserved":false,"is_disabled":false,"rental_uris":{"android":"levelo://app?vid=041d94ef-3cdd-4585-b795-7c52a1adbe3f","ios":"levelo://app?vid=041d94ef-3cdd-4585-b795-7c52a1adbe3f"},"vehicle_type_id":"4","last_reported":1701022076,"current_range_meters":25600,"station_id":"ce4bhh92rcd13ifvqfh0","pricing_plan_id":"free"},{"bike_id":"83a04496-8d8a-4892-baba-abdbed3d5c8a","system_id":"levelo_inurba_marseille","lat":43.279465,"lon":5.410561,"is_reserved":false,"is_disabled":false,"rental_uris":{"android":"levelo://app?vid=83a04496-8d8a-4892-baba-abdbed3d5c8a","ios":"levelo://app?vid=83a04496-8d8a-4892-baba-abdbed3d5c8a"},"vehicle_type_id":"4","last_reported":1701022076,"current_range_meters":800,"station_id":"ce4bhnp2rcd13ifvqh0g","pricing_plan_id":"free"},{"bike_id":"5696de41-a78d-4b0f-baac-569d8717d1ad","system_id":"levelo_inurba_marseille","lat":43.27302,"lon":5.39934,"is_reserved":false,"is_disabled":false,"rental_uris":{"android":"levelo://app?vid=5696de41-a78d-4b0f-baac-569d8717d1ad","ios":"levelo://app?vid=5696de41-a78d-4b0f-baac-569d8717d1ad"},"vehicle_type_id":"4","last_reported":1701022076,"current_range_meters":23200,"station_id":"","pricing_plan_id":"free"},{"bike_id":"c4c8d997-0d0d-4487-bc47-3788222f8f6d","system_id":"levelo_inurba_marseille","lat":43.269319,"lon":5.389397,"is_reserved":false,"is_disabled":false,"rental_uris":{"android":"levelo://app?vid=c4c8d997-0d0d-4487-bc47-3788222f8f6d","ios":"levelo://app?vid=c4c8d997-0d0d-4487-bc47-3788222f8f6d"},"vehicle_type_id":"4","last_reported":1701022076,"current_range_meters":25600,"station_id":"ce4bhhh2rcd13ifvqfl0","pricing_plan_id":"free"},{"bike_id":"f23d8119-b478-4639-98c5-6883279f9f84","system_id":"levelo_inurba_marseille","lat":43.32592,"lon":5.43067,"is_reserved":false,"is_disabled":false,"rental_uris":{"android":"levelo://app?vid=f23d8119-b478-4639-98c5-6883279f9f84","ios":"levelo://app?vid=f23d8119-b478-4639-98c5-6883279f9f84"},"vehicle_type_id":"4","last_reported":1701022076,"current_range_meters":22000,"station_id":"","pricing_plan_id":"free"},{"bike_id":"ed30d6a1-b23a-49e5-9c83-5546be72a734","system_id":"levelo_inurba_marseille","lat":43.3259,"lon":5.43075,"is_reserved":false,"is_disabled":false,"rental_uris":{"android":"levelo://app?vid=ed30d6a1-b23a-49e5-9c83-5546be72a734","ios":"levelo://app?vid=ed30d6a1-b23a-49e5-9c83-5546be72a734"},"vehicle_type_id":"4","last_reported":1701022076,"current_range_meters":16800,"station_id":"","pricing_plan_id":"free"},{"bike_id":"d67469ee-5362-4610-a163-fe05ae3cf4f7","system_id":"levelo_inurba_marseille","lat":43.32604,"lon":5.430817,"is_reserved":false,"is_disabled":false,"rental_uris":{"android":"levelo://app?vid=d67469ee-5362-4610-a163-fe05ae3cf4f7","ios":"levelo://app?vid=d67469ee-5362-4610-a163-fe05ae3cf4f7"},"vehicle_type_id":"4","last_reported":1701022076,"current_range_meters":5200,"station_id":"","pricing_plan_id":"free"},{"bike_id":"bbfcd2e3-0225-418b-b426-52e91ae6a9b1","system_id":"levelo_inurba_marseille","lat":43.27996,"lon":5.416624,"is_reserved":false,"is_disabled":false,"rental_uris":{"android":"levelo://app?vid=bbfcd2e3-0225-418b-b426-52e91ae6a9b1","ios":"levelo://app?vid=bbfcd2e3-0225-418b-b426-52e91ae6a9b1"},"vehicle_type_id":"4","last_reported":1701022076,"current_range_meters":31600,"station_id":"ce4bho12rcd13ifvqh1g","pricing_plan_id":"free"},{"bike_id":"3c201c87-5807-42b1-acc1-bb2635631804","system_id":"levelo_inurba_marseille","lat":43.27991,"lon":5.4166,"is_reserved":false,"is_disabled":false,"rental_uris":{"android":"levelo://app?vid=3c201c87-5807-42b1-acc1-bb2635631804","ios":"levelo://app?vid=3c201c87-5807-42b1-acc1-bb2635631804"},"vehicle_type_id":"4","last_reported":1701022076,"current_range_meters":0,"station_id":"ce4bho12rcd13ifvqh1g","pricing_plan_id":"free"},{"bike_id":"83056715-5b6a-4355-88be-e8d09fc71f6f","system_id":"levelo_inurba_marseille","lat":43.265714,"lon":5.372891,"is_reserved":false,"is_disabled":false,"rental_uris":{"android":"levelo://app?vid=83056715-5b6a-4355-88be-e8d09fc71f6f","ios":"levelo://app?vid=83056715-5b6a-4355-88be-e8d09fc71f6f"},"vehicle_type_id":"4","last_reported":1701022076,"current_range_meters":28000,"station_id":"ce4bhg12rcd13ifvqf70","pricing_plan_id":"free"},{"bike_id":"7cff0d23-6973-42a6-aa0d-19074e4e1b17","system_id":"levelo_inurba_marseille","lat":43.267966,"lon":5.393976,"is_reserved":false,"is_disabled":false,"rental_uris":{"android":"levelo://app?vid=7cff0d23-6973-42a6-aa0d-19074e4e1b17","ios":"levelo://app?vid=7cff0d23-6973-42a6-aa0d-19074e4e1b17"},"vehicle_type_id":"4","last_reported":1701022076,"current_range_meters":26400,"station_id":"ce4bhh12rcd13ifvqfg0","pricing_plan_id":"free"},{"bike_id":"552f89eb-586d-40c4-bd71-b580aed48e5c","system_id":"levelo_inurba_marseille","lat":43.267966,"lon":5.393976,"is_reserved":false,"is_disabled":false,"rental_uris":{"android":"levelo://app?vid=552f89eb-586d-40c4-bd71-b580aed48e5c","ios":"levelo://app?vid=552f89eb-586d-40c4-bd71-b580aed48e5c"},"vehicle_type_id":"4","last_reported":1701022076,"current_range_meters":16800,"station_id":"ce4bhh12rcd13ifvqfg0","pricing_plan_id":"free"},{"bike_id":"88163ca1-c6bc-4e99-a00a-302f1737d0f2","system_id":"levelo_inurba_marseille","lat":43.267966,"lon":5.393976,"is_reserved":false,"is_disabled":false,"rental_uris":{"android":"levelo://app?vid=88163ca1-c6bc-4e99-a00a-302f1737d0f2","ios":"levelo://app?vid=88163ca1-c6bc-4e99-a00a-302f1737d0f2"},"vehicle_type_id":"4","last_reported":1701022076,"current_range_meters":30400,"station_id":"ce4bhh12rcd13ifvqfg0","pricing_plan_id":"free"},{"bike_id":"0daa42a3-1244-4ec9-8ebd-4dd90d90f2b7","system_id":"levelo_inurba_marseille","lat":43.267966,"lon":5.393976,"is_reserved":false,"is_disabled":false,"rental_uris":{"android":"levelo://app?vid=0daa42a3-1244-4ec9-8ebd-4dd90d90f2b7","ios":"levelo://app?vid=0daa42a3-1244-4ec9-8ebd-4dd90d90f2b7"},"vehicle_type_id":"4","last_reported":1701022076,"current_range_meters":27200,"station_id":"ce4bhh12rcd13ifvqfg0","pricing_plan_id":"free"},{"bike_id":"2b5f0b27-ae58-4e9e-bd76-c585f78e8a73","system_id":"levelo_inurba_marseille","lat":43.26386,"lon":5.37454,"is_reserved":false,"is_disabled":false,"rental_uris":{"android":"levelo://app?vid=2b5f0b27-ae58-4e9e-bd76-c585f78e8a73","ios":"levelo://app?vid=2b5f0b27-ae58-4e9e-bd76-c585f78e8a73"},"vehicle_type_id":"4","last_reported":1701022076,"current_range_meters":6000,"station_id":"","pricing_plan_id":"free"},{"bike_id":"42b5dd8a-6e8b-4f13-bc63-9af7d7d38cef","system_id":"levelo_inurba_marseille","lat":43.26564,"lon":5.39006,"is_reserved":false,"is_disabled":false,"rental_uris":{"android":"levelo://app?vid=42b5dd8a-6e8b-4f13-bc63-9af7d7d38cef","ios":"levelo://app?vid=42b5dd8a-6e8b-4f13-bc63-9af7d7d38cef"},"vehicle_type_id":"4","last_reported":1701022076,"current_range_meters":5600,"station_id":"ce4bhe12rcd13ifvqf30","pricing_plan_id":"free"},{"bike_id":"81417be7-c0f3-482c-a0f1-9cf2b55f2dfc","system_id":"levelo_inurba_marseille","lat":43.26546,"lon":5.38999,"is_reserved":false,"is_disabled":false,"rental_uris":{"android":"levelo://app?vid=81417be7-c0f3-482c-a0f1-9cf2b55f2dfc","ios":"levelo://app?vid=81417be7-c0f3-482c-a0f1-9cf2b55f2dfc"},"vehicle_type_id":"4","last_reported":1701022076,"current_range_meters":25600,"station_id":"ce4bhe12rcd13ifvqf30","pricing_plan_id":"free"},{"bike_id":"4e51360c-c0f2-4ec8-9cc6-e51aefb6dc54","system_id":"levelo_inurba_marseille","lat":43.265461,"lon":5.390046,"is_reserved":false,"is_disabled":false,"rental_uris":{"android":"levelo://app?vid=4e51360c-c0f2-4ec8-9cc6-e51aefb6dc54","ios":"levelo://app?vid=4e51360c-c0f2-4ec8-9cc6-e51aefb6dc54"},"vehicle_type_id":"4","last_reported":1701022076,"current_range_meters":12000,"station_id":"ce4bhe12rcd13ifvqf30","pricing_plan_id":"free"},{"bike_id":"b72380ff-fd90-4434-9a7a-7874b94a2c88","system_id":"levelo_inurba_marseille","lat":43.26949,"lon":5.40262,"is_reserved":false,"is_disabled":false,"rental_uris":{"android":"levelo://app?vid=b72380ff-fd90-4434-9a7a-7874b94a2c88","ios":"levelo://app?vid=b72380ff-fd90-4434-9a7a-7874b94a2c88"},"vehicle_type_id":"4","last_reported":1701022076,"current_range_meters":20000,"station_id":"cjm6bp8fraef2m0cb0m0","pricing_plan_id":"free"},{"bike_id":"34e9d94a-a716-4b0c-93f4-cd00b136e1d7","system_id":"levelo_inurba_marseille","lat":43.3171,"lon":5.43709,"is_reserved":false,"is_disabled":false,"rental_uris":{"android":"levelo://app?vid=34e9d94a-a716-4b0c-93f4-cd00b136e1d7","ios":"levelo://app?vid=34e9d94a-a716-4b0c-93f4-cd00b136e1d7"},"vehicle_type_id":"4","last_reported":1701022076,"current_range_meters":0,"station_id":"ce4bhp92rcd13ifvqhcg","pricing_plan_id":"free"},{"bike_id":"9995a9fc-147c-4c65-be8e-894b818b2b01","system_id":"levelo_inurba_marseille","lat":43.271388,"lon":5.409269,"is_reserved":false,"is_disabled":false,"rental_uris":{"android":"levelo://app?vid=9995a9fc-147c-4c65-be8e-894b818b2b01","ios":"levelo://app?vid=9995a9fc-147c-4c65-be8e-894b818b2b01"},"vehicle_type_id":"4","last_reported":1701022076,"current_range_meters":17600,"station_id":"ce4bhl12rcd13ifvqgf0","pricing_plan_id":"free"},{"bike_id":"cdf2c497-f033-4c0f-80f4-b4e51e4970c2","system_id":"levelo_inurba_marseille","lat":43.271742,"lon":5.409971,"is_reserved":false,"is_disabled":false,"rental_uris":{"android":"levelo://app?vid=cdf2c497-f033-4c0f-80f4-b4e51e4970c2","ios":"levelo://app?vid=cdf2c497-f033-4c0f-80f4-b4e51e4970c2"},"vehicle_type_id":"4","last_reported":1701022076,"current_range_meters":22400,"station_id":"ce4bhl12rcd13ifvqgf0","pricing_plan_id":"free"},{"bike_id":"6486a652-dc78-4f86-b884-a8279240274a","system_id":"levelo_inurba_marseille","lat":43.271695,"lon":5.40989,"is_reserved":false,"is_disabled":false,"rental_uris":{"android":"levelo://app?vid=6486a652-dc78-4f86-b884-a8279240274a","ios":"levelo://app?vid=6486a652-dc78-4f86-b884-a8279240274a"},"vehicle_type_id":"4","last_reported":1701022076,"current_range_meters":12000,"station_id":"ce4bhl12rcd13ifvqgf0","pricing_plan_id":"free"},{"bike_id":"3b0d8a85-757d-4e5a-8804-f98915973b25","system_id":"levelo_inurba_marseille","lat":43.267959,"lon":5.402687,"is_reserved":false,"is_disabled":false,"rental_uris":{"android":"levelo://app?vid=3b0d8a85-757d-4e5a-8804-f98915973b25","ios":"levelo://app?vid=3b0d8a85-757d-4e5a-8804-f98915973b25"},"vehicle_type_id":"4","last_reported":1701022076,"current_range_meters":30400,"station_id":"ce501612rcd8frsf0b60","pricing_plan_id":"free"},{"bike_id":"13efbc1c-d5e6-4098-8f82-49cd483b6f29","system_id":"levelo_inurba_marseille","lat":43.267959,"lon":5.402687,"is_reserved":false,"is_disabled":false,"rental_uris":{"android":"levelo://app?vid=13efbc1c-d5e6-4098-8f82-49cd483b6f29","ios":"levelo://app?vid=13efbc1c-d5e6-4098-8f82-49cd483b6f29"},"vehicle_type_id":"4","last_reported":1701022076,"current_range_meters":31600,"station_id":"ce501612rcd8frsf0b60","pricing_plan_id":"free"},{"bike_id":"f4f2e1d5-dafa-412d-9b3a-3611814786ce","system_id":"levelo_inurba_marseille","lat":43.298768,"lon":5.43643,"is_reserved":false,"is_disabled":false,"rental_uris":{"android":"levelo://app?vid=f4f2e1d5-dafa-412d-9b3a-3611814786ce","ios":"levelo://app?vid=f4f2e1d5-dafa-412d-9b3a-3611814786ce"},"vehicle_type_id":"4","last_reported":1701022076,"current_range_meters":31600,"station_id":"ce4bhpp2rcd13ifvqhfg","pricing_plan_id":"free"},{"bike_id":"7c5a83ac-336c-4b91-a5ea-82b3c6d6127d","system_id":"levelo_inurba_marseille","lat":43.298768,"lon":5.43643,"is_reserved":false,"is_disabled":false,"rental_uris":{"android":"levelo://app?vid=7c5a83ac-336c-4b91-a5ea-82b3c6d6127d","ios":"levelo://app?vid=7c5a83ac-336c-4b91-a5ea-82b3c6d6127d"},"vehicle_type_id":"4","last_reported":1701022076,"current_range_meters":31200,"station_id":"ce4bhpp2rcd13ifvqhfg","pricing_plan_id":"free"},{"bike_id":"423b9c0d-328c-4eca-a1f3-0028615d1395","system_id":"levelo_inurba_marseille","lat":43.298768,"lon":5.43643,"is_reserved":false,"is_disabled":false,"rental_uris":{"android":"levelo://app?vid=423b9c0d-328c-4eca-a1f3-0028615d1395","ios":"levelo://app?vid=423b9c0d-328c-4eca-a1f3-0028615d1395"},"vehicle_type_id":"4","last_reported":1701022076,"current_range_meters":23600,"station_id":"ce4bhpp2rcd13ifvqhfg","pricing_plan_id":"free"},{"bike_id":"9a5ca6f0-6f31-4d5e-bf3e-7f028d92f2c5","system_id":"levelo_inurba_marseille","lat":43.298768,"lon":5.43643,"is_reserved":false,"is_disabled":false,"rental_uris":{"android":"levelo://app?vid=9a5ca6f0-6f31-4d5e-bf3e-7f028d92f2c5","ios":"levelo://app?vid=9a5ca6f0-6f31-4d5e-bf3e-7f028d92f2c5"},"vehicle_type_id":"4","last_reported":1701022076,"current_range_meters":27600,"station_id":"ce4bhpp2rcd13ifvqhfg","pricing_plan_id":"free"},{"bike_id":"3f341b3a-760d-4088-a3d9-99bad999f571","system_id":"levelo_inurba_marseille","lat":43.281548,"lon":5.42643,"is_reserved":false,"is_disabled":false,"rental_uris":{"android":"levelo://app?vid=3f341b3a-760d-4088-a3d9-99bad999f571","ios":"levelo://app?vid=3f341b3a-760d-4088-a3d9-99bad999f571"},"vehicle_type_id":"4","last_reported":1701022076,"current_range_meters":28000,"station_id":"ce4bhnh2rcd13ifvqgug","pricing_plan_id":"free"},{"bike_id":"4bde6c20-2dbd-45f6-bbf4-21e9f766e141","system_id":"levelo_inurba_marseille","lat":43.281548,"lon":5.42643,"is_reserved":false,"is_disabled":false,"rental_uris":{"android":"levelo://app?vid=4bde6c20-2dbd-45f6-bbf4-21e9f766e141","ios":"levelo://app?vid=4bde6c20-2dbd-45f6-bbf4-21e9f766e141"},"vehicle_type_id":"4","last_reported":1701022076,"current_range_meters":14400,"station_id":"ce4bhnh2rcd13ifvqgug","pricing_plan_id":"free"},{"bike_id":"0b2028e1-203e-4516-9904-d1a8ab768044","system_id":"levelo_inurba_marseille","lat":43.281548,"lon":5.42643,"is_reserved":false,"is_disabled":false,"rental_uris":{"android":"levelo://app?vid=0b2028e1-203e-4516-9904-d1a8ab768044","ios":"levelo://app?vid=0b2028e1-203e-4516-9904-d1a8ab768044"},"vehicle_type_id":"4","last_reported":1701022076,"current_range_meters":23600,"station_id":"ce4bhnh2rcd13ifvqgug","pricing_plan_id":"free"},{"bike_id":"fb1efbc6-c4c2-46ab-9c63-f25a6f13b967","system_id":"levelo_inurba_marseille","lat":43.2607,"lon":5.393983,"is_reserved":false,"is_disabled":false,"rental_uris":{"android":"levelo://app?vid=fb1efbc6-c4c2-46ab-9c63-f25a6f13b967","ios":"levelo://app?vid=fb1efbc6-c4c2-46ab-9c63-f25a6f13b967"},"vehicle_type_id":"4","last_reported":1701022076,"current_range_meters":27200,"station_id":"ce4bhh92rcd13ifvqfj0","pricing_plan_id":"free"},{"bike_id":"5d9b1c63-a266-4038-ac5a-e5fefb7ab6dc","system_id":"levelo_inurba_marseille","lat":43.260909,"lon":5.397591,"is_reserved":false,"is_disabled":false,"rental_uris":{"android":"levelo://app?vid=5d9b1c63-a266-4038-ac5a-e5fefb7ab6dc","ios":"levelo://app?vid=5d9b1c63-a266-4038-ac5a-e5fefb7ab6dc"},"vehicle_type_id":"4","last_reported":1701022076,"current_range_meters":13200,"station_id":"ce4bhi12rcd13ifvqfq0","pricing_plan_id":"free"},{"bike_id":"dbcbcb1b-8131-4e02-8f80-ed10f35e8ed1","system_id":"levelo_inurba_marseille","lat":43.260909,"lon":5.397591,"is_reserved":false,"is_disabled":false,"rental_uris":{"android":"levelo://app?vid=dbcbcb1b-8131-4e02-8f80-ed10f35e8ed1","ios":"levelo://app?vid=dbcbcb1b-8131-4e02-8f80-ed10f35e8ed1"},"vehicle_type_id":"4","last_reported":1701022076,"current_range_meters":21600,"station_id":"ce4bhi12rcd13ifvqfq0","pricing_plan_id":"free"},{"bike_id":"7c40cdd1-cfc2-4f54-96cb-485b584babfc","system_id":"levelo_inurba_marseille","lat":43.26086,"lon":5.39764,"is_reserved":false,"is_disabled":false,"rental_uris":{"android":"levelo://app?vid=7c40cdd1-cfc2-4f54-96cb-485b584babfc","ios":"levelo://app?vid=7c40cdd1-cfc2-4f54-96cb-485b584babfc"},"vehicle_type_id":"4","last_reported":1701022076,"current_range_meters":26800,"station_id":"ce4bhi12rcd13ifvqfq0","pricing_plan_id":"free"},{"bike_id":"c85f7616-3a9e-47a4-ae16-28a03e51ab4f","system_id":"levelo_inurba_marseille","lat":43.28929,"lon":5.438754,"is_reserved":false,"is_disabled":false,"rental_uris":{"android":"levelo://app?vid=c85f7616-3a9e-47a4-ae16-28a03e51ab4f","ios":"levelo://app?vid=c85f7616-3a9e-47a4-ae16-28a03e51ab4f"},"vehicle_type_id":"4","last_reported":1701022076,"current_range_meters":8400,"station_id":"","pricing_plan_id":"free"},{"bike_id":"c9f2b3f8-5e82-4dcb-a514-0009dca3b716","system_id":"levelo_inurba_marseille","lat":43.25577,"lon":5.38242,"is_reserved":false,"is_disabled":false,"rental_uris":{"android":"levelo://app?vid=c9f2b3f8-5e82-4dcb-a514-0009dca3b716","ios":"levelo://app?vid=c9f2b3f8-5e82-4dcb-a514-0009dca3b716"},"vehicle_type_id":"4","last_reported":1701022076,"current_range_meters":0,"station_id":"ce4bhih2rcd13ifvqfs0","pricing_plan_id":"free"},{"bike_id":"bb03d128-ef00-4706-a798-f82ccd3fae64","system_id":"levelo_inurba_marseille","lat":43.25572,"lon":5.38233,"is_reserved":false,"is_disabled":false,"rental_uris":{"android":"levelo://app?vid=bb03d128-ef00-4706-a798-f82ccd3fae64","ios":"levelo://app?vid=bb03d128-ef00-4706-a798-f82ccd3fae64"},"vehicle_type_id":"4","last_reported":1701022076,"current_range_meters":1600,"station_id":"ce4bhih2rcd13ifvqfs0","pricing_plan_id":"free"},{"bike_id":"86be688d-0790-456c-bce2-39e503103536","system_id":"levelo_inurba_marseille","lat":43.254947,"lon":5.376454,"is_reserved":false,"is_disabled":false,"rental_uris":{"android":"levelo://app?vid=86be688d-0790-456c-bce2-39e503103536","ios":"levelo://app?vid=86be688d-0790-456c-bce2-39e503103536"},"vehicle_type_id":"4","last_reported":1701022076,"current_range_meters":0,"station_id":"ce4bhh12rcd13ifvqff0","pricing_plan_id":"free"},{"bike_id":"d9afc35e-94de-472b-bd32-ff0959bca2db","system_id":"levelo_inurba_marseille","lat":43.270721,"lon":5.422764,"is_reserved":false,"is_disabled":false,"rental_uris":{"android":"levelo://app?vid=d9afc35e-94de-472b-bd32-ff0959bca2db","ios":"levelo://app?vid=d9afc35e-94de-472b-bd32-ff0959bca2db"},"vehicle_type_id":"4","last_reported":1701022076,"current_range_meters":14400,"station_id":"ce4bhk92rcd13ifvqgb0","pricing_plan_id":"free"},{"bike_id":"c49ff095-410c-4623-8b74-684b0fd5056a","system_id":"levelo_inurba_marseille","lat":43.270718,"lon":5.422773,"is_reserved":false,"is_disabled":false,"rental_uris":{"android":"levelo://app?vid=c49ff095-410c-4623-8b74-684b0fd5056a","ios":"levelo://app?vid=c49ff095-410c-4623-8b74-684b0fd5056a"},"vehicle_type_id":"4","last_reported":1701022076,"current_range_meters":8000,"station_id":"ce4bhk92rcd13ifvqgb0","pricing_plan_id":"free"},{"bike_id":"fa94e1b3-924d-484c-aa3a-070aacbdbbfd","system_id":"levelo_inurba_marseille","lat":43.27066,"lon":5.42272,"is_reserved":false,"is_disabled":false,"rental_uris":{"android":"levelo://app?vid=fa94e1b3-924d-484c-aa3a-070aacbdbbfd","ios":"levelo://app?vid=fa94e1b3-924d-484c-aa3a-070aacbdbbfd"},"vehicle_type_id":"4","last_reported":1701022076,"current_range_meters":28400,"station_id":"ce4bhk92rcd13ifvqgb0","pricing_plan_id":"free"},{"bike_id":"3764d48b-8e61-4222-bf2f-e0a7f6536aa8","system_id":"levelo_inurba_marseille","lat":43.27064,"lon":5.42274,"is_reserved":false,"is_disabled":false,"rental_uris":{"android":"levelo://app?vid=3764d48b-8e61-4222-bf2f-e0a7f6536aa8","ios":"levelo://app?vid=3764d48b-8e61-4222-bf2f-e0a7f6536aa8"},"vehicle_type_id":"4","last_reported":1701022076,"current_range_meters":29600,"station_id":"ce4bhk92rcd13ifvqgb0","pricing_plan_id":"free"},{"bike_id":"2fe108bb-34ec-4d55-a017-f8b460872c4b","system_id":"levelo_inurba_marseille","lat":43.27066,"lon":5.42277,"is_reserved":false,"is_disabled":false,"rental_uris":{"android":"levelo://app?vid=2fe108bb-34ec-4d55-a017-f8b460872c4b","ios":"levelo://app?vid=2fe108bb-34ec-4d55-a017-f8b460872c4b"},"vehicle_type_id":"4","last_reported":1701022076,"current_range_meters":29200,"station_id":"ce4bhk92rcd13ifvqgb0","pricing_plan_id":"free"},{"bike_id":"50c0c05e-8b46-4cec-ac3a-7160dcbfd7be","system_id":"levelo_inurba_marseille","lat":43.258658,"lon":5.398935,"is_reserved":false,"is_disabled":false,"rental_uris":{"android":"levelo://app?vid=50c0c05e-8b46-4cec-ac3a-7160dcbfd7be","ios":"levelo://app?vid=50c0c05e-8b46-4cec-ac3a-7160dcbfd7be"},"vehicle_type_id":"4","last_reported":1701022076,"current_range_meters":26000,"station_id":"ce4bhl92rcd13ifvqghg","pricing_plan_id":"free"},{"bike_id":"23688042-04a3-41ce-8402-7680d754251a","system_id":"levelo_inurba_marseille","lat":43.259013,"lon":5.409301,"is_reserved":false,"is_disabled":false,"rental_uris":{"android":"levelo://app?vid=23688042-04a3-41ce-8402-7680d754251a","ios":"levelo://app?vid=23688042-04a3-41ce-8402-7680d754251a"},"vehicle_type_id":"4","last_reported":1701022076,"current_range_meters":7200,"station_id":"ce4bhm92rcd13ifvqglg","pricing_plan_id":"free"},{"bike_id":"e9b6a1d5-c740-405d-a6f8-282eec5a3660","system_id":"levelo_inurba_marseille","lat":43.25729,"lon":5.41106,"is_reserved":false,"is_disabled":false,"rental_uris":{"android":"levelo://app?vid=e9b6a1d5-c740-405d-a6f8-282eec5a3660","ios":"levelo://app?vid=e9b6a1d5-c740-405d-a6f8-282eec5a3660"},"vehicle_type_id":"4","last_reported":1701022076,"current_range_meters":15600,"station_id":"ce4bhkp2rcd13ifvqgd0","pricing_plan_id":"free"},{"bike_id":"543aa29a-345d-44be-9327-080150278834","system_id":"levelo_inurba_marseille","lat":43.257079,"lon":5.411051,"is_reserved":false,"is_disabled":false,"rental_uris":{"android":"levelo://app?vid=543aa29a-345d-44be-9327-080150278834","ios":"levelo://app?vid=543aa29a-345d-44be-9327-080150278834"},"vehicle_type_id":"4","last_reported":1701022076,"current_range_meters":31600,"station_id":"ce4bhkp2rcd13ifvqgd0","pricing_plan_id":"free"},{"bike_id":"b67cb6de-687a-4860-8aa6-aea88805a2a8","system_id":"levelo_inurba_marseille","lat":43.257079,"lon":5.411051,"is_reserved":false,"is_disabled":false,"rental_uris":{"android":"levelo://app?vid=b67cb6de-687a-4860-8aa6-aea88805a2a8","ios":"levelo://app?vid=b67cb6de-687a-4860-8aa6-aea88805a2a8"},"vehicle_type_id":"4","last_reported":1701022076,"current_range_meters":29200,"station_id":"ce4bhkp2rcd13ifvqgd0","pricing_plan_id":"free"},{"bike_id":"a3db2d3f-7cb8-4611-8b38-01ed171cfc8d","system_id":"levelo_inurba_marseille","lat":43.250009,"lon":5.389195,"is_reserved":false,"is_disabled":false,"rental_uris":{"android":"levelo://app?vid=a3db2d3f-7cb8-4611-8b38-01ed171cfc8d","ios":"levelo://app?vid=a3db2d3f-7cb8-4611-8b38-01ed171cfc8d"},"vehicle_type_id":"4","last_reported":1701022076,"current_range_meters":24800,"station_id":"ce4bhgp2rcd13ifvqfd0","pricing_plan_id":"free"},{"bike_id":"b3c7c365-e2e2-4c34-95dd-1d2bc661a53c","system_id":"levelo_inurba_marseille","lat":43.250009,"lon":5.389195,"is_reserved":false,"is_disabled":false,"rental_uris":{"android":"levelo://app?vid=b3c7c365-e2e2-4c34-95dd-1d2bc661a53c","ios":"levelo://app?vid=b3c7c365-e2e2-4c34-95dd-1d2bc661a53c"},"vehicle_type_id":"4","last_reported":1701022076,"current_range_meters":18000,"station_id":"ce4bhgp2rcd13ifvqfd0","pricing_plan_id":"free"},{"bike_id":"21e75d00-8156-4063-a5a2-0428cfc125a8","system_id":"levelo_inurba_marseille","lat":43.24811,"lon":5.37459,"is_reserved":false,"is_disabled":false,"rental_uris":{"android":"levelo://app?vid=21e75d00-8156-4063-a5a2-0428cfc125a8","ios":"levelo://app?vid=21e75d00-8156-4063-a5a2-0428cfc125a8"},"vehicle_type_id":"4","last_reported":1701022076,"current_range_meters":30400,"station_id":"ce4bhgh2rcd13ifvqfb0","pricing_plan_id":"free"},{"bike_id":"8a7b3992-4ce0-4349-9bae-f95f62e5bce5","system_id":"levelo_inurba_marseille","lat":43.250023,"lon":5.38919,"is_reserved":false,"is_disabled":false,"rental_uris":{"android":"levelo://app?vid=8a7b3992-4ce0-4349-9bae-f95f62e5bce5","ios":"levelo://app?vid=8a7b3992-4ce0-4349-9bae-f95f62e5bce5"},"vehicle_type_id":"4","last_reported":1701022076,"current_range_meters":25200,"station_id":"ce4bhgp2rcd13ifvqfd0","pricing_plan_id":"free"},{"bike_id":"aa8c7b19-ca86-4fd1-900f-948796423058","system_id":"levelo_inurba_marseille","lat":43.2479,"lon":5.374457,"is_reserved":false,"is_disabled":false,"rental_uris":{"android":"levelo://app?vid=aa8c7b19-ca86-4fd1-900f-948796423058","ios":"levelo://app?vid=aa8c7b19-ca86-4fd1-900f-948796423058"},"vehicle_type_id":"4","last_reported":1701022076,"current_range_meters":26000,"station_id":"ce4bhgh2rcd13ifvqfb0","pricing_plan_id":"free"},{"bike_id":"79a5ae71-c76c-4399-b25d-fe09e3864c72","system_id":"levelo_inurba_marseille","lat":43.24805,"lon":5.37456,"is_reserved":false,"is_disabled":false,"rental_uris":{"android":"levelo://app?vid=79a5ae71-c76c-4399-b25d-fe09e3864c72","ios":"levelo://app?vid=79a5ae71-c76c-4399-b25d-fe09e3864c72"},"vehicle_type_id":"4","last_reported":1701022076,"current_range_meters":15200,"station_id":"ce4bhgh2rcd13ifvqfb0","pricing_plan_id":"free"},{"bike_id":"4f0efb12-87f5-4d11-ad98-fe64cc7903d6","system_id":"levelo_inurba_marseille","lat":43.24805,"lon":5.37465,"is_reserved":false,"is_disabled":false,"rental_uris":{"android":"levelo://app?vid=4f0efb12-87f5-4d11-ad98-fe64cc7903d6","ios":"levelo://app?vid=4f0efb12-87f5-4d11-ad98-fe64cc7903d6"},"vehicle_type_id":"4","last_reported":1701022076,"current_range_meters":30000,"station_id":"ce4bhgh2rcd13ifvqfb0","pricing_plan_id":"free"},{"bike_id":"c98b5d95-31ff-44d5-888b-053d002d6be5","system_id":"levelo_inurba_marseille","lat":43.2479,"lon":5.374457,"is_reserved":false,"is_disabled":false,"rental_uris":{"android":"levelo://app?vid=c98b5d95-31ff-44d5-888b-053d002d6be5","ios":"levelo://app?vid=c98b5d95-31ff-44d5-888b-053d002d6be5"},"vehicle_type_id":"4","last_reported":1701022076,"current_range_meters":19600,"station_id":"ce4bhgh2rcd13ifvqfb0","pricing_plan_id":"free"},{"bike_id":"976642f9-07a6-42c1-98ea-3112272ce277","system_id":"levelo_inurba_marseille","lat":43.2479,"lon":5.374457,"is_reserved":false,"is_disabled":false,"rental_uris":{"android":"levelo://app?vid=976642f9-07a6-42c1-98ea-3112272ce277","ios":"levelo://app?vid=976642f9-07a6-42c1-98ea-3112272ce277"},"vehicle_type_id":"4","last_reported":1701022076,"current_range_meters":29200,"station_id":"ce4bhgh2rcd13ifvqfb0","pricing_plan_id":"free"},{"bike_id":"66739f60-8921-490b-8824-d05cf89b1172","system_id":"levelo_inurba_marseille","lat":43.250897,"lon":5.395161,"is_reserved":false,"is_disabled":false,"rental_uris":{"android":"levelo://app?vid=66739f60-8921-490b-8824-d05cf89b1172","ios":"levelo://app?vid=66739f60-8921-490b-8824-d05cf89b1172"},"vehicle_type_id":"4","last_reported":1701022076,"current_range_meters":23200,"station_id":"ce4bhm12rcd13ifvqgkg","pricing_plan_id":"free"},{"bike_id":"d098be36-e087-470b-a84c-37eb8e051cb0","system_id":"levelo_inurba_marseille","lat":43.250966,"lon":5.395186,"is_reserved":false,"is_disabled":false,"rental_uris":{"android":"levelo://app?vid=d098be36-e087-470b-a84c-37eb8e051cb0","ios":"levelo://app?vid=d098be36-e087-470b-a84c-37eb8e051cb0"},"vehicle_type_id":"4","last_reported":1701022076,"current_range_meters":29200,"station_id":"ce4bhm12rcd13ifvqgkg","pricing_plan_id":"free"},{"bike_id":"3643499a-993b-4e15-b4b9-f571e6c950ca","system_id":"levelo_inurba_marseille","lat":43.24693,"lon":5.382096,"is_reserved":false,"is_disabled":false,"rental_uris":{"android":"levelo://app?vid=3643499a-993b-4e15-b4b9-f571e6c950ca","ios":"levelo://app?vid=3643499a-993b-4e15-b4b9-f571e6c950ca"},"vehicle_type_id":"4","last_reported":1701022076,"current_range_meters":22800,"station_id":"ce4bhih2rcd13ifvqfr0","pricing_plan_id":"free"},{"bike_id":"6c11779b-604a-46dd-bd48-42d55d02602f","system_id":"levelo_inurba_marseille","lat":43.24663,"lon":5.3816,"is_reserved":false,"is_disabled":false,"rental_uris":{"android":"levelo://app?vid=6c11779b-604a-46dd-bd48-42d55d02602f","ios":"levelo://app?vid=6c11779b-604a-46dd-bd48-42d55d02602f"},"vehicle_type_id":"4","last_reported":1701022076,"current_range_meters":25600,"station_id":"ce4bhih2rcd13ifvqfr0","pricing_plan_id":"free"},{"bike_id":"8877bff2-8f30-4ace-b9f5-1ea132d2ed9c","system_id":"levelo_inurba_marseille","lat":43.24693,"lon":5.382096,"is_reserved":false,"is_disabled":false,"rental_uris":{"android":"levelo://app?vid=8877bff2-8f30-4ace-b9f5-1ea132d2ed9c","ios":"levelo://app?vid=8877bff2-8f30-4ace-b9f5-1ea132d2ed9c"},"vehicle_type_id":"4","last_reported":1701022076,"current_range_meters":21600,"station_id":"ce4bhih2rcd13ifvqfr0","pricing_plan_id":"free"},{"bike_id":"b5c9a561-0233-43e6-845c-4b974f0af0b5","system_id":"levelo_inurba_marseille","lat":43.25102,"lon":5.403214,"is_reserved":false,"is_disabled":false,"rental_uris":{"android":"levelo://app?vid=b5c9a561-0233-43e6-845c-4b974f0af0b5","ios":"levelo://app?vid=b5c9a561-0233-43e6-845c-4b974f0af0b5"},"vehicle_type_id":"4","last_reported":1701022076,"current_range_meters":6000,"station_id":"ce4bhlh2rcd13ifvqgig","pricing_plan_id":"free"},{"bike_id":"e98015d0-3f02-4efb-a789-ed3bd5b5d008","system_id":"levelo_inurba_marseille","lat":43.24654,"lon":5.38896,"is_reserved":false,"is_disabled":false,"rental_uris":{"android":"levelo://app?vid=e98015d0-3f02-4efb-a789-ed3bd5b5d008","ios":"levelo://app?vid=e98015d0-3f02-4efb-a789-ed3bd5b5d008"},"vehicle_type_id":"4","last_reported":1701022076,"current_range_meters":11600,"station_id":"ce4bhg12rcd13ifvqf60","pricing_plan_id":"free"},{"bike_id":"b29dfda8-f720-4aab-afc1-f634e6d91320","system_id":"levelo_inurba_marseille","lat":43.24552,"lon":5.39527,"is_reserved":false,"is_disabled":false,"rental_uris":{"android":"levelo://app?vid=b29dfda8-f720-4aab-afc1-f634e6d91320","ios":"levelo://app?vid=b29dfda8-f720-4aab-afc1-f634e6d91320"},"vehicle_type_id":"4","last_reported":1701022076,"current_range_meters":31200,"station_id":"ce4bhlp2rcd13ifvqgjg","pricing_plan_id":"free"},{"bike_id":"5deb06c0-13b2-4f93-9c0b-b04bdd0bc20f","system_id":"levelo_inurba_marseille","lat":43.245581,"lon":5.395069,"is_reserved":false,"is_disabled":false,"rental_uris":{"android":"levelo://app?vid=5deb06c0-13b2-4f93-9c0b-b04bdd0bc20f","ios":"levelo://app?vid=5deb06c0-13b2-4f93-9c0b-b04bdd0bc20f"},"vehicle_type_id":"4","last_reported":1701022076,"current_range_meters":13200,"station_id":"ce4bhlp2rcd13ifvqgjg","pricing_plan_id":"free"},{"bike_id":"720890fb-6869-4a0b-9cd3-feb926b5be2c","system_id":"levelo_inurba_marseille","lat":43.245581,"lon":5.395069,"is_reserved":false,"is_disabled":false,"rental_uris":{"android":"levelo://app?vid=720890fb-6869-4a0b-9cd3-feb926b5be2c","ios":"levelo://app?vid=720890fb-6869-4a0b-9cd3-feb926b5be2c"},"vehicle_type_id":"4","last_reported":1701022076,"current_range_meters":5600,"station_id":"ce4bhlp2rcd13ifvqgjg","pricing_plan_id":"free"},{"bike_id":"5a6836a4-c7bf-435f-baba-7af1be553b35","system_id":"levelo_inurba_marseille","lat":43.245581,"lon":5.395069,"is_reserved":false,"is_disabled":false,"rental_uris":{"android":"levelo://app?vid=5a6836a4-c7bf-435f-baba-7af1be553b35","ios":"levelo://app?vid=5a6836a4-c7bf-435f-baba-7af1be553b35"},"vehicle_type_id":"4","last_reported":1701022076,"current_range_meters":2800,"station_id":"ce4bhlp2rcd13ifvqgjg","pricing_plan_id":"free"},{"bike_id":"ec6975e5-b4ef-4645-a84b-f878cf082c25","system_id":"levelo_inurba_marseille","lat":43.240623,"lon":5.377642,"is_reserved":false,"is_disabled":false,"rental_uris":{"android":"levelo://app?vid=ec6975e5-b4ef-4645-a84b-f878cf082c25","ios":"levelo://app?vid=ec6975e5-b4ef-4645-a84b-f878cf082c25"},"vehicle_type_id":"4","last_reported":1701022076,"current_range_meters":6400,"station_id":"ce4bhnp2rcd13ifvqgvg","pricing_plan_id":"free"},{"bike_id":"f5edbeb1-04c8-4cf0-a632-82a32063f204","system_id":"levelo_inurba_marseille","lat":43.240623,"lon":5.377642,"is_reserved":false,"is_disabled":false,"rental_uris":{"android":"levelo://app?vid=f5edbeb1-04c8-4cf0-a632-82a32063f204","ios":"levelo://app?vid=f5edbeb1-04c8-4cf0-a632-82a32063f204"},"vehicle_type_id":"4","last_reported":1701022076,"current_range_meters":29600,"station_id":"ce4bhnp2rcd13ifvqgvg","pricing_plan_id":"free"},{"bike_id":"cad75d1d-0cce-4757-84fe-7e2770b7e46d","system_id":"levelo_inurba_marseille","lat":43.240623,"lon":5.377642,"is_reserved":false,"is_disabled":false,"rental_uris":{"android":"levelo://app?vid=cad75d1d-0cce-4757-84fe-7e2770b7e46d","ios":"levelo://app?vid=cad75d1d-0cce-4757-84fe-7e2770b7e46d"},"vehicle_type_id":"4","last_reported":1701022076,"current_range_meters":24800,"station_id":"ce4bhnp2rcd13ifvqgvg","pricing_plan_id":"free"},