{"last_updated":1734379854,"ttl":60,"version":"2.2","data":{"bikes":[{"bike_id":"42c22991-bbb2-4c12-ab0d-47d496460860","system_id":"levelo_inurba_marseille","lat":43.27614,"lon":5.36108,"is_reserved":false,"is_disabled":false,"rental_uris":{"android":"levelo://app?vid=42c22991-bbb2-4c12-ab0d-47d496460860","ios":"levelo://app?vid=42c22991-bbb2-4c12-ab0d-47d496460860"},"vehicle_type_id":"4","last_reported":1734379854,"current_range_meters":16400,"station_id":"ce4bgj92rcd13ifvqbe0","pricing_plan_id":"cebpf4jnsgd1na2vs0mg"},{"bike_id":"3945d924-4864-404c-8dc1-69939c22235c","system_id":"levelo_inurba_marseille","lat":43.32334,"lon":5.40619,"is_reserved":false,"is_disabled":false,"rental_uris":{"android":"levelo://app?vid=3945d924-4864-404c-8dc1-69939c22235c","ios":"levelo://app?vid=3945d924-4864-404c-8dc1-69939c22235c"},"vehicle_type_id":"4","last_reported":1734379854,"current_range_meters":18800,"station_id":"ce4bhq92rcd13ifvqhjg","pricing_plan_id":"cebpf4jnsgd1na2vs0mg"},{"bike_id":"f6454cc5-1690-43a6-92aa-1d6f0da09f29","system_id":"levelo_inurba_marseille","lat":43.31332,"lon":5.39694,"is_reserved":false,"is_disabled":false,"rental_uris":{"android":"levelo://app?vid=f6454cc5-1690-43a6-92aa-1d6f0da09f29","ios":"levelo://app?vid=f6454cc5-1690-43a6-92aa-1d6f0da09f29"},"vehicle_type_id":"4","last_reported":1734379854,"current_range_meters":27600,"station_id":"ce4bgvp2rcd13ifvqcu0","pricing_plan_id":"cebpf4jnsgd1na2vs0mg"},{"bike_id":"32748970-bfe1-4056-be5b-2f167e596f22","system_id":"levelo_inurba_marseille","lat":43.30141,"lon":5.39858,"is_reserved":false,"is_disabled":false,"rental_uris":{"android":"levelo://app?vid=32748970-bfe1-4056-be5b-2f167e596f22","ios":"levelo://app?vid=32748970-bfe1-4056-be5b-2f167e596f22"},"vehicle_type_id":"4","last_reported":1734379854,"current_range_meters":12800,"station_id":"ce4bh0h2rcd13ifvqd40","pricing_plan_id":"cebpf4jnsgd1na2vs0mg"},{"bike_id":"59cb62bf-fe2f-4679-8485-86bd7fea9f42","system_id":"levelo_inurba_marseille","lat":43.299069,"lon":5.381419,"is_reserved":false,"is_disabled":false,"rental_uris":{"android":"levelo://app?vid=59cb62bf-fe2f-4679-8485-86bd7fea9f42","ios":"levelo://app?vid=59cb62bf-fe2f-4679-8485-86bd7fea9f42"},"vehicle_type_id":"4","last_reported":1734379854,"current_range_meters":35200,"station_id":"ce4bhah2rcd13ifvqej0","pricing_plan_id":"cebpf4jnsgd1na2vs0mg"},{"bike_id":"0ef6db4d-529f-4d18-a3e2-fe1b03a2423c","system_id":"levelo_inurba_marseille","lat":43.31486,"lon":5.37309,"is_reserved":false,"is_disabled":false,"rental_uris":{"android":"levelo://app?vid=0ef6db4d-529f-4d18-a3e2-fe1b03a2423c","ios":"levelo://app?vid=0ef6db4d-529f-4d18-a3e2-fe1b03a2423c"},"vehicle_type_id":"4","last_reported":1734379854,"current_range_meters":36400,"station_id":"ce4bgt12rcd13ifvqcd0","pricing_plan_id":"cebpf4jnsgd1na2vs0mg"},{"bike_id":"6a542b5e-aa6d-4c02-9462-27580e2b7e4b","system_id":"levelo_inurba_marseille","lat":43.29916,"lon":5.39719,"is_reserved":false,"is_disabled":false,"rental_uris":{"android":"levelo://app?vid=6a542b5e-aa6d-4c02-9462-27580e2b7e4b","ios":"levelo://app?vid=6a542b5e-aa6d-4c02-9462-27580e2b7e4b"},"vehicle_type_id":"4","last_reported":1734379854,"current_range_meters":38800,"station_id":"","pricing_plan_id":"cebpf4jnsgd1na2vs0mg"},{"bike_id":"66c2d464-591d-4cf7-a92e-3040a1b49fea","system_id":"levelo_inurba_marseille","lat":43.28665,"lon":5.36355,"is_reserved":false,"is_disabled":false,"rental_uris":{"android":"levelo://app?vid=66c2d464-591d-4cf7-a92e-3040a1b49fea","ios":"levelo://app?vid=66c2d464-591d-4cf7-a92e-3040a1b49fea"},"vehicle_type_id":"4","last_reported":1734379854,"current_range_meters":34000,"station_id":"ce4bhah2rcd13ifvqej0","pricing_plan_id":"cebpf4jnsgd1na2vs0mg"},{"bike_id":"0e5fa3cd-a913-4061-b0b9-e6b5b6a4b26a","system_id":"levelo_inurba_marseille","lat":43.25091,"lon":5.3951,"is_reserved":false,"is_disabled":false,"rental_uris":{"android":"levelo://app?vid=0e5fa3cd-a913-4061-b0b9-e6b5b6a4b26a","ios":"levelo://app?vid=0e5fa3cd-a913-4061-b0b9-e6b5b6a4b26a"},"vehicle_type_id":"4","last_reported":1734379854,"current_range_meters":24000,"station_id":"ce4bhm12rcd13ifvqgkg","pricing_plan_id":"cebpf4jnsgd1na2vs0mg"},{"bike_id":"ed8635a9-8a62-4be7-9d4b-a4dbff1f7c6d","system_id":"levelo_inurba_marseille","lat":43.28507,"lon":5.38022,"is_reserved":false,"is_disabled":true,"rental_uris":{"android":"levelo://app?vid=ed8635a9-8a62-4be7-9d4b-a4dbff1f7c6d","ios":"levelo://app?vid=ed8635a9-8a62-4be7-9d4b-a4dbff1f7c6d"},"vehicle_type_id":"4","last_reported":1734379854,"current_range_meters":23200,"station_id":"","pricing_plan_id":"cebpf4jnsgd1na2vs0mg"},{"bike_id":"79e08014-78be-4b51-8e47-3248ec87023b","system_id":"levelo_inurba_marseille","lat":43.2467,"lon":5.38159,"is_reserved":false,"is_disabled":false,"rental_uris":{"android":"levelo://app?vid=79e08014-78be-4b51-8e47-3248ec87023b","ios":"levelo://app?vid=79e08014-78be-4b51-8e47-3248ec87023b"},"vehicle_type_id":"4","last_reported":1734379854,"current_range_meters":36800,"station_id":"ce4bhih2rcd13ifvqfr0","pricing_plan_id":"cebpf4jnsgd1na2vs0mg"},{"bike_id":"b1141b56-3e7b-49ed-8c3a-fdb8940f3e60","system_id":"levelo_inurba_marseille","lat":43.30023,"lon":5.3773,"is_reserved":false,"is_disabled":true,"rental_uris":{"android":"levelo://app?vid=b1141b56-3e7b-49ed-8c3a-fdb8940f3e60","ios":"levelo://app?vid=b1141b56-3e7b-49ed-8c3a-fdb8940f3e60"},"vehicle_type_id":"4","last_reported":1734379854,"current_range_meters":9200,"station_id":"","pricing_plan_id":"cebpf4jnsgd1na2vs0mg"},{"bike_id":"1a44d6c7-4ab0-468e-885d-abd5d129c4c1","system_id":"levelo_inurba_marseille","lat":43.27983,"lon":5.40022,"is_reserved":false,"is_disabled":false,"rental_uris":{"android":"levelo://app?vid=1a44d6c7-4ab0-468e-885d-abd5d129c4c1","ios":"levelo://app?vid=1a44d6c7-4ab0-468e-885d-abd5d129c4c1"},"vehicle_type_id":"4","last_reported":1734379854,"current_range_meters":16000,"station_id":"ce4bho92rcd13ifvqh4g","pricing_plan_id":"cebpf4jnsgd1na2vs0mg"},{"bike_id":"f2becf00-bec2-445b-8f2d-7eb79048b5c6","system_id":"levelo_inurba_marseille","lat":43.29877,"lon":5.3972,"is_reserved":false,"is_disabled":false,"rental_uris":{"android":"levelo://app?vid=f2becf00-bec2-445b-8f2d-7eb79048b5c6","ios":"levelo://app?vid=f2becf00-bec2-445b-8f2d-7eb79048b5c6"},"vehicle_type_id":"4","last_reported":1734379854,"current_range_meters":38800,"station_id":"ce4bh0h2rcd13ifvqd50","pricing_plan_id":"cebpf4jnsgd1na2vs0mg"},{"bike_id":"10086f5f-eb94-421a-8247-01c4a38e23de","system_id":"levelo_inurba_marseille","lat":43.26786,"lon":5.39928,"is_reserved":false,"is_disabled":true,"rental_uris":{"android":"levelo://app?vid=10086f5f-eb94-421a-8247-01c4a38e23de","ios":"levelo://app?vid=10086f5f-eb94-421a-8247-01c4a38e23de"},"vehicle_type_id":"4","last_reported":1734379854,"current_range_meters":0,"station_id":"","pricing_plan_id":"cebpf4jnsgd1na2vs0mg"},{"bike_id":"5e91276a-57ff-41b6-99db-e62f6a5600de","system_id":"levelo_inurba_marseille","lat":43.28484,"lon":5.38405,"is_reserved":false,"is_disabled":false,"rental_uris":{"android":"levelo://app?vid=5e91276a-57ff-41b6-99db-e62f6a5600de","ios":"levelo://app?vid=5e91276a-57ff-41b6-99db-e62f6a5600de"},"vehicle_type_id":"4","last_reported":1734379854,"current_range_meters":34800,"station_id":"ce4bh512rcd13ifvqe3g","pricing_plan_id":"cebpf4jnsgd1na2vs0mg"},{"bike_id":"19b63edb-b49d-48d7-a32f-d786a72a8236","system_id":"levelo_inurba_marseille","lat":43.28496,"lon":5.35058,"is_reserved":false,"is_disabled":false,"rental_uris":{"android":"levelo://app?vid=19b63edb-b49d-48d7-a32f-d786a72a8236","ios":"levelo://app?vid=19b63edb-b49d-48d7-a32f-d786a72a8236"},"vehicle_type_id":"4","last_reported":1734379854,"current_range_meters":32400,"station_id":"","pricing_plan_id":"cebpf4jnsgd1na2vs0mg"},{"bike_id":"6b49ebdf-767b-495c-8b00-273a87320406","system_id":"levelo_inurba_marseille","lat":43.30141,"lon":5.39883,"is_reserved":false,"is_disabled":false,"rental_uris":{"android":"levelo://app?vid=6b49ebdf-767b-495c-8b00-273a87320406","ios":"levelo://app?vid=6b49ebdf-767b-495c-8b00-273a87320406"},"vehicle_type_id":"4","last_reported":1734379854,"current_range_meters":10000,"station_id":"ce4bh0h2rcd13ifvqd40","pricing_plan_id":"cebpf4jnsgd1na2vs0mg"},{"bike_id":"82bfb1cc-5635-4d47-bc8e-b9ff0bb37081","system_id":"levelo_inurba_marseille","lat":43.30702,"lon":5.38235,"is_reserved":false,"is_disabled":false,"rental_uris":{"android":"levelo://app?vid=82bfb1cc-5635-4d47-bc8e-b9ff0bb37081","ios":"levelo://app?vid=82bfb1cc-5635-4d47-bc8e-b9ff0bb37081"},"vehicle_type_id":"4","last_reported":1734379854,"current_range_meters":37600,"station_id":"","pricing_plan_id":"cebpf4jnsgd1na2vs0mg"},{"bike_id":"0942ec52-e4c2-4259-b7e5-1369cb3cb0e8","system_id":"levelo_inurba_marseille","lat":43.31712,"lon":5.37785,"is_reserved":false,"is_disabled":false,"rental_uris":{"android":"levelo://app?vid=0942ec52-e4c2-4259-b7e5-1369cb3cb0e8","ios":"levelo://app?vid=0942ec52-e4c2-4259-b7e5-1369cb3cb0e8"},"vehicle_type_id":"4","last_reported":1734379854,"current_range_meters":34000,"station_id":"ce4bgth2rcd13ifvqch0","pricing_plan_id":"cebpf4jnsgd1na2vs0mg"},{"bike_id":"6e68a8b1-0e13-427b-839f-d0db81a56eee","system_id":"levelo_inurba_marseille","lat":43.28943,"lon":5.36412,"is_reserved":false,"is_disabled":false,"rental_uris":{"android":"levelo://app?vid=6e68a8b1-0e13-427b-839f-d0db81a56eee","ios":"levelo://app?vid=6e68a8b1-0e13-427b-839f-d0db81a56eee"},"vehicle_type_id":"4","last_reported":1734379854,"current_range_meters":26800,"station_id":"ce4bhc92rcd13ifvqetg","pricing_plan_id":"cebpf4jnsgd1na2vs0mg"},{"bike_id":"491b5c18-99d4-4072-a89f-caaafeb4b981","system_id":"levelo_inurba_marseille","lat":43.30259,"lon":5.40076,"is_reserved":false,"is_disabled":false,"rental_uris":{"android":"levelo://app?vid=491b5c18-99d4-4072-a89f-caaafeb4b981","ios":"levelo://app?vid=491b5c18-99d4-4072-a89f-caaafeb4b981"},"vehicle_type_id":"4","last_reported":1734379854,"current_range_meters":20800,"station_id":"ce4bgvh2rcd13ifvqcs0","pricing_plan_id":"cebpf4jnsgd1na2vs0mg"},{"bike_id":"6cb9fe89-432b-437b-8ac2-83ad2cda73a0","system_id":"levelo_inurba_marseille","lat":43.29261,"lon":5.40923,"is_reserved":false,"is_disabled":true,"rental_uris":{"android":"levelo://app?vid=6cb9fe89-432b-437b-8ac2-83ad2cda73a0","ios":"levelo://app?vid=6cb9fe89-432b-437b-8ac2-83ad2cda73a0"},"vehicle_type_id":"4","last_reported":1734379854,"current_range_meters":38000,"station_id":"ce4bh192rcd13ifvqdc0","pricing_plan_id":"cebpf4jnsgd1na2vs0mg"},{"bike_id":"927992b6-d3f8-49f0-9e2c-4dba496acd1a","system_id":"levelo_inurba_marseille","lat":43.28699,"lon":5.39985,"is_reserved":false,"is_disabled":false,"rental_uris":{"android":"levelo://app?vid=927992b6-d3f8-49f0-9e2c-4dba496acd1a","ios":"levelo://app?vid=927992b6-d3f8-49f0-9e2c-4dba496acd1a"},"vehicle_type_id":"4","last_reported":1734379854,"current_range_meters":34800,"station_id":"ce4bho92rcd13ifvqh3g","pricing_plan_id":"cebpf4jnsgd1na2vs0mg"},{"bike_id":"b6a3d610-c58e-44ec-a0c2-d8cf03db293a","system_id":"levelo_inurba_marseille","lat":43.27943,"lon":5.41047,"is_reserved":false,"is_disabled":false,"rental_uris":{"android":"levelo://app?vid=b6a3d610-c58e-44ec-a0c2-d8cf03db293a","ios":"levelo://app?vid=b6a3d610-c58e-44ec-a0c2-d8cf03db293a"},"vehicle_type_id":"4","last_reported":1734379854,"current_range_meters":9600,"station_id":"ce4bhnp2rcd13ifvqh0g","pricing_plan_id":"cebpf4jnsgd1na2vs0mg"},{"bike_id":"e6029fb1-ca48-4fee-ba7d-8ee528661eb7","system_id":"levelo_inurba_marseille","lat":43.26509,"lon":5.39557,"is_reserved":false,"is_disabled":false,"rental_uris":{"android":"levelo://app?vid=e6029fb1-ca48-4fee-ba7d-8ee528661eb7","ios":"levelo://app?vid=e6029fb1-ca48-4fee-ba7d-8ee528661eb7"},"vehicle_type_id":"4","last_reported":1734379854,"current_range_meters":33200,"station_id":"ce4bhi12rcd13ifvqfq0","pricing_plan_id":"cebpf4jnsgd1na2vs0mg"},{"bike_id":"80406a9a-ca87-4a2c-aa91-3e0401fa9eec","system_id":"levelo_inurba_marseille","lat":43.28481,"lon":5.384,"is_reserved":false,"is_disabled":false,"rental_uris":{"android":"levelo://app?vid=80406a9a-ca87-4a2c-aa91-3e0401fa9eec","ios":"levelo://app?vid=80406a9a-ca87-4a2c-aa91-3e0401fa9eec"},"vehicle_type_id":"4","last_reported":1734379854,"current_range_meters":39200,"station_id":"ce4bh512rcd13ifvqe3g","pricing_plan_id":"cebpf4jnsgd1na2vs0mg"},{"bike_id":"8b20f662-5827-4ba5-be5f-cc36e52e0b3d","system_id":"levelo_inurba_marseille","lat":43.28936,"lon":5.36631,"is_reserved":false,"is_disabled":false,"rental_uris":{"android":"levelo://app?vid=8b20f662-5827-4ba5-be5f-cc36e52e0b3d","ios":"levelo://app?vid=8b20f662-5827-4ba5-be5f-cc36e52e0b3d"},"vehicle_type_id":"4","last_reported":1734379854,"current_range_meters":14800,"station_id":"ce4bhap2rcd13ifvqek0","pricing_plan_id":"cebpf4jnsgd1na2vs0mg"},{"bike_id":"df8d9f60-67d3-4227-99b7-48c256f5c206","system_id":"levelo_inurba_marseille","lat":43.31714,"lon":5.37764,"is_reserved":false,"is_disabled":false,"rental_uris":{"android":"levelo://app?vid=df8d9f60-67d3-4227-99b7-48c256f5c206","ios":"levelo://app?vid=df8d9f60-67d3-4227-99b7-48c256f5c206"},"vehicle_type_id":"4","last_reported":1734379854,"current_range_meters":37600,"station_id":"ce4bgth2rcd13ifvqch0","pricing_plan_id":"cebpf4jnsgd1na2vs0mg"},{"bike_id":"a716bf4a-483b-4082-8d5e-a159c3e6bcca","system_id":"levelo_inurba_marseille","lat":43.29974,"lon":5.41322,"is_reserved":false,"is_disabled":true,"rental_uris":{"android":"levelo://app?vid=a716bf4a-483b-4082-8d5e-a159c3e6bcca","ios":"levelo://app?vid=a716bf4a-483b-4082-8d5e-a159c3e6bcca"},"vehicle_type_id":"4","last_reported":1734379854,"current_range_meters":33200,"station_id":"ce4bhp12rcd13ifvqh9g","pricing_plan_id":"cebpf4jnsgd1na2vs0mg"},{"bike_id":"a93b0485-204e-447f-b8dc-32b392e11c91","system_id":"levelo_inurba_marseille","lat":43.300857,"lon":5.39074,"is_reserved":false,"is_disabled":false,"rental_uris":{"android":"levelo://app?vid=a93b0485-204e-447f-b8dc-32b392e11c91","ios":"levelo://app?vid=a93b0485-204e-447f-b8dc-32b392e11c91"},"vehicle_type_id":"4","last_reported":1734379854,"current_range_meters":16000,"station_id":"ce4bh192rcd13ifvqdb0","pricing_plan_id":"cebpf4jnsgd1na2vs0mg"},{"bike_id":"75979f35-52fb-4ff9-aef4-c293842957ed","system_id":"levelo_inurba_marseille","lat":43.32547,"lon":5.41443,"is_reserved":false,"is_disabled":true,"rental_uris":{"android":"levelo://app?vid=75979f35-52fb-4ff9-aef4-c293842957ed","ios":"levelo://app?vid=75979f35-52fb-4ff9-aef4-c293842957ed"},"vehicle_type_id":"4","last_reported":1734379854,"current_range_meters":36400,"station_id":"ce4bhq12rcd13ifvqhhg","pricing_plan_id":"cebpf4jnsgd1na2vs0mg"},{"bike_id":"434843cf-9364-4dd4-8d3c-6f995f6c8fa3","system_id":"levelo_inurba_marseille","lat":43.23064,"lon":5.35493,"is_reserved":false,"is_disabled":false,"rental_uris":{"android":"levelo://app?vid=434843cf-9364-4dd4-8d3c-6f995f6c8fa3","ios":"levelo://app?vid=434843cf-9364-4dd4-8d3c-6f995f6c8fa3"},"vehicle_type_id":"4","last_reported":1734379854,"current_range_meters":27200,"station_id":"cpo3342slgdg3j2ifvpg","pricing_plan_id":"cebpf4jnsgd1na2vs0mg"},{"bike_id":"01dd261f-922b-4db8-a73b-009ae8f8ee61","system_id":"levelo_inurba_marseille","lat":43.30812,"lon":5.38007,"is_reserved":false,"is_disabled":false,"rental_uris":{"android":"levelo://app?vid=01dd261f-922b-4db8-a73b-009ae8f8ee61","ios":"levelo://app?vid=01dd261f-922b-4db8-a73b-009ae8f8ee61"},"vehicle_type_id":"4","last_reported":1734379854,"current_range_meters":11200,"station_id":"","pricing_plan_id":"cebpf4jnsgd1na2vs0mg"},{"bike_id":"c696cb0c-fbb3-4eb0-ade2-0fbc0071256c","system_id":"levelo_inurba_marseille","lat":43.29024,"lon":5.38635,"is_reserved":false,"is_disabled":false,"rental_uris":{"android":"levelo://app?vid=c696cb0c-fbb3-4eb0-ade2-0fbc0071256c","ios":"levelo://app?vid=c696cb0c-fbb3-4eb0-ade2-0fbc0071256c"},"vehicle_type_id":"4","last_reported":1734379854,"current_range_meters":38000,"station_id":"ce4bh4p2rcd13ifvqe0g","pricing_plan_id":"cebpf4jnsgd1na2vs0mg"},{"bike_id":"ba98bdce-aee7-48db-921f-e5b23de6229a","system_id":"levelo_inurba_marseille","lat":43.33786,"lon":5.42087,"is_reserved":false,"is_disabled":true,"rental_uris":{"android":"levelo://app?vid=ba98bdce-aee7-48db-921f-e5b23de6229a","ios":"levelo://app?vid=ba98bdce-aee7-48db-921f-e5b23de6229a"},"vehicle_type_id":"4","last_reported":1734379854,"current_range_meters":0,"station_id":"","pricing_plan_id":"cebpf4jnsgd1na2vs0mg"},{"bike_id":"447241b8-a277-4d3d-8002-5a90778824f7","system_id":"levelo_inurba_marseille","lat":43.29199,"lon":5.3582,"is_reserved":false,"is_disabled":false,"rental_uris":{"android":"levelo://app?vid=447241b8-a277-4d3d-8002-5a90778824f7","ios":"levelo://app?vid=447241b8-a277-4d3d-8002-5a90778824f7"},"vehicle_type_id":"4","last_reported":1734379854,"current_range_meters":12800,"station_id":"ce4bhb12rcd13ifvqel0","pricing_plan_id":"cebpf4jnsgd1na2vs0mg"},{"bike_id":"d1307876-b4e6-404c-9d20-7fe1ebc3b7c8","system_id":"levelo_inurba_marseille","lat":43.27549,"lon":5.38405,"is_reserved":false,"is_disabled":false,"rental_uris":{"android":"levelo://app?vid=d1307876-b4e6-404c-9d20-7fe1ebc3b7c8","ios":"levelo://app?vid=d1307876-b4e6-404c-9d20-7fe1ebc3b7c8"},"vehicle_type_id":"4","last_reported":1734379854,"current_range_meters":28800,"station_id":"ce4bhh92rcd13ifvqfi0","pricing_plan_id":"cebpf4jnsgd1na2vs0mg"},{"bike_id":"fa06cf43-ec07-4077-8052-d8c33d83d1a7","system_id":"levelo_inurba_marseille","lat":43.31709,"lon":5.37742,"is_reserved":false,"is_disabled":false,"rental_uris":{"android":"levelo://app?vid=fa06cf43-ec07-4077-8052-d8c33d83d1a7","ios":"levelo://app?vid=fa06cf43-ec07-4077-8052-d8c33d83d1a7"},"vehicle_type_id":"4","last_reported":1734379854,"current_range_meters":17200,"station_id":"ce4bgth2rcd13ifvqch0","pricing_plan_id":"cebpf4jnsgd1na2vs0mg"},{"bike_id":"003d4e3a-a4f7-4446-a02e-430813fd1656","system_id":"levelo_inurba_marseille","lat":43.29195,"lon":5.3933,"is_reserved":false,"is_disabled":false,"rental_uris":{"android":"levelo://app?vid=003d4e3a-a4f7-4446-a02e-430813fd1656","ios":"levelo://app?vid=003d4e3a-a4f7-4446-a02e-430813fd1656"},"vehicle_type_id":"4","last_reported":1734379854,"current_range_meters":27600,"station_id":"ce4bh192rcd13ifvqdd0","pricing_plan_id":"cebpf4jnsgd1na2vs0mg"},{"bike_id":"e9e7807d-fbf4-40c3-a707-f9babe7d56c2","system_id":"levelo_inurba_marseille","lat":43.28608,"lon":5.37078,"is_reserved":false,"is_disabled":true,"rental_uris":{"android":"levelo://app?vid=e9e7807d-fbf4-40c3-a707-f9babe7d56c2","ios":"levelo://app?vid=e9e7807d-fbf4-40c3-a707-f9babe7d56c2"},"vehicle_type_id":"4","last_reported":1734379854,"current_range_meters":800,"station_id":"","pricing_plan_id":"cebpf4jnsgd1na2vs0mg"},{"bike_id":"8275f4eb-07eb-44a4-8bd8-4036a333488d","system_id":"levelo_inurba_marseille","lat":43.25123,"lon":5.40322,"is_reserved":false,"is_disabled":false,"rental_uris":{"android":"levelo://app?vid=8275f4eb-07eb-44a4-8bd8-4036a333488d","ios":"levelo://app?vid=8275f4eb-07eb-44a4-8bd8-4036a333488d"},"vehicle_type_id":"4","last_reported":1734379854,"current_range_meters":34000,"station_id":"ce4bhlh2rcd13ifvqgig","pricing_plan_id":"cebpf4jnsgd1na2vs0mg"},{"bike_id":"c3e06171-606e-48df-8fdf-8daebe9ad97f","system_id":"levelo_inurba_marseille","lat":43.23186,"lon":5.39985,"is_reserved":false,"is_disabled":false,"rental_uris":{"android":"levelo://app?vid=c3e06171-606e-48df-8fdf-8daebe9ad97f","ios":"levelo://app?vid=c3e06171-606e-48df-8fdf-8daebe9ad97f"},"vehicle_type_id":"4","last_reported":1734379854,"current_range_meters":37600,"station_id":"ce4bhn12rcd13ifvqgqg","pricing_plan_id":"cebpf4jnsgd1na2vs0mg"},{"bike_id":"daa7a7e5-85ea-49fc-9cd3-8caf5d515906","system_id":"levelo_inurba_marseille","lat":43.26711,"lon":5.38263,"is_reserved":false,"is_disabled":false,"rental_uris":{"android":"levelo://app?vid=daa7a7e5-85ea-49fc-9cd3-8caf5d515906","ios":"levelo://app?vid=daa7a7e5-85ea-49fc-9cd3-8caf5d515906"},"vehicle_type_id":"4","last_reported":1734379854,"current_range_meters":38800,"station_id":"ce4bhg92rcd13ifvqf90","pricing_plan_id":"cebpf4jnsgd1na2vs0mg"},{"bike_id":"1281a4fd-42f2-411e-985d-0107ddcda0b6","system_id":"levelo_inurba_marseille","lat":43.28678,"lon":5.38669,"is_reserved":false,"is_disabled":false,"rental_uris":{"android":"levelo://app?vid=1281a4fd-42f2-411e-985d-0107ddcda0b6","ios":"levelo://app?vid=1281a4fd-42f2-411e-985d-0107ddcda0b6"},"vehicle_type_id":"4","last_reported":1734379854,"current_range_meters":38000,"station_id":"ce4bh492rcd13ifvqdug","pricing_plan_id":"cebpf4jnsgd1na2vs0mg"},{"bike_id":"87ee05a6-7bf0-4b2d-98c3-db5d2162d893","system_id":"levelo_inurba_marseille","lat":43.2998,"lon":5.37192,"is_reserved":false,"is_disabled":false,"rental_uris":{"android":"levelo://app?vid=87ee05a6-7bf0-4b2d-98c3-db5d2162d893","ios":"levelo://app?vid=87ee05a6-7bf0-4b2d-98c3-db5d2162d893"},"vehicle_type_id":"4","last_reported":1734379854,"current_range_meters":35600,"station_id":"ce4bgr92rcd13ifvqc7g","pricing_plan_id":"cebpf4jnsgd1na2vs0mg"},{"bike_id":"cc02c1d6-fc9b-48b4-a208-7b79288b938f","system_id":"levelo_inurba_marseille","lat":43.28861,"lon":5.35853,"is_reserved":false,"is_disabled":false,"rental_uris":{"android":"levelo://app?vid=cc02c1d6-fc9b-48b4-a208-7b79288b938f","ios":"levelo://app?vid=cc02c1d6-fc9b-48b4-a208-7b79288b938f"},"vehicle_type_id":"4","last_reported":1734379854,"current_range_meters":36400,"station_id":"ce4bhb12rcd13ifvqem0","pricing_plan_id":"cebpf4jnsgd1na2vs0mg"},{"bike_id":"e4ca665a-4e73-436b-9d10-f2a90d02d397","system_id":"levelo_inurba_marseille","lat":43.29902,"lon":5.43666,"is_reserved":false,"is_disabled":false,"rental_uris":{"android":"levelo://app?vid=e4ca665a-4e73-436b-9d10-f2a90d02d397","ios":"levelo://app?vid=e4ca665a-4e73-436b-9d10-f2a90d02d397"},"vehicle_type_id":"4","last_reported":1734379854,"current_range_meters":9200,"station_id":"ce4bhpp2rcd13ifvqhfg","pricing_plan_id":"cebpf4jnsgd1na2vs0mg"},{"bike_id":"f90a56d8-6b58-4667-b1e0-9be9da1c9d3e","system_id":"levelo_inurba_marseille","lat":43.289343,"lon":5.379024,"is_reserved":false,"is_disabled":true,"rental_uris":{"android":"levelo://app?vid=f90a56d8-6b58-4667-b1e0-9be9da1c9d3e","ios":"levelo://app?vid=f90a56d8-6b58-4667-b1e0-9be9da1c9d3e"},"vehicle_type_id":"4","last_reported":1734379854,"current_range_meters":30800,"station_id":"","pricing_plan_id":"cebpf4jnsgd1na2vs0mg"},{"bike_id":"b7c2f4a7-9f00-4ba6-91ea-0de8ef639dec","system_id":"levelo_inurba_marseille","lat":43.32476,"lon":5.3658,"is_reserved":false,"is_disabled":false,"rental_uris":{"android":"levelo://app?vid=b7c2f4a7-9f00-4ba6-91ea-0de8ef639dec","ios":"levelo://app?vid=b7c2f4a7-9f00-4ba6-91ea-0de8ef639dec"},"vehicle_type_id":"4","last_reported":1734379854,"current_range_meters":24400,"station_id":"ce4bhs12rcd13ifvqhvg","pricing_plan_id":"cebpf4jnsgd1na2vs0mg"},{"bike_id":"beb6fa98-2c68-4200-969e-bbea7fb376e6","system_id":"levelo_inurba_marseille","lat":43.28453,"lon":5.39159,"is_reserved":false,"is_disabled":false,"rental_uris":{"android":"levelo://app?vid=beb6fa98-2c68-4200-969e-bbea7fb376e6","ios":"levelo://app?vid=beb6fa98-2c68-4200-969e-bbea7fb376e6"},"vehicle_type_id":"4","last_reported":1734379854,"current_range_meters":38400,"station_id":"ce4bhoh2rcd13ifvqh5g","pricing_plan_id":"cebpf4jnsgd1na2vs0mg"},{"bike_id":"b89667aa-aa4b-474c-8c48-bf3a9f3c1867","system_id":"levelo_inurba_marseille","lat":43.29957,"lon":5.3852,"is_reserved":false,"is_disabled":false,"rental_uris":{"android":"levelo://app?vid=b89667aa-aa4b-474c-8c48-bf3a9f3c1867","ios":"levelo://app?vid=b89667aa-aa4b-474c-8c48-bf3a9f3c1867"},"vehicle_type_id":"4","last_reported":1734379854,"current_range_meters":23200,"station_id":"ce4bgj92rcd13ifvqbd0","pricing_plan_id":"cebpf4jnsgd1na2vs0mg"},{"bike_id":"0c281ba5-3f42-4962-a4d8-5f995bbb41ad","system_id":"levelo_inurba_marseille","lat":43.29002,"lon":5.35602,"is_reserved":false,"is_disabled":false,"rental_uris":{"android":"levelo://app?vid=0c281ba5-3f42-4962-a4d8-5f995bbb41ad","ios":"levelo://app?vid=0c281ba5-3f42-4962-a4d8-5f995bbb41ad"},"vehicle_type_id":"4","last_reported":1734379854,"current_range_meters":4800,"station_id":"ce4bhb92rcd13ifvqen0","pricing_plan_id":"cebpf4jnsgd1na2vs0mg"},{"bike_id":"64cd57ba-49cd-4de6-81d5-f88575e43d13","system_id":"levelo_inurba_marseille","lat":43.33025,"lon":5.39044,"is_reserved":false,"is_disabled":false,"rental_uris":{"android":"levelo://app?vid=64cd57ba-49cd-4de6-81d5-f88575e43d13","ios":"levelo://app?vid=64cd57ba-49cd-4de6-81d5-f88575e43d13"},"vehicle_type_id":"4","last_reported":1734379854,"current_range_meters":39200,"station_id":"ce4bhr92rcd13ifvqhrg","pricing_plan_id":"cebpf4jnsgd1na2vs0mg"},{"bike_id":"cc236266-b4a4-4242-9542-29d54f50c8e0","system_id":"levelo_inurba_marseille","lat":43.31164,"lon":5.38717,"is_reserved":false,"is_disabled":false,"rental_uris":{"android":"levelo://app?vid=cc236266-b4a4-4242-9542-29d54f50c8e0","ios":"levelo://app?vid=cc236266-b4a4-4242-9542-29d54f50c8e0"},"vehicle_type_id":"4","last_reported":1734379854,"current_range_meters":36800,"station_id":"ce4bgv12rcd13ifvqcp0","pricing_plan_id":"cebpf4jnsgd1na2vs0mg"},{"bike_id":"9d5025cd-fba9-4173-97e1-894d9711e9af","system_id":"levelo_inurba_marseille","lat":43.28674,"lon":5.36352,"is_reserved":false,"is_disabled":false,"rental_uris":{"android":"levelo://app?vid=9d5025cd-fba9-4173-97e1-894d9711e9af","ios":"levelo://app?vid=9d5025cd-fba9-4173-97e1-894d9711e9af"},"vehicle_type_id":"4","last_reported":1734379854,"current_range_meters":38800,"station_id":"ce4bhah2rcd13ifvqej0","pricing_plan_id":"cebpf4jnsgd1na2vs0mg"},{"bike_id":"c3123191-8af3-4905-b6f5-28cd8730b742","system_id":"levelo_inurba_marseille","lat":43.31331,"lon":5.39686,"is_reserved":false,"is_disabled":false,"rental_uris":{"android":"levelo://app?vid=c3123191-8af3-4905-b6f5-28cd8730b742","ios":"levelo://app?vid=c3123191-8af3-4905-b6f5-28cd8730b742"},"vehicle_type_id":"4","last_reported":1734379854,"current_range_meters":32400,"station_id":"ce4bgvp2rcd13ifvqcu0","pricing_plan_id":"cebpf4jnsgd1na2vs0mg"},{"bike_id":"0854f93a-27ef-4312-bd8f-be30bba0059f","system_id":"levelo_inurba_marseille","lat":43.28608,"lon":5.35113,"is_reserved":false,"is_disabled":true,"rental_uris":{"android":"levelo://app?vid=0854f93a-27ef-4312-bd8f-be30bba0059f","ios":"levelo://app?vid=0854f93a-27ef-4312-bd8f-be30bba0059f"},"vehicle_type_id":"4","last_reported":1734379854,"current_range_meters":27200,"station_id":"","pricing_plan_id":"cebpf4jnsgd1na2vs0mg"},{"bike_id":"1a854a96-e7f5-4426-9f75-0c72e7e9fd18","system_id":"levelo_inurba_marseille","lat":43.29531,"lon":5.38537,"is_reserved":false,"is_disabled":false,"rental_uris":{"android":"levelo://app?vid=1a854a96-e7f5-4426-9f75-0c72e7e9fd18","ios":"levelo://app?vid=1a854a96-e7f5-4426-9f75-0c72e7e9fd18"},"vehicle_type_id":"4","last_reported":1734379854,"current_range_meters":38000,"station_id":"ce4bgih2rcd13ifvqba0","pricing_plan_id":"cebpf4jnsgd1na2vs0mg"},{"bike_id":"b89cace3-fd84-4fd5-b7d4-63c8d0b748f3","system_id":"levelo_inurba_marseille","lat":43.30129,"lon":5.39867,"is_reserved":false,"is_disabled":false,"rental_uris":{"android":"levelo://app?vid=b89cace3-fd84-4fd5-b7d4-63c8d0b748f3","ios":"levelo://app?vid=b89cace3-fd84-4fd5-b7d4-63c8d0b748f3"},"vehicle_type_id":"4","last_reported":1734379854,"current_range_meters":38800,"station_id":"ce4bh0h2rcd13ifvqd40","pricing_plan_id":"cebpf4jnsgd1na2vs0mg"},{"bike_id":"c4270ea9-5ce6-4111-8dc1-8ae345013bb1","system_id":"levelo_inurba_marseille","lat":43.27191,"lon":5.40992,"is_reserved":false,"is_disabled":false,"rental_uris":{"android":"levelo://app?vid=c4270ea9-5ce6-4111-8dc1-8ae345013bb1","ios":"levelo://app?vid=c4270ea9-5ce6-4111-8dc1-8ae345013bb1"},"vehicle_type_id":"4","last_reported":1734379854,"current_range_meters":15200,"station_id":"ce4bhl12rcd13ifvqgf0","pricing_plan_id":"cebpf4jnsgd1na2vs0mg"},{"bike_id":"c0a0c9e6-d71d-42e0-9b1f-2849721da8f4","system_id":"levelo_inurba_marseille","lat":43.27173,"lon":5.4099,"is_reserved":false,"is_disabled":false,"rental_uris":{"android":"levelo://app?vid=c0a0c9e6-d71d-42e0-9b1f-2849721da8f4","ios":"levelo://app?vid=c0a0c9e6-d71d-42e0-9b1f-2849721da8f4"},"vehicle_type_id":"4","last_reported":1734379854,"current_range_meters":23200,"station_id":"ce4bhl12rcd13ifvqgf0","pricing_plan_id":"cebpf4jnsgd1na2vs0mg"},{"bike_id":"4307528f-73ef-4ebb-ab88-bcab69796fe2","system_id":"levelo_inurba_marseille","lat":43.30608,"lon":5.39362,"is_reserved":false,"is_disabled":false,"rental_uris":{"android":"levelo://app?vid=4307528f-73ef-4ebb-ab88-bcab69796fe2","ios":"levelo://app?vid=4307528f-73ef-4ebb-ab88-bcab69796fe2"},"vehicle_type_id":"4","last_reported":1734379854,"current_range_meters":14800,"station_id":"ce4bh0p2rcd13ifvqd80","pricing_plan_id":"cebpf4jnsgd1na2vs0mg"},{"bike_id":"d9f638ef-8ccb-454e-adae-4e085f7e7956","system_id":"levelo_inurba_marseille","lat":43.24391,"lon":5.37049,"is_reserved":false,"is_disabled":false,"rental_uris":{"android":"levelo://app?vid=d9f638ef-8ccb-454e-adae-4e085f7e7956","ios":"levelo://app?vid=d9f638ef-8ccb-454e-adae-4e085f7e7956"},"vehicle_type_id":"4","last_reported":1734379854,"current_range_meters":17600,"station_id":"ce4bhhh2rcd13ifvqfk0","pricing_plan_id":"cebpf4jnsgd1na2vs0mg"},{"bike_id":"f16dfa80-8cba-45f3-a8b1-c75b671b24cb","system_id":"levelo_inurba_marseille","lat":43.29266,"lon":5.38442,"is_reserved":false,"is_disabled":false,"rental_uris":{"android":"levelo://app?vid=f16dfa80-8cba-45f3-a8b1-c75b671b24cb","ios":"levelo://app?vid=f16dfa80-8cba-45f3-a8b1-c75b671b24cb"},"vehicle_type_id":"4","last_reported":1734379854,"current_range_meters":39200,"station_id":"ce4bh692rcd13ifvqea0","pricing_plan_id":"cebpf4jnsgd1na2vs0mg"},{"bike_id":"209bd16c-28da-4aaf-91b3-949cf5d910d0","system_id":"levelo_inurba_marseille","lat":43.29257,"lon":5.38431,"is_reserved":false,"is_disabled":true,"rental_uris":{"android":"levelo://app?vid=209bd16c-28da-4aaf-91b3-949cf5d910d0","ios":"levelo://app?vid=209bd16c-28da-4aaf-91b3-949cf5d910d0"},"vehicle_type_id":"4","last_reported":1734379854,"current_range_meters":23200,"station_id":"ce4bh692rcd13ifvqea0","pricing_plan_id":"cebpf4jnsgd1na2vs0mg"},{"bike_id":"14270be7-87cd-4bad-92bc-7f49cbd5cacd","system_id":"levelo_inurba_marseille","lat":43.28157,"lon":5.4266,"is_reserved":false,"is_disabled":false,"rental_uris":{"android":"levelo://app?vid=14270be7-87cd-4bad-92bc-7f49cbd5cacd","ios":"levelo://app?vid=14270be7-87cd-4bad-92bc-7f49cbd5cacd"},"vehicle_type_id":"4","last_reported":1734379854,"current_range_meters":12400,"station_id":"ce4bhnh2rcd13ifvqgug","pricing_plan_id":"cebpf4jnsgd1na2vs0mg"},{"bike_id":"df54a5ae-50a4-4d43-8e26-b4c7d23b9d25","system_id":"levelo_inurba_marseille","lat":43.29895,"lon":5.39736,"is_reserved":false,"is_disabled":false,"rental_uris":{"android":"levelo://app?vid=df54a5ae-50a4-4d43-8e26-b4c7d23b9d25","ios":"levelo://app?vid=df54a5ae-50a4-4d43-8e26-b4c7d23b9d25"},"vehicle_type_id":"4","last_reported":1734379854,"current_range_meters":36800,"station_id":"ce4bh0h2rcd13ifvqd50","pricing_plan_id":"cebpf4jnsgd1na2vs0mg"},{"bike_id":"7b70bd7c-233a-4d42-9c2b-cff9df18c3b2","system_id":"levelo_inurba_marseille","lat":43.29276,"lon":5.40114,"is_reserved":false,"is_disabled":false,"rental_uris":{"android":"levelo://app?vid=7b70bd7c-233a-4d42-9c2b-cff9df18c3b2","ios":"levelo://app?vid=7b70bd7c-233a-4d42-9c2b-cff9df18c3b2"},"vehicle_type_id":"4","last_reported":1734379854,"current_range_meters":25600,"station_id":"ce4bh312rcd13ifvqdk0","pricing_plan_id":"cebpf4jnsgd1na2vs0mg"},{"bike_id":"6dc12bc7-0b16-482f-a25e-f5332cdc3f10","system_id":"levelo_inurba_marseille","lat":43.33027,"lon":5.39041,"is_reserved":false,"is_disabled":false,"rental_uris":{"android":"levelo://app?vid=6dc12bc7-0b16-482f-a25e-f5332cdc3f10","ios":"levelo://app?vid=6dc12bc7-0b16-482f-a25e-f5332cdc3f10"},"vehicle_type_id":"4","last_reported":1734379854,"current_range_meters":26000,"station_id":"ce4bhr92rcd13ifvqhrg","pricing_plan_id":"cebpf4jnsgd1na2vs0mg"},{"bike_id":"9595ff7a-ff62-488c-b31c-ab18b0cf92a2","system_id":"levelo_inurba_marseille","lat":43.23963,"lon":5.3663,"is_reserved":false,"is_disabled":false,"rental_uris":{"android":"levelo://app?vid=9595ff7a-ff62-488c-b31c-ab18b0cf92a2","ios":"levelo://app?vid=9595ff7a-ff62-488c-b31c-ab18b0cf92a2"},"vehicle_type_id":"4","last_reported":1734379854,"current_range_meters":38000,"station_id":"ce4bhi12rcd13ifvqfp0","pricing_plan_id":"cebpf4jnsgd1na2vs0mg"},{"bike_id":"c34dbfae-d24a-4cc9-a452-f7552365bc01","system_id":"levelo_inurba_marseille","lat":43.29001,"lon":5.35608,"is_reserved":false,"is_disabled":true,"rental_uris":{"android":"levelo://app?vid=c34dbfae-d24a-4cc9-a452-f7552365bc01","ios":"levelo://app?vid=c34dbfae-d24a-4cc9-a452-f7552365bc01"},"vehicle_type_id":"4","last_reported":1734379854,"current_range_meters":0,"station_id":"ce4bhb92rcd13ifvqen0","pricing_plan_id":"cebpf4jnsgd1na2vs0mg"},{"bike_id":"3fb6596b-b720-4e37-88d1-377c7a736425","system_id":"levelo_inurba_marseille","lat":43.23196,"lon":5.35557,"is_reserved":false,"is_disabled":false,"rental_uris":{"android":"levelo://app?vid=3fb6596b-b720-4e37-88d1-377c7a736425","ios":"levelo://app?vid=3fb6596b-b720-4e37-88d1-377c7a736425"},"vehicle_type_id":"4","last_reported":1734379854,"current_range_meters":39200,"station_id":"ce4bhu92rcd13ifvqi70","pricing_plan_id":"cebpf4jnsgd1na2vs0mg"},{"bike_id":"8914bb17-7251-4066-b905-d58eaff8838d","system_id":"levelo_inurba_marseille","lat":43.27175,"lon":5.40989,"is_reserved":false,"is_disabled":false,"rental_uris":{"android":"levelo://app?vid=8914bb17-7251-4066-b905-d58eaff8838d","ios":"levelo://app?vid=8914bb17-7251-4066-b905-d58eaff8838d"},"vehicle_type_id":"4","last_reported":1734379854,"current_range_meters":28400,"station_id":"ce4bhl12rcd13ifvqgf0","pricing_plan_id":"cebpf4jnsgd1na2vs0mg"},{"bike_id":"8ee62417-ba9c-4b61-84a5-5bd7e2cbee2e","system_id":"levelo_inurba_marseille","lat":43.337444,"lon":5.374475,"is_reserved":false,"is_disabled":true,"rental_uris":{"android":"levelo://app?vid=8ee62417-ba9c-4b61-84a5-5bd7e2cbee2e","ios":"levelo://app?vid=8ee62417-ba9c-4b61-84a5-5bd7e2cbee2e"},"vehicle_type_id":"4","last_reported":1734379854,"current_range_meters":0,"station_id":"","pricing_plan_id":"cebpf4jnsgd1na2vs0mg"},{"bike_id":"20c4d571-f9f9-426e-8c0f-9955d737fd82","system_id":"levelo_inurba_marseille","lat":43.26801,"lon":5.40271,"is_reserved":false,"is_disabled":false,"rental_uris":{"android":"levelo://app?vid=20c4d571-f9f9-426e-8c0f-9955d737fd82","ios":"levelo://app?vid=20c4d571-f9f9-426e-8c0f-9955d737fd82"},"vehicle_type_id":"4","last_reported":1734379854,"current_range_meters":13600,"station_id":"ce501612rcd8frsf0b60","pricing_plan_id":"cebpf4jnsgd1na2vs0mg"},{"bike_id":"d2294c64-af77-450b-b299-fc06315dbf1a","system_id":"levelo_inurba_marseille","lat":43.29306,"lon":5.37182,"is_reserved":false,"is_disabled":true,"rental_uris":{"android":"levelo://app?vid=d2294c64-af77-450b-b299-fc06315dbf1a","ios":"levelo://app?vid=d2294c64-af77-450b-b299-fc06315dbf1a"},"vehicle_type_id":"4","last_reported":1734379854,"current_range_meters":22000,"station_id":"ce4bgh92rcd13ifvqb40","pricing_plan_id":"cebpf4jnsgd1na2vs0mg"},{"bike_id":"efc57f04-4351-4676-97a0-14c3c2859977","system_id":"levelo_inurba_marseille","lat":43.2959,"lon":5.36741,"is_reserved":false,"is_disabled":false,"rental_uris":{"android":"levelo://app?vid=efc57f04-4351-4676-97a0-14c3c2859977","ios":"levelo://app?vid=efc57f04-4351-4676-97a0-14c3c2859977"},"vehicle_type_id":"4","last_reported":1734379854,"current_range_meters":38800,"station_id":"ce4bgph2rcd13ifvqc2g","pricing_plan_id":"cebpf4jnsgd1na2vs0mg"},{"bike_id":"056177a6-f3a6-40fa-80e0-574bf5840c95","system_id":"levelo_inurba_marseille","lat":43.28378,"lon":5.38645,"is_reserved":false,"is_disabled":true,"rental_uris":{"android":"levelo://app?vid=056177a6-f3a6-40fa-80e0-574bf5840c95","ios":"levelo://app?vid=056177a6-f3a6-40fa-80e0-574bf5840c95"},"vehicle_type_id":"4","last_reported":1734379854,"current_range_meters":28800,"station_id":"ce4bh492rcd13ifvqdvg","pricing_plan_id":"cebpf4jnsgd1na2vs0mg"},{"bike_id":"2a03e7a9-e623-43fe-99c0-8c16e6af2b40","system_id":"levelo_inurba_marseille","lat":43.26974,"lon":5.39869,"is_reserved":false,"is_disabled":false,"rental_uris":{"android":"levelo://app?vid=2a03e7a9-e623-43fe-99c0-8c16e6af2b40","ios":"levelo://app?vid=2a03e7a9-e623-43fe-99c0-8c16e6af2b40"},"vehicle_type_id":"4","last_reported":1734379854,"current_range_meters":15200,"station_id":"","pricing_plan_id":"cebpf4jnsgd1na2vs0mg"},{"bike_id":"b10d48f1-c7ec-4c0f-a97b-b71c2f6a750b","system_id":"levelo_inurba_marseille","lat":43.28953,"lon":5.36411,"is_reserved":false,"is_disabled":false,"rental_uris":{"android":"levelo://app?vid=b10d48f1-c7ec-4c0f-a97b-b71c2f6a750b","ios":"levelo://app?vid=b10d48f1-c7ec-4c0f-a97b-b71c2f6a750b"},"vehicle_type_id":"4","last_reported":1734379854,"current_range_meters":14800,"station_id":"ce4bhc92rcd13ifvqetg","pricing_plan_id":"cebpf4jnsgd1na2vs0mg"},{"bike_id":"d8177c93-b6c5-4e83-a0c7-7f3251ff0a0e","system_id":"levelo_inurba_marseille","lat":43.29962,"lon":5.41328,"is_reserved":false,"is_disabled":false,"rental_uris":{"android":"levelo://app?vid=d8177c93-b6c5-4e83-a0c7-7f3251ff0a0e","ios":"levelo://app?vid=d8177c93-b6c5-4e83-a0c7-7f3251ff0a0e"},"vehicle_type_id":"4","last_reported":1734379854,"current_range_meters":33200,"station_id":"ce4bhp12rcd13ifvqh9g","pricing_plan_id":"cebpf4jnsgd1na2vs0mg"},{"bike_id":"d82023e7-5914-44f9-8b97-0992779a3467","system_id":"levelo_inurba_marseille","lat":43.24548,"lon":5.39524,"is_reserved":false,"is_disabled":false,"rental_uris":{"android":"levelo://app?vid=d82023e7-5914-44f9-8b97-0992779a3467","ios":"levelo://app?vid=d82023e7-5914-44f9-8b97-0992779a3467"},"vehicle_type_id":"4","last_reported":1734379854,"current_range_meters":38800,"station_id":"ce4bhlp2rcd13ifvqgjg","pricing_plan_id":"cebpf4jnsgd1na2vs0mg"},{"bike_id":"0e2e421d-cab6-4bab-ab43-0de2daec6dd5","system_id":"levelo_inurba_marseille","lat":43.278805,"lon":5.388003,"is_reserved":false,"is_disabled":true,"rental_uris":{"android":"levelo://app?vid=0e2e421d-cab6-4bab-ab43-0de2daec6dd5","ios":"levelo://app?vid=0e2e421d-cab6-4bab-ab43-0de2daec6dd5"},"vehicle_type_id":"4","last_reported":1734379854,"current_range_meters":0,"station_id":"","pricing_plan_id":"cebpf4jnsgd1na2vs0mg"},{"bike_id":"bf85f0b9-c86c-43a7-bfe7-23af3028a90a","system_id":"levelo_inurba_marseille","lat":43.25582,"lon":5.38232,"is_reserved":false,"is_disabled":false,"rental_uris":{"android":"levelo://app?vid=bf85f0b9-c86c-43a7-bfe7-23af3028a90a","ios":"levelo://app?vid=bf85f0b9-c86c-43a7-bfe7-23af3028a90a"},"vehicle_type_id":"4","last_reported":1734379854,"current_range_meters":25200,"station_id":"ce4bhih2rcd13ifvqfs0","pricing_plan_id":"cebpf4jnsgd1na2vs0mg"},{"bike_id":"25c0c336-834d-421d-b66d-e51c42a0ba97","system_id":"levelo_inurba_marseille","lat":43.30721,"lon":5.36826,"is_reserved":false,"is_disabled":false,"rental_uris":{"android":"levelo://app?vid=25c0c336-834d-421d-b66d-e51c42a0ba97","ios":"levelo://app?vid=25c0c336-834d-421d-b66d-e51c42a0ba97"},"vehicle_type_id":"4","last_reported":1734379854,"current_range_meters":22400,"station_id":"","pricing_plan_id":"cebpf4jnsgd1na2vs0mg"},{"bike_id":"048041f3-0a08-4bb3-967a-efe1acd6593e","system_id":"levelo_inurba_marseille","lat":43.25505,"lon":5.37634,"is_reserved":false,"is_disabled":false,"rental_uris":{"android":"levelo://app?vid=048041f3-0a08-4bb3-967a-efe1acd6593e","ios":"levelo://app?vid=048041f3-0a08-4bb3-967a-efe1acd6593e"},"vehicle_type_id":"4","last_reported":1734379854,"current_range_meters":38000,"station_id":"ce4bhh12rcd13ifvqff0","pricing_plan_id":"cebpf4jnsgd1na2vs0mg"},{"bike_id":"8974f1b0-9ecd-4769-8a60-37fec0f6d8ca","system_id":"levelo_inurba_marseille","lat":43.28433,"lon":5.37522,"is_reserved":false,"is_disabled":false,"rental_uris":{"android":"levelo://app?vid=8974f1b0-9ecd-4769-8a60-37fec0f6d8ca","ios":"levelo://app?vid=8974f1b0-9ecd-4769-8a60-37fec0f6d8ca"},"vehicle_type_id":"4","last_reported":1734379854,"current_range_meters":14000,"station_id":"ce4bh412rcd13ifvqds0","pricing_plan_id":"cebpf4jnsgd1na2vs0mg"},{"bike_id":"769642ea-8def-4344-aba0-61135444c5d1","system_id":"levelo_inurba_marseille","lat":43.30261,"lon":5.40083,"is_reserved":false,"is_disabled":false,"rental_uris":{"android":"levelo://app?vid=769642ea-8def-4344-aba0-61135444c5d1","ios":"levelo://app?vid=769642ea-8def-4344-aba0-61135444c5d1"},"vehicle_type_id":"4","last_reported":1734379854,"current_range_meters":27200,"station_id":"ce4bgvh2rcd13ifvqcs0","pricing_plan_id":"cebpf4jnsgd1na2vs0mg"},{"bike_id":"54a85025-694f-47a0-8f8f-7005fb77c937","system_id":"levelo_inurba_marseille","lat":43.28082,"lon":5.39648,"is_reserved":false,"is_disabled":false,"rental_uris":{"android":"levelo://app?vid=54a85025-694f-47a0-8f8f-7005fb77c937","ios":"levelo://app?vid=54a85025-694f-47a0-8f8f-7005fb77c937"},"vehicle_type_id":"4","last_reported":1734379854,"current_range_meters":38000,"station_id":"ce4bho12rcd13ifvqh2g","pricing_plan_id":"cebpf4jnsgd1na2vs0mg"},{"bike_id":"d91e2578-e2ed-4931-9142-db3aa779df9b","system_id":"levelo_inurba_marseille","lat":43.27833,"lon":5.39198,"is_reserved":false,"is_disabled":false,"rental_uris":{"android":"levelo://app?vid=d91e2578-e2ed-4931-9142-db3aa779df9b","ios":"levelo://app?vid=d91e2578-e2ed-4931-9142-db3aa779df9b"},"vehicle_type_id":"4","last_reported":1734379854,"current_range_meters":26000,"station_id":"ce4bhjp2rcd13ifvqga0","pricing_plan_id":"cebpf4jnsgd1na2vs0mg"},{"bike_id":"584b569e-7298-4afe-b48b-612c38273697","system_id":"levelo_inurba_marseille","lat":43.3107,"lon":5.38347,"is_reserved":false,"is_disabled":true,"rental_uris":{"android":"levelo://app?vid=584b569e-7298-4afe-b48b-612c38273697","ios":"levelo://app?vid=584b569e-7298-4afe-b48b-612c38273697"},"vehicle_type_id":"4","last_reported":1734379854,"current_range_meters":0,"station_id":"ce4bgv92rcd13ifvqcr0","pricing_plan_id":"cebpf4jnsgd1na2vs0mg"},{"bike_id":"6fcca420-7b9a-4500-9580-675e569a2a96","system_id":"levelo_inurba_marseille","lat":43.26551,"lon":5.3729,"is_reserved":false,"is_disabled":false,"rental_uris":{"android":"levelo://app?vid=6fcca420-7b9a-4500-9580-675e569a2a96","ios":"levelo://app?vid=6fcca420-7b9a-4500-9580-675e569a2a96"},"vehicle_type_id":"4","last_reported":1734379854,"current_range_meters":25600,"station_id":"ce4bhg12rcd13ifvqf70","pricing_plan_id":"cebpf4jnsgd1na2vs0mg"},{"bike_id":"1e853c4d-a7de-4fb0-a00c-272ec18a7a72","system_id":"levelo_inurba_marseille","lat":43.297094,"lon":5.3662,"is_reserved":false,"is_disabled":false,"rental_uris":{"android":"levelo://app?vid=1e853c4d-a7de-4fb0-a00c-272ec18a7a72","ios":"levelo://app?vid=1e853c4d-a7de-4fb0-a00c-272ec18a7a72"},"vehicle_type_id":"4","last_reported":1734379854,"current_range_meters":38800,"station_id":"ce4bgn12rcd13ifvqbt0","pricing_plan_id":"cebpf4jnsgd1na2vs0mg"},{"bike_id":"11600c38-dc3d-4aea-88bc-c214298d70f1","system_id":"levelo_inurba_marseille","lat":43.28454,"lon":5.35895,"is_reserved":false,"is_disabled":false,"rental_uris":{"android":"levelo://app?vid=11600c38-dc3d-4aea-88bc-c214298d70f1","ios":"levelo://app?vid=11600c38-dc3d-4aea-88bc-c214298d70f1"},"vehicle_type_id":"4","last_reported":1734379854,"current_range_meters":38000,"station_id":"ce4bhah2rcd13ifvqei0","pricing_plan_id":"cebpf4jnsgd1na2vs0mg"},{"bike_id":"2b15d063-7a3f-4ab1-9a96-79820bd042f5","system_id":"levelo_inurba_marseille","lat":43.302494,"lon":5.400718,"is_reserved":false,"is_disabled":true,"rental_uris":{"android":"levelo://app?vid=2b15d063-7a3f-4ab1-9a96-79820bd042f5","ios":"levelo://app?vid=2b15d063-7a3f-4ab1-9a96-79820bd042f5"},"vehicle_type_id":"4","last_reported":1734379854,"current_range_meters":20000,"station_id":"ce4bgvh2rcd13ifvqcs0","pricing_plan_id":"cebpf4jnsgd1na2vs0mg"},{"bike_id":"bfe5e067-4070-40f8-8cac-6448828a3f77","system_id":"levelo_inurba_marseille","lat":43.29852,"lon":5.39788,"is_reserved":false,"is_disabled":false,"rental_uris":{"android":"levelo://app?vid=bfe5e067-4070-40f8-8cac-6448828a3f77","ios":"levelo://app?vid=bfe5e067-4070-40f8-8cac-6448828a3f77"},"vehicle_type_id":"4","last_reported":1734379854,"current_range_meters":36800,"station_id":"ce4bh0h2rcd13ifvqd50","pricing_plan_id":"cebpf4jnsgd1na2vs0mg"},{"bike_id":"19aac1b5-cced-4bf8-9999-b29c53079c07","system_id":"levelo_inurba_marseille","lat":43.29618,"lon":5.37718,"is_reserved":false,"is_disabled":false,"rental_uris":{"android":"levelo://app?vid=19aac1b5-cced-4bf8-9999-b29c53079c07","ios":"levelo://app?vid=19aac1b5-cced-4bf8-9999-b29c53079c07"},"vehicle_type_id":"4","last_reported":1734379854,"current_range_meters":38800,"station_id":"ce4bgi92rcd13ifvqb90","pricing_plan_id":"cebpf4jnsgd1na2vs0mg"},{"bike_id":"54c11d0c-45a0-42d8-8ca0-d10a61cb44e5","system_id":"levelo_inurba_marseille","lat":43.26558,"lon":5.37282,"is_reserved":false,"is_disabled":false,"rental_uris":{"android":"levelo://app?vid=54c11d0c-45a0-42d8-8ca0-d10a61cb44e5","ios":"levelo://app?vid=54c11d0c-45a0-42d8-8ca0-d10a61cb44e5"},"vehicle_type_id":"4","last_reported":1734379854,"current_range_meters":32800,"station_id":"ce4bhg12rcd13ifvqf70","pricing_plan_id":"cebpf4jnsgd1na2vs0mg"},{"bike_id":"f242655b-7364-45a2-a306-4028b49a3316","system_id":"levelo_inurba_marseille","lat":43.25503,"lon":5.3765,"is_reserved":false,"is_disabled":false,"rental_uris":{"android":"levelo://app?vid=f242655b-7364-45a2-a306-4028b49a3316","ios":"levelo://app?vid=f242655b-7364-45a2-a306-4028b49a3316"},"vehicle_type_id":"4","last_reported":1734379854,"current_range_meters":37600,"station_id":"ce4bhh12rcd13ifvqff0","pricing_plan_id":"cebpf4jnsgd1na2vs0mg"},{"bike_id":"2b0d00ea-e18e-4e2b-9087-38d7d88e3458","system_id":"levelo_inurba_marseille","lat":43.28934,"lon":5.36407,"is_reserved":false,"is_disabled":false,"rental_uris":{"android":"levelo://app?vid=2b0d00ea-e18e-4e2b-9087-38d7d88e3458","ios":"levelo://app?vid=2b0d00ea-e18e-4e2b-9087-38d7d88e3458"},"vehicle_type_id":"4","last_reported":1734379854,"current_range_meters":25200,"station_id":"ce4bhc92rcd13ifvqetg","pricing_plan_id":"cebpf4jnsgd1na2vs0mg"},{"bike_id":"8c7e2759-1761-4283-8484-bda9243b869e","system_id":"levelo_inurba_marseille","lat":43.32486,"lon":5.36573,"is_reserved":false,"is_disabled":false,"rental_uris":{"android":"levelo://app?vid=8c7e2759-1761-4283-8484-bda9243b869e","ios":"levelo://app?vid=8c7e2759-1761-4283-8484-bda9243b869e"},"vehicle_type_id":"4","last_reported":1734379854,"current_range_meters":20400,"station_id":"ce4bhs12rcd13ifvqhvg","pricing_plan_id":"cebpf4jnsgd1na2vs0mg"},{"bike_id":"d61bae2c-3c02-42a0-b633-59a2a43bbcf5","system_id":"levelo_inurba_marseille","lat":43.29863,"lon":5.39749,"is_reserved":false,"is_disabled":false,"rental_uris":{"android":"levelo://app?vid=d61bae2c-3c02-42a0-b633-59a2a43bbcf5","ios":"levelo://app?vid=d61bae2c-3c02-42a0-b633-59a2a43bbcf5"},"vehicle_type_id":"4","last_reported":1734379854,"current_range_meters":36400,"station_id":"ce4bh0h2rcd13ifvqd50","pricing_plan_id":"cebpf4jnsgd1na2vs0mg"},{"bike_id":"58954fad-d7c4-4c6f-95c4-4998413bea8d","system_id":"levelo_inurba_marseille","lat":43.29439,"lon":5.39747,"is_reserved":false,"is_disabled":false,"rental_uris":{"android":"levelo://app?vid=58954fad-d7c4-4c6f-95c4-4998413bea8d","ios":"levelo://app?vid=58954fad-d7c4-4c6f-95c4-4998413bea8d"},"vehicle_type_id":"4","last_reported":1734379854,"current_range_meters":38000,"station_id":"ce4bh3h2rcd13ifvqdo0","pricing_plan_id":"cebpf4jnsgd1na2vs0mg"},{"bike_id":"d600d5f9-a3e6-4b94-ba8f-df9f8ed10059","system_id":"levelo_inurba_marseille","lat":43.24545,"lon":5.39521,"is_reserved":false,"is_disabled":false,"rental_uris":{"android":"levelo://app?vid=d600d5f9-a3e6-4b94-ba8f-df9f8ed10059","ios":"levelo://app?vid=d600d5f9-a3e6-4b94-ba8f-df9f8ed10059"},"vehicle_type_id":"4","last_reported":1734379854,"current_range_meters":16000,"station_id":"ce4bhlp2rcd13ifvqgjg","pricing_plan_id":"cebpf4jnsgd1na2vs0mg"},{"bike_id":"6bcea96b-2fd2-4aa6-b10c-d89cef8832d2","system_id":"levelo_inurba_marseille","lat":43.29285,"lon":5.40926,"is_reserved":false,"is_disabled":false,"rental_uris":{"android":"levelo://app?vid=6bcea96b-2fd2-4aa6-b10c-d89cef8832d2","ios":"levelo://app?vid=6bcea96b-2fd2-4aa6-b10c-d89cef8832d2"},"vehicle_type_id":"4","last_reported":1734379854,"current_range_meters":37600,"station_id":"ce4bh192rcd13ifvqdc0","pricing_plan_id":"cebpf4jnsgd1na2vs0mg"},{"bike_id":"a7fc9e1c-25f8-440f-8897-0f98a8340a4f","system_id":"levelo_inurba_marseille","lat":43.257173,"lon":5.411087,"is_reserved":false,"is_disabled":false,"rental_uris":{"android":"levelo://app?vid=a7fc9e1c-25f8-440f-8897-0f98a8340a4f","ios":"levelo://app?vid=a7fc9e1c-25f8-440f-8897-0f98a8340a4f"},"vehicle_type_id":"4","last_reported":1734379854,"current_range_meters":38800,"station_id":"ce4bhkp2rcd13ifvqgd0","pricing_plan_id":"cebpf4jnsgd1na2vs0mg"},{"bike_id":"76ec3642-6b04-4fa3-81b8-996f867e214d","system_id":"levelo_inurba_marseille","lat":43.24171,"lon":5.39706,"is_reserved":false,"is_disabled":true,"rental_uris":{"android":"levelo://app?vid=76ec3642-6b04-4fa3-81b8-996f867e214d","ios":"levelo://app?vid=76ec3642-6b04-4fa3-81b8-996f867e214d"},"vehicle_type_id":"4","last_reported":1734379854,"current_range_meters":16400,"station_id":"ce4bhn12rcd13ifvqgpg","pricing_plan_id":"cebpf4jnsgd1na2vs0mg"},{"bike_id":"b086f938-3dea-4025-a3c6-185d7dca2dfd","system_id":"levelo_inurba_marseille","lat":43.29611,"lon":5.37712,"is_reserved":false,"is_disabled":true,"rental_uris":{"android":"levelo://app?vid=b086f938-3dea-4025-a3c6-185d7dca2dfd","ios":"levelo://app?vid=b086f938-3dea-4025-a3c6-185d7dca2dfd"},"vehicle_type_id":"4","last_reported":1734379854,"current_range_meters":0,"station_id":"ce4bgi92rcd13ifvqb90","pricing_plan_id":"cebpf4jnsgd1na2vs0mg"},{"bike_id":"41cb55da-f4d8-4f0a-a691-4bcc11baa552","system_id":"levelo_inurba_marseille","lat":43.28922,"lon":5.38389,"is_reserved":false,"is_disabled":false,"rental_uris":{"android":"levelo://app?vid=41cb55da-f4d8-4f0a-a691-4bcc11baa552","ios":"levelo://app?vid=41cb55da-f4d8-4f0a-a691-4bcc11baa552"},"vehicle_type_id":"4","last_reported":1734379854,"current_range_meters":26000,"station_id":"ce4bh612rcd13ifvqe6g","pricing_plan_id":"cebpf4jnsgd1na2vs0mg"},{"bike_id":"d97fe5f2-9491-4c9e-bede-890204658da0","system_id":"levelo_inurba_marseille","lat":43.28447,"lon":5.35879,"is_reserved":false,"is_disabled":false,"rental_uris":{"android":"levelo://app?vid=d97fe5f2-9491-4c9e-bede-890204658da0","ios":"levelo://app?vid=d97fe5f2-9491-4c9e-bede-890204658da0"},"vehicle_type_id":"4","last_reported":1734379854,"current_range_meters":38400,"station_id":"ce4bhah2rcd13ifvqei0","pricing_plan_id":"cebpf4jnsgd1na2vs0mg"},{"bike_id":"b38afd42-c0ab-4d89-bb51-653c55809745","system_id":"levelo_inurba_marseille","lat":43.31329,"lon":5.39696,"is_reserved":false,"is_disabled":false,"rental_uris":{"android":"levelo://app?vid=b38afd42-c0ab-4d89-bb51-653c55809745","ios":"levelo://app?vid=b38afd42-c0ab-4d89-bb51-653c55809745"},"vehicle_type_id":"4","last_reported":1734379854,"current_range_meters":36800,"station_id":"ce4bgvp2rcd13ifvqcu0","pricing_plan_id":"cebpf4jnsgd1na2vs0mg"},{"bike_id":"c23cd138-2a8f-4687-846c-ea5d55e0bd33","system_id":"levelo_inurba_marseille","lat":43.30146,"lon":5.39859,"is_reserved":false,"is_disabled":false,"rental_uris":{"android":"levelo://app?vid=c23cd138-2a8f-4687-846c-ea5d55e0bd33","ios":"levelo://app?vid=c23cd138-2a8f-4687-846c-ea5d55e0bd33"},"vehicle_type_id":"4","last_reported":1734379854,"current_range_meters":9600,"station_id":"ce4bh0h2rcd13ifvqd40","pricing_plan_id":"cebpf4jnsgd1na2vs0mg"},{"bike_id":"77f1b1ee-625e-42b8-b442-5b46e01adb0c","system_id":"levelo_inurba_marseille","lat":43.29863,"lon":5.39731,"is_reserved":false,"is_disabled":false,"rental_uris":{"android":"levelo://app?vid=77f1b1ee-625e-42b8-b442-5b46e01adb0c","ios":"levelo://app?vid=77f1b1ee-625e-42b8-b442-5b46e01adb0c"},"vehicle_type_id":"4","last_reported":1734379854,"current_range_meters":28000,"station_id":"ce4bh0h2rcd13ifvqd50","pricing_plan_id":"cebpf4jnsgd1na2vs0mg"},{"bike_id":"6b2019df-57c6-4717-bb28-99523c4cbdf8","system_id":"levelo_inurba_marseille","lat":43.29515,"lon":5.39037,"is_reserved":false,"is_disabled":true,"rental_uris":{"android":"levelo://app?vid=6b2019df-57c6-4717-bb28-99523c4cbdf8","ios":"levelo://app?vid=6b2019df-57c6-4717-bb28-99523c4cbdf8"},"vehicle_type_id":"4","last_reported":1734379854,"current_range_meters":8400,"station_id":"ce4bh3p2rcd13ifvqdp0","pricing_plan_id":"cebpf4jnsgd1na2vs0mg"},{"bike_id":"6c375720-a2b8-46d9-b3da-42d9eba51f5d","system_id":"levelo_inurba_marseille","lat":43.29018,"lon":5.38632,"is_reserved":false,"is_disabled":false,"rental_uris":{"android":"levelo://app?vid=6c375720-a2b8-46d9-b3da-42d9eba51f5d","ios":"levelo://app?vid=6c375720-a2b8-46d9-b3da-42d9eba51f5d"},"vehicle_type_id":"4","last_reported":1734379854,"current_range_meters":38800,"station_id":"ce4bh4p2rcd13ifvqe0g","pricing_plan_id":"cebpf4jnsgd1na2vs0mg"},{"bike_id":"994a7f83-f675-4cc4-99e6-627719b76078","system_id":"levelo_inurba_marseille","lat":43.27833,"lon":5.39209,"is_reserved":false,"is_disabled":false,"rental_uris":{"android":"levelo://app?vid=994a7f83-f675-4cc4-99e6-627719b76078","ios":"levelo://app?vid=994a7f83-f675-4cc4-99e6-627719b76078"},"vehicle_type_id":"4","last_reported":1734379854,"current_range_meters":18800,"station_id":"ce4bhjp2rcd13ifvqga0","pricing_plan_id":"cebpf4jnsgd1na2vs0mg"},{"bike_id":"0ff63b43-e762-4853-8e57-8ec84f36bda7","system_id":"levelo_inurba_marseille","lat":43.31165,"lon":5.38714,"is_reserved":false,"is_disabled":false,"rental_uris":{"android":"levelo://app?vid=0ff63b43-e762-4853-8e57-8ec84f36bda7","ios":"levelo://app?vid=0ff63b43-e762-4853-8e57-8ec84f36bda7"},"vehicle_type_id":"4","last_reported":1734379854,"current_range_meters":33200,"station_id":"ce4bgv12rcd13ifvqcp0","pricing_plan_id":"cebpf4jnsgd1na2vs0mg"},{"bike_id":"76161a88-001a-4fcb-8463-f6d3d4fa201a","system_id":"levelo_inurba_marseille","lat":43.268454,"lon":5.39644,"is_reserved":false,"is_disabled":false,"rental_uris":{"android":"levelo://app?vid=76161a88-001a-4fcb-8463-f6d3d4fa201a","ios":"levelo://app?vid=76161a88-001a-4fcb-8463-f6d3d4fa201a"},"vehicle_type_id":"4","last_reported":1734379854,"current_range_meters":9200,"station_id":"","pricing_plan_id":"cebpf4jnsgd1na2vs0mg"},{"bike_id":"730a6134-88d8-47e4-be24-a87eaceaba81","system_id":"levelo_inurba_marseille","lat":43.27916,"lon":5.39598,"is_reserved":false,"is_disabled":false,"rental_uris":{"android":"levelo://app?vid=730a6134-88d8-47e4-be24-a87eaceaba81","ios":"levelo://app?vid=730a6134-88d8-47e4-be24-a87eaceaba81"},"vehicle_type_id":"4","last_reported":1734379854,"current_range_meters":38800,"station_id":"ce4bhf92rcd13ifvqf40","pricing_plan_id":"cebpf4jnsgd1na2vs0mg"},{"bike_id":"bb1c0ef0-184d-4b17-9016-88e561b3d27b","system_id":"levelo_inurba_marseille","lat":43.28615,"lon":5.35099,"is_reserved":false,"is_disabled":true,"rental_uris":{"android":"levelo://app?vid=bb1c0ef0-184d-4b17-9016-88e561b3d27b","ios":"levelo://app?vid=bb1c0ef0-184d-4b17-9016-88e561b3d27b"},"vehicle_type_id":"4","last_reported":1734379854,"current_range_meters":25600,"station_id":"ce4bhch2rcd13ifvqeug","pricing_plan_id":"cebpf4jnsgd1na2vs0mg"},{"bike_id":"63e53b98-acea-4a22-8d02-003944a706e6","system_id":"levelo_inurba_marseille","lat":43.25709,"lon":5.41095,"is_reserved":false,"is_disabled":false,"rental_uris":{"android":"levelo://app?vid=63e53b98-acea-4a22-8d02-003944a706e6","ios":"levelo://app?vid=63e53b98-acea-4a22-8d02-003944a706e6"},"vehicle_type_id":"4","last_reported":1734379854,"current_range_meters":38000,"station_id":"ce4bhkp2rcd13ifvqgd0","pricing_plan_id":"cebpf4jnsgd1na2vs0mg"},{"bike_id":"44861a73-1a94-4497-ad37-285de7daa1ae","system_id":"levelo_inurba_marseille","lat":43.28036,"lon":5.36927,"is_reserved":false,"is_disabled":false,"rental_uris":{"android":"levelo://app?vid=44861a73-1a94-4497-ad37-285de7daa1ae","ios":"levelo://app?vid=44861a73-1a94-4497-ad37-285de7daa1ae"},"vehicle_type_id":"4","last_reported":1734379854,"current_range_meters":32400,"station_id":"ce4bha12rcd13ifvqef0","pricing_plan_id":"cebpf4jnsgd1na2vs0mg"},{"bike_id":"c5595fd0-fc8e-462b-8984-5c1c92ed35f5","system_id":"levelo_inurba_marseille","lat":43.29557,"lon":5.42294,"is_reserved":false,"is_disabled":true,"rental_uris":{"android":"levelo://app?vid=c5595fd0-fc8e-462b-8984-5c1c92ed35f5","ios":"levelo://app?vid=c5595fd0-fc8e-462b-8984-5c1c92ed35f5"},"vehicle_type_id":"4","last_reported":1734379854,"current_range_meters":0,"station_id":"ce4bhph2rcd13ifvqhdg","pricing_plan_id":"cebpf4jnsgd1na2vs0mg"},{"bike_id":"d17068e4-bff5-4619-b1b5-acf62ffb0fb1","system_id":"levelo_inurba_marseille","lat":43.28856,"lon":5.35858,"is_reserved":false,"is_disabled":false,"rental_uris":{"android":"levelo://app?vid=d17068e4-bff5-4619-b1b5-acf62ffb0fb1","ios":"levelo://app?vid=d17068e4-bff5-4619-b1b5-acf62ffb0fb1"},"vehicle_type_id":"4","last_reported":1734379854,"current_range_meters":30800,"station_id":"ce4bhb12rcd13ifvqem0","pricing_plan_id":"cebpf4jnsgd1na2vs0mg"},{"bike_id":"ebaa68e4-3d1b-47af-9a69-6f7f2246f6e7","system_id":"levelo_inurba_marseille","lat":43.24673,"lon":5.38167,"is_reserved":false,"is_disabled":true,"rental_uris":{"android":"levelo://app?vid=ebaa68e4-3d1b-47af-9a69-6f7f2246f6e7","ios":"levelo://app?vid=ebaa68e4-3d1b-47af-9a69-6f7f2246f6e7"},"vehicle_type_id":"4","last_reported":1734379854,"current_range_meters":38800,"station_id":"ce4bhih2rcd13ifvqfr0","pricing_plan_id":"cebpf4jnsgd1na2vs0mg"},{"bike_id":"16ff838f-1cdb-4ddb-b5eb-dde2105d633a","system_id":"levelo_inurba_marseille","lat":43.265642,"lon":5.372851,"is_reserved":false,"is_disabled":false,"rental_uris":{"android":"levelo://app?vid=16ff838f-1cdb-4ddb-b5eb-dde2105d633a","ios":"levelo://app?vid=16ff838f-1cdb-4ddb-b5eb-dde2105d633a"},"vehicle_type_id":"4","last_reported":1734379854,"current_range_meters":28800,"station_id":"ce4bhg12rcd13ifvqf70","pricing_plan_id":"cebpf4jnsgd1na2vs0mg"},{"bike_id":"1273d0ea-868c-4b40-af39-d859d3abf9f5","system_id":"levelo_inurba_marseille","lat":43.24386,"lon":5.37062,"is_reserved":false,"is_disabled":false,"rental_uris":{"android":"levelo://app?vid=1273d0ea-868c-4b40-af39-d859d3abf9f5","ios":"levelo://app?vid=1273d0ea-868c-4b40-af39-d859d3abf9f5"},"vehicle_type_id":"4","last_reported":1734379854,"current_range_meters":36000,"station_id":"ce4bhhh2rcd13ifvqfk0","pricing_plan_id":"cebpf4jnsgd1na2vs0mg"},{"bike_id":"ed15a02e-1f11-4fab-be7c-ed27688f620c","system_id":"levelo_inurba_marseille","lat":43.31169,"lon":5.38714,"is_reserved":false,"is_disabled":false,"rental_uris":{"android":"levelo://app?vid=ed15a02e-1f11-4fab-be7c-ed27688f620c","ios":"levelo://app?vid=ed15a02e-1f11-4fab-be7c-ed27688f620c"},"vehicle_type_id":"4","last_reported":1734379854,"current_range_meters":24000,"station_id":"ce4bgv12rcd13ifvqcp0","pricing_plan_id":"cebpf4jnsgd1na2vs0mg"},{"bike_id":"8e7c3683-99a9-4188-89c4-858575c3d04c","system_id":"levelo_inurba_marseille","lat":43.27672,"lon":5.38915,"is_reserved":false,"is_disabled":true,"rental_uris":{"android":"levelo://app?vid=8e7c3683-99a9-4188-89c4-858575c3d04c","ios":"levelo://app?vid=8e7c3683-99a9-4188-89c4-858575c3d04c"},"vehicle_type_id":"4","last_reported":1734379854,"current_range_meters":33600,"station_id":"ce4bhi12rcd13ifvqfo0","pricing_plan_id":"cebpf4jnsgd1na2vs0mg"},{"bike_id":"02e4f290-68de-4d8f-a447-50e91094d911","system_id":"levelo_inurba_marseille","lat":43.29024,"lon":5.3864,"is_reserved":false,"is_disabled":false,"rental_uris":{"android":"levelo://app?vid=02e4f290-68de-4d8f-a447-50e91094d911","ios":"levelo://app?vid=02e4f290-68de-4d8f-a447-50e91094d911"},"vehicle_type_id":"4","last_reported":1734379854,"current_range_meters":30800,"station_id":"ce4bh4p2rcd13ifvqe0g","pricing_plan_id":"cebpf4jnsgd1na2vs0mg"},{"bike_id":"b2a6d57f-5052-4d3c-9a8b-5166108f0a2a","system_id":"levelo_inurba_marseille","lat":43.25867,"lon":5.39892,"is_reserved":false,"is_disabled":false,"rental_uris":{"android":"levelo://app?vid=b2a6d57f-5052-4d3c-9a8b-5166108f0a2a","ios":"levelo://app?vid=b2a6d57f-5052-4d3c-9a8b-5166108f0a2a"},"vehicle_type_id":"4","last_reported":1734379854,"current_range_meters":38000,"station_id":"ce4bhl92rcd13ifvqghg","pricing_plan_id":"cebpf4jnsgd1na2vs0mg"},{"bike_id":"4577e3e8-7ec6-4361-8738-81257af38076","system_id":"levelo_inurba_marseille","lat":43.28426,"lon":5.34977,"is_reserved":false,"is_disabled":false,"rental_uris":{"android":"levelo://app?vid=4577e3e8-7ec6-4361-8738-81257af38076","ios":"levelo://app?vid=4577e3e8-7ec6-4361-8738-81257af38076"},"vehicle_type_id":"4","last_reported":1734379854,"current_range_meters":38800,"station_id":"ce4bhbh2rcd13ifvqepg","pricing_plan_id":"cebpf4jnsgd1na2vs0mg"},{"bike_id":"add9ba96-7459-451c-8e6d-baaa8033dc3a","system_id":"levelo_inurba_marseille","lat":43.29787,"lon":5.39339,"is_reserved":false,"is_disabled":false,"rental_uris":{"android":"levelo://app?vid=add9ba96-7459-451c-8e6d-baaa8033dc3a","ios":"levelo://app?vid=add9ba96-7459-451c-8e6d-baaa8033dc3a"},"vehicle_type_id":"4","last_reported":1734379854,"current_range_meters":24800,"station_id":"chh1huq6cuj3fo74tm60","pricing_plan_id":"cebpf4jnsgd1na2vs0mg"},{"bike_id":"e042fe9e-0f8b-42c0-8c98-8bb83e15aefe","system_id":"levelo_inurba_marseille","lat":43.33024,"lon":5.39035,"is_reserved":false,"is_disabled":false,"rental_uris":{"android":"levelo://app?vid=e042fe9e-0f8b-42c0-8c98-8bb83e15aefe","ios":"levelo://app?vid=e042fe9e-0f8b-42c0-8c98-8bb83e15aefe"},"vehicle_type_id":"4","last_reported":1734379854,"current_range_meters":32400,"station_id":"ce4bhr92rcd13ifvqhrg","pricing_plan_id":"cebpf4jnsgd1na2vs0mg"},{"bike_id":"df3c5b33-0731-4d28-883c-1a4af4ad0ec4","system_id":"levelo_inurba_marseille","lat":43.26211,"lon":5.37444,"is_reserved":false,"is_disabled":false,"rental_uris":{"android":"levelo://app?vid=df3c5b33-0731-4d28-883c-1a4af4ad0ec4","ios":"levelo://app?vid=df3c5b33-0731-4d28-883c-1a4af4ad0ec4"},"vehicle_type_id":"4","last_reported":1734379854,"current_range_meters":24400,"station_id":"ce4bhgp2rcd13ifvqfc0","pricing_plan_id":"cebpf4jnsgd1na2vs0mg"},{"bike_id":"fce89ad1-8179-44ba-bc08-912eb64808ee","system_id":"levelo_inurba_marseille","lat":43.28081,"lon":5.39657,"is_reserved":false,"is_disabled":false,"rental_uris":{"android":"levelo://app?vid=fce89ad1-8179-44ba-bc08-912eb64808ee","ios":"levelo://app?vid=fce89ad1-8179-44ba-bc08-912eb64808ee"},"vehicle_type_id":"4","last_reported":1734379854,"current_range_meters":34000,"station_id":"ce4bho12rcd13ifvqh2g","pricing_plan_id":"cebpf4jnsgd1na2vs0mg"},{"bike_id":"d866e701-7bee-4d60-b865-75d9d70ca9ec","system_id":"levelo_inurba_marseille","lat":43.28939,"lon":5.36637,"is_reserved":false,"is_disabled":false,"rental_uris":{"android":"levelo://app?vid=d866e701-7bee-4d60-b865-75d9d70ca9ec","ios":"levelo://app?vid=d866e701-7bee-4d60-b865-75d9d70ca9ec"},"vehicle_type_id":"4","last_reported":1734379854,"current_range_meters":38800,"station_id":"ce4bhap2rcd13ifvqek0","pricing_plan_id":"cebpf4jnsgd1na2vs0mg"},{"bike_id":"634d2e71-146f-4227-9767-7f1beb597766","system_id":"levelo_inurba_marseille","lat":43.29314,"lon":5.41173,"is_reserved":false,"is_disabled":true,"rental_uris":{"android":"levelo://app?vid=634d2e71-146f-4227-9767-7f1beb597766","ios":"levelo://app?vid=634d2e71-146f-4227-9767-7f1beb597766"},"vehicle_type_id":"4","last_reported":1734379854,"current_range_meters":0,"station_id":"","pricing_plan_id":"cebpf4jnsgd1na2vs0mg"},{"bike_id":"22cdc9c4-7a19-4a8e-bb87-e0f99073fc60","system_id":"levelo_inurba_marseille","lat":43.27933,"lon":5.41043,"is_reserved":false,"is_disabled":false,"rental_uris":{"android":"levelo://app?vid=22cdc9c4-7a19-4a8e-bb87-e0f99073fc60","ios":"levelo://app?vid=22cdc9c4-7a19-4a8e-bb87-e0f99073fc60"},"vehicle_type_id":"4","last_reported":1734379854,"current_range_meters":22800,"station_id":"ce4bhnp2rcd13ifvqh0g","pricing_plan_id":"cebpf4jnsgd1na2vs0mg"},{"bike_id":"cbd46a1e-a30c-4edf-bd43-7bd67d2d18c8","system_id":"levelo_inurba_marseille","lat":43.28929,"lon":5.36399,"is_reserved":false,"is_disabled":false,"rental_uris":{"android":"levelo://app?vid=cbd46a1e-a30c-4edf-bd43-7bd67d2d18c8","ios":"levelo://app?vid=cbd46a1e-a30c-4edf-bd43-7bd67d2d18c8"},"vehicle_type_id":"4","last_reported":1734379854,"current_range_meters":39200,"station_id":"ce4bhc92rcd13ifvqetg","pricing_plan_id":"cebpf4jnsgd1na2vs0mg"},{"bike_id":"6afe920d-4000-429a-84e5-416689c1fee2","system_id":"levelo_inurba_marseille","lat":43.28863,"lon":5.35864,"is_reserved":false,"is_disabled":false,"rental_uris":{"android":"levelo://app?vid=6afe920d-4000-429a-84e5-416689c1fee2","ios":"levelo://app?vid=6afe920d-4000-429a-84e5-416689c1fee2"},"vehicle_type_id":"4","last_reported":1734379854,"current_range_meters":38800,"station_id":"ce4bhb12rcd13ifvqem0","pricing_plan_id":"cebpf4jnsgd1na2vs0mg"},{"bike_id":"e14b8748-e4dd-4eba-9e7f-1675e71e7a55","system_id":"levelo_inurba_marseille","lat":43.26806,"lon":5.4027,"is_reserved":false,"is_disabled":false,"rental_uris":{"android":"levelo://app?vid=e14b8748-e4dd-4eba-9e7f-1675e71e7a55","ios":"levelo://app?vid=e14b8748-e4dd-4eba-9e7f-1675e71e7a55"},"vehicle_type_id":"4","last_reported":1734379854,"current_range_meters":39200,"station_id":"ce501612rcd8frsf0b60","pricing_plan_id":"cebpf4jnsgd1na2vs0mg"},{"bike_id":"51d84435-6690-4d85-963e-bbaae1721698","system_id":"levelo_inurba_marseille","lat":43.289327,"lon":5.363927,"is_reserved":false,"is_disabled":false,"rental_uris":{"android":"levelo://app?vid=51d84435-6690-4d85-963e-bbaae1721698","ios":"levelo://app?vid=51d84435-6690-4d85-963e-bbaae1721698"},"vehicle_type_id":"4","last_reported":1734379854,"current_range_meters":38800,"station_id":"ce4bhc92rcd13ifvqetg","pricing_plan_id":"cebpf4jnsgd1na2vs0mg"},{"bike_id":"b37c926a-65da-420f-9048-577244840f97","system_id":"levelo_inurba_marseille","lat":43.29279,"lon":5.40145,"is_reserved":false,"is_disabled":false,"rental_uris":{"android":"levelo://app?vid=b37c926a-65da-420f-9048-577244840f97","ios":"levelo://app?vid=b37c926a-65da-420f-9048-577244840f97"},"vehicle_type_id":"4","last_reported":1734379854,"current_range_meters":38800,"station_id":"ce4bh312rcd13ifvqdk0","pricing_plan_id":"cebpf4jnsgd1na2vs0mg"},{"bike_id":"95cb1a12-3d24-4b7c-8cc9-a0c3e83a05b3","system_id":"levelo_inurba_marseille","lat":43.291953,"lon":5.357959,"is_reserved":false,"is_disabled":false,"rental_uris":{"android":"levelo://app?vid=95cb1a12-3d24-4b7c-8cc9-a0c3e83a05b3","ios":"levelo://app?vid=95cb1a12-3d24-4b7c-8cc9-a0c3e83a05b3"},"vehicle_type_id":"4","last_reported":1734379854,"current_range_meters":38800,"station_id":"ce4bhb12rcd13ifvqel0","pricing_plan_id":"cebpf4jnsgd1na2vs0mg"},{"bike_id":"17fd1c3b-23af-4fb5-9435-033e2a988571","system_id":"levelo_inurba_marseille","lat":43.30988,"lon":5.40124,"is_reserved":false,"is_disabled":true,"rental_uris":{"android":"levelo://app?vid=17fd1c3b-23af-4fb5-9435-033e2a988571","ios":"levelo://app?vid=17fd1c3b-23af-4fb5-9435-033e2a988571"},"vehicle_type_id":"4","last_reported":1734379854,"current_range_meters":36400,"station_id":"","pricing_plan_id":"cebpf4jnsgd1na2vs0mg"},{"bike_id":"f6d66852-84b9-4297-b01c-1e15e526bdcb","system_id":"levelo_inurba_marseille","lat":43.30216,"lon":5.39459,"is_reserved":false,"is_disabled":false,"rental_uris":{"android":"levelo://app?vid=f6d66852-84b9-4297-b01c-1e15e526bdcb","ios":"levelo://app?vid=f6d66852-84b9-4297-b01c-1e15e526bdcb"},"vehicle_type_id":"4","last_reported":1734379854,"current_range_meters":38800,"station_id":"ce4bh0p2rcd13ifvqd70","pricing_plan_id":"cebpf4jnsgd1na2vs0mg"},{"bike_id":"56f645d0-d459-4a27-ba9a-c72d2ef792b2","system_id":"levelo_inurba_marseille","lat":43.2845,"lon":5.35872,"is_reserved":false,"is_disabled":false,"rental_uris":{"android":"levelo://app?vid=56f645d0-d459-4a27-ba9a-c72d2ef792b2","ios":"levelo://app?vid=56f645d0-d459-4a27-ba9a-c72d2ef792b2"},"vehicle_type_id":"4","last_reported":1734379854,"current_range_meters":36800,"station_id":"ce4bhah2rcd13ifvqei0","pricing_plan_id":"cebpf4jnsgd1na2vs0mg"},{"bike_id":"d7c1cf73-5ea5-4c2f-a402-88978e03c60a","system_id":"levelo_inurba_marseille","lat":43.29481,"lon":5.36227,"is_reserved":false,"is_disabled":false,"rental_uris":{"android":"levelo://app?vid=d7c1cf73-5ea5-4c2f-a402-88978e03c60a","ios":"levelo://app?vid=d7c1cf73-5ea5-4c2f-a402-88978e03c60a"},"vehicle_type_id":"4","last_reported":1734379854,"current_range_meters":6400,"station_id":"","pricing_plan_id":"cebpf4jnsgd1na2vs0mg"},{"bike_id":"7efa8c18-7158-409b-893d-016bb6959931","system_id":"levelo_inurba_marseille","lat":43.30588,"lon":5.39363,"is_reserved":false,"is_disabled":false,"rental_uris":{"android":"levelo://app?vid=7efa8c18-7158-409b-893d-016bb6959931","ios":"levelo://app?vid=7efa8c18-7158-409b-893d-016bb6959931"},"vehicle_type_id":"4","last_reported":1734379854,"current_range_meters":6800,"station_id":"ce4bh0p2rcd13ifvqd80","pricing_plan_id":"cebpf4jnsgd1na2vs0mg"},{"bike_id":"82711b20-7bed-4fec-a4b5-4945e51505d9","system_id":"levelo_inurba_marseille","lat":43.308035,"lon":5.435217,"is_reserved":false,"is_disabled":false,"rental_uris":{"android":"levelo://app?vid=82711b20-7bed-4fec-a4b5-4945e51505d9","ios":"levelo://app?vid=82711b20-7bed-4fec-a4b5-4945e51505d9"},"vehicle_type_id":"4","last_reported":1734379854,"current_range_meters":39200,"station_id":"ce4bhph2rcd13ifvqheg","pricing_plan_id":"cebpf4jnsgd1na2vs0mg"},{"bike_id":"d68a8bfe-a1fe-43aa-94f3-8bfaa3478d06","system_id":"levelo_inurba_marseille","lat":43.26552,"lon":5.37284,"is_reserved":false,"is_disabled":false,"rental_uris":{"android":"levelo://app?vid=d68a8bfe-a1fe-43aa-94f3-8bfaa3478d06","ios":"levelo://app?vid=d68a8bfe-a1fe-43aa-94f3-8bfaa3478d06"},"vehicle_type_id":"4","last_reported":1734379854,"current_range_meters":38800,"station_id":"ce4bhg12rcd13ifvqf70","pricing_plan_id":"cebpf4jnsgd1na2vs0mg"},{"bike_id":"fa99573e-4e40-45d2-9313-07d35b85d7fc","system_id":"levelo_inurba_marseille","lat":43.2657,"lon":5.39004,"is_reserved":false,"is_disabled":false,"rental_uris":{"android":"levelo://app?vid=fa99573e-4e40-45d2-9313-07d35b85d7fc","ios":"levelo://app?vid=fa99573e-4e40-45d2-9313-07d35b85d7fc"},"vehicle_type_id":"4","last_reported":1734379854,"current_range_meters":12800,"station_id":"ce4bhe12rcd13ifvqf30","pricing_plan_id":"cebpf4jnsgd1na2vs0mg"},{"bike_id":"af753a09-83f1-43a5-88f0-0bddd02a5219","system_id":"levelo_inurba_marseille","lat":43.28151,"lon":5.42647,"is_reserved":false,"is_disabled":false,"rental_uris":{"android":"levelo://app?vid=af753a09-83f1-43a5-88f0-0bddd02a5219","ios":"levelo://app?vid=af753a09-83f1-43a5-88f0-0bddd02a5219"},"vehicle_type_id":"4","last_reported":1734379854,"current_range_meters":36400,"station_id":"ce4bhnh2rcd13ifvqgug","pricing_plan_id":"cebpf4jnsgd1na2vs0mg"},{"bike_id":"8f358adf-827c-414f-a95d-faa472c8da3a","system_id":"levelo_inurba_marseille","lat":43.31359,"lon":5.38498,"is_reserved":false,"is_disabled":false,"rental_uris":{"android":"levelo://app?vid=8f358adf-827c-414f-a95d-faa472c8da3a","ios":"levelo://app?vid=8f358adf-827c-414f-a95d-faa472c8da3a"},"vehicle_type_id":"4","last_reported":1734379854,"current_range_meters":36800,"station_id":"ce4bgt92rcd13ifvqcf0","pricing_plan_id":"cebpf4jnsgd1na2vs0mg"},{"bike_id":"d56bb6a1-3d22-496d-a298-64c97ba5690a","system_id":"levelo_inurba_marseille","lat":43.2706,"lon":5.40265,"is_reserved":false,"is_disabled":false,"rental_uris":{"android":"levelo://app?vid=d56bb6a1-3d22-496d-a298-64c97ba5690a","ios":"levelo://app?vid=d56bb6a1-3d22-496d-a298-64c97ba5690a"},"vehicle_type_id":"4","last_reported":1734379854,"current_range_meters":17200,"station_id":"ce4bhk92rcd13ifvqgc0","pricing_plan_id":"cebpf4jnsgd1na2vs0mg"},{"bike_id":"ddefe9f2-23b4-4062-a0ac-7c8a96367f14","system_id":"levelo_inurba_marseille","lat":43.29191,"lon":5.35803,"is_reserved":false,"is_disabled":false,"rental_uris":{"android":"levelo://app?vid=ddefe9f2-23b4-4062-a0ac-7c8a96367f14","ios":"levelo://app?vid=ddefe9f2-23b4-4062-a0ac-7c8a96367f14"},"vehicle_type_id":"4","last_reported":1734379854,"current_range_meters":38800,"station_id":"ce4bhb12rcd13ifvqel0","pricing_plan_id":"cebpf4jnsgd1na2vs0mg"},{"bike_id":"6af28c0d-a26b-453a-a99b-6902776be096","system_id":"levelo_inurba_marseille","lat":43.29306,"lon":5.37147,"is_reserved":false,"is_disabled":false,"rental_uris":{"android":"levelo://app?vid=6af28c0d-a26b-453a-a99b-6902776be096","ios":"levelo://app?vid=6af28c0d-a26b-453a-a99b-6902776be096"},"vehicle_type_id":"4","last_reported":1734379854,"current_range_meters":37600,"station_id":"ce4bgh92rcd13ifvqb40","pricing_plan_id":"cebpf4jnsgd1na2vs0mg"},{"bike_id":"20f597ae-f29e-4274-a2ea-f40dd8b1c637","system_id":"levelo_inurba_marseille","lat":43.29712,"lon":5.3663,"is_reserved":false,"is_disabled":false,"rental_uris":{"android":"levelo://app?vid=20f597ae-f29e-4274-a2ea-f40dd8b1c637","ios":"levelo://app?vid=20f597ae-f29e-4274-a2ea-f40dd8b1c637"},"vehicle_type_id":"4","last_reported":1734379854,"current_range_meters":38800,"station_id":"ce4bgn12rcd13ifvqbt0","pricing_plan_id":"cebpf4jnsgd1na2vs0mg"},{"bike_id":"f4d9acb8-41a6-4359-b711-935b5a42230c","system_id":"levelo_inurba_marseille","lat":43.30534,"lon":5.3672,"is_reserved":false,"is_disabled":false,"rental_uris":{"android":"levelo://app?vid=f4d9acb8-41a6-4359-b711-935b5a42230c","ios":"levelo://app?vid=f4d9acb8-41a6-4359-b711-935b5a42230c"},"vehicle_type_id":"4","last_reported":1734379854,"current_range_meters":38800,"station_id":"ce4bgrp2rcd13ifvqc9g","pricing_plan_id":"cebpf4jnsgd1na2vs0mg"},{"bike_id":"cc76d2be-1549-47c3-b05d-224addcc6172","system_id":"levelo_inurba_marseille","lat":43.33023,"lon":5.39037,"is_reserved":false,"is_disabled":false,"rental_uris":{"android":"levelo://app?vid=cc76d2be-1549-47c3-b05d-224addcc6172","ios":"levelo://app?vid=cc76d2be-1549-47c3-b05d-224addcc6172"},"vehicle_type_id":"4","last_reported":1734379854,"current_range_meters":38800,"station_id":"ce4bhr92rcd13ifvqhrg","pricing_plan_id":"cebpf4jnsgd1na2vs0mg"},{"bike_id":"5f2be17f-083e-494f-a7a1-4802346cfcb9","system_id":"levelo_inurba_marseille","lat":43.28565,"lon":5.39497,"is_reserved":false,"is_disabled":true,"rental_uris":{"android":"levelo://app?vid=5f2be17f-083e-494f-a7a1-4802346cfcb9","ios":"levelo://app?vid=5f2be17f-083e-494f-a7a1-4802346cfcb9"},"vehicle_type_id":"4","last_reported":1734379854,"current_range_meters":26800,"station_id":"ce4bh292rcd13ifvqdg0","pricing_plan_id":"cebpf4jnsgd1na2vs0mg"},{"bike_id":"d705ef2b-d72b-417f-b321-d9710b5a9281","system_id":"levelo_inurba_marseille","lat":43.24656,"lon":5.38892,"is_reserved":false,"is_disabled":false,"rental_uris":{"android":"levelo://app?vid=d705ef2b-d72b-417f-b321-d9710b5a9281","ios":"levelo://app?vid=d705ef2b-d72b-417f-b321-d9710b5a9281"},"vehicle_type_id":"4","last_reported":1734379854,"current_range_meters":14800,"station_id":"ce4bhg12rcd13ifvqf60","pricing_plan_id":"cebpf4jnsgd1na2vs0mg"},{"bike_id":"d3e29b4b-4386-4f03-a1dd-c7c9a11c63cb","system_id":"levelo_inurba_marseille","lat":43.26057,"lon":5.39396,"is_reserved":false,"is_disabled":false,"rental_uris":{"android":"levelo://app?vid=d3e29b4b-4386-4f03-a1dd-c7c9a11c63cb","ios":"levelo://app?vid=d3e29b4b-4386-4f03-a1dd-c7c9a11c63cb"},"vehicle_type_id":"4","last_reported":1734379854,"current_range_meters":12000,"station_id":"ce4bhh92rcd13ifvqfj0","pricing_plan_id":"cebpf4jnsgd1na2vs0mg"},{"bike_id":"b080cd93-ae1d-416c-aff0-33280d88921a","system_id":"levelo_inurba_marseille","lat":43.2651,"lon":5.39535,"is_reserved":false,"is_disabled":false,"rental_uris":{"android":"levelo://app?vid=b080cd93-ae1d-416c-aff0-33280d88921a","ios":"levelo://app?vid=b080cd93-ae1d-416c-aff0-33280d88921a"},"vehicle_type_id":"4","last_reported":1734379854,"current_range_meters":34800,"station_id":"ce4bhi12rcd13ifvqfq0","pricing_plan_id":"cebpf4jnsgd1na2vs0mg"},{"bike_id":"318aa57b-1568-4ffc-a05f-60313d3eca7d","system_id":"levelo_inurba_marseille","lat":43.30805,"lon":5.43511,"is_reserved":false,"is_disabled":false,"rental_uris":{"android":"levelo://app?vid=318aa57b-1568-4ffc-a05f-60313d3eca7d","ios":"levelo://app?vid=318aa57b-1568-4ffc-a05f-60313d3eca7d"},"vehicle_type_id":"4","last_reported":1734379854,"current_range_meters":38000,"station_id":"ce4bhph2rcd13ifvqheg","pricing_plan_id":"cebpf4jnsgd1na2vs0mg"},{"bike_id":"12a12330-20ea-42cb-85c0-6792b9c51ff2","system_id":"levelo_inurba_marseille","lat":43.25503,"lon":5.376507,"is_reserved":false,"is_disabled":false,"rental_uris":{"android":"levelo://app?vid=12a12330-20ea-42cb-85c0-6792b9c51ff2","ios":"levelo://app?vid=12a12330-20ea-42cb-85c0-6792b9c51ff2"},"vehicle_type_id":"4","last_reported":1734379854,"current_range_meters":37600,"station_id":"ce4bhh12rcd13ifvqff0","pricing_plan_id":"cebpf4jnsgd1na2vs0mg"},{"bike_id":"586ce07a-15e4-4f19-a803-224f9d280bb7","system_id":"levelo_inurba_marseille","lat":43.24385,"lon":5.37079,"is_reserved":false,"is_disabled":false,"rental_uris":{"android":"levelo://app?vid=586ce07a-15e4-4f19-a803-224f9d280bb7","ios":"levelo://app?vid=586ce07a-15e4-4f19-a803-224f9d280bb7"},"vehicle_type_id":"4","last_reported":1734379854,"current_range_meters":38800,"station_id":"ce4bhhh2rcd13ifvqfk0","pricing_plan_id":"cebpf4jnsgd1na2vs0mg"},{"bike_id":"048ede08-1dd8-40d1-8404-3b85f61fc0d5","system_id":"levelo_inurba_marseille","lat":43.29553,"lon":5.42258,"is_reserved":false,"is_disabled":false,"rental_uris":{"android":"levelo://app?vid=048ede08-1dd8-40d1-8404-3b85f61fc0d5","ios":"levelo://app?vid=048ede08-1dd8-40d1-8404-3b85f61fc0d5"},"vehicle_type_id":"4","last_reported":1734379854,"current_range_meters":4400,"station_id":"ce4bhph2rcd13ifvqhdg","pricing_plan_id":"cebpf4jnsgd1na2vs0mg"},{"bike_id":"84876f57-9228-4c29-8dc5-7725e669d6fb","system_id":"levelo_inurba_marseille","lat":43.31309,"lon":5.39696,"is_reserved":false,"is_disabled":false,"rental_uris":{"android":"levelo://app?vid=84876f57-9228-4c29-8dc5-7725e669d6fb","ios":"levelo://app?vid=84876f57-9228-4c29-8dc5-7725e669d6fb"},"vehicle_type_id":"4","last_reported":1734379854,"current_range_meters":25600,"station_id":"ce4bgvp2rcd13ifvqcu0","pricing_plan_id":"cebpf4jnsgd1na2vs0mg"},{"bike_id":"d7257b3d-6c77-4745-adea-8fca05e2e639","system_id":"levelo_inurba_marseille","lat":43.31113,"lon":5.37763,"is_reserved":false,"is_disabled":false,"rental_uris":{"android":"levelo://app?vid=d7257b3d-6c77-4745-adea-8fca05e2e639","ios":"levelo://app?vid=d7257b3d-6c77-4745-adea-8fca05e2e639"},"vehicle_type_id":"4","last_reported":1734379854,"current_range_meters":8400,"station_id":"ce4bgt92rcd13ifvqcg0","pricing_plan_id":"cebpf4jnsgd1na2vs0mg"},{"bike_id":"26e4e797-93f6-434c-9aa3-e5da0aef2594","system_id":"levelo_inurba_marseille","lat":43.30091,"lon":5.39084,"is_reserved":false,"is_disabled":false,"rental_uris":{"android":"levelo://app?vid=26e4e797-93f6-434c-9aa3-e5da0aef2594","ios":"levelo://app?vid=26e4e797-93f6-434c-9aa3-e5da0aef2594"},"vehicle_type_id":"4","last_reported":1734379854,"current_range_meters":38800,"station_id":"ce4bh192rcd13ifvqdb0","pricing_plan_id":"cebpf4jnsgd1na2vs0mg"},{"bike_id":"a3ae6ee4-d060-4597-a716-f8c3846f7f84","system_id":"levelo_inurba_marseille","lat":43.28268,"lon":5.3507,"is_reserved":false,"is_disabled":false,"rental_uris":{"android":"levelo://app?vid=a3ae6ee4-d060-4597-a716-f8c3846f7f84","ios":"levelo://app?vid=a3ae6ee4-d060-4597-a716-f8c3846f7f84"},"vehicle_type_id":"4","last_reported":1734379854,"current_range_meters":38400,"station_id":"ce4bhbp2rcd13ifvqerg","pricing_plan_id":"cebpf4jnsgd1na2vs0mg"},{"bike_id":"f4b4afed-b987-46bf-bb53-ffabdacca5d8","system_id":"levelo_inurba_marseille","lat":43.33023,"lon":5.39041,"is_reserved":false,"is_disabled":false,"rental_uris":{"android":"levelo://app?vid=f4b4afed-b987-46bf-bb53-ffabdacca5d8","ios":"levelo://app?vid=f4b4afed-b987-46bf-bb53-ffabdacca5d8"},"vehicle_type_id":"4","last_reported":1734379854,"current_range_meters":32800,"station_id":"ce4bhr92rcd13ifvqhrg","pricing_plan_id":"cebpf4jnsgd1na2vs0mg"},{"bike_id":"a939b72a-eb93-48d5-93d2-5b5defdd7d63","system_id":"levelo_inurba_marseille","lat":43.24538,"lon":5.39525,"is_reserved":false,"is_disabled":false,"rental_uris":{"android":"levelo://app?vid=a939b72a-eb93-48d5-93d2-5b5defdd7d63","ios":"levelo://app?vid=a939b72a-eb93-48d5-93d2-5b5defdd7d63"},"vehicle_type_id":"4","last_reported":1734379854,"current_range_meters":11600,"station_id":"ce4bhlp2rcd13ifvqgjg","pricing_plan_id":"cebpf4jnsgd1na2vs0mg"},{"bike_id":"778aabaf-64ec-42e6-952c-da0f771d7dc9","system_id":"levelo_inurba_marseille","lat":43.26557,"lon":5.37282,"is_reserved":false,"is_disabled":false,"rental_uris":{"android":"levelo://app?vid=778aabaf-64ec-42e6-952c-da0f771d7dc9","ios":"levelo://app?vid=778aabaf-64ec-42e6-952c-da0f771d7dc9"},"vehicle_type_id":"4","last_reported":1734379854,"current_range_meters":27200,"station_id":"ce4bhg12rcd13ifvqf70","pricing_plan_id":"cebpf4jnsgd1na2vs0mg"},{"bike_id":"f3379db6-4ea4-44b7-bec9-c44fb1a483c8","system_id":"levelo_inurba_marseille","lat":43.24176,"lon":5.39701,"is_reserved":false,"is_disabled":false,"rental_uris":{"android":"levelo://app?vid=f3379db6-4ea4-44b7-bec9-c44fb1a483c8","ios":"levelo://app?vid=f3379db6-4ea4-44b7-bec9-c44fb1a483c8"},"vehicle_type_id":"4","last_reported":1734379854,"current_range_meters":28000,"station_id":"ce4bhn12rcd13ifvqgpg","pricing_plan_id":"cebpf4jnsgd1na2vs0mg"},{"bike_id":"53e42023-e252-4b7f-a9eb-a99e355c181f","system_id":"levelo_inurba_marseille","lat":43.28725,"lon":5.36092,"is_reserved":false,"is_disabled":false,"rental_uris":{"android":"levelo://app?vid=53e42023-e252-4b7f-a9eb-a99e355c181f","ios":"levelo://app?vid=53e42023-e252-4b7f-a9eb-a99e355c181f"},"vehicle_type_id":"4","last_reported":1734379854,"current_range_meters":35200,"station_id":"cki0cbj6b192h4jlfktg","pricing_plan_id":"cebpf4jnsgd1na2vs0mg"},{"bike_id":"93c5eb91-3fba-4bf2-b5c1-03c9a75bad92","system_id":"levelo_inurba_marseille","lat":43.25089,"lon":5.39499,"is_reserved":false,"is_disabled":false,"rental_uris":{"android":"levelo://app?vid=93c5eb91-3fba-4bf2-b5c1-03c9a75bad92","ios":"levelo://app?vid=93c5eb91-3fba-4bf2-b5c1-03c9a75bad92"},"vehicle_type_id":"4","last_reported":1734379854,"current_range_meters":8800,"station_id":"ce4bhm12rcd13ifvqgkg","pricing_plan_id":"cebpf4jnsgd1na2vs0mg"},{"bike_id":"10092c8b-924f-425c-952b-6ff63a37b0c5","system_id":"levelo_inurba_marseille","lat":43.2952,"lon":5.39405,"is_reserved":false,"is_disabled":false,"rental_uris":{"android":"levelo://app?vid=10092c8b-924f-425c-952b-6ff63a37b0c5","ios":"levelo://app?vid=10092c8b-924f-425c-952b-6ff63a37b0c5"},"vehicle_type_id":"4","last_reported":1734379854,"current_range_meters":38800,"station_id":"ce4bh292rcd13ifvqdf0","pricing_plan_id":"cebpf4jnsgd1na2vs0mg"},{"bike_id":"764dd124-8b6c-4e2e-8283-a78f598ae4cd","system_id":"levelo_inurba_marseille","lat":43.3132,"lon":5.39689,"is_reserved":false,"is_disabled":false,"rental_uris":{"android":"levelo://app?vid=764dd124-8b6c-4e2e-8283-a78f598ae4cd","ios":"levelo://app?vid=764dd124-8b6c-4e2e-8283-a78f598ae4cd"},"vehicle_type_id":"4","last_reported":1734379854,"current_range_meters":38800,"station_id":"ce4bgvp2rcd13ifvqcu0","pricing_plan_id":"cebpf4jnsgd1na2vs0mg"},{"bike_id":"7c40477e-8318-4db5-b5dd-8b5e77068398","system_id":"levelo_inurba_marseille","lat":43.24645,"lon":5.38883,"is_reserved":false,"is_disabled":false,"rental_uris":{"android":"levelo://app?vid=7c40477e-8318-4db5-b5dd-8b5e77068398","ios":"levelo://app?vid=7c40477e-8318-4db5-b5dd-8b5e77068398"},"vehicle_type_id":"4","last_reported":1734379854,"current_range_meters":38800,"station_id":"ce4bhg12rcd13ifvqf60","pricing_plan_id":"cebpf4jnsgd1na2vs0mg"},{"bike_id":"bbf237f7-a315-4bbd-8fad-f1c7aef16575","system_id":"levelo_inurba_marseille","lat":43.29194,"lon":5.35805,"is_reserved":false,"is_disabled":false,"rental_uris":{"android":"levelo://app?vid=bbf237f7-a315-4bbd-8fad-f1c7aef16575","ios":"levelo://app?vid=bbf237f7-a315-4bbd-8fad-f1c7aef16575"},"vehicle_type_id":"4","last_reported":1734379854,"current_range_meters":39200,"station_id":"ce4bhb12rcd13ifvqel0","pricing_plan_id":"cebpf4jnsgd1na2vs0mg"},{"bike_id":"32bcd328-f7f5-4900-8d76-f3d18c79595c","system_id":"levelo_inurba_marseille","lat":43.24815,"lon":5.37455,"is_reserved":false,"is_disabled":false,"rental_uris":{"android":"levelo://app?vid=32bcd328-f7f5-4900-8d76-f3d18c79595c","ios":"levelo://app?vid=32bcd328-f7f5-4900-8d76-f3d18c79595c"},"vehicle_type_id":"4","last_reported":1734379854,"current_range_meters":38400,"station_id":"ce4bhgh2rcd13ifvqfb0","pricing_plan_id":"cebpf4jnsgd1na2vs0mg"},{"bike_id":"ad3e51cb-df7c-4ce4-b243-f609a121c657","system_id":"levelo_inurba_marseille","lat":43.24169,"lon":5.36389,"is_reserved":false,"is_disabled":false,"rental_uris":{"android":"levelo://app?vid=ad3e51cb-df7c-4ce4-b243-f609a121c657","ios":"levelo://app?vid=ad3e51cb-df7c-4ce4-b243-f609a121c657"},"vehicle_type_id":"4","last_reported":1734379854,"current_range_meters":20000,"station_id":"cpo36qri1sfpv3e86is0","pricing_plan_id":"cebpf4jnsgd1na2vs0mg"},{"bike_id":"1ffd53f7-911f-4c3a-90d1-58c0edae351f","system_id":"levelo_inurba_marseille","lat":43.29501,"lon":5.3903,"is_reserved":false,"is_disabled":false,"rental_uris":{"android":"levelo://app?vid=1ffd53f7-911f-4c3a-90d1-58c0edae351f","ios":"levelo://app?vid=1ffd53f7-911f-4c3a-90d1-58c0edae351f"},"vehicle_type_id":"4","last_reported":1734379854,"current_range_meters":8800,"station_id":"ce4bh3p2rcd13ifvqdp0","pricing_plan_id":"cebpf4jnsgd1na2vs0mg"},{"bike_id":"6c2f8196-548c-49d5-bcb1-35ab07679de5","system_id":"levelo_inurba_marseille","lat":43.31757,"lon":5.39,"is_reserved":false,"is_disabled":false,"rental_uris":{"android":"levelo://app?vid=6c2f8196-548c-49d5-bcb1-35ab07679de5","ios":"levelo://app?vid=6c2f8196-548c-49d5-bcb1-35ab07679de5"},"vehicle_type_id":"4","last_reported":1734379854,"current_range_meters":34800,"station_id":"ce4bhqp2rcd13ifvqhng","pricing_plan_id":"cebpf4jnsgd1na2vs0mg"},{"bike_id":"c59837dc-8d74-4db1-b183-a5034d718c43","system_id":"levelo_inurba_marseille","lat":43.25871,"lon":5.39915,"is_reserved":false,"is_disabled":false,"rental_uris":{"android":"levelo://app?vid=c59837dc-8d74-4db1-b183-a5034d718c43","ios":"levelo://app?vid=c59837dc-8d74-4db1-b183-a5034d718c43"},"vehicle_type_id":"4","last_reported":1734379854,"current_range_meters":38800,"station_id":"ce4bhl92rcd13ifvqghg","pricing_plan_id":"cebpf4jnsgd1na2vs0mg"},{"bike_id":"6fb001bd-cbfc-4b33-8fbb-908a2824bf04","system_id":"levelo_inurba_marseille","lat":43.25869,"lon":5.39906,"is_reserved":false,"is_disabled":false,"rental_uris":{"android":"levelo://app?vid=6fb001bd-cbfc-4b33-8fbb-908a2824bf04","ios":"levelo://app?vid=6fb001bd-cbfc-4b33-8fbb-908a2824bf04"},"vehicle_type_id":"4","last_reported":1734379854,"current_range_meters":38800,"station_id":"ce4bhl92rcd13ifvqghg","pricing_plan_id":"cebpf4jnsgd1na2vs0mg"},{"bike_id":"c6b0656c-31fe-4a90-9789-c87a1b0ab57b","system_id":"levelo_inurba_marseille","lat":43.24548,"lon":5.39529,"is_reserved":false,"is_disabled":false,"rental_uris":{"android":"levelo://app?vid=c6b0656c-31fe-4a90-9789-c87a1b0ab57b","ios":"levelo://app?vid=c6b0656c-31fe-4a90-9789-c87a1b0ab57b"},"vehicle_type_id":"4","last_reported":1734379854,"current_range_meters":18000,"station_id":"ce4bhlp2rcd13ifvqgjg","pricing_plan_id":"cebpf4jnsgd1na2vs0mg"},{"bike_id":"4ca825f9-5177-480f-844e-bd29e2c0f229","system_id":"levelo_inurba_marseille","lat":43.28685,"lon":5.3867,"is_reserved":false,"is_disabled":false,"rental_uris":{"android":"levelo://app?vid=4ca825f9-5177-480f-844e-bd29e2c0f229","ios":"levelo://app?vid=4ca825f9-5177-480f-844e-bd29e2c0f229"},"vehicle_type_id":"4","last_reported":1734379854,"current_range_meters":36800,"station_id":"ce4bh492rcd13ifvqdug","pricing_plan_id":"cebpf4jnsgd1na2vs0mg"},{"bike_id":"81391304-b451-4119-80ac-f61ef4862eb2","system_id":"levelo_inurba_marseille","lat":43.337444,"lon":5.374475,"is_reserved":false,"is_disabled":true,"rental_uris":{"android":"levelo://app?vid=81391304-b451-4119-80ac-f61ef4862eb2","ios":"levelo://app?vid=81391304-b451-4119-80ac-f61ef4862eb2"},"vehicle_type_id":"4","last_reported":1734379854,"current_range_meters":0,"station_id":"","pricing_plan_id":"cebpf4jnsgd1na2vs0mg"},{"bike_id":"c790257e-346f-4745-b5e0-3927729d154a","system_id":"levelo_inurba_marseille","lat":43.32658,"lon":5.4099,"is_reserved":false,"is_disabled":false,"rental_uris":{"android":"levelo://app?vid=c790257e-346f-4745-b5e0-3927729d154a","ios":"levelo://app?vid=c790257e-346f-4745-b5e0-3927729d154a"},"vehicle_type_id":"4","last_reported":1734379854,"current_range_meters":9600,"station_id":"ce4bhpp2rcd13ifvqhgg","pricing_plan_id":"cebpf4jnsgd1na2vs0mg"},{"bike_id":"d8ae6b7c-c981-4c70-a21c-bb13552f8641","system_id":"levelo_inurba_marseille","lat":43.31207,"lon":5.37177,"is_reserved":false,"is_disabled":false,"rental_uris":{"android":"levelo://app?vid=d8ae6b7c-c981-4c70-a21c-bb13552f8641","ios":"levelo://app?vid=d8ae6b7c-c981-4c70-a21c-bb13552f8641"},"vehicle_type_id":"4","last_reported":1734379854,"current_range_meters":27600,"station_id":"","pricing_plan_id":"cebpf4jnsgd1na2vs0mg"},{"bike_id":"15f71a9f-864d-48de-9d20-f621cbff105e","system_id":"levelo_inurba_marseille","lat":43.26849,"lon":5.40242,"is_reserved":false,"is_disabled":false,"rental_uris":{"android":"levelo://app?vid=15f71a9f-864d-48de-9d20-f621cbff105e","ios":"levelo://app?vid=15f71a9f-864d-48de-9d20-f621cbff105e"},"vehicle_type_id":"4","last_reported":1734379854,"current_range_meters":36800,"station_id":"","pricing_plan_id":"cebpf4jnsgd1na2vs0mg"},{"bike_id":"3cddc501-6cbc-42a1-8fa8-0fb70d8f99d5","system_id":"levelo_inurba_marseille","lat":43.29275,"lon":5.38453,"is_reserved":false,"is_disabled":false,"rental_uris":{"android":"levelo://app?vid=3cddc501-6cbc-42a1-8fa8-0fb70d8f99d5","ios":"levelo://app?vid=3cddc501-6cbc-42a1-8fa8-0fb70d8f99d5"},"vehicle_type_id":"4","last_reported":1734379854,"current_range_meters":18800,"station_id":"ce4bh692rcd13ifvqea0","pricing_plan_id":"cebpf4jnsgd1na2vs0mg"},{"bike_id":"d5accae4-0b7f-4603-8070-ad403bf2e0fe","system_id":"levelo_inurba_marseille","lat":43.28864,"lon":5.35865,"is_reserved":false,"is_disabled":false,"rental_uris":{"android":"levelo://app?vid=d5accae4-0b7f-4603-8070-ad403bf2e0fe","ios":"levelo://app?vid=d5accae4-0b7f-4603-8070-ad403bf2e0fe"},"vehicle_type_id":"4","last_reported":1734379854,"current_range_meters":35600,"station_id":"ce4bhb12rcd13ifvqem0","pricing_plan_id":"cebpf4jnsgd1na2vs0mg"},{"bike_id":"a390918c-ff30-4793-9080-2228d1f7b366","system_id":"levelo_inurba_marseille","lat":43.31884,"lon":5.40736,"is_reserved":false,"is_disabled":false,"rental_uris":{"android":"levelo://app?vid=a390918c-ff30-4793-9080-2228d1f7b366","ios":"levelo://app?vid=a390918c-ff30-4793-9080-2228d1f7b366"},"vehicle_type_id":"4","last_reported":1734379854,"current_range_meters":20800,"station_id":"ce4bhq12rcd13ifvqhig","pricing_plan_id":"cebpf4jnsgd1na2vs0mg"},{"bike_id":"8c92f62c-a171-43fa-a0c9-1ec039481665","system_id":"levelo_inurba_marseille","lat":43.29007,"lon":5.35609,"is_reserved":false,"is_disabled":false,"rental_uris":{"android":"levelo://app?vid=8c92f62c-a171-43fa-a0c9-1ec039481665","ios":"levelo://app?vid=8c92f62c-a171-43fa-a0c9-1ec039481665"},"vehicle_type_id":"4","last_reported":1734379854,"current_range_meters":37600,"station_id":"ce4bhb92rcd13ifvqen0","pricing_plan_id":"cebpf4jnsgd1na2vs0mg"},{"bike_id":"29f246a6-bf44-455d-b9d7-de191a6777e4","system_id":"levelo_inurba_marseille","lat":43.29226,"lon":5.36064,"is_reserved":false,"is_disabled":true,"rental_uris":{"android":"levelo://app?vid=29f246a6-bf44-455d-b9d7-de191a6777e4","ios":"levelo://app?vid=29f246a6-bf44-455d-b9d7-de191a6777e4"},"vehicle_type_id":"4","last_reported":1734379854,"current_range_meters":800,"station_id":"ce4bhbh2rcd13ifvqeqg","pricing_plan_id":"cebpf4jnsgd1na2vs0mg"},{"bike_id":"0505a851-1b11-4b54-a62b-d72d3893911f","system_id":"levelo_inurba_marseille","lat":43.29928,"lon":5.39692,"is_reserved":false,"is_disabled":false,"rental_uris":{"android":"levelo://app?vid=0505a851-1b11-4b54-a62b-d72d3893911f","ios":"levelo://app?vid=0505a851-1b11-4b54-a62b-d72d3893911f"},"vehicle_type_id":"4","last_reported":1734379854,"current_range_meters":38800,"station_id":"","pricing_plan_id":"cebpf4jnsgd1na2vs0mg"},{"bike_id":"1591dede-887b-41d4-b3a1-452ef5328a4f","system_id":"levelo_inurba_marseille","lat":43.2955,"lon":5.42291,"is_reserved":false,"is_disabled":false,"rental_uris":{"android":"levelo://app?vid=1591dede-887b-41d4-b3a1-452ef5328a4f","ios":"levelo://app?vid=1591dede-887b-41d4-b3a1-452ef5328a4f"},"vehicle_type_id":"4","last_reported":1734379854,"current_range_meters":38800,"station_id":"ce4bhph2rcd13ifvqhdg","pricing_plan_id":"cebpf4jnsgd1na2vs0mg"},{"bike_id":"6d508ea7-1740-47db-a8c4-e7c1f75d5945","system_id":"levelo_inurba_marseille","lat":43.26945,"lon":5.38633,"is_reserved":false,"is_disabled":true,"rental_uris":{"android":"levelo://app?vid=6d508ea7-1740-47db-a8c4-e7c1f75d5945","ios":"levelo://app?vid=6d508ea7-1740-47db-a8c4-e7c1f75d5945"},"vehicle_type_id":"4","last_reported":1734379854,"current_range_meters":0,"station_id":"ce4bhh92rcd13ifvqfh0","pricing_plan_id":"cebpf4jnsgd1na2vs0mg"},{"bike_id":"477d2549-b022-4827-9d7e-c01d93ff35ae","system_id":"levelo_inurba_marseille","lat":43.27816,"lon":5.4071,"is_reserved":false,"is_disabled":false,"rental_uris":{"android":"levelo://app?vid=477d2549-b022-4827-9d7e-c01d93ff35ae","ios":"levelo://app?vid=477d2549-b022-4827-9d7e-c01d93ff35ae"},"vehicle_type_id":"4","last_reported":1734379854,"current_range_meters":24400,"station_id":"ce4bhnh2rcd13ifvqgtg","pricing_plan_id":"cebpf4jnsgd1na2vs0mg"},{"bike_id":"3f27d279-1803-4c81-af7b-bbf551f71008","system_id":"levelo_inurba_marseille","lat":43.26677,"lon":5.38263,"is_reserved":false,"is_disabled":false,"rental_uris":{"android":"levelo://app?vid=3f27d279-1803-4c81-af7b-bbf551f71008","ios":"levelo://app?vid=3f27d279-1803-4c81-af7b-bbf551f71008"},"vehicle_type_id":"4","last_reported":1734379854,"current_range_meters":29600,"station_id":"ce4bhg92rcd13ifvqf90","pricing_plan_id":"cebpf4jnsgd1na2vs0mg"},{"bike_id":"54d1797a-bacd-4829-9a6b-5144f589858d","system_id":"levelo_inurba_marseille","lat":43.30539,"lon":5.38419,"is_reserved":false,"is_disabled":false,"rental_uris":{"android":"levelo://app?vid=54d1797a-bacd-4829-9a6b-5144f589858d","ios":"levelo://app?vid=54d1797a-bacd-4829-9a6b-5144f589858d"},"vehicle_type_id":"4","last_reported":1734379854,"current_range_meters":32000,"station_id":"ce4bgg92rcd13ifvqb30","pricing_plan_id":"cebpf4jnsgd1na2vs0mg"},{"bike_id":"d0574969-6bb2-4b6a-a666-e57816237af8","system_id":"levelo_inurba_marseille","lat":43.286743,"lon":5.386795,"is_reserved":false,"is_disabled":false,"rental_uris":{"android":"levelo://app?vid=d0574969-6bb2-4b6a-a666-e57816237af8","ios":"levelo://app?vid=d0574969-6bb2-4b6a-a666-e57816237af8"},"vehicle_type_id":"4","last_reported":1734379854,"current_range_meters":39200,"station_id":"ce4bh492rcd13ifvqdug","pricing_plan_id":"cebpf4jnsgd1na2vs0mg"},{"bike_id":"7af2ef9a-eb71-4148-a748-b140dab6df51","system_id":"levelo_inurba_marseille","lat":43.26577,"lon":5.38984,"is_reserved":false,"is_disabled":false,"rental_uris":{"android":"levelo://app?vid=7af2ef9a-eb71-4148-a748-b140dab6df51","ios":"levelo://app?vid=7af2ef9a-eb71-4148-a748-b140dab6df51"},"vehicle_type_id":"4","last_reported":1734379854,"current_range_meters":38800,"station_id":"ce4bhe12rcd13ifvqf30","pricing_plan_id":"cebpf4jnsgd1na2vs0mg"},{"bike_id":"26579991-0e4b-445a-93aa-31ab44d1afae","system_id":"levelo_inurba_marseille","lat":43.33716,"lon":5.40892,"is_reserved":false,"is_disabled":true,"rental_uris":{"android":"levelo://app?vid=26579991-0e4b-445a-93aa-31ab44d1afae","ios":"levelo://app?vid=26579991-0e4b-445a-93aa-31ab44d1afae"},"vehicle_type_id":"4","last_reported":1734379854,"current_range_meters":38000,"station_id":"ce4bhqh2rcd13ifvqhmg","pricing_plan_id":"cebpf4jnsgd1na2vs0mg"},{"bike_id":"1c625ce6-6d73-4f27-9bd6-c25955847929","system_id":"levelo_inurba_marseille","lat":43.2781,"lon":5.40702,"is_reserved":false,"is_disabled":false,"rental_uris":{"android":"levelo://app?vid=1c625ce6-6d73-4f27-9bd6-c25955847929","ios":"levelo://app?vid=1c625ce6-6d73-4f27-9bd6-c25955847929"},"vehicle_type_id":"4","last_reported":1734379854,"current_range_meters":34000,"station_id":"ce4bhnh2rcd13ifvqgtg","pricing_plan_id":"cebpf4jnsgd1na2vs0mg"},{"bike_id":"c1f2f608-52c4-4bfc-9fa5-8849aa0a4af5","system_id":"levelo_inurba_marseille","lat":43.2781,"lon":5.40704,"is_reserved":false,"is_disabled":false,"rental_uris":{"android":"levelo://app?vid=c1f2f608-52c4-4bfc-9fa5-8849aa0a4af5","ios":"levelo://app?vid=c1f2f608-52c4-4bfc-9fa5-8849aa0a4af5"},"vehicle_type_id":"4","last_reported":1734379854,"current_range_meters":36400,"station_id":"ce4bhnh2rcd13ifvqgtg","pricing_plan_id":"cebpf4jnsgd1na2vs0mg"},{"bike_id":"dee21283-4521-4c1a-b53d-9510ded6ec60","system_id":"levelo_inurba_marseille","lat":43.23974,"lon":5.36618,"is_reserved":false,"is_disabled":false,"rental_uris":{"android":"levelo://app?vid=dee21283-4521-4c1a-b53d-9510ded6ec60","ios":"levelo://app?vid=dee21283-4521-4c1a-b53d-9510ded6ec60"},"vehicle_type_id":"4","last_reported":1734379854,"current_range_meters":38800,"station_id":"ce4bhi12rcd13ifvqfp0","pricing_plan_id":"cebpf4jnsgd1na2vs0mg"},{"bike_id":"f3b200a5-6a23-406b-a9ec-5ae4da8a9a05","system_id":"levelo_inurba_marseille","lat":43.30098,"lon":5.39058,"is_reserved":false,"is_disabled":false,"rental_uris":{"android":"levelo://app?vid=f3b200a5-6a23-406b-a9ec-5ae4da8a9a05","ios":"levelo://app?vid=f3b200a5-6a23-406b-a9ec-5ae4da8a9a05"},"vehicle_type_id":"4","last_reported":1734379854,"current_range_meters":36000,"station_id":"ce4bh192rcd13ifvqdb0","pricing_plan_id":"cebpf4jnsgd1na2vs0mg"},{"bike_id":"1ecf6bd5-393a-4b8b-823c-a2ba20b02dcd","system_id":"levelo_inurba_marseille","lat":43.28156,"lon":5.42646,"is_reserved":false,"is_disabled":false,"rental_uris":{"android":"levelo://app?vid=1ecf6bd5-393a-4b8b-823c-a2ba20b02dcd","ios":"levelo://app?vid=1ecf6bd5-393a-4b8b-823c-a2ba20b02dcd"},"vehicle_type_id":"4","last_reported":1734379854,"current_range_meters":16400,"station_id":"ce4bhnh2rcd13ifvqgug","pricing_plan_id":"cebpf4jnsgd1na2vs0mg"},{"bike_id":"e6ee4bb2-6f45-4a12-bd0d-9861c46e29dc","system_id":"levelo_inurba_marseille","lat":43.27827,"lon":5.40691,"is_reserved":false,"is_disabled":false,"rental_uris":{"android":"levelo://app?vid=e6ee4bb2-6f45-4a12-bd0d-9861c46e29dc","ios":"levelo://app?vid=e6ee4bb2-6f45-4a12-bd0d-9861c46e29dc"},"vehicle_type_id":"4","last_reported":1734379854,"current_range_meters":28800,"station_id":"ce4bhnh2rcd13ifvqgtg","pricing_plan_id":"cebpf4jnsgd1na2vs0mg"},{"bike_id":"63c0c746-60d7-4577-af9a-1ceb0fb39dba","system_id":"levelo_inurba_marseille","lat":43.26804,"lon":5.40264,"is_reserved":false,"is_disabled":false,"rental_uris":{"android":"levelo://app?vid=63c0c746-60d7-4577-af9a-1ceb0fb39dba","ios":"levelo://app?vid=63c0c746-60d7-4577-af9a-1ceb0fb39dba"},"vehicle_type_id":"4","last_reported":1734379854,"current_range_meters":38800,"station_id":"ce501612rcd8frsf0b60","pricing_plan_id":"cebpf4jnsgd1na2vs0mg"},{"bike_id":"09f7713a-9c98-4804-bdcc-00585897b244","system_id":"levelo_inurba_marseille","lat":43.28938,"lon":5.36638,"is_reserved":false,"is_disabled":false,"rental_uris":{"android":"levelo://app?vid=09f7713a-9c98-4804-bdcc-00585897b244","ios":"levelo://app?vid=09f7713a-9c98-4804-bdcc-00585897b244"},"vehicle_type_id":"4","last_reported":1734379854,"current_range_meters":30800,"station_id":"ce4bhap2rcd13ifvqek0","pricing_plan_id":"cebpf4jnsgd1na2vs0mg"},{"bike_id":"fb4b3e1e-cdaa-47a2-827a-6e304699883c","system_id":"levelo_inurba_marseille","lat":43.31721,"lon":5.42398,"is_reserved":false,"is_disabled":false,"rental_uris":{"android":"levelo://app?vid=fb4b3e1e-cdaa-47a2-827a-6e304699883c","ios":"levelo://app?vid=fb4b3e1e-cdaa-47a2-827a-6e304699883c"},"vehicle_type_id":"4","last_reported":1734379854,"current_range_meters":38000,"station_id":"ce4bhp92rcd13ifvqhbg","pricing_plan_id":"cebpf4jnsgd1na2vs0mg"},{"bike_id":"154eedbc-e4bb-4b0c-9ec2-ed622144f436","system_id":"levelo_inurba_marseille","lat":43.27918,"lon":5.38019,"is_reserved":false,"is_disabled":false,"rental_uris":{"android":"levelo://app?vid=154eedbc-e4bb-4b0c-9ec2-ed622144f436","ios":"levelo://app?vid=154eedbc-e4bb-4b0c-9ec2-ed622144f436"},