{"last_updated":1730495322,"ttl":60,"version":"2.2","data":{"bikes":[{"bike_id":"4cf13f4a-64af-4166-b132-8fe405819188","system_id":"levelo_inurba_marseille","lat":43.25502,"lon":5.37655,"is_reserved":false,"is_disabled":false,"rental_uris":{"android":"levelo://app?vid=4cf13f4a-64af-4166-b132-8fe405819188","ios":"levelo://app?vid=4cf13f4a-64af-4166-b132-8fe405819188"},"vehicle_type_id":"4","last_reported":1730495322,"current_range_meters":24400,"station_id":"ce4bhh12rcd13ifvqff0","pricing_plan_id":"cebpf4jnsgd1na2vs0mg"},{"bike_id":"c534fc4c-3eff-48c2-898d-62e3ddd0858a","system_id":"levelo_inurba_marseille","lat":43.284088,"lon":5.37505,"is_reserved":false,"is_disabled":false,"rental_uris":{"android":"levelo://app?vid=c534fc4c-3eff-48c2-898d-62e3ddd0858a","ios":"levelo://app?vid=c534fc4c-3eff-48c2-898d-62e3ddd0858a"},"vehicle_type_id":"4","last_reported":1730495322,"current_range_meters":26000,"station_id":"ce4bh412rcd13ifvqds0","pricing_plan_id":"cebpf4jnsgd1na2vs0mg"},{"bike_id":"deb0813f-bc6d-4259-9253-38c4df4ce6eb","system_id":"levelo_inurba_marseille","lat":43.30212,"lon":5.36602,"is_reserved":false,"is_disabled":false,"rental_uris":{"android":"levelo://app?vid=deb0813f-bc6d-4259-9253-38c4df4ce6eb","ios":"levelo://app?vid=deb0813f-bc6d-4259-9253-38c4df4ce6eb"},"vehicle_type_id":"4","last_reported":1730495322,"current_range_meters":38800,"station_id":"ce4bgrh2rcd13ifvqc8g","pricing_plan_id":"cebpf4jnsgd1na2vs0mg"},{"bike_id":"7f47fea8-3b5e-437a-a31e-f4194bf70b17","system_id":"levelo_inurba_marseille","lat":43.24665,"lon":5.38152,"is_reserved":false,"is_disabled":false,"rental_uris":{"android":"levelo://app?vid=7f47fea8-3b5e-437a-a31e-f4194bf70b17","ios":"levelo://app?vid=7f47fea8-3b5e-437a-a31e-f4194bf70b17"},"vehicle_type_id":"4","last_reported":1730495322,"current_range_meters":32400,"station_id":"ce4bhih2rcd13ifvqfr0","pricing_plan_id":"cebpf4jnsgd1na2vs0mg"},{"bike_id":"53361ed5-44e3-4331-b1db-d839ce43605d","system_id":"levelo_inurba_marseille","lat":43.32667,"lon":5.40993,"is_reserved":false,"is_disabled":false,"rental_uris":{"android":"levelo://app?vid=53361ed5-44e3-4331-b1db-d839ce43605d","ios":"levelo://app?vid=53361ed5-44e3-4331-b1db-d839ce43605d"},"vehicle_type_id":"4","last_reported":1730495322,"current_range_meters":9200,"station_id":"ce4bhpp2rcd13ifvqhgg","pricing_plan_id":"cebpf4jnsgd1na2vs0mg"},{"bike_id":"8682c02d-b75e-4986-bf40-c0b0cf6578e7","system_id":"levelo_inurba_marseille","lat":43.32113,"lon":5.36767,"is_reserved":false,"is_disabled":false,"rental_uris":{"android":"levelo://app?vid=8682c02d-b75e-4986-bf40-c0b0cf6578e7","ios":"levelo://app?vid=8682c02d-b75e-4986-bf40-c0b0cf6578e7"},"vehicle_type_id":"4","last_reported":1730495322,"current_range_meters":4800,"station_id":"ce4bhrh2rcd13ifvqhug","pricing_plan_id":"cebpf4jnsgd1na2vs0mg"},{"bike_id":"4060b50c-15a4-41ff-9d32-c5b655d62ee3","system_id":"levelo_inurba_marseille","lat":43.28786,"lon":5.39009,"is_reserved":false,"is_disabled":false,"rental_uris":{"android":"levelo://app?vid=4060b50c-15a4-41ff-9d32-c5b655d62ee3","ios":"levelo://app?vid=4060b50c-15a4-41ff-9d32-c5b655d62ee3"},"vehicle_type_id":"4","last_reported":1730495322,"current_range_meters":8400,"station_id":"","pricing_plan_id":"cebpf4jnsgd1na2vs0mg"},{"bike_id":"05ee8879-8815-4ec0-8f3b-ab65d73dd57e","system_id":"levelo_inurba_marseille","lat":43.29166,"lon":5.37151,"is_reserved":false,"is_disabled":false,"rental_uris":{"android":"levelo://app?vid=05ee8879-8815-4ec0-8f3b-ab65d73dd57e","ios":"levelo://app?vid=05ee8879-8815-4ec0-8f3b-ab65d73dd57e"},"vehicle_type_id":"4","last_reported":1730495322,"current_range_meters":38000,"station_id":"ce4bha92rcd13ifvqeh0","pricing_plan_id":"cebpf4jnsgd1na2vs0mg"},{"bike_id":"da4b1b9f-a552-4935-bde7-5d2e3f226f86","system_id":"levelo_inurba_marseille","lat":43.29553,"lon":5.4229,"is_reserved":false,"is_disabled":false,"rental_uris":{"android":"levelo://app?vid=da4b1b9f-a552-4935-bde7-5d2e3f226f86","ios":"levelo://app?vid=da4b1b9f-a552-4935-bde7-5d2e3f226f86"},"vehicle_type_id":"4","last_reported":1730495322,"current_range_meters":37600,"station_id":"ce4bhph2rcd13ifvqhdg","pricing_plan_id":"cebpf4jnsgd1na2vs0mg"},{"bike_id":"06bcc623-9e92-4773-9fd6-0a85a4787eb4","system_id":"levelo_inurba_marseille","lat":43.31485,"lon":5.3731,"is_reserved":false,"is_disabled":false,"rental_uris":{"android":"levelo://app?vid=06bcc623-9e92-4773-9fd6-0a85a4787eb4","ios":"levelo://app?vid=06bcc623-9e92-4773-9fd6-0a85a4787eb4"},"vehicle_type_id":"4","last_reported":1730495322,"current_range_meters":10800,"station_id":"ce4bgt12rcd13ifvqcd0","pricing_plan_id":"cebpf4jnsgd1na2vs0mg"},{"bike_id":"f2db7198-4220-45ab-8f67-5c82af524f11","system_id":"levelo_inurba_marseille","lat":43.29527,"lon":5.39051,"is_reserved":false,"is_disabled":false,"rental_uris":{"android":"levelo://app?vid=f2db7198-4220-45ab-8f67-5c82af524f11","ios":"levelo://app?vid=f2db7198-4220-45ab-8f67-5c82af524f11"},"vehicle_type_id":"4","last_reported":1730495322,"current_range_meters":37600,"station_id":"ce4bh3p2rcd13ifvqdp0","pricing_plan_id":"cebpf4jnsgd1na2vs0mg"},{"bike_id":"db7883e5-d635-4f30-8f29-adc97e5c1773","system_id":"levelo_inurba_marseille","lat":43.28703,"lon":5.37396,"is_reserved":false,"is_disabled":false,"rental_uris":{"android":"levelo://app?vid=db7883e5-d635-4f30-8f29-adc97e5c1773","ios":"levelo://app?vid=db7883e5-d635-4f30-8f29-adc97e5c1773"},"vehicle_type_id":"4","last_reported":1730495322,"current_range_meters":38800,"station_id":"ce4bh3p2rcd13ifvqdq0","pricing_plan_id":"cebpf4jnsgd1na2vs0mg"},{"bike_id":"512c4bd5-3edb-49b7-a54a-bbe327a08aa0","system_id":"levelo_inurba_marseille","lat":43.25732,"lon":5.41105,"is_reserved":false,"is_disabled":false,"rental_uris":{"android":"levelo://app?vid=512c4bd5-3edb-49b7-a54a-bbe327a08aa0","ios":"levelo://app?vid=512c4bd5-3edb-49b7-a54a-bbe327a08aa0"},"vehicle_type_id":"4","last_reported":1730495322,"current_range_meters":16400,"station_id":"ce4bhkp2rcd13ifvqgd0","pricing_plan_id":"cebpf4jnsgd1na2vs0mg"},{"bike_id":"a4627486-a087-47d1-bdea-e9476cd49986","system_id":"levelo_inurba_marseille","lat":43.23197,"lon":5.35547,"is_reserved":false,"is_disabled":false,"rental_uris":{"android":"levelo://app?vid=a4627486-a087-47d1-bdea-e9476cd49986","ios":"levelo://app?vid=a4627486-a087-47d1-bdea-e9476cd49986"},"vehicle_type_id":"4","last_reported":1730495322,"current_range_meters":30000,"station_id":"ce4bhu92rcd13ifvqi70","pricing_plan_id":"cebpf4jnsgd1na2vs0mg"},{"bike_id":"051383da-451f-4141-b849-250af2fe8b67","system_id":"levelo_inurba_marseille","lat":43.30789,"lon":5.37641,"is_reserved":false,"is_disabled":false,"rental_uris":{"android":"levelo://app?vid=051383da-451f-4141-b849-250af2fe8b67","ios":"levelo://app?vid=051383da-451f-4141-b849-250af2fe8b67"},"vehicle_type_id":"4","last_reported":1730495322,"current_range_meters":4000,"station_id":"ce4bgv92rcd13ifvqcq0","pricing_plan_id":"cebpf4jnsgd1na2vs0mg"},{"bike_id":"98606055-e59c-468c-9d5f-0ff0d6cc7798","system_id":"levelo_inurba_marseille","lat":43.29601,"lon":5.381,"is_reserved":false,"is_disabled":false,"rental_uris":{"android":"levelo://app?vid=98606055-e59c-468c-9d5f-0ff0d6cc7798","ios":"levelo://app?vid=98606055-e59c-468c-9d5f-0ff0d6cc7798"},"vehicle_type_id":"4","last_reported":1730495322,"current_range_meters":32000,"station_id":"ce4bgl12rcd13ifvqbo0","pricing_plan_id":"cebpf4jnsgd1na2vs0mg"},{"bike_id":"509a9bdc-ca48-4855-8040-748bb9b3087b","system_id":"levelo_inurba_marseille","lat":43.25938,"lon":5.40893,"is_reserved":false,"is_disabled":false,"rental_uris":{"android":"levelo://app?vid=509a9bdc-ca48-4855-8040-748bb9b3087b","ios":"levelo://app?vid=509a9bdc-ca48-4855-8040-748bb9b3087b"},"vehicle_type_id":"4","last_reported":1730495322,"current_range_meters":25600,"station_id":"ce4bhm92rcd13ifvqglg","pricing_plan_id":"cebpf4jnsgd1na2vs0mg"},{"bike_id":"87ed5b90-8e03-4a43-b258-8b0293b00409","system_id":"levelo_inurba_marseille","lat":43.28614,"lon":5.351,"is_reserved":false,"is_disabled":false,"rental_uris":{"android":"levelo://app?vid=87ed5b90-8e03-4a43-b258-8b0293b00409","ios":"levelo://app?vid=87ed5b90-8e03-4a43-b258-8b0293b00409"},"vehicle_type_id":"4","last_reported":1730495322,"current_range_meters":9200,"station_id":"ce4bhch2rcd13ifvqeug","pricing_plan_id":"cebpf4jnsgd1na2vs0mg"},{"bike_id":"fe897454-dffc-4f65-b97d-08e45f23a6e2","system_id":"levelo_inurba_marseille","lat":43.29168,"lon":5.37153,"is_reserved":false,"is_disabled":false,"rental_uris":{"android":"levelo://app?vid=fe897454-dffc-4f65-b97d-08e45f23a6e2","ios":"levelo://app?vid=fe897454-dffc-4f65-b97d-08e45f23a6e2"},"vehicle_type_id":"4","last_reported":1730495322,"current_range_meters":26800,"station_id":"ce4bha92rcd13ifvqeh0","pricing_plan_id":"cebpf4jnsgd1na2vs0mg"},{"bike_id":"efbe383f-83c6-4df5-ac1f-ffa8f2e0197b","system_id":"levelo_inurba_marseille","lat":43.31335,"lon":5.39699,"is_reserved":false,"is_disabled":false,"rental_uris":{"android":"levelo://app?vid=efbe383f-83c6-4df5-ac1f-ffa8f2e0197b","ios":"levelo://app?vid=efbe383f-83c6-4df5-ac1f-ffa8f2e0197b"},"vehicle_type_id":"4","last_reported":1730495322,"current_range_meters":8000,"station_id":"ce4bgvp2rcd13ifvqcu0","pricing_plan_id":"cebpf4jnsgd1na2vs0mg"},{"bike_id":"34773571-d1ef-4029-88e1-49b50b78a386","system_id":"levelo_inurba_marseille","lat":43.2573,"lon":5.41114,"is_reserved":false,"is_disabled":false,"rental_uris":{"android":"levelo://app?vid=34773571-d1ef-4029-88e1-49b50b78a386","ios":"levelo://app?vid=34773571-d1ef-4029-88e1-49b50b78a386"},"vehicle_type_id":"4","last_reported":1730495322,"current_range_meters":2800,"station_id":"ce4bhkp2rcd13ifvqgd0","pricing_plan_id":"cebpf4jnsgd1na2vs0mg"},{"bike_id":"d8927fc2-6f46-4383-bb36-187c37344880","system_id":"levelo_inurba_marseille","lat":43.30142,"lon":5.38799,"is_reserved":false,"is_disabled":false,"rental_uris":{"android":"levelo://app?vid=d8927fc2-6f46-4383-bb36-187c37344880","ios":"levelo://app?vid=d8927fc2-6f46-4383-bb36-187c37344880"},"vehicle_type_id":"4","last_reported":1730495322,"current_range_meters":38800,"station_id":"ce4bghh2rcd13ifvqb60","pricing_plan_id":"cebpf4jnsgd1na2vs0mg"},{"bike_id":"727f9214-35e2-4693-a132-fcd8d713c122","system_id":"levelo_inurba_marseille","lat":43.30936,"lon":5.40138,"is_reserved":false,"is_disabled":false,"rental_uris":{"android":"levelo://app?vid=727f9214-35e2-4693-a132-fcd8d713c122","ios":"levelo://app?vid=727f9214-35e2-4693-a132-fcd8d713c122"},"vehicle_type_id":"4","last_reported":1730495322,"current_range_meters":38800,"station_id":"ce4bgvp2rcd13ifvqct0","pricing_plan_id":"cebpf4jnsgd1na2vs0mg"},{"bike_id":"3476600c-da9d-4dac-b50c-0322b1345e9e","system_id":"levelo_inurba_marseille","lat":43.29878,"lon":5.38902,"is_reserved":false,"is_disabled":false,"rental_uris":{"android":"levelo://app?vid=3476600c-da9d-4dac-b50c-0322b1345e9e","ios":"levelo://app?vid=3476600c-da9d-4dac-b50c-0322b1345e9e"},"vehicle_type_id":"4","last_reported":1730495322,"current_range_meters":36800,"station_id":"ce4bh392rcd13ifvqdl0","pricing_plan_id":"cebpf4jnsgd1na2vs0mg"},{"bike_id":"d939edb6-4472-4de1-920d-e35623da1e3c","system_id":"levelo_inurba_marseille","lat":43.27435,"lon":5.39412,"is_reserved":false,"is_disabled":false,"rental_uris":{"android":"levelo://app?vid=d939edb6-4472-4de1-920d-e35623da1e3c","ios":"levelo://app?vid=d939edb6-4472-4de1-920d-e35623da1e3c"},"vehicle_type_id":"4","last_reported":1730495322,"current_range_meters":38800,"station_id":"ce4bhdp2rcd13ifvqf20","pricing_plan_id":"cebpf4jnsgd1na2vs0mg"},{"bike_id":"49e7b56a-b112-474e-93f2-3e0625fc51c8","system_id":"levelo_inurba_marseille","lat":43.2801,"lon":5.4001,"is_reserved":false,"is_disabled":false,"rental_uris":{"android":"levelo://app?vid=49e7b56a-b112-474e-93f2-3e0625fc51c8","ios":"levelo://app?vid=49e7b56a-b112-474e-93f2-3e0625fc51c8"},"vehicle_type_id":"4","last_reported":1730495322,"current_range_meters":16800,"station_id":"ce4bho92rcd13ifvqh4g","pricing_plan_id":"cebpf4jnsgd1na2vs0mg"},{"bike_id":"53666ca2-d243-4f5e-8466-56bcf2799a94","system_id":"levelo_inurba_marseille","lat":43.29419,"lon":5.38629,"is_reserved":false,"is_disabled":false,"rental_uris":{"android":"levelo://app?vid=53666ca2-d243-4f5e-8466-56bcf2799a94","ios":"levelo://app?vid=53666ca2-d243-4f5e-8466-56bcf2799a94"},"vehicle_type_id":"4","last_reported":1730495322,"current_range_meters":11600,"station_id":"ce4bh2h2rcd13ifvqdh0","pricing_plan_id":"cebpf4jnsgd1na2vs0mg"},{"bike_id":"ca7418d4-c49d-4525-bde7-bfd3a3b3b27d","system_id":"levelo_inurba_marseille","lat":43.29424,"lon":5.38612,"is_reserved":false,"is_disabled":false,"rental_uris":{"android":"levelo://app?vid=ca7418d4-c49d-4525-bde7-bfd3a3b3b27d","ios":"levelo://app?vid=ca7418d4-c49d-4525-bde7-bfd3a3b3b27d"},"vehicle_type_id":"4","last_reported":1730495322,"current_range_meters":38000,"station_id":"ce4bh2h2rcd13ifvqdh0","pricing_plan_id":"cebpf4jnsgd1na2vs0mg"},{"bike_id":"dda0e212-4309-4695-9f60-11cac500acd1","system_id":"levelo_inurba_marseille","lat":43.30441,"lon":5.38878,"is_reserved":false,"is_disabled":false,"rental_uris":{"android":"levelo://app?vid=dda0e212-4309-4695-9f60-11cac500acd1","ios":"levelo://app?vid=dda0e212-4309-4695-9f60-11cac500acd1"},"vehicle_type_id":"4","last_reported":1730495322,"current_range_meters":38800,"station_id":"ce4bgk12rcd13ifvqbi0","pricing_plan_id":"cebpf4jnsgd1na2vs0mg"},{"bike_id":"3c7699c8-2ddd-41f5-952c-da7c67b5a996","system_id":"levelo_inurba_marseille","lat":43.28616,"lon":5.35106,"is_reserved":false,"is_disabled":false,"rental_uris":{"android":"levelo://app?vid=3c7699c8-2ddd-41f5-952c-da7c67b5a996","ios":"levelo://app?vid=3c7699c8-2ddd-41f5-952c-da7c67b5a996"},"vehicle_type_id":"4","last_reported":1730495322,"current_range_meters":36000,"station_id":"ce4bhch2rcd13ifvqeug","pricing_plan_id":"cebpf4jnsgd1na2vs0mg"},{"bike_id":"8e860348-228f-405d-89f1-b2d5a7b9c901","system_id":"levelo_inurba_marseille","lat":43.29609,"lon":5.38107,"is_reserved":false,"is_disabled":false,"rental_uris":{"android":"levelo://app?vid=8e860348-228f-405d-89f1-b2d5a7b9c901","ios":"levelo://app?vid=8e860348-228f-405d-89f1-b2d5a7b9c901"},"vehicle_type_id":"4","last_reported":1730495322,"current_range_meters":38400,"station_id":"ce4bgl12rcd13ifvqbo0","pricing_plan_id":"cebpf4jnsgd1na2vs0mg"},{"bike_id":"34d131d7-323c-4304-8228-c37631ad34ab","system_id":"levelo_inurba_marseille","lat":43.2927,"lon":5.36848,"is_reserved":false,"is_disabled":false,"rental_uris":{"android":"levelo://app?vid=34d131d7-323c-4304-8228-c37631ad34ab","ios":"levelo://app?vid=34d131d7-323c-4304-8228-c37631ad34ab"},"vehicle_type_id":"4","last_reported":1730495322,"current_range_meters":25200,"station_id":"ce4bhbp2rcd13ifvqesg","pricing_plan_id":"cebpf4jnsgd1na2vs0mg"},{"bike_id":"5d33c49a-89b9-4778-8ce0-40bafcfb7158","system_id":"levelo_inurba_marseille","lat":43.29265,"lon":5.38443,"is_reserved":false,"is_disabled":false,"rental_uris":{"android":"levelo://app?vid=5d33c49a-89b9-4778-8ce0-40bafcfb7158","ios":"levelo://app?vid=5d33c49a-89b9-4778-8ce0-40bafcfb7158"},"vehicle_type_id":"4","last_reported":1730495322,"current_range_meters":16000,"station_id":"ce4bh692rcd13ifvqea0","pricing_plan_id":"cebpf4jnsgd1na2vs0mg"},{"bike_id":"956f1479-9e28-47c4-8d7e-8d831209c19f","system_id":"levelo_inurba_marseille","lat":43.30209,"lon":5.39476,"is_reserved":false,"is_disabled":false,"rental_uris":{"android":"levelo://app?vid=956f1479-9e28-47c4-8d7e-8d831209c19f","ios":"levelo://app?vid=956f1479-9e28-47c4-8d7e-8d831209c19f"},"vehicle_type_id":"4","last_reported":1730495322,"current_range_meters":38800,"station_id":"ce4bh0p2rcd13ifvqd70","pricing_plan_id":"cebpf4jnsgd1na2vs0mg"},{"bike_id":"8ac4f741-2911-42d6-a00a-51cf057a7d47","system_id":"levelo_inurba_marseille","lat":43.27498,"lon":5.42456,"is_reserved":false,"is_disabled":false,"rental_uris":{"android":"levelo://app?vid=8ac4f741-2911-42d6-a00a-51cf057a7d47","ios":"levelo://app?vid=8ac4f741-2911-42d6-a00a-51cf057a7d47"},"vehicle_type_id":"4","last_reported":1730495322,"current_range_meters":38800,"station_id":"ce4bhn92rcd13ifvqgrg","pricing_plan_id":"cebpf4jnsgd1na2vs0mg"},{"bike_id":"d6ea501e-291e-4ffa-992c-983b2a45a4ef","system_id":"levelo_inurba_marseille","lat":43.28342,"lon":5.38106,"is_reserved":false,"is_disabled":false,"rental_uris":{"android":"levelo://app?vid=d6ea501e-291e-4ffa-992c-983b2a45a4ef","ios":"levelo://app?vid=d6ea501e-291e-4ffa-992c-983b2a45a4ef"},"vehicle_type_id":"4","last_reported":1730495322,"current_range_meters":6400,"station_id":"ce4bh412rcd13ifvqdr0","pricing_plan_id":"cebpf4jnsgd1na2vs0mg"},{"bike_id":"a7125d65-74ce-495d-817a-4658be7b2ef8","system_id":"levelo_inurba_marseille","lat":43.28702,"lon":5.37402,"is_reserved":false,"is_disabled":false,"rental_uris":{"android":"levelo://app?vid=a7125d65-74ce-495d-817a-4658be7b2ef8","ios":"levelo://app?vid=a7125d65-74ce-495d-817a-4658be7b2ef8"},"vehicle_type_id":"4","last_reported":1730495322,"current_range_meters":19600,"station_id":"ce4bh3p2rcd13ifvqdq0","pricing_plan_id":"cebpf4jnsgd1na2vs0mg"},{"bike_id":"4fcbeb62-63ac-4a93-9f6e-2a929a16fb8e","system_id":"levelo_inurba_marseille","lat":43.28697,"lon":5.3738,"is_reserved":false,"is_disabled":false,"rental_uris":{"android":"levelo://app?vid=4fcbeb62-63ac-4a93-9f6e-2a929a16fb8e","ios":"levelo://app?vid=4fcbeb62-63ac-4a93-9f6e-2a929a16fb8e"},"vehicle_type_id":"4","last_reported":1730495322,"current_range_meters":14000,"station_id":"ce4bh3p2rcd13ifvqdq0","pricing_plan_id":"cebpf4jnsgd1na2vs0mg"},{"bike_id":"dccc613c-7c9d-44fc-9625-47ccbc365073","system_id":"levelo_inurba_marseille","lat":43.27493,"lon":5.42451,"is_reserved":false,"is_disabled":false,"rental_uris":{"android":"levelo://app?vid=dccc613c-7c9d-44fc-9625-47ccbc365073","ios":"levelo://app?vid=dccc613c-7c9d-44fc-9625-47ccbc365073"},"vehicle_type_id":"4","last_reported":1730495322,"current_range_meters":38800,"station_id":"ce4bhn92rcd13ifvqgrg","pricing_plan_id":"cebpf4jnsgd1na2vs0mg"},{"bike_id":"ce4b9b4b-c9db-466f-ade6-da9f1060e908","system_id":"levelo_inurba_marseille","lat":43.2904,"lon":5.38645,"is_reserved":false,"is_disabled":false,"rental_uris":{"android":"levelo://app?vid=ce4b9b4b-c9db-466f-ade6-da9f1060e908","ios":"levelo://app?vid=ce4b9b4b-c9db-466f-ade6-da9f1060e908"},"vehicle_type_id":"4","last_reported":1730495322,"current_range_meters":38800,"station_id":"ce4bh4p2rcd13ifvqe0g","pricing_plan_id":"cebpf4jnsgd1na2vs0mg"},{"bike_id":"51883404-61a4-4057-8217-6867cbc942dd","system_id":"levelo_inurba_marseille","lat":43.31735,"lon":5.42392,"is_reserved":false,"is_disabled":false,"rental_uris":{"android":"levelo://app?vid=51883404-61a4-4057-8217-6867cbc942dd","ios":"levelo://app?vid=51883404-61a4-4057-8217-6867cbc942dd"},"vehicle_type_id":"4","last_reported":1730495322,"current_range_meters":37600,"station_id":"ce4bhp92rcd13ifvqhbg","pricing_plan_id":"cebpf4jnsgd1na2vs0mg"},{"bike_id":"7aca20f8-1574-4b9d-bf15-a513db192236","system_id":"levelo_inurba_marseille","lat":43.2942,"lon":5.38619,"is_reserved":false,"is_disabled":false,"rental_uris":{"android":"levelo://app?vid=7aca20f8-1574-4b9d-bf15-a513db192236","ios":"levelo://app?vid=7aca20f8-1574-4b9d-bf15-a513db192236"},"vehicle_type_id":"4","last_reported":1730495322,"current_range_meters":38800,"station_id":"ce4bh2h2rcd13ifvqdh0","pricing_plan_id":"cebpf4jnsgd1na2vs0mg"},{"bike_id":"5a4551a0-a7cd-4d91-84da-2d36c7bcba56","system_id":"levelo_inurba_marseille","lat":43.28938,"lon":5.39638,"is_reserved":false,"is_disabled":false,"rental_uris":{"android":"levelo://app?vid=5a4551a0-a7cd-4d91-84da-2d36c7bcba56","ios":"levelo://app?vid=5a4551a0-a7cd-4d91-84da-2d36c7bcba56"},"vehicle_type_id":"4","last_reported":1730495322,"current_range_meters":38000,"station_id":"ce4bh3h2rcd13ifvqdn0","pricing_plan_id":"cebpf4jnsgd1na2vs0mg"},{"bike_id":"86501ceb-c189-4af2-bac2-4f3b6c95b810","system_id":"levelo_inurba_marseille","lat":43.294223,"lon":5.386183,"is_reserved":false,"is_disabled":false,"rental_uris":{"android":"levelo://app?vid=86501ceb-c189-4af2-bac2-4f3b6c95b810","ios":"levelo://app?vid=86501ceb-c189-4af2-bac2-4f3b6c95b810"},"vehicle_type_id":"4","last_reported":1730495322,"current_range_meters":38400,"station_id":"ce4bh2h2rcd13ifvqdh0","pricing_plan_id":"cebpf4jnsgd1na2vs0mg"},{"bike_id":"95b0abe9-ea21-42b3-a093-96c7a8da01f6","system_id":"levelo_inurba_marseille","lat":43.28942,"lon":5.36394,"is_reserved":false,"is_disabled":false,"rental_uris":{"android":"levelo://app?vid=95b0abe9-ea21-42b3-a093-96c7a8da01f6","ios":"levelo://app?vid=95b0abe9-ea21-42b3-a093-96c7a8da01f6"},"vehicle_type_id":"4","last_reported":1730495322,"current_range_meters":19600,"station_id":"ce4bhc92rcd13ifvqetg","pricing_plan_id":"cebpf4jnsgd1na2vs0mg"},{"bike_id":"1994cd20-32ae-4177-8030-69c11b23a867","system_id":"levelo_inurba_marseille","lat":43.25112,"lon":5.40327,"is_reserved":false,"is_disabled":false,"rental_uris":{"android":"levelo://app?vid=1994cd20-32ae-4177-8030-69c11b23a867","ios":"levelo://app?vid=1994cd20-32ae-4177-8030-69c11b23a867"},"vehicle_type_id":"4","last_reported":1730495322,"current_range_meters":8800,"station_id":"ce4bhlh2rcd13ifvqgig","pricing_plan_id":"cebpf4jnsgd1na2vs0mg"},{"bike_id":"bd8735ce-4787-4ea7-948a-d7eb3faabfb1","system_id":"levelo_inurba_marseille","lat":43.28928,"lon":5.384,"is_reserved":false,"is_disabled":false,"rental_uris":{"android":"levelo://app?vid=bd8735ce-4787-4ea7-948a-d7eb3faabfb1","ios":"levelo://app?vid=bd8735ce-4787-4ea7-948a-d7eb3faabfb1"},"vehicle_type_id":"4","last_reported":1730495322,"current_range_meters":20800,"station_id":"ce4bh612rcd13ifvqe6g","pricing_plan_id":"cebpf4jnsgd1na2vs0mg"},{"bike_id":"7dc1c1ed-2472-4dd8-84f9-9b00a0c2baff","system_id":"levelo_inurba_marseille","lat":43.29554,"lon":5.4229,"is_reserved":false,"is_disabled":false,"rental_uris":{"android":"levelo://app?vid=7dc1c1ed-2472-4dd8-84f9-9b00a0c2baff","ios":"levelo://app?vid=7dc1c1ed-2472-4dd8-84f9-9b00a0c2baff"},"vehicle_type_id":"4","last_reported":1730495322,"current_range_meters":38800,"station_id":"ce4bhph2rcd13ifvqhdg","pricing_plan_id":"cebpf4jnsgd1na2vs0mg"},{"bike_id":"fa6d808e-d533-491e-8823-4300020e1493","system_id":"levelo_inurba_marseille","lat":43.29875,"lon":5.38913,"is_reserved":false,"is_disabled":false,"rental_uris":{"android":"levelo://app?vid=fa6d808e-d533-491e-8823-4300020e1493","ios":"levelo://app?vid=fa6d808e-d533-491e-8823-4300020e1493"},"vehicle_type_id":"4","last_reported":1730495322,"current_range_meters":27200,"station_id":"ce4bh392rcd13ifvqdl0","pricing_plan_id":"cebpf4jnsgd1na2vs0mg"},{"bike_id":"afa39957-71be-4682-bdac-91a4c814290b","system_id":"levelo_inurba_marseille","lat":43.28933,"lon":5.38389,"is_reserved":false,"is_disabled":false,"rental_uris":{"android":"levelo://app?vid=afa39957-71be-4682-bdac-91a4c814290b","ios":"levelo://app?vid=afa39957-71be-4682-bdac-91a4c814290b"},"vehicle_type_id":"4","last_reported":1730495322,"current_range_meters":40000,"station_id":"ce4bh612rcd13ifvqe6g","pricing_plan_id":"cebpf4jnsgd1na2vs0mg"},{"bike_id":"9938ebcd-9900-4f33-ae62-087d07b91466","system_id":"levelo_inurba_marseille","lat":43.25745,"lon":5.41106,"is_reserved":false,"is_disabled":false,"rental_uris":{"android":"levelo://app?vid=9938ebcd-9900-4f33-ae62-087d07b91466","ios":"levelo://app?vid=9938ebcd-9900-4f33-ae62-087d07b91466"},"vehicle_type_id":"4","last_reported":1730495322,"current_range_meters":39200,"station_id":"ce4bhkp2rcd13ifvqgd0","pricing_plan_id":"cebpf4jnsgd1na2vs0mg"},{"bike_id":"f81c9dc1-d86c-4ae4-bbfb-f96586a0c69c","system_id":"levelo_inurba_marseille","lat":43.2926,"lon":5.38433,"is_reserved":false,"is_disabled":false,"rental_uris":{"android":"levelo://app?vid=f81c9dc1-d86c-4ae4-bbfb-f96586a0c69c","ios":"levelo://app?vid=f81c9dc1-d86c-4ae4-bbfb-f96586a0c69c"},"vehicle_type_id":"4","last_reported":1730495322,"current_range_meters":38800,"station_id":"ce4bh692rcd13ifvqea0","pricing_plan_id":"cebpf4jnsgd1na2vs0mg"},{"bike_id":"e960ac30-070e-494a-a9c1-effafcd9c6f4","system_id":"levelo_inurba_marseille","lat":43.29478,"lon":5.39591,"is_reserved":false,"is_disabled":false,"rental_uris":{"android":"levelo://app?vid=e960ac30-070e-494a-a9c1-effafcd9c6f4","ios":"levelo://app?vid=e960ac30-070e-494a-a9c1-effafcd9c6f4"},"vehicle_type_id":"4","last_reported":1730495322,"current_range_meters":11200,"station_id":"","pricing_plan_id":"cebpf4jnsgd1na2vs0mg"},{"bike_id":"8ea22335-1d23-4c13-aee7-41cbb56a8a2a","system_id":"levelo_inurba_marseille","lat":43.29095,"lon":5.38136,"is_reserved":false,"is_disabled":false,"rental_uris":{"android":"levelo://app?vid=8ea22335-1d23-4c13-aee7-41cbb56a8a2a","ios":"levelo://app?vid=8ea22335-1d23-4c13-aee7-41cbb56a8a2a"},"vehicle_type_id":"4","last_reported":1730495322,"current_range_meters":38800,"station_id":"ce4bh512rcd13ifvqe2g","pricing_plan_id":"cebpf4jnsgd1na2vs0mg"},{"bike_id":"42e6a38b-497b-4aaa-9f26-715348d3e683","system_id":"levelo_inurba_marseille","lat":43.30469,"lon":5.37904,"is_reserved":false,"is_disabled":false,"rental_uris":{"android":"levelo://app?vid=42e6a38b-497b-4aaa-9f26-715348d3e683","ios":"levelo://app?vid=42e6a38b-497b-4aaa-9f26-715348d3e683"},"vehicle_type_id":"4","last_reported":1730495322,"current_range_meters":30400,"station_id":"ce4bgup2rcd13ifvqcn0","pricing_plan_id":"cebpf4jnsgd1na2vs0mg"},{"bike_id":"bfb8e405-eb7b-4548-a670-2fa367f22334","system_id":"levelo_inurba_marseille","lat":43.26938,"lon":5.38916,"is_reserved":false,"is_disabled":false,"rental_uris":{"android":"levelo://app?vid=bfb8e405-eb7b-4548-a670-2fa367f22334","ios":"levelo://app?vid=bfb8e405-eb7b-4548-a670-2fa367f22334"},"vehicle_type_id":"4","last_reported":1730495322,"current_range_meters":32000,"station_id":"ce4bhhh2rcd13ifvqfl0","pricing_plan_id":"cebpf4jnsgd1na2vs0mg"},{"bike_id":"a14e2691-daf5-491c-b98d-f73686dec4fa","system_id":"levelo_inurba_marseille","lat":43.286438,"lon":5.386722,"is_reserved":false,"is_disabled":false,"rental_uris":{"android":"levelo://app?vid=a14e2691-daf5-491c-b98d-f73686dec4fa","ios":"levelo://app?vid=a14e2691-daf5-491c-b98d-f73686dec4fa"},"vehicle_type_id":"4","last_reported":1730495322,"current_range_meters":28800,"station_id":"ce4bh492rcd13ifvqdug","pricing_plan_id":"cebpf4jnsgd1na2vs0mg"},{"bike_id":"d69eef29-33f1-400b-9dbd-e583b4f600d8","system_id":"levelo_inurba_marseille","lat":43.246562,"lon":5.388918,"is_reserved":false,"is_disabled":false,"rental_uris":{"android":"levelo://app?vid=d69eef29-33f1-400b-9dbd-e583b4f600d8","ios":"levelo://app?vid=d69eef29-33f1-400b-9dbd-e583b4f600d8"},"vehicle_type_id":"4","last_reported":1730495322,"current_range_meters":30000,"station_id":"ce4bhg12rcd13ifvqf60","pricing_plan_id":"cebpf4jnsgd1na2vs0mg"},{"bike_id":"bd4e2b20-1aa1-479f-bd96-ad4e0572a62c","system_id":"levelo_inurba_marseille","lat":43.32481,"lon":5.36578,"is_reserved":false,"is_disabled":false,"rental_uris":{"android":"levelo://app?vid=bd4e2b20-1aa1-479f-bd96-ad4e0572a62c","ios":"levelo://app?vid=bd4e2b20-1aa1-479f-bd96-ad4e0572a62c"},"vehicle_type_id":"4","last_reported":1730495322,"current_range_meters":28400,"station_id":"ce4bhs12rcd13ifvqhvg","pricing_plan_id":"cebpf4jnsgd1na2vs0mg"},{"bike_id":"f2ffe1b8-2071-4e33-a120-1fd76cb0393a","system_id":"levelo_inurba_marseille","lat":43.30148,"lon":5.37412,"is_reserved":false,"is_disabled":false,"rental_uris":{"android":"levelo://app?vid=f2ffe1b8-2071-4e33-a120-1fd76cb0393a","ios":"levelo://app?vid=f2ffe1b8-2071-4e33-a120-1fd76cb0393a"},"vehicle_type_id":"4","last_reported":1730495322,"current_range_meters":38400,"station_id":"ce4bgs92rcd13ifvqcc0","pricing_plan_id":"cebpf4jnsgd1na2vs0mg"},{"bike_id":"2749a0d0-f853-40f1-94a4-905f9c1a5e39","system_id":"levelo_inurba_marseille","lat":43.28723,"lon":5.37923,"is_reserved":false,"is_disabled":false,"rental_uris":{"android":"levelo://app?vid=2749a0d0-f853-40f1-94a4-905f9c1a5e39","ios":"levelo://app?vid=2749a0d0-f853-40f1-94a4-905f9c1a5e39"},"vehicle_type_id":"4","last_reported":1730495322,"current_range_meters":38800,"station_id":"ce4bh9p2rcd13ifvqec0","pricing_plan_id":"cebpf4jnsgd1na2vs0mg"},{"bike_id":"66047545-0fb8-424f-9043-6c30d457954a","system_id":"levelo_inurba_marseille","lat":43.3093,"lon":5.40141,"is_reserved":false,"is_disabled":false,"rental_uris":{"android":"levelo://app?vid=66047545-0fb8-424f-9043-6c30d457954a","ios":"levelo://app?vid=66047545-0fb8-424f-9043-6c30d457954a"},"vehicle_type_id":"4","last_reported":1730495322,"current_range_meters":13600,"station_id":"ce4bgvp2rcd13ifvqct0","pricing_plan_id":"cebpf4jnsgd1na2vs0mg"},{"bike_id":"e6aba558-352b-4e07-9ae4-933239694508","system_id":"levelo_inurba_marseille","lat":43.3035,"lon":5.41874,"is_reserved":false,"is_disabled":false,"rental_uris":{"android":"levelo://app?vid=e6aba558-352b-4e07-9ae4-933239694508","ios":"levelo://app?vid=e6aba558-352b-4e07-9ae4-933239694508"},"vehicle_type_id":"4","last_reported":1730495322,"current_range_meters":31200,"station_id":"ce4bhop2rcd13ifvqh7g","pricing_plan_id":"cebpf4jnsgd1na2vs0mg"},{"bike_id":"8df2a536-85e2-4625-b049-08d00f519928","system_id":"levelo_inurba_marseille","lat":43.28969,"lon":5.37837,"is_reserved":false,"is_disabled":false,"rental_uris":{"android":"levelo://app?vid=8df2a536-85e2-4625-b049-08d00f519928","ios":"levelo://app?vid=8df2a536-85e2-4625-b049-08d00f519928"},"vehicle_type_id":"4","last_reported":1730495322,"current_range_meters":38800,"station_id":"ce4bh9p2rcd13ifvqed0","pricing_plan_id":"cebpf4jnsgd1na2vs0mg"},{"bike_id":"8e03cbf0-6e85-4204-b689-62114c04dc75","system_id":"levelo_inurba_marseille","lat":43.2871,"lon":5.39973,"is_reserved":false,"is_disabled":false,"rental_uris":{"android":"levelo://app?vid=8e03cbf0-6e85-4204-b689-62114c04dc75","ios":"levelo://app?vid=8e03cbf0-6e85-4204-b689-62114c04dc75"},"vehicle_type_id":"4","last_reported":1730495322,"current_range_meters":22000,"station_id":"ce4bho92rcd13ifvqh3g","pricing_plan_id":"cebpf4jnsgd1na2vs0mg"},{"bike_id":"50ab6d02-5cf7-4ab5-a9ca-83d9edd20f3f","system_id":"levelo_inurba_marseille","lat":43.302643,"lon":5.400832,"is_reserved":false,"is_disabled":false,"rental_uris":{"android":"levelo://app?vid=50ab6d02-5cf7-4ab5-a9ca-83d9edd20f3f","ios":"levelo://app?vid=50ab6d02-5cf7-4ab5-a9ca-83d9edd20f3f"},"vehicle_type_id":"4","last_reported":1730495322,"current_range_meters":16400,"station_id":"ce4bgvh2rcd13ifvqcs0","pricing_plan_id":"cebpf4jnsgd1na2vs0mg"},{"bike_id":"658dacf4-7ef3-4634-8126-9bbd88e5a6eb","system_id":"levelo_inurba_marseille","lat":43.23207,"lon":5.35546,"is_reserved":false,"is_disabled":false,"rental_uris":{"android":"levelo://app?vid=658dacf4-7ef3-4634-8126-9bbd88e5a6eb","ios":"levelo://app?vid=658dacf4-7ef3-4634-8126-9bbd88e5a6eb"},"vehicle_type_id":"4","last_reported":1730495322,"current_range_meters":23200,"station_id":"ce4bhu92rcd13ifvqi70","pricing_plan_id":"cebpf4jnsgd1na2vs0mg"},{"bike_id":"b98cfd7f-acdf-400e-bf8f-9132b0f74693","system_id":"levelo_inurba_marseille","lat":43.28106,"lon":5.37834,"is_reserved":false,"is_disabled":false,"rental_uris":{"android":"levelo://app?vid=b98cfd7f-acdf-400e-bf8f-9132b0f74693","ios":"levelo://app?vid=b98cfd7f-acdf-400e-bf8f-9132b0f74693"},"vehicle_type_id":"4","last_reported":1730495322,"current_range_meters":28800,"station_id":"ce4bha12rcd13ifvqee0","pricing_plan_id":"cebpf4jnsgd1na2vs0mg"},{"bike_id":"e62e38a9-284c-4b15-bfe8-8b214b98f04b","system_id":"levelo_inurba_marseille","lat":43.23059,"lon":5.35492,"is_reserved":false,"is_disabled":false,"rental_uris":{"android":"levelo://app?vid=e62e38a9-284c-4b15-bfe8-8b214b98f04b","ios":"levelo://app?vid=e62e38a9-284c-4b15-bfe8-8b214b98f04b"},"vehicle_type_id":"4","last_reported":1730495322,"current_range_meters":25200,"station_id":"cpo3342slgdg3j2ifvpg","pricing_plan_id":"cebpf4jnsgd1na2vs0mg"},{"bike_id":"8467fedf-7c26-41e5-8c2d-54535cb434fe","system_id":"levelo_inurba_marseille","lat":43.29038,"lon":5.38636,"is_reserved":false,"is_disabled":false,"rental_uris":{"android":"levelo://app?vid=8467fedf-7c26-41e5-8c2d-54535cb434fe","ios":"levelo://app?vid=8467fedf-7c26-41e5-8c2d-54535cb434fe"},"vehicle_type_id":"4","last_reported":1730495322,"current_range_meters":20400,"station_id":"ce4bh4p2rcd13ifvqe0g","pricing_plan_id":"cebpf4jnsgd1na2vs0mg"},{"bike_id":"54c851ab-23d2-4aa5-b3b1-52c639b79f0a","system_id":"levelo_inurba_marseille","lat":43.25823,"lon":5.39436,"is_reserved":false,"is_disabled":false,"rental_uris":{"android":"levelo://app?vid=54c851ab-23d2-4aa5-b3b1-52c639b79f0a","ios":"levelo://app?vid=54c851ab-23d2-4aa5-b3b1-52c639b79f0a"},"vehicle_type_id":"4","last_reported":1730495322,"current_range_meters":36400,"station_id":"ce4bhip2rcd13ifvqft0","pricing_plan_id":"cebpf4jnsgd1na2vs0mg"},{"bike_id":"a3120b9d-7f7c-489b-bd2d-43eea791cd04","system_id":"levelo_inurba_marseille","lat":43.29917,"lon":5.37485,"is_reserved":false,"is_disabled":false,"rental_uris":{"android":"levelo://app?vid=a3120b9d-7f7c-489b-bd2d-43eea791cd04","ios":"levelo://app?vid=a3120b9d-7f7c-489b-bd2d-43eea791cd04"},"vehicle_type_id":"4","last_reported":1730495322,"current_range_meters":22000,"station_id":"ce4bgjh2rcd13ifvqbg0","pricing_plan_id":"cebpf4jnsgd1na2vs0mg"},{"bike_id":"aad83483-aaa8-43f3-b586-ce82558627fc","system_id":"levelo_inurba_marseille","lat":43.30303,"lon":5.39206,"is_reserved":false,"is_disabled":false,"rental_uris":{"android":"levelo://app?vid=aad83483-aaa8-43f3-b586-ce82558627fc","ios":"levelo://app?vid=aad83483-aaa8-43f3-b586-ce82558627fc"},"vehicle_type_id":"4","last_reported":1730495322,"current_range_meters":38000,"station_id":"ce4bgkh2rcd13ifvqbk0","pricing_plan_id":"cebpf4jnsgd1na2vs0mg"},{"bike_id":"cd647baf-15b6-43ed-97ca-5c0e420cadab","system_id":"levelo_inurba_marseille","lat":43.3015,"lon":5.37424,"is_reserved":false,"is_disabled":false,"rental_uris":{"android":"levelo://app?vid=cd647baf-15b6-43ed-97ca-5c0e420cadab","ios":"levelo://app?vid=cd647baf-15b6-43ed-97ca-5c0e420cadab"},"vehicle_type_id":"4","last_reported":1730495322,"current_range_meters":38000,"station_id":"ce4bgs92rcd13ifvqcc0","pricing_plan_id":"cebpf4jnsgd1na2vs0mg"},{"bike_id":"86f44375-cadc-4042-b64e-bfab9307d295","system_id":"levelo_inurba_marseille","lat":43.29562,"lon":5.39973,"is_reserved":false,"is_disabled":false,"rental_uris":{"android":"levelo://app?vid=86f44375-cadc-4042-b64e-bfab9307d295","ios":"levelo://app?vid=86f44375-cadc-4042-b64e-bfab9307d295"},"vehicle_type_id":"4","last_reported":1730495322,"current_range_meters":2800,"station_id":"ce4bh312rcd13ifvqdj0","pricing_plan_id":"cebpf4jnsgd1na2vs0mg"},{"bike_id":"b0d0f0bb-42ff-4ebf-8686-64832137c359","system_id":"levelo_inurba_marseille","lat":43.29033,"lon":5.38136,"is_reserved":false,"is_disabled":false,"rental_uris":{"android":"levelo://app?vid=b0d0f0bb-42ff-4ebf-8686-64832137c359","ios":"levelo://app?vid=b0d0f0bb-42ff-4ebf-8686-64832137c359"},"vehicle_type_id":"4","last_reported":1730495322,"current_range_meters":36400,"station_id":"ce4bh4p2rcd13ifvqe1g","pricing_plan_id":"cebpf4jnsgd1na2vs0mg"},{"bike_id":"b890158d-4cc0-42ea-b1b1-cf934d08cc8a","system_id":"levelo_inurba_marseille","lat":43.32363,"lon":5.38885,"is_reserved":false,"is_disabled":false,"rental_uris":{"android":"levelo://app?vid=b890158d-4cc0-42ea-b1b1-cf934d08cc8a","ios":"levelo://app?vid=b890158d-4cc0-42ea-b1b1-cf934d08cc8a"},"vehicle_type_id":"4","last_reported":1730495322,"current_range_meters":30800,"station_id":"ce4bhqp2rcd13ifvqhog","pricing_plan_id":"cebpf4jnsgd1na2vs0mg"},{"bike_id":"fe9625bd-3854-4eec-a593-8fa0f2878c84","system_id":"levelo_inurba_marseille","lat":43.29541,"lon":5.38537,"is_reserved":false,"is_disabled":false,"rental_uris":{"android":"levelo://app?vid=fe9625bd-3854-4eec-a593-8fa0f2878c84","ios":"levelo://app?vid=fe9625bd-3854-4eec-a593-8fa0f2878c84"},"vehicle_type_id":"4","last_reported":1730495322,"current_range_meters":16000,"station_id":"ce4bgih2rcd13ifvqba0","pricing_plan_id":"cebpf4jnsgd1na2vs0mg"},{"bike_id":"5dfc5511-3b28-411a-bc77-7d913f352b0b","system_id":"levelo_inurba_marseille","lat":43.28939,"lon":5.36647,"is_reserved":false,"is_disabled":false,"rental_uris":{"android":"levelo://app?vid=5dfc5511-3b28-411a-bc77-7d913f352b0b","ios":"levelo://app?vid=5dfc5511-3b28-411a-bc77-7d913f352b0b"},"vehicle_type_id":"4","last_reported":1730495322,"current_range_meters":25600,"station_id":"ce4bhap2rcd13ifvqek0","pricing_plan_id":"cebpf4jnsgd1na2vs0mg"},{"bike_id":"569b0fbe-ed72-417d-9e56-1ca18cf64965","system_id":"levelo_inurba_marseille","lat":43.296996,"lon":5.361476,"is_reserved":false,"is_disabled":false,"rental_uris":{"android":"levelo://app?vid=569b0fbe-ed72-417d-9e56-1ca18cf64965","ios":"levelo://app?vid=569b0fbe-ed72-417d-9e56-1ca18cf64965"},"vehicle_type_id":"4","last_reported":1730495322,"current_range_meters":35200,"station_id":"","pricing_plan_id":"cebpf4jnsgd1na2vs0mg"},{"bike_id":"07039837-b8c2-46fc-82a9-b7f62cec4c36","system_id":"levelo_inurba_marseille","lat":43.29613,"lon":5.38084,"is_reserved":false,"is_disabled":false,"rental_uris":{"android":"levelo://app?vid=07039837-b8c2-46fc-82a9-b7f62cec4c36","ios":"levelo://app?vid=07039837-b8c2-46fc-82a9-b7f62cec4c36"},"vehicle_type_id":"4","last_reported":1730495322,"current_range_meters":28000,"station_id":"ce4bgl12rcd13ifvqbo0","pricing_plan_id":"cebpf4jnsgd1na2vs0mg"},{"bike_id":"4ef7406c-5a16-46ab-a436-1393c8ea05d6","system_id":"levelo_inurba_marseille","lat":43.29627,"lon":5.37163,"is_reserved":false,"is_disabled":false,"rental_uris":{"android":"levelo://app?vid=4ef7406c-5a16-46ab-a436-1393c8ea05d6","ios":"levelo://app?vid=4ef7406c-5a16-46ab-a436-1393c8ea05d6"},"vehicle_type_id":"4","last_reported":1730495322,"current_range_meters":32800,"station_id":"ce4bgnh2rcd13ifvqc0g","pricing_plan_id":"cebpf4jnsgd1na2vs0mg"},{"bike_id":"b4b58156-f669-4b54-a627-5a04c57be327","system_id":"levelo_inurba_marseille","lat":43.306392,"lon":5.400862,"is_reserved":false,"is_disabled":false,"rental_uris":{"android":"levelo://app?vid=b4b58156-f669-4b54-a627-5a04c57be327","ios":"levelo://app?vid=b4b58156-f669-4b54-a627-5a04c57be327"},"vehicle_type_id":"4","last_reported":1730495322,"current_range_meters":8800,"station_id":"ce4bh112rcd13ifvqda0","pricing_plan_id":"cebpf4jnsgd1na2vs0mg"},{"bike_id":"fa7676c1-2639-4b99-bd6e-8a5d76a8230f","system_id":"levelo_inurba_marseille","lat":43.29096,"lon":5.38156,"is_reserved":false,"is_disabled":false,"rental_uris":{"android":"levelo://app?vid=fa7676c1-2639-4b99-bd6e-8a5d76a8230f","ios":"levelo://app?vid=fa7676c1-2639-4b99-bd6e-8a5d76a8230f"},"vehicle_type_id":"4","last_reported":1730495322,"current_range_meters":20400,"station_id":"ce4bh512rcd13ifvqe2g","pricing_plan_id":"cebpf4jnsgd1na2vs0mg"},{"bike_id":"d4aeb6e5-cd6b-4b56-bb5a-70ff11bc4e45","system_id":"levelo_inurba_marseille","lat":43.32501,"lon":5.36554,"is_reserved":false,"is_disabled":false,"rental_uris":{"android":"levelo://app?vid=d4aeb6e5-cd6b-4b56-bb5a-70ff11bc4e45","ios":"levelo://app?vid=d4aeb6e5-cd6b-4b56-bb5a-70ff11bc4e45"},"vehicle_type_id":"4","last_reported":1730495322,"current_range_meters":22800,"station_id":"ce4bhs12rcd13ifvqhvg","pricing_plan_id":"cebpf4jnsgd1na2vs0mg"},{"bike_id":"ae6438f8-57ee-43d4-8e49-35f050ba43cc","system_id":"levelo_inurba_marseille","lat":43.29261,"lon":5.38431,"is_reserved":false,"is_disabled":false,"rental_uris":{"android":"levelo://app?vid=ae6438f8-57ee-43d4-8e49-35f050ba43cc","ios":"levelo://app?vid=ae6438f8-57ee-43d4-8e49-35f050ba43cc"},"vehicle_type_id":"4","last_reported":1730495322,"current_range_meters":30400,"station_id":"ce4bh692rcd13ifvqea0","pricing_plan_id":"cebpf4jnsgd1na2vs0mg"},{"bike_id":"bfab254b-dda0-49c5-ae2e-902568de5a52","system_id":"levelo_inurba_marseille","lat":43.25109,"lon":5.40331,"is_reserved":false,"is_disabled":false,"rental_uris":{"android":"levelo://app?vid=bfab254b-dda0-49c5-ae2e-902568de5a52","ios":"levelo://app?vid=bfab254b-dda0-49c5-ae2e-902568de5a52"},"vehicle_type_id":"4","last_reported":1730495322,"current_range_meters":9600,"station_id":"ce4bhlh2rcd13ifvqgig","pricing_plan_id":"cebpf4jnsgd1na2vs0mg"},{"bike_id":"684e53ea-47d2-4e3e-84f1-259c837e20c0","system_id":"levelo_inurba_marseille","lat":43.29037,"lon":5.37569,"is_reserved":false,"is_disabled":false,"rental_uris":{"android":"levelo://app?vid=684e53ea-47d2-4e3e-84f1-259c837e20c0","ios":"levelo://app?vid=684e53ea-47d2-4e3e-84f1-259c837e20c0"},"vehicle_type_id":"4","last_reported":1730495322,"current_range_meters":10800,"station_id":"ce4bh692rcd13ifvqe90","pricing_plan_id":"cebpf4jnsgd1na2vs0mg"},{"bike_id":"9b3cdd1c-31e2-45e9-a347-f5de25356952","system_id":"levelo_inurba_marseille","lat":43.29417,"lon":5.38613,"is_reserved":false,"is_disabled":false,"rental_uris":{"android":"levelo://app?vid=9b3cdd1c-31e2-45e9-a347-f5de25356952","ios":"levelo://app?vid=9b3cdd1c-31e2-45e9-a347-f5de25356952"},"vehicle_type_id":"4","last_reported":1730495322,"current_range_meters":38800,"station_id":"ce4bh2h2rcd13ifvqdh0","pricing_plan_id":"cebpf4jnsgd1na2vs0mg"},{"bike_id":"b9dae35d-f9f9-4405-947e-479a57dd0f89","system_id":"levelo_inurba_marseille","lat":43.2886,"lon":5.35853,"is_reserved":false,"is_disabled":false,"rental_uris":{"android":"levelo://app?vid=b9dae35d-f9f9-4405-947e-479a57dd0f89","ios":"levelo://app?vid=b9dae35d-f9f9-4405-947e-479a57dd0f89"},"vehicle_type_id":"4","last_reported":1730495322,"current_range_meters":38800,"station_id":"ce4bhb12rcd13ifvqem0","pricing_plan_id":"cebpf4jnsgd1na2vs0mg"},{"bike_id":"452c6601-2526-479d-ae4a-e12c2a5d0c39","system_id":"levelo_inurba_marseille","lat":43.29043,"lon":5.35912,"is_reserved":false,"is_disabled":false,"rental_uris":{"android":"levelo://app?vid=452c6601-2526-479d-ae4a-e12c2a5d0c39","ios":"levelo://app?vid=452c6601-2526-479d-ae4a-e12c2a5d0c39"},"vehicle_type_id":"4","last_reported":1730495322,"current_range_meters":38800,"station_id":"ce4bha92rcd13ifvqeg0","pricing_plan_id":"cebpf4jnsgd1na2vs0mg"},{"bike_id":"016a4bf1-781c-43c3-9a9e-b42149c36362","system_id":"levelo_inurba_marseille","lat":43.28344,"lon":5.38094,"is_reserved":false,"is_disabled":false,"rental_uris":{"android":"levelo://app?vid=016a4bf1-781c-43c3-9a9e-b42149c36362","ios":"levelo://app?vid=016a4bf1-781c-43c3-9a9e-b42149c36362"},"vehicle_type_id":"4","last_reported":1730495322,"current_range_meters":7200,"station_id":"ce4bh412rcd13ifvqdr0","pricing_plan_id":"cebpf4jnsgd1na2vs0mg"},{"bike_id":"aed0ab11-593c-4f66-9fdb-ade6c06d5a2a","system_id":"levelo_inurba_marseille","lat":43.28938,"lon":5.39627,"is_reserved":false,"is_disabled":false,"rental_uris":{"android":"levelo://app?vid=aed0ab11-593c-4f66-9fdb-ade6c06d5a2a","ios":"levelo://app?vid=aed0ab11-593c-4f66-9fdb-ade6c06d5a2a"},"vehicle_type_id":"4","last_reported":1730495322,"current_range_meters":10800,"station_id":"ce4bh3h2rcd13ifvqdn0","pricing_plan_id":"cebpf4jnsgd1na2vs0mg"},{"bike_id":"91f7493f-832e-4490-ab02-f3bd3a59805d","system_id":"levelo_inurba_marseille","lat":43.28467,"lon":5.35882,"is_reserved":false,"is_disabled":false,"rental_uris":{"android":"levelo://app?vid=91f7493f-832e-4490-ab02-f3bd3a59805d","ios":"levelo://app?vid=91f7493f-832e-4490-ab02-f3bd3a59805d"},"vehicle_type_id":"4","last_reported":1730495322,"current_range_meters":38800,"station_id":"ce4bhah2rcd13ifvqei0","pricing_plan_id":"cebpf4jnsgd1na2vs0mg"},{"bike_id":"ed76bf04-1187-4ffc-9c85-4ac8055eee79","system_id":"levelo_inurba_marseille","lat":43.32655,"lon":5.40998,"is_reserved":false,"is_disabled":false,"rental_uris":{"android":"levelo://app?vid=ed76bf04-1187-4ffc-9c85-4ac8055eee79","ios":"levelo://app?vid=ed76bf04-1187-4ffc-9c85-4ac8055eee79"},"vehicle_type_id":"4","last_reported":1730495322,"current_range_meters":8400,"station_id":"ce4bhpp2rcd13ifvqhgg","pricing_plan_id":"cebpf4jnsgd1na2vs0mg"},{"bike_id":"2d7de978-fe7a-4748-bce2-9b270b74d3a7","system_id":"levelo_inurba_marseille","lat":43.28107,"lon":5.37839,"is_reserved":false,"is_disabled":false,"rental_uris":{"android":"levelo://app?vid=2d7de978-fe7a-4748-bce2-9b270b74d3a7","ios":"levelo://app?vid=2d7de978-fe7a-4748-bce2-9b270b74d3a7"},"vehicle_type_id":"4","last_reported":1730495322,"current_range_meters":37600,"station_id":"ce4bha12rcd13ifvqee0","pricing_plan_id":"cebpf4jnsgd1na2vs0mg"},{"bike_id":"486c6719-a1fb-4588-88f5-61fae20701f0","system_id":"levelo_inurba_marseille","lat":43.31489,"lon":5.37305,"is_reserved":false,"is_disabled":false,"rental_uris":{"android":"levelo://app?vid=486c6719-a1fb-4588-88f5-61fae20701f0","ios":"levelo://app?vid=486c6719-a1fb-4588-88f5-61fae20701f0"},"vehicle_type_id":"4","last_reported":1730495322,"current_range_meters":20000,"station_id":"ce4bgt12rcd13ifvqcd0","pricing_plan_id":"cebpf4jnsgd1na2vs0mg"},{"bike_id":"b0176a28-527c-42b9-b750-f1dad8510223","system_id":"levelo_inurba_marseille","lat":43.29741,"lon":5.3742,"is_reserved":false,"is_disabled":false,"rental_uris":{"android":"levelo://app?vid=b0176a28-527c-42b9-b750-f1dad8510223","ios":"levelo://app?vid=b0176a28-527c-42b9-b750-f1dad8510223"},"vehicle_type_id":"4","last_reported":1730495322,"current_range_meters":32400,"station_id":"","pricing_plan_id":"cebpf4jnsgd1na2vs0mg"},{"bike_id":"4dc4243b-561d-4d61-a556-a9023b476fcb","system_id":"levelo_inurba_marseille","lat":43.29417,"lon":5.3862,"is_reserved":false,"is_disabled":false,"rental_uris":{"android":"levelo://app?vid=4dc4243b-561d-4d61-a556-a9023b476fcb","ios":"levelo://app?vid=4dc4243b-561d-4d61-a556-a9023b476fcb"},"vehicle_type_id":"4","last_reported":1730495322,"current_range_meters":34800,"station_id":"ce4bh2h2rcd13ifvqdh0","pricing_plan_id":"cebpf4jnsgd1na2vs0mg"},{"bike_id":"15097f61-a1d7-4b0b-80aa-883f8eebec37","system_id":"levelo_inurba_marseille","lat":43.30593,"lon":5.39351,"is_reserved":false,"is_disabled":false,"rental_uris":{"android":"levelo://app?vid=15097f61-a1d7-4b0b-80aa-883f8eebec37","ios":"levelo://app?vid=15097f61-a1d7-4b0b-80aa-883f8eebec37"},"vehicle_type_id":"4","last_reported":1730495322,"current_range_meters":38800,"station_id":"ce4bh0p2rcd13ifvqd80","pricing_plan_id":"cebpf4jnsgd1na2vs0mg"},{"bike_id":"32ecf263-5118-4aa2-bd7d-ee179da65313","system_id":"levelo_inurba_marseille","lat":43.2681,"lon":5.39443,"is_reserved":false,"is_disabled":false,"rental_uris":{"android":"levelo://app?vid=32ecf263-5118-4aa2-bd7d-ee179da65313","ios":"levelo://app?vid=32ecf263-5118-4aa2-bd7d-ee179da65313"},"vehicle_type_id":"4","last_reported":1730495322,"current_range_meters":38800,"station_id":"ce4bhh12rcd13ifvqfg0","pricing_plan_id":"cebpf4jnsgd1na2vs0mg"},{"bike_id":"a4de29bb-1d70-40a6-bd33-383183bead72","system_id":"levelo_inurba_marseille","lat":43.29421,"lon":5.3861,"is_reserved":false,"is_disabled":false,"rental_uris":{"android":"levelo://app?vid=a4de29bb-1d70-40a6-bd33-383183bead72","ios":"levelo://app?vid=a4de29bb-1d70-40a6-bd33-383183bead72"},"vehicle_type_id":"4","last_reported":1730495322,"current_range_meters":38800,"station_id":"ce4bh2h2rcd13ifvqdh0","pricing_plan_id":"cebpf4jnsgd1na2vs0mg"},{"bike_id":"fdf0a95f-b1be-48cb-b73f-1dfd8facccc0","system_id":"levelo_inurba_marseille","lat":43.28934,"lon":5.36639,"is_reserved":false,"is_disabled":false,"rental_uris":{"android":"levelo://app?vid=fdf0a95f-b1be-48cb-b73f-1dfd8facccc0","ios":"levelo://app?vid=fdf0a95f-b1be-48cb-b73f-1dfd8facccc0"},"vehicle_type_id":"4","last_reported":1730495322,"current_range_meters":32000,"station_id":"ce4bhap2rcd13ifvqek0","pricing_plan_id":"cebpf4jnsgd1na2vs0mg"},{"bike_id":"61832802-950c-47d6-8f64-f2e959a32902","system_id":"levelo_inurba_marseille","lat":43.2942,"lon":5.38627,"is_reserved":false,"is_disabled":false,"rental_uris":{"android":"levelo://app?vid=61832802-950c-47d6-8f64-f2e959a32902","ios":"levelo://app?vid=61832802-950c-47d6-8f64-f2e959a32902"},"vehicle_type_id":"4","last_reported":1730495322,"current_range_meters":3200,"station_id":"ce4bh2h2rcd13ifvqdh0","pricing_plan_id":"cebpf4jnsgd1na2vs0mg"},{"bike_id":"25efdd14-e5a3-4f02-a8ea-e62e3c219fa3","system_id":"levelo_inurba_marseille","lat":43.28164,"lon":5.4265,"is_reserved":false,"is_disabled":false,"rental_uris":{"android":"levelo://app?vid=25efdd14-e5a3-4f02-a8ea-e62e3c219fa3","ios":"levelo://app?vid=25efdd14-e5a3-4f02-a8ea-e62e3c219fa3"},"vehicle_type_id":"4","last_reported":1730495322,"current_range_meters":38800,"station_id":"ce4bhnh2rcd13ifvqgug","pricing_plan_id":"cebpf4jnsgd1na2vs0mg"},{"bike_id":"e1610605-5756-4123-907e-88ebe2cdf2d8","system_id":"levelo_inurba_marseille","lat":43.29039,"lon":5.38646,"is_reserved":false,"is_disabled":false,"rental_uris":{"android":"levelo://app?vid=e1610605-5756-4123-907e-88ebe2cdf2d8","ios":"levelo://app?vid=e1610605-5756-4123-907e-88ebe2cdf2d8"},"vehicle_type_id":"4","last_reported":1730495322,"current_range_meters":33600,"station_id":"ce4bh4p2rcd13ifvqe0g","pricing_plan_id":"cebpf4jnsgd1na2vs0mg"},{"bike_id":"18402065-9e87-476b-95ad-30853de181a0","system_id":"levelo_inurba_marseille","lat":43.32458,"lon":5.45552,"is_reserved":false,"is_disabled":false,"rental_uris":{"android":"levelo://app?vid=18402065-9e87-476b-95ad-30853de181a0","ios":"levelo://app?vid=18402065-9e87-476b-95ad-30853de181a0"},"vehicle_type_id":"4","last_reported":1730495322,"current_range_meters":10000,"station_id":"","pricing_plan_id":"cebpf4jnsgd1na2vs0mg"},{"bike_id":"e3bbd86b-867d-4a71-ad09-6911756eb59e","system_id":"levelo_inurba_marseille","lat":43.29423,"lon":5.38625,"is_reserved":false,"is_disabled":false,"rental_uris":{"android":"levelo://app?vid=e3bbd86b-867d-4a71-ad09-6911756eb59e","ios":"levelo://app?vid=e3bbd86b-867d-4a71-ad09-6911756eb59e"},"vehicle_type_id":"4","last_reported":1730495322,"current_range_meters":34000,"station_id":"ce4bh2h2rcd13ifvqdh0","pricing_plan_id":"cebpf4jnsgd1na2vs0mg"},{"bike_id":"f6fac059-fe85-4d7a-8ea9-001b079724c7","system_id":"levelo_inurba_marseille","lat":43.29421,"lon":5.38604,"is_reserved":false,"is_disabled":false,"rental_uris":{"android":"levelo://app?vid=f6fac059-fe85-4d7a-8ea9-001b079724c7","ios":"levelo://app?vid=f6fac059-fe85-4d7a-8ea9-001b079724c7"},"vehicle_type_id":"4","last_reported":1730495322,"current_range_meters":38400,"station_id":"ce4bh2h2rcd13ifvqdh0","pricing_plan_id":"cebpf4jnsgd1na2vs0mg"},{"bike_id":"711fc037-1485-48d1-a756-6d4246ae9cd4","system_id":"levelo_inurba_marseille","lat":43.24655,"lon":5.38898,"is_reserved":false,"is_disabled":false,"rental_uris":{"android":"levelo://app?vid=711fc037-1485-48d1-a756-6d4246ae9cd4","ios":"levelo://app?vid=711fc037-1485-48d1-a756-6d4246ae9cd4"},"vehicle_type_id":"4","last_reported":1730495322,"current_range_meters":6800,"station_id":"ce4bhg12rcd13ifvqf60","pricing_plan_id":"cebpf4jnsgd1na2vs0mg"},{"bike_id":"bcf7fd0f-8c82-4927-bce3-78aae8816f12","system_id":"levelo_inurba_marseille","lat":43.29428,"lon":5.38622,"is_reserved":false,"is_disabled":false,"rental_uris":{"android":"levelo://app?vid=bcf7fd0f-8c82-4927-bce3-78aae8816f12","ios":"levelo://app?vid=bcf7fd0f-8c82-4927-bce3-78aae8816f12"},"vehicle_type_id":"4","last_reported":1730495322,"current_range_meters":27600,"station_id":"ce4bh2h2rcd13ifvqdh0","pricing_plan_id":"cebpf4jnsgd1na2vs0mg"},{"bike_id":"10ba1237-0b94-41b7-894d-044c99e47881","system_id":"levelo_inurba_marseille","lat":43.29599,"lon":5.38105,"is_reserved":false,"is_disabled":false,"rental_uris":{"android":"levelo://app?vid=10ba1237-0b94-41b7-894d-044c99e47881","ios":"levelo://app?vid=10ba1237-0b94-41b7-894d-044c99e47881"},"vehicle_type_id":"4","last_reported":1730495322,"current_range_meters":35600,"station_id":"ce4bgl12rcd13ifvqbo0","pricing_plan_id":"cebpf4jnsgd1na2vs0mg"},{"bike_id":"05289bf4-73c4-4b4e-830b-c6a22094e995","system_id":"levelo_inurba_marseille","lat":43.2737,"lon":5.36262,"is_reserved":false,"is_disabled":false,"rental_uris":{"android":"levelo://app?vid=05289bf4-73c4-4b4e-830b-c6a22094e995","ios":"levelo://app?vid=05289bf4-73c4-4b4e-830b-c6a22094e995"},"vehicle_type_id":"4","last_reported":1730495322,"current_range_meters":19600,"station_id":"ce4bhbh2rcd13ifvqeo0","pricing_plan_id":"cebpf4jnsgd1na2vs0mg"},{"bike_id":"9e54130a-3084-46d5-a88d-7b44c836d8d6","system_id":"levelo_inurba_marseille","lat":43.26813,"lon":5.40264,"is_reserved":false,"is_disabled":false,"rental_uris":{"android":"levelo://app?vid=9e54130a-3084-46d5-a88d-7b44c836d8d6","ios":"levelo://app?vid=9e54130a-3084-46d5-a88d-7b44c836d8d6"},"vehicle_type_id":"4","last_reported":1730495322,"current_range_meters":6000,"station_id":"ce501612rcd8frsf0b60","pricing_plan_id":"cebpf4jnsgd1na2vs0mg"},{"bike_id":"003141cc-57ad-4350-872f-1e1448004c32","system_id":"levelo_inurba_marseille","lat":43.26788,"lon":5.41148,"is_reserved":false,"is_disabled":false,"rental_uris":{"android":"levelo://app?vid=003141cc-57ad-4350-872f-1e1448004c32","ios":"levelo://app?vid=003141cc-57ad-4350-872f-1e1448004c32"},"vehicle_type_id":"4","last_reported":1730495322,"current_range_meters":36800,"station_id":"","pricing_plan_id":"cebpf4jnsgd1na2vs0mg"},{"bike_id":"ef30c907-9b95-4f0a-99f1-0cbd098879ad","system_id":"levelo_inurba_marseille","lat":43.28569,"lon":5.39498,"is_reserved":false,"is_disabled":false,"rental_uris":{"android":"levelo://app?vid=ef30c907-9b95-4f0a-99f1-0cbd098879ad","ios":"levelo://app?vid=ef30c907-9b95-4f0a-99f1-0cbd098879ad"},"vehicle_type_id":"4","last_reported":1730495322,"current_range_meters":38800,"station_id":"ce4bh292rcd13ifvqdg0","pricing_plan_id":"cebpf4jnsgd1na2vs0mg"},{"bike_id":"cffa510c-a8c3-4e26-9743-eacf445e8e29","system_id":"levelo_inurba_marseille","lat":43.29301,"lon":5.37166,"is_reserved":false,"is_disabled":false,"rental_uris":{"android":"levelo://app?vid=cffa510c-a8c3-4e26-9743-eacf445e8e29","ios":"levelo://app?vid=cffa510c-a8c3-4e26-9743-eacf445e8e29"},"vehicle_type_id":"4","last_reported":1730495322,"current_range_meters":27600,"station_id":"ce4bgh92rcd13ifvqb40","pricing_plan_id":"cebpf4jnsgd1na2vs0mg"},{"bike_id":"a7d9d63e-9c3c-4965-94e0-27a78e2a9b02","system_id":"levelo_inurba_marseille","lat":43.29595,"lon":5.38102,"is_reserved":false,"is_disabled":false,"rental_uris":{"android":"levelo://app?vid=a7d9d63e-9c3c-4965-94e0-27a78e2a9b02","ios":"levelo://app?vid=a7d9d63e-9c3c-4965-94e0-27a78e2a9b02"},"vehicle_type_id":"4","last_reported":1730495322,"current_range_meters":9200,"station_id":"ce4bgl12rcd13ifvqbo0","pricing_plan_id":"cebpf4jnsgd1na2vs0mg"},{"bike_id":"3a455b1c-cf79-4309-ae45-c3e948580009","system_id":"levelo_inurba_marseille","lat":43.29025,"lon":5.38138,"is_reserved":false,"is_disabled":false,"rental_uris":{"android":"levelo://app?vid=3a455b1c-cf79-4309-ae45-c3e948580009","ios":"levelo://app?vid=3a455b1c-cf79-4309-ae45-c3e948580009"},"vehicle_type_id":"4","last_reported":1730495322,"current_range_meters":29600,"station_id":"ce4bh4p2rcd13ifvqe1g","pricing_plan_id":"cebpf4jnsgd1na2vs0mg"},{"bike_id":"c464d67e-1a73-40bd-b8bb-ad08b05c10b4","system_id":"levelo_inurba_marseille","lat":43.31286,"lon":5.40166,"is_reserved":false,"is_disabled":false,"rental_uris":{"android":"levelo://app?vid=c464d67e-1a73-40bd-b8bb-ad08b05c10b4","ios":"levelo://app?vid=c464d67e-1a73-40bd-b8bb-ad08b05c10b4"},"vehicle_type_id":"4","last_reported":1730495322,"current_range_meters":10800,"station_id":"ce4bh092rcd13ifvqd30","pricing_plan_id":"cebpf4jnsgd1na2vs0mg"},{"bike_id":"df77d774-9ddf-46df-8f6e-b7495fdeaf88","system_id":"levelo_inurba_marseille","lat":43.26783,"lon":5.3942,"is_reserved":false,"is_disabled":false,"rental_uris":{"android":"levelo://app?vid=df77d774-9ddf-46df-8f6e-b7495fdeaf88","ios":"levelo://app?vid=df77d774-9ddf-46df-8f6e-b7495fdeaf88"},"vehicle_type_id":"4","last_reported":1730495322,"current_range_meters":27600,"station_id":"ce4bhh12rcd13ifvqfg0","pricing_plan_id":"cebpf4jnsgd1na2vs0mg"},{"bike_id":"dd146168-981e-408f-b3fe-7656f2b9a9b9","system_id":"levelo_inurba_marseille","lat":43.30932,"lon":5.40138,"is_reserved":false,"is_disabled":false,"rental_uris":{"android":"levelo://app?vid=dd146168-981e-408f-b3fe-7656f2b9a9b9","ios":"levelo://app?vid=dd146168-981e-408f-b3fe-7656f2b9a9b9"},"vehicle_type_id":"4","last_reported":1730495322,"current_range_meters":27600,"station_id":"ce4bgvp2rcd13ifvqct0","pricing_plan_id":"cebpf4jnsgd1na2vs0mg"},{"bike_id":"6a973d3a-8db2-49a8-b593-4a2eaaf753c3","system_id":"levelo_inurba_marseille","lat":43.27998,"lon":5.40006,"is_reserved":false,"is_disabled":false,"rental_uris":{"android":"levelo://app?vid=6a973d3a-8db2-49a8-b593-4a2eaaf753c3","ios":"levelo://app?vid=6a973d3a-8db2-49a8-b593-4a2eaaf753c3"},"vehicle_type_id":"4","last_reported":1730495322,"current_range_meters":33200,"station_id":"ce4bho92rcd13ifvqh4g","pricing_plan_id":"cebpf4jnsgd1na2vs0mg"},{"bike_id":"8a00c37e-1b2d-46f3-b291-db5dfe98d20c","system_id":"levelo_inurba_marseille","lat":43.2781,"lon":5.40712,"is_reserved":false,"is_disabled":false,"rental_uris":{"android":"levelo://app?vid=8a00c37e-1b2d-46f3-b291-db5dfe98d20c","ios":"levelo://app?vid=8a00c37e-1b2d-46f3-b291-db5dfe98d20c"},"vehicle_type_id":"4","last_reported":1730495322,"current_range_meters":38000,"station_id":"ce4bhnh2rcd13ifvqgtg","pricing_plan_id":"cebpf4jnsgd1na2vs0mg"},{"bike_id":"cdb5d62b-5a1c-49f6-8996-0c3e606341f9","system_id":"levelo_inurba_marseille","lat":43.31223,"lon":5.36852,"is_reserved":false,"is_disabled":false,"rental_uris":{"android":"levelo://app?vid=cdb5d62b-5a1c-49f6-8996-0c3e606341f9","ios":"levelo://app?vid=cdb5d62b-5a1c-49f6-8996-0c3e606341f9"},"vehicle_type_id":"4","last_reported":1730495322,"current_range_meters":6400,"station_id":"ce4bgl92rcd13ifvqbq0","pricing_plan_id":"cebpf4jnsgd1na2vs0mg"},{"bike_id":"20fcd48e-d532-4a4e-8727-203e0c696b83","system_id":"levelo_inurba_marseille","lat":43.30139,"lon":5.38779,"is_reserved":false,"is_disabled":false,"rental_uris":{"android":"levelo://app?vid=20fcd48e-d532-4a4e-8727-203e0c696b83","ios":"levelo://app?vid=20fcd48e-d532-4a4e-8727-203e0c696b83"},"vehicle_type_id":"4","last_reported":1730495322,"current_range_meters":28800,"station_id":"ce4bghh2rcd13ifvqb60","pricing_plan_id":"cebpf4jnsgd1na2vs0mg"},{"bike_id":"05a1b52d-ed51-46c3-9c46-ad7ff8006470","system_id":"levelo_inurba_marseille","lat":43.24677,"lon":5.38167,"is_reserved":false,"is_disabled":false,"rental_uris":{"android":"levelo://app?vid=05a1b52d-ed51-46c3-9c46-ad7ff8006470","ios":"levelo://app?vid=05a1b52d-ed51-46c3-9c46-ad7ff8006470"},"vehicle_type_id":"4","last_reported":1730495322,"current_range_meters":6000,"station_id":"ce4bhih2rcd13ifvqfr0","pricing_plan_id":"cebpf4jnsgd1na2vs0mg"},{"bike_id":"627d220e-daa9-4a70-b12f-dfeb64a7a8be","system_id":"levelo_inurba_marseille","lat":43.28924,"lon":5.38404,"is_reserved":false,"is_disabled":false,"rental_uris":{"android":"levelo://app?vid=627d220e-daa9-4a70-b12f-dfeb64a7a8be","ios":"levelo://app?vid=627d220e-daa9-4a70-b12f-dfeb64a7a8be"},"vehicle_type_id":"4","last_reported":1730495322,"current_range_meters":14000,"station_id":"ce4bh612rcd13ifvqe6g","pricing_plan_id":"cebpf4jnsgd1na2vs0mg"},{"bike_id":"b18f9999-3088-4ef8-9376-9cfecad69475","system_id":"levelo_inurba_marseille","lat":43.30792,"lon":5.37644,"is_reserved":false,"is_disabled":false,"rental_uris":{"android":"levelo://app?vid=b18f9999-3088-4ef8-9376-9cfecad69475","ios":"levelo://app?vid=b18f9999-3088-4ef8-9376-9cfecad69475"},"vehicle_type_id":"4","last_reported":1730495322,"current_range_meters":24000,"station_id":"ce4bgv92rcd13ifvqcq0","pricing_plan_id":"cebpf4jnsgd1na2vs0mg"},{"bike_id":"6fe18682-cd8d-42dd-bfda-25ed8e767456","system_id":"levelo_inurba_marseille","lat":43.29418,"lon":5.38627,"is_reserved":false,"is_disabled":false,"rental_uris":{"android":"levelo://app?vid=6fe18682-cd8d-42dd-bfda-25ed8e767456","ios":"levelo://app?vid=6fe18682-cd8d-42dd-bfda-25ed8e767456"},"vehicle_type_id":"4","last_reported":1730495322,"current_range_meters":29600,"station_id":"ce4bh2h2rcd13ifvqdh0","pricing_plan_id":"cebpf4jnsgd1na2vs0mg"},{"bike_id":"181e392c-49ab-4006-ab89-c51519379775","system_id":"levelo_inurba_marseille","lat":43.28703,"lon":5.37381,"is_reserved":false,"is_disabled":false,"rental_uris":{"android":"levelo://app?vid=181e392c-49ab-4006-ab89-c51519379775","ios":"levelo://app?vid=181e392c-49ab-4006-ab89-c51519379775"},"vehicle_type_id":"4","last_reported":1730495322,"current_range_meters":38800,"station_id":"ce4bh3p2rcd13ifvqdq0","pricing_plan_id":"cebpf4jnsgd1na2vs0mg"},{"bike_id":"da41df18-469b-4027-b5c1-631e45a04f7d","system_id":"levelo_inurba_marseille","lat":43.286963,"lon":5.399889,"is_reserved":false,"is_disabled":false,"rental_uris":{"android":"levelo://app?vid=da41df18-469b-4027-b5c1-631e45a04f7d","ios":"levelo://app?vid=da41df18-469b-4027-b5c1-631e45a04f7d"},"vehicle_type_id":"4","last_reported":1730495322,"current_range_meters":8800,"station_id":"ce4bho92rcd13ifvqh3g","pricing_plan_id":"cebpf4jnsgd1na2vs0mg"},{"bike_id":"d8c8460e-88aa-4929-8b6f-75300411d6df","system_id":"levelo_inurba_marseille","lat":43.27434,"lon":5.3941,"is_reserved":false,"is_disabled":false,"rental_uris":{"android":"levelo://app?vid=d8c8460e-88aa-4929-8b6f-75300411d6df","ios":"levelo://app?vid=d8c8460e-88aa-4929-8b6f-75300411d6df"},"vehicle_type_id":"4","last_reported":1730495322,"current_range_meters":16000,"station_id":"ce4bhdp2rcd13ifvqf20","pricing_plan_id":"cebpf4jnsgd1na2vs0mg"},{"bike_id":"8514659f-9037-4496-a879-9455a8c99f43","system_id":"levelo_inurba_marseille","lat":43.29412,"lon":5.38644,"is_reserved":false,"is_disabled":false,"rental_uris":{"android":"levelo://app?vid=8514659f-9037-4496-a879-9455a8c99f43","ios":"levelo://app?vid=8514659f-9037-4496-a879-9455a8c99f43"},"vehicle_type_id":"4","last_reported":1730495322,"current_range_meters":30400,"station_id":"ce4bh2h2rcd13ifvqdh0","pricing_plan_id":"cebpf4jnsgd1na2vs0mg"},{"bike_id":"ef10497a-439b-4c81-9e9b-6c7dcb7e5450","system_id":"levelo_inurba_marseille","lat":43.28712,"lon":5.39998,"is_reserved":false,"is_disabled":false,"rental_uris":{"android":"levelo://app?vid=ef10497a-439b-4c81-9e9b-6c7dcb7e5450","ios":"levelo://app?vid=ef10497a-439b-4c81-9e9b-6c7dcb7e5450"},"vehicle_type_id":"4","last_reported":1730495322,"current_range_meters":38800,"station_id":"ce4bho92rcd13ifvqh3g","pricing_plan_id":"cebpf4jnsgd1na2vs0mg"},{"bike_id":"bbdcb840-5f6c-4490-9fd4-391fed34b525","system_id":"levelo_inurba_marseille","lat":43.27383,"lon":5.3627,"is_reserved":false,"is_disabled":false,"rental_uris":{"android":"levelo://app?vid=bbdcb840-5f6c-4490-9fd4-391fed34b525","ios":"levelo://app?vid=bbdcb840-5f6c-4490-9fd4-391fed34b525"},"vehicle_type_id":"4","last_reported":1730495322,"current_range_meters":18800,"station_id":"ce4bhbh2rcd13ifvqeo0","pricing_plan_id":"cebpf4jnsgd1na2vs0mg"},{"bike_id":"bff4d2d5-c517-49af-84bd-b3ba7cffdb4c","system_id":"levelo_inurba_marseille","lat":43.25824,"lon":5.39432,"is_reserved":false,"is_disabled":false,"rental_uris":{"android":"levelo://app?vid=bff4d2d5-c517-49af-84bd-b3ba7cffdb4c","ios":"levelo://app?vid=bff4d2d5-c517-49af-84bd-b3ba7cffdb4c"},"vehicle_type_id":"4","last_reported":1730495322,"current_range_meters":38800,"station_id":"ce4bhip2rcd13ifvqft0","pricing_plan_id":"cebpf4jnsgd1na2vs0mg"},{"bike_id":"f5b8ac0f-cd64-4677-b9a3-29759d99c053","system_id":"levelo_inurba_marseille","lat":43.24998,"lon":5.38935,"is_reserved":false,"is_disabled":false,"rental_uris":{"android":"levelo://app?vid=f5b8ac0f-cd64-4677-b9a3-29759d99c053","ios":"levelo://app?vid=f5b8ac0f-cd64-4677-b9a3-29759d99c053"},"vehicle_type_id":"4","last_reported":1730495322,"current_range_meters":37600,"station_id":"ce4bhgp2rcd13ifvqfd0","pricing_plan_id":"cebpf4jnsgd1na2vs0mg"},{"bike_id":"f88989b6-736f-446e-9c01-0be35d9db2d8","system_id":"levelo_inurba_marseille","lat":43.29594,"lon":5.381071,"is_reserved":false,"is_disabled":false,"rental_uris":{"android":"levelo://app?vid=f88989b6-736f-446e-9c01-0be35d9db2d8","ios":"levelo://app?vid=f88989b6-736f-446e-9c01-0be35d9db2d8"},"vehicle_type_id":"4","last_reported":1730495322,"current_range_meters":20400,"station_id":"ce4bgl12rcd13ifvqbo0","pricing_plan_id":"cebpf4jnsgd1na2vs0mg"},{"bike_id":"04bb0bc0-fd9d-4169-b947-9b5d9c899f23","system_id":"levelo_inurba_marseille","lat":43.28623,"lon":5.35103,"is_reserved":false,"is_disabled":false,"rental_uris":{"android":"levelo://app?vid=04bb0bc0-fd9d-4169-b947-9b5d9c899f23","ios":"levelo://app?vid=04bb0bc0-fd9d-4169-b947-9b5d9c899f23"},"vehicle_type_id":"4","last_reported":1730495322,"current_range_meters":26800,"station_id":"ce4bhch2rcd13ifvqeug","pricing_plan_id":"cebpf4jnsgd1na2vs0mg"},{"bike_id":"40093d02-6f7a-41b9-a540-1965db1c6825","system_id":"levelo_inurba_marseille","lat":43.29416,"lon":5.38644,"is_reserved":false,"is_disabled":false,"rental_uris":{"android":"levelo://app?vid=40093d02-6f7a-41b9-a540-1965db1c6825","ios":"levelo://app?vid=40093d02-6f7a-41b9-a540-1965db1c6825"},"vehicle_type_id":"4","last_reported":1730495322,"current_range_meters":10800,"station_id":"ce4bh2h2rcd13ifvqdh0","pricing_plan_id":"cebpf4jnsgd1na2vs0mg"},{"bike_id":"4aca9276-a75c-423e-b263-5d8176dc7d7b","system_id":"levelo_inurba_marseille","lat":43.30928,"lon":5.40143,"is_reserved":false,"is_disabled":false,"rental_uris":{"android":"levelo://app?vid=4aca9276-a75c-423e-b263-5d8176dc7d7b","ios":"levelo://app?vid=4aca9276-a75c-423e-b263-5d8176dc7d7b"},"vehicle_type_id":"4","last_reported":1730495322,"current_range_meters":10800,"station_id":"ce4bgvp2rcd13ifvqct0","pricing_plan_id":"cebpf4jnsgd1na2vs0mg"},{"bike_id":"8c67d340-801d-46e5-b910-2f8aff3ff078","system_id":"levelo_inurba_marseille","lat":43.33365,"lon":5.3703,"is_reserved":false,"is_disabled":false,"rental_uris":{"android":"levelo://app?vid=8c67d340-801d-46e5-b910-2f8aff3ff078","ios":"levelo://app?vid=8c67d340-801d-46e5-b910-2f8aff3ff078"},"vehicle_type_id":"4","last_reported":1730495322,"current_range_meters":14400,"station_id":"","pricing_plan_id":"cebpf4jnsgd1na2vs0mg"},{"bike_id":"83356032-baeb-401a-bdff-8adddb83ed12","system_id":"levelo_inurba_marseille","lat":43.23205,"lon":5.35547,"is_reserved":false,"is_disabled":false,"rental_uris":{"android":"levelo://app?vid=83356032-baeb-401a-bdff-8adddb83ed12","ios":"levelo://app?vid=83356032-baeb-401a-bdff-8adddb83ed12"},"vehicle_type_id":"4","last_reported":1730495322,"current_range_meters":38800,"station_id":"ce4bhu92rcd13ifvqi70","pricing_plan_id":"cebpf4jnsgd1na2vs0mg"},{"bike_id":"99dcddd5-73d7-4124-a1f1-ddf5c41415d3","system_id":"levelo_inurba_marseille","lat":43.278394,"lon":5.392072,"is_reserved":false,"is_disabled":false,"rental_uris":{"android":"levelo://app?vid=99dcddd5-73d7-4124-a1f1-ddf5c41415d3","ios":"levelo://app?vid=99dcddd5-73d7-4124-a1f1-ddf5c41415d3"},"vehicle_type_id":"4","last_reported":1730495322,"current_range_meters":24400,"station_id":"ce4bh512rcd13ifvqe3g","pricing_plan_id":"cebpf4jnsgd1na2vs0mg"},{"bike_id":"1f637570-0f64-49b2-89b8-d7c83aa69571","system_id":"levelo_inurba_marseille","lat":43.25818,"lon":5.39438,"is_reserved":false,"is_disabled":false,"rental_uris":{"android":"levelo://app?vid=1f637570-0f64-49b2-89b8-d7c83aa69571","ios":"levelo://app?vid=1f637570-0f64-49b2-89b8-d7c83aa69571"},"vehicle_type_id":"4","last_reported":1730495322,"current_range_meters":28400,"station_id":"ce4bhip2rcd13ifvqft0","pricing_plan_id":"cebpf4jnsgd1na2vs0mg"},{"bike_id":"39d42d8c-582a-43a9-b843-da3f2c4502ae","system_id":"levelo_inurba_marseille","lat":43.23443,"lon":5.35936,"is_reserved":false,"is_disabled":false,"rental_uris":{"android":"levelo://app?vid=39d42d8c-582a-43a9-b843-da3f2c4502ae","ios":"levelo://app?vid=39d42d8c-582a-43a9-b843-da3f2c4502ae"},"vehicle_type_id":"4","last_reported":1730495322,"current_range_meters":20800,"station_id":"","pricing_plan_id":"cebpf4jnsgd1na2vs0mg"},{"bike_id":"69a0d18e-0381-4102-9fad-3f8c57fc1228","system_id":"levelo_inurba_marseille","lat":43.230678,"lon":5.354928,"is_reserved":false,"is_disabled":false,"rental_uris":{"android":"levelo://app?vid=69a0d18e-0381-4102-9fad-3f8c57fc1228","ios":"levelo://app?vid=69a0d18e-0381-4102-9fad-3f8c57fc1228"},"vehicle_type_id":"4","last_reported":1730495322,"current_range_meters":38800,"station_id":"cpo3342slgdg3j2ifvpg","pricing_plan_id":"cebpf4jnsgd1na2vs0mg"},{"bike_id":"07d0df56-f8bc-46e6-871c-8e071fb175e5","system_id":"levelo_inurba_marseille","lat":43.232,"lon":5.35557,"is_reserved":false,"is_disabled":false,"rental_uris":{"android":"levelo://app?vid=07d0df56-f8bc-46e6-871c-8e071fb175e5","ios":"levelo://app?vid=07d0df56-f8bc-46e6-871c-8e071fb175e5"},"vehicle_type_id":"4","last_reported":1730495322,"current_range_meters":38800,"station_id":"ce4bhu92rcd13ifvqi70","pricing_plan_id":"cebpf4jnsgd1na2vs0mg"},{"bike_id":"d067261d-1f65-4dda-b2ae-d6541cf03bfa","system_id":"levelo_inurba_marseille","lat":43.28685,"lon":5.3865,"is_reserved":false,"is_disabled":false,"rental_uris":{"android":"levelo://app?vid=d067261d-1f65-4dda-b2ae-d6541cf03bfa","ios":"levelo://app?vid=d067261d-1f65-4dda-b2ae-d6541cf03bfa"},"vehicle_type_id":"4","last_reported":1730495322,"current_range_meters":36800,"station_id":"ce4bh492rcd13ifvqdug","pricing_plan_id":"cebpf4jnsgd1na2vs0mg"},{"bike_id":"19e6008c-0743-45ac-b4bf-fc683ef0e14c","system_id":"levelo_inurba_marseille","lat":43.25729,"lon":5.41107,"is_reserved":false,"is_disabled":false,"rental_uris":{"android":"levelo://app?vid=19e6008c-0743-45ac-b4bf-fc683ef0e14c","ios":"levelo://app?vid=19e6008c-0743-45ac-b4bf-fc683ef0e14c"},"vehicle_type_id":"4","last_reported":1730495322,"current_range_meters":28400,"station_id":"ce4bhkp2rcd13ifvqgd0","pricing_plan_id":"cebpf4jnsgd1na2vs0mg"},{"bike_id":"1a1b81d1-64e8-42f7-bb6b-bde2e2884a55","system_id":"levelo_inurba_marseille","lat":43.25866,"lon":5.39894,"is_reserved":false,"is_disabled":false,"rental_uris":{"android":"levelo://app?vid=1a1b81d1-64e8-42f7-bb6b-bde2e2884a55","ios":"levelo://app?vid=1a1b81d1-64e8-42f7-bb6b-bde2e2884a55"},"vehicle_type_id":"4","last_reported":1730495322,"current_range_meters":22000,"station_id":"ce4bhl92rcd13ifvqghg","pricing_plan_id":"cebpf4jnsgd1na2vs0mg"},{"bike_id":"c121262e-e64f-4c57-ad81-84bc1a1971e7","system_id":"levelo_inurba_marseille","lat":43.29417,"lon":5.38613,"is_reserved":false,"is_disabled":false,"rental_uris":{"android":"levelo://app?vid=c121262e-e64f-4c57-ad81-84bc1a1971e7","ios":"levelo://app?vid=c121262e-e64f-4c57-ad81-84bc1a1971e7"},"vehicle_type_id":"4","last_reported":1730495322,"current_range_meters":26000,"station_id":"ce4bh2h2rcd13ifvqdh0","pricing_plan_id":"cebpf4jnsgd1na2vs0mg"},{"bike_id":"c14abbb4-4d06-46c3-8367-d2701001bce7","system_id":"levelo_inurba_marseille","lat":43.30015,"lon":5.40039,"is_reserved":false,"is_disabled":false,"rental_uris":{"android":"levelo://app?vid=c14abbb4-4d06-46c3-8367-d2701001bce7","ios":"levelo://app?vid=c14abbb4-4d06-46c3-8367-d2701001bce7"},"vehicle_type_id":"4","last_reported":1730495322,"current_range_meters":34800,"station_id":"","pricing_plan_id":"cebpf4jnsgd1na2vs0mg"},{"bike_id":"d43eb6e6-188f-4b61-baef-2c942fc313d9","system_id":"levelo_inurba_marseille","lat":43.29527,"lon":5.38535,"is_reserved":false,"is_disabled":false,"rental_uris":{"android":"levelo://app?vid=d43eb6e6-188f-4b61-baef-2c942fc313d9","ios":"levelo://app?vid=d43eb6e6-188f-4b61-baef-2c942fc313d9"},"vehicle_type_id":"4","last_reported":1730495322,"current_range_meters":19200,"station_id":"ce4bgih2rcd13ifvqba0","pricing_plan_id":"cebpf4jnsgd1na2vs0mg"},{"bike_id":"e46bb17b-2752-4677-bb19-57747f80054d","system_id":"levelo_inurba_marseille","lat":43.30358,"lon":5.41865,"is_reserved":false,"is_disabled":false,"rental_uris":{"android":"levelo://app?vid=e46bb17b-2752-4677-bb19-57747f80054d","ios":"levelo://app?vid=e46bb17b-2752-4677-bb19-57747f80054d"},"vehicle_type_id":"4","last_reported":1730495322,"current_range_meters":36400,"station_id":"ce4bhop2rcd13ifvqh7g","pricing_plan_id":"cebpf4jnsgd1na2vs0mg"},{"bike_id":"b35737c6-49ec-46a6-98b7-a66d9ca0bf72","system_id":"levelo_inurba_marseille","lat":43.29524,"lon":5.39042,"is_reserved":false,"is_disabled":false,"rental_uris":{"android":"levelo://app?vid=b35737c6-49ec-46a6-98b7-a66d9ca0bf72","ios":"levelo://app?vid=b35737c6-49ec-46a6-98b7-a66d9ca0bf72"},"vehicle_type_id":"4","last_reported":1730495322,"current_range_meters":38800,"station_id":"ce4bh3p2rcd13ifvqdp0","pricing_plan_id":"cebpf4jnsgd1na2vs0mg"},{"bike_id":"223427b6-a667-4fba-bfd1-d25670cecee0","system_id":"levelo_inurba_marseille","lat":43.29031,"lon":5.3756,"is_reserved":false,"is_disabled":false,"rental_uris":{"android":"levelo://app?vid=223427b6-a667-4fba-bfd1-d25670cecee0","ios":"levelo://app?vid=223427b6-a667-4fba-bfd1-d25670cecee0"},"vehicle_type_id":"4","last_reported":1730495322,"current_range_meters":38800,"station_id":"ce4bh692rcd13ifvqe90","pricing_plan_id":"cebpf4jnsgd1na2vs0mg"},{"bike_id":"c512dfa3-9aad-4a81-a8ab-c1d000bfa4c9","system_id":"levelo_inurba_marseille","lat":43.27907,"lon":5.38015,"is_reserved":false,"is_disabled":false,"rental_uris":{"android":"levelo://app?vid=c512dfa3-9aad-4a81-a8ab-c1d000bfa4c9","ios":"levelo://app?vid=c512dfa3-9aad-4a81-a8ab-c1d000bfa4c9"},"vehicle_type_id":"4","last_reported":1730495322,"current_range_meters":15200,"station_id":"ce4bhf92rcd13ifvqf50","pricing_plan_id":"cebpf4jnsgd1na2vs0mg"},{"bike_id":"5593522d-2de9-48c0-a42a-44f9da3b1f87","system_id":"levelo_inurba_marseille","lat":43.29985,"lon":5.37176,"is_reserved":false,"is_disabled":false,"rental_uris":{"android":"levelo://app?vid=5593522d-2de9-48c0-a42a-44f9da3b1f87","ios":"levelo://app?vid=5593522d-2de9-48c0-a42a-44f9da3b1f87"},"vehicle_type_id":"4","last_reported":1730495322,"current_range_meters":37600,"station_id":"ce4bgr92rcd13ifvqc7g","pricing_plan_id":"cebpf4jnsgd1na2vs0mg"},{"bike_id":"fa3f4d31-2071-40ff-8b11-64a809d98327","system_id":"levelo_inurba_marseille","lat":43.27836,"lon":5.39205,"is_reserved":false,"is_disabled":false,"rental_uris":{"android":"levelo://app?vid=fa3f4d31-2071-40ff-8b11-64a809d98327","ios":"levelo://app?vid=fa3f4d31-2071-40ff-8b11-64a809d98327"},"vehicle_type_id":"4","last_reported":1730495322,"current_range_meters":2800,"station_id":"ce4bhjp2rcd13ifvqga0","pricing_plan_id":"cebpf4jnsgd1na2vs0mg"},{"bike_id":"367151e3-d9d1-496e-afc3-1d3ad14f98c6","system_id":"levelo_inurba_marseille","lat":43.32372,"lon":5.38885,"is_reserved":false,"is_disabled":false,"rental_uris":{"android":"levelo://app?vid=367151e3-d9d1-496e-afc3-1d3ad14f98c6","ios":"levelo://app?vid=367151e3-d9d1-496e-afc3-1d3ad14f98c6"},"vehicle_type_id":"4","last_reported":1730495322,"current_range_meters":35600,"station_id":"ce4bhqp2rcd13ifvqhog","pricing_plan_id":"cebpf4jnsgd1na2vs0mg"},{"bike_id":"70f4385c-6b37-4d0d-8049-f1a6bce30f9f","system_id":"levelo_inurba_marseille","lat":43.28462,"lon":5.35892,"is_reserved":false,"is_disabled":false,"rental_uris":{"android":"levelo://app?vid=70f4385c-6b37-4d0d-8049-f1a6bce30f9f","ios":"levelo://app?vid=70f4385c-6b37-4d0d-8049-f1a6bce30f9f"},"vehicle_type_id":"4","last_reported":1730495322,"current_range_meters":9200,"station_id":"ce4bhah2rcd13ifvqei0","pricing_plan_id":"cebpf4jnsgd1na2vs0mg"},{"bike_id":"63ccde5a-d15c-43ed-b4dc-589fa356b4a8","system_id":"levelo_inurba_marseille","lat":43.27434,"lon":5.3941,"is_reserved":false,"is_disabled":false,"rental_uris":{"android":"levelo://app?vid=63ccde5a-d15c-43ed-b4dc-589fa356b4a8","ios":"levelo://app?vid=63ccde5a-d15c-43ed-b4dc-589fa356b4a8"},"vehicle_type_id":"4","last_reported":1730495322,"current_range_meters":39200,"station_id":"ce4bhdp2rcd13ifvqf20","pricing_plan_id":"cebpf4jnsgd1na2vs0mg"},{"bike_id":"96e7ffb8-2db3-4e02-a941-0b98f88aabcd","system_id":"levelo_inurba_marseille","lat":43.295119,"lon":5.38967,"is_reserved":false,"is_disabled":false,"rental_uris":{"android":"levelo://app?vid=96e7ffb8-2db3-4e02-a941-0b98f88aabcd","ios":"levelo://app?vid=96e7ffb8-2db3-4e02-a941-0b98f88aabcd"},"vehicle_type_id":"4","last_reported":1730495322,"current_range_meters":28800,"station_id":"ce4bh3p2rcd13ifvqdp0","pricing_plan_id":"cebpf4jnsgd1na2vs0mg"},{"bike_id":"d8b30d62-8fb7-4930-b190-e85b44e5d382","system_id":"levelo_inurba_marseille","lat":43.29809,"lon":5.38098,"is_reserved":false,"is_disabled":false,"rental_uris":{"android":"levelo://app?vid=d8b30d62-8fb7-4930-b190-e85b44e5d382","ios":"levelo://app?vid=d8b30d62-8fb7-4930-b190-e85b44e5d382"},"vehicle_type_id":"4","last_reported":1730495322,"current_range_meters":24000,"station_id":"ce4bgip2rcd13ifvqbb0","pricing_plan_id":"cebpf4jnsgd1na2vs0mg"},{"bike_id":"b308451d-42cb-41d1-b5a5-a3a56d0b89d4","system_id":"levelo_inurba_marseille","lat":43.290311,"lon":5.386263,"is_reserved":false,"is_disabled":false,"rental_uris":{"android":"levelo://app?vid=b308451d-42cb-41d1-b5a5-a3a56d0b89d4","ios":"levelo://app?vid=b308451d-42cb-41d1-b5a5-a3a56d0b89d4"},"vehicle_type_id":"4","last_reported":1730495322,"current_range_meters":38800,"station_id":"ce4bh4p2rcd13ifvqe0g","pricing_plan_id":"cebpf4jnsgd1na2vs0mg"},{"bike_id":"a666d207-ba0b-4da4-ab30-e5fee93d146b","system_id":"levelo_inurba_marseille","lat":43.29416,"lon":5.38625,"is_reserved":false,"is_disabled":false,"rental_uris":{"android":"levelo://app?vid=a666d207-ba0b-4da4-ab30-e5fee93d146b","ios":"levelo://app?vid=a666d207-ba0b-4da4-ab30-e5fee93d146b"},"vehicle_type_id":"4","last_reported":1730495322,"current_range_meters":16000,"station_id":"ce4bh2h2rcd13ifvqdh0","pricing_plan_id":"cebpf4jnsgd1na2vs0mg"},{"bike_id":"57d18951-2001-4003-92d2-aa5cb684af8c","system_id":"levelo_inurba_marseille","lat":43.271005,"lon":5.39447,"is_reserved":false,"is_disabled":false,"rental_uris":{"android":"levelo://app?vid=57d18951-2001-4003-92d2-aa5cb684af8c","ios":"levelo://app?vid=57d18951-2001-4003-92d2-aa5cb684af8c"},"vehicle_type_id":"4","last_reported":1730495322,"current_range_meters":20400,"station_id":"","pricing_plan_id":"cebpf4jnsgd1na2vs0mg"},{"bike_id":"5c27b960-6461-4f9d-887b-b61a1549abaa","system_id":"levelo_inurba_marseille","lat":43.2512,"lon":5.4032,"is_reserved":false,"is_disabled":false,"rental_uris":{"android":"levelo://app?vid=5c27b960-6461-4f9d-887b-b61a1549abaa","ios":"levelo://app?vid=5c27b960-6461-4f9d-887b-b61a1549abaa"},"vehicle_type_id":"4","last_reported":1730495322,"current_range_meters":7200,"station_id":"ce4bhlh2rcd13ifvqgig","pricing_plan_id":"cebpf4jnsgd1na2vs0mg"},{"bike_id":"3730747f-62e1-4de2-8b52-5c433fdc4dd3","system_id":"levelo_inurba_marseille","lat":43.23187,"lon":5.39976,"is_reserved":false,"is_disabled":false,"rental_uris":{"android":"levelo://app?vid=3730747f-62e1-4de2-8b52-5c433fdc4dd3","ios":"levelo://app?vid=3730747f-62e1-4de2-8b52-5c433fdc4dd3"},"vehicle_type_id":"4","last_reported":1730495322,"current_range_meters":6400,"station_id":"ce4bhn12rcd13ifvqgqg","pricing_plan_id":"cebpf4jnsgd1na2vs0mg"},{"bike_id":"682bf1c5-5903-4d2f-ab10-5dd6d792be55","system_id":"levelo_inurba_marseille","lat":43.25822,"lon":5.39436,"is_reserved":false,"is_disabled":false,"rental_uris":{"android":"levelo://app?vid=682bf1c5-5903-4d2f-ab10-5dd6d792be55","ios":"levelo://app?vid=682bf1c5-5903-4d2f-ab10-5dd6d792be55"},"vehicle_type_id":"4","last_reported":1730495322,"current_range_meters":38400,"station_id":"ce4bhip2rcd13ifvqft0","pricing_plan_id":"cebpf4jnsgd1na2vs0mg"},{"bike_id":"e8bb2e43-06e1-4662-9540-13b29d948ad5","system_id":"levelo_inurba_marseille","lat":43.33731,"lon":5.39177,"is_reserved":false,"is_disabled":false,"rental_uris":{"android":"levelo://app?vid=e8bb2e43-06e1-4662-9540-13b29d948ad5","ios":"levelo://app?vid=e8bb2e43-06e1-4662-9540-13b29d948ad5"},"vehicle_type_id":"4","last_reported":1730495322,"current_range_meters":6800,"station_id":"ce4bhr92rcd13ifvqhsg","pricing_plan_id":"cebpf4jnsgd1na2vs0mg"},{"bike_id":"82c73521-6285-488d-94f4-4e465796c0ea","system_id":"levelo_inurba_marseille","lat":43.28941,"lon":5.39622,"is_reserved":false,"is_disabled":false,"rental_uris":{"android":"levelo://app?vid=82c73521-6285-488d-94f4-4e465796c0ea","ios":"levelo://app?vid=82c73521-6285-488d-94f4-4e465796c0ea"},"vehicle_type_id":"4","last_reported":1730495322,"current_range_meters":4400,"station_id":"ce4bh3h2rcd13ifvqdn0","pricing_plan_id":"cebpf4jnsgd1na2vs0mg"},{"bike_id":"0f524f7a-e87b-40e6-a0d2-ade4e8a08165","system_id":"levelo_inurba_marseille","lat":43.27444,"lon":5.39409,"is_reserved":false,"is_disabled":false,"rental_uris":{"android":"levelo://app?vid=0f524f7a-e87b-40e6-a0d2-ade4e8a08165","ios":"levelo://app?vid=0f524f7a-e87b-40e6-a0d2-ade4e8a08165"},"vehicle_type_id":"4","last_reported":1730495322,"current_range_meters":38800,"station_id":"ce4bhdp2rcd13ifvqf20","pricing_plan_id":"cebpf4jnsgd1na2vs0mg"},{"bike_id":"86c52acc-2418-4dff-ab1c-25f32c10c48f","system_id":"levelo_inurba_marseille","lat":43.30907,"lon":5.36845,"is_reserved":false,"is_disabled":false,"rental_uris":{"android":"levelo://app?vid=86c52acc-2418-4dff-ab1c-25f32c10c48f","ios":"levelo://app?vid=86c52acc-2418-4dff-ab1c-25f32c10c48f"},"vehicle_type_id":"4","last_reported":1730495322,"current_range_meters":4400,"station_id":"ce4bgn92rcd13ifvqbvg","pricing_plan_id":"cebpf4jnsgd1na2vs0mg"},{"bike_id":"639bb546-5a14-42d0-a97f-a7a60c11c0e2","system_id":"levelo_inurba_marseille","lat":43.30786,"lon":5.38172,"is_reserved":false,"is_disabled":false,"rental_uris":{"android":"levelo://app?vid=639bb546-5a14-42d0-a97f-a7a60c11c0e2","ios":"levelo://app?vid=639bb546-5a14-42d0-a97f-a7a60c11c0e2"},"vehicle_type_id":"4","last_reported":1730495322,"current_range_meters":19200,"station_id":"ce4bgt12rcd13ifvqce0","pricing_plan_id":"cebpf4jnsgd1na2vs0mg"},{"bike_id":"94279a57-03c0-47b7-abe3-7226e86fd3b0","system_id":"levelo_inurba_marseille","lat":43.27621,"lon":5.36112,"is_reserved":false,"is_disabled":false,"rental_uris":{"android":"levelo://app?vid=94279a57-03c0-47b7-abe3-7226e86fd3b0","ios":"levelo://app?vid=94279a57-03c0-47b7-abe3-7226e86fd3b0"},"vehicle_type_id":"4","last_reported":1730495322,"current_range_meters":24000,"station_id":"ce4bgj92rcd13ifvqbe0","pricing_plan_id":"cebpf4jnsgd1na2vs0mg"},{"bike_id":"082af54f-48ec-4feb-99ef-5452aea79e32","system_id":"levelo_inurba_marseille","lat":43.30212,"lon":5.39462,"is_reserved":false,"is_disabled":false,"rental_uris":{"android":"levelo://app?vid=082af54f-48ec-4feb-99ef-5452aea79e32","ios":"levelo://app?vid=082af54f-48ec-4feb-99ef-5452aea79e32"},"vehicle_type_id":"4","last_reported":1730495322,"current_range_meters":38800,"station_id":"ce4bh0p2rcd13ifvqd70","pricing_plan_id":"cebpf4jnsgd1na2vs0mg"},{"bike_id":"41866827-2f64-4cf7-8a6f-149d36745074","system_id":"levelo_inurba_marseille","lat":43.33031,"lon":5.39045,"is_reserved":false,"is_disabled":false,"rental_uris":{"android":"levelo://app?vid=41866827-2f64-4cf7-8a6f-149d36745074","ios":"levelo://app?vid=41866827-2f64-4cf7-8a6f-149d36745074"},"vehicle_type_id":"4","last_reported":1730495322,"current_range_meters":31200,"station_id":"ce4bhr92rcd13ifvqhrg","pricing_plan_id":"cebpf4jnsgd1na2vs0mg"},{"bike_id":"03cfcba4-868f-4777-9be3-b83862a795b3","system_id":"levelo_inurba_marseille","lat":43.296333,"lon":5.377677,"is_reserved":false,"is_disabled":false,"rental_uris":{"android":"levelo://app?vid=03cfcba4-868f-4777-9be3-b83862a795b3","ios":"levelo://app?vid=03cfcba4-868f-4777-9be3-b83862a795b3"},"vehicle_type_id":"4","last_reported":1730495322,"current_range_meters":38400,"station_id":"ce4bgi92rcd13ifvqb90","pricing_plan_id":"cebpf4jnsgd1na2vs0mg"},{"bike_id":"6c2c3cb0-1feb-40b9-ab27-36ab3e40beed","system_id":"levelo_inurba_marseille","lat":43.27431,"lon":5.39414,"is_reserved":false,"is_disabled":false,"rental_uris":{"android":"levelo://app?vid=6c2c3cb0-1feb-40b9-ab27-36ab3e40beed","ios":"levelo://app?vid=6c2c3cb0-1feb-40b9-ab27-36ab3e40beed"},"vehicle_type_id":"4","last_reported":1730495322,"current_range_meters":38800,"station_id":"ce4bhdp2rcd13ifvqf20","pricing_plan_id":"cebpf4jnsgd1na2vs0mg"},{"bike_id":"811f91a7-b491-4bd2-b61b-6549a4b39843","system_id":"levelo_inurba_marseille","lat":43.29424,"lon":5.38608,"is_reserved":false,"is_disabled":false,"rental_uris":{"android":"levelo://app?vid=811f91a7-b491-4bd2-b61b-6549a4b39843","ios":"levelo://app?vid=811f91a7-b491-4bd2-b61b-6549a4b39843"},"vehicle_type_id":"4","last_reported":1730495322,"current_range_meters":32000,"station_id":"ce4bh2h2rcd13ifvqdh0","pricing_plan_id":"cebpf4jnsgd1na2vs0mg"},{"bike_id":"e4d4f340-e673-4d26-9a74-ec39593617c9","system_id":"levelo_inurba_marseille","lat":43.28462,"lon":5.35883,"is_reserved":false,"is_disabled":false,"rental_uris":{"android":"levelo://app?vid=e4d4f340-e673-4d26-9a74-ec39593617c9","ios":"levelo://app?vid=e4d4f340-e673-4d26-9a74-ec39593617c9"},"vehicle_type_id":"4","last_reported":1730495322,"current_range_meters":28400,"station_id":"ce4bhah2rcd13ifvqei0","pricing_plan_id":"cebpf4jnsgd1na2vs0mg"},{"bike_id":"2da7fe60-938e-463b-87cf-238afa73db68","system_id":"levelo_inurba_marseille","lat":43.29175,"lon":5.37152,"is_reserved":false,"is_disabled":false,"rental_uris":{"android":"levelo://app?vid=2da7fe60-938e-463b-87cf-238afa73db68","ios":"levelo://app?vid=2da7fe60-938e-463b-87cf-238afa73db68"},"vehicle_type_id":"4","last_reported":1730495322,"current_range_meters":38000,"station_id":"ce4bha92rcd13ifvqeh0","pricing_plan_id":"cebpf4jnsgd1na2vs0mg"},{"bike_id":"7ed51d70-6074-4098-a6e9-e31bb18cf644","system_id":"levelo_inurba_marseille","lat":43.29422,"lon":5.38608,"is_reserved":false,"is_disabled":false,"rental_uris":{"android":"levelo://app?vid=7ed51d70-6074-4098-a6e9-e31bb18cf644","ios":"levelo://app?vid=7ed51d70-6074-4098-a6e9-e31bb18cf644"},"vehicle_type_id":"4","last_reported":1730495322,"current_range_meters":23200,"station_id":"ce4bh2h2rcd13ifvqdh0","pricing_plan_id":"cebpf4jnsgd1na2vs0mg"},{"bike_id":"ce7a9679-1309-4337-a277-05901a838b7d","system_id":"levelo_inurba_marseille","lat":43.29349,"lon":5.434302,"is_reserved":false,"is_disabled":false,"rental_uris":{"android":"levelo://app?vid=ce7a9679-1309-4337-a277-05901a838b7d","ios":"levelo://app?vid=ce7a9679-1309-4337-a277-05901a838b7d"},"vehicle_type_id":"4","last_reported":1730495322,"current_range_meters":15200,"station_id":"","pricing_plan_id":"cebpf4jnsgd1na2vs0mg"},{"bike_id":"8768f68b-38e1-455e-8ed7-18459691a2ee","system_id":"levelo_inurba_marseille","lat":43.29583,"lon":5.37513,"is_reserved":false,"is_disabled":false,"rental_uris":{"android":"levelo://app?vid=8768f68b-38e1-455e-8ed7-18459691a2ee","ios":"levelo://app?vid=8768f68b-38e1-455e-8ed7-18459691a2ee"},"vehicle_type_id":"4","last_reported":1730495322,"current_range_meters":39200,"station_id":"ce4bgh92rcd13ifvqb50","pricing_plan_id":"cebpf4jnsgd1na2vs0mg"},{"bike_id":"73834a1a-c366-4deb-9b39-aa019ecd73ac","system_id":"levelo_inurba_marseille","lat":43.29536,"lon":5.38546,"is_reserved":false,"is_disabled":false,"rental_uris":{"android":"levelo://app?vid=73834a1a-c366-4deb-9b39-aa019ecd73ac","ios":"levelo://app?vid=73834a1a-c366-4deb-9b39-aa019ecd73ac"},"vehicle_type_id":"4","last_reported":1730495322,"current_range_meters":33600,"station_id":"ce4bgih2rcd13ifvqba0","pricing_plan_id":"cebpf4jnsgd1na2vs0mg"},{"bike_id":"5a0d6e70-4bf5-47da-89b9-94aaa8a6f1ad","system_id":"levelo_inurba_marseille","lat":43.28701,"lon":5.39975,"is_reserved":false,"is_disabled":false,"rental_uris":{"android":"levelo://app?vid=5a0d6e70-4bf5-47da-89b9-94aaa8a6f1ad","ios":"levelo://app?vid=5a0d6e70-4bf5-47da-89b9-94aaa8a6f1ad"},"vehicle_type_id":"4","last_reported":1730495322,"current_range_meters":30400,"station_id":"ce4bho92rcd13ifvqh3g","pricing_plan_id":"cebpf4jnsgd1na2vs0mg"},{"bike_id":"9d700ff9-b8ac-41ae-a3d5-3fda6982a658","system_id":"levelo_inurba_marseille","lat":43.29096,"lon":5.38135,"is_reserved":false,"is_disabled":false,"rental_uris":{"android":"levelo://app?vid=9d700ff9-b8ac-41ae-a3d5-3fda6982a658","ios":"levelo://app?vid=9d700ff9-b8ac-41ae-a3d5-3fda6982a658"},"vehicle_type_id":"4","last_reported":1730495322,"current_range_meters":8400,"station_id":"ce4bh692rcd13ifvqe90","pricing_plan_id":"cebpf4jnsgd1na2vs0mg"},{"bike_id":"78b2177b-882f-41be-b6b9-03266c0d960b","system_id":"levelo_inurba_marseille","lat":43.30201,"lon":5.36605,"is_reserved":false,"is_disabled":false,"rental_uris":{"android":"levelo://app?vid=78b2177b-882f-41be-b6b9-03266c0d960b","ios":"levelo://app?vid=78b2177b-882f-41be-b6b9-03266c0d960b"},"vehicle_type_id":"4","last_reported":1730495322,"current_range_meters":38800,"station_id":"ce4bgrh2rcd13ifvqc8g","pricing_plan_id":"cebpf4jnsgd1na2vs0mg"},{"bike_id":"00e70a20-c568-4fa0-a424-a40454a7bfa5","system_id":"levelo_inurba_marseille","lat":43.32368,"lon":5.38883,"is_reserved":false,"is_disabled":false,"rental_uris":{"android":"levelo://app?vid=00e70a20-c568-4fa0-a424-a40454a7bfa5","ios":"levelo://app?vid=00e70a20-c568-4fa0-a424-a40454a7bfa5"},"vehicle_type_id":"4","last_reported":1730495322,"current_range_meters":17200,"station_id":"ce4bhqp2rcd13ifvqhog","pricing_plan_id":"cebpf4jnsgd1na2vs0mg"},{"bike_id":"d1c45e75-1e60-45de-9ee5-20145533ebe3","system_id":"levelo_inurba_marseille","lat":43.28153,"lon":5.42642,"is_reserved":false,"is_disabled":false,"rental_uris":{"android":"levelo://app?vid=d1c45e75-1e60-45de-9ee5-20145533ebe3","ios":"levelo://app?vid=d1c45e75-1e60-45de-9ee5-20145533ebe3"},"vehicle_type_id":"4","last_reported":1730495322,"current_range_meters":38800,"station_id":"ce4bhnh2rcd13ifvqgug","pricing_plan_id":"cebpf4jnsgd1na2vs0mg"},{"bike_id":"d50f606e-f4bc-464a-a19d-df1ef05eabaa","system_id":"levelo_inurba_marseille","lat":43.28926,"lon":5.38404,"is_reserved":false,"is_disabled":false,"rental_uris":{"android":"levelo://app?vid=d50f606e-f4bc-464a-a19d-df1ef05eabaa","ios":"levelo://app?vid=d50f606e-f4bc-464a-a19d-df1ef05eabaa"},"vehicle_type_id":"4","last_reported":1730495322,"current_range_meters":36000,"station_id":"ce4bh612rcd13ifvqe6g","pricing_plan_id":"cebpf4jnsgd1na2vs0mg"},{"bike_id":"cd2db01a-0087-434a-b1d1-6bff617efd21","system_id":"levelo_inurba_marseille","lat":43.29607,"lon":5.38103,"is_reserved":false,"is_disabled":false,"rental_uris":{"android":"levelo://app?vid=cd2db01a-0087-434a-b1d1-6bff617efd21","ios":"levelo://app?vid=cd2db01a-0087-434a-b1d1-6bff617efd21"},"vehicle_type_id":"4","last_reported":1730495322,"current_range_meters":14000,"station_id":"ce4bgl12rcd13ifvqbo0","pricing_plan_id":"cebpf4jnsgd1na2vs0mg"},{"bike_id":"89278f8d-dfe9-4ad6-a16f-d4bb717fd27f","system_id":"levelo_inurba_marseille","lat":43.29422,"lon":5.38628,"is_reserved":false,"is_disabled":false,"rental_uris":{"android":"levelo://app?vid=89278f8d-dfe9-4ad6-a16f-d4bb717fd27f","ios":"levelo://app?vid=89278f8d-dfe9-4ad6-a16f-d4bb717fd27f"},"vehicle_type_id":"4","last_reported":1730495322,"current_range_meters":24000,"station_id":"ce4bh2h2rcd13ifvqdh0","pricing_plan_id":"cebpf4jnsgd1na2vs0mg"},{"bike_id":"67c105b9-496e-4638-9b26-5787e92b93b9","system_id":"levelo_inurba_marseille","lat":43.31723,"lon":5.37719,"is_reserved":false,"is_disabled":false,"rental_uris":{"android":"levelo://app?vid=67c105b9-496e-4638-9b26-5787e92b93b9","ios":"levelo://app?vid=67c105b9-496e-4638-9b26-5787e92b93b9"},"vehicle_type_id":"4","last_reported":1730495322,"current_range_meters":28000,"station_id":"ce4bgth2rcd13ifvqch0","pricing_plan_id":"cebpf4jnsgd1na2vs0mg"},{"bike_id":"d4824cc1-ed9b-4709-ad65-7f0ae7317333","system_id":"levelo_inurba_marseille","lat":43.30141,"lon":5.38771,"is_reserved":false,"is_disabled":false,"rental_uris":{"android":"levelo://app?vid=d4824cc1-ed9b-4709-ad65-7f0ae7317333","ios":"levelo://app?vid=d4824cc1-ed9b-4709-ad65-7f0ae7317333"},"vehicle_type_id":"4","last_reported":1730495322,"current_range_meters":31200,"station_id":"ce4bghh2rcd13ifvqb60","pricing_plan_id":"cebpf4jnsgd1na2vs0mg"},{"bike_id":"d46d506c-45a5-42cc-8073-5ab1c52d4100","system_id":"levelo_inurba_marseille","lat":43.29008,"lon":5.35609,"is_reserved":false,"is_disabled":false,"rental_uris":{"android":"levelo://app?vid=d46d506c-45a5-42cc-8073-5ab1c52d4100","ios":"levelo://app?vid=d46d506c-45a5-42cc-8073-5ab1c52d4100"},"vehicle_type_id":"4","last_reported":1730495322,"current_range_meters":9600,"station_id":"ce4bhb92rcd13ifvqen0","pricing_plan_id":"cebpf4jnsgd1na2vs0mg"},{"bike_id":"b3c717ce-3eb6-4007-b6e6-a39f0116068a","system_id":"levelo_inurba_marseille","lat":43.30299,"lon":5.39193,"is_reserved":false,"is_disabled":false,"rental_uris":{"android":"levelo://app?vid=b3c717ce-3eb6-4007-b6e6-a39f0116068a","ios":"levelo://app?vid=b3c717ce-3eb6-4007-b6e6-a39f0116068a"},"vehicle_type_id":"4","last_reported":1730495322,"current_range_meters":0,"station_id":"ce4bgkh2rcd13ifvqbk0","pricing_plan_id":"cebpf4jnsgd1na2vs0mg"},{"bike_id":"aea44ede-f2aa-4413-b1bd-9de00b274b46","system_id":"levelo_inurba_marseille","lat":43.24998,"lon":5.38925,"is_reserved":false,"is_disabled":false,"rental_uris":{"android":"levelo://app?vid=aea44ede-f2aa-4413-b1bd-9de00b274b46","ios":"levelo://app?vid=aea44ede-f2aa-4413-b1bd-9de00b274b46"},"vehicle_type_id":"4","last_reported":1730495322,"current_range_meters":30000,"station_id":"ce4bhgp2rcd13ifvqfd0","pricing_plan_id":"cebpf4jnsgd1na2vs0mg"},{"bike_id":"5e485333-62fb-4da8-97a1-fa557b7ae588","system_id":"levelo_inurba_marseille","lat":43.28407,"lon":5.37511,"is_reserved":false,"is_disabled":false,"rental_uris":{"android":"levelo://app?vid=5e485333-62fb-4da8-97a1-fa557b7ae588","ios":"levelo://app?vid=5e485333-62fb-4da8-97a1-fa557b7ae588"},"vehicle_type_id":"4","last_reported":1730495322,"current_range_meters":25200,"station_id":"ce4bh412rcd13ifvqds0","pricing_plan_id":"cebpf4jnsgd1na2vs0mg"},{"bike_id":"48f311ea-c15c-4c36-b596-38b404fd4878","system_id":"levelo_inurba_marseille","lat":43.29593,"lon":5.38108,"is_reserved":false,"is_disabled":false,"rental_uris":{"android":"levelo://app?vid=48f311ea-c15c-4c36-b596-38b404fd4878","ios":"levelo://app?vid=48f311ea-c15c-4c36-b596-38b404fd4878"},"vehicle_type_id":"4","last_reported":1730495322,"current_range_meters":33200,"station_id":"ce4bgl12rcd13ifvqbo0","pricing_plan_id":"cebpf4jnsgd1na2vs0mg"},{"bike_id":"276b2d1e-7059-4e74-a7da-ce07ae31918a","system_id":"levelo_inurba_marseille","lat":43.25584,"lon":5.38241,"is_reserved":false,"is_disabled":false,"rental_uris":{"android":"levelo://app?vid=276b2d1e-7059-4e74-a7da-ce07ae31918a","ios":"levelo://app?vid=276b2d1e-7059-4e74-a7da-ce07ae31918a"},"vehicle_type_id":"4","last_reported":1730495322,"current_range_meters":25600,"station_id":"ce4bhih2rcd13ifvqfs0","pricing_plan_id":"cebpf4jnsgd1na2vs0mg"},{"bike_id":"ef0d2e3f-fc7e-467f-9ee7-fc601aafe09a","system_id":"levelo_inurba_marseille","lat":43.30942,"lon":5.4028,"is_reserved":false,"is_disabled":false,"rental_uris":{"android":"levelo://app?vid=ef0d2e3f-fc7e-467f-9ee7-fc601aafe09a","ios":"levelo://app?vid=ef0d2e3f-fc7e-467f-9ee7-fc601aafe09a"},"vehicle_type_id":"4","last_reported":1730495322,"current_range_meters":16800,"station_id":"","pricing_plan_id":"cebpf4jnsgd1na2vs0mg"},{"bike_id":"fcb96d8f-6854-4fbb-a255-1177695f3474","system_id":"levelo_inurba_marseille","lat":43.291858,"lon":5.393214,"is_reserved":false,"is_disabled":false,"rental_uris":{"android":"levelo://app?vid=fcb96d8f-6854-4fbb-a255-1177695f3474","ios":"levelo://app?vid=fcb96d8f-6854-4fbb-a255-1177695f3474"},"vehicle_type_id":"4","last_reported":1730495322,"current_range_meters":8800,"station_id":"ce4bh192rcd13ifvqdd0","pricing_plan_id":"cebpf4jnsgd1na2vs0mg"},{"bike_id":"41d47d69-979b-4480-8fb6-135de4b1e8ff","system_id":"levelo_inurba_marseille","lat":43.2572,"lon":5.41112,"is_reserved":false,"is_disabled":false,"rental_uris":{"android":"levelo://app?vid=41d47d69-979b-4480-8fb6-135de4b1e8ff","ios":"levelo://app?vid=41d47d69-979b-4480-8fb6-135de4b1e8ff"},"vehicle_type_id":"4","last_reported":1730495322,"current_range_meters":38800,"station_id":"ce4bhkp2rcd13ifvqgd0","pricing_plan_id":"cebpf4jnsgd1na2vs0mg"},{"bike_id":"7ab7a2b8-6120-48d3-9e78-2dc7c0c16bf5","system_id":"levelo_inurba_marseille","lat":43.27939,"lon":5.41037,"is_reserved":false,"is_disabled":false,"rental_uris":{"android":"levelo://app?vid=7ab7a2b8-6120-48d3-9e78-2dc7c0c16bf5","ios":"levelo://app?vid=7ab7a2b8-6120-48d3-9e78-2dc7c0c16bf5"},"vehicle_type_id":"4","last_reported":1730495322,"current_range_meters":22800,"station_id":"ce4bhnp2rcd13ifvqh0g","pricing_plan_id":"cebpf4jnsgd1na2vs0mg"},{"bike_id":"066435ff-957d-4c00-bee6-d0afc37d866a","system_id":"levelo_inurba_marseille","lat":43.2972,"lon":5.37273,"is_reserved":false,"is_disabled":false,"rental_uris":{"android":"levelo://app?vid=066435ff-957d-4c00-bee6-d0afc37d866a","ios":"levelo://app?vid=066435ff-957d-4c00-bee6-d0afc37d866a"},"vehicle_type_id":"4","last_reported":1730495322,"current_range_meters":13600,"station_id":"ce4bgk12rcd13ifvqbj0","pricing_plan_id":"cebpf4jnsgd1na2vs0mg"},{"bike_id":"93aea321-c052-49e2-b5c1-0b584459c0e5","system_id":"levelo_inurba_marseille","lat":43.29901,"lon":5.38139,"is_reserved":false,"is_disabled":false,"rental_uris":{"android":"levelo://app?vid=93aea321-c052-49e2-b5c1-0b584459c0e5","ios":"levelo://app?vid=93aea321-c052-49e2-b5c1-0b584459c0e5"},"vehicle_type_id":"4","last_reported":1730495322,"current_range_meters":36000,"station_id":"ce4bgj12rcd13ifvqbc0","pricing_plan_id":"cebpf4jnsgd1na2vs0mg"},{"bike_id":"f68b3ed3-30da-4022-9721-0a70833c562e","system_id":"levelo_inurba_marseille","lat":43.29273,"lon":5.38438,"is_reserved":false,"is_disabled":false,"rental_uris":{"android":"levelo://app?vid=f68b3ed3-30da-4022-9721-0a70833c562e","ios":"levelo://app?vid=f68b3ed3-30da-4022-9721-0a70833c562e"},"vehicle_type_id":"4","last_reported":1730495322,"current_range_meters":38800,"station_id":"ce4bh692rcd13ifvqea0","pricing_plan_id":"cebpf4jnsgd1na2vs0mg"},{"bike_id":"58051f0e-7f43-4bf7-a32f-78bebfddf494","system_id":"levelo_inurba_marseille","lat":43.30248,"lon":5.40071,"is_reserved":false,"is_disabled":false,"rental_uris":{"android":"levelo://app?vid=58051f0e-7f43-4bf7-a32f-78bebfddf494","ios":"levelo://app?vid=58051f0e-7f43-4bf7-a32f-78bebfddf494"},"vehicle_type_id":"4","last_reported":1730495322,"current_range_meters":9200,"station_id":"ce4bgvh2rcd13ifvqcs0","pricing_plan_id":"cebpf4jnsgd1na2vs0mg"},{"bike_id":"1f1632d0-3b04-45d9-9e18-35c41e08aec0","system_id":"levelo_inurba_marseille","lat":43.29269,"lon":5.38428,"is_reserved":false,"is_disabled":false,"rental_uris":{"android":"levelo://app?vid=1f1632d0-3b04-45d9-9e18-35c41e08aec0","ios":"levelo://app?vid=1f1632d0-3b04-45d9-9e18-35c41e08aec0"},"vehicle_type_id":"4","last_reported":1730495322,"current_range_meters":9600,"station_id":"ce4bh692rcd13ifvqea0","pricing_plan_id":"cebpf4jnsgd1na2vs0mg"},{"bike_id":"2565876a-0761-4ba5-8c32-fe57beb03d94","system_id":"levelo_inurba_marseille","lat":43.30357,"lon":5.41876,"is_reserved":false,"is_disabled":false,"rental_uris":{"android":"levelo://app?vid=2565876a-0761-4ba5-8c32-fe57beb03d94","ios":"levelo://app?vid=2565876a-0761-4ba5-8c32-fe57beb03d94"},"vehicle_type_id":"4","last_reported":1730495322,"current_range_meters":38800,"station_id":"ce4bhop2rcd13ifvqh7g","pricing_plan_id":"cebpf4jnsgd1na2vs0mg"},{"bike_id":"bf4d3e05-778d-43c7-a6f9-36a204e68783","system_id":"levelo_inurba_marseille","lat":43.29422,"lon":5.38609,"is_reserved":false,"is_disabled":false,"rental_uris":{"android":"levelo://app?vid=bf4d3e05-778d-43c7-a6f9-36a204e68783","ios":"levelo://app?vid=bf4d3e05-778d-43c7-a6f9-36a204e68783"},"vehicle_type_id":"4","last_reported":1730495322,"current_range_meters":38800,"station_id":"ce4bh2h2rcd13ifvqdh0","pricing_plan_id":"cebpf4jnsgd1na2vs0mg"},{"bike_id":"2e679aa2-6222-4666-94d2-8febbbac34cf","system_id":"levelo_inurba_marseille","lat":43.28958,"lon":5.4809,"is_reserved":false,"is_disabled":false,"rental_uris":{"android":"levelo://app?vid=2e679aa2-6222-4666-94d2-8febbbac34cf","ios":"levelo://app?vid=2e679aa2-6222-4666-94d2-8febbbac34cf"},"vehicle_type_id":"4","last_reported":1730495322,"current_range_meters":4800,"station_id":"","pricing_plan_id":"cebpf4jnsgd1na2vs0mg"},{"bike_id":"824d79de-37c9-48a6-8501-ab22ab90c310","system_id":"levelo_inurba_marseille","lat":43.28686,"lon":5.38653,"is_reserved":false,"is_disabled":false,"rental_uris":{"android":"levelo://app?vid=824d79de-37c9-48a6-8501-ab22ab90c310","ios":"levelo://app?vid=824d79de-37c9-48a6-8501-ab22ab90c310"},"vehicle_type_id":"4","last_reported":1730495322,"current_range_meters":38400,"station_id":"ce4bh492rcd13ifvqdug","pricing_plan_id":"cebpf4jnsgd1na2vs0mg"},{"bike_id":"eae5cc6e-0dcb-4b91-b8a8-09558cc09cc2","system_id":"levelo_inurba_marseille","lat":43.28105,"lon":5.37834,"is_reserved":false,"is_disabled":false,"rental_uris":{"android":"levelo://app?vid=eae5cc6e-0dcb-4b91-b8a8-09558cc09cc2","ios":"levelo://app?vid=eae5cc6e-0dcb-4b91-b8a8-09558cc09cc2"},"vehicle_type_id":"4","last_reported":1730495322,"current_range_meters":14800,"station_id":"ce4bha12rcd13ifvqee0","pricing_plan_id":"cebpf4jnsgd1na2vs0mg"},