{"last_updated":1744193573,"ttl":60,"version":"2.2","data":{"bikes":[{"bike_id":"0917f400-d79d-4955-8155-ddfc6d650005","system_id":"levelo_inurba_marseille","lat":43.28707,"lon":5.39979,"is_reserved":false,"is_disabled":false,"rental_uris":{"android":"levelo://app?vid=0917f400-d79d-4955-8155-ddfc6d650005","ios":"levelo://app?vid=0917f400-d79d-4955-8155-ddfc6d650005"},"vehicle_type_id":"4","last_reported":1744193573,"current_range_meters":2800,"station_id":"ce4bho92rcd13ifvqh3g","pricing_plan_id":"cebpf4jnsgd1na2vs0mg"},{"bike_id":"82a62dcb-4784-49bc-901f-5b135d8c39ab","system_id":"levelo_inurba_marseille","lat":43.31486,"lon":5.37308,"is_reserved":false,"is_disabled":false,"rental_uris":{"android":"levelo://app?vid=82a62dcb-4784-49bc-901f-5b135d8c39ab","ios":"levelo://app?vid=82a62dcb-4784-49bc-901f-5b135d8c39ab"},"vehicle_type_id":"4","last_reported":1744193573,"current_range_meters":3200,"station_id":"ce4bgt12rcd13ifvqcd0","pricing_plan_id":"cebpf4jnsgd1na2vs0mg"},{"bike_id":"b2f5cc91-4e26-4ab6-9541-eb3a9527bd37","system_id":"levelo_inurba_marseille","lat":43.25918,"lon":5.40891,"is_reserved":false,"is_disabled":true,"rental_uris":{"android":"levelo://app?vid=b2f5cc91-4e26-4ab6-9541-eb3a9527bd37","ios":"levelo://app?vid=b2f5cc91-4e26-4ab6-9541-eb3a9527bd37"},"vehicle_type_id":"4","last_reported":1744193573,"current_range_meters":3200,"station_id":"ce4bhm92rcd13ifvqglg","pricing_plan_id":"cebpf4jnsgd1na2vs0mg"},{"bike_id":"0fbdf58d-4917-4d24-8b4b-9c66b7b96e08","system_id":"levelo_inurba_marseille","lat":43.3175,"lon":5.39864,"is_reserved":false,"is_disabled":false,"rental_uris":{"android":"levelo://app?vid=0fbdf58d-4917-4d24-8b4b-9c66b7b96e08","ios":"levelo://app?vid=0fbdf58d-4917-4d24-8b4b-9c66b7b96e08"},"vehicle_type_id":"4","last_reported":1744193573,"current_range_meters":3200,"station_id":"","pricing_plan_id":"cebpf4jnsgd1na2vs0mg"},{"bike_id":"58f2e874-1ca4-4598-9188-21832103442b","system_id":"levelo_inurba_marseille","lat":43.30548,"lon":5.36552,"is_reserved":false,"is_disabled":false,"rental_uris":{"android":"levelo://app?vid=58f2e874-1ca4-4598-9188-21832103442b","ios":"levelo://app?vid=58f2e874-1ca4-4598-9188-21832103442b"},"vehicle_type_id":"4","last_reported":1744193573,"current_range_meters":3600,"station_id":"ce4bgs12rcd13ifvqcag","pricing_plan_id":"cebpf4jnsgd1na2vs0mg"},{"bike_id":"fd59f6c5-2941-488e-9603-10c2205b5b28","system_id":"levelo_inurba_marseille","lat":43.26192,"lon":5.3745,"is_reserved":false,"is_disabled":false,"rental_uris":{"android":"levelo://app?vid=fd59f6c5-2941-488e-9603-10c2205b5b28","ios":"levelo://app?vid=fd59f6c5-2941-488e-9603-10c2205b5b28"},"vehicle_type_id":"4","last_reported":1744193573,"current_range_meters":3600,"station_id":"ce4bhgp2rcd13ifvqfc0","pricing_plan_id":"cebpf4jnsgd1na2vs0mg"},{"bike_id":"04ea21db-9998-4cdc-8b93-e4b23b0ed540","system_id":"levelo_inurba_marseille","lat":43.26121,"lon":5.39561,"is_reserved":false,"is_disabled":false,"rental_uris":{"android":"levelo://app?vid=04ea21db-9998-4cdc-8b93-e4b23b0ed540","ios":"levelo://app?vid=04ea21db-9998-4cdc-8b93-e4b23b0ed540"},"vehicle_type_id":"4","last_reported":1744193573,"current_range_meters":4000,"station_id":"","pricing_plan_id":"cebpf4jnsgd1na2vs0mg"},{"bike_id":"ecef8e9e-03dc-4612-b74e-b978f92e2873","system_id":"levelo_inurba_marseille","lat":43.30099,"lon":5.39081,"is_reserved":false,"is_disabled":true,"rental_uris":{"android":"levelo://app?vid=ecef8e9e-03dc-4612-b74e-b978f92e2873","ios":"levelo://app?vid=ecef8e9e-03dc-4612-b74e-b978f92e2873"},"vehicle_type_id":"4","last_reported":1744193573,"current_range_meters":4400,"station_id":"ce4bh192rcd13ifvqdb0","pricing_plan_id":"cebpf4jnsgd1na2vs0mg"},{"bike_id":"f39be6f5-2f69-4c37-b021-559d20b299a4","system_id":"levelo_inurba_marseille","lat":43.30014,"lon":5.37647,"is_reserved":false,"is_disabled":false,"rental_uris":{"android":"levelo://app?vid=f39be6f5-2f69-4c37-b021-559d20b299a4","ios":"levelo://app?vid=f39be6f5-2f69-4c37-b021-559d20b299a4"},"vehicle_type_id":"4","last_reported":1744193573,"current_range_meters":4400,"station_id":"","pricing_plan_id":"cebpf4jnsgd1na2vs0mg"},{"bike_id":"3576b946-70b3-456f-a60a-d98e227f015c","system_id":"levelo_inurba_marseille","lat":43.30108,"lon":5.38212,"is_reserved":false,"is_disabled":false,"rental_uris":{"android":"levelo://app?vid=3576b946-70b3-456f-a60a-d98e227f015c","ios":"levelo://app?vid=3576b946-70b3-456f-a60a-d98e227f015c"},"vehicle_type_id":"4","last_reported":1744193573,"current_range_meters":4800,"station_id":"","pricing_plan_id":"cebpf4jnsgd1na2vs0mg"},{"bike_id":"b0e70e48-f0ae-4e70-acf1-d92ac7d0b960","system_id":"levelo_inurba_marseille","lat":43.23151,"lon":5.43719,"is_reserved":false,"is_disabled":false,"rental_uris":{"android":"levelo://app?vid=b0e70e48-f0ae-4e70-acf1-d92ac7d0b960","ios":"levelo://app?vid=b0e70e48-f0ae-4e70-acf1-d92ac7d0b960"},"vehicle_type_id":"4","last_reported":1744193573,"current_range_meters":4800,"station_id":"ce4bhmp2rcd13ifvqgog","pricing_plan_id":"cebpf4jnsgd1na2vs0mg"},{"bike_id":"346c86d0-c8b9-41e4-a519-6a24f66cc46d","system_id":"levelo_inurba_marseille","lat":43.280212,"lon":5.386986,"is_reserved":false,"is_disabled":false,"rental_uris":{"android":"levelo://app?vid=346c86d0-c8b9-41e4-a519-6a24f66cc46d","ios":"levelo://app?vid=346c86d0-c8b9-41e4-a519-6a24f66cc46d"},"vehicle_type_id":"4","last_reported":1744193573,"current_range_meters":5600,"station_id":"ce4bh512rcd13ifvqe2g","pricing_plan_id":"cebpf4jnsgd1na2vs0mg"},{"bike_id":"61faeab7-d3b1-42ea-8185-a6bb834269b2","system_id":"levelo_inurba_marseille","lat":43.27121,"lon":5.41497,"is_reserved":false,"is_disabled":false,"rental_uris":{"android":"levelo://app?vid=61faeab7-d3b1-42ea-8185-a6bb834269b2","ios":"levelo://app?vid=61faeab7-d3b1-42ea-8185-a6bb834269b2"},"vehicle_type_id":"4","last_reported":1744193573,"current_range_meters":5600,"station_id":"","pricing_plan_id":"cebpf4jnsgd1na2vs0mg"},{"bike_id":"3dacb78c-23e8-43c0-b367-cfdc8b13b4d5","system_id":"levelo_inurba_marseille","lat":43.2591,"lon":5.40883,"is_reserved":false,"is_disabled":false,"rental_uris":{"android":"levelo://app?vid=3dacb78c-23e8-43c0-b367-cfdc8b13b4d5","ios":"levelo://app?vid=3dacb78c-23e8-43c0-b367-cfdc8b13b4d5"},"vehicle_type_id":"4","last_reported":1744193573,"current_range_meters":5600,"station_id":"ce4bhm92rcd13ifvqglg","pricing_plan_id":"cebpf4jnsgd1na2vs0mg"},{"bike_id":"16817800-3a2b-4c2f-9e50-a859de8eef35","system_id":"levelo_inurba_marseille","lat":43.259353,"lon":5.409072,"is_reserved":false,"is_disabled":false,"rental_uris":{"android":"levelo://app?vid=16817800-3a2b-4c2f-9e50-a859de8eef35","ios":"levelo://app?vid=16817800-3a2b-4c2f-9e50-a859de8eef35"},"vehicle_type_id":"4","last_reported":1744193573,"current_range_meters":5600,"station_id":"ce4bhm92rcd13ifvqglg","pricing_plan_id":"cebpf4jnsgd1na2vs0mg"},{"bike_id":"456b79bb-81b6-42d9-a52b-1ca6c839f098","system_id":"levelo_inurba_marseille","lat":43.304104,"lon":5.412837,"is_reserved":false,"is_disabled":true,"rental_uris":{"android":"levelo://app?vid=456b79bb-81b6-42d9-a52b-1ca6c839f098","ios":"levelo://app?vid=456b79bb-81b6-42d9-a52b-1ca6c839f098"},"vehicle_type_id":"4","last_reported":1744193573,"current_range_meters":5600,"station_id":"ce4bhop2rcd13ifvqh8g","pricing_plan_id":"cebpf4jnsgd1na2vs0mg"},{"bike_id":"2e9000dc-6400-4918-a994-dd60039ca96d","system_id":"levelo_inurba_marseille","lat":43.31991,"lon":5.38157,"is_reserved":false,"is_disabled":true,"rental_uris":{"android":"levelo://app?vid=2e9000dc-6400-4918-a994-dd60039ca96d","ios":"levelo://app?vid=2e9000dc-6400-4918-a994-dd60039ca96d"},"vehicle_type_id":"4","last_reported":1744193573,"current_range_meters":5600,"station_id":"ce4bhr12rcd13ifvqhpg","pricing_plan_id":"cebpf4jnsgd1na2vs0mg"},{"bike_id":"894f4562-0236-4dd6-91d8-f358173f377f","system_id":"levelo_inurba_marseille","lat":43.29295,"lon":5.37464,"is_reserved":false,"is_disabled":false,"rental_uris":{"android":"levelo://app?vid=894f4562-0236-4dd6-91d8-f358173f377f","ios":"levelo://app?vid=894f4562-0236-4dd6-91d8-f358173f377f"},"vehicle_type_id":"4","last_reported":1744193573,"current_range_meters":6400,"station_id":"ce4bgi12rcd13ifvqb70","pricing_plan_id":"cebpf4jnsgd1na2vs0mg"},{"bike_id":"82f28cf6-556c-431d-a12b-bd3ce5fc2f28","system_id":"levelo_inurba_marseille","lat":43.27512,"lon":5.37749,"is_reserved":false,"is_disabled":false,"rental_uris":{"android":"levelo://app?vid=82f28cf6-556c-431d-a12b-bd3ce5fc2f28","ios":"levelo://app?vid=82f28cf6-556c-431d-a12b-bd3ce5fc2f28"},"vehicle_type_id":"4","last_reported":1744193573,"current_range_meters":6400,"station_id":"","pricing_plan_id":"cebpf4jnsgd1na2vs0mg"},{"bike_id":"708349ac-abab-4d71-becb-09e112df7c1f","system_id":"levelo_inurba_marseille","lat":43.32103,"lon":5.36766,"is_reserved":false,"is_disabled":false,"rental_uris":{"android":"levelo://app?vid=708349ac-abab-4d71-becb-09e112df7c1f","ios":"levelo://app?vid=708349ac-abab-4d71-becb-09e112df7c1f"},"vehicle_type_id":"4","last_reported":1744193573,"current_range_meters":6400,"station_id":"ce4bhrh2rcd13ifvqhug","pricing_plan_id":"cebpf4jnsgd1na2vs0mg"},{"bike_id":"b55e2727-3c33-419b-8a6a-a97ddf8b4f82","system_id":"levelo_inurba_marseille","lat":43.30136,"lon":5.37429,"is_reserved":false,"is_disabled":false,"rental_uris":{"android":"levelo://app?vid=b55e2727-3c33-419b-8a6a-a97ddf8b4f82","ios":"levelo://app?vid=b55e2727-3c33-419b-8a6a-a97ddf8b4f82"},"vehicle_type_id":"4","last_reported":1744193573,"current_range_meters":6400,"station_id":"ce4bgs92rcd13ifvqcc0","pricing_plan_id":"cebpf4jnsgd1na2vs0mg"},{"bike_id":"70810d3e-9936-4863-b211-84f880613e88","system_id":"levelo_inurba_marseille","lat":43.31297,"lon":5.37342,"is_reserved":false,"is_disabled":false,"rental_uris":{"android":"levelo://app?vid=70810d3e-9936-4863-b211-84f880613e88","ios":"levelo://app?vid=70810d3e-9936-4863-b211-84f880613e88"},"vehicle_type_id":"4","last_reported":1744193573,"current_range_meters":6800,"station_id":"","pricing_plan_id":"cebpf4jnsgd1na2vs0mg"},{"bike_id":"ec41b842-c84f-4ab1-894c-fc6101e00efb","system_id":"levelo_inurba_marseille","lat":43.31708,"lon":5.40295,"is_reserved":false,"is_disabled":false,"rental_uris":{"android":"levelo://app?vid=ec41b842-c84f-4ab1-894c-fc6101e00efb","ios":"levelo://app?vid=ec41b842-c84f-4ab1-894c-fc6101e00efb"},"vehicle_type_id":"4","last_reported":1744193573,"current_range_meters":6800,"station_id":"","pricing_plan_id":"cebpf4jnsgd1na2vs0mg"},{"bike_id":"6e009f44-ab0c-4d0a-b21d-10031dd59f2e","system_id":"levelo_inurba_marseille","lat":43.2849,"lon":5.38414,"is_reserved":false,"is_disabled":false,"rental_uris":{"android":"levelo://app?vid=6e009f44-ab0c-4d0a-b21d-10031dd59f2e","ios":"levelo://app?vid=6e009f44-ab0c-4d0a-b21d-10031dd59f2e"},"vehicle_type_id":"4","last_reported":1744193573,"current_range_meters":6800,"station_id":"ce4bh512rcd13ifvqe3g","pricing_plan_id":"cebpf4jnsgd1na2vs0mg"},{"bike_id":"5a5e8f1a-bec8-4f9b-9022-ff6006b6bdf3","system_id":"levelo_inurba_marseille","lat":43.26215,"lon":5.40476,"is_reserved":false,"is_disabled":false,"rental_uris":{"android":"levelo://app?vid=5a5e8f1a-bec8-4f9b-9022-ff6006b6bdf3","ios":"levelo://app?vid=5a5e8f1a-bec8-4f9b-9022-ff6006b6bdf3"},"vehicle_type_id":"4","last_reported":1744193573,"current_range_meters":7200,"station_id":"ce4bhmh2rcd13ifvqgmg","pricing_plan_id":"cebpf4jnsgd1na2vs0mg"},{"bike_id":"cd979ff2-92c8-4fcf-8ddc-8681e6a31574","system_id":"levelo_inurba_marseille","lat":43.24169,"lon":5.36414,"is_reserved":false,"is_disabled":false,"rental_uris":{"android":"levelo://app?vid=cd979ff2-92c8-4fcf-8ddc-8681e6a31574","ios":"levelo://app?vid=cd979ff2-92c8-4fcf-8ddc-8681e6a31574"},"vehicle_type_id":"4","last_reported":1744193573,"current_range_meters":7200,"station_id":"cpo36qri1sfpv3e86is0","pricing_plan_id":"cebpf4jnsgd1na2vs0mg"},{"bike_id":"ffe06810-5584-4421-889d-508aad74984f","system_id":"levelo_inurba_marseille","lat":43.261969,"lon":5.374734,"is_reserved":false,"is_disabled":false,"rental_uris":{"android":"levelo://app?vid=ffe06810-5584-4421-889d-508aad74984f","ios":"levelo://app?vid=ffe06810-5584-4421-889d-508aad74984f"},"vehicle_type_id":"4","last_reported":1744193573,"current_range_meters":7200,"station_id":"ce4bhgp2rcd13ifvqfc0","pricing_plan_id":"cebpf4jnsgd1na2vs0mg"},{"bike_id":"ca1cb9af-e981-4da8-ae84-4ca0779eecf9","system_id":"levelo_inurba_marseille","lat":43.31478,"lon":5.37288,"is_reserved":false,"is_disabled":false,"rental_uris":{"android":"levelo://app?vid=ca1cb9af-e981-4da8-ae84-4ca0779eecf9","ios":"levelo://app?vid=ca1cb9af-e981-4da8-ae84-4ca0779eecf9"},"vehicle_type_id":"4","last_reported":1744193573,"current_range_meters":8000,"station_id":"ce4bgt12rcd13ifvqcd0","pricing_plan_id":"cebpf4jnsgd1na2vs0mg"},{"bike_id":"3d0cae43-5b75-4aac-b7cb-471ce1151dd5","system_id":"levelo_inurba_marseille","lat":43.33061,"lon":5.39531,"is_reserved":false,"is_disabled":false,"rental_uris":{"android":"levelo://app?vid=3d0cae43-5b75-4aac-b7cb-471ce1151dd5","ios":"levelo://app?vid=3d0cae43-5b75-4aac-b7cb-471ce1151dd5"},"vehicle_type_id":"4","last_reported":1744193573,"current_range_meters":8000,"station_id":"","pricing_plan_id":"cebpf4jnsgd1na2vs0mg"},{"bike_id":"b20e9b96-9326-44a6-a232-b0c3da687017","system_id":"levelo_inurba_marseille","lat":43.30742,"lon":5.42439,"is_reserved":false,"is_disabled":false,"rental_uris":{"android":"levelo://app?vid=b20e9b96-9326-44a6-a232-b0c3da687017","ios":"levelo://app?vid=b20e9b96-9326-44a6-a232-b0c3da687017"},"vehicle_type_id":"4","last_reported":1744193573,"current_range_meters":8000,"station_id":"st_cvj6ca6bvosntc0bfgr0","pricing_plan_id":"cebpf4jnsgd1na2vs0mg"},{"bike_id":"5e6ad826-38da-4531-b4ba-2eda8622ede3","system_id":"levelo_inurba_marseille","lat":43.31088,"lon":5.40464,"is_reserved":false,"is_disabled":false,"rental_uris":{"android":"levelo://app?vid=5e6ad826-38da-4531-b4ba-2eda8622ede3","ios":"levelo://app?vid=5e6ad826-38da-4531-b4ba-2eda8622ede3"},"vehicle_type_id":"4","last_reported":1744193573,"current_range_meters":8000,"station_id":"","pricing_plan_id":"cebpf4jnsgd1na2vs0mg"},{"bike_id":"7cbc3abb-d96e-46ad-87a3-e0fdd1126f87","system_id":"levelo_inurba_marseille","lat":43.3138,"lon":5.38486,"is_reserved":false,"is_disabled":false,"rental_uris":{"android":"levelo://app?vid=7cbc3abb-d96e-46ad-87a3-e0fdd1126f87","ios":"levelo://app?vid=7cbc3abb-d96e-46ad-87a3-e0fdd1126f87"},"vehicle_type_id":"4","last_reported":1744193573,"current_range_meters":8400,"station_id":"ce4bgt92rcd13ifvqcf0","pricing_plan_id":"cebpf4jnsgd1na2vs0mg"},{"bike_id":"0aa02c49-cbb3-4907-a588-f754056f3ba8","system_id":"levelo_inurba_marseille","lat":43.30815,"lon":5.38148,"is_reserved":false,"is_disabled":true,"rental_uris":{"android":"levelo://app?vid=0aa02c49-cbb3-4907-a588-f754056f3ba8","ios":"levelo://app?vid=0aa02c49-cbb3-4907-a588-f754056f3ba8"},"vehicle_type_id":"4","last_reported":1744193573,"current_range_meters":8400,"station_id":"ce4bgt12rcd13ifvqce0","pricing_plan_id":"cebpf4jnsgd1na2vs0mg"},{"bike_id":"68d1cc33-0218-451e-8e10-d32225c21263","system_id":"levelo_inurba_marseille","lat":43.23162,"lon":5.43693,"is_reserved":false,"is_disabled":true,"rental_uris":{"android":"levelo://app?vid=68d1cc33-0218-451e-8e10-d32225c21263","ios":"levelo://app?vid=68d1cc33-0218-451e-8e10-d32225c21263"},"vehicle_type_id":"4","last_reported":1744193573,"current_range_meters":8400,"station_id":"ce4bhmp2rcd13ifvqgog","pricing_plan_id":"cebpf4jnsgd1na2vs0mg"},{"bike_id":"e0ddec79-bccf-492b-bfd6-46048fa2475d","system_id":"levelo_inurba_marseille","lat":43.32363,"lon":5.36764,"is_reserved":false,"is_disabled":false,"rental_uris":{"android":"levelo://app?vid=e0ddec79-bccf-492b-bfd6-46048fa2475d","ios":"levelo://app?vid=e0ddec79-bccf-492b-bfd6-46048fa2475d"},"vehicle_type_id":"4","last_reported":1744193573,"current_range_meters":8400,"station_id":"ce4bhsh2rcd13ifvqi2g","pricing_plan_id":"cebpf4jnsgd1na2vs0mg"},{"bike_id":"82209d15-f379-449a-ae72-80f997a62a1a","system_id":"levelo_inurba_marseille","lat":43.2928,"lon":5.40115,"is_reserved":false,"is_disabled":true,"rental_uris":{"android":"levelo://app?vid=82209d15-f379-449a-ae72-80f997a62a1a","ios":"levelo://app?vid=82209d15-f379-449a-ae72-80f997a62a1a"},"vehicle_type_id":"4","last_reported":1744193573,"current_range_meters":8400,"station_id":"ce4bh312rcd13ifvqdk0","pricing_plan_id":"cebpf4jnsgd1na2vs0mg"},{"bike_id":"1ca7d0c4-b7aa-4350-ad9f-4e24c2ba029a","system_id":"levelo_inurba_marseille","lat":43.3037,"lon":5.42487,"is_reserved":false,"is_disabled":true,"rental_uris":{"android":"levelo://app?vid=1ca7d0c4-b7aa-4350-ad9f-4e24c2ba029a","ios":"levelo://app?vid=1ca7d0c4-b7aa-4350-ad9f-4e24c2ba029a"},"vehicle_type_id":"4","last_reported":1744193573,"current_range_meters":8800,"station_id":"ce4bhoh2rcd13ifvqh6g","pricing_plan_id":"cebpf4jnsgd1na2vs0mg"},{"bike_id":"a566336b-6133-47a6-ad7f-74f32862e29a","system_id":"levelo_inurba_marseille","lat":43.30372,"lon":5.42504,"is_reserved":false,"is_disabled":false,"rental_uris":{"android":"levelo://app?vid=a566336b-6133-47a6-ad7f-74f32862e29a","ios":"levelo://app?vid=a566336b-6133-47a6-ad7f-74f32862e29a"},"vehicle_type_id":"4","last_reported":1744193573,"current_range_meters":8800,"station_id":"ce4bhoh2rcd13ifvqh6g","pricing_plan_id":"cebpf4jnsgd1na2vs0mg"},{"bike_id":"2316a27d-e8bc-4c82-90fe-4120ccb0ef4b","system_id":"levelo_inurba_marseille","lat":43.23144,"lon":5.43718,"is_reserved":false,"is_disabled":false,"rental_uris":{"android":"levelo://app?vid=2316a27d-e8bc-4c82-90fe-4120ccb0ef4b","ios":"levelo://app?vid=2316a27d-e8bc-4c82-90fe-4120ccb0ef4b"},"vehicle_type_id":"4","last_reported":1744193573,"current_range_meters":8800,"station_id":"ce4bhmp2rcd13ifvqgog","pricing_plan_id":"cebpf4jnsgd1na2vs0mg"},{"bike_id":"caf40fb7-c21d-4faf-84e3-3a5cef98e6f8","system_id":"levelo_inurba_marseille","lat":43.303043,"lon":5.368924,"is_reserved":false,"is_disabled":false,"rental_uris":{"android":"levelo://app?vid=caf40fb7-c21d-4faf-84e3-3a5cef98e6f8","ios":"levelo://app?vid=caf40fb7-c21d-4faf-84e3-3a5cef98e6f8"},"vehicle_type_id":"4","last_reported":1744193573,"current_range_meters":8800,"station_id":"ce4bgqh2rcd13ifvqc5g","pricing_plan_id":"cebpf4jnsgd1na2vs0mg"},{"bike_id":"885b33c8-541c-42a6-9b26-006a357ad821","system_id":"levelo_inurba_marseille","lat":43.291828,"lon":5.379437,"is_reserved":false,"is_disabled":false,"rental_uris":{"android":"levelo://app?vid=885b33c8-541c-42a6-9b26-006a357ad821","ios":"levelo://app?vid=885b33c8-541c-42a6-9b26-006a357ad821"},"vehicle_type_id":"4","last_reported":1744193573,"current_range_meters":9200,"station_id":"ce4bgpp2rcd13ifvqc3g","pricing_plan_id":"cebpf4jnsgd1na2vs0mg"},{"bike_id":"80663e12-6b64-446d-88c9-20255bde1a8a","system_id":"levelo_inurba_marseille","lat":43.30894,"lon":5.39632,"is_reserved":false,"is_disabled":true,"rental_uris":{"android":"levelo://app?vid=80663e12-6b64-446d-88c9-20255bde1a8a","ios":"levelo://app?vid=80663e12-6b64-446d-88c9-20255bde1a8a"},"vehicle_type_id":"4","last_reported":1744193573,"current_range_meters":9200,"station_id":"ce4bh012rcd13ifvqcv0","pricing_plan_id":"cebpf4jnsgd1na2vs0mg"},{"bike_id":"ae8acc12-d36d-43ae-9b5c-d788c29ead74","system_id":"levelo_inurba_marseille","lat":43.24806,"lon":5.37442,"is_reserved":false,"is_disabled":false,"rental_uris":{"android":"levelo://app?vid=ae8acc12-d36d-43ae-9b5c-d788c29ead74","ios":"levelo://app?vid=ae8acc12-d36d-43ae-9b5c-d788c29ead74"},"vehicle_type_id":"4","last_reported":1744193573,"current_range_meters":9200,"station_id":"ce4bhgh2rcd13ifvqfb0","pricing_plan_id":"cebpf4jnsgd1na2vs0mg"},{"bike_id":"93dc05e7-18be-495e-81f8-226ded3af89f","system_id":"levelo_inurba_marseille","lat":43.29727,"lon":5.3769,"is_reserved":false,"is_disabled":true,"rental_uris":{"android":"levelo://app?vid=93dc05e7-18be-495e-81f8-226ded3af89f","ios":"levelo://app?vid=93dc05e7-18be-495e-81f8-226ded3af89f"},"vehicle_type_id":"4","last_reported":1744193573,"current_range_meters":9200,"station_id":"ce4bgkh2rcd13ifvqbl0","pricing_plan_id":"cebpf4jnsgd1na2vs0mg"},{"bike_id":"08f9c0c8-8b33-4578-8a03-20f44d582241","system_id":"levelo_inurba_marseille","lat":43.30602,"lon":5.37136,"is_reserved":false,"is_disabled":false,"rental_uris":{"android":"levelo://app?vid=08f9c0c8-8b33-4578-8a03-20f44d582241","ios":"levelo://app?vid=08f9c0c8-8b33-4578-8a03-20f44d582241"},"vehicle_type_id":"4","last_reported":1744193573,"current_range_meters":9200,"station_id":"","pricing_plan_id":"cebpf4jnsgd1na2vs0mg"},{"bike_id":"902ca8cb-50e4-4de5-8f28-66ff94d3e159","system_id":"levelo_inurba_marseille","lat":43.29268,"lon":5.38431,"is_reserved":false,"is_disabled":false,"rental_uris":{"android":"levelo://app?vid=902ca8cb-50e4-4de5-8f28-66ff94d3e159","ios":"levelo://app?vid=902ca8cb-50e4-4de5-8f28-66ff94d3e159"},"vehicle_type_id":"4","last_reported":1744193573,"current_range_meters":9200,"station_id":"ce4bh692rcd13ifvqea0","pricing_plan_id":"cebpf4jnsgd1na2vs0mg"},{"bike_id":"df54b984-9ac6-4e0a-b08c-294a2263e049","system_id":"levelo_inurba_marseille","lat":43.23148,"lon":5.4372,"is_reserved":false,"is_disabled":false,"rental_uris":{"android":"levelo://app?vid=df54b984-9ac6-4e0a-b08c-294a2263e049","ios":"levelo://app?vid=df54b984-9ac6-4e0a-b08c-294a2263e049"},"vehicle_type_id":"4","last_reported":1744193573,"current_range_meters":9200,"station_id":"ce4bhmp2rcd13ifvqgog","pricing_plan_id":"cebpf4jnsgd1na2vs0mg"},{"bike_id":"b397701f-0d3d-44bf-ab3e-3ccc7e74fb2e","system_id":"levelo_inurba_marseille","lat":43.264501,"lon":5.422769,"is_reserved":false,"is_disabled":false,"rental_uris":{"android":"levelo://app?vid=b397701f-0d3d-44bf-ab3e-3ccc7e74fb2e","ios":"levelo://app?vid=b397701f-0d3d-44bf-ab3e-3ccc7e74fb2e"},"vehicle_type_id":"4","last_reported":1744193573,"current_range_meters":9200,"station_id":"","pricing_plan_id":"cebpf4jnsgd1na2vs0mg"},{"bike_id":"ad212075-aa88-4f52-8b77-40fff53ff563","system_id":"levelo_inurba_marseille","lat":43.30377,"lon":5.42486,"is_reserved":false,"is_disabled":false,"rental_uris":{"android":"levelo://app?vid=ad212075-aa88-4f52-8b77-40fff53ff563","ios":"levelo://app?vid=ad212075-aa88-4f52-8b77-40fff53ff563"},"vehicle_type_id":"4","last_reported":1744193573,"current_range_meters":9200,"station_id":"ce4bhoh2rcd13ifvqh6g","pricing_plan_id":"cebpf4jnsgd1na2vs0mg"},{"bike_id":"b86eab0d-277a-44aa-b0d6-f413fa90aac6","system_id":"levelo_inurba_marseille","lat":43.28418,"lon":5.37517,"is_reserved":false,"is_disabled":true,"rental_uris":{"android":"levelo://app?vid=b86eab0d-277a-44aa-b0d6-f413fa90aac6","ios":"levelo://app?vid=b86eab0d-277a-44aa-b0d6-f413fa90aac6"},"vehicle_type_id":"4","last_reported":1744193573,"current_range_meters":9600,"station_id":"ce4bh412rcd13ifvqds0","pricing_plan_id":"cebpf4jnsgd1na2vs0mg"},{"bike_id":"acfb7a54-46b5-42e8-8cc0-d278a87704a2","system_id":"levelo_inurba_marseille","lat":43.26222,"lon":5.40455,"is_reserved":false,"is_disabled":false,"rental_uris":{"android":"levelo://app?vid=acfb7a54-46b5-42e8-8cc0-d278a87704a2","ios":"levelo://app?vid=acfb7a54-46b5-42e8-8cc0-d278a87704a2"},"vehicle_type_id":"4","last_reported":1744193573,"current_range_meters":9600,"station_id":"ce4bhmh2rcd13ifvqgmg","pricing_plan_id":"cebpf4jnsgd1na2vs0mg"},{"bike_id":"21ad85cb-fd01-4f4b-a5e7-06320eee0f8b","system_id":"levelo_inurba_marseille","lat":43.24648,"lon":5.38888,"is_reserved":false,"is_disabled":false,"rental_uris":{"android":"levelo://app?vid=21ad85cb-fd01-4f4b-a5e7-06320eee0f8b","ios":"levelo://app?vid=21ad85cb-fd01-4f4b-a5e7-06320eee0f8b"},"vehicle_type_id":"4","last_reported":1744193573,"current_range_meters":9600,"station_id":"ce4bhg12rcd13ifvqf60","pricing_plan_id":"cebpf4jnsgd1na2vs0mg"},{"bike_id":"894923f7-24a8-4f05-8d0c-1af4b4d3211a","system_id":"levelo_inurba_marseille","lat":43.30315,"lon":5.39211,"is_reserved":false,"is_disabled":true,"rental_uris":{"android":"levelo://app?vid=894923f7-24a8-4f05-8d0c-1af4b4d3211a","ios":"levelo://app?vid=894923f7-24a8-4f05-8d0c-1af4b4d3211a"},"vehicle_type_id":"4","last_reported":1744193573,"current_range_meters":10000,"station_id":"ce4bgkh2rcd13ifvqbk0","pricing_plan_id":"cebpf4jnsgd1na2vs0mg"},{"bike_id":"ce0fd5b8-478f-4f08-869c-935a7a4c659f","system_id":"levelo_inurba_marseille","lat":43.33286,"lon":5.3797,"is_reserved":false,"is_disabled":false,"rental_uris":{"android":"levelo://app?vid=ce0fd5b8-478f-4f08-869c-935a7a4c659f","ios":"levelo://app?vid=ce0fd5b8-478f-4f08-869c-935a7a4c659f"},"vehicle_type_id":"4","last_reported":1744193573,"current_range_meters":10000,"station_id":"","pricing_plan_id":"cebpf4jnsgd1na2vs0mg"},{"bike_id":"e24c6fd3-f9cb-40c7-9e57-dd2c20540e9b","system_id":"levelo_inurba_marseille","lat":43.31721,"lon":5.42407,"is_reserved":false,"is_disabled":false,"rental_uris":{"android":"levelo://app?vid=e24c6fd3-f9cb-40c7-9e57-dd2c20540e9b","ios":"levelo://app?vid=e24c6fd3-f9cb-40c7-9e57-dd2c20540e9b"},"vehicle_type_id":"4","last_reported":1744193573,"current_range_meters":10000,"station_id":"ce4bhp92rcd13ifvqhbg","pricing_plan_id":"cebpf4jnsgd1na2vs0mg"},{"bike_id":"e144898c-5060-45a5-8ca9-26fb817c2301","system_id":"levelo_inurba_marseille","lat":43.31223,"lon":5.36869,"is_reserved":false,"is_disabled":false,"rental_uris":{"android":"levelo://app?vid=e144898c-5060-45a5-8ca9-26fb817c2301","ios":"levelo://app?vid=e144898c-5060-45a5-8ca9-26fb817c2301"},"vehicle_type_id":"4","last_reported":1744193573,"current_range_meters":10000,"station_id":"ce4bgl92rcd13ifvqbq0","pricing_plan_id":"cebpf4jnsgd1na2vs0mg"},{"bike_id":"012e7a50-1197-4bdf-bd4d-79e45f914126","system_id":"levelo_inurba_marseille","lat":43.28155,"lon":5.4264,"is_reserved":false,"is_disabled":true,"rental_uris":{"android":"levelo://app?vid=012e7a50-1197-4bdf-bd4d-79e45f914126","ios":"levelo://app?vid=012e7a50-1197-4bdf-bd4d-79e45f914126"},"vehicle_type_id":"4","last_reported":1744193573,"current_range_meters":10000,"station_id":"ce4bhnh2rcd13ifvqgug","pricing_plan_id":"cebpf4jnsgd1na2vs0mg"},{"bike_id":"1180a7b1-52e4-45a6-a35d-3a6133d07906","system_id":"levelo_inurba_marseille","lat":43.30148,"lon":5.37399,"is_reserved":false,"is_disabled":false,"rental_uris":{"android":"levelo://app?vid=1180a7b1-52e4-45a6-a35d-3a6133d07906","ios":"levelo://app?vid=1180a7b1-52e4-45a6-a35d-3a6133d07906"},"vehicle_type_id":"4","last_reported":1744193573,"current_range_meters":10800,"station_id":"ce4bgs92rcd13ifvqcc0","pricing_plan_id":"cebpf4jnsgd1na2vs0mg"},{"bike_id":"07310b02-0812-4013-8bd6-5347f1d88d43","system_id":"levelo_inurba_marseille","lat":43.29574,"lon":5.36747,"is_reserved":false,"is_disabled":false,"rental_uris":{"android":"levelo://app?vid=07310b02-0812-4013-8bd6-5347f1d88d43","ios":"levelo://app?vid=07310b02-0812-4013-8bd6-5347f1d88d43"},"vehicle_type_id":"4","last_reported":1744193573,"current_range_meters":10800,"station_id":"ce4bgph2rcd13ifvqc2g","pricing_plan_id":"cebpf4jnsgd1na2vs0mg"},{"bike_id":"5ae25533-40b9-4fe8-ab86-3f0cd94d133a","system_id":"levelo_inurba_marseille","lat":43.31084,"lon":5.42429,"is_reserved":false,"is_disabled":false,"rental_uris":{"android":"levelo://app?vid=5ae25533-40b9-4fe8-ab86-3f0cd94d133a","ios":"levelo://app?vid=5ae25533-40b9-4fe8-ab86-3f0cd94d133a"},"vehicle_type_id":"4","last_reported":1744193573,"current_range_meters":10800,"station_id":"ce4bhp92rcd13ifvqhag","pricing_plan_id":"cebpf4jnsgd1na2vs0mg"},{"bike_id":"38c43302-d0f3-42c8-89fb-a9374ff631e5","system_id":"levelo_inurba_marseille","lat":43.30546,"lon":5.36546,"is_reserved":false,"is_disabled":false,"rental_uris":{"android":"levelo://app?vid=38c43302-d0f3-42c8-89fb-a9374ff631e5","ios":"levelo://app?vid=38c43302-d0f3-42c8-89fb-a9374ff631e5"},"vehicle_type_id":"4","last_reported":1744193573,"current_range_meters":10800,"station_id":"ce4bgs12rcd13ifvqcag","pricing_plan_id":"cebpf4jnsgd1na2vs0mg"},{"bike_id":"75ce6aac-0c64-439b-bfff-705ea259870c","system_id":"levelo_inurba_marseille","lat":43.30313,"lon":5.3689,"is_reserved":false,"is_disabled":false,"rental_uris":{"android":"levelo://app?vid=75ce6aac-0c64-439b-bfff-705ea259870c","ios":"levelo://app?vid=75ce6aac-0c64-439b-bfff-705ea259870c"},"vehicle_type_id":"4","last_reported":1744193573,"current_range_meters":10800,"station_id":"ce4bgqh2rcd13ifvqc5g","pricing_plan_id":"cebpf4jnsgd1na2vs0mg"},{"bike_id":"58e8190f-cded-4bd0-8488-a02552cd7e3b","system_id":"levelo_inurba_marseille","lat":43.30539,"lon":5.36519,"is_reserved":false,"is_disabled":false,"rental_uris":{"android":"levelo://app?vid=58e8190f-cded-4bd0-8488-a02552cd7e3b","ios":"levelo://app?vid=58e8190f-cded-4bd0-8488-a02552cd7e3b"},"vehicle_type_id":"4","last_reported":1744193573,"current_range_meters":10800,"station_id":"ce4bgs12rcd13ifvqcag","pricing_plan_id":"cebpf4jnsgd1na2vs0mg"},{"bike_id":"348760c9-70d0-4f01-8817-afa6ebffa1f9","system_id":"levelo_inurba_marseille","lat":43.299715,"lon":5.37169,"is_reserved":false,"is_disabled":false,"rental_uris":{"android":"levelo://app?vid=348760c9-70d0-4f01-8817-afa6ebffa1f9","ios":"levelo://app?vid=348760c9-70d0-4f01-8817-afa6ebffa1f9"},"vehicle_type_id":"4","last_reported":1744193573,"current_range_meters":11200,"station_id":"ce4bgr92rcd13ifvqc7g","pricing_plan_id":"cebpf4jnsgd1na2vs0mg"},{"bike_id":"73b26134-579d-4614-873d-058d48439e9f","system_id":"levelo_inurba_marseille","lat":43.30429,"lon":5.39747,"is_reserved":false,"is_disabled":false,"rental_uris":{"android":"levelo://app?vid=73b26134-579d-4614-873d-058d48439e9f","ios":"levelo://app?vid=73b26134-579d-4614-873d-058d48439e9f"},"vehicle_type_id":"4","last_reported":1744193573,"current_range_meters":11200,"station_id":"ce4bh092rcd13ifvqd20","pricing_plan_id":"cebpf4jnsgd1na2vs0mg"},{"bike_id":"f4a4b4a5-5c1f-4001-84eb-01caa3d7de44","system_id":"levelo_inurba_marseille","lat":43.27961,"lon":5.38709,"is_reserved":false,"is_disabled":false,"rental_uris":{"android":"levelo://app?vid=f4a4b4a5-5c1f-4001-84eb-01caa3d7de44","ios":"levelo://app?vid=f4a4b4a5-5c1f-4001-84eb-01caa3d7de44"},"vehicle_type_id":"4","last_reported":1744193573,"current_range_meters":11200,"station_id":"ce4bhg12rcd13ifvqf80","pricing_plan_id":"cebpf4jnsgd1na2vs0mg"},{"bike_id":"0d49b47f-468c-4650-8e32-89e6f15bee24","system_id":"levelo_inurba_marseille","lat":43.24171,"lon":5.39712,"is_reserved":false,"is_disabled":false,"rental_uris":{"android":"levelo://app?vid=0d49b47f-468c-4650-8e32-89e6f15bee24","ios":"levelo://app?vid=0d49b47f-468c-4650-8e32-89e6f15bee24"},"vehicle_type_id":"4","last_reported":1744193573,"current_range_meters":11200,"station_id":"ce4bhn12rcd13ifvqgpg","pricing_plan_id":"cebpf4jnsgd1na2vs0mg"},{"bike_id":"1e099cf5-9456-4ac3-8d36-9153ce8a87f2","system_id":"levelo_inurba_marseille","lat":43.29566,"lon":5.39967,"is_reserved":false,"is_disabled":true,"rental_uris":{"android":"levelo://app?vid=1e099cf5-9456-4ac3-8d36-9153ce8a87f2","ios":"levelo://app?vid=1e099cf5-9456-4ac3-8d36-9153ce8a87f2"},"vehicle_type_id":"4","last_reported":1744193573,"current_range_meters":11600,"station_id":"ce4bh312rcd13ifvqdj0","pricing_plan_id":"cebpf4jnsgd1na2vs0mg"},{"bike_id":"915f4854-f7be-4221-a2bb-9d72e19c110c","system_id":"levelo_inurba_marseille","lat":43.23966,"lon":5.36631,"is_reserved":false,"is_disabled":false,"rental_uris":{"android":"levelo://app?vid=915f4854-f7be-4221-a2bb-9d72e19c110c","ios":"levelo://app?vid=915f4854-f7be-4221-a2bb-9d72e19c110c"},"vehicle_type_id":"4","last_reported":1744193573,"current_range_meters":11600,"station_id":"ce4bhi12rcd13ifvqfp0","pricing_plan_id":"cebpf4jnsgd1na2vs0mg"},{"bike_id":"a5fb349b-e3aa-497a-a3cf-51fd8e83a039","system_id":"levelo_inurba_marseille","lat":43.29905,"lon":5.38156,"is_reserved":false,"is_disabled":false,"rental_uris":{"android":"levelo://app?vid=a5fb349b-e3aa-497a-a3cf-51fd8e83a039","ios":"levelo://app?vid=a5fb349b-e3aa-497a-a3cf-51fd8e83a039"},"vehicle_type_id":"4","last_reported":1744193573,"current_range_meters":12000,"station_id":"ce4bgj12rcd13ifvqbc0","pricing_plan_id":"cebpf4jnsgd1na2vs0mg"},{"bike_id":"1a7648b5-76ac-4a6a-9444-f6d4597257d1","system_id":"levelo_inurba_marseille","lat":43.306645,"lon":5.36599,"is_reserved":false,"is_disabled":false,"rental_uris":{"android":"levelo://app?vid=1a7648b5-76ac-4a6a-9444-f6d4597257d1","ios":"levelo://app?vid=1a7648b5-76ac-4a6a-9444-f6d4597257d1"},"vehicle_type_id":"4","last_reported":1744193573,"current_range_meters":12000,"station_id":"ce4bgth2rcd13ifvqch0","pricing_plan_id":"cebpf4jnsgd1na2vs0mg"},{"bike_id":"e82d3cbf-6990-4eca-9743-6a7db542c284","system_id":"levelo_inurba_marseille","lat":43.32363,"lon":5.40558,"is_reserved":false,"is_disabled":false,"rental_uris":{"android":"levelo://app?vid=e82d3cbf-6990-4eca-9743-6a7db542c284","ios":"levelo://app?vid=e82d3cbf-6990-4eca-9743-6a7db542c284"},"vehicle_type_id":"4","last_reported":1744193573,"current_range_meters":12400,"station_id":"","pricing_plan_id":"cebpf4jnsgd1na2vs0mg"},{"bike_id":"19abb93d-de37-47aa-8fd3-e4b476a92d9c","system_id":"levelo_inurba_marseille","lat":43.30598,"lon":5.37228,"is_reserved":false,"is_disabled":false,"rental_uris":{"android":"levelo://app?vid=19abb93d-de37-47aa-8fd3-e4b476a92d9c","ios":"levelo://app?vid=19abb93d-de37-47aa-8fd3-e4b476a92d9c"},"vehicle_type_id":"4","last_reported":1744193573,"current_range_meters":12800,"station_id":"ce4bgqh2rcd13ifvqc4g","pricing_plan_id":"cebpf4jnsgd1na2vs0mg"},{"bike_id":"2020a537-5ba7-4f25-8161-27db20320d55","system_id":"levelo_inurba_marseille","lat":43.2927,"lon":5.38439,"is_reserved":false,"is_disabled":false,"rental_uris":{"android":"levelo://app?vid=2020a537-5ba7-4f25-8161-27db20320d55","ios":"levelo://app?vid=2020a537-5ba7-4f25-8161-27db20320d55"},"vehicle_type_id":"4","last_reported":1744193573,"current_range_meters":12800,"station_id":"ce4bh692rcd13ifvqea0","pricing_plan_id":"cebpf4jnsgd1na2vs0mg"},{"bike_id":"38285d87-c8a0-44cb-9803-83117697da26","system_id":"levelo_inurba_marseille","lat":43.2792,"lon":5.39588,"is_reserved":false,"is_disabled":false,"rental_uris":{"android":"levelo://app?vid=38285d87-c8a0-44cb-9803-83117697da26","ios":"levelo://app?vid=38285d87-c8a0-44cb-9803-83117697da26"},"vehicle_type_id":"4","last_reported":1744193573,"current_range_meters":12800,"station_id":"ce4bhf92rcd13ifvqf40","pricing_plan_id":"cebpf4jnsgd1na2vs0mg"},{"bike_id":"5f30a5a4-de9f-499e-b151-b811ebb3b43a","system_id":"levelo_inurba_marseille","lat":43.31062,"lon":5.38347,"is_reserved":false,"is_disabled":true,"rental_uris":{"android":"levelo://app?vid=5f30a5a4-de9f-499e-b151-b811ebb3b43a","ios":"levelo://app?vid=5f30a5a4-de9f-499e-b151-b811ebb3b43a"},"vehicle_type_id":"4","last_reported":1744193573,"current_range_meters":12800,"station_id":"ce4bgv92rcd13ifvqcr0","pricing_plan_id":"cebpf4jnsgd1na2vs0mg"},{"bike_id":"cc23f386-e027-4abe-bbdd-5e252c76d169","system_id":"levelo_inurba_marseille","lat":43.2314,"lon":5.43719,"is_reserved":false,"is_disabled":false,"rental_uris":{"android":"levelo://app?vid=cc23f386-e027-4abe-bbdd-5e252c76d169","ios":"levelo://app?vid=cc23f386-e027-4abe-bbdd-5e252c76d169"},"vehicle_type_id":"4","last_reported":1744193573,"current_range_meters":12800,"station_id":"ce4bhmp2rcd13ifvqgog","pricing_plan_id":"cebpf4jnsgd1na2vs0mg"},{"bike_id":"739a9bd0-b90f-42ad-bc9f-adc460f320e8","system_id":"levelo_inurba_marseille","lat":43.32361,"lon":5.36762,"is_reserved":false,"is_disabled":false,"rental_uris":{"android":"levelo://app?vid=739a9bd0-b90f-42ad-bc9f-adc460f320e8","ios":"levelo://app?vid=739a9bd0-b90f-42ad-bc9f-adc460f320e8"},"vehicle_type_id":"4","last_reported":1744193573,"current_range_meters":12800,"station_id":"ce4bhsh2rcd13ifvqi2g","pricing_plan_id":"cebpf4jnsgd1na2vs0mg"},{"bike_id":"fa7032a6-af17-4b49-b301-3ae08c5baa65","system_id":"levelo_inurba_marseille","lat":43.22936,"lon":5.35384,"is_reserved":false,"is_disabled":false,"rental_uris":{"android":"levelo://app?vid=fa7032a6-af17-4b49-b301-3ae08c5baa65","ios":"levelo://app?vid=fa7032a6-af17-4b49-b301-3ae08c5baa65"},"vehicle_type_id":"4","last_reported":1744193573,"current_range_meters":13600,"station_id":"cpo3532slgdg3j2ikp40","pricing_plan_id":"cebpf4jnsgd1na2vs0mg"},{"bike_id":"deff944e-3d9d-408f-b481-2ca618c41980","system_id":"levelo_inurba_marseille","lat":43.28453,"lon":5.3589,"is_reserved":false,"is_disabled":false,"rental_uris":{"android":"levelo://app?vid=deff944e-3d9d-408f-b481-2ca618c41980","ios":"levelo://app?vid=deff944e-3d9d-408f-b481-2ca618c41980"},"vehicle_type_id":"4","last_reported":1744193573,"current_range_meters":13600,"station_id":"ce4bhah2rcd13ifvqei0","pricing_plan_id":"cebpf4jnsgd1na2vs0mg"},{"bike_id":"577c7d72-8762-4090-a9f4-3249b86d5a64","system_id":"levelo_inurba_marseille","lat":43.301575,"lon":5.387931,"is_reserved":false,"is_disabled":false,"rental_uris":{"android":"levelo://app?vid=577c7d72-8762-4090-a9f4-3249b86d5a64","ios":"levelo://app?vid=577c7d72-8762-4090-a9f4-3249b86d5a64"},"vehicle_type_id":"4","last_reported":1744193573,"current_range_meters":13600,"station_id":"ce4bgup2rcd13ifvqcn0","pricing_plan_id":"cebpf4jnsgd1na2vs0mg"},{"bike_id":"df9bd667-b38a-4b68-adec-fd6077bbc5b9","system_id":"levelo_inurba_marseille","lat":43.217445,"lon":5.346046,"is_reserved":false,"is_disabled":false,"rental_uris":{"android":"levelo://app?vid=df9bd667-b38a-4b68-adec-fd6077bbc5b9","ios":"levelo://app?vid=df9bd667-b38a-4b68-adec-fd6077bbc5b9"},"vehicle_type_id":"4","last_reported":1744193573,"current_range_meters":13600,"station_id":"","pricing_plan_id":"cebpf4jnsgd1na2vs0mg"},{"bike_id":"62a970a8-ceb5-4ee9-a4d6-92537ea34f4b","system_id":"levelo_inurba_marseille","lat":43.28477,"lon":5.38429,"is_reserved":false,"is_disabled":false,"rental_uris":{"android":"levelo://app?vid=62a970a8-ceb5-4ee9-a4d6-92537ea34f4b","ios":"levelo://app?vid=62a970a8-ceb5-4ee9-a4d6-92537ea34f4b"},"vehicle_type_id":"4","last_reported":1744193573,"current_range_meters":13600,"station_id":"ce4bh512rcd13ifvqe3g","pricing_plan_id":"cebpf4jnsgd1na2vs0mg"},{"bike_id":"61ad2f19-d511-44f0-944e-9576e28f5f14","system_id":"levelo_inurba_marseille","lat":43.30599,"lon":5.3936,"is_reserved":false,"is_disabled":true,"rental_uris":{"android":"levelo://app?vid=61ad2f19-d511-44f0-944e-9576e28f5f14","ios":"levelo://app?vid=61ad2f19-d511-44f0-944e-9576e28f5f14"},"vehicle_type_id":"4","last_reported":1744193573,"current_range_meters":14000,"station_id":"ce4bh0p2rcd13ifvqd80","pricing_plan_id":"cebpf4jnsgd1na2vs0mg"},{"bike_id":"9551c3d4-78d6-4f19-999c-222e517443ca","system_id":"levelo_inurba_marseille","lat":43.284804,"lon":5.384172,"is_reserved":false,"is_disabled":false,"rental_uris":{"android":"levelo://app?vid=9551c3d4-78d6-4f19-999c-222e517443ca","ios":"levelo://app?vid=9551c3d4-78d6-4f19-999c-222e517443ca"},"vehicle_type_id":"4","last_reported":1744193573,"current_range_meters":14000,"station_id":"ce4bhgh2rcd13ifvqfb0","pricing_plan_id":"cebpf4jnsgd1na2vs0mg"},{"bike_id":"9fce7fb9-26b6-4832-9f96-ea1b75c489f0","system_id":"levelo_inurba_marseille","lat":43.22796,"lon":5.35193,"is_reserved":false,"is_disabled":false,"rental_uris":{"android":"levelo://app?vid=9fce7fb9-26b6-4832-9f96-ea1b75c489f0","ios":"levelo://app?vid=9fce7fb9-26b6-4832-9f96-ea1b75c489f0"},"vehicle_type_id":"4","last_reported":1744193573,"current_range_meters":14000,"station_id":"","pricing_plan_id":"cebpf4jnsgd1na2vs0mg"},{"bike_id":"8aca47b8-dcba-4e10-a490-7acd73bde0df","system_id":"levelo_inurba_marseille","lat":43.30551,"lon":5.365364,"is_reserved":false,"is_disabled":false,"rental_uris":{"android":"levelo://app?vid=8aca47b8-dcba-4e10-a490-7acd73bde0df","ios":"levelo://app?vid=8aca47b8-dcba-4e10-a490-7acd73bde0df"},"vehicle_type_id":"4","last_reported":1744193573,"current_range_meters":14000,"station_id":"ce4bgs12rcd13ifvqcag","pricing_plan_id":"cebpf4jnsgd1na2vs0mg"},{"bike_id":"c3a91a3d-a4ac-4d56-8185-8b1560aef698","system_id":"levelo_inurba_marseille","lat":43.28694,"lon":5.3998,"is_reserved":false,"is_disabled":false,"rental_uris":{"android":"levelo://app?vid=c3a91a3d-a4ac-4d56-8185-8b1560aef698","ios":"levelo://app?vid=c3a91a3d-a4ac-4d56-8185-8b1560aef698"},"vehicle_type_id":"4","last_reported":1744193573,"current_range_meters":14000,"station_id":"ce4bho92rcd13ifvqh3g","pricing_plan_id":"cebpf4jnsgd1na2vs0mg"},{"bike_id":"b37944fb-f9c1-4c8e-ac3a-9da227afb433","system_id":"levelo_inurba_marseille","lat":43.30815,"lon":5.38155,"is_reserved":false,"is_disabled":true,"rental_uris":{"android":"levelo://app?vid=b37944fb-f9c1-4c8e-ac3a-9da227afb433","ios":"levelo://app?vid=b37944fb-f9c1-4c8e-ac3a-9da227afb433"},"vehicle_type_id":"4","last_reported":1744193573,"current_range_meters":14000,"station_id":"ce4bgt12rcd13ifvqce0","pricing_plan_id":"cebpf4jnsgd1na2vs0mg"},{"bike_id":"b3014d67-1beb-4a0f-a0f5-829e0d2a4492","system_id":"levelo_inurba_marseille","lat":43.21751,"lon":5.34596,"is_reserved":false,"is_disabled":false,"rental_uris":{"android":"levelo://app?vid=b3014d67-1beb-4a0f-a0f5-829e0d2a4492","ios":"levelo://app?vid=b3014d67-1beb-4a0f-a0f5-829e0d2a4492"},"vehicle_type_id":"4","last_reported":1744193573,"current_range_meters":14000,"station_id":"st_cvj6r9ubvosntc0bgbag","pricing_plan_id":"cebpf4jnsgd1na2vs0mg"},{"bike_id":"e0720c42-9935-499f-b17c-74f28ce831b7","system_id":"levelo_inurba_marseille","lat":43.28071,"lon":5.39627,"is_reserved":false,"is_disabled":false,"rental_uris":{"android":"levelo://app?vid=e0720c42-9935-499f-b17c-74f28ce831b7","ios":"levelo://app?vid=e0720c42-9935-499f-b17c-74f28ce831b7"},"vehicle_type_id":"4","last_reported":1744193573,"current_range_meters":14400,"station_id":"ce4bho12rcd13ifvqh2g","pricing_plan_id":"cebpf4jnsgd1na2vs0mg"},{"bike_id":"f03c477b-574b-41a2-8215-28e0a35c0c45","system_id":"levelo_inurba_marseille","lat":43.30538,"lon":5.367,"is_reserved":false,"is_disabled":false,"rental_uris":{"android":"levelo://app?vid=f03c477b-574b-41a2-8215-28e0a35c0c45","ios":"levelo://app?vid=f03c477b-574b-41a2-8215-28e0a35c0c45"},"vehicle_type_id":"4","last_reported":1744193573,"current_range_meters":14400,"station_id":"ce4bgrp2rcd13ifvqc9g","pricing_plan_id":"cebpf4jnsgd1na2vs0mg"},{"bike_id":"aa6306d2-65ab-42a2-9b0d-ef5604f971de","system_id":"levelo_inurba_marseille","lat":43.30462,"lon":5.37897,"is_reserved":false,"is_disabled":false,"rental_uris":{"android":"levelo://app?vid=aa6306d2-65ab-42a2-9b0d-ef5604f971de","ios":"levelo://app?vid=aa6306d2-65ab-42a2-9b0d-ef5604f971de"},"vehicle_type_id":"4","last_reported":1744193573,"current_range_meters":14400,"station_id":"ce4bgup2rcd13ifvqcn0","pricing_plan_id":"cebpf4jnsgd1na2vs0mg"},{"bike_id":"c51ff168-1417-4963-901e-87fddeb1f856","system_id":"levelo_inurba_marseille","lat":43.33753,"lon":5.37449,"is_reserved":false,"is_disabled":false,"rental_uris":{"android":"levelo://app?vid=c51ff168-1417-4963-901e-87fddeb1f856","ios":"levelo://app?vid=c51ff168-1417-4963-901e-87fddeb1f856"},"vehicle_type_id":"4","last_reported":1744193573,"current_range_meters":14400,"station_id":"","pricing_plan_id":"cebpf4jnsgd1na2vs0mg"},{"bike_id":"53fb0077-3a65-43ca-a501-d7c36dc0627d","system_id":"levelo_inurba_marseille","lat":43.31741,"lon":5.38836,"is_reserved":false,"is_disabled":false,"rental_uris":{"android":"levelo://app?vid=53fb0077-3a65-43ca-a501-d7c36dc0627d","ios":"levelo://app?vid=53fb0077-3a65-43ca-a501-d7c36dc0627d"},"vehicle_type_id":"4","last_reported":1744193573,"current_range_meters":14800,"station_id":"","pricing_plan_id":"cebpf4jnsgd1na2vs0mg"},{"bike_id":"e7d10529-7c0f-4699-8b6e-31d54e282dda","system_id":"levelo_inurba_marseille","lat":43.29555,"lon":5.42288,"is_reserved":false,"is_disabled":false,"rental_uris":{"android":"levelo://app?vid=e7d10529-7c0f-4699-8b6e-31d54e282dda","ios":"levelo://app?vid=e7d10529-7c0f-4699-8b6e-31d54e282dda"},"vehicle_type_id":"4","last_reported":1744193573,"current_range_meters":14800,"station_id":"ce4bhph2rcd13ifvqhdg","pricing_plan_id":"cebpf4jnsgd1na2vs0mg"},{"bike_id":"f147c6df-27ae-4e7a-90c0-6893ba89129c","system_id":"levelo_inurba_marseille","lat":43.3056,"lon":5.36576,"is_reserved":false,"is_disabled":false,"rental_uris":{"android":"levelo://app?vid=f147c6df-27ae-4e7a-90c0-6893ba89129c","ios":"levelo://app?vid=f147c6df-27ae-4e7a-90c0-6893ba89129c"},"vehicle_type_id":"4","last_reported":1744193573,"current_range_meters":14800,"station_id":"ce4bgs12rcd13ifvqcag","pricing_plan_id":"cebpf4jnsgd1na2vs0mg"},{"bike_id":"87a2858e-5044-4367-8844-e8347960da36","system_id":"levelo_inurba_marseille","lat":43.30729,"lon":5.42439,"is_reserved":false,"is_disabled":false,"rental_uris":{"android":"levelo://app?vid=87a2858e-5044-4367-8844-e8347960da36","ios":"levelo://app?vid=87a2858e-5044-4367-8844-e8347960da36"},"vehicle_type_id":"4","last_reported":1744193573,"current_range_meters":14800,"station_id":"st_cvj6ca6bvosntc0bfgr0","pricing_plan_id":"cebpf4jnsgd1na2vs0mg"},{"bike_id":"d44ff2b9-417e-4368-bebb-1fc974db3122","system_id":"levelo_inurba_marseille","lat":43.33629,"lon":5.39753,"is_reserved":false,"is_disabled":true,"rental_uris":{"android":"levelo://app?vid=d44ff2b9-417e-4368-bebb-1fc974db3122","ios":"levelo://app?vid=d44ff2b9-417e-4368-bebb-1fc974db3122"},"vehicle_type_id":"4","last_reported":1744193573,"current_range_meters":14800,"station_id":"","pricing_plan_id":"cebpf4jnsgd1na2vs0mg"},{"bike_id":"0c0682ef-602c-4853-944b-e80ee191e508","system_id":"levelo_inurba_marseille","lat":43.30551,"lon":5.36704,"is_reserved":false,"is_disabled":false,"rental_uris":{"android":"levelo://app?vid=0c0682ef-602c-4853-944b-e80ee191e508","ios":"levelo://app?vid=0c0682ef-602c-4853-944b-e80ee191e508"},"vehicle_type_id":"4","last_reported":1744193573,"current_range_meters":14800,"station_id":"ce4bgrp2rcd13ifvqc9g","pricing_plan_id":"cebpf4jnsgd1na2vs0mg"},{"bike_id":"3a54aeb8-c965-4b7c-afae-7941433d9352","system_id":"levelo_inurba_marseille","lat":43.30129,"lon":5.37435,"is_reserved":false,"is_disabled":false,"rental_uris":{"android":"levelo://app?vid=3a54aeb8-c965-4b7c-afae-7941433d9352","ios":"levelo://app?vid=3a54aeb8-c965-4b7c-afae-7941433d9352"},"vehicle_type_id":"4","last_reported":1744193573,"current_range_meters":15200,"station_id":"ce4bgs92rcd13ifvqcc0","pricing_plan_id":"cebpf4jnsgd1na2vs0mg"},{"bike_id":"0a0f22b7-1505-4658-a417-c09bb9c73fcf","system_id":"levelo_inurba_marseille","lat":43.28151,"lon":5.42653,"is_reserved":false,"is_disabled":false,"rental_uris":{"android":"levelo://app?vid=0a0f22b7-1505-4658-a417-c09bb9c73fcf","ios":"levelo://app?vid=0a0f22b7-1505-4658-a417-c09bb9c73fcf"},"vehicle_type_id":"4","last_reported":1744193573,"current_range_meters":15200,"station_id":"ce4bhnh2rcd13ifvqgug","pricing_plan_id":"cebpf4jnsgd1na2vs0mg"},{"bike_id":"b4b93a64-d083-4ab2-bbd0-53609c602fb5","system_id":"levelo_inurba_marseille","lat":43.30931,"lon":5.4014,"is_reserved":false,"is_disabled":true,"rental_uris":{"android":"levelo://app?vid=b4b93a64-d083-4ab2-bbd0-53609c602fb5","ios":"levelo://app?vid=b4b93a64-d083-4ab2-bbd0-53609c602fb5"},"vehicle_type_id":"4","last_reported":1744193573,"current_range_meters":15200,"station_id":"ce4bgvp2rcd13ifvqct0","pricing_plan_id":"cebpf4jnsgd1na2vs0mg"},{"bike_id":"9a12aab7-bedb-498d-bb85-b854ba9c6c05","system_id":"levelo_inurba_marseille","lat":43.30147,"lon":5.38067,"is_reserved":false,"is_disabled":false,"rental_uris":{"android":"levelo://app?vid=9a12aab7-bedb-498d-bb85-b854ba9c6c05","ios":"levelo://app?vid=9a12aab7-bedb-498d-bb85-b854ba9c6c05"},"vehicle_type_id":"4","last_reported":1744193573,"current_range_meters":15200,"station_id":"ce4bgjp2rcd13ifvqbh0","pricing_plan_id":"cebpf4jnsgd1na2vs0mg"},{"bike_id":"7bd3f7de-3a74-4fff-b4c6-181d8b119e52","system_id":"levelo_inurba_marseille","lat":43.297974,"lon":5.404181,"is_reserved":false,"is_disabled":true,"rental_uris":{"android":"levelo://app?vid=7bd3f7de-3a74-4fff-b4c6-181d8b119e52","ios":"levelo://app?vid=7bd3f7de-3a74-4fff-b4c6-181d8b119e52"},"vehicle_type_id":"4","last_reported":1744193573,"current_range_meters":16000,"station_id":"ce4bh112rcd13ifvqd90","pricing_plan_id":"cebpf4jnsgd1na2vs0mg"},{"bike_id":"b1ec28b5-1589-4987-a872-646946577f09","system_id":"levelo_inurba_marseille","lat":43.27496,"lon":5.42454,"is_reserved":false,"is_disabled":false,"rental_uris":{"android":"levelo://app?vid=b1ec28b5-1589-4987-a872-646946577f09","ios":"levelo://app?vid=b1ec28b5-1589-4987-a872-646946577f09"},"vehicle_type_id":"4","last_reported":1744193573,"current_range_meters":16000,"station_id":"ce4bhn92rcd13ifvqgrg","pricing_plan_id":"cebpf4jnsgd1na2vs0mg"},{"bike_id":"328ae3a9-e1ac-4188-9ea4-8b8a9ee9fae1","system_id":"levelo_inurba_marseille","lat":43.28932,"lon":5.36631,"is_reserved":false,"is_disabled":false,"rental_uris":{"android":"levelo://app?vid=328ae3a9-e1ac-4188-9ea4-8b8a9ee9fae1","ios":"levelo://app?vid=328ae3a9-e1ac-4188-9ea4-8b8a9ee9fae1"},"vehicle_type_id":"4","last_reported":1744193573,"current_range_meters":16000,"station_id":"ce4bhap2rcd13ifvqek0","pricing_plan_id":"cebpf4jnsgd1na2vs0mg"},{"bike_id":"cf27dca8-f7f9-4117-866c-e644f171849c","system_id":"levelo_inurba_marseille","lat":43.292736,"lon":5.401116,"is_reserved":false,"is_disabled":false,"rental_uris":{"android":"levelo://app?vid=cf27dca8-f7f9-4117-866c-e644f171849c","ios":"levelo://app?vid=cf27dca8-f7f9-4117-866c-e644f171849c"},"vehicle_type_id":"4","last_reported":1744193573,"current_range_meters":16000,"station_id":"ce4bh192rcd13ifvqdc0","pricing_plan_id":"cebpf4jnsgd1na2vs0mg"},{"bike_id":"a71f2a5a-68cc-4ba4-ba37-497c0c906866","system_id":"levelo_inurba_marseille","lat":43.26225,"lon":5.40453,"is_reserved":false,"is_disabled":false,"rental_uris":{"android":"levelo://app?vid=a71f2a5a-68cc-4ba4-ba37-497c0c906866","ios":"levelo://app?vid=a71f2a5a-68cc-4ba4-ba37-497c0c906866"},"vehicle_type_id":"4","last_reported":1744193573,"current_range_meters":16400,"station_id":"ce4bhmh2rcd13ifvqgmg","pricing_plan_id":"cebpf4jnsgd1na2vs0mg"},{"bike_id":"9d71fdff-d0c7-4934-8dab-e16252a04daa","system_id":"levelo_inurba_marseille","lat":43.3014,"lon":5.38071,"is_reserved":false,"is_disabled":false,"rental_uris":{"android":"levelo://app?vid=9d71fdff-d0c7-4934-8dab-e16252a04daa","ios":"levelo://app?vid=9d71fdff-d0c7-4934-8dab-e16252a04daa"},"vehicle_type_id":"4","last_reported":1744193573,"current_range_meters":16400,"station_id":"ce4bgjp2rcd13ifvqbh0","pricing_plan_id":"cebpf4jnsgd1na2vs0mg"},{"bike_id":"ceb42bda-17b0-473f-a990-ea6bbdd336ff","system_id":"levelo_inurba_marseille","lat":43.21742,"lon":5.34604,"is_reserved":false,"is_disabled":false,"rental_uris":{"android":"levelo://app?vid=ceb42bda-17b0-473f-a990-ea6bbdd336ff","ios":"levelo://app?vid=ceb42bda-17b0-473f-a990-ea6bbdd336ff"},"vehicle_type_id":"4","last_reported":1744193573,"current_range_meters":16400,"station_id":"st_cvj6r9ubvosntc0bgbag","pricing_plan_id":"cebpf4jnsgd1na2vs0mg"},{"bike_id":"b84b1d45-729e-47db-8c7e-e88abe2948fb","system_id":"levelo_inurba_marseille","lat":43.31733,"lon":5.42381,"is_reserved":false,"is_disabled":false,"rental_uris":{"android":"levelo://app?vid=b84b1d45-729e-47db-8c7e-e88abe2948fb","ios":"levelo://app?vid=b84b1d45-729e-47db-8c7e-e88abe2948fb"},"vehicle_type_id":"4","last_reported":1744193573,"current_range_meters":16400,"station_id":"ce4bhp92rcd13ifvqhbg","pricing_plan_id":"cebpf4jnsgd1na2vs0mg"},{"bike_id":"71a3919b-8525-4f47-a6df-5e0d6eec871b","system_id":"levelo_inurba_marseille","lat":43.32351,"lon":5.40626,"is_reserved":false,"is_disabled":false,"rental_uris":{"android":"levelo://app?vid=71a3919b-8525-4f47-a6df-5e0d6eec871b","ios":"levelo://app?vid=71a3919b-8525-4f47-a6df-5e0d6eec871b"},"vehicle_type_id":"4","last_reported":1744193573,"current_range_meters":16400,"station_id":"ce4bhq92rcd13ifvqhjg","pricing_plan_id":"cebpf4jnsgd1na2vs0mg"},{"bike_id":"a4703af2-c345-42d9-ba75-d4af5c29bce6","system_id":"levelo_inurba_marseille","lat":43.30539,"lon":5.36553,"is_reserved":false,"is_disabled":false,"rental_uris":{"android":"levelo://app?vid=a4703af2-c345-42d9-ba75-d4af5c29bce6","ios":"levelo://app?vid=a4703af2-c345-42d9-ba75-d4af5c29bce6"},"vehicle_type_id":"4","last_reported":1744193573,"current_range_meters":16400,"station_id":"ce4bgs12rcd13ifvqcag","pricing_plan_id":"cebpf4jnsgd1na2vs0mg"},{"bike_id":"fd72ba5a-48e0-4527-8a96-dc1b79872eb2","system_id":"levelo_inurba_marseille","lat":43.25816,"lon":5.39434,"is_reserved":false,"is_disabled":false,"rental_uris":{"android":"levelo://app?vid=fd72ba5a-48e0-4527-8a96-dc1b79872eb2","ios":"levelo://app?vid=fd72ba5a-48e0-4527-8a96-dc1b79872eb2"},"vehicle_type_id":"4","last_reported":1744193573,"current_range_meters":16800,"station_id":"ce4bhip2rcd13ifvqft0","pricing_plan_id":"cebpf4jnsgd1na2vs0mg"},{"bike_id":"c0e57d31-80fc-4e29-953a-52c3cd3eb49c","system_id":"levelo_inurba_marseille","lat":43.324936,"lon":5.365582,"is_reserved":false,"is_disabled":false,"rental_uris":{"android":"levelo://app?vid=c0e57d31-80fc-4e29-953a-52c3cd3eb49c","ios":"levelo://app?vid=c0e57d31-80fc-4e29-953a-52c3cd3eb49c"},"vehicle_type_id":"4","last_reported":1744193573,"current_range_meters":16800,"station_id":"ce4bhs12rcd13ifvqhvg","pricing_plan_id":"cebpf4jnsgd1na2vs0mg"},{"bike_id":"d3a30278-1fc8-438b-a6b9-b6523acb13c6","system_id":"levelo_inurba_marseille","lat":43.31245,"lon":5.36863,"is_reserved":false,"is_disabled":false,"rental_uris":{"android":"levelo://app?vid=d3a30278-1fc8-438b-a6b9-b6523acb13c6","ios":"levelo://app?vid=d3a30278-1fc8-438b-a6b9-b6523acb13c6"},"vehicle_type_id":"4","last_reported":1744193573,"current_range_meters":16800,"station_id":"ce4bgl92rcd13ifvqbq0","pricing_plan_id":"cebpf4jnsgd1na2vs0mg"},{"bike_id":"109ce2ca-b8b1-427d-9e40-f430f12fb368","system_id":"levelo_inurba_marseille","lat":43.325378,"lon":5.414355,"is_reserved":false,"is_disabled":false,"rental_uris":{"android":"levelo://app?vid=109ce2ca-b8b1-427d-9e40-f430f12fb368","ios":"levelo://app?vid=109ce2ca-b8b1-427d-9e40-f430f12fb368"},"vehicle_type_id":"4","last_reported":1744193573,"current_range_meters":16800,"station_id":"ce4bhq12rcd13ifvqhhg","pricing_plan_id":"cebpf4jnsgd1na2vs0mg"},{"bike_id":"33c6f353-0166-4c8c-af82-a2e0d1d8c75d","system_id":"levelo_inurba_marseille","lat":43.32999,"lon":5.43843,"is_reserved":false,"is_disabled":false,"rental_uris":{"android":"levelo://app?vid=33c6f353-0166-4c8c-af82-a2e0d1d8c75d","ios":"levelo://app?vid=33c6f353-0166-4c8c-af82-a2e0d1d8c75d"},"vehicle_type_id":"4","last_reported":1744193573,"current_range_meters":16800,"station_id":"","pricing_plan_id":"cebpf4jnsgd1na2vs0mg"},{"bike_id":"dca87a3d-beca-49ce-9fed-b6ddf44230be","system_id":"levelo_inurba_marseille","lat":43.3088,"lon":5.37189,"is_reserved":false,"is_disabled":false,"rental_uris":{"android":"levelo://app?vid=dca87a3d-beca-49ce-9fed-b6ddf44230be","ios":"levelo://app?vid=dca87a3d-beca-49ce-9fed-b6ddf44230be"},"vehicle_type_id":"4","last_reported":1744193573,"current_range_meters":16800,"station_id":"ce4bguh2rcd13ifvqckg","pricing_plan_id":"cebpf4jnsgd1na2vs0mg"},{"bike_id":"09bddc24-4c9d-460f-8967-e90ee5c88b43","system_id":"levelo_inurba_marseille","lat":43.31342,"lon":5.39682,"is_reserved":false,"is_disabled":true,"rental_uris":{"android":"levelo://app?vid=09bddc24-4c9d-460f-8967-e90ee5c88b43","ios":"levelo://app?vid=09bddc24-4c9d-460f-8967-e90ee5c88b43"},"vehicle_type_id":"4","last_reported":1744193573,"current_range_meters":16800,"station_id":"ce4bgvp2rcd13ifvqcu0","pricing_plan_id":"cebpf4jnsgd1na2vs0mg"},{"bike_id":"875883da-a830-4c1a-8530-93fae3774448","system_id":"levelo_inurba_marseille","lat":43.30541,"lon":5.36555,"is_reserved":false,"is_disabled":false,"rental_uris":{"android":"levelo://app?vid=875883da-a830-4c1a-8530-93fae3774448","ios":"levelo://app?vid=875883da-a830-4c1a-8530-93fae3774448"},"vehicle_type_id":"4","last_reported":1744193573,"current_range_meters":17200,"station_id":"ce4bgs12rcd13ifvqcag","pricing_plan_id":"cebpf4jnsgd1na2vs0mg"},{"bike_id":"a8a374bc-f07f-4ed6-a57b-8a35270b8d03","system_id":"levelo_inurba_marseille","lat":43.2781,"lon":5.40716,"is_reserved":false,"is_disabled":false,"rental_uris":{"android":"levelo://app?vid=a8a374bc-f07f-4ed6-a57b-8a35270b8d03","ios":"levelo://app?vid=a8a374bc-f07f-4ed6-a57b-8a35270b8d03"},"vehicle_type_id":"4","last_reported":1744193573,"current_range_meters":17200,"station_id":"ce4bhnh2rcd13ifvqgtg","pricing_plan_id":"cebpf4jnsgd1na2vs0mg"},{"bike_id":"42c1fdc6-38af-4ea1-a910-702e15d5a9b4","system_id":"levelo_inurba_marseille","lat":43.30926,"lon":5.40159,"is_reserved":false,"is_disabled":true,"rental_uris":{"android":"levelo://app?vid=42c1fdc6-38af-4ea1-a910-702e15d5a9b4","ios":"levelo://app?vid=42c1fdc6-38af-4ea1-a910-702e15d5a9b4"},"vehicle_type_id":"4","last_reported":1744193573,"current_range_meters":17200,"station_id":"ce4bgvp2rcd13ifvqct0","pricing_plan_id":"cebpf4jnsgd1na2vs0mg"},{"bike_id":"840427a7-3a1f-4760-8487-8086251243c2","system_id":"levelo_inurba_marseille","lat":43.29929,"lon":5.3655,"is_reserved":false,"is_disabled":false,"rental_uris":{"android":"levelo://app?vid=840427a7-3a1f-4760-8487-8086251243c2","ios":"levelo://app?vid=840427a7-3a1f-4760-8487-8086251243c2"},"vehicle_type_id":"4","last_reported":1744193573,"current_range_meters":17200,"station_id":"ce4bgm92rcd13ifvqbr0","pricing_plan_id":"cebpf4jnsgd1na2vs0mg"},{"bike_id":"9b707f39-8a91-47a1-afe5-0c6d90ae57f5","system_id":"levelo_inurba_marseille","lat":43.30546,"lon":5.36545,"is_reserved":false,"is_disabled":false,"rental_uris":{"android":"levelo://app?vid=9b707f39-8a91-47a1-afe5-0c6d90ae57f5","ios":"levelo://app?vid=9b707f39-8a91-47a1-afe5-0c6d90ae57f5"},"vehicle_type_id":"4","last_reported":1744193573,"current_range_meters":17200,"station_id":"ce4bgs12rcd13ifvqcag","pricing_plan_id":"cebpf4jnsgd1na2vs0mg"},{"bike_id":"c55184d3-fbbd-4f0a-a6fc-c4d88e36e900","system_id":"levelo_inurba_marseille","lat":43.3056,"lon":5.36551,"is_reserved":false,"is_disabled":false,"rental_uris":{"android":"levelo://app?vid=c55184d3-fbbd-4f0a-a6fc-c4d88e36e900","ios":"levelo://app?vid=c55184d3-fbbd-4f0a-a6fc-c4d88e36e900"},"vehicle_type_id":"4","last_reported":1744193573,"current_range_meters":17200,"station_id":"ce4bgs12rcd13ifvqcag","pricing_plan_id":"cebpf4jnsgd1na2vs0mg"},{"bike_id":"60d42f2c-37a3-487b-93aa-3614a6c5024d","system_id":"levelo_inurba_marseille","lat":43.30553,"lon":5.36537,"is_reserved":false,"is_disabled":false,"rental_uris":{"android":"levelo://app?vid=60d42f2c-37a3-487b-93aa-3614a6c5024d","ios":"levelo://app?vid=60d42f2c-37a3-487b-93aa-3614a6c5024d"},"vehicle_type_id":"4","last_reported":1744193573,"current_range_meters":17200,"station_id":"ce4bgs12rcd13ifvqcag","pricing_plan_id":"cebpf4jnsgd1na2vs0mg"},{"bike_id":"a08e6684-7906-478e-9344-f9457c805791","system_id":"levelo_inurba_marseille","lat":43.26923,"lon":5.38926,"is_reserved":false,"is_disabled":false,"rental_uris":{"android":"levelo://app?vid=a08e6684-7906-478e-9344-f9457c805791","ios":"levelo://app?vid=a08e6684-7906-478e-9344-f9457c805791"},"vehicle_type_id":"4","last_reported":1744193573,"current_range_meters":17600,"station_id":"ce4bhhh2rcd13ifvqfl0","pricing_plan_id":"cebpf4jnsgd1na2vs0mg"},{"bike_id":"1a3cd0ab-ec77-41b3-982c-74e5093499a8","system_id":"levelo_inurba_marseille","lat":43.30438,"lon":5.38906,"is_reserved":false,"is_disabled":true,"rental_uris":{"android":"levelo://app?vid=1a3cd0ab-ec77-41b3-982c-74e5093499a8","ios":"levelo://app?vid=1a3cd0ab-ec77-41b3-982c-74e5093499a8"},"vehicle_type_id":"4","last_reported":1744193573,"current_range_meters":17600,"station_id":"ce4bgk12rcd13ifvqbi0","pricing_plan_id":"cebpf4jnsgd1na2vs0mg"},{"bike_id":"c1c63035-c83b-4419-8cbf-133778d95125","system_id":"levelo_inurba_marseille","lat":43.297821,"lon":5.393375,"is_reserved":false,"is_disabled":false,"rental_uris":{"android":"levelo://app?vid=c1c63035-c83b-4419-8cbf-133778d95125","ios":"levelo://app?vid=c1c63035-c83b-4419-8cbf-133778d95125"},"vehicle_type_id":"4","last_reported":1744193573,"current_range_meters":17600,"station_id":"chh1huq6cuj3fo74tm60","pricing_plan_id":"cebpf4jnsgd1na2vs0mg"},{"bike_id":"3cb4e664-eda1-40a2-832b-da3030d3342f","system_id":"levelo_inurba_marseille","lat":43.31985,"lon":5.38146,"is_reserved":false,"is_disabled":false,"rental_uris":{"android":"levelo://app?vid=3cb4e664-eda1-40a2-832b-da3030d3342f","ios":"levelo://app?vid=3cb4e664-eda1-40a2-832b-da3030d3342f"},"vehicle_type_id":"4","last_reported":1744193573,"current_range_meters":17600,"station_id":"ce4bhr12rcd13ifvqhpg","pricing_plan_id":"cebpf4jnsgd1na2vs0mg"},{"bike_id":"bf3369a0-8ad6-4f11-9d01-ff175c6e2091","system_id":"levelo_inurba_marseille","lat":43.27622,"lon":5.36108,"is_reserved":false,"is_disabled":false,"rental_uris":{"android":"levelo://app?vid=bf3369a0-8ad6-4f11-9d01-ff175c6e2091","ios":"levelo://app?vid=bf3369a0-8ad6-4f11-9d01-ff175c6e2091"},"vehicle_type_id":"4","last_reported":1744193573,"current_range_meters":18000,"station_id":"ce4bgj92rcd13ifvqbe0","pricing_plan_id":"cebpf4jnsgd1na2vs0mg"},{"bike_id":"5f3e4362-2260-4e24-b13e-5628bb556747","system_id":"levelo_inurba_marseille","lat":43.28931,"lon":5.36632,"is_reserved":false,"is_disabled":false,"rental_uris":{"android":"levelo://app?vid=5f3e4362-2260-4e24-b13e-5628bb556747","ios":"levelo://app?vid=5f3e4362-2260-4e24-b13e-5628bb556747"},"vehicle_type_id":"4","last_reported":1744193573,"current_range_meters":18000,"station_id":"ce4bhap2rcd13ifvqek0","pricing_plan_id":"cebpf4jnsgd1na2vs0mg"},{"bike_id":"b0e7c080-9b32-4fb1-ae6b-91b2f1cae096","system_id":"levelo_inurba_marseille","lat":43.305597,"lon":5.365569,"is_reserved":false,"is_disabled":false,"rental_uris":{"android":"levelo://app?vid=b0e7c080-9b32-4fb1-ae6b-91b2f1cae096","ios":"levelo://app?vid=b0e7c080-9b32-4fb1-ae6b-91b2f1cae096"},"vehicle_type_id":"4","last_reported":1744193573,"current_range_meters":18000,"station_id":"ce4bgs12rcd13ifvqcag","pricing_plan_id":"cebpf4jnsgd1na2vs0mg"},{"bike_id":"1923f102-1dd3-449a-8d41-431198bf6401","system_id":"levelo_inurba_marseille","lat":43.312009,"lon":5.36912,"is_reserved":false,"is_disabled":false,"rental_uris":{"android":"levelo://app?vid=1923f102-1dd3-449a-8d41-431198bf6401","ios":"levelo://app?vid=1923f102-1dd3-449a-8d41-431198bf6401"},"vehicle_type_id":"4","last_reported":1744193573,"current_range_meters":18000,"station_id":"ce4bh4p2rcd13ifvqe1g","pricing_plan_id":"cebpf4jnsgd1na2vs0mg"},{"bike_id":"8994f583-cf9a-4726-b0f5-6ff62a4556a2","system_id":"levelo_inurba_marseille","lat":43.28491,"lon":5.35856,"is_reserved":false,"is_disabled":false,"rental_uris":{"android":"levelo://app?vid=8994f583-cf9a-4726-b0f5-6ff62a4556a2","ios":"levelo://app?vid=8994f583-cf9a-4726-b0f5-6ff62a4556a2"},"vehicle_type_id":"4","last_reported":1744193573,"current_range_meters":18800,"station_id":"ce4bhah2rcd13ifvqei0","pricing_plan_id":"cebpf4jnsgd1na2vs0mg"},{"bike_id":"a1d31b68-22ae-427c-a361-76c698230638","system_id":"levelo_inurba_marseille","lat":43.24172,"lon":5.39712,"is_reserved":false,"is_disabled":false,"rental_uris":{"android":"levelo://app?vid=a1d31b68-22ae-427c-a361-76c698230638","ios":"levelo://app?vid=a1d31b68-22ae-427c-a361-76c698230638"},"vehicle_type_id":"4","last_reported":1744193573,"current_range_meters":18800,"station_id":"ce4bhn12rcd13ifvqgpg","pricing_plan_id":"cebpf4jnsgd1na2vs0mg"},{"bike_id":"4991589d-bcb1-4bfb-8d3e-5c59c6458a3d","system_id":"levelo_inurba_marseille","lat":43.34397,"lon":5.38059,"is_reserved":false,"is_disabled":false,"rental_uris":{"android":"levelo://app?vid=4991589d-bcb1-4bfb-8d3e-5c59c6458a3d","ios":"levelo://app?vid=4991589d-bcb1-4bfb-8d3e-5c59c6458a3d"},"vehicle_type_id":"4","last_reported":1744193573,"current_range_meters":18800,"station_id":"","pricing_plan_id":"cebpf4jnsgd1na2vs0mg"},{"bike_id":"cbed8a2f-e524-4793-ad0a-416fac137792","system_id":"levelo_inurba_marseille","lat":43.27311,"lon":5.39077,"is_reserved":false,"is_disabled":false,"rental_uris":{"android":"levelo://app?vid=cbed8a2f-e524-4793-ad0a-416fac137792","ios":"levelo://app?vid=cbed8a2f-e524-4793-ad0a-416fac137792"},"vehicle_type_id":"4","last_reported":1744193573,"current_range_meters":18000,"station_id":"ce4bhgp2rcd13ifvqfe0","pricing_plan_id":"cebpf4jnsgd1na2vs0mg"},{"bike_id":"2266e28a-3682-42fa-9e4c-1a32918aee75","system_id":"levelo_inurba_marseille","lat":43.27211,"lon":5.39159,"is_reserved":false,"is_disabled":false,"rental_uris":{"android":"levelo://app?vid=2266e28a-3682-42fa-9e4c-1a32918aee75","ios":"levelo://app?vid=2266e28a-3682-42fa-9e4c-1a32918aee75"},"vehicle_type_id":"4","last_reported":1744193573,"current_range_meters":18800,"station_id":"ce4bhhp2rcd13ifvqfm0","pricing_plan_id":"cebpf4jnsgd1na2vs0mg"},{"bike_id":"7f91b87d-2148-4303-9953-7aabcc9f7506","system_id":"levelo_inurba_marseille","lat":43.28932,"lon":5.36633,"is_reserved":false,"is_disabled":false,"rental_uris":{"android":"levelo://app?vid=7f91b87d-2148-4303-9953-7aabcc9f7506","ios":"levelo://app?vid=7f91b87d-2148-4303-9953-7aabcc9f7506"},"vehicle_type_id":"4","last_reported":1744193573,"current_range_meters":18800,"station_id":"ce4bhap2rcd13ifvqek0","pricing_plan_id":"cebpf4jnsgd1na2vs0mg"},{"bike_id":"ee3c03b2-9a4c-4654-a28e-7388f571d9cb","system_id":"levelo_inurba_marseille","lat":43.31961,"lon":5.38135,"is_reserved":false,"is_disabled":true,"rental_uris":{"android":"levelo://app?vid=ee3c03b2-9a4c-4654-a28e-7388f571d9cb","ios":"levelo://app?vid=ee3c03b2-9a4c-4654-a28e-7388f571d9cb"},"vehicle_type_id":"4","last_reported":1744193573,"current_range_meters":19200,"station_id":"ce4bhr12rcd13ifvqhpg","pricing_plan_id":"cebpf4jnsgd1na2vs0mg"},{"bike_id":"e3c3a051-8134-4ed3-913b-374aa217874c","system_id":"levelo_inurba_marseille","lat":43.2559,"lon":5.40455,"is_reserved":false,"is_disabled":false,"rental_uris":{"android":"levelo://app?vid=e3c3a051-8134-4ed3-913b-374aa217874c","ios":"levelo://app?vid=e3c3a051-8134-4ed3-913b-374aa217874c"},"vehicle_type_id":"4","last_reported":1744193573,"current_range_meters":19200,"station_id":"","pricing_plan_id":"cebpf4jnsgd1na2vs0mg"},{"bike_id":"ed32de37-66e8-4fe8-b613-74f9e5810cd6","system_id":"levelo_inurba_marseille","lat":43.311987,"lon":5.373501,"is_reserved":false,"is_disabled":false,"rental_uris":{"android":"levelo://app?vid=ed32de37-66e8-4fe8-b613-74f9e5810cd6","ios":"levelo://app?vid=ed32de37-66e8-4fe8-b613-74f9e5810cd6"},"vehicle_type_id":"4","last_reported":1744193573,"current_range_meters":19200,"station_id":"","pricing_plan_id":"cebpf4jnsgd1na2vs0mg"},{"bike_id":"2ab54020-df93-4f6b-8cd1-9b0e84795bda","system_id":"levelo_inurba_marseille","lat":43.305233,"lon":5.365563,"is_reserved":false,"is_disabled":false,"rental_uris":{"android":"levelo://app?vid=2ab54020-df93-4f6b-8cd1-9b0e84795bda","ios":"levelo://app?vid=2ab54020-df93-4f6b-8cd1-9b0e84795bda"},"vehicle_type_id":"4","last_reported":1744193573,"current_range_meters":19200,"station_id":"ce4bgs12rcd13ifvqcag","pricing_plan_id":"cebpf4jnsgd1na2vs0mg"},{"bike_id":"765afe00-ef36-4db7-a82d-180bcb454d5e","system_id":"levelo_inurba_marseille","lat":43.2794,"lon":5.41049,"is_reserved":false,"is_disabled":false,"rental_uris":{"android":"levelo://app?vid=765afe00-ef36-4db7-a82d-180bcb454d5e","ios":"levelo://app?vid=765afe00-ef36-4db7-a82d-180bcb454d5e"},"vehicle_type_id":"4","last_reported":1744193573,"current_range_meters":19200,"station_id":"ce4bhnp2rcd13ifvqh0g","pricing_plan_id":"cebpf4jnsgd1na2vs0mg"},{"bike_id":"0af41378-490b-4082-a76f-6598e96ab451","system_id":"levelo_inurba_marseille","lat":43.24173,"lon":5.39734,"is_reserved":false,"is_disabled":false,"rental_uris":{"android":"levelo://app?vid=0af41378-490b-4082-a76f-6598e96ab451","ios":"levelo://app?vid=0af41378-490b-4082-a76f-6598e96ab451"},"vehicle_type_id":"4","last_reported":1744193573,"current_range_meters":19600,"station_id":"ce4bhn12rcd13ifvqgpg","pricing_plan_id":"cebpf4jnsgd1na2vs0mg"},{"bike_id":"49eda637-826d-43f7-9ae2-4655eeda27f4","system_id":"levelo_inurba_marseille","lat":43.26193,"lon":5.37461,"is_reserved":false,"is_disabled":false,"rental_uris":{"android":"levelo://app?vid=49eda637-826d-43f7-9ae2-4655eeda27f4","ios":"levelo://app?vid=49eda637-826d-43f7-9ae2-4655eeda27f4"},"vehicle_type_id":"4","last_reported":1744193573,"current_range_meters":19600,"station_id":"ce4bhgp2rcd13ifvqfc0","pricing_plan_id":"cebpf4jnsgd1na2vs0mg"},{"bike_id":"35648edf-5b72-4c83-a25a-28f9cda4c923","system_id":"levelo_inurba_marseille","lat":43.29417,"lon":5.38606,"is_reserved":false,"is_disabled":false,"rental_uris":{"android":"levelo://app?vid=35648edf-5b72-4c83-a25a-28f9cda4c923","ios":"levelo://app?vid=35648edf-5b72-4c83-a25a-28f9cda4c923"},"vehicle_type_id":"4","last_reported":1744193573,"current_range_meters":19600,"station_id":"ce4bh2h2rcd13ifvqdh0","pricing_plan_id":"cebpf4jnsgd1na2vs0mg"},{"bike_id":"528f15e0-9dcb-49dc-93a3-e14bd9d6b6ae","system_id":"levelo_inurba_marseille","lat":43.30602,"lon":5.37222,"is_reserved":false,"is_disabled":false,"rental_uris":{"android":"levelo://app?vid=528f15e0-9dcb-49dc-93a3-e14bd9d6b6ae","ios":"levelo://app?vid=528f15e0-9dcb-49dc-93a3-e14bd9d6b6ae"},"vehicle_type_id":"4","last_reported":1744193573,"current_range_meters":20000,"station_id":"ce4bgqh2rcd13ifvqc4g","pricing_plan_id":"cebpf4jnsgd1na2vs0mg"},{"bike_id":"231aaa88-1e79-4a74-a543-651d8fd5a027","system_id":"levelo_inurba_marseille","lat":43.33079,"lon":5.40518,"is_reserved":false,"is_disabled":false,"rental_uris":{"android":"levelo://app?vid=231aaa88-1e79-4a74-a543-651d8fd5a027","ios":"levelo://app?vid=231aaa88-1e79-4a74-a543-651d8fd5a027"},"vehicle_type_id":"4","last_reported":1744193573,"current_range_meters":20000,"station_id":"","pricing_plan_id":"cebpf4jnsgd1na2vs0mg"},{"bike_id":"ef291804-1477-432e-b153-82ea15725418","system_id":"levelo_inurba_marseille","lat":43.33762,"lon":5.37476,"is_reserved":false,"is_disabled":false,"rental_uris":{"android":"levelo://app?vid=ef291804-1477-432e-b153-82ea15725418","ios":"levelo://app?vid=ef291804-1477-432e-b153-82ea15725418"},"vehicle_type_id":"4","last_reported":1744193573,"current_range_meters":20000,"station_id":"","pricing_plan_id":"cebpf4jnsgd1na2vs0mg"},{"bike_id":"322304d1-7d02-4c63-ab56-b472942145f1","system_id":"levelo_inurba_marseille","lat":43.32663,"lon":5.40977,"is_reserved":false,"is_disabled":false,"rental_uris":{"android":"levelo://app?vid=322304d1-7d02-4c63-ab56-b472942145f1","ios":"levelo://app?vid=322304d1-7d02-4c63-ab56-b472942145f1"},"vehicle_type_id":"4","last_reported":1744193573,"current_range_meters":20000,"station_id":"ce4bhpp2rcd13ifvqhgg","pricing_plan_id":"cebpf4jnsgd1na2vs0mg"},{"bike_id":"9206592d-57f9-4c68-ae5b-56c9e508a929","system_id":"levelo_inurba_marseille","lat":43.27067,"lon":5.42291,"is_reserved":false,"is_disabled":false,"rental_uris":{"android":"levelo://app?vid=9206592d-57f9-4c68-ae5b-56c9e508a929","ios":"levelo://app?vid=9206592d-57f9-4c68-ae5b-56c9e508a929"},"vehicle_type_id":"4","last_reported":1744193573,"current_range_meters":20000,"station_id":"ce4bhk92rcd13ifvqgb0","pricing_plan_id":"cebpf4jnsgd1na2vs0mg"},{"bike_id":"39d569f2-804d-4c1f-93cb-ffdd8bba0563","system_id":"levelo_inurba_marseille","lat":43.3055,"lon":5.38437,"is_reserved":false,"is_disabled":true,"rental_uris":{"android":"levelo://app?vid=39d569f2-804d-4c1f-93cb-ffdd8bba0563","ios":"levelo://app?vid=39d569f2-804d-4c1f-93cb-ffdd8bba0563"},"vehicle_type_id":"4","last_reported":1744193573,"current_range_meters":20400,"station_id":"ce4bgg92rcd13ifvqb30","pricing_plan_id":"cebpf4jnsgd1na2vs0mg"},{"bike_id":"4e8e179e-c3fe-4dd7-a674-1964b1f9c809","system_id":"levelo_inurba_marseille","lat":43.2468,"lon":5.38134,"is_reserved":false,"is_disabled":false,"rental_uris":{"android":"levelo://app?vid=4e8e179e-c3fe-4dd7-a674-1964b1f9c809","ios":"levelo://app?vid=4e8e179e-c3fe-4dd7-a674-1964b1f9c809"},"vehicle_type_id":"4","last_reported":1744193573,"current_range_meters":20400,"station_id":"ce4bhih2rcd13ifvqfr0","pricing_plan_id":"cebpf4jnsgd1na2vs0mg"},{"bike_id":"be39d9df-8204-4be2-a549-b6963511a7d6","system_id":"levelo_inurba_marseille","lat":43.26954,"lon":5.38632,"is_reserved":false,"is_disabled":false,"rental_uris":{"android":"levelo://app?vid=be39d9df-8204-4be2-a549-b6963511a7d6","ios":"levelo://app?vid=be39d9df-8204-4be2-a549-b6963511a7d6"},"vehicle_type_id":"4","last_reported":1744193573,"current_range_meters":20400,"station_id":"ce4bhh92rcd13ifvqfh0","pricing_plan_id":"cebpf4jnsgd1na2vs0mg"},{"bike_id":"2b54a496-5bb2-42c4-bb01-6f1e5c2215a7","system_id":"levelo_inurba_marseille","lat":43.30809,"lon":5.37665,"is_reserved":false,"is_disabled":true,"rental_uris":{"android":"levelo://app?vid=2b54a496-5bb2-42c4-bb01-6f1e5c2215a7","ios":"levelo://app?vid=2b54a496-5bb2-42c4-bb01-6f1e5c2215a7"},"vehicle_type_id":"4","last_reported":1744193573,"current_range_meters":20400,"station_id":"ce4bgv92rcd13ifvqcq0","pricing_plan_id":"cebpf4jnsgd1na2vs0mg"},{"bike_id":"01e8afc9-b963-4a9d-8f00-0de96c1dfc93","system_id":"levelo_inurba_marseille","lat":43.24163,"lon":5.36415,"is_reserved":false,"is_disabled":false,"rental_uris":{"android":"levelo://app?vid=01e8afc9-b963-4a9d-8f00-0de96c1dfc93","ios":"levelo://app?vid=01e8afc9-b963-4a9d-8f00-0de96c1dfc93"},"vehicle_type_id":"4","last_reported":1744193573,"current_range_meters":20400,"station_id":"cpo36qri1sfpv3e86is0","pricing_plan_id":"cebpf4jnsgd1na2vs0mg"},{"bike_id":"fb6d444e-d221-46e9-8f9f-8ab09d923ac4","system_id":"levelo_inurba_marseille","lat":43.29792,"lon":5.38118,"is_reserved":false,"is_disabled":false,"rental_uris":{"android":"levelo://app?vid=fb6d444e-d221-46e9-8f9f-8ab09d923ac4","ios":"levelo://app?vid=fb6d444e-d221-46e9-8f9f-8ab09d923ac4"},"vehicle_type_id":"4","last_reported":1744193573,"current_range_meters":20400,"station_id":"ce4bgip2rcd13ifvqbb0","pricing_plan_id":"cebpf4jnsgd1na2vs0mg"},{"bike_id":"07c9e7ed-78f1-4c9b-82d2-ad403b42dd03","system_id":"levelo_inurba_marseille","lat":43.30947,"lon":5.39027,"is_reserved":false,"is_disabled":false,"rental_uris":{"android":"levelo://app?vid=07c9e7ed-78f1-4c9b-82d2-ad403b42dd03","ios":"levelo://app?vid=07c9e7ed-78f1-4c9b-82d2-ad403b42dd03"},"vehicle_type_id":"4","last_reported":1744193573,"current_range_meters":20400,"station_id":"ce4bgup2rcd13ifvqco0","pricing_plan_id":"cebpf4jnsgd1na2vs0mg"},{"bike_id":"6c63e1cd-38d4-4380-9c7d-06de55597b25","system_id":"levelo_inurba_marseille","lat":43.23151,"lon":5.43722,"is_reserved":false,"is_disabled":false,"rental_uris":{"android":"levelo://app?vid=6c63e1cd-38d4-4380-9c7d-06de55597b25","ios":"levelo://app?vid=6c63e1cd-38d4-4380-9c7d-06de55597b25"},"vehicle_type_id":"4","last_reported":1744193573,"current_range_meters":20800,"station_id":"ce4bhmp2rcd13ifvqgog","pricing_plan_id":"cebpf4jnsgd1na2vs0mg"},{"bike_id":"31a4d2c6-e037-4b32-9aaf-93c072574973","system_id":"levelo_inurba_marseille","lat":43.29966,"lon":5.3851,"is_reserved":false,"is_disabled":false,"rental_uris":{"android":"levelo://app?vid=31a4d2c6-e037-4b32-9aaf-93c072574973","ios":"levelo://app?vid=31a4d2c6-e037-4b32-9aaf-93c072574973"},"vehicle_type_id":"4","last_reported":1744193573,"current_range_meters":20800,"station_id":"ce4bgj92rcd13ifvqbd0","pricing_plan_id":"cebpf4jnsgd1na2vs0mg"},{"bike_id":"148d3011-061d-4ab0-901f-7a7b3ee185d8","system_id":"levelo_inurba_marseille","lat":43.28938,"lon":5.3963,"is_reserved":false,"is_disabled":false,"rental_uris":{"android":"levelo://app?vid=148d3011-061d-4ab0-901f-7a7b3ee185d8","ios":"levelo://app?vid=148d3011-061d-4ab0-901f-7a7b3ee185d8"},"vehicle_type_id":"4","last_reported":1744193573,"current_range_meters":20800,"station_id":"ce4bh3h2rcd13ifvqdn0","pricing_plan_id":"cebpf4jnsgd1na2vs0mg"},{"bike_id":"e3db59bd-19ca-4dec-9b8d-148f55e9d37b","system_id":"levelo_inurba_marseille","lat":43.270549,"lon":5.392172,"is_reserved":false,"is_disabled":false,"rental_uris":{"android":"levelo://app?vid=e3db59bd-19ca-4dec-9b8d-148f55e9d37b","ios":"levelo://app?vid=e3db59bd-19ca-4dec-9b8d-148f55e9d37b"},"vehicle_type_id":"4","last_reported":1744193573,"current_range_meters":20800,"station_id":"ce4bhh12rcd13ifvqff0","pricing_plan_id":"cebpf4jnsgd1na2vs0mg"},{"bike_id":"9dd4623a-1856-4da1-b6f2-575f4b7a0640","system_id":"levelo_inurba_marseille","lat":43.23151,"lon":5.43705,"is_reserved":false,"is_disabled":false,"rental_uris":{"android":"levelo://app?vid=9dd4623a-1856-4da1-b6f2-575f4b7a0640","ios":"levelo://app?vid=9dd4623a-1856-4da1-b6f2-575f4b7a0640"},"vehicle_type_id":"4","last_reported":1744193573,"current_range_meters":20800,"station_id":"ce4bhmp2rcd13ifvqgog","pricing_plan_id":"cebpf4jnsgd1na2vs0mg"},{"bike_id":"36883057-499b-458b-9f5f-5bf3c0f09345","system_id":"levelo_inurba_marseille","lat":43.305441,"lon":5.367114,"is_reserved":false,"is_disabled":false,"rental_uris":{"android":"levelo://app?vid=36883057-499b-458b-9f5f-5bf3c0f09345","ios":"levelo://app?vid=36883057-499b-458b-9f5f-5bf3c0f09345"},"vehicle_type_id":"4","last_reported":1744193573,"current_range_meters":20800,"station_id":"ce4bgrp2rcd13ifvqc9g","pricing_plan_id":"cebpf4jnsgd1na2vs0mg"},{"bike_id":"c797a31a-2687-4a54-b0cd-d208fb6d291c","system_id":"levelo_inurba_marseille","lat":43.28349,"lon":5.38114,"is_reserved":false,"is_disabled":false,"rental_uris":{"android":"levelo://app?vid=c797a31a-2687-4a54-b0cd-d208fb6d291c","ios":"levelo://app?vid=c797a31a-2687-4a54-b0cd-d208fb6d291c"},"vehicle_type_id":"4","last_reported":1744193573,"current_range_meters":20800,"station_id":"ce4bh412rcd13ifvqdr0","pricing_plan_id":"cebpf4jnsgd1na2vs0mg"},{"bike_id":"fc6204b8-b8c0-4a1e-807f-85ac821ea7b2","system_id":"levelo_inurba_marseille","lat":43.28369,"lon":5.38641,"is_reserved":false,"is_disabled":false,"rental_uris":{"android":"levelo://app?vid=fc6204b8-b8c0-4a1e-807f-85ac821ea7b2","ios":"levelo://app?vid=fc6204b8-b8c0-4a1e-807f-85ac821ea7b2"},"vehicle_type_id":"4","last_reported":1744193573,"current_range_meters":21600,"station_id":"ce4bh492rcd13ifvqdvg","pricing_plan_id":"cebpf4jnsgd1na2vs0mg"},{"bike_id":"1006b375-f33b-4d86-9c2d-a03b2c58365f","system_id":"levelo_inurba_marseille","lat":43.29255,"lon":5.37612,"is_reserved":false,"is_disabled":false,"rental_uris":{"android":"levelo://app?vid=1006b375-f33b-4d86-9c2d-a03b2c58365f","ios":"levelo://app?vid=1006b375-f33b-4d86-9c2d-a03b2c58365f"},"vehicle_type_id":"4","last_reported":1744193573,"current_range_meters":21600,"station_id":"ce4bgi12rcd13ifvqb80","pricing_plan_id":"cebpf4jnsgd1na2vs0mg"},{"bike_id":"614a80c5-1cc0-445e-b767-9d708216441c","system_id":"levelo_inurba_marseille","lat":43.29277,"lon":5.36853,"is_reserved":false,"is_disabled":false,"rental_uris":{"android":"levelo://app?vid=614a80c5-1cc0-445e-b767-9d708216441c","ios":"levelo://app?vid=614a80c5-1cc0-445e-b767-9d708216441c"},"vehicle_type_id":"4","last_reported":1744193573,"current_range_meters":21600,"station_id":"ce4bhbp2rcd13ifvqesg","pricing_plan_id":"cebpf4jnsgd1na2vs0mg"},{"bike_id":"58326a62-23d4-4911-b912-437fa1212b93","system_id":"levelo_inurba_marseille","lat":43.2848,"lon":5.38419,"is_reserved":false,"is_disabled":false,"rental_uris":{"android":"levelo://app?vid=58326a62-23d4-4911-b912-437fa1212b93","ios":"levelo://app?vid=58326a62-23d4-4911-b912-437fa1212b93"},"vehicle_type_id":"4","last_reported":1744193573,"current_range_meters":21600,"station_id":"ce4bh512rcd13ifvqe3g","pricing_plan_id":"cebpf4jnsgd1na2vs0mg"},{"bike_id":"d64648ad-988e-4859-9e47-00782dbc6c22","system_id":"levelo_inurba_marseille","lat":43.23176,"lon":5.43676,"is_reserved":false,"is_disabled":false,"rental_uris":{"android":"levelo://app?vid=d64648ad-988e-4859-9e47-00782dbc6c22","ios":"levelo://app?vid=d64648ad-988e-4859-9e47-00782dbc6c22"},"vehicle_type_id":"4","last_reported":1744193573,"current_range_meters":21600,"station_id":"ce4bhmp2rcd13ifvqgog","pricing_plan_id":"cebpf4jnsgd1na2vs0mg"},{"bike_id":"398bb198-1c39-41b4-9c90-92e8eb80d230","system_id":"levelo_inurba_marseille","lat":43.30605,"lon":5.39363,"is_reserved":false,"is_disabled":false,"rental_uris":{"android":"levelo://app?vid=398bb198-1c39-41b4-9c90-92e8eb80d230","ios":"levelo://app?vid=398bb198-1c39-41b4-9c90-92e8eb80d230"},"vehicle_type_id":"4","last_reported":1744193573,"current_range_meters":21600,"station_id":"ce4bh0p2rcd13ifvqd80","pricing_plan_id":"cebpf4jnsgd1na2vs0mg"},{"bike_id":"b5e4438f-d942-444d-8724-ea5468be5782","system_id":"levelo_inurba_marseille","lat":43.28152,"lon":5.4264,"is_reserved":false,"is_disabled":false,"rental_uris":{"android":"levelo://app?vid=b5e4438f-d942-444d-8724-ea5468be5782","ios":"levelo://app?vid=b5e4438f-d942-444d-8724-ea5468be5782"},"vehicle_type_id":"4","last_reported":1744193573,"current_range_meters":21600,"station_id":"ce4bhnh2rcd13ifvqgug","pricing_plan_id":"cebpf4jnsgd1na2vs0mg"},{"bike_id":"64f6553e-06c8-4915-adee-e7fb314c459f","system_id":"levelo_inurba_marseille","lat":43.30209,"lon":5.39472,"is_reserved":false,"is_disabled":false,"rental_uris":{"android":"levelo://app?vid=64f6553e-06c8-4915-adee-e7fb314c459f","ios":"levelo://app?vid=64f6553e-06c8-4915-adee-e7fb314c459f"},"vehicle_type_id":"4","last_reported":1744193573,"current_range_meters":21600,"station_id":"ce4bh0p2rcd13ifvqd70","pricing_plan_id":"cebpf4jnsgd1na2vs0mg"},{"bike_id":"8aa2d037-dd5d-432c-aee8-c7a5a1444baa","system_id":"levelo_inurba_marseille","lat":43.30483,"lon":5.37858,"is_reserved":false,"is_disabled":false,"rental_uris":{"android":"levelo://app?vid=8aa2d037-dd5d-432c-aee8-c7a5a1444baa","ios":"levelo://app?vid=8aa2d037-dd5d-432c-aee8-c7a5a1444baa"},"vehicle_type_id":"4","last_reported":1744193573,"current_range_meters":22000,"station_id":"ce4bgup2rcd13ifvqcn0","pricing_plan_id":"cebpf4jnsgd1na2vs0mg"},{"bike_id":"01630ea0-5332-433a-a16e-6f3673dfcb0c","system_id":"levelo_inurba_marseille","lat":43.24177,"lon":5.39755,"is_reserved":false,"is_disabled":false,"rental_uris":{"android":"levelo://app?vid=01630ea0-5332-433a-a16e-6f3673dfcb0c","ios":"levelo://app?vid=01630ea0-5332-433a-a16e-6f3673dfcb0c"},"vehicle_type_id":"4","last_reported":1744193573,"current_range_meters":22400,"station_id":"ce4bhn12rcd13ifvqgpg","pricing_plan_id":"cebpf4jnsgd1na2vs0mg"},{"bike_id":"593cc697-220e-4df3-9f2b-b1793070fa32","system_id":"levelo_inurba_marseille","lat":43.30563,"lon":5.36531,"is_reserved":false,"is_disabled":true,"rental_uris":{"android":"levelo://app?vid=593cc697-220e-4df3-9f2b-b1793070fa32","ios":"levelo://app?vid=593cc697-220e-4df3-9f2b-b1793070fa32"},"vehicle_type_id":"4","last_reported":1744193573,"current_range_meters":22400,"station_id":"ce4bgs12rcd13ifvqcag","pricing_plan_id":"cebpf4jnsgd1na2vs0mg"},{"bike_id":"9d3e76f9-45fd-46f8-afa5-526c6449db0f","system_id":"levelo_inurba_marseille","lat":43.32484,"lon":5.36565,"is_reserved":false,"is_disabled":false,"rental_uris":{"android":"levelo://app?vid=9d3e76f9-45fd-46f8-afa5-526c6449db0f","ios":"levelo://app?vid=9d3e76f9-45fd-46f8-afa5-526c6449db0f"},"vehicle_type_id":"4","last_reported":1744193573,"current_range_meters":22400,"station_id":"ce4bhs12rcd13ifvqhvg","pricing_plan_id":"cebpf4jnsgd1na2vs0mg"},{"bike_id":"5a049d65-3f59-4898-bfd6-1aeb68342e64","system_id":"levelo_inurba_marseille","lat":43.30322,"lon":5.36879,"is_reserved":false,"is_disabled":false,"rental_uris":{"android":"levelo://app?vid=5a049d65-3f59-4898-bfd6-1aeb68342e64","ios":"levelo://app?vid=5a049d65-3f59-4898-bfd6-1aeb68342e64"},"vehicle_type_id":"4","last_reported":1744193573,"current_range_meters":22400,"station_id":"ce4bgqh2rcd13ifvqc5g","pricing_plan_id":"cebpf4jnsgd1na2vs0mg"},{"bike_id":"60f2c0df-9c46-4d1d-aa79-8c53c8d110fe","system_id":"levelo_inurba_marseille","lat":43.29022,"lon":5.38128,"is_reserved":false,"is_disabled":false,"rental_uris":{"android":"levelo://app?vid=60f2c0df-9c46-4d1d-aa79-8c53c8d110fe","ios":"levelo://app?vid=60f2c0df-9c46-4d1d-aa79-8c53c8d110fe"},"vehicle_type_id":"4","last_reported":1744193573,"current_range_meters":22400,"station_id":"ce4bh4p2rcd13ifvqe1g","pricing_plan_id":"cebpf4jnsgd1na2vs0mg"},{"bike_id":"d066312f-55c0-4a10-ba9f-5cf192f531db","system_id":"levelo_inurba_marseille","lat":43.30461,"lon":5.37901,"is_reserved":false,"is_disabled":false,"rental_uris":{"android":"levelo://app?vid=d066312f-55c0-4a10-ba9f-5cf192f531db","ios":"levelo://app?vid=d066312f-55c0-4a10-ba9f-5cf192f531db"},"vehicle_type_id":"4","last_reported":1744193573,"current_range_meters":22400,"station_id":"ce4bgup2rcd13ifvqcn0","pricing_plan_id":"cebpf4jnsgd1na2vs0mg"},{"bike_id":"509b175b-3c7c-49aa-9e2c-ce922a8006af","system_id":"levelo_inurba_marseille","lat":43.23138,"lon":5.43714,"is_reserved":false,"is_disabled":false,"rental_uris":{"android":"levelo://app?vid=509b175b-3c7c-49aa-9e2c-ce922a8006af","ios":"levelo://app?vid=509b175b-3c7c-49aa-9e2c-ce922a8006af"},"vehicle_type_id":"4","last_reported":1744193573,"current_range_meters":22800,"station_id":"ce4bhmp2rcd13ifvqgog","pricing_plan_id":"cebpf4jnsgd1na2vs0mg"},{"bike_id":"e84071ce-606c-45f5-95a0-800bda100742","system_id":"levelo_inurba_marseille","lat":43.28457,"lon":5.35894,"is_reserved":false,"is_disabled":false,"rental_uris":{"android":"levelo://app?vid=e84071ce-606c-45f5-95a0-800bda100742","ios":"levelo://app?vid=e84071ce-606c-45f5-95a0-800bda100742"},"vehicle_type_id":"4","last_reported":1744193573,"current_range_meters":22800,"station_id":"ce4bhah2rcd13ifvqei0","pricing_plan_id":"cebpf4jnsgd1na2vs0mg"},{"bike_id":"248e6f2f-2e1e-4e0a-bdb3-badd9dc01398","system_id":"levelo_inurba_marseille","lat":43.28014,"lon":5.40798,"is_reserved":false,"is_disabled":false,"rental_uris":{"android":"levelo://app?vid=248e6f2f-2e1e-4e0a-bdb3-badd9dc01398","ios":"levelo://app?vid=248e6f2f-2e1e-4e0a-bdb3-badd9dc01398"},"vehicle_type_id":"4","last_reported":1744193573,"current_range_meters":22800,"station_id":"","pricing_plan_id":"cebpf4jnsgd1na2vs0mg"},{"bike_id":"19a78bfc-d7ad-4762-aec6-4c599c037b06","system_id":"levelo_inurba_marseille","lat":43.2417,"lon":5.39734,"is_reserved":false,"is_disabled":false,"rental_uris":{"android":"levelo://app?vid=19a78bfc-d7ad-4762-aec6-4c599c037b06","ios":"levelo://app?vid=19a78bfc-d7ad-4762-aec6-4c599c037b06"},"vehicle_type_id":"4","last_reported":1744193573,"current_range_meters":22800,"station_id":"ce4bhn12rcd13ifvqgpg","pricing_plan_id":"cebpf4jnsgd1na2vs0mg"},{"bike_id":"eab6cbfa-cb8e-47d7-b0d6-226ab7facec7","system_id":"levelo_inurba_marseille","lat":43.31702,"lon":5.4241,"is_reserved":false,"is_disabled":true,"rental_uris":{"android":"levelo://app?vid=eab6cbfa-cb8e-47d7-b0d6-226ab7facec7","ios":"levelo://app?vid=eab6cbfa-cb8e-47d7-b0d6-226ab7facec7"},"vehicle_type_id":"4","last_reported":1744193573,"current_range_meters":22800,"station_id":"ce4bhp92rcd13ifvqhbg","pricing_plan_id":"cebpf4jnsgd1na2vs0mg"},{"bike_id":"d906626f-b9d3-4e69-82de-a58a46650656","system_id":"levelo_inurba_marseille","lat":43.3012,"lon":5.37423,"is_reserved":false,"is_disabled":false,"rental_uris":{"android":"levelo://app?vid=d906626f-b9d3-4e69-82de-a58a46650656","ios":"levelo://app?vid=d906626f-b9d3-4e69-82de-a58a46650656"},"vehicle_type_id":"4","last_reported":1744193573,"current_range_meters":22800,"station_id":"ce4bgs92rcd13ifvqcc0","pricing_plan_id":"cebpf4jnsgd1na2vs0mg"},{"bike_id":"50deb72e-5960-4e77-b6ad-907fdfa7b57d","system_id":"levelo_inurba_marseille","lat":43.29578,"lon":5.37527,"is_reserved":false,"is_disabled":true,"rental_uris":{"android":"levelo://app?vid=50deb72e-5960-4e77-b6ad-907fdfa7b57d","ios":"levelo://app?vid=50deb72e-5960-4e77-b6ad-907fdfa7b57d"},"vehicle_type_id":"4","last_reported":1744193573,"current_range_meters":22800,"station_id":"ce4bgh92rcd13ifvqb50","pricing_plan_id":"cebpf4jnsgd1na2vs0mg"},{"bike_id":"f9fde33d-3e05-4f24-9670-2ad2d1cacdc1","system_id":"levelo_inurba_marseille","lat":43.2884,"lon":5.3729,"is_reserved":false,"is_disabled":true,"rental_uris":{"android":"levelo://app?vid=f9fde33d-3e05-4f24-9670-2ad2d1cacdc1","ios":"levelo://app?vid=f9fde33d-3e05-4f24-9670-2ad2d1cacdc1"},"vehicle_type_id":"4","last_reported":1744193573,"current_range_meters":22800,"station_id":"","pricing_plan_id":"cebpf4jnsgd1na2vs0mg"},{"bike_id":"dc73f117-e03b-4495-af0c-079610199aaf","system_id":"levelo_inurba_marseille","lat":43.23145,"lon":5.43712,"is_reserved":false,"is_disabled":false,"rental_uris":{"android":"levelo://app?vid=dc73f117-e03b-4495-af0c-079610199aaf","ios":"levelo://app?vid=dc73f117-e03b-4495-af0c-079610199aaf"},"vehicle_type_id":"4","last_reported":1744193573,"current_range_meters":22800,"station_id":"ce4bhmp2rcd13ifvqgog","pricing_plan_id":"cebpf4jnsgd1na2vs0mg"},{"bike_id":"5f79a8c0-2739-492f-92cd-8421f8d0820e","system_id":"levelo_inurba_marseille","lat":43.29575,"lon":5.37519,"is_reserved":false,"is_disabled":false,"rental_uris":{"android":"levelo://app?vid=5f79a8c0-2739-492f-92cd-8421f8d0820e","ios":"levelo://app?vid=5f79a8c0-2739-492f-92cd-8421f8d0820e"},"vehicle_type_id":"4","last_reported":1744193573,"current_range_meters":22800,"station_id":"ce4bgh92rcd13ifvqb50","pricing_plan_id":"cebpf4jnsgd1na2vs0mg"},{"bike_id":"d5e984d3-343e-4e16-bd54-bc3ebbd48639","system_id":"levelo_inurba_marseille","lat":43.30139,"lon":5.38783,"is_reserved":false,"is_disabled":true,"rental_uris":{"android":"levelo://app?vid=d5e984d3-343e-4e16-bd54-bc3ebbd48639","ios":"levelo://app?vid=d5e984d3-343e-4e16-bd54-bc3ebbd48639"},"vehicle_type_id":"4","last_reported":1744193573,"current_range_meters":23200,"station_id":"ce4bghh2rcd13ifvqb60","pricing_plan_id":"cebpf4jnsgd1na2vs0mg"},{"bike_id":"314d15a3-892d-4e02-8309-2fe51facf93e","system_id":"levelo_inurba_marseille","lat":43.294769,"lon":5.385562,"is_reserved":false,"is_disabled":false,"rental_uris":{"android":"levelo://app?vid=314d15a3-892d-4e02-8309-2fe51facf93e","ios":"levelo://app?vid=314d15a3-892d-4e02-8309-2fe51facf93e"},"vehicle_type_id":"4","last_reported":1744193573,"current_range_meters":23200,"station_id":"ce4bhsp2rcd13ifvqi50","pricing_plan_id":"cebpf4jnsgd1na2vs0mg"},{"bike_id":"e2c7d61d-28b9-4eae-9531-c9da5c27e6c3","system_id":"levelo_inurba_marseille","lat":43.32861,"lon":5.42619,"is_reserved":false,"is_disabled":true,"rental_uris":{"android":"levelo://app?vid=e2c7d61d-28b9-4eae-9531-c9da5c27e6c3","ios":"levelo://app?vid=e2c7d61d-28b9-4eae-9531-c9da5c27e6c3"},"vehicle_type_id":"4","last_reported":1744193573,"current_range_meters":23200,"station_id":"","pricing_plan_id":"cebpf4jnsgd1na2vs0mg"},{"bike_id":"182650a6-9433-4951-80ba-44b6e3878dab","system_id":"levelo_inurba_marseille","lat":43.30541,"lon":5.38427,"is_reserved":false,"is_disabled":true,"rental_uris":{"android":"levelo://app?vid=182650a6-9433-4951-80ba-44b6e3878dab","ios":"levelo://app?vid=182650a6-9433-4951-80ba-44b6e3878dab"},"vehicle_type_id":"4","last_reported":1744193573,"current_range_meters":23200,"station_id":"ce4bgg92rcd13ifvqb30","pricing_plan_id":"cebpf4jnsgd1na2vs0mg"},{"bike_id":"1c6758df-1dec-402b-8cbf-a82c76304e5d","system_id":"levelo_inurba_marseille","lat":43.24177,"lon":5.39734,"is_reserved":false,"is_disabled":false,"rental_uris":{"android":"levelo://app?vid=1c6758df-1dec-402b-8cbf-a82c76304e5d","ios":"levelo://app?vid=1c6758df-1dec-402b-8cbf-a82c76304e5d"},"vehicle_type_id":"4","last_reported":1744193573,"current_range_meters":23200,"station_id":"ce4bhn12rcd13ifvqgpg","pricing_plan_id":"cebpf4jnsgd1na2vs0mg"},{"bike_id":"fa399542-243e-4d1f-bddc-f382feb81957","system_id":"levelo_inurba_marseille","lat":43.32651,"lon":5.4099,"is_reserved":false,"is_disabled":false,"rental_uris":{"android":"levelo://app?vid=fa399542-243e-4d1f-bddc-f382feb81957","ios":"levelo://app?vid=fa399542-243e-4d1f-bddc-f382feb81957"},"vehicle_type_id":"4","last_reported":1744193573,"current_range_meters":24000,"station_id":"ce4bhpp2rcd13ifvqhgg","pricing_plan_id":"cebpf4jnsgd1na2vs0mg"},{"bike_id":"86c09796-436c-4277-9510-d181add87a25","system_id":"levelo_inurba_marseille","lat":43.31217,"lon":5.36857,"is_reserved":false,"is_disabled":false,"rental_uris":{"android":"levelo://app?vid=86c09796-436c-4277-9510-d181add87a25","ios":"levelo://app?vid=86c09796-436c-4277-9510-d181add87a25"},"vehicle_type_id":"4","last_reported":1744193573,"current_range_meters":24000,"station_id":"ce4bgl92rcd13ifvqbq0","pricing_plan_id":"cebpf4jnsgd1na2vs0mg"},{"bike_id":"f8cbb431-fb74-44e6-961a-a99ce96260c6","system_id":"levelo_inurba_marseille","lat":43.27058,"lon":5.40287,"is_reserved":false,"is_disabled":false,"rental_uris":{"android":"levelo://app?vid=f8cbb431-fb74-44e6-961a-a99ce96260c6","ios":"levelo://app?vid=f8cbb431-fb74-44e6-961a-a99ce96260c6"},"vehicle_type_id":"4","last_reported":1744193573,"current_range_meters":24000,"station_id":"ce4bhk92rcd13ifvqgc0","pricing_plan_id":"cebpf4jnsgd1na2vs0mg"},{"bike_id":"23718e9a-5ce7-4d28-99a5-8f754f56e13c","system_id":"levelo_inurba_marseille","lat":43.22501,"lon":5.3478,"is_reserved":false,"is_disabled":false,"rental_uris":{"android":"levelo://app?vid=23718e9a-5ce7-4d28-99a5-8f754f56e13c","ios":"levelo://app?vid=23718e9a-5ce7-4d28-99a5-8f754f56e13c"},"vehicle_type_id":"4","last_reported":1744193573,"current_range_meters":24000,"station_id":"","pricing_plan_id":"cebpf4jnsgd1na2vs0mg"},{"bike_id":"e7569c58-d3d5-4cba-b38a-86c2577b492e","system_id":"levelo_inurba_marseille","lat":43.31165,"lon":5.38716,"is_reserved":false,"is_disabled":false,"rental_uris":{"android":"levelo://app?vid=e7569c58-d3d5-4cba-b38a-86c2577b492e","ios":"levelo://app?vid=e7569c58-d3d5-4cba-b38a-86c2577b492e"},"vehicle_type_id":"4","last_reported":1744193573,"current_range_meters":24000,"station_id":"ce4bgv12rcd13ifvqcp0","pricing_plan_id":"cebpf4jnsgd1na2vs0mg"},{"bike_id":"1d81f59d-e09e-4c72-8595-786f6966c8d0","system_id":"levelo_inurba_marseille","lat":43.29632,"lon":5.37708,"is_reserved":false,"is_disabled":true,"rental_uris":{"android":"levelo://app?vid=1d81f59d-e09e-4c72-8595-786f6966c8d0","ios":"levelo://app?vid=1d81f59d-e09e-4c72-8595-786f6966c8d0"},"vehicle_type_id":"4","last_reported":1744193573,"current_range_meters":24000,"station_id":"ce4bgi92rcd13ifvqb90","pricing_plan_id":"cebpf4jnsgd1na2vs0mg"},{"bike_id":"39eb2741-f140-4de0-a592-d2e7b250a25f","system_id":"levelo_inurba_marseille","lat":43.30534,"lon":5.36689,"is_reserved":false,"is_disabled":false,"rental_uris":{"android":"levelo://app?vid=39eb2741-f140-4de0-a592-d2e7b250a25f","ios":"levelo://app?vid=39eb2741-f140-4de0-a592-d2e7b250a25f"},"vehicle_type_id":"4","last_reported":1744193573,"current_range_meters":24000,"station_id":"ce4bgrp2rcd13ifvqc9g","pricing_plan_id":"cebpf4jnsgd1na2vs0mg"},{"bike_id":"651ebb6d-1401-4455-852d-d5179f27c483","system_id":"levelo_inurba_marseille","lat":43.30567,"lon":5.36559,"is_reserved":false,"is_disabled":false,"rental_uris":{"android":"levelo://app?vid=651ebb6d-1401-4455-852d-d5179f27c483","ios":"levelo://app?vid=651ebb6d-1401-4455-852d-d5179f27c483"},"vehicle_type_id":"4","last_reported":1744193573,"current_range_meters":24000,"station_id":"ce4bgs12rcd13ifvqcag","pricing_plan_id":"cebpf4jnsgd1na2vs0mg"},{"bike_id":"e36716cc-58b0-4aba-9e44-2b4fbe305d2e","system_id":"levelo_inurba_marseille","lat":43.30137,"lon":5.38787,"is_reserved":false,"is_disabled":true,"rental_uris":{"android":"levelo://app?vid=e36716cc-58b0-4aba-9e44-2b4fbe305d2e","ios":"levelo://app?vid=e36716cc-58b0-4aba-9e44-2b4fbe305d2e"},"vehicle_type_id":"4","last_reported":1744193573,"current_range_meters":24000,"station_id":"ce4bghh2rcd13ifvqb60","pricing_plan_id":"cebpf4jnsgd1na2vs0mg"},{"bike_id":"6643eaf3-91bc-4104-901b-084779952e30","system_id":"levelo_inurba_marseille","lat":43.30782,"lon":5.37663,"is_reserved":false,"is_disabled":false,"rental_uris":{"android":"levelo://app?vid=6643eaf3-91bc-4104-901b-084779952e30","ios":"levelo://app?vid=6643eaf3-91bc-4104-901b-084779952e30"},"vehicle_type_id":"4","last_reported":1744193573,"current_range_meters":24000,"station_id":"ce4bgv92rcd13ifvqcq0","pricing_plan_id":"cebpf4jnsgd1na2vs0mg"},{"bike_id":"28e3645d-aabb-4335-907e-e39d07228180","system_id":"levelo_inurba_marseille","lat":43.3173,"lon":5.42396,"is_reserved":false,"is_disabled":false,"rental_uris":{"android":"levelo://app?vid=28e3645d-aabb-4335-907e-e39d07228180","ios":"levelo://app?vid=28e3645d-aabb-4335-907e-e39d07228180"},"vehicle_type_id":"4","last_reported":1744193573,"current_range_meters":24000,"station_id":"ce4bhp92rcd13ifvqhbg","pricing_plan_id":"cebpf4jnsgd1na2vs0mg"},{"bike_id":"795e2112-4d49-4633-a166-f4ebb854448b","system_id":"levelo_inurba_marseille","lat":43.29909,"lon":5.37468,"is_reserved":false,"is_disabled":false,"rental_uris":{"android":"levelo://app?vid=795e2112-4d49-4633-a166-f4ebb854448b","ios":"levelo://app?vid=795e2112-4d49-4633-a166-f4ebb854448b"},"vehicle_type_id":"4","last_reported":1744193573,"current_range_meters":24000,"station_id":"ce4bgjh2rcd13ifvqbg0","pricing_plan_id":"cebpf4jnsgd1na2vs0mg"},{"bike_id":"6125ddfd-95ef-4a70-a9b9-c5500f0917b8","system_id":"levelo_inurba_marseille","lat":43.31285,"lon":5.38675,"is_reserved":false,"is_disabled":false,"rental_uris":{"android":"levelo://app?vid=6125ddfd-95ef-4a70-a9b9-c5500f0917b8","ios":"levelo://app?vid=6125ddfd-95ef-4a70-a9b9-c5500f0917b8"},"vehicle_type_id":"4","last_reported":1744193573,"current_range_meters":24000,"station_id":"","pricing_plan_id":"cebpf4jnsgd1na2vs0mg"},{"bike_id":"94455896-0f19-4fae-bd72-9879f01fcd6e","system_id":"levelo_inurba_marseille","lat":43.29539,"lon":5.42266,"is_reserved":false,"is_disabled":true,"rental_uris":{"android":"levelo://app?vid=94455896-0f19-4fae-bd72-9879f01fcd6e","ios":"levelo://app?vid=94455896-0f19-4fae-bd72-9879f01fcd6e"},"vehicle_type_id":"4","last_reported":1744193573,"current_range_meters":24000,"station_id":"ce4bhph2rcd13ifvqhdg","pricing_plan_id":"cebpf4jnsgd1na2vs0mg"},{"bike_id":"b39d27e4-e288-42d2-9cd8-dd3479220888","system_id":"levelo_inurba_marseille","lat":43.29535,"lon":5.38552,"is_reserved":false,"is_disabled":true,"rental_uris":{"android":"levelo://app?vid=b39d27e4-e288-42d2-9cd8-dd3479220888","ios":"levelo://app?vid=b39d27e4-e288-42d2-9cd8-dd3479220888"},"vehicle_type_id":"4","last_reported":1744193573,"current_range_meters":24000,"station_id":"ce4bgih2rcd13ifvqba0","pricing_plan_id":"cebpf4jnsgd1na2vs0mg"},{"bike_id":"2e7c3b60-2403-4b62-b70e-2766ea4db7e2","system_id":"levelo_inurba_marseille","lat":43.30308,"lon":5.39213,"is_reserved":false,"is_disabled":true,"rental_uris":{"android":"levelo://app?vid=2e7c3b60-2403-4b62-b70e-2766ea4db7e2","ios":"levelo://app?vid=2e7c3b60-2403-4b62-b70e-2766ea4db7e2"},"vehicle_type_id":"4","last_reported":1744193573,"current_range_meters":24000,"station_id":"ce4bgkh2rcd13ifvqbk0","pricing_plan_id":"cebpf4jnsgd1na2vs0mg"},{"bike_id":"307a2ea6-9334-49b1-b42f-b9212bd7bb4e","system_id":"levelo_inurba_marseille","lat":43.3022,"lon":5.39454,"is_reserved":false,"is_disabled":true,"rental_uris":{"android":"levelo://app?vid=307a2ea6-9334-49b1-b42f-b9212bd7bb4e","ios":"levelo://app?vid=307a2ea6-9334-49b1-b42f-b9212bd7bb4e"},"vehicle_type_id":"4","last_reported":1744193573,"current_range_meters":24400,"station_id":"ce4bh0p2rcd13ifvqd70","pricing_plan_id":"cebpf4jnsgd1na2vs0mg"},{"bike_id":"d9d03d22-213a-43ce-ad40-faf212c51310","system_id":"levelo_inurba_marseille","lat":43.29227,"lon":5.36066,"is_reserved":false,"is_disabled":false,"rental_uris":{"android":"levelo://app?vid=d9d03d22-213a-43ce-ad40-faf212c51310","ios":"levelo://app?vid=d9d03d22-213a-43ce-ad40-faf212c51310"},"vehicle_type_id":"4","last_reported":1744193573,"current_range_meters":24400,"station_id":"ce4bhbh2rcd13ifvqeqg","pricing_plan_id":"cebpf4jnsgd1na2vs0mg"},{"bike_id":"30988a79-2f38-4010-963e-f37ee8bc05e6","system_id":"levelo_inurba_marseille","lat":43.29559,"lon":5.37519,"is_reserved":false,"is_disabled":false,"rental_uris":{"android":"levelo://app?vid=30988a79-2f38-4010-963e-f37ee8bc05e6","ios":"levelo://app?vid=30988a79-2f38-4010-963e-f37ee8bc05e6"},"vehicle_type_id":"4","last_reported":1744193573,"current_range_meters":24400,"station_id":"ce4bgh92rcd13ifvqb50","pricing_plan_id":"cebpf4jnsgd1na2vs0mg"},{"bike_id":"b92a3715-a4a4-49c0-bba0-4a24302829de","system_id":"levelo_inurba_marseille","lat":43.29802,"lon":5.38089,"is_reserved":false,"is_disabled":false,"rental_uris":{"android":"levelo://app?vid=b92a3715-a4a4-49c0-bba0-4a24302829de","ios":"levelo://app?vid=b92a3715-a4a4-49c0-bba0-4a24302829de"},"vehicle_type_id":"4","last_reported":1744193573,"current_range_meters":24400,"station_id":"ce4bgip2rcd13ifvqbb0","pricing_plan_id":"cebpf4jnsgd1na2vs0mg"},{"bike_id":"2475c910-a59c-461c-989e-52969f4b5454","system_id":"levelo_inurba_marseille","lat":43.28612,"lon":5.35104,"is_reserved":false,"is_disabled":false,"rental_uris":{"android":"levelo://app?vid=2475c910-a59c-461c-989e-52969f4b5454","ios":"levelo://app?vid=2475c910-a59c-461c-989e-52969f4b5454"},"vehicle_type_id":"4","last_reported":1744193573,"current_range_meters":24400,"station_id":"ce4bhch2rcd13ifvqeug","pricing_plan_id":"cebpf4jnsgd1na2vs0mg"},