{"last_updated":1702541380,"ttl":30,"version":"2.2","data":{"bikes":[{"bike_id":"c1c32b59-86c7-419d-9316-35ad06227fd4","system_id":"levelo_inurba_marseille","lat":43.31341,"lon":5.367098,"is_reserved":false,"is_disabled":false,"rental_uris":{"android":"levelo://app?vid=c1c32b59-86c7-419d-9316-35ad06227fd4","ios":"levelo://app?vid=c1c32b59-86c7-419d-9316-35ad06227fd4"},"vehicle_type_id":"4","last_reported":1702541380,"current_range_meters":25200,"station_id":"ce4bgr92rcd13ifvqc6g","pricing_plan_id":"free"},{"bike_id":"fd0d3195-a222-4a69-a6a8-0786757b5026","system_id":"levelo_inurba_marseille","lat":43.313391,"lon":5.36706,"is_reserved":false,"is_disabled":false,"rental_uris":{"android":"levelo://app?vid=fd0d3195-a222-4a69-a6a8-0786757b5026","ios":"levelo://app?vid=fd0d3195-a222-4a69-a6a8-0786757b5026"},"vehicle_type_id":"4","last_reported":1702541380,"current_range_meters":20000,"station_id":"ce4bgr92rcd13ifvqc6g","pricing_plan_id":"free"},{"bike_id":"0349cfe3-d4fc-4c2f-a928-645bcf88f8c7","system_id":"levelo_inurba_marseille","lat":43.313391,"lon":5.36706,"is_reserved":false,"is_disabled":false,"rental_uris":{"android":"levelo://app?vid=0349cfe3-d4fc-4c2f-a928-645bcf88f8c7","ios":"levelo://app?vid=0349cfe3-d4fc-4c2f-a928-645bcf88f8c7"},"vehicle_type_id":"4","last_reported":1702541380,"current_range_meters":26400,"station_id":"ce4bgr92rcd13ifvqc6g","pricing_plan_id":"free"},{"bike_id":"2723693b-cb06-4ecf-a1c2-912360eb8da6","system_id":"levelo_inurba_marseille","lat":43.31341,"lon":5.367098,"is_reserved":false,"is_disabled":false,"rental_uris":{"android":"levelo://app?vid=2723693b-cb06-4ecf-a1c2-912360eb8da6","ios":"levelo://app?vid=2723693b-cb06-4ecf-a1c2-912360eb8da6"},"vehicle_type_id":"4","last_reported":1702541380,"current_range_meters":6800,"station_id":"ce4bgr92rcd13ifvqc6g","pricing_plan_id":"free"},{"bike_id":"a723faf6-6dfb-426d-a6cf-68dca6c2720e","system_id":"levelo_inurba_marseille","lat":43.313391,"lon":5.36706,"is_reserved":false,"is_disabled":false,"rental_uris":{"android":"levelo://app?vid=a723faf6-6dfb-426d-a6cf-68dca6c2720e","ios":"levelo://app?vid=a723faf6-6dfb-426d-a6cf-68dca6c2720e"},"vehicle_type_id":"4","last_reported":1702541380,"current_range_meters":18400,"station_id":"ce4bgr92rcd13ifvqc6g","pricing_plan_id":"free"},{"bike_id":"132756b2-21b0-4b37-a3ac-98574bf56a76","system_id":"levelo_inurba_marseille","lat":43.313391,"lon":5.36706,"is_reserved":false,"is_disabled":false,"rental_uris":{"android":"levelo://app?vid=132756b2-21b0-4b37-a3ac-98574bf56a76","ios":"levelo://app?vid=132756b2-21b0-4b37-a3ac-98574bf56a76"},"vehicle_type_id":"4","last_reported":1702541380,"current_range_meters":16400,"station_id":"ce4bgr92rcd13ifvqc6g","pricing_plan_id":"free"},{"bike_id":"a48d9ac0-3c23-4594-aef1-26f94e1c11e1","system_id":"levelo_inurba_marseille","lat":43.31341,"lon":5.367098,"is_reserved":false,"is_disabled":false,"rental_uris":{"android":"levelo://app?vid=a48d9ac0-3c23-4594-aef1-26f94e1c11e1","ios":"levelo://app?vid=a48d9ac0-3c23-4594-aef1-26f94e1c11e1"},"vehicle_type_id":"4","last_reported":1702541380,"current_range_meters":12800,"station_id":"ce4bgr92rcd13ifvqc6g","pricing_plan_id":"free"},{"bike_id":"5e870a68-e5e1-4f23-9b79-346d0b2e9ca3","system_id":"levelo_inurba_marseille","lat":43.313391,"lon":5.36706,"is_reserved":false,"is_disabled":false,"rental_uris":{"android":"levelo://app?vid=5e870a68-e5e1-4f23-9b79-346d0b2e9ca3","ios":"levelo://app?vid=5e870a68-e5e1-4f23-9b79-346d0b2e9ca3"},"vehicle_type_id":"4","last_reported":1702541380,"current_range_meters":16000,"station_id":"ce4bgr92rcd13ifvqc6g","pricing_plan_id":"free"},{"bike_id":"aba73269-eac1-4a01-9e09-70ddb68fbd12","system_id":"levelo_inurba_marseille","lat":43.31341,"lon":5.367098,"is_reserved":false,"is_disabled":false,"rental_uris":{"android":"levelo://app?vid=aba73269-eac1-4a01-9e09-70ddb68fbd12","ios":"levelo://app?vid=aba73269-eac1-4a01-9e09-70ddb68fbd12"},"vehicle_type_id":"4","last_reported":1702541380,"current_range_meters":26800,"station_id":"ce4bgr92rcd13ifvqc6g","pricing_plan_id":"free"},{"bike_id":"299660e9-d616-4cc9-b346-6a8278be8d78","system_id":"levelo_inurba_marseille","lat":43.312239,"lon":5.368562,"is_reserved":false,"is_disabled":false,"rental_uris":{"android":"levelo://app?vid=299660e9-d616-4cc9-b346-6a8278be8d78","ios":"levelo://app?vid=299660e9-d616-4cc9-b346-6a8278be8d78"},"vehicle_type_id":"4","last_reported":1702541380,"current_range_meters":31200,"station_id":"ce4bgl92rcd13ifvqbq0","pricing_plan_id":"free"},{"bike_id":"4e8da820-d94c-4282-a15b-0d99d45343d6","system_id":"levelo_inurba_marseille","lat":43.312239,"lon":5.368562,"is_reserved":false,"is_disabled":false,"rental_uris":{"android":"levelo://app?vid=4e8da820-d94c-4282-a15b-0d99d45343d6","ios":"levelo://app?vid=4e8da820-d94c-4282-a15b-0d99d45343d6"},"vehicle_type_id":"4","last_reported":1702541380,"current_range_meters":31200,"station_id":"ce4bgl92rcd13ifvqbq0","pricing_plan_id":"free"},{"bike_id":"3b09e731-4abd-4ead-9d34-43ac52009210","system_id":"levelo_inurba_marseille","lat":43.312239,"lon":5.368562,"is_reserved":false,"is_disabled":false,"rental_uris":{"android":"levelo://app?vid=3b09e731-4abd-4ead-9d34-43ac52009210","ios":"levelo://app?vid=3b09e731-4abd-4ead-9d34-43ac52009210"},"vehicle_type_id":"4","last_reported":1702541380,"current_range_meters":20000,"station_id":"ce4bgl92rcd13ifvqbq0","pricing_plan_id":"free"},{"bike_id":"b78c9a51-0e04-4998-b6ca-7a16de769080","system_id":"levelo_inurba_marseille","lat":43.312239,"lon":5.368562,"is_reserved":false,"is_disabled":false,"rental_uris":{"android":"levelo://app?vid=b78c9a51-0e04-4998-b6ca-7a16de769080","ios":"levelo://app?vid=b78c9a51-0e04-4998-b6ca-7a16de769080"},"vehicle_type_id":"4","last_reported":1702541380,"current_range_meters":24800,"station_id":"ce4bgl92rcd13ifvqbq0","pricing_plan_id":"free"},{"bike_id":"782ba954-8744-44a8-ac2c-1af11b08b18d","system_id":"levelo_inurba_marseille","lat":43.312239,"lon":5.368562,"is_reserved":false,"is_disabled":false,"rental_uris":{"android":"levelo://app?vid=782ba954-8744-44a8-ac2c-1af11b08b18d","ios":"levelo://app?vid=782ba954-8744-44a8-ac2c-1af11b08b18d"},"vehicle_type_id":"4","last_reported":1702541380,"current_range_meters":6000,"station_id":"ce4bgl92rcd13ifvqbq0","pricing_plan_id":"free"},{"bike_id":"5a037603-ad63-44df-b177-426009f2951c","system_id":"levelo_inurba_marseille","lat":43.312239,"lon":5.368562,"is_reserved":false,"is_disabled":false,"rental_uris":{"android":"levelo://app?vid=5a037603-ad63-44df-b177-426009f2951c","ios":"levelo://app?vid=5a037603-ad63-44df-b177-426009f2951c"},"vehicle_type_id":"4","last_reported":1702541380,"current_range_meters":21600,"station_id":"ce4bgl92rcd13ifvqbq0","pricing_plan_id":"free"},{"bike_id":"59074f10-9bc7-4ffd-8bc8-559090846504","system_id":"levelo_inurba_marseille","lat":43.312239,"lon":5.368562,"is_reserved":false,"is_disabled":false,"rental_uris":{"android":"levelo://app?vid=59074f10-9bc7-4ffd-8bc8-559090846504","ios":"levelo://app?vid=59074f10-9bc7-4ffd-8bc8-559090846504"},"vehicle_type_id":"4","last_reported":1702541380,"current_range_meters":21600,"station_id":"ce4bgl92rcd13ifvqbq0","pricing_plan_id":"free"},{"bike_id":"4582da45-96bf-4ebe-9e31-ad0e506cdf31","system_id":"levelo_inurba_marseille","lat":43.309076,"lon":5.368465,"is_reserved":false,"is_disabled":false,"rental_uris":{"android":"levelo://app?vid=4582da45-96bf-4ebe-9e31-ad0e506cdf31","ios":"levelo://app?vid=4582da45-96bf-4ebe-9e31-ad0e506cdf31"},"vehicle_type_id":"4","last_reported":1702541380,"current_range_meters":25200,"station_id":"ce4bgn92rcd13ifvqbvg","pricing_plan_id":"free"},{"bike_id":"e6534fab-2876-43a3-8c8d-0b18f049716d","system_id":"levelo_inurba_marseille","lat":43.309076,"lon":5.368465,"is_reserved":false,"is_disabled":false,"rental_uris":{"android":"levelo://app?vid=e6534fab-2876-43a3-8c8d-0b18f049716d","ios":"levelo://app?vid=e6534fab-2876-43a3-8c8d-0b18f049716d"},"vehicle_type_id":"4","last_reported":1702541380,"current_range_meters":20400,"station_id":"ce4bgn92rcd13ifvqbvg","pricing_plan_id":"free"},{"bike_id":"ded07690-ec9d-4e79-bc19-e7f16083597d","system_id":"levelo_inurba_marseille","lat":43.309076,"lon":5.368465,"is_reserved":false,"is_disabled":false,"rental_uris":{"android":"levelo://app?vid=ded07690-ec9d-4e79-bc19-e7f16083597d","ios":"levelo://app?vid=ded07690-ec9d-4e79-bc19-e7f16083597d"},"vehicle_type_id":"4","last_reported":1702541380,"current_range_meters":19600,"station_id":"ce4bgn92rcd13ifvqbvg","pricing_plan_id":"free"},{"bike_id":"84680145-9505-407c-8367-eb2bc9aa2711","system_id":"levelo_inurba_marseille","lat":43.309076,"lon":5.368465,"is_reserved":false,"is_disabled":false,"rental_uris":{"android":"levelo://app?vid=84680145-9505-407c-8367-eb2bc9aa2711","ios":"levelo://app?vid=84680145-9505-407c-8367-eb2bc9aa2711"},"vehicle_type_id":"4","last_reported":1702541380,"current_range_meters":20000,"station_id":"ce4bgn92rcd13ifvqbvg","pricing_plan_id":"free"},{"bike_id":"aad410c1-6af6-46dc-9f08-006f2a8be6d4","system_id":"levelo_inurba_marseille","lat":43.309076,"lon":5.368465,"is_reserved":false,"is_disabled":false,"rental_uris":{"android":"levelo://app?vid=aad410c1-6af6-46dc-9f08-006f2a8be6d4","ios":"levelo://app?vid=aad410c1-6af6-46dc-9f08-006f2a8be6d4"},"vehicle_type_id":"4","last_reported":1702541380,"current_range_meters":25200,"station_id":"ce4bgn92rcd13ifvqbvg","pricing_plan_id":"free"},{"bike_id":"34f97f33-927f-42f8-8473-20131751f69c","system_id":"levelo_inurba_marseille","lat":43.309076,"lon":5.368465,"is_reserved":false,"is_disabled":false,"rental_uris":{"android":"levelo://app?vid=34f97f33-927f-42f8-8473-20131751f69c","ios":"levelo://app?vid=34f97f33-927f-42f8-8473-20131751f69c"},"vehicle_type_id":"4","last_reported":1702541380,"current_range_meters":22800,"station_id":"ce4bgn92rcd13ifvqbvg","pricing_plan_id":"free"},{"bike_id":"94985d8c-b473-45de-8406-3b3789a5723e","system_id":"levelo_inurba_marseille","lat":43.309076,"lon":5.368465,"is_reserved":false,"is_disabled":false,"rental_uris":{"android":"levelo://app?vid=94985d8c-b473-45de-8406-3b3789a5723e","ios":"levelo://app?vid=94985d8c-b473-45de-8406-3b3789a5723e"},"vehicle_type_id":"4","last_reported":1702541380,"current_range_meters":21200,"station_id":"ce4bgn92rcd13ifvqbvg","pricing_plan_id":"free"},{"bike_id":"9aa19ce7-0b5d-40fd-9872-bc22122d3771","system_id":"levelo_inurba_marseille","lat":43.309076,"lon":5.368465,"is_reserved":false,"is_disabled":false,"rental_uris":{"android":"levelo://app?vid=9aa19ce7-0b5d-40fd-9872-bc22122d3771","ios":"levelo://app?vid=9aa19ce7-0b5d-40fd-9872-bc22122d3771"},"vehicle_type_id":"4","last_reported":1702541380,"current_range_meters":9200,"station_id":"ce4bgn92rcd13ifvqbvg","pricing_plan_id":"free"},{"bike_id":"556d34cd-1b95-4563-8298-2b71ac4f9ccb","system_id":"levelo_inurba_marseille","lat":43.309076,"lon":5.368465,"is_reserved":false,"is_disabled":false,"rental_uris":{"android":"levelo://app?vid=556d34cd-1b95-4563-8298-2b71ac4f9ccb","ios":"levelo://app?vid=556d34cd-1b95-4563-8298-2b71ac4f9ccb"},"vehicle_type_id":"4","last_reported":1702541380,"current_range_meters":29600,"station_id":"ce4bgn92rcd13ifvqbvg","pricing_plan_id":"free"},{"bike_id":"be4a4088-48fa-4327-b8b3-0e65ea384a43","system_id":"levelo_inurba_marseille","lat":43.314811,"lon":5.373103,"is_reserved":false,"is_disabled":false,"rental_uris":{"android":"levelo://app?vid=be4a4088-48fa-4327-b8b3-0e65ea384a43","ios":"levelo://app?vid=be4a4088-48fa-4327-b8b3-0e65ea384a43"},"vehicle_type_id":"4","last_reported":1702541380,"current_range_meters":26000,"station_id":"ce4bgt12rcd13ifvqcd0","pricing_plan_id":"free"},{"bike_id":"e26365d2-1e5c-42dc-bd4b-8a456efa6f5b","system_id":"levelo_inurba_marseille","lat":43.309039,"lon":5.371797,"is_reserved":false,"is_disabled":false,"rental_uris":{"android":"levelo://app?vid=e26365d2-1e5c-42dc-bd4b-8a456efa6f5b","ios":"levelo://app?vid=e26365d2-1e5c-42dc-bd4b-8a456efa6f5b"},"vehicle_type_id":"4","last_reported":1702541380,"current_range_meters":12400,"station_id":"ce4bguh2rcd13ifvqckg","pricing_plan_id":"free"},{"bike_id":"e61756d4-515a-4716-a37d-000abc48889f","system_id":"levelo_inurba_marseille","lat":43.309039,"lon":5.371797,"is_reserved":false,"is_disabled":false,"rental_uris":{"android":"levelo://app?vid=e61756d4-515a-4716-a37d-000abc48889f","ios":"levelo://app?vid=e61756d4-515a-4716-a37d-000abc48889f"},"vehicle_type_id":"4","last_reported":1702541380,"current_range_meters":9600,"station_id":"ce4bguh2rcd13ifvqckg","pricing_plan_id":"free"},{"bike_id":"3f8b821f-e430-4a35-bf14-f8b6e777ea11","system_id":"levelo_inurba_marseille","lat":43.313939,"lon":5.375306,"is_reserved":false,"is_disabled":false,"rental_uris":{"android":"levelo://app?vid=3f8b821f-e430-4a35-bf14-f8b6e777ea11","ios":"levelo://app?vid=3f8b821f-e430-4a35-bf14-f8b6e777ea11"},"vehicle_type_id":"4","last_reported":1702541380,"current_range_meters":4800,"station_id":"","pricing_plan_id":"free"},{"bike_id":"8db7efcf-c08c-4470-9c1e-28c1c9be70dc","system_id":"levelo_inurba_marseille","lat":43.305452,"lon":5.367012,"is_reserved":false,"is_disabled":false,"rental_uris":{"android":"levelo://app?vid=8db7efcf-c08c-4470-9c1e-28c1c9be70dc","ios":"levelo://app?vid=8db7efcf-c08c-4470-9c1e-28c1c9be70dc"},"vehicle_type_id":"4","last_reported":1702541380,"current_range_meters":31200,"station_id":"ce4bgrp2rcd13ifvqc9g","pricing_plan_id":"free"},{"bike_id":"7600321c-fa70-4baf-b936-c39e40652602","system_id":"levelo_inurba_marseille","lat":43.305714,"lon":5.365633,"is_reserved":false,"is_disabled":false,"rental_uris":{"android":"levelo://app?vid=7600321c-fa70-4baf-b936-c39e40652602","ios":"levelo://app?vid=7600321c-fa70-4baf-b936-c39e40652602"},"vehicle_type_id":"4","last_reported":1702541380,"current_range_meters":30400,"station_id":"ce4bgs12rcd13ifvqcag","pricing_plan_id":"free"},{"bike_id":"955e4ab2-16e5-44e8-a986-a2f50ff96c06","system_id":"levelo_inurba_marseille","lat":43.305382,"lon":5.365389,"is_reserved":false,"is_disabled":false,"rental_uris":{"android":"levelo://app?vid=955e4ab2-16e5-44e8-a986-a2f50ff96c06","ios":"levelo://app?vid=955e4ab2-16e5-44e8-a986-a2f50ff96c06"},"vehicle_type_id":"4","last_reported":1702541380,"current_range_meters":24000,"station_id":"","pricing_plan_id":"free"},{"bike_id":"b7446908-2cf0-427c-8395-16c912a944e1","system_id":"levelo_inurba_marseille","lat":43.305706,"lon":5.365654,"is_reserved":false,"is_disabled":false,"rental_uris":{"android":"levelo://app?vid=b7446908-2cf0-427c-8395-16c912a944e1","ios":"levelo://app?vid=b7446908-2cf0-427c-8395-16c912a944e1"},"vehicle_type_id":"4","last_reported":1702541380,"current_range_meters":30000,"station_id":"ce4bgs12rcd13ifvqcag","pricing_plan_id":"free"},{"bike_id":"f3e847c7-b178-4e3e-abfc-a615f0ba2d43","system_id":"levelo_inurba_marseille","lat":43.307945,"lon":5.376487,"is_reserved":false,"is_disabled":false,"rental_uris":{"android":"levelo://app?vid=f3e847c7-b178-4e3e-abfc-a615f0ba2d43","ios":"levelo://app?vid=f3e847c7-b178-4e3e-abfc-a615f0ba2d43"},"vehicle_type_id":"4","last_reported":1702541380,"current_range_meters":28800,"station_id":"ce4bgv92rcd13ifvqcq0","pricing_plan_id":"free"},{"bike_id":"227b454f-cbfd-4a97-b4c2-968569f53a3b","system_id":"levelo_inurba_marseille","lat":43.315373,"lon":5.380309,"is_reserved":false,"is_disabled":false,"rental_uris":{"android":"levelo://app?vid=227b454f-cbfd-4a97-b4c2-968569f53a3b","ios":"levelo://app?vid=227b454f-cbfd-4a97-b4c2-968569f53a3b"},"vehicle_type_id":"4","last_reported":1702541380,"current_range_meters":25600,"station_id":"ce4bhsp2rcd13ifvqi50","pricing_plan_id":"free"},{"bike_id":"fc47cc0b-b1fb-4440-98ca-e6fea4c39cc1","system_id":"levelo_inurba_marseille","lat":43.301939,"lon":5.366286,"is_reserved":false,"is_disabled":false,"rental_uris":{"android":"levelo://app?vid=fc47cc0b-b1fb-4440-98ca-e6fea4c39cc1","ios":"levelo://app?vid=fc47cc0b-b1fb-4440-98ca-e6fea4c39cc1"},"vehicle_type_id":"4","last_reported":1702541380,"current_range_meters":3600,"station_id":"ce4bgrh2rcd13ifvqc8g","pricing_plan_id":"free"},{"bike_id":"414865fe-5d70-41c1-b8dd-dd7e16c38e37","system_id":"levelo_inurba_marseille","lat":43.301939,"lon":5.366286,"is_reserved":false,"is_disabled":false,"rental_uris":{"android":"levelo://app?vid=414865fe-5d70-41c1-b8dd-dd7e16c38e37","ios":"levelo://app?vid=414865fe-5d70-41c1-b8dd-dd7e16c38e37"},"vehicle_type_id":"4","last_reported":1702541380,"current_range_meters":22400,"station_id":"ce4bgrh2rcd13ifvqc8g","pricing_plan_id":"free"},{"bike_id":"549c12ad-7449-48c1-b68e-a0d786b4e1f1","system_id":"levelo_inurba_marseille","lat":43.304606,"lon":5.379026,"is_reserved":false,"is_disabled":false,"rental_uris":{"android":"levelo://app?vid=549c12ad-7449-48c1-b68e-a0d786b4e1f1","ios":"levelo://app?vid=549c12ad-7449-48c1-b68e-a0d786b4e1f1"},"vehicle_type_id":"4","last_reported":1702541380,"current_range_meters":6400,"station_id":"ce4bgup2rcd13ifvqcn0","pricing_plan_id":"free"},{"bike_id":"dcda7fcc-8d04-49e0-9001-c6bbd384e9e6","system_id":"levelo_inurba_marseille","lat":43.302784,"lon":5.377158,"is_reserved":false,"is_disabled":false,"rental_uris":{"android":"levelo://app?vid=dcda7fcc-8d04-49e0-9001-c6bbd384e9e6","ios":"levelo://app?vid=dcda7fcc-8d04-49e0-9001-c6bbd384e9e6"},"vehicle_type_id":"4","last_reported":1702541380,"current_range_meters":30000,"station_id":"ce4bguh2rcd13ifvqcj0","pricing_plan_id":"free"},{"bike_id":"0777c40d-bf92-4c82-ba5e-7f473722a50c","system_id":"levelo_inurba_marseille","lat":43.30143,"lon":5.37413,"is_reserved":false,"is_disabled":false,"rental_uris":{"android":"levelo://app?vid=0777c40d-bf92-4c82-ba5e-7f473722a50c","ios":"levelo://app?vid=0777c40d-bf92-4c82-ba5e-7f473722a50c"},"vehicle_type_id":"4","last_reported":1702541380,"current_range_meters":20000,"station_id":"ce4bgs92rcd13ifvqcc0","pricing_plan_id":"free"},{"bike_id":"3111719c-7f54-4c02-98e5-cf2a11046452","system_id":"levelo_inurba_marseille","lat":43.299724,"lon":5.371829,"is_reserved":false,"is_disabled":false,"rental_uris":{"android":"levelo://app?vid=3111719c-7f54-4c02-98e5-cf2a11046452","ios":"levelo://app?vid=3111719c-7f54-4c02-98e5-cf2a11046452"},"vehicle_type_id":"4","last_reported":1702541380,"current_range_meters":11600,"station_id":"ce4bgr92rcd13ifvqc7g","pricing_plan_id":"free"},{"bike_id":"e3704427-6a60-4f28-befe-68f064cef07d","system_id":"levelo_inurba_marseille","lat":43.291675,"lon":5.371583,"is_reserved":false,"is_disabled":false,"rental_uris":{"android":"levelo://app?vid=e3704427-6a60-4f28-befe-68f064cef07d","ios":"levelo://app?vid=e3704427-6a60-4f28-befe-68f064cef07d"},"vehicle_type_id":"4","last_reported":1702541380,"current_range_meters":30000,"station_id":"ce4bha92rcd13ifvqeh0","pricing_plan_id":"free"},{"bike_id":"ef1106cb-f131-49ab-93c5-811fe1dd48b5","system_id":"levelo_inurba_marseille","lat":43.298433,"lon":5.362774,"is_reserved":false,"is_disabled":false,"rental_uris":{"android":"levelo://app?vid=ef1106cb-f131-49ab-93c5-811fe1dd48b5","ios":"levelo://app?vid=ef1106cb-f131-49ab-93c5-811fe1dd48b5"},"vehicle_type_id":"4","last_reported":1702541380,"current_range_meters":28000,"station_id":"ce4bgpp2rcd13ifvqc3g","pricing_plan_id":"free"},{"bike_id":"62c4f95f-ec48-4f8f-96b5-1da2ba2b0a34","system_id":"levelo_inurba_marseille","lat":43.311581,"lon":5.386858,"is_reserved":false,"is_disabled":false,"rental_uris":{"android":"levelo://app?vid=62c4f95f-ec48-4f8f-96b5-1da2ba2b0a34","ios":"levelo://app?vid=62c4f95f-ec48-4f8f-96b5-1da2ba2b0a34"},"vehicle_type_id":"4","last_reported":1702541380,"current_range_meters":10400,"station_id":"ce4bgv12rcd13ifvqcp0","pricing_plan_id":"free"},{"bike_id":"96a9a74a-f9ac-4af3-9d2e-5e009300d958","system_id":"levelo_inurba_marseille","lat":43.305364,"lon":5.384119,"is_reserved":false,"is_disabled":false,"rental_uris":{"android":"levelo://app?vid=96a9a74a-f9ac-4af3-9d2e-5e009300d958","ios":"levelo://app?vid=96a9a74a-f9ac-4af3-9d2e-5e009300d958"},"vehicle_type_id":"4","last_reported":1702541380,"current_range_meters":20000,"station_id":"ce4bgg92rcd13ifvqb30","pricing_plan_id":"free"},{"bike_id":"68c11159-ade3-4a85-85b7-59a5cb531b38","system_id":"levelo_inurba_marseille","lat":43.298433,"lon":5.362774,"is_reserved":false,"is_disabled":false,"rental_uris":{"android":"levelo://app?vid=68c11159-ade3-4a85-85b7-59a5cb531b38","ios":"levelo://app?vid=68c11159-ade3-4a85-85b7-59a5cb531b38"},"vehicle_type_id":"4","last_reported":1702541380,"current_range_meters":28000,"station_id":"ce4bgpp2rcd13ifvqc3g","pricing_plan_id":"free"},{"bike_id":"cf880a93-689f-496b-b06b-64d66a80d22d","system_id":"levelo_inurba_marseille","lat":43.298433,"lon":5.362774,"is_reserved":false,"is_disabled":false,"rental_uris":{"android":"levelo://app?vid=cf880a93-689f-496b-b06b-64d66a80d22d","ios":"levelo://app?vid=cf880a93-689f-496b-b06b-64d66a80d22d"},"vehicle_type_id":"4","last_reported":1702541380,"current_range_meters":3600,"station_id":"ce4bgpp2rcd13ifvqc3g","pricing_plan_id":"free"},{"bike_id":"d4e2bbd1-fef6-4775-b5ad-41e1ab3d4e90","system_id":"levelo_inurba_marseille","lat":43.311722,"lon":5.387247,"is_reserved":false,"is_disabled":false,"rental_uris":{"android":"levelo://app?vid=d4e2bbd1-fef6-4775-b5ad-41e1ab3d4e90","ios":"levelo://app?vid=d4e2bbd1-fef6-4775-b5ad-41e1ab3d4e90"},"vehicle_type_id":"4","last_reported":1702541380,"current_range_meters":21600,"station_id":"ce4bgv12rcd13ifvqcp0","pricing_plan_id":"free"},{"bike_id":"735011e3-74e1-4493-8f64-d72eef7901d2","system_id":"levelo_inurba_marseille","lat":43.311722,"lon":5.387247,"is_reserved":false,"is_disabled":false,"rental_uris":{"android":"levelo://app?vid=735011e3-74e1-4493-8f64-d72eef7901d2","ios":"levelo://app?vid=735011e3-74e1-4493-8f64-d72eef7901d2"},"vehicle_type_id":"4","last_reported":1702541380,"current_range_meters":25600,"station_id":"ce4bgv12rcd13ifvqcp0","pricing_plan_id":"free"},{"bike_id":"6a58231e-42ce-4bb1-bcdb-ff1dfcd6f9fb","system_id":"levelo_inurba_marseille","lat":43.322872,"lon":5.382756,"is_reserved":false,"is_disabled":false,"rental_uris":{"android":"levelo://app?vid=6a58231e-42ce-4bb1-bcdb-ff1dfcd6f9fb","ios":"levelo://app?vid=6a58231e-42ce-4bb1-bcdb-ff1dfcd6f9fb"},"vehicle_type_id":"4","last_reported":1702541380,"current_range_meters":26400,"station_id":"ce4bhr12rcd13ifvqhqg","pricing_plan_id":"free"},{"bike_id":"ed5f0256-776d-4300-ad00-c107bee05a60","system_id":"levelo_inurba_marseille","lat":43.322872,"lon":5.382756,"is_reserved":false,"is_disabled":false,"rental_uris":{"android":"levelo://app?vid=ed5f0256-776d-4300-ad00-c107bee05a60","ios":"levelo://app?vid=ed5f0256-776d-4300-ad00-c107bee05a60"},"vehicle_type_id":"4","last_reported":1702541380,"current_range_meters":5200,"station_id":"ce4bhr12rcd13ifvqhqg","pricing_plan_id":"free"},{"bike_id":"cbc11d14-9f41-4b34-8edf-188c262dbf4e","system_id":"levelo_inurba_marseille","lat":43.328371,"lon":5.366909,"is_reserved":false,"is_disabled":false,"rental_uris":{"android":"levelo://app?vid=cbc11d14-9f41-4b34-8edf-188c262dbf4e","ios":"levelo://app?vid=cbc11d14-9f41-4b34-8edf-188c262dbf4e"},"vehicle_type_id":"4","last_reported":1702541380,"current_range_meters":30000,"station_id":"ce4bhs92rcd13ifvqi0g","pricing_plan_id":"free"},{"bike_id":"659a38c5-092d-469d-acdb-90f2143cb397","system_id":"levelo_inurba_marseille","lat":43.3283,"lon":5.366759,"is_reserved":false,"is_disabled":false,"rental_uris":{"android":"levelo://app?vid=659a38c5-092d-469d-acdb-90f2143cb397","ios":"levelo://app?vid=659a38c5-092d-469d-acdb-90f2143cb397"},"vehicle_type_id":"4","last_reported":1702541380,"current_range_meters":30000,"station_id":"ce4bhs92rcd13ifvqi0g","pricing_plan_id":"free"},{"bike_id":"7146b216-5dbf-4f39-a872-ebb9140c77d1","system_id":"levelo_inurba_marseille","lat":43.328308,"lon":5.366757,"is_reserved":false,"is_disabled":false,"rental_uris":{"android":"levelo://app?vid=7146b216-5dbf-4f39-a872-ebb9140c77d1","ios":"levelo://app?vid=7146b216-5dbf-4f39-a872-ebb9140c77d1"},"vehicle_type_id":"4","last_reported":1702541380,"current_range_meters":19200,"station_id":"ce4bhs92rcd13ifvqi0g","pricing_plan_id":"free"},{"bike_id":"bc06b289-dab8-4815-820b-662dd218c477","system_id":"levelo_inurba_marseille","lat":43.32831,"lon":5.366705,"is_reserved":false,"is_disabled":false,"rental_uris":{"android":"levelo://app?vid=bc06b289-dab8-4815-820b-662dd218c477","ios":"levelo://app?vid=bc06b289-dab8-4815-820b-662dd218c477"},"vehicle_type_id":"4","last_reported":1702541380,"current_range_meters":29600,"station_id":"ce4bhs92rcd13ifvqi0g","pricing_plan_id":"free"},{"bike_id":"28f86795-a5fb-4012-82bc-91abb9c7abf9","system_id":"levelo_inurba_marseille","lat":43.317557,"lon":5.390173,"is_reserved":false,"is_disabled":false,"rental_uris":{"android":"levelo://app?vid=28f86795-a5fb-4012-82bc-91abb9c7abf9","ios":"levelo://app?vid=28f86795-a5fb-4012-82bc-91abb9c7abf9"},"vehicle_type_id":"4","last_reported":1702541380,"current_range_meters":30400,"station_id":"ce4bhqp2rcd13ifvqhng","pricing_plan_id":"free"},{"bike_id":"c840002a-d80a-40b4-a65f-1d4c04eabb61","system_id":"levelo_inurba_marseille","lat":43.317557,"lon":5.390173,"is_reserved":false,"is_disabled":false,"rental_uris":{"android":"levelo://app?vid=c840002a-d80a-40b4-a65f-1d4c04eabb61","ios":"levelo://app?vid=c840002a-d80a-40b4-a65f-1d4c04eabb61"},"vehicle_type_id":"4","last_reported":1702541380,"current_range_meters":14400,"station_id":"ce4bhqp2rcd13ifvqhng","pricing_plan_id":"free"},{"bike_id":"7851ac2a-ab16-4b5a-8138-6b8b305e318a","system_id":"levelo_inurba_marseille","lat":43.29977,"lon":5.38494,"is_reserved":false,"is_disabled":false,"rental_uris":{"android":"levelo://app?vid=7851ac2a-ab16-4b5a-8138-6b8b305e318a","ios":"levelo://app?vid=7851ac2a-ab16-4b5a-8138-6b8b305e318a"},"vehicle_type_id":"4","last_reported":1702541380,"current_range_meters":2800,"station_id":"","pricing_plan_id":"free"},{"bike_id":"dc01d294-5e1b-433f-878e-eb8a914aadd8","system_id":"levelo_inurba_marseille","lat":43.32363,"lon":5.38879,"is_reserved":false,"is_disabled":false,"rental_uris":{"android":"levelo://app?vid=dc01d294-5e1b-433f-878e-eb8a914aadd8","ios":"levelo://app?vid=dc01d294-5e1b-433f-878e-eb8a914aadd8"},"vehicle_type_id":"4","last_reported":1702541380,"current_range_meters":28400,"station_id":"ce4bhqp2rcd13ifvqhog","pricing_plan_id":"free"},{"bike_id":"03f6119d-7ba1-4608-b75b-b20f3efbdaef","system_id":"levelo_inurba_marseille","lat":43.32363,"lon":5.38883,"is_reserved":false,"is_disabled":false,"rental_uris":{"android":"levelo://app?vid=03f6119d-7ba1-4608-b75b-b20f3efbdaef","ios":"levelo://app?vid=03f6119d-7ba1-4608-b75b-b20f3efbdaef"},"vehicle_type_id":"4","last_reported":1702541380,"current_range_meters":12000,"station_id":"ce4bhqp2rcd13ifvqhog","pricing_plan_id":"free"},{"bike_id":"93846422-cb2e-46e0-8354-25fd62a996ed","system_id":"levelo_inurba_marseille","lat":43.32367,"lon":5.388836,"is_reserved":false,"is_disabled":false,"rental_uris":{"android":"levelo://app?vid=93846422-cb2e-46e0-8354-25fd62a996ed","ios":"levelo://app?vid=93846422-cb2e-46e0-8354-25fd62a996ed"},"vehicle_type_id":"4","last_reported":1702541380,"current_range_meters":16000,"station_id":"ce4bhqp2rcd13ifvqhog","pricing_plan_id":"free"},{"bike_id":"c2da053d-9900-42bc-876d-ad7f8d7a57c4","system_id":"levelo_inurba_marseille","lat":43.32368,"lon":5.38884,"is_reserved":false,"is_disabled":false,"rental_uris":{"android":"levelo://app?vid=c2da053d-9900-42bc-876d-ad7f8d7a57c4","ios":"levelo://app?vid=c2da053d-9900-42bc-876d-ad7f8d7a57c4"},"vehicle_type_id":"4","last_reported":1702541380,"current_range_meters":14000,"station_id":"ce4bhqp2rcd13ifvqhog","pricing_plan_id":"free"},{"bike_id":"37f5a5f2-0995-4795-b490-b3b325c894dc","system_id":"levelo_inurba_marseille","lat":43.293009,"lon":5.374584,"is_reserved":false,"is_disabled":false,"rental_uris":{"android":"levelo://app?vid=37f5a5f2-0995-4795-b490-b3b325c894dc","ios":"levelo://app?vid=37f5a5f2-0995-4795-b490-b3b325c894dc"},"vehicle_type_id":"4","last_reported":1702541380,"current_range_meters":24400,"station_id":"ce4bgi12rcd13ifvqb70","pricing_plan_id":"free"},{"bike_id":"939fbfb8-ab66-4f15-bbc8-fbc591d4f8e0","system_id":"levelo_inurba_marseille","lat":43.2936,"lon":5.37835,"is_reserved":false,"is_disabled":false,"rental_uris":{"android":"levelo://app?vid=939fbfb8-ab66-4f15-bbc8-fbc591d4f8e0","ios":"levelo://app?vid=939fbfb8-ab66-4f15-bbc8-fbc591d4f8e0"},"vehicle_type_id":"4","last_reported":1702541380,"current_range_meters":24000,"station_id":"ce4bgjh2rcd13ifvqbf0","pricing_plan_id":"free"},{"bike_id":"00dce702-c850-4ea2-a84c-29496b855ebe","system_id":"levelo_inurba_marseille","lat":43.292311,"lon":5.360731,"is_reserved":false,"is_disabled":false,"rental_uris":{"android":"levelo://app?vid=00dce702-c850-4ea2-a84c-29496b855ebe","ios":"levelo://app?vid=00dce702-c850-4ea2-a84c-29496b855ebe"},"vehicle_type_id":"4","last_reported":1702541380,"current_range_meters":19200,"station_id":"ce4bhbh2rcd13ifvqeqg","pricing_plan_id":"free"},{"bike_id":"e86818cf-77bb-4581-bd76-d77bc6902db2","system_id":"levelo_inurba_marseille","lat":43.291671,"lon":5.371575,"is_reserved":false,"is_disabled":false,"rental_uris":{"android":"levelo://app?vid=e86818cf-77bb-4581-bd76-d77bc6902db2","ios":"levelo://app?vid=e86818cf-77bb-4581-bd76-d77bc6902db2"},"vehicle_type_id":"4","last_reported":1702541380,"current_range_meters":20400,"station_id":"ce4bha92rcd13ifvqeh0","pricing_plan_id":"free"},{"bike_id":"7d53245e-de3a-4c11-b0e8-7204cb638e0e","system_id":"levelo_inurba_marseille","lat":43.291671,"lon":5.371575,"is_reserved":false,"is_disabled":false,"rental_uris":{"android":"levelo://app?vid=7d53245e-de3a-4c11-b0e8-7204cb638e0e","ios":"levelo://app?vid=7d53245e-de3a-4c11-b0e8-7204cb638e0e"},"vehicle_type_id":"4","last_reported":1702541380,"current_range_meters":0,"station_id":"ce4bha92rcd13ifvqeh0","pricing_plan_id":"free"},{"bike_id":"9fb241ab-191b-469e-ac12-9a409efdb8b2","system_id":"levelo_inurba_marseille","lat":43.285856,"lon":5.350771,"is_reserved":false,"is_disabled":false,"rental_uris":{"android":"levelo://app?vid=9fb241ab-191b-469e-ac12-9a409efdb8b2","ios":"levelo://app?vid=9fb241ab-191b-469e-ac12-9a409efdb8b2"},"vehicle_type_id":"4","last_reported":1702541380,"current_range_meters":23200,"station_id":"ce4bhch2rcd13ifvqeug","pricing_plan_id":"free"},{"bike_id":"0ff40ac2-652a-411c-bf37-c9f5ffcfff1e","system_id":"levelo_inurba_marseille","lat":43.290327,"lon":5.375711,"is_reserved":false,"is_disabled":false,"rental_uris":{"android":"levelo://app?vid=0ff40ac2-652a-411c-bf37-c9f5ffcfff1e","ios":"levelo://app?vid=0ff40ac2-652a-411c-bf37-c9f5ffcfff1e"},"vehicle_type_id":"4","last_reported":1702541380,"current_range_meters":21600,"station_id":"ce4bh692rcd13ifvqe90","pricing_plan_id":"free"},{"bike_id":"900d88e6-8df1-4d3e-ae3d-59119e0d63ac","system_id":"levelo_inurba_marseille","lat":43.28946,"lon":5.36403,"is_reserved":false,"is_disabled":false,"rental_uris":{"android":"levelo://app?vid=900d88e6-8df1-4d3e-ae3d-59119e0d63ac","ios":"levelo://app?vid=900d88e6-8df1-4d3e-ae3d-59119e0d63ac"},"vehicle_type_id":"4","last_reported":1702541380,"current_range_meters":25200,"station_id":"ce4bhc92rcd13ifvqetg","pricing_plan_id":"free"},{"bike_id":"ffa81c22-3c1a-421b-80f4-d2e53aa5817a","system_id":"levelo_inurba_marseille","lat":43.289184,"lon":5.366408,"is_reserved":false,"is_disabled":false,"rental_uris":{"android":"levelo://app?vid=ffa81c22-3c1a-421b-80f4-d2e53aa5817a","ios":"levelo://app?vid=ffa81c22-3c1a-421b-80f4-d2e53aa5817a"},"vehicle_type_id":"4","last_reported":1702541380,"current_range_meters":15600,"station_id":"ce4bhap2rcd13ifvqek0","pricing_plan_id":"free"},{"bike_id":"63071938-a9c0-45b7-9e9e-7e084c140631","system_id":"levelo_inurba_marseille","lat":43.33752,"lon":5.37462,"is_reserved":false,"is_disabled":false,"rental_uris":{"android":"levelo://app?vid=63071938-a9c0-45b7-9e9e-7e084c140631","ios":"levelo://app?vid=63071938-a9c0-45b7-9e9e-7e084c140631"},"vehicle_type_id":"4","last_reported":1702541380,"current_range_meters":28400,"station_id":"","pricing_plan_id":"free"},{"bike_id":"9ee2ba19-e221-4350-ba06-a0af7035b063","system_id":"levelo_inurba_marseille","lat":43.316283,"lon":5.40353,"is_reserved":false,"is_disabled":false,"rental_uris":{"android":"levelo://app?vid=9ee2ba19-e221-4350-ba06-a0af7035b063","ios":"levelo://app?vid=9ee2ba19-e221-4350-ba06-a0af7035b063"},"vehicle_type_id":"4","last_reported":1702541380,"current_range_meters":20000,"station_id":"","pricing_plan_id":"free"},{"bike_id":"790d6035-9082-4ea9-9130-bb9457670dc7","system_id":"levelo_inurba_marseille","lat":43.31682,"lon":5.40475,"is_reserved":false,"is_disabled":false,"rental_uris":{"android":"levelo://app?vid=790d6035-9082-4ea9-9130-bb9457670dc7","ios":"levelo://app?vid=790d6035-9082-4ea9-9130-bb9457670dc7"},"vehicle_type_id":"4","last_reported":1702541380,"current_range_meters":19200,"station_id":"ce4bh012rcd13ifvqd00","pricing_plan_id":"free"},{"bike_id":"a0a12c19-3aaf-4aab-9769-f9644ef9e96e","system_id":"levelo_inurba_marseille","lat":43.283998,"lon":5.375062,"is_reserved":false,"is_disabled":false,"rental_uris":{"android":"levelo://app?vid=a0a12c19-3aaf-4aab-9769-f9644ef9e96e","ios":"levelo://app?vid=a0a12c19-3aaf-4aab-9769-f9644ef9e96e"},"vehicle_type_id":"4","last_reported":1702541380,"current_range_meters":23600,"station_id":"ce4bh412rcd13ifvqds0","pricing_plan_id":"free"},{"bike_id":"fdeada04-a791-45ee-9fcf-3d0f105f12ef","system_id":"levelo_inurba_marseille","lat":43.286595,"lon":5.386795,"is_reserved":false,"is_disabled":false,"rental_uris":{"android":"levelo://app?vid=fdeada04-a791-45ee-9fcf-3d0f105f12ef","ios":"levelo://app?vid=fdeada04-a791-45ee-9fcf-3d0f105f12ef"},"vehicle_type_id":"4","last_reported":1702541380,"current_range_meters":25200,"station_id":"ce4bh492rcd13ifvqdug","pricing_plan_id":"free"},{"bike_id":"e48ef7b1-a491-49ba-89ae-9e260d5b4141","system_id":"levelo_inurba_marseille","lat":43.319179,"lon":5.407725,"is_reserved":false,"is_disabled":false,"rental_uris":{"android":"levelo://app?vid=e48ef7b1-a491-49ba-89ae-9e260d5b4141","ios":"levelo://app?vid=e48ef7b1-a491-49ba-89ae-9e260d5b4141"},"vehicle_type_id":"4","last_reported":1702541380,"current_range_meters":11200,"station_id":"ce4bhq12rcd13ifvqhig","pricing_plan_id":"free"},{"bike_id":"d42c0b02-cd55-44d9-8e86-820835e7be64","system_id":"levelo_inurba_marseille","lat":43.323464,"lon":5.406297,"is_reserved":false,"is_disabled":false,"rental_uris":{"android":"levelo://app?vid=d42c0b02-cd55-44d9-8e86-820835e7be64","ios":"levelo://app?vid=d42c0b02-cd55-44d9-8e86-820835e7be64"},"vehicle_type_id":"4","last_reported":1702541380,"current_range_meters":30400,"station_id":"ce4bhq92rcd13ifvqhjg","pricing_plan_id":"free"},{"bike_id":"ba99d7c2-4c70-4d35-837f-ce3730dfd3d7","system_id":"levelo_inurba_marseille","lat":43.284787,"lon":5.384116,"is_reserved":false,"is_disabled":false,"rental_uris":{"android":"levelo://app?vid=ba99d7c2-4c70-4d35-837f-ce3730dfd3d7","ios":"levelo://app?vid=ba99d7c2-4c70-4d35-837f-ce3730dfd3d7"},"vehicle_type_id":"4","last_reported":1702541380,"current_range_meters":800,"station_id":"ce4bh512rcd13ifvqe3g","pricing_plan_id":"free"},{"bike_id":"4f855bda-7983-4931-8090-8a8ce927d7a3","system_id":"levelo_inurba_marseille","lat":43.284793,"lon":5.384119,"is_reserved":false,"is_disabled":false,"rental_uris":{"android":"levelo://app?vid=4f855bda-7983-4931-8090-8a8ce927d7a3","ios":"levelo://app?vid=4f855bda-7983-4931-8090-8a8ce927d7a3"},"vehicle_type_id":"4","last_reported":1702541380,"current_range_meters":22000,"station_id":"ce4bh512rcd13ifvqe3g","pricing_plan_id":"free"},{"bike_id":"54e0faea-6dfe-47f5-8ebf-d60c9cb6b967","system_id":"levelo_inurba_marseille","lat":43.289363,"lon":5.396322,"is_reserved":false,"is_disabled":false,"rental_uris":{"android":"levelo://app?vid=54e0faea-6dfe-47f5-8ebf-d60c9cb6b967","ios":"levelo://app?vid=54e0faea-6dfe-47f5-8ebf-d60c9cb6b967"},"vehicle_type_id":"4","last_reported":1702541380,"current_range_meters":20000,"station_id":"ce4bh3h2rcd13ifvqdn0","pricing_plan_id":"free"},{"bike_id":"b44786b3-4f37-40a1-9f64-8bc3101b7df1","system_id":"levelo_inurba_marseille","lat":43.283502,"lon":5.386471,"is_reserved":false,"is_disabled":false,"rental_uris":{"android":"levelo://app?vid=b44786b3-4f37-40a1-9f64-8bc3101b7df1","ios":"levelo://app?vid=b44786b3-4f37-40a1-9f64-8bc3101b7df1"},"vehicle_type_id":"4","last_reported":1702541380,"current_range_meters":28400,"station_id":"ce4bh492rcd13ifvqdvg","pricing_plan_id":"free"},{"bike_id":"aff795ba-d498-4ab7-8a33-6ebe30de0e9c","system_id":"levelo_inurba_marseille","lat":43.280382,"lon":5.369291,"is_reserved":false,"is_disabled":false,"rental_uris":{"android":"levelo://app?vid=aff795ba-d498-4ab7-8a33-6ebe30de0e9c","ios":"levelo://app?vid=aff795ba-d498-4ab7-8a33-6ebe30de0e9c"},"vehicle_type_id":"4","last_reported":1702541380,"current_range_meters":28800,"station_id":"ce4bha12rcd13ifvqef0","pricing_plan_id":"free"},{"bike_id":"802cd9dd-f974-4b62-8d48-874497cb14bd","system_id":"levelo_inurba_marseille","lat":43.281044,"lon":5.378308,"is_reserved":false,"is_disabled":false,"rental_uris":{"android":"levelo://app?vid=802cd9dd-f974-4b62-8d48-874497cb14bd","ios":"levelo://app?vid=802cd9dd-f974-4b62-8d48-874497cb14bd"},"vehicle_type_id":"4","last_reported":1702541380,"current_range_meters":24400,"station_id":"ce4bha12rcd13ifvqee0","pricing_plan_id":"free"},{"bike_id":"150b466a-6516-450f-8a09-f4cdbc7c18db","system_id":"levelo_inurba_marseille","lat":43.261782,"lon":5.374515,"is_reserved":false,"is_disabled":false,"rental_uris":{"android":"levelo://app?vid=150b466a-6516-450f-8a09-f4cdbc7c18db","ios":"levelo://app?vid=150b466a-6516-450f-8a09-f4cdbc7c18db"},"vehicle_type_id":"4","last_reported":1702541380,"current_range_meters":24800,"station_id":"ce4bhgp2rcd13ifvqfc0","pricing_plan_id":"free"},{"bike_id":"b3623300-8840-4324-b287-fe2e73cf07be","system_id":"levelo_inurba_marseille","lat":43.284462,"lon":5.392121,"is_reserved":false,"is_disabled":false,"rental_uris":{"android":"levelo://app?vid=b3623300-8840-4324-b287-fe2e73cf07be","ios":"levelo://app?vid=b3623300-8840-4324-b287-fe2e73cf07be"},"vehicle_type_id":"4","last_reported":1702541380,"current_range_meters":23600,"station_id":"ce4bhoh2rcd13ifvqh5g","pricing_plan_id":"free"},{"bike_id":"bfaf747b-7176-49b4-90e8-617b81d6c1d1","system_id":"levelo_inurba_marseille","lat":43.279742,"lon":5.38744,"is_reserved":false,"is_disabled":false,"rental_uris":{"android":"levelo://app?vid=bfaf747b-7176-49b4-90e8-617b81d6c1d1","ios":"levelo://app?vid=bfaf747b-7176-49b4-90e8-617b81d6c1d1"},"vehicle_type_id":"4","last_reported":1702541380,"current_range_meters":7200,"station_id":"ce4bhg12rcd13ifvqf80","pricing_plan_id":"free"},{"bike_id":"949dc632-2c03-4aa1-bc49-90c82f51e1cc","system_id":"levelo_inurba_marseille","lat":43.325233,"lon":5.414318,"is_reserved":false,"is_disabled":false,"rental_uris":{"android":"levelo://app?vid=949dc632-2c03-4aa1-bc49-90c82f51e1cc","ios":"levelo://app?vid=949dc632-2c03-4aa1-bc49-90c82f51e1cc"},"vehicle_type_id":"4","last_reported":1702541380,"current_range_meters":14400,"station_id":"ce4bhq12rcd13ifvqhhg","pricing_plan_id":"free"},{"bike_id":"37b1113c-51b2-47f3-8f3d-92b406d0acf8","system_id":"levelo_inurba_marseille","lat":43.325233,"lon":5.414318,"is_reserved":false,"is_disabled":false,"rental_uris":{"android":"levelo://app?vid=37b1113c-51b2-47f3-8f3d-92b406d0acf8","ios":"levelo://app?vid=37b1113c-51b2-47f3-8f3d-92b406d0acf8"},"vehicle_type_id":"4","last_reported":1702541380,"current_range_meters":31200,"station_id":"ce4bhq12rcd13ifvqhhg","pricing_plan_id":"free"},{"bike_id":"9faa1cf2-875e-4886-96bf-1e19e17f926a","system_id":"levelo_inurba_marseille","lat":43.276229,"lon":5.361065,"is_reserved":false,"is_disabled":false,"rental_uris":{"android":"levelo://app?vid=9faa1cf2-875e-4886-96bf-1e19e17f926a","ios":"levelo://app?vid=9faa1cf2-875e-4886-96bf-1e19e17f926a"},"vehicle_type_id":"4","last_reported":1702541380,"current_range_meters":12000,"station_id":"ce4bgj92rcd13ifvqbe0","pricing_plan_id":"free"},{"bike_id":"c016e672-b4d7-49b9-b38f-69fd9e1cf7ed","system_id":"levelo_inurba_marseille","lat":43.325243,"lon":5.414326,"is_reserved":false,"is_disabled":false,"rental_uris":{"android":"levelo://app?vid=c016e672-b4d7-49b9-b38f-69fd9e1cf7ed","ios":"levelo://app?vid=c016e672-b4d7-49b9-b38f-69fd9e1cf7ed"},"vehicle_type_id":"4","last_reported":1702541380,"current_range_meters":20400,"station_id":"ce4bhq12rcd13ifvqhhg","pricing_plan_id":"free"},{"bike_id":"2b7c0b87-9916-4175-ac1e-161315ea313d","system_id":"levelo_inurba_marseille","lat":43.336148,"lon":5.410349,"is_reserved":false,"is_disabled":false,"rental_uris":{"android":"levelo://app?vid=2b7c0b87-9916-4175-ac1e-161315ea313d","ios":"levelo://app?vid=2b7c0b87-9916-4175-ac1e-161315ea313d"},"vehicle_type_id":"4","last_reported":1702541380,"current_range_meters":30000,"station_id":"ce4bhqh2rcd13ifvqhmg","pricing_plan_id":"free"},{"bike_id":"25485999-02c4-4c82-99c2-f86e4dd6ae60","system_id":"levelo_inurba_marseille","lat":43.336134,"lon":5.410341,"is_reserved":false,"is_disabled":false,"rental_uris":{"android":"levelo://app?vid=25485999-02c4-4c82-99c2-f86e4dd6ae60","ios":"levelo://app?vid=25485999-02c4-4c82-99c2-f86e4dd6ae60"},"vehicle_type_id":"4","last_reported":1702541380,"current_range_meters":23600,"station_id":"ce4bhqh2rcd13ifvqhmg","pricing_plan_id":"free"},{"bike_id":"d7d4f062-0673-4b27-94bc-76a2dc063b06","system_id":"levelo_inurba_marseille","lat":43.336134,"lon":5.410341,"is_reserved":false,"is_disabled":false,"rental_uris":{"android":"levelo://app?vid=d7d4f062-0673-4b27-94bc-76a2dc063b06","ios":"levelo://app?vid=d7d4f062-0673-4b27-94bc-76a2dc063b06"},"vehicle_type_id":"4","last_reported":1702541380,"current_range_meters":5200,"station_id":"ce4bhqh2rcd13ifvqhmg","pricing_plan_id":"free"},{"bike_id":"e7dfee88-812e-4710-923d-d931eb576936","system_id":"levelo_inurba_marseille","lat":43.276769,"lon":5.388787,"is_reserved":false,"is_disabled":false,"rental_uris":{"android":"levelo://app?vid=e7dfee88-812e-4710-923d-d931eb576936","ios":"levelo://app?vid=e7dfee88-812e-4710-923d-d931eb576936"},"vehicle_type_id":"4","last_reported":1702541380,"current_range_meters":3600,"station_id":"ce4bhi12rcd13ifvqfo0","pricing_plan_id":"free"},{"bike_id":"6e68444a-c936-49fa-b26e-520cc1fd1956","system_id":"levelo_inurba_marseille","lat":43.276769,"lon":5.388787,"is_reserved":false,"is_disabled":false,"rental_uris":{"android":"levelo://app?vid=6e68444a-c936-49fa-b26e-520cc1fd1956","ios":"levelo://app?vid=6e68444a-c936-49fa-b26e-520cc1fd1956"},"vehicle_type_id":"4","last_reported":1702541380,"current_range_meters":9600,"station_id":"ce4bhi12rcd13ifvqfo0","pricing_plan_id":"free"},{"bike_id":"6adfa0c8-b42b-4be0-9f14-0e4d503edacf","system_id":"levelo_inurba_marseille","lat":43.276771,"lon":5.388799,"is_reserved":false,"is_disabled":false,"rental_uris":{"android":"levelo://app?vid=6adfa0c8-b42b-4be0-9f14-0e4d503edacf","ios":"levelo://app?vid=6adfa0c8-b42b-4be0-9f14-0e4d503edacf"},"vehicle_type_id":"4","last_reported":1702541380,"current_range_meters":19200,"station_id":"ce4bhi12rcd13ifvqfo0","pricing_plan_id":"free"},{"bike_id":"c9886296-a99d-4650-8836-4a5d825a8ab6","system_id":"levelo_inurba_marseille","lat":43.276771,"lon":5.388799,"is_reserved":false,"is_disabled":false,"rental_uris":{"android":"levelo://app?vid=c9886296-a99d-4650-8836-4a5d825a8ab6","ios":"levelo://app?vid=c9886296-a99d-4650-8836-4a5d825a8ab6"},"vehicle_type_id":"4","last_reported":1702541380,"current_range_meters":16000,"station_id":"ce4bhi12rcd13ifvqfo0","pricing_plan_id":"free"},{"bike_id":"b247ed0a-4850-4260-b834-860ac593a91b","system_id":"levelo_inurba_marseille","lat":43.279975,"lon":5.40009,"is_reserved":false,"is_disabled":false,"rental_uris":{"android":"levelo://app?vid=b247ed0a-4850-4260-b834-860ac593a91b","ios":"levelo://app?vid=b247ed0a-4850-4260-b834-860ac593a91b"},"vehicle_type_id":"4","last_reported":1702541380,"current_range_meters":31200,"station_id":"ce4bho92rcd13ifvqh4g","pricing_plan_id":"free"},{"bike_id":"00035c8b-af12-4159-832b-227af88001b4","system_id":"levelo_inurba_marseille","lat":43.279975,"lon":5.40009,"is_reserved":false,"is_disabled":false,"rental_uris":{"android":"levelo://app?vid=00035c8b-af12-4159-832b-227af88001b4","ios":"levelo://app?vid=00035c8b-af12-4159-832b-227af88001b4"},"vehicle_type_id":"4","last_reported":1702541380,"current_range_meters":22800,"station_id":"ce4bho92rcd13ifvqh4g","pricing_plan_id":"free"},{"bike_id":"55f8cf7b-a384-4860-b1f5-075034029351","system_id":"levelo_inurba_marseille","lat":43.31715,"lon":5.42399,"is_reserved":false,"is_disabled":false,"rental_uris":{"android":"levelo://app?vid=55f8cf7b-a384-4860-b1f5-075034029351","ios":"levelo://app?vid=55f8cf7b-a384-4860-b1f5-075034029351"},"vehicle_type_id":"4","last_reported":1702541380,"current_range_meters":22000,"station_id":"ce4bhp92rcd13ifvqhbg","pricing_plan_id":"free"},{"bike_id":"6161d674-6206-475b-bc2f-d94e3f80d335","system_id":"levelo_inurba_marseille","lat":43.317121,"lon":5.423936,"is_reserved":false,"is_disabled":false,"rental_uris":{"android":"levelo://app?vid=6161d674-6206-475b-bc2f-d94e3f80d335","ios":"levelo://app?vid=6161d674-6206-475b-bc2f-d94e3f80d335"},"vehicle_type_id":"4","last_reported":1702541380,"current_range_meters":28400,"station_id":"ce4bhp92rcd13ifvqhbg","pricing_plan_id":"free"},{"bike_id":"5ec84b0d-80c0-49af-a281-cf9a8a8cec21","system_id":"levelo_inurba_marseille","lat":43.340804,"lon":5.410219,"is_reserved":false,"is_disabled":false,"rental_uris":{"android":"levelo://app?vid=5ec84b0d-80c0-49af-a281-cf9a8a8cec21","ios":"levelo://app?vid=5ec84b0d-80c0-49af-a281-cf9a8a8cec21"},"vehicle_type_id":"4","last_reported":1702541380,"current_range_meters":26800,"station_id":"ce4bhqh2rcd13ifvqhlg","pricing_plan_id":"free"},{"bike_id":"3ca2c2d2-99b0-4aa6-a05d-e30f02e6a7fb","system_id":"levelo_inurba_marseille","lat":43.27588,"lon":5.39495,"is_reserved":false,"is_disabled":false,"rental_uris":{"android":"levelo://app?vid=3ca2c2d2-99b0-4aa6-a05d-e30f02e6a7fb","ios":"levelo://app?vid=3ca2c2d2-99b0-4aa6-a05d-e30f02e6a7fb"},"vehicle_type_id":"4","last_reported":1702541380,"current_range_meters":11200,"station_id":"","pricing_plan_id":"free"},{"bike_id":"828c26a5-5027-49c8-919c-7c402bd1cb56","system_id":"levelo_inurba_marseille","lat":43.273125,"lon":5.390731,"is_reserved":false,"is_disabled":false,"rental_uris":{"android":"levelo://app?vid=828c26a5-5027-49c8-919c-7c402bd1cb56","ios":"levelo://app?vid=828c26a5-5027-49c8-919c-7c402bd1cb56"},"vehicle_type_id":"4","last_reported":1702541380,"current_range_meters":8800,"station_id":"ce4bhgp2rcd13ifvqfe0","pricing_plan_id":"free"},{"bike_id":"99c45ccc-0453-472d-a85b-963ab9cddda9","system_id":"levelo_inurba_marseille","lat":43.274099,"lon":5.394019,"is_reserved":false,"is_disabled":false,"rental_uris":{"android":"levelo://app?vid=99c45ccc-0453-472d-a85b-963ab9cddda9","ios":"levelo://app?vid=99c45ccc-0453-472d-a85b-963ab9cddda9"},"vehicle_type_id":"4","last_reported":1702541380,"current_range_meters":25200,"station_id":"ce4bhdp2rcd13ifvqf20","pricing_plan_id":"free"},{"bike_id":"fe04921c-1fb3-40b8-97f5-fb576340470a","system_id":"levelo_inurba_marseille","lat":43.274099,"lon":5.394019,"is_reserved":false,"is_disabled":false,"rental_uris":{"android":"levelo://app?vid=fe04921c-1fb3-40b8-97f5-fb576340470a","ios":"levelo://app?vid=fe04921c-1fb3-40b8-97f5-fb576340470a"},"vehicle_type_id":"4","last_reported":1702541380,"current_range_meters":26400,"station_id":"ce4bhdp2rcd13ifvqf20","pricing_plan_id":"free"},{"bike_id":"e5b1ec05-30dc-4138-9543-0de0ee6f2c2d","system_id":"levelo_inurba_marseille","lat":43.274099,"lon":5.394019,"is_reserved":false,"is_disabled":false,"rental_uris":{"android":"levelo://app?vid=e5b1ec05-30dc-4138-9543-0de0ee6f2c2d","ios":"levelo://app?vid=e5b1ec05-30dc-4138-9543-0de0ee6f2c2d"},"vehicle_type_id":"4","last_reported":1702541380,"current_range_meters":18400,"station_id":"ce4bhdp2rcd13ifvqf20","pricing_plan_id":"free"},{"bike_id":"7de03947-1bc1-4823-8521-ffae269d824e","system_id":"levelo_inurba_marseille","lat":43.278128,"lon":5.407195,"is_reserved":false,"is_disabled":false,"rental_uris":{"android":"levelo://app?vid=7de03947-1bc1-4823-8521-ffae269d824e","ios":"levelo://app?vid=7de03947-1bc1-4823-8521-ffae269d824e"},"vehicle_type_id":"4","last_reported":1702541380,"current_range_meters":18000,"station_id":"ce4bhnh2rcd13ifvqgtg","pricing_plan_id":"free"},{"bike_id":"480011b9-f9d2-4fdf-9b1c-aeac6f9eef67","system_id":"levelo_inurba_marseille","lat":43.26949,"lon":5.38627,"is_reserved":false,"is_disabled":false,"rental_uris":{"android":"levelo://app?vid=480011b9-f9d2-4fdf-9b1c-aeac6f9eef67","ios":"levelo://app?vid=480011b9-f9d2-4fdf-9b1c-aeac6f9eef67"},"vehicle_type_id":"4","last_reported":1702541380,"current_range_meters":29600,"station_id":"ce4bhh92rcd13ifvqfh0","pricing_plan_id":"free"},{"bike_id":"e11afa7f-6980-4249-a77f-c0b323ae72b3","system_id":"levelo_inurba_marseille","lat":43.26681,"lon":5.382694,"is_reserved":false,"is_disabled":false,"rental_uris":{"android":"levelo://app?vid=e11afa7f-6980-4249-a77f-c0b323ae72b3","ios":"levelo://app?vid=e11afa7f-6980-4249-a77f-c0b323ae72b3"},"vehicle_type_id":"4","last_reported":1702541380,"current_range_meters":17600,"station_id":"ce4bhg92rcd13ifvqf90","pricing_plan_id":"free"},{"bike_id":"bd1622c0-2e67-409e-96c4-8ca028cffc44","system_id":"levelo_inurba_marseille","lat":43.26681,"lon":5.382694,"is_reserved":false,"is_disabled":false,"rental_uris":{"android":"levelo://app?vid=bd1622c0-2e67-409e-96c4-8ca028cffc44","ios":"levelo://app?vid=bd1622c0-2e67-409e-96c4-8ca028cffc44"},"vehicle_type_id":"4","last_reported":1702541380,"current_range_meters":15200,"station_id":"ce4bhg92rcd13ifvqf90","pricing_plan_id":"free"},{"bike_id":"53b71852-d443-43e6-8d1d-616da6028ecf","system_id":"levelo_inurba_marseille","lat":43.26557,"lon":5.37282,"is_reserved":false,"is_disabled":false,"rental_uris":{"android":"levelo://app?vid=53b71852-d443-43e6-8d1d-616da6028ecf","ios":"levelo://app?vid=53b71852-d443-43e6-8d1d-616da6028ecf"},"vehicle_type_id":"4","last_reported":1702541380,"current_range_meters":24800,"station_id":"ce4bhg12rcd13ifvqf70","pricing_plan_id":"free"},{"bike_id":"fd3ab43b-01d6-42bc-880b-82a251cf394b","system_id":"levelo_inurba_marseille","lat":43.26681,"lon":5.382694,"is_reserved":false,"is_disabled":false,"rental_uris":{"android":"levelo://app?vid=fd3ab43b-01d6-42bc-880b-82a251cf394b","ios":"levelo://app?vid=fd3ab43b-01d6-42bc-880b-82a251cf394b"},"vehicle_type_id":"4","last_reported":1702541380,"current_range_meters":7200,"station_id":"ce4bhg92rcd13ifvqf90","pricing_plan_id":"free"},{"bike_id":"5af47e7c-fd2a-4d42-92cd-375c3c98590e","system_id":"levelo_inurba_marseille","lat":43.27996,"lon":5.416624,"is_reserved":false,"is_disabled":false,"rental_uris":{"android":"levelo://app?vid=5af47e7c-fd2a-4d42-92cd-375c3c98590e","ios":"levelo://app?vid=5af47e7c-fd2a-4d42-92cd-375c3c98590e"},"vehicle_type_id":"4","last_reported":1702541380,"current_range_meters":26000,"station_id":"ce4bho12rcd13ifvqh1g","pricing_plan_id":"free"},{"bike_id":"783eee64-3d32-4120-ab1b-7d9c1ad813fe","system_id":"levelo_inurba_marseille","lat":43.265714,"lon":5.372891,"is_reserved":false,"is_disabled":false,"rental_uris":{"android":"levelo://app?vid=783eee64-3d32-4120-ab1b-7d9c1ad813fe","ios":"levelo://app?vid=783eee64-3d32-4120-ab1b-7d9c1ad813fe"},"vehicle_type_id":"4","last_reported":1702541380,"current_range_meters":25600,"station_id":"ce4bhg12rcd13ifvqf70","pricing_plan_id":"free"},{"bike_id":"a9a7b841-3234-4a4f-9965-2d1b12b6790f","system_id":"levelo_inurba_marseille","lat":43.267966,"lon":5.393976,"is_reserved":false,"is_disabled":false,"rental_uris":{"android":"levelo://app?vid=a9a7b841-3234-4a4f-9965-2d1b12b6790f","ios":"levelo://app?vid=a9a7b841-3234-4a4f-9965-2d1b12b6790f"},"vehicle_type_id":"4","last_reported":1702541380,"current_range_meters":8400,"station_id":"ce4bhh12rcd13ifvqfg0","pricing_plan_id":"free"},{"bike_id":"0a5b0840-fbe7-4a3a-bd65-e2967e4a67d5","system_id":"levelo_inurba_marseille","lat":43.267966,"lon":5.393976,"is_reserved":false,"is_disabled":false,"rental_uris":{"android":"levelo://app?vid=0a5b0840-fbe7-4a3a-bd65-e2967e4a67d5","ios":"levelo://app?vid=0a5b0840-fbe7-4a3a-bd65-e2967e4a67d5"},"vehicle_type_id":"4","last_reported":1702541380,"current_range_meters":22400,"station_id":"ce4bhh12rcd13ifvqfg0","pricing_plan_id":"free"},{"bike_id":"f8cf1a00-edd9-410c-88cc-b412faffb72b","system_id":"levelo_inurba_marseille","lat":43.26949,"lon":5.40262,"is_reserved":false,"is_disabled":false,"rental_uris":{"android":"levelo://app?vid=f8cf1a00-edd9-410c-88cc-b412faffb72b","ios":"levelo://app?vid=f8cf1a00-edd9-410c-88cc-b412faffb72b"},"vehicle_type_id":"4","last_reported":1702541380,"current_range_meters":3200,"station_id":"cjm6bp8fraef2m0cb0m0","pricing_plan_id":"free"},{"bike_id":"686d578f-f6a7-4993-a8fe-c11201e0cd3f","system_id":"levelo_inurba_marseille","lat":43.26202,"lon":5.379299,"is_reserved":false,"is_disabled":false,"rental_uris":{"android":"levelo://app?vid=686d578f-f6a7-4993-a8fe-c11201e0cd3f","ios":"levelo://app?vid=686d578f-f6a7-4993-a8fe-c11201e0cd3f"},"vehicle_type_id":"4","last_reported":1702541380,"current_range_meters":18800,"station_id":"ce4bhjp2rcd13ifvqg90","pricing_plan_id":"free"},{"bike_id":"96dd960e-9e5f-4ba8-a693-12d87ec3b4a9","system_id":"levelo_inurba_marseille","lat":43.271388,"lon":5.409269,"is_reserved":false,"is_disabled":false,"rental_uris":{"android":"levelo://app?vid=96dd960e-9e5f-4ba8-a693-12d87ec3b4a9","ios":"levelo://app?vid=96dd960e-9e5f-4ba8-a693-12d87ec3b4a9"},"vehicle_type_id":"4","last_reported":1702541380,"current_range_meters":31200,"station_id":"ce4bhl12rcd13ifvqgf0","pricing_plan_id":"free"},{"bike_id":"293b0fd3-65b1-42bb-807b-a77a51ee2260","system_id":"levelo_inurba_marseille","lat":43.271388,"lon":5.409269,"is_reserved":false,"is_disabled":false,"rental_uris":{"android":"levelo://app?vid=293b0fd3-65b1-42bb-807b-a77a51ee2260","ios":"levelo://app?vid=293b0fd3-65b1-42bb-807b-a77a51ee2260"},"vehicle_type_id":"4","last_reported":1702541380,"current_range_meters":30800,"station_id":"ce4bhl12rcd13ifvqgf0","pricing_plan_id":"free"},{"bike_id":"26a39ce6-c53a-4eb3-bfbd-f8d9c0edc46a","system_id":"levelo_inurba_marseille","lat":43.271388,"lon":5.409269,"is_reserved":false,"is_disabled":false,"rental_uris":{"android":"levelo://app?vid=26a39ce6-c53a-4eb3-bfbd-f8d9c0edc46a","ios":"levelo://app?vid=26a39ce6-c53a-4eb3-bfbd-f8d9c0edc46a"},"vehicle_type_id":"4","last_reported":1702541380,"current_range_meters":12800,"station_id":"ce4bhl12rcd13ifvqgf0","pricing_plan_id":"free"},{"bike_id":"d7c68083-de0d-4032-884a-e4511850567b","system_id":"levelo_inurba_marseille","lat":43.26202,"lon":5.379299,"is_reserved":false,"is_disabled":false,"rental_uris":{"android":"levelo://app?vid=d7c68083-de0d-4032-884a-e4511850567b","ios":"levelo://app?vid=d7c68083-de0d-4032-884a-e4511850567b"},"vehicle_type_id":"4","last_reported":1702541380,"current_range_meters":31200,"station_id":"ce4bhjp2rcd13ifvqg90","pricing_plan_id":"free"},{"bike_id":"74973e57-6a7e-4011-8d5e-0912c55eb2aa","system_id":"levelo_inurba_marseille","lat":43.364361,"lon":5.358913,"is_reserved":false,"is_disabled":false,"rental_uris":{"android":"levelo://app?vid=74973e57-6a7e-4011-8d5e-0912c55eb2aa","ios":"levelo://app?vid=74973e57-6a7e-4011-8d5e-0912c55eb2aa"},"vehicle_type_id":"4","last_reported":1702541380,"current_range_meters":0,"station_id":"","pricing_plan_id":"free"},{"bike_id":"96ba9d10-482b-4b54-ba33-7a67558f4e06","system_id":"levelo_inurba_marseille","lat":43.265,"lon":5.39536,"is_reserved":false,"is_disabled":false,"rental_uris":{"android":"levelo://app?vid=96ba9d10-482b-4b54-ba33-7a67558f4e06","ios":"levelo://app?vid=96ba9d10-482b-4b54-ba33-7a67558f4e06"},"vehicle_type_id":"4","last_reported":1702541380,"current_range_meters":15200,"station_id":"","pricing_plan_id":"free"},{"bike_id":"38a4a3ac-b01c-43e0-abb4-5a012521fc8c","system_id":"levelo_inurba_marseille","lat":43.298768,"lon":5.43643,"is_reserved":false,"is_disabled":false,"rental_uris":{"android":"levelo://app?vid=38a4a3ac-b01c-43e0-abb4-5a012521fc8c","ios":"levelo://app?vid=38a4a3ac-b01c-43e0-abb4-5a012521fc8c"},"vehicle_type_id":"4","last_reported":1702541380,"current_range_meters":31200,"station_id":"ce4bhpp2rcd13ifvqhfg","pricing_plan_id":"free"},{"bike_id":"c7430ef6-456b-42d3-9c30-1396832316ab","system_id":"levelo_inurba_marseille","lat":43.2607,"lon":5.393983,"is_reserved":false,"is_disabled":false,"rental_uris":{"android":"levelo://app?vid=c7430ef6-456b-42d3-9c30-1396832316ab","ios":"levelo://app?vid=c7430ef6-456b-42d3-9c30-1396832316ab"},"vehicle_type_id":"4","last_reported":1702541380,"current_range_meters":27200,"station_id":"ce4bhh92rcd13ifvqfj0","pricing_plan_id":"free"},{"bike_id":"c95706b8-c06e-493a-987b-3f8972a4b709","system_id":"levelo_inurba_marseille","lat":43.275028,"lon":5.424534,"is_reserved":false,"is_disabled":false,"rental_uris":{"android":"levelo://app?vid=c95706b8-c06e-493a-987b-3f8972a4b709","ios":"levelo://app?vid=c95706b8-c06e-493a-987b-3f8972a4b709"},"vehicle_type_id":"4","last_reported":1702541380,"current_range_meters":26400,"station_id":"ce4bhn92rcd13ifvqgrg","pricing_plan_id":"free"},{"bike_id":"a60167d8-a349-4ef7-ac6e-3f3b0126a741","system_id":"levelo_inurba_marseille","lat":43.275028,"lon":5.424534,"is_reserved":false,"is_disabled":false,"rental_uris":{"android":"levelo://app?vid=a60167d8-a349-4ef7-ac6e-3f3b0126a741","ios":"levelo://app?vid=a60167d8-a349-4ef7-ac6e-3f3b0126a741"},"vehicle_type_id":"4","last_reported":1702541380,"current_range_meters":27600,"station_id":"ce4bhn92rcd13ifvqgrg","pricing_plan_id":"free"},{"bike_id":"5c9e7f96-8059-476e-b740-05c49dd46bfe","system_id":"levelo_inurba_marseille","lat":43.275028,"lon":5.424534,"is_reserved":false,"is_disabled":false,"rental_uris":{"android":"levelo://app?vid=5c9e7f96-8059-476e-b740-05c49dd46bfe","ios":"levelo://app?vid=5c9e7f96-8059-476e-b740-05c49dd46bfe"},"vehicle_type_id":"4","last_reported":1702541380,"current_range_meters":26000,"station_id":"ce4bhn92rcd13ifvqgrg","pricing_plan_id":"free"},{"bike_id":"c6bb4aec-0e6a-449a-a6e9-d503ea37f43c","system_id":"levelo_inurba_marseille","lat":43.275028,"lon":5.424534,"is_reserved":false,"is_disabled":false,"rental_uris":{"android":"levelo://app?vid=c6bb4aec-0e6a-449a-a6e9-d503ea37f43c","ios":"levelo://app?vid=c6bb4aec-0e6a-449a-a6e9-d503ea37f43c"},"vehicle_type_id":"4","last_reported":1702541380,"current_range_meters":28800,"station_id":"ce4bhn92rcd13ifvqgrg","pricing_plan_id":"free"},{"bike_id":"48685aab-7b3a-4db2-9744-28d4e65317bd","system_id":"levelo_inurba_marseille","lat":43.275028,"lon":5.424534,"is_reserved":false,"is_disabled":false,"rental_uris":{"android":"levelo://app?vid=48685aab-7b3a-4db2-9744-28d4e65317bd","ios":"levelo://app?vid=48685aab-7b3a-4db2-9744-28d4e65317bd"},"vehicle_type_id":"4","last_reported":1702541380,"current_range_meters":27200,"station_id":"ce4bhn92rcd13ifvqgrg","pricing_plan_id":"free"},{"bike_id":"e9ebb918-c38e-461b-b1a2-1b26ed9053cb","system_id":"levelo_inurba_marseille","lat":43.275028,"lon":5.424534,"is_reserved":false,"is_disabled":false,"rental_uris":{"android":"levelo://app?vid=e9ebb918-c38e-461b-b1a2-1b26ed9053cb","ios":"levelo://app?vid=e9ebb918-c38e-461b-b1a2-1b26ed9053cb"},"vehicle_type_id":"4","last_reported":1702541380,"current_range_meters":9200,"station_id":"ce4bhn92rcd13ifvqgrg","pricing_plan_id":"free"},{"bike_id":"cd563140-6cc4-491c-90a0-6a28e6f2cda7","system_id":"levelo_inurba_marseille","lat":43.275028,"lon":5.424534,"is_reserved":false,"is_disabled":false,"rental_uris":{"android":"levelo://app?vid=cd563140-6cc4-491c-90a0-6a28e6f2cda7","ios":"levelo://app?vid=cd563140-6cc4-491c-90a0-6a28e6f2cda7"},"vehicle_type_id":"4","last_reported":1702541380,"current_range_meters":24000,"station_id":"ce4bhn92rcd13ifvqgrg","pricing_plan_id":"free"},{"bike_id":"c0b76d63-cc62-4157-82e7-39267fdb0980","system_id":"levelo_inurba_marseille","lat":43.275028,"lon":5.424534,"is_reserved":false,"is_disabled":false,"rental_uris":{"android":"levelo://app?vid=c0b76d63-cc62-4157-82e7-39267fdb0980","ios":"levelo://app?vid=c0b76d63-cc62-4157-82e7-39267fdb0980"},"vehicle_type_id":"4","last_reported":1702541380,"current_range_meters":25200,"station_id":"ce4bhn92rcd13ifvqgrg","pricing_plan_id":"free"},{"bike_id":"62dab26c-e89c-4d3c-b191-00d5f81a4916","system_id":"levelo_inurba_marseille","lat":43.275028,"lon":5.424534,"is_reserved":false,"is_disabled":false,"rental_uris":{"android":"levelo://app?vid=62dab26c-e89c-4d3c-b191-00d5f81a4916","ios":"levelo://app?vid=62dab26c-e89c-4d3c-b191-00d5f81a4916"},"vehicle_type_id":"4","last_reported":1702541380,"current_range_meters":10000,"station_id":"ce4bhn92rcd13ifvqgrg","pricing_plan_id":"free"},{"bike_id":"a5441e3e-2bec-4934-9057-6a23a02e89e5","system_id":"levelo_inurba_marseille","lat":43.275028,"lon":5.424534,"is_reserved":false,"is_disabled":false,"rental_uris":{"android":"levelo://app?vid=a5441e3e-2bec-4934-9057-6a23a02e89e5","ios":"levelo://app?vid=a5441e3e-2bec-4934-9057-6a23a02e89e5"},"vehicle_type_id":"4","last_reported":1702541380,"current_range_meters":28400,"station_id":"ce4bhn92rcd13ifvqgrg","pricing_plan_id":"free"},{"bike_id":"8d81024a-82cc-477a-9092-9daf4c646a46","system_id":"levelo_inurba_marseille","lat":43.275028,"lon":5.424534,"is_reserved":false,"is_disabled":false,"rental_uris":{"android":"levelo://app?vid=8d81024a-82cc-477a-9092-9daf4c646a46","ios":"levelo://app?vid=8d81024a-82cc-477a-9092-9daf4c646a46"},"vehicle_type_id":"4","last_reported":1702541380,"current_range_meters":22800,"station_id":"ce4bhn92rcd13ifvqgrg","pricing_plan_id":"free"},{"bike_id":"793d7cf1-fc78-4d22-b46a-818c35fcd632","system_id":"levelo_inurba_marseille","lat":43.270721,"lon":5.422764,"is_reserved":false,"is_disabled":false,"rental_uris":{"android":"levelo://app?vid=793d7cf1-fc78-4d22-b46a-818c35fcd632","ios":"levelo://app?vid=793d7cf1-fc78-4d22-b46a-818c35fcd632"},"vehicle_type_id":"4","last_reported":1702541380,"current_range_meters":12400,"station_id":"ce4bhk92rcd13ifvqgb0","pricing_plan_id":"free"},{"bike_id":"1fdd3fbe-b47d-46ac-b5ab-bce61fb8b7e9","system_id":"levelo_inurba_marseille","lat":43.258658,"lon":5.398935,"is_reserved":false,"is_disabled":false,"rental_uris":{"android":"levelo://app?vid=1fdd3fbe-b47d-46ac-b5ab-bce61fb8b7e9","ios":"levelo://app?vid=1fdd3fbe-b47d-46ac-b5ab-bce61fb8b7e9"},"vehicle_type_id":"4","last_reported":1702541380,"current_range_meters":19200,"station_id":"ce4bhl92rcd13ifvqghg","pricing_plan_id":"free"},{"bike_id":"ca14dbc3-b01e-433b-bf77-56158acd81fb","system_id":"levelo_inurba_marseille","lat":43.25865,"lon":5.399,"is_reserved":false,"is_disabled":false,"rental_uris":{"android":"levelo://app?vid=ca14dbc3-b01e-433b-bf77-56158acd81fb","ios":"levelo://app?vid=ca14dbc3-b01e-433b-bf77-56158acd81fb"},"vehicle_type_id":"4","last_reported":1702541380,"current_range_meters":12800,"station_id":"ce4bhl92rcd13ifvqghg","pricing_plan_id":"free"},{"bike_id":"e2b39af5-a034-487b-b118-bf2a5fde0eeb","system_id":"levelo_inurba_marseille","lat":43.259009,"lon":5.40929,"is_reserved":false,"is_disabled":false,"rental_uris":{"android":"levelo://app?vid=e2b39af5-a034-487b-b118-bf2a5fde0eeb","ios":"levelo://app?vid=e2b39af5-a034-487b-b118-bf2a5fde0eeb"},"vehicle_type_id":"4","last_reported":1702541380,"current_range_meters":22000,"station_id":"ce4bhm92rcd13ifvqglg","pricing_plan_id":"free"},{"bike_id":"40794540-883f-447b-ae50-ca728bc605c5","system_id":"levelo_inurba_marseille","lat":43.259009,"lon":5.40929,"is_reserved":false,"is_disabled":false,"rental_uris":{"android":"levelo://app?vid=40794540-883f-447b-ae50-ca728bc605c5","ios":"levelo://app?vid=40794540-883f-447b-ae50-ca728bc605c5"},"vehicle_type_id":"4","last_reported":1702541380,"current_range_meters":23200,"station_id":"ce4bhm92rcd13ifvqglg","pricing_plan_id":"free"},{"bike_id":"71e9091b-169a-407a-a649-2f5e20e7ef76","system_id":"levelo_inurba_marseille","lat":43.25937,"lon":5.409139,"is_reserved":false,"is_disabled":false,"rental_uris":{"android":"levelo://app?vid=71e9091b-169a-407a-a649-2f5e20e7ef76","ios":"levelo://app?vid=71e9091b-169a-407a-a649-2f5e20e7ef76"},"vehicle_type_id":"4","last_reported":1702541380,"current_range_meters":20000,"station_id":"ce4bhm92rcd13ifvqglg","pricing_plan_id":"free"},{"bike_id":"b3778f4b-17a5-414d-a355-5d6709a05873","system_id":"levelo_inurba_marseille","lat":43.25133,"lon":5.38213,"is_reserved":false,"is_disabled":false,"rental_uris":{"android":"levelo://app?vid=b3778f4b-17a5-414d-a355-5d6709a05873","ios":"levelo://app?vid=b3778f4b-17a5-414d-a355-5d6709a05873"},"vehicle_type_id":"4","last_reported":1702541380,"current_range_meters":21600,"station_id":"","pricing_plan_id":"free"},{"bike_id":"e6ade5a4-3846-4b5a-836c-5263656c8d67","system_id":"levelo_inurba_marseille","lat":43.257079,"lon":5.411051,"is_reserved":false,"is_disabled":false,"rental_uris":{"android":"levelo://app?vid=e6ade5a4-3846-4b5a-836c-5263656c8d67","ios":"levelo://app?vid=e6ade5a4-3846-4b5a-836c-5263656c8d67"},"vehicle_type_id":"4","last_reported":1702541380,"current_range_meters":17200,"station_id":"ce4bhkp2rcd13ifvqgd0","pricing_plan_id":"free"},{"bike_id":"e76cb64c-7598-4611-a946-2e2bbac95fe0","system_id":"levelo_inurba_marseille","lat":43.250023,"lon":5.38919,"is_reserved":false,"is_disabled":false,"rental_uris":{"android":"levelo://app?vid=e76cb64c-7598-4611-a946-2e2bbac95fe0","ios":"levelo://app?vid=e76cb64c-7598-4611-a946-2e2bbac95fe0"},"vehicle_type_id":"4","last_reported":1702541380,"current_range_meters":14800,"station_id":"ce4bhgp2rcd13ifvqfd0","pricing_plan_id":"free"},{"bike_id":"31a985e0-b4a3-44c1-b049-c73d989935d0","system_id":"levelo_inurba_marseille","lat":43.250009,"lon":5.389195,"is_reserved":false,"is_disabled":false,"rental_uris":{"android":"levelo://app?vid=31a985e0-b4a3-44c1-b049-c73d989935d0","ios":"levelo://app?vid=31a985e0-b4a3-44c1-b049-c73d989935d0"},"vehicle_type_id":"4","last_reported":1702541380,"current_range_meters":13600,"station_id":"ce4bhgp2rcd13ifvqfd0","pricing_plan_id":"free"},{"bike_id":"e34bd1ca-63a8-4848-9138-4b65a7eefa8c","system_id":"levelo_inurba_marseille","lat":43.25102,"lon":5.403214,"is_reserved":false,"is_disabled":false,"rental_uris":{"android":"levelo://app?vid=e34bd1ca-63a8-4848-9138-4b65a7eefa8c","ios":"levelo://app?vid=e34bd1ca-63a8-4848-9138-4b65a7eefa8c"},"vehicle_type_id":"4","last_reported":1702541380,"current_range_meters":18000,"station_id":"ce4bhlh2rcd13ifvqgig","pricing_plan_id":"free"},{"bike_id":"fda49e43-4ed5-4003-be36-aa0da1b65fe0","system_id":"levelo_inurba_marseille","lat":43.245581,"lon":5.395069,"is_reserved":false,"is_disabled":false,"rental_uris":{"android":"levelo://app?vid=fda49e43-4ed5-4003-be36-aa0da1b65fe0","ios":"levelo://app?vid=fda49e43-4ed5-4003-be36-aa0da1b65fe0"},"vehicle_type_id":"4","last_reported":1702541380,"current_range_meters":26800,"station_id":"ce4bhlp2rcd13ifvqgjg","pricing_plan_id":"free"},{"bike_id":"a5f55ee0-2479-4e72-9590-80015b564a08","system_id":"levelo_inurba_marseille","lat":43.24076,"lon":5.37757,"is_reserved":false,"is_disabled":false,"rental_uris":{"android":"levelo://app?vid=a5f55ee0-2479-4e72-9590-80015b564a08","ios":"levelo://app?vid=a5f55ee0-2479-4e72-9590-80015b564a08"},"vehicle_type_id":"4","last_reported":1702541380,"current_range_meters":24400,"station_id":"ce4bhnp2rcd13ifvqgvg","pricing_plan_id":"free"},{"bike_id":"5f8bc3d7-06f0-48e4-888c-31c56afceb23","system_id":"levelo_inurba_marseille","lat":43.240755,"lon":5.377618,"is_reserved":false,"is_disabled":false,"rental_uris":{"android":"levelo://app?vid=5f8bc3d7-06f0-48e4-888c-31c56afceb23","ios":"levelo://app?vid=5f8bc3d7-06f0-48e4-888c-31c56afceb23"},"vehicle_type_id":"4","last_reported":1702541380,"current_range_meters":27200,"station_id":"ce4bhnp2rcd13ifvqgvg","pricing_plan_id":"free"},{"bike_id":"d737be68-4571-4f1b-ba4e-d2c56d62bbf8","system_id":"levelo_inurba_marseille","lat":43.24075,"lon":5.37761,"is_reserved":false,"is_disabled":false,"rental_uris":{"android":"levelo://app?vid=d737be68-4571-4f1b-ba4e-d2c56d62bbf8","ios":"levelo://app?vid=d737be68-4571-4f1b-ba4e-d2c56d62bbf8"},"vehicle_type_id":"4","last_reported":1702541380,"current_range_meters":31200,"station_id":"ce4bhnp2rcd13ifvqgvg","pricing_plan_id":"free"},{"bike_id":"06c7ce42-76f6-466a-8883-c8bd8bb8b12d","system_id":"levelo_inurba_marseille","lat":43.24074,"lon":5.37761,"is_reserved":false,"is_disabled":false,"rental_uris":{"android":"levelo://app?vid=06c7ce42-76f6-466a-8883-c8bd8bb8b12d","ios":"levelo://app?vid=06c7ce42-76f6-466a-8883-c8bd8bb8b12d"},"vehicle_type_id":"4","last_reported":1702541380,"current_range_meters":22800,"station_id":"ce4bhnp2rcd13ifvqgvg","pricing_plan_id":"free"},{"bike_id":"9a0e3186-1e23-49f4-968e-caf81d317788","system_id":"levelo_inurba_marseille","lat":43.240623,"lon":5.377642,"is_reserved":false,"is_disabled":false,"rental_uris":{"android":"levelo://app?vid=9a0e3186-1e23-49f4-968e-caf81d317788","ios":"levelo://app?vid=9a0e3186-1e23-49f4-968e-caf81d317788"},"vehicle_type_id":"4","last_reported":1702541380,"current_range_meters":19200,"station_id":"ce4bhnp2rcd13ifvqgvg","pricing_plan_id":"free"},{"bike_id":"aec56899-0c4a-431e-855b-2b5f73e6f3bc","system_id":"levelo_inurba_marseille","lat":43.240623,"lon":5.377642,"is_reserved":false,"is_disabled":false,"rental_uris":{"android":"levelo://app?vid=aec56899-0c4a-431e-855b-2b5f73e6f3bc","ios":"levelo://app?vid=aec56899-0c4a-431e-855b-2b5f73e6f3bc"},"vehicle_type_id":"4","last_reported":1702541380,"current_range_meters":12000,"station_id":"ce4bhnp2rcd13ifvqgvg","pricing_plan_id":"free"},{"bike_id":"c2865502-55a8-4405-90b1-cd694b8c666c","system_id":"levelo_inurba_marseille","lat":43.240623,"lon":5.377642,"is_reserved":false,"is_disabled":false,"rental_uris":{"android":"levelo://app?vid=c2865502-55a8-4405-90b1-cd694b8c666c","ios":"levelo://app?vid=c2865502-55a8-4405-90b1-cd694b8c666c"},"vehicle_type_id":"4","last_reported":1702541380,"current_range_meters":29200,"station_id":"ce4bhnp2rcd13ifvqgvg","pricing_plan_id":"free"},{"bike_id":"b02754a7-5692-4f20-97c7-2a07efb82a26","system_id":"levelo_inurba_marseille","lat":43.24071,"lon":5.3776,"is_reserved":false,"is_disabled":false,"rental_uris":{"android":"levelo://app?vid=b02754a7-5692-4f20-97c7-2a07efb82a26","ios":"levelo://app?vid=b02754a7-5692-4f20-97c7-2a07efb82a26"},"vehicle_type_id":"4","last_reported":1702541380,"current_range_meters":26000,"station_id":"ce4bhnp2rcd13ifvqgvg","pricing_plan_id":"free"},{"bike_id":"d1e4ffa3-0a0a-4153-b85c-71ae60bb1e49","system_id":"levelo_inurba_marseille","lat":43.24071,"lon":5.37762,"is_reserved":false,"is_disabled":false,"rental_uris":{"android":"levelo://app?vid=d1e4ffa3-0a0a-4153-b85c-71ae60bb1e49","ios":"levelo://app?vid=d1e4ffa3-0a0a-4153-b85c-71ae60bb1e49"},"vehicle_type_id":"4","last_reported":1702541380,"current_range_meters":23600,"station_id":"ce4bhnp2rcd13ifvqgvg","pricing_plan_id":"free"},{"bike_id":"3f8ecba7-2fba-4620-9059-fc09999b9c19","system_id":"levelo_inurba_marseille","lat":43.24071,"lon":5.37762,"is_reserved":false,"is_disabled":false,"rental_uris":{"android":"levelo://app?vid=3f8ecba7-2fba-4620-9059-fc09999b9c19","ios":"levelo://app?vid=3f8ecba7-2fba-4620-9059-fc09999b9c19"},"vehicle_type_id":"4","last_reported":1702541380,"current_range_meters":20800,"station_id":"ce4bhnp2rcd13ifvqgvg","pricing_plan_id":"free"},{"bike_id":"18963ec8-894a-472d-a3ce-67ea969793b3","system_id":"levelo_inurba_marseille","lat":43.240623,"lon":5.377642,"is_reserved":false,"is_disabled":false,"rental_uris":{"android":"levelo://app?vid=18963ec8-894a-472d-a3ce-67ea969793b3","ios":"levelo://app?vid=18963ec8-894a-472d-a3ce-67ea969793b3"},"vehicle_type_id":"4","last_reported":1702541380,"current_range_meters":24800,"station_id":"ce4bhnp2rcd13ifvqgvg","pricing_plan_id":"free"},{"bike_id":"cad9535f-cdf8-4e9b-bc8a-5be553fadb06","system_id":"levelo_inurba_marseille","lat":43.240623,"lon":5.377642,"is_reserved":false,"is_disabled":false,"rental_uris":{"android":"levelo://app?vid=cad9535f-cdf8-4e9b-bc8a-5be553fadb06","ios":"levelo://app?vid=cad9535f-cdf8-4e9b-bc8a-5be553fadb06"},"vehicle_type_id":"4","last_reported":1702541380,"current_range_meters":22800,"station_id":"ce4bhnp2rcd13ifvqgvg","pricing_plan_id":"free"},{"bike_id":"10ecc5bd-67bf-448f-9498-3b2682cf884c","system_id":"levelo_inurba_marseille","lat":43.240623,"lon":5.377642,"is_reserved":false,"is_disabled":false,"rental_uris":{"android":"levelo://app?vid=10ecc5bd-67bf-448f-9498-3b2682cf884c","ios":"levelo://app?vid=10ecc5bd-67bf-448f-9498-3b2682cf884c"},"vehicle_type_id":"4","last_reported":1702541380,"current_range_meters":14000,"station_id":"ce4bhnp2rcd13ifvqgvg","pricing_plan_id":"free"},{"bike_id":"b101342a-e851-42da-ad23-c91936b38551","system_id":"levelo_inurba_marseille","lat":43.240623,"lon":5.377642,"is_reserved":false,"is_disabled":false,"rental_uris":{"android":"levelo://app?vid=b101342a-e851-42da-ad23-c91936b38551","ios":"levelo://app?vid=b101342a-e851-42da-ad23-c91936b38551"},"vehicle_type_id":"4","last_reported":1702541380,"current_range_meters":27200,"station_id":"ce4bhnp2rcd13ifvqgvg","pricing_plan_id":"free"},{"bike_id":"b19b6a37-df69-4ad6-97ca-bf76703ef0d1","system_id":"levelo_inurba_marseille","lat":43.240623,"lon":5.377642,"is_reserved":false,"is_disabled":false,"rental_uris":{"android":"levelo://app?vid=b19b6a37-df69-4ad6-97ca-bf76703ef0d1","ios":"levelo://app?vid=b19b6a37-df69-4ad6-97ca-bf76703ef0d1"},"vehicle_type_id":"4","last_reported":1702541380,"current_range_meters":20800,"station_id":"ce4bhnp2rcd13ifvqgvg","pricing_plan_id":"free"},{"bike_id":"484c3c46-f26e-4174-8edb-80d5fb1b6183","system_id":"levelo_inurba_marseille","lat":43.240623,"lon":5.377642,"is_reserved":false,"is_disabled":false,"rental_uris":{"android":"levelo://app?vid=484c3c46-f26e-4174-8edb-80d5fb1b6183","ios":"levelo://app?vid=484c3c46-f26e-4174-8edb-80d5fb1b6183"},"vehicle_type_id":"4","last_reported":1702541380,"current_range_meters":28400,"station_id":"ce4bhnp2rcd13ifvqgvg","pricing_plan_id":"free"},{"bike_id":"13ca6923-3d5c-4c66-bb3f-cb26a4d3fc24","system_id":"levelo_inurba_marseille","lat":43.231919,"lon":5.355532,"is_reserved":false,"is_disabled":false,"rental_uris":{"android":"levelo://app?vid=13ca6923-3d5c-4c66-bb3f-cb26a4d3fc24","ios":"levelo://app?vid=13ca6923-3d5c-4c66-bb3f-cb26a4d3fc24"},"vehicle_type_id":"4","last_reported":1702541380,"current_range_meters":22800,"station_id":"ce4bhu92rcd13ifvqi70","pricing_plan_id":"free"},{"bike_id":"28cf0186-3129-4448-9e8f-8fa9860365e7","system_id":"levelo_inurba_marseille","lat":43.231794,"lon":5.400052,"is_reserved":false,"is_disabled":false,"rental_uris":{"android":"levelo://app?vid=28cf0186-3129-4448-9e8f-8fa9860365e7","ios":"levelo://app?vid=28cf0186-3129-4448-9e8f-8fa9860365e7"},"vehicle_type_id":"4","last_reported":1702541380,"current_range_meters":16000,"station_id":"ce4bhn12rcd13ifvqgqg","pricing_plan_id":"free"},{"bike_id":"976b51c7-50e5-4a1e-9623-472378627f57","system_id":"levelo_inurba_marseille","lat":43.231794,"lon":5.400052,"is_reserved":false,"is_disabled":false,"rental_uris":{"android":"levelo://app?vid=976b51c7-50e5-4a1e-9623-472378627f57","ios":"levelo://app?vid=976b51c7-50e5-4a1e-9623-472378627f57"},"vehicle_type_id":"4","last_reported":1702541380,"current_range_meters":30000,"station_id":"ce4bhn12rcd13ifvqgqg","pricing_plan_id":"free"},{"bike_id":"46e85755-7f44-4770-9e69-88e3e5d2d0d4","system_id":"levelo_inurba_marseille","lat":43.231794,"lon":5.400052,"is_reserved":false,"is_disabled":false,"rental_uris":{"android":"levelo://app?vid=46e85755-7f44-4770-9e69-88e3e5d2d0d4","ios":"levelo://app?vid=46e85755-7f44-4770-9e69-88e3e5d2d0d4"},"vehicle_type_id":"4","last_reported":1702541380,"current_range_meters":18000,"station_id":"ce4bhn12rcd13ifvqgqg","pricing_plan_id":"free"},{"bike_id":"a70842cf-3cdd-4227-8996-9e4cdf55219b","system_id":"levelo_inurba_marseille","lat":43.231828,"lon":5.399819,"is_reserved":false,"is_disabled":false,"rental_uris":{"android":"levelo://app?vid=a70842cf-3cdd-4227-8996-9e4cdf55219b","ios":"levelo://app?vid=a70842cf-3cdd-4227-8996-9e4cdf55219b"},"vehicle_type_id":"4","last_reported":1702541380,"current_range_meters":28800,"station_id":"ce4bhn12rcd13ifvqgqg","pricing_plan_id":"free"},{"bike_id":"5d66a1e1-407e-43b7-8a1f-b43437a90341","system_id":"levelo_inurba_marseille","lat":43.231794,"lon":5.400052,"is_reserved":false,"is_disabled":false,"rental_uris":{"android":"levelo://app?vid=5d66a1e1-407e-43b7-8a1f-b43437a90341","ios":"levelo://app?vid=5d66a1e1-407e-43b7-8a1f-b43437a90341"},"vehicle_type_id":"4","last_reported":1702541380,"current_range_meters":31200,"station_id":"ce4bhn12rcd13ifvqgqg","pricing_plan_id":"free"},{"bike_id":"81b51991-47d7-4faa-8ec0-671ac37fa156","system_id":"levelo_inurba_marseille","lat":43.231562,"lon":5.436933,"is_reserved":false,"is_disabled":false,"rental_uris":{"android":"levelo://app?vid=81b51991-47d7-4faa-8ec0-671ac37fa156","ios":"levelo://app?vid=81b51991-47d7-4faa-8ec0-671ac37fa156"},"vehicle_type_id":"4","last_reported":1702541380,"current_range_meters":29600,"station_id":"ce4bhmp2rcd13ifvqgog","pricing_plan_id":"free"},{"bike_id":"5e33f474-8396-458a-957e-8d7cacaa1bee","system_id":"levelo_inurba_marseille","lat":43.231562,"lon":5.436933,"is_reserved":false,"is_disabled":false,"rental_uris":{"android":"levelo://app?vid=5e33f474-8396-458a-957e-8d7cacaa1bee","ios":"levelo://app?vid=5e33f474-8396-458a-957e-8d7cacaa1bee"},"vehicle_type_id":"4","last_reported":1702541380,"current_range_meters":16000,"station_id":"ce4bhmp2rcd13ifvqgog","pricing_plan_id":"free"},{"bike_id":"0f5119d3-99ee-4eca-86bf-ffe25c328d95","system_id":"levelo_inurba_marseille","lat":43.231562,"lon":5.436933,"is_reserved":false,"is_disabled":false,"rental_uris":{"android":"levelo://app?vid=0f5119d3-99ee-4eca-86bf-ffe25c328d95","ios":"levelo://app?vid=0f5119d3-99ee-4eca-86bf-ffe25c328d95"},"vehicle_type_id":"4","last_reported":1702541380,"current_range_meters":16800,"station_id":"ce4bhmp2rcd13ifvqgog","pricing_plan_id":"free"},{"bike_id":"6016208a-e6f9-4246-9258-6df793e310a7","system_id":"levelo_inurba_marseille","lat":43.231562,"lon":5.436933,"is_reserved":false,"is_disabled":false,"rental_uris":{"android":"levelo://app?vid=6016208a-e6f9-4246-9258-6df793e310a7","ios":"levelo://app?vid=6016208a-e6f9-4246-9258-6df793e310a7"},"vehicle_type_id":"4","last_reported":1702541380,"current_range_meters":15200,"station_id":"ce4bhmp2rcd13ifvqgog","pricing_plan_id":"free"},{"bike_id":"c7667cbb-4ebc-4ff0-8cc3-d90f64a1a989","system_id":"levelo_inurba_marseille","lat":43.231562,"lon":5.436933,"is_reserved":false,"is_disabled":false,"rental_uris":{"android":"levelo://app?vid=c7667cbb-4ebc-4ff0-8cc3-d90f64a1a989","ios":"levelo://app?vid=c7667cbb-4ebc-4ff0-8cc3-d90f64a1a989"},"vehicle_type_id":"4","last_reported":1702541380,"current_range_meters":27600,"station_id":"ce4bhmp2rcd13ifvqgog","pricing_plan_id":"free"}]}}