{"last_updated":1701094012,"ttl":30,"version":"2.2","data":{"bikes":[{"bike_id":"5d884c0a-f441-4caa-800e-f8eec27a6b22","system_id":"levelo_inurba_marseille","lat":43.31341,"lon":5.367098,"is_reserved":false,"is_disabled":false,"rental_uris":{"android":"levelo://app?vid=5d884c0a-f441-4caa-800e-f8eec27a6b22","ios":"levelo://app?vid=5d884c0a-f441-4caa-800e-f8eec27a6b22"},"vehicle_type_id":"4","last_reported":1701094012,"current_range_meters":19600,"station_id":"ce4bgr92rcd13ifvqc6g","pricing_plan_id":"free"},{"bike_id":"59689ca5-801d-4c2b-941a-1a9b8b42a75e","system_id":"levelo_inurba_marseille","lat":43.31341,"lon":5.367098,"is_reserved":false,"is_disabled":false,"rental_uris":{"android":"levelo://app?vid=59689ca5-801d-4c2b-941a-1a9b8b42a75e","ios":"levelo://app?vid=59689ca5-801d-4c2b-941a-1a9b8b42a75e"},"vehicle_type_id":"4","last_reported":1701094012,"current_range_meters":26000,"station_id":"ce4bgr92rcd13ifvqc6g","pricing_plan_id":"free"},{"bike_id":"1e80ff6f-214d-452e-a1df-88c480549762","system_id":"levelo_inurba_marseille","lat":43.313391,"lon":5.36706,"is_reserved":false,"is_disabled":false,"rental_uris":{"android":"levelo://app?vid=1e80ff6f-214d-452e-a1df-88c480549762","ios":"levelo://app?vid=1e80ff6f-214d-452e-a1df-88c480549762"},"vehicle_type_id":"4","last_reported":1701094012,"current_range_meters":31200,"station_id":"ce4bgr92rcd13ifvqc6g","pricing_plan_id":"free"},{"bike_id":"f79e56b7-07fc-4cbb-8c5f-1219abdbaaa0","system_id":"levelo_inurba_marseille","lat":43.313421,"lon":5.367228,"is_reserved":false,"is_disabled":false,"rental_uris":{"android":"levelo://app?vid=f79e56b7-07fc-4cbb-8c5f-1219abdbaaa0","ios":"levelo://app?vid=f79e56b7-07fc-4cbb-8c5f-1219abdbaaa0"},"vehicle_type_id":"4","last_reported":1701094012,"current_range_meters":13600,"station_id":"ce4bgr92rcd13ifvqc6g","pricing_plan_id":"free"},{"bike_id":"0e07f4dc-f05c-4a47-a7fc-9cf5a2bc7aff","system_id":"levelo_inurba_marseille","lat":43.31341,"lon":5.367098,"is_reserved":false,"is_disabled":false,"rental_uris":{"android":"levelo://app?vid=0e07f4dc-f05c-4a47-a7fc-9cf5a2bc7aff","ios":"levelo://app?vid=0e07f4dc-f05c-4a47-a7fc-9cf5a2bc7aff"},"vehicle_type_id":"4","last_reported":1701094012,"current_range_meters":31200,"station_id":"ce4bgr92rcd13ifvqc6g","pricing_plan_id":"free"},{"bike_id":"8d7fd8e2-e915-4a9b-ac22-a9a9c8c23e6d","system_id":"levelo_inurba_marseille","lat":43.31341,"lon":5.367098,"is_reserved":false,"is_disabled":false,"rental_uris":{"android":"levelo://app?vid=8d7fd8e2-e915-4a9b-ac22-a9a9c8c23e6d","ios":"levelo://app?vid=8d7fd8e2-e915-4a9b-ac22-a9a9c8c23e6d"},"vehicle_type_id":"4","last_reported":1701094012,"current_range_meters":26400,"station_id":"ce4bgr92rcd13ifvqc6g","pricing_plan_id":"free"},{"bike_id":"dbd22c5b-f318-460a-95cd-c007a476a760","system_id":"levelo_inurba_marseille","lat":43.31341,"lon":5.367098,"is_reserved":false,"is_disabled":false,"rental_uris":{"android":"levelo://app?vid=dbd22c5b-f318-460a-95cd-c007a476a760","ios":"levelo://app?vid=dbd22c5b-f318-460a-95cd-c007a476a760"},"vehicle_type_id":"4","last_reported":1701094012,"current_range_meters":28400,"station_id":"ce4bgr92rcd13ifvqc6g","pricing_plan_id":"free"},{"bike_id":"d91cb1a5-9e69-484c-aa49-7e1232aa7a8e","system_id":"levelo_inurba_marseille","lat":43.31341,"lon":5.367098,"is_reserved":false,"is_disabled":false,"rental_uris":{"android":"levelo://app?vid=d91cb1a5-9e69-484c-aa49-7e1232aa7a8e","ios":"levelo://app?vid=d91cb1a5-9e69-484c-aa49-7e1232aa7a8e"},"vehicle_type_id":"4","last_reported":1701094012,"current_range_meters":3200,"station_id":"ce4bgr92rcd13ifvqc6g","pricing_plan_id":"free"},{"bike_id":"7b0767c3-29e3-4916-81cd-c553e7750797","system_id":"levelo_inurba_marseille","lat":43.31341,"lon":5.367098,"is_reserved":false,"is_disabled":false,"rental_uris":{"android":"levelo://app?vid=7b0767c3-29e3-4916-81cd-c553e7750797","ios":"levelo://app?vid=7b0767c3-29e3-4916-81cd-c553e7750797"},"vehicle_type_id":"4","last_reported":1701094012,"current_range_meters":21600,"station_id":"ce4bgr92rcd13ifvqc6g","pricing_plan_id":"free"},{"bike_id":"196ffaf2-63f9-4e0e-beee-cd70322d6dc7","system_id":"levelo_inurba_marseille","lat":43.31341,"lon":5.367098,"is_reserved":false,"is_disabled":false,"rental_uris":{"android":"levelo://app?vid=196ffaf2-63f9-4e0e-beee-cd70322d6dc7","ios":"levelo://app?vid=196ffaf2-63f9-4e0e-beee-cd70322d6dc7"},"vehicle_type_id":"4","last_reported":1701094012,"current_range_meters":8800,"station_id":"ce4bgr92rcd13ifvqc6g","pricing_plan_id":"free"},{"bike_id":"9ca0bc88-d31c-489e-a806-fff7cc966280","system_id":"levelo_inurba_marseille","lat":43.312239,"lon":5.368562,"is_reserved":false,"is_disabled":false,"rental_uris":{"android":"levelo://app?vid=9ca0bc88-d31c-489e-a806-fff7cc966280","ios":"levelo://app?vid=9ca0bc88-d31c-489e-a806-fff7cc966280"},"vehicle_type_id":"4","last_reported":1701094012,"current_range_meters":28400,"station_id":"ce4bgl92rcd13ifvqbq0","pricing_plan_id":"free"},{"bike_id":"df7f1710-213d-4be5-86a8-93f4a5b41e94","system_id":"levelo_inurba_marseille","lat":43.312239,"lon":5.368562,"is_reserved":false,"is_disabled":false,"rental_uris":{"android":"levelo://app?vid=df7f1710-213d-4be5-86a8-93f4a5b41e94","ios":"levelo://app?vid=df7f1710-213d-4be5-86a8-93f4a5b41e94"},"vehicle_type_id":"4","last_reported":1701094012,"current_range_meters":31600,"station_id":"ce4bgl92rcd13ifvqbq0","pricing_plan_id":"free"},{"bike_id":"e83b3292-3408-4c13-a029-618691692f87","system_id":"levelo_inurba_marseille","lat":43.312239,"lon":5.368562,"is_reserved":false,"is_disabled":false,"rental_uris":{"android":"levelo://app?vid=e83b3292-3408-4c13-a029-618691692f87","ios":"levelo://app?vid=e83b3292-3408-4c13-a029-618691692f87"},"vehicle_type_id":"4","last_reported":1701094012,"current_range_meters":12400,"station_id":"ce4bgl92rcd13ifvqbq0","pricing_plan_id":"free"},{"bike_id":"b982c8cb-63fb-49ef-a07f-553c033a5e93","system_id":"levelo_inurba_marseille","lat":43.312239,"lon":5.368562,"is_reserved":false,"is_disabled":false,"rental_uris":{"android":"levelo://app?vid=b982c8cb-63fb-49ef-a07f-553c033a5e93","ios":"levelo://app?vid=b982c8cb-63fb-49ef-a07f-553c033a5e93"},"vehicle_type_id":"4","last_reported":1701094012,"current_range_meters":3200,"station_id":"ce4bgl92rcd13ifvqbq0","pricing_plan_id":"free"},{"bike_id":"a102bb71-878d-4921-b4bc-750920dfe485","system_id":"levelo_inurba_marseille","lat":43.309076,"lon":5.368465,"is_reserved":false,"is_disabled":false,"rental_uris":{"android":"levelo://app?vid=a102bb71-878d-4921-b4bc-750920dfe485","ios":"levelo://app?vid=a102bb71-878d-4921-b4bc-750920dfe485"},"vehicle_type_id":"4","last_reported":1701094012,"current_range_meters":24400,"station_id":"ce4bgn92rcd13ifvqbvg","pricing_plan_id":"free"},{"bike_id":"5126b0aa-d865-4589-8d50-8d8600ba8782","system_id":"levelo_inurba_marseille","lat":43.30868,"lon":5.368586,"is_reserved":false,"is_disabled":false,"rental_uris":{"android":"levelo://app?vid=5126b0aa-d865-4589-8d50-8d8600ba8782","ios":"levelo://app?vid=5126b0aa-d865-4589-8d50-8d8600ba8782"},"vehicle_type_id":"4","last_reported":1701094012,"current_range_meters":26400,"station_id":"","pricing_plan_id":"free"},{"bike_id":"304b2f82-108c-4ed2-b3a3-0a65ce509123","system_id":"levelo_inurba_marseille","lat":43.309039,"lon":5.371797,"is_reserved":false,"is_disabled":false,"rental_uris":{"android":"levelo://app?vid=304b2f82-108c-4ed2-b3a3-0a65ce509123","ios":"levelo://app?vid=304b2f82-108c-4ed2-b3a3-0a65ce509123"},"vehicle_type_id":"4","last_reported":1701094012,"current_range_meters":19200,"station_id":"ce4bguh2rcd13ifvqckg","pricing_plan_id":"free"},{"bike_id":"4feced7a-db46-490e-aeb7-4b0548dfea9d","system_id":"levelo_inurba_marseille","lat":43.309039,"lon":5.371797,"is_reserved":false,"is_disabled":false,"rental_uris":{"android":"levelo://app?vid=4feced7a-db46-490e-aeb7-4b0548dfea9d","ios":"levelo://app?vid=4feced7a-db46-490e-aeb7-4b0548dfea9d"},"vehicle_type_id":"4","last_reported":1701094012,"current_range_meters":22800,"station_id":"ce4bguh2rcd13ifvqckg","pricing_plan_id":"free"},{"bike_id":"ffb81847-a92d-45bd-8f44-2ac690d54742","system_id":"levelo_inurba_marseille","lat":43.309039,"lon":5.371797,"is_reserved":false,"is_disabled":false,"rental_uris":{"android":"levelo://app?vid=ffb81847-a92d-45bd-8f44-2ac690d54742","ios":"levelo://app?vid=ffb81847-a92d-45bd-8f44-2ac690d54742"},"vehicle_type_id":"4","last_reported":1701094012,"current_range_meters":29600,"station_id":"ce4bguh2rcd13ifvqckg","pricing_plan_id":"free"},{"bike_id":"fa4c08a8-f79b-4419-8791-02374ece74c7","system_id":"levelo_inurba_marseille","lat":43.316926,"lon":5.37271,"is_reserved":false,"is_disabled":false,"rental_uris":{"android":"levelo://app?vid=fa4c08a8-f79b-4419-8791-02374ece74c7","ios":"levelo://app?vid=fa4c08a8-f79b-4419-8791-02374ece74c7"},"vehicle_type_id":"4","last_reported":1701094012,"current_range_meters":5600,"station_id":"","pricing_plan_id":"free"},{"bike_id":"58fa7a2c-3aca-437c-bc95-2a2d30e62ebf","system_id":"levelo_inurba_marseille","lat":43.306004,"lon":5.365643,"is_reserved":false,"is_disabled":false,"rental_uris":{"android":"levelo://app?vid=58fa7a2c-3aca-437c-bc95-2a2d30e62ebf","ios":"levelo://app?vid=58fa7a2c-3aca-437c-bc95-2a2d30e62ebf"},"vehicle_type_id":"4","last_reported":1701094012,"current_range_meters":0,"station_id":"ce4bgs12rcd13ifvqcag","pricing_plan_id":"free"},{"bike_id":"07b9a7d5-23dd-4c57-88f9-4d5cf95ce8f8","system_id":"levelo_inurba_marseille","lat":43.305706,"lon":5.365654,"is_reserved":false,"is_disabled":false,"rental_uris":{"android":"levelo://app?vid=07b9a7d5-23dd-4c57-88f9-4d5cf95ce8f8","ios":"levelo://app?vid=07b9a7d5-23dd-4c57-88f9-4d5cf95ce8f8"},"vehicle_type_id":"4","last_reported":1701094012,"current_range_meters":17200,"station_id":"ce4bgs12rcd13ifvqcag","pricing_plan_id":"free"},{"bike_id":"4960cd84-5f51-4fcb-bf4f-043f77c0faa0","system_id":"levelo_inurba_marseille","lat":43.312295,"lon":5.377198,"is_reserved":false,"is_disabled":false,"rental_uris":{"android":"levelo://app?vid=4960cd84-5f51-4fcb-bf4f-043f77c0faa0","ios":"levelo://app?vid=4960cd84-5f51-4fcb-bf4f-043f77c0faa0"},"vehicle_type_id":"4","last_reported":1701094012,"current_range_meters":13600,"station_id":"","pricing_plan_id":"free"},{"bike_id":"a178d0dc-f1a4-44e9-a3a5-7b90431c6dd4","system_id":"levelo_inurba_marseille","lat":43.30607,"lon":5.37219,"is_reserved":false,"is_disabled":false,"rental_uris":{"android":"levelo://app?vid=a178d0dc-f1a4-44e9-a3a5-7b90431c6dd4","ios":"levelo://app?vid=a178d0dc-f1a4-44e9-a3a5-7b90431c6dd4"},"vehicle_type_id":"4","last_reported":1701094012,"current_range_meters":0,"station_id":"ce4bgqh2rcd13ifvqc4g","pricing_plan_id":"free"},{"bike_id":"7dd913d5-247a-47a1-87a8-7d9f43c0b910","system_id":"levelo_inurba_marseille","lat":43.305989,"lon":5.37225,"is_reserved":false,"is_disabled":false,"rental_uris":{"android":"levelo://app?vid=7dd913d5-247a-47a1-87a8-7d9f43c0b910","ios":"levelo://app?vid=7dd913d5-247a-47a1-87a8-7d9f43c0b910"},"vehicle_type_id":"4","last_reported":1701094012,"current_range_meters":29200,"station_id":"ce4bgqh2rcd13ifvqc4g","pricing_plan_id":"free"},{"bike_id":"1d13c08d-d4cf-474a-b43b-2794fd88a016","system_id":"levelo_inurba_marseille","lat":43.305989,"lon":5.37225,"is_reserved":false,"is_disabled":false,"rental_uris":{"android":"levelo://app?vid=1d13c08d-d4cf-474a-b43b-2794fd88a016","ios":"levelo://app?vid=1d13c08d-d4cf-474a-b43b-2794fd88a016"},"vehicle_type_id":"4","last_reported":1701094012,"current_range_meters":8000,"station_id":"ce4bgqh2rcd13ifvqc4g","pricing_plan_id":"free"},{"bike_id":"46ce9868-7283-4625-8e8c-243d89ef0708","system_id":"levelo_inurba_marseille","lat":43.305989,"lon":5.37225,"is_reserved":false,"is_disabled":false,"rental_uris":{"android":"levelo://app?vid=46ce9868-7283-4625-8e8c-243d89ef0708","ios":"levelo://app?vid=46ce9868-7283-4625-8e8c-243d89ef0708"},"vehicle_type_id":"4","last_reported":1701094012,"current_range_meters":23600,"station_id":"ce4bgqh2rcd13ifvqc4g","pricing_plan_id":"free"},{"bike_id":"1133a1ad-bb82-417c-b8d2-0ce770a8168e","system_id":"levelo_inurba_marseille","lat":43.305989,"lon":5.37225,"is_reserved":false,"is_disabled":false,"rental_uris":{"android":"levelo://app?vid=1133a1ad-bb82-417c-b8d2-0ce770a8168e","ios":"levelo://app?vid=1133a1ad-bb82-417c-b8d2-0ce770a8168e"},"vehicle_type_id":"4","last_reported":1701094012,"current_range_meters":10800,"station_id":"ce4bgqh2rcd13ifvqc4g","pricing_plan_id":"free"},{"bike_id":"e3955938-1abb-47be-9a19-49201fcf3734","system_id":"levelo_inurba_marseille","lat":43.31109,"lon":5.37774,"is_reserved":false,"is_disabled":false,"rental_uris":{"android":"levelo://app?vid=e3955938-1abb-47be-9a19-49201fcf3734","ios":"levelo://app?vid=e3955938-1abb-47be-9a19-49201fcf3734"},"vehicle_type_id":"4","last_reported":1701094012,"current_range_meters":12800,"station_id":"ce4bgt92rcd13ifvqcg0","pricing_plan_id":"free"},{"bike_id":"0525c228-cd5d-40c2-ac67-edd6915961b7","system_id":"levelo_inurba_marseille","lat":43.30817,"lon":5.376529,"is_reserved":false,"is_disabled":false,"rental_uris":{"android":"levelo://app?vid=0525c228-cd5d-40c2-ac67-edd6915961b7","ios":"levelo://app?vid=0525c228-cd5d-40c2-ac67-edd6915961b7"},"vehicle_type_id":"4","last_reported":1701094012,"current_range_meters":6000,"station_id":"ce4bgv92rcd13ifvqcq0","pricing_plan_id":"free"},{"bike_id":"f427a2c3-6e4a-446b-ae2f-9be8aa7f4122","system_id":"levelo_inurba_marseille","lat":43.31719,"lon":5.376813,"is_reserved":false,"is_disabled":false,"rental_uris":{"android":"levelo://app?vid=f427a2c3-6e4a-446b-ae2f-9be8aa7f4122","ios":"levelo://app?vid=f427a2c3-6e4a-446b-ae2f-9be8aa7f4122"},"vehicle_type_id":"4","last_reported":1701094012,"current_range_meters":17200,"station_id":"ce4bgth2rcd13ifvqch0","pricing_plan_id":"free"},{"bike_id":"e913f328-1e31-4c22-bd87-f809ea246de4","system_id":"levelo_inurba_marseille","lat":43.317168,"lon":5.376883,"is_reserved":false,"is_disabled":false,"rental_uris":{"android":"levelo://app?vid=e913f328-1e31-4c22-bd87-f809ea246de4","ios":"levelo://app?vid=e913f328-1e31-4c22-bd87-f809ea246de4"},"vehicle_type_id":"4","last_reported":1701094012,"current_range_meters":19200,"station_id":"ce4bgth2rcd13ifvqch0","pricing_plan_id":"free"},{"bike_id":"ec6d1dc4-bc55-4e6d-a97d-4ee164877b48","system_id":"levelo_inurba_marseille","lat":43.317075,"lon":5.377367,"is_reserved":false,"is_disabled":false,"rental_uris":{"android":"levelo://app?vid=ec6d1dc4-bc55-4e6d-a97d-4ee164877b48","ios":"levelo://app?vid=ec6d1dc4-bc55-4e6d-a97d-4ee164877b48"},"vehicle_type_id":"4","last_reported":1701094012,"current_range_meters":25600,"station_id":"ce4bgth2rcd13ifvqch0","pricing_plan_id":"free"},{"bike_id":"c6f53ceb-ec73-43ea-8117-dcc3dfe7cc1f","system_id":"levelo_inurba_marseille","lat":43.303046,"lon":5.368981,"is_reserved":false,"is_disabled":false,"rental_uris":{"android":"levelo://app?vid=c6f53ceb-ec73-43ea-8117-dcc3dfe7cc1f","ios":"levelo://app?vid=c6f53ceb-ec73-43ea-8117-dcc3dfe7cc1f"},"vehicle_type_id":"4","last_reported":1701094012,"current_range_meters":19600,"station_id":"ce4bgqh2rcd13ifvqc5g","pricing_plan_id":"free"},{"bike_id":"3a9dcda9-7515-42ec-86d2-4cb046810793","system_id":"levelo_inurba_marseille","lat":43.303046,"lon":5.368981,"is_reserved":false,"is_disabled":false,"rental_uris":{"android":"levelo://app?vid=3a9dcda9-7515-42ec-86d2-4cb046810793","ios":"levelo://app?vid=3a9dcda9-7515-42ec-86d2-4cb046810793"},"vehicle_type_id":"4","last_reported":1701094012,"current_range_meters":22000,"station_id":"ce4bgqh2rcd13ifvqc5g","pricing_plan_id":"free"},{"bike_id":"e9055bc7-67e4-49f6-9ef5-b83f75c22470","system_id":"levelo_inurba_marseille","lat":43.303046,"lon":5.368981,"is_reserved":false,"is_disabled":false,"rental_uris":{"android":"levelo://app?vid=e9055bc7-67e4-49f6-9ef5-b83f75c22470","ios":"levelo://app?vid=e9055bc7-67e4-49f6-9ef5-b83f75c22470"},"vehicle_type_id":"4","last_reported":1701094012,"current_range_meters":23200,"station_id":"ce4bgqh2rcd13ifvqc5g","pricing_plan_id":"free"},{"bike_id":"86b32509-2353-4e04-af27-7a4e6409c293","system_id":"levelo_inurba_marseille","lat":43.301939,"lon":5.366286,"is_reserved":false,"is_disabled":false,"rental_uris":{"android":"levelo://app?vid=86b32509-2353-4e04-af27-7a4e6409c293","ios":"levelo://app?vid=86b32509-2353-4e04-af27-7a4e6409c293"},"vehicle_type_id":"4","last_reported":1701094012,"current_range_meters":26400,"station_id":"ce4bgrh2rcd13ifvqc8g","pricing_plan_id":"free"},{"bike_id":"9f73eb49-ab17-4999-8ea6-c3ec45950f02","system_id":"levelo_inurba_marseille","lat":43.30143,"lon":5.37413,"is_reserved":false,"is_disabled":false,"rental_uris":{"android":"levelo://app?vid=9f73eb49-ab17-4999-8ea6-c3ec45950f02","ios":"levelo://app?vid=9f73eb49-ab17-4999-8ea6-c3ec45950f02"},"vehicle_type_id":"4","last_reported":1701094012,"current_range_meters":20000,"station_id":"ce4bgs92rcd13ifvqcc0","pricing_plan_id":"free"},{"bike_id":"aefe9d48-b6a6-4576-9bad-36ee20a61226","system_id":"levelo_inurba_marseille","lat":43.301429,"lon":5.37413,"is_reserved":false,"is_disabled":false,"rental_uris":{"android":"levelo://app?vid=aefe9d48-b6a6-4576-9bad-36ee20a61226","ios":"levelo://app?vid=aefe9d48-b6a6-4576-9bad-36ee20a61226"},"vehicle_type_id":"4","last_reported":1701094012,"current_range_meters":15200,"station_id":"ce4bgs92rcd13ifvqcc0","pricing_plan_id":"free"},{"bike_id":"26ea2eef-dfbb-49d8-ac21-87e46fa360e5","system_id":"levelo_inurba_marseille","lat":43.301429,"lon":5.37413,"is_reserved":false,"is_disabled":false,"rental_uris":{"android":"levelo://app?vid=26ea2eef-dfbb-49d8-ac21-87e46fa360e5","ios":"levelo://app?vid=26ea2eef-dfbb-49d8-ac21-87e46fa360e5"},"vehicle_type_id":"4","last_reported":1701094012,"current_range_meters":16400,"station_id":"ce4bgs92rcd13ifvqcc0","pricing_plan_id":"free"},{"bike_id":"d529bf38-0096-437c-91eb-25e20dec131a","system_id":"levelo_inurba_marseille","lat":43.301429,"lon":5.37413,"is_reserved":false,"is_disabled":false,"rental_uris":{"android":"levelo://app?vid=d529bf38-0096-437c-91eb-25e20dec131a","ios":"levelo://app?vid=d529bf38-0096-437c-91eb-25e20dec131a"},"vehicle_type_id":"4","last_reported":1701094012,"current_range_meters":13200,"station_id":"ce4bgs92rcd13ifvqcc0","pricing_plan_id":"free"},{"bike_id":"3a99cf8f-3d07-4e8d-b82b-2cad08323333","system_id":"levelo_inurba_marseille","lat":43.301429,"lon":5.37413,"is_reserved":false,"is_disabled":false,"rental_uris":{"android":"levelo://app?vid=3a99cf8f-3d07-4e8d-b82b-2cad08323333","ios":"levelo://app?vid=3a99cf8f-3d07-4e8d-b82b-2cad08323333"},"vehicle_type_id":"4","last_reported":1701094012,"current_range_meters":5600,"station_id":"ce4bgs92rcd13ifvqcc0","pricing_plan_id":"free"},{"bike_id":"83c01ea3-1a20-4a6f-944b-833be987b804","system_id":"levelo_inurba_marseille","lat":43.305345,"lon":5.38092,"is_reserved":false,"is_disabled":false,"rental_uris":{"android":"levelo://app?vid=83c01ea3-1a20-4a6f-944b-833be987b804","ios":"levelo://app?vid=83c01ea3-1a20-4a6f-944b-833be987b804"},"vehicle_type_id":"4","last_reported":1701094012,"current_range_meters":0,"station_id":"","pricing_plan_id":"free"},{"bike_id":"eb502bdf-2709-427a-96f9-0ee4c3f2fb9e","system_id":"levelo_inurba_marseille","lat":43.319895,"lon":5.381502,"is_reserved":false,"is_disabled":false,"rental_uris":{"android":"levelo://app?vid=eb502bdf-2709-427a-96f9-0ee4c3f2fb9e","ios":"levelo://app?vid=eb502bdf-2709-427a-96f9-0ee4c3f2fb9e"},"vehicle_type_id":"4","last_reported":1701094012,"current_range_meters":9600,"station_id":"ce4bhr12rcd13ifvqhpg","pricing_plan_id":"free"},{"bike_id":"b6e29183-fa0d-44d9-890b-ab85b98c082f","system_id":"levelo_inurba_marseille","lat":43.313571,"lon":5.384829,"is_reserved":false,"is_disabled":false,"rental_uris":{"android":"levelo://app?vid=b6e29183-fa0d-44d9-890b-ab85b98c082f","ios":"levelo://app?vid=b6e29183-fa0d-44d9-890b-ab85b98c082f"},"vehicle_type_id":"4","last_reported":1701094012,"current_range_meters":25200,"station_id":"ce4bgt92rcd13ifvqcf0","pricing_plan_id":"free"},{"bike_id":"5aa458d7-6a10-449f-a470-6f21b89557f5","system_id":"levelo_inurba_marseille","lat":43.299724,"lon":5.371829,"is_reserved":false,"is_disabled":false,"rental_uris":{"android":"levelo://app?vid=5aa458d7-6a10-449f-a470-6f21b89557f5","ios":"levelo://app?vid=5aa458d7-6a10-449f-a470-6f21b89557f5"},"vehicle_type_id":"4","last_reported":1701094012,"current_range_meters":3600,"station_id":"ce4bgr92rcd13ifvqc7g","pricing_plan_id":"free"},{"bike_id":"5b45f22b-ca0e-43e9-a026-af44a5508eae","system_id":"levelo_inurba_marseille","lat":43.299724,"lon":5.371829,"is_reserved":false,"is_disabled":false,"rental_uris":{"android":"levelo://app?vid=5b45f22b-ca0e-43e9-a026-af44a5508eae","ios":"levelo://app?vid=5b45f22b-ca0e-43e9-a026-af44a5508eae"},"vehicle_type_id":"4","last_reported":1701094012,"current_range_meters":10400,"station_id":"ce4bgr92rcd13ifvqc7g","pricing_plan_id":"free"},{"bike_id":"8888558d-dd41-488a-9977-ff495ec3e269","system_id":"levelo_inurba_marseille","lat":43.299724,"lon":5.371829,"is_reserved":false,"is_disabled":false,"rental_uris":{"android":"levelo://app?vid=8888558d-dd41-488a-9977-ff495ec3e269","ios":"levelo://app?vid=8888558d-dd41-488a-9977-ff495ec3e269"},"vehicle_type_id":"4","last_reported":1701094012,"current_range_meters":27200,"station_id":"ce4bgr92rcd13ifvqc7g","pricing_plan_id":"free"},{"bike_id":"2816042e-4bb5-4a37-a09b-6c9a8754e7ec","system_id":"levelo_inurba_marseille","lat":43.305364,"lon":5.384119,"is_reserved":false,"is_disabled":false,"rental_uris":{"android":"levelo://app?vid=2816042e-4bb5-4a37-a09b-6c9a8754e7ec","ios":"levelo://app?vid=2816042e-4bb5-4a37-a09b-6c9a8754e7ec"},"vehicle_type_id":"4","last_reported":1701094012,"current_range_meters":30400,"station_id":"ce4bgg92rcd13ifvqb30","pricing_plan_id":"free"},{"bike_id":"53795d7a-4d19-432c-a2d8-62980f86e370","system_id":"levelo_inurba_marseille","lat":43.298433,"lon":5.362774,"is_reserved":false,"is_disabled":false,"rental_uris":{"android":"levelo://app?vid=53795d7a-4d19-432c-a2d8-62980f86e370","ios":"levelo://app?vid=53795d7a-4d19-432c-a2d8-62980f86e370"},"vehicle_type_id":"4","last_reported":1701094012,"current_range_meters":6000,"station_id":"ce4bgpp2rcd13ifvqc3g","pricing_plan_id":"free"},{"bike_id":"f59e168d-50c0-4baa-8402-c42bc81ff248","system_id":"levelo_inurba_marseille","lat":43.298433,"lon":5.362774,"is_reserved":false,"is_disabled":false,"rental_uris":{"android":"levelo://app?vid=f59e168d-50c0-4baa-8402-c42bc81ff248","ios":"levelo://app?vid=f59e168d-50c0-4baa-8402-c42bc81ff248"},"vehicle_type_id":"4","last_reported":1701094012,"current_range_meters":13600,"station_id":"ce4bgpp2rcd13ifvqc3g","pricing_plan_id":"free"},{"bike_id":"984489f8-4f60-44ae-bd10-3b0ce30541c9","system_id":"levelo_inurba_marseille","lat":43.298433,"lon":5.362774,"is_reserved":false,"is_disabled":false,"rental_uris":{"android":"levelo://app?vid=984489f8-4f60-44ae-bd10-3b0ce30541c9","ios":"levelo://app?vid=984489f8-4f60-44ae-bd10-3b0ce30541c9"},"vehicle_type_id":"4","last_reported":1701094012,"current_range_meters":0,"station_id":"ce4bgpp2rcd13ifvqc3g","pricing_plan_id":"free"},{"bike_id":"203f5ba8-0e89-4784-aa27-b78132f1046a","system_id":"levelo_inurba_marseille","lat":43.298433,"lon":5.362774,"is_reserved":false,"is_disabled":false,"rental_uris":{"android":"levelo://app?vid=203f5ba8-0e89-4784-aa27-b78132f1046a","ios":"levelo://app?vid=203f5ba8-0e89-4784-aa27-b78132f1046a"},"vehicle_type_id":"4","last_reported":1701094012,"current_range_meters":29200,"station_id":"ce4bgpp2rcd13ifvqc3g","pricing_plan_id":"free"},{"bike_id":"f5a04daa-ddbf-40c5-9ac8-c8febd7e3518","system_id":"levelo_inurba_marseille","lat":43.298433,"lon":5.362774,"is_reserved":false,"is_disabled":false,"rental_uris":{"android":"levelo://app?vid=f5a04daa-ddbf-40c5-9ac8-c8febd7e3518","ios":"levelo://app?vid=f5a04daa-ddbf-40c5-9ac8-c8febd7e3518"},"vehicle_type_id":"4","last_reported":1701094012,"current_range_meters":20000,"station_id":"ce4bgpp2rcd13ifvqc3g","pricing_plan_id":"free"},{"bike_id":"16a57e31-349a-4b98-93fe-3edd5070ff23","system_id":"levelo_inurba_marseille","lat":43.305364,"lon":5.384119,"is_reserved":false,"is_disabled":false,"rental_uris":{"android":"levelo://app?vid=16a57e31-349a-4b98-93fe-3edd5070ff23","ios":"levelo://app?vid=16a57e31-349a-4b98-93fe-3edd5070ff23"},"vehicle_type_id":"4","last_reported":1701094012,"current_range_meters":26400,"station_id":"ce4bgg92rcd13ifvqb30","pricing_plan_id":"free"},{"bike_id":"590c398e-801c-4bf1-b43a-0987e9147a3f","system_id":"levelo_inurba_marseille","lat":43.298433,"lon":5.362774,"is_reserved":false,"is_disabled":false,"rental_uris":{"android":"levelo://app?vid=590c398e-801c-4bf1-b43a-0987e9147a3f","ios":"levelo://app?vid=590c398e-801c-4bf1-b43a-0987e9147a3f"},"vehicle_type_id":"4","last_reported":1701094012,"current_range_meters":8400,"station_id":"ce4bgpp2rcd13ifvqc3g","pricing_plan_id":"free"},{"bike_id":"77e8f10c-55e2-406c-9cdd-ee33e7017622","system_id":"levelo_inurba_marseille","lat":43.298433,"lon":5.362774,"is_reserved":false,"is_disabled":false,"rental_uris":{"android":"levelo://app?vid=77e8f10c-55e2-406c-9cdd-ee33e7017622","ios":"levelo://app?vid=77e8f10c-55e2-406c-9cdd-ee33e7017622"},"vehicle_type_id":"4","last_reported":1701094012,"current_range_meters":20400,"station_id":"ce4bgpp2rcd13ifvqc3g","pricing_plan_id":"free"},{"bike_id":"c4530d0d-4507-442b-b73b-da3f3edf8f57","system_id":"levelo_inurba_marseille","lat":43.311722,"lon":5.387247,"is_reserved":false,"is_disabled":false,"rental_uris":{"android":"levelo://app?vid=c4530d0d-4507-442b-b73b-da3f3edf8f57","ios":"levelo://app?vid=c4530d0d-4507-442b-b73b-da3f3edf8f57"},"vehicle_type_id":"4","last_reported":1701094012,"current_range_meters":24400,"station_id":"ce4bgv12rcd13ifvqcp0","pricing_plan_id":"free"},{"bike_id":"9dfc1be4-40e0-479e-8a23-39504815e756","system_id":"levelo_inurba_marseille","lat":43.322872,"lon":5.382756,"is_reserved":false,"is_disabled":false,"rental_uris":{"android":"levelo://app?vid=9dfc1be4-40e0-479e-8a23-39504815e756","ios":"levelo://app?vid=9dfc1be4-40e0-479e-8a23-39504815e756"},"vehicle_type_id":"4","last_reported":1701094012,"current_range_meters":29600,"station_id":"ce4bhr12rcd13ifvqhqg","pricing_plan_id":"free"},{"bike_id":"226310b2-638c-444c-a15f-247c16471cee","system_id":"levelo_inurba_marseille","lat":43.322872,"lon":5.382756,"is_reserved":false,"is_disabled":false,"rental_uris":{"android":"levelo://app?vid=226310b2-638c-444c-a15f-247c16471cee","ios":"levelo://app?vid=226310b2-638c-444c-a15f-247c16471cee"},"vehicle_type_id":"4","last_reported":1701094012,"current_range_meters":12800,"station_id":"ce4bhr12rcd13ifvqhqg","pricing_plan_id":"free"},{"bike_id":"56721229-9790-4c19-b4a5-5567e69d4ddc","system_id":"levelo_inurba_marseille","lat":43.2968,"lon":5.37291,"is_reserved":false,"is_disabled":false,"rental_uris":{"android":"levelo://app?vid=56721229-9790-4c19-b4a5-5567e69d4ddc","ios":"levelo://app?vid=56721229-9790-4c19-b4a5-5567e69d4ddc"},"vehicle_type_id":"4","last_reported":1701094012,"current_range_meters":19200,"station_id":"ce4bgk12rcd13ifvqbj0","pricing_plan_id":"free"},{"bike_id":"4f5dfc85-49c4-46ec-9a98-28ff85b24ab8","system_id":"levelo_inurba_marseille","lat":43.296935,"lon":5.376544,"is_reserved":false,"is_disabled":false,"rental_uris":{"android":"levelo://app?vid=4f5dfc85-49c4-46ec-9a98-28ff85b24ab8","ios":"levelo://app?vid=4f5dfc85-49c4-46ec-9a98-28ff85b24ab8"},"vehicle_type_id":"4","last_reported":1701094012,"current_range_meters":21600,"station_id":"ce4bgkh2rcd13ifvqbl0","pricing_plan_id":"free"},{"bike_id":"9b7da75e-04fe-429b-9c68-ef3849b3f174","system_id":"levelo_inurba_marseille","lat":43.299028,"lon":5.381509,"is_reserved":false,"is_disabled":false,"rental_uris":{"android":"levelo://app?vid=9b7da75e-04fe-429b-9c68-ef3849b3f174","ios":"levelo://app?vid=9b7da75e-04fe-429b-9c68-ef3849b3f174"},"vehicle_type_id":"4","last_reported":1701094012,"current_range_meters":28000,"station_id":"ce4bgj12rcd13ifvqbc0","pricing_plan_id":"free"},{"bike_id":"d618ff36-8862-4916-907d-fa8e824a0f72","system_id":"levelo_inurba_marseille","lat":43.309589,"lon":5.390258,"is_reserved":false,"is_disabled":false,"rental_uris":{"android":"levelo://app?vid=d618ff36-8862-4916-907d-fa8e824a0f72","ios":"levelo://app?vid=d618ff36-8862-4916-907d-fa8e824a0f72"},"vehicle_type_id":"4","last_reported":1701094012,"current_range_meters":14000,"station_id":"ce4bgup2rcd13ifvqco0","pricing_plan_id":"free"},{"bike_id":"dfc0a468-66de-4231-84fb-b94afc1e929e","system_id":"levelo_inurba_marseille","lat":43.309589,"lon":5.390258,"is_reserved":false,"is_disabled":false,"rental_uris":{"android":"levelo://app?vid=dfc0a468-66de-4231-84fb-b94afc1e929e","ios":"levelo://app?vid=dfc0a468-66de-4231-84fb-b94afc1e929e"},"vehicle_type_id":"4","last_reported":1701094012,"current_range_meters":18400,"station_id":"ce4bgup2rcd13ifvqco0","pricing_plan_id":"free"},{"bike_id":"819ca095-2511-4d5f-96c3-329bc7bf45cf","system_id":"levelo_inurba_marseille","lat":43.31752,"lon":5.38997,"is_reserved":false,"is_disabled":false,"rental_uris":{"android":"levelo://app?vid=819ca095-2511-4d5f-96c3-329bc7bf45cf","ios":"levelo://app?vid=819ca095-2511-4d5f-96c3-329bc7bf45cf"},"vehicle_type_id":"4","last_reported":1701094012,"current_range_meters":21600,"station_id":"","pricing_plan_id":"free"},{"bike_id":"5dc19534-c5a5-41c7-b02a-be74f25867c0","system_id":"levelo_inurba_marseille","lat":43.31751,"lon":5.39005,"is_reserved":false,"is_disabled":false,"rental_uris":{"android":"levelo://app?vid=5dc19534-c5a5-41c7-b02a-be74f25867c0","ios":"levelo://app?vid=5dc19534-c5a5-41c7-b02a-be74f25867c0"},"vehicle_type_id":"4","last_reported":1701094012,"current_range_meters":25200,"station_id":"","pricing_plan_id":"free"},{"bike_id":"0449ea18-9677-401c-9257-4c1865584447","system_id":"levelo_inurba_marseille","lat":43.295768,"lon":5.374992,"is_reserved":false,"is_disabled":false,"rental_uris":{"android":"levelo://app?vid=0449ea18-9677-401c-9257-4c1865584447","ios":"levelo://app?vid=0449ea18-9677-401c-9257-4c1865584447"},"vehicle_type_id":"4","last_reported":1701094012,"current_range_meters":0,"station_id":"ce4bgh92rcd13ifvqb50","pricing_plan_id":"free"},{"bike_id":"7b41509f-5d2b-49e0-a44b-3f8a591109ea","system_id":"levelo_inurba_marseille","lat":43.295748,"lon":5.37522,"is_reserved":false,"is_disabled":false,"rental_uris":{"android":"levelo://app?vid=7b41509f-5d2b-49e0-a44b-3f8a591109ea","ios":"levelo://app?vid=7b41509f-5d2b-49e0-a44b-3f8a591109ea"},"vehicle_type_id":"4","last_reported":1701094012,"current_range_meters":23200,"station_id":"ce4bgh92rcd13ifvqb50","pricing_plan_id":"free"},{"bike_id":"8b15c83b-e07c-4b21-8926-a1e428b7a23d","system_id":"levelo_inurba_marseille","lat":43.30304,"lon":5.368987,"is_reserved":false,"is_disabled":false,"rental_uris":{"android":"levelo://app?vid=8b15c83b-e07c-4b21-8926-a1e428b7a23d","ios":"levelo://app?vid=8b15c83b-e07c-4b21-8926-a1e428b7a23d"},"vehicle_type_id":"4","last_reported":1701094012,"current_range_meters":17600,"station_id":"ce4bgqh2rcd13ifvqc5g","pricing_plan_id":"free"},{"bike_id":"6b621983-5e9e-42f7-990d-ad5a093820d2","system_id":"levelo_inurba_marseille","lat":43.293801,"lon":5.363066,"is_reserved":false,"is_disabled":false,"rental_uris":{"android":"levelo://app?vid=6b621983-5e9e-42f7-990d-ad5a093820d2","ios":"levelo://app?vid=6b621983-5e9e-42f7-990d-ad5a093820d2"},"vehicle_type_id":"4","last_reported":1701094012,"current_range_meters":0,"station_id":"","pricing_plan_id":"free"},{"bike_id":"ddd61bce-03d4-4f1e-8020-8ef45188a057","system_id":"levelo_inurba_marseille","lat":43.30004,"lon":5.38799,"is_reserved":false,"is_disabled":false,"rental_uris":{"android":"levelo://app?vid=ddd61bce-03d4-4f1e-8020-8ef45188a057","ios":"levelo://app?vid=ddd61bce-03d4-4f1e-8020-8ef45188a057"},"vehicle_type_id":"4","last_reported":1701094012,"current_range_meters":15600,"station_id":"","pricing_plan_id":"free"},{"bike_id":"0a1838e0-6fea-48e7-837e-c541b0f8d11e","system_id":"levelo_inurba_marseille","lat":43.29277,"lon":5.36843,"is_reserved":false,"is_disabled":false,"rental_uris":{"android":"levelo://app?vid=0a1838e0-6fea-48e7-837e-c541b0f8d11e","ios":"levelo://app?vid=0a1838e0-6fea-48e7-837e-c541b0f8d11e"},"vehicle_type_id":"4","last_reported":1701094012,"current_range_meters":0,"station_id":"ce4bhbp2rcd13ifvqesg","pricing_plan_id":"free"},{"bike_id":"6c1f489c-da0a-4857-9682-d257ece05d45","system_id":"levelo_inurba_marseille","lat":43.302992,"lon":5.392136,"is_reserved":false,"is_disabled":false,"rental_uris":{"android":"levelo://app?vid=6c1f489c-da0a-4857-9682-d257ece05d45","ios":"levelo://app?vid=6c1f489c-da0a-4857-9682-d257ece05d45"},"vehicle_type_id":"4","last_reported":1701094012,"current_range_meters":19600,"station_id":"ce4bgkh2rcd13ifvqbk0","pricing_plan_id":"free"},{"bike_id":"0d22ae43-303c-44e3-a1e9-a0ad7c387cc9","system_id":"levelo_inurba_marseille","lat":43.302992,"lon":5.392136,"is_reserved":false,"is_disabled":false,"rental_uris":{"android":"levelo://app?vid=0d22ae43-303c-44e3-a1e9-a0ad7c387cc9","ios":"levelo://app?vid=0d22ae43-303c-44e3-a1e9-a0ad7c387cc9"},"vehicle_type_id":"4","last_reported":1701094012,"current_range_meters":19200,"station_id":"ce4bgkh2rcd13ifvqbk0","pricing_plan_id":"free"},{"bike_id":"5ecc0e2f-4c9f-427f-b200-ae3cdee0eea6","system_id":"levelo_inurba_marseille","lat":43.2936,"lon":5.37835,"is_reserved":false,"is_disabled":false,"rental_uris":{"android":"levelo://app?vid=5ecc0e2f-4c9f-427f-b200-ae3cdee0eea6","ios":"levelo://app?vid=5ecc0e2f-4c9f-427f-b200-ae3cdee0eea6"},"vehicle_type_id":"4","last_reported":1701094012,"current_range_meters":10400,"station_id":"ce4bgjh2rcd13ifvqbf0","pricing_plan_id":"free"},{"bike_id":"54b13619-43dc-4681-bbe6-b30344df6f8d","system_id":"levelo_inurba_marseille","lat":43.292311,"lon":5.360731,"is_reserved":false,"is_disabled":false,"rental_uris":{"android":"levelo://app?vid=54b13619-43dc-4681-bbe6-b30344df6f8d","ios":"levelo://app?vid=54b13619-43dc-4681-bbe6-b30344df6f8d"},"vehicle_type_id":"4","last_reported":1701094012,"current_range_meters":19200,"station_id":"ce4bhbh2rcd13ifvqeqg","pricing_plan_id":"free"},{"bike_id":"c5f13703-e04d-48c1-8b7b-06562b3b6cfb","system_id":"levelo_inurba_marseille","lat":43.292311,"lon":5.360731,"is_reserved":false,"is_disabled":false,"rental_uris":{"android":"levelo://app?vid=c5f13703-e04d-48c1-8b7b-06562b3b6cfb","ios":"levelo://app?vid=c5f13703-e04d-48c1-8b7b-06562b3b6cfb"},"vehicle_type_id":"4","last_reported":1701094012,"current_range_meters":26800,"station_id":"ce4bhbh2rcd13ifvqeqg","pricing_plan_id":"free"},{"bike_id":"347643ca-7ce8-42d9-a992-079c48d6c461","system_id":"levelo_inurba_marseille","lat":43.300852,"lon":5.390859,"is_reserved":false,"is_disabled":false,"rental_uris":{"android":"levelo://app?vid=347643ca-7ce8-42d9-a992-079c48d6c461","ios":"levelo://app?vid=347643ca-7ce8-42d9-a992-079c48d6c461"},"vehicle_type_id":"4","last_reported":1701094012,"current_range_meters":11600,"station_id":"ce4bh192rcd13ifvqdb0","pricing_plan_id":"free"},{"bike_id":"eadeb52a-940c-4fd0-8294-58a2e430d793","system_id":"levelo_inurba_marseille","lat":43.292311,"lon":5.360731,"is_reserved":false,"is_disabled":false,"rental_uris":{"android":"levelo://app?vid=eadeb52a-940c-4fd0-8294-58a2e430d793","ios":"levelo://app?vid=eadeb52a-940c-4fd0-8294-58a2e430d793"},"vehicle_type_id":"4","last_reported":1701094012,"current_range_meters":26000,"station_id":"ce4bhbh2rcd13ifvqeqg","pricing_plan_id":"free"},{"bike_id":"8e7eba87-716d-46b1-a76d-b32a746ff517","system_id":"levelo_inurba_marseille","lat":43.298764,"lon":5.388973,"is_reserved":false,"is_disabled":false,"rental_uris":{"android":"levelo://app?vid=8e7eba87-716d-46b1-a76d-b32a746ff517","ios":"levelo://app?vid=8e7eba87-716d-46b1-a76d-b32a746ff517"},"vehicle_type_id":"4","last_reported":1701094012,"current_range_meters":29200,"station_id":"ce4bh392rcd13ifvqdl0","pricing_plan_id":"free"},{"bike_id":"fcb88794-d241-418a-bcf5-ad83a8f68995","system_id":"levelo_inurba_marseille","lat":43.309038,"lon":5.396546,"is_reserved":false,"is_disabled":false,"rental_uris":{"android":"levelo://app?vid=fcb88794-d241-418a-bcf5-ad83a8f68995","ios":"levelo://app?vid=fcb88794-d241-418a-bcf5-ad83a8f68995"},"vehicle_type_id":"4","last_reported":1701094012,"current_range_meters":14000,"station_id":"ce4bh012rcd13ifvqcv0","pricing_plan_id":"free"},{"bike_id":"7768c7f2-73c4-4eeb-9da2-bc24b568c6a0","system_id":"levelo_inurba_marseille","lat":43.292013,"lon":5.357974,"is_reserved":false,"is_disabled":false,"rental_uris":{"android":"levelo://app?vid=7768c7f2-73c4-4eeb-9da2-bc24b568c6a0","ios":"levelo://app?vid=7768c7f2-73c4-4eeb-9da2-bc24b568c6a0"},"vehicle_type_id":"4","last_reported":1701094012,"current_range_meters":3200,"station_id":"ce4bhb12rcd13ifvqel0","pricing_plan_id":"free"},{"bike_id":"881d38da-2cfb-41f2-83f2-c16b346c4843","system_id":"levelo_inurba_marseille","lat":43.31327,"lon":5.39688,"is_reserved":false,"is_disabled":false,"rental_uris":{"android":"levelo://app?vid=881d38da-2cfb-41f2-83f2-c16b346c4843","ios":"levelo://app?vid=881d38da-2cfb-41f2-83f2-c16b346c4843"},"vehicle_type_id":"4","last_reported":1701094012,"current_range_meters":3600,"station_id":"ce4bgvp2rcd13ifvqcu0","pricing_plan_id":"free"},{"bike_id":"9180933c-aefc-47ad-8c37-93b6902db7c9","system_id":"levelo_inurba_marseille","lat":43.31326,"lon":5.39696,"is_reserved":false,"is_disabled":false,"rental_uris":{"android":"levelo://app?vid=9180933c-aefc-47ad-8c37-93b6902db7c9","ios":"levelo://app?vid=9180933c-aefc-47ad-8c37-93b6902db7c9"},"vehicle_type_id":"4","last_reported":1701094012,"current_range_meters":16400,"station_id":"ce4bgvp2rcd13ifvqcu0","pricing_plan_id":"free"},{"bike_id":"ed206e0d-ff96-42fd-8733-07b1744fbda8","system_id":"levelo_inurba_marseille","lat":43.290779,"lon":5.371482,"is_reserved":false,"is_disabled":false,"rental_uris":{"android":"levelo://app?vid=ed206e0d-ff96-42fd-8733-07b1744fbda8","ios":"levelo://app?vid=ed206e0d-ff96-42fd-8733-07b1744fbda8"},"vehicle_type_id":"4","last_reported":1701094012,"current_range_meters":26000,"station_id":"ce4bh5p2rcd13ifvqe4g","pricing_plan_id":"free"},{"bike_id":"b89cdf91-f623-4661-bd01-e42e7b937cca","system_id":"levelo_inurba_marseille","lat":43.302008,"lon":5.394694,"is_reserved":false,"is_disabled":false,"rental_uris":{"android":"levelo://app?vid=b89cdf91-f623-4661-bd01-e42e7b937cca","ios":"levelo://app?vid=b89cdf91-f623-4661-bd01-e42e7b937cca"},"vehicle_type_id":"4","last_reported":1701094012,"current_range_meters":19600,"station_id":"ce4bh0p2rcd13ifvqd70","pricing_plan_id":"free"},{"bike_id":"55c8814d-710f-41c5-a45b-a5bb88b2383a","system_id":"levelo_inurba_marseille","lat":43.302008,"lon":5.394694,"is_reserved":false,"is_disabled":false,"rental_uris":{"android":"levelo://app?vid=55c8814d-710f-41c5-a45b-a5bb88b2383a","ios":"levelo://app?vid=55c8814d-710f-41c5-a45b-a5bb88b2383a"},"vehicle_type_id":"4","last_reported":1701094012,"current_range_meters":23200,"station_id":"ce4bh0p2rcd13ifvqd70","pricing_plan_id":"free"},{"bike_id":"1eea3122-5bc5-49c7-aa97-93304d40dc1c","system_id":"levelo_inurba_marseille","lat":43.294162,"lon":5.386292,"is_reserved":false,"is_disabled":false,"rental_uris":{"android":"levelo://app?vid=1eea3122-5bc5-49c7-aa97-93304d40dc1c","ios":"levelo://app?vid=1eea3122-5bc5-49c7-aa97-93304d40dc1c"},"vehicle_type_id":"4","last_reported":1701094012,"current_range_meters":10400,"station_id":"ce4bh2h2rcd13ifvqdh0","pricing_plan_id":"free"},{"bike_id":"61c53d97-4ffd-426f-861f-dbd9566f7d54","system_id":"levelo_inurba_marseille","lat":43.292644,"lon":5.384257,"is_reserved":false,"is_disabled":false,"rental_uris":{"android":"levelo://app?vid=61c53d97-4ffd-426f-861f-dbd9566f7d54","ios":"levelo://app?vid=61c53d97-4ffd-426f-861f-dbd9566f7d54"},"vehicle_type_id":"4","last_reported":1701094012,"current_range_meters":26800,"station_id":"ce4bh692rcd13ifvqea0","pricing_plan_id":"free"},{"bike_id":"dd9d6366-f6b5-46ba-b6b6-bfed25e702e6","system_id":"levelo_inurba_marseille","lat":43.292642,"lon":5.384254,"is_reserved":false,"is_disabled":false,"rental_uris":{"android":"levelo://app?vid=dd9d6366-f6b5-46ba-b6b6-bfed25e702e6","ios":"levelo://app?vid=dd9d6366-f6b5-46ba-b6b6-bfed25e702e6"},"vehicle_type_id":"4","last_reported":1701094012,"current_range_meters":14400,"station_id":"ce4bh692rcd13ifvqea0","pricing_plan_id":"free"},{"bike_id":"2e39937b-8884-49c7-a5f2-01d20c850162","system_id":"levelo_inurba_marseille","lat":43.304274,"lon":5.397513,"is_reserved":false,"is_disabled":false,"rental_uris":{"android":"levelo://app?vid=2e39937b-8884-49c7-a5f2-01d20c850162","ios":"levelo://app?vid=2e39937b-8884-49c7-a5f2-01d20c850162"},"vehicle_type_id":"4","last_reported":1701094012,"current_range_meters":12400,"station_id":"ce4bh092rcd13ifvqd20","pricing_plan_id":"free"},{"bike_id":"0d4a20b8-630f-4e47-9289-c925c13f5c58","system_id":"levelo_inurba_marseille","lat":43.295169,"lon":5.390426,"is_reserved":false,"is_disabled":false,"rental_uris":{"android":"levelo://app?vid=0d4a20b8-630f-4e47-9289-c925c13f5c58","ios":"levelo://app?vid=0d4a20b8-630f-4e47-9289-c925c13f5c58"},"vehicle_type_id":"4","last_reported":1701094012,"current_range_meters":21200,"station_id":"ce4bh3p2rcd13ifvqdp0","pricing_plan_id":"free"},{"bike_id":"863b102f-1167-4575-80b6-5fcc8ca472de","system_id":"levelo_inurba_marseille","lat":43.295169,"lon":5.390426,"is_reserved":false,"is_disabled":false,"rental_uris":{"android":"levelo://app?vid=863b102f-1167-4575-80b6-5fcc8ca472de","ios":"levelo://app?vid=863b102f-1167-4575-80b6-5fcc8ca472de"},"vehicle_type_id":"4","last_reported":1701094012,"current_range_meters":24400,"station_id":"ce4bh3p2rcd13ifvqdp0","pricing_plan_id":"free"},{"bike_id":"2352f250-34fd-4dfc-99b3-5a656db41a11","system_id":"levelo_inurba_marseille","lat":43.28856,"lon":5.358371,"is_reserved":false,"is_disabled":false,"rental_uris":{"android":"levelo://app?vid=2352f250-34fd-4dfc-99b3-5a656db41a11","ios":"levelo://app?vid=2352f250-34fd-4dfc-99b3-5a656db41a11"},"vehicle_type_id":"4","last_reported":1701094012,"current_range_meters":21600,"station_id":"ce4bhb12rcd13ifvqem0","pricing_plan_id":"free"},{"bike_id":"6d1a29c3-1856-43b1-bb5e-4f207810abaa","system_id":"levelo_inurba_marseille","lat":43.28856,"lon":5.358371,"is_reserved":false,"is_disabled":false,"rental_uris":{"android":"levelo://app?vid=6d1a29c3-1856-43b1-bb5e-4f207810abaa","ios":"levelo://app?vid=6d1a29c3-1856-43b1-bb5e-4f207810abaa"},"vehicle_type_id":"4","last_reported":1701094012,"current_range_meters":16400,"station_id":"ce4bhb12rcd13ifvqem0","pricing_plan_id":"free"},{"bike_id":"046e553f-54d9-4444-ad41-6502cd7ebc0f","system_id":"levelo_inurba_marseille","lat":43.309371,"lon":5.401449,"is_reserved":false,"is_disabled":false,"rental_uris":{"android":"levelo://app?vid=046e553f-54d9-4444-ad41-6502cd7ebc0f","ios":"levelo://app?vid=046e553f-54d9-4444-ad41-6502cd7ebc0f"},"vehicle_type_id":"4","last_reported":1701094012,"current_range_meters":19200,"station_id":"ce4bgvp2rcd13ifvqct0","pricing_plan_id":"free"},{"bike_id":"67428544-8a83-4b40-91a6-4aa3689fb9c8","system_id":"levelo_inurba_marseille","lat":43.30642,"lon":5.401031,"is_reserved":false,"is_disabled":false,"rental_uris":{"android":"levelo://app?vid=67428544-8a83-4b40-91a6-4aa3689fb9c8","ios":"levelo://app?vid=67428544-8a83-4b40-91a6-4aa3689fb9c8"},"vehicle_type_id":"4","last_reported":1701094012,"current_range_meters":20800,"station_id":"ce4bh112rcd13ifvqda0","pricing_plan_id":"free"},{"bike_id":"e601718a-6fcf-4b45-b0e0-781c1320b80f","system_id":"levelo_inurba_marseille","lat":43.30932,"lon":5.4015,"is_reserved":false,"is_disabled":false,"rental_uris":{"android":"levelo://app?vid=e601718a-6fcf-4b45-b0e0-781c1320b80f","ios":"levelo://app?vid=e601718a-6fcf-4b45-b0e0-781c1320b80f"},"vehicle_type_id":"4","last_reported":1701094012,"current_range_meters":21200,"station_id":"ce4bgvp2rcd13ifvqct0","pricing_plan_id":"free"},{"bike_id":"06a59350-4215-47d0-8423-88976245ca0c","system_id":"levelo_inurba_marseille","lat":43.33775,"lon":5.37436,"is_reserved":false,"is_disabled":false,"rental_uris":{"android":"levelo://app?vid=06a59350-4215-47d0-8423-88976245ca0c","ios":"levelo://app?vid=06a59350-4215-47d0-8423-88976245ca0c"},"vehicle_type_id":"4","last_reported":1701094012,"current_range_meters":27600,"station_id":"","pricing_plan_id":"free"},{"bike_id":"3a7efbc7-ac5e-4a85-a113-3e8f6f20e256","system_id":"levelo_inurba_marseille","lat":43.28727,"lon":5.36078,"is_reserved":false,"is_disabled":false,"rental_uris":{"android":"levelo://app?vid=3a7efbc7-ac5e-4a85-a113-3e8f6f20e256","ios":"levelo://app?vid=3a7efbc7-ac5e-4a85-a113-3e8f6f20e256"},"vehicle_type_id":"4","last_reported":1701094012,"current_range_meters":25600,"station_id":"cki0cbj6b192h4jlfktg","pricing_plan_id":"free"},{"bike_id":"326599e0-7755-4294-b232-18ba45d67bf2","system_id":"levelo_inurba_marseille","lat":43.286961,"lon":5.373785,"is_reserved":false,"is_disabled":false,"rental_uris":{"android":"levelo://app?vid=326599e0-7755-4294-b232-18ba45d67bf2","ios":"levelo://app?vid=326599e0-7755-4294-b232-18ba45d67bf2"},"vehicle_type_id":"4","last_reported":1701094012,"current_range_meters":0,"station_id":"ce4bh3p2rcd13ifvqdq0","pricing_plan_id":"free"},{"bike_id":"6f783c40-92b4-4ca9-8819-1fd6d7d171f3","system_id":"levelo_inurba_marseille","lat":43.29028,"lon":5.38633,"is_reserved":false,"is_disabled":false,"rental_uris":{"android":"levelo://app?vid=6f783c40-92b4-4ca9-8819-1fd6d7d171f3","ios":"levelo://app?vid=6f783c40-92b4-4ca9-8819-1fd6d7d171f3"},"vehicle_type_id":"4","last_reported":1701094012,"current_range_meters":0,"station_id":"","pricing_plan_id":"free"},{"bike_id":"91ab1234-1c26-4160-b558-2d6c0b69517c","system_id":"levelo_inurba_marseille","lat":43.29036,"lon":5.38653,"is_reserved":false,"is_disabled":false,"rental_uris":{"android":"levelo://app?vid=91ab1234-1c26-4160-b558-2d6c0b69517c","ios":"levelo://app?vid=91ab1234-1c26-4160-b558-2d6c0b69517c"},"vehicle_type_id":"4","last_reported":1701094012,"current_range_meters":30000,"station_id":"ce4bh4p2rcd13ifvqe0g","pricing_plan_id":"free"},{"bike_id":"61649e58-68e0-48b4-a2d8-b8ab89d3c817","system_id":"levelo_inurba_marseille","lat":43.302759,"lon":5.400793,"is_reserved":false,"is_disabled":false,"rental_uris":{"android":"levelo://app?vid=61649e58-68e0-48b4-a2d8-b8ab89d3c817","ios":"levelo://app?vid=61649e58-68e0-48b4-a2d8-b8ab89d3c817"},"vehicle_type_id":"4","last_reported":1701094012,"current_range_meters":7600,"station_id":"ce4bgvh2rcd13ifvqcs0","pricing_plan_id":"free"},{"bike_id":"71a27d70-b312-4774-929f-890931e9ec2c","system_id":"levelo_inurba_marseille","lat":43.286039,"lon":5.370679,"is_reserved":false,"is_disabled":false,"rental_uris":{"android":"levelo://app?vid=71a27d70-b312-4774-929f-890931e9ec2c","ios":"levelo://app?vid=71a27d70-b312-4774-929f-890931e9ec2c"},"vehicle_type_id":"4","last_reported":1701094012,"current_range_meters":23200,"station_id":"ce4bht12rcd13ifvqi60","pricing_plan_id":"free"},{"bike_id":"0fa95200-5e7d-42b5-bb3a-bb5b6656af79","system_id":"levelo_inurba_marseille","lat":43.284534,"lon":5.358662,"is_reserved":false,"is_disabled":false,"rental_uris":{"android":"levelo://app?vid=0fa95200-5e7d-42b5-bb3a-bb5b6656af79","ios":"levelo://app?vid=0fa95200-5e7d-42b5-bb3a-bb5b6656af79"},"vehicle_type_id":"4","last_reported":1701094012,"current_range_meters":10400,"station_id":"ce4bhah2rcd13ifvqei0","pricing_plan_id":"free"},{"bike_id":"1f0fd874-d7a0-4f5e-afa5-07f156452b7e","system_id":"levelo_inurba_marseille","lat":43.29427,"lon":5.39759,"is_reserved":false,"is_disabled":false,"rental_uris":{"android":"levelo://app?vid=1f0fd874-d7a0-4f5e-afa5-07f156452b7e","ios":"levelo://app?vid=1f0fd874-d7a0-4f5e-afa5-07f156452b7e"},"vehicle_type_id":"4","last_reported":1701094012,"current_range_meters":20000,"station_id":"ce4bh3h2rcd13ifvqdo0","pricing_plan_id":"free"},{"bike_id":"6875df2e-2b1c-472c-8cb4-fc7c385a681f","system_id":"levelo_inurba_marseille","lat":43.286595,"lon":5.386795,"is_reserved":false,"is_disabled":false,"rental_uris":{"android":"levelo://app?vid=6875df2e-2b1c-472c-8cb4-fc7c385a681f","ios":"levelo://app?vid=6875df2e-2b1c-472c-8cb4-fc7c385a681f"},"vehicle_type_id":"4","last_reported":1701094012,"current_range_meters":30400,"station_id":"ce4bh492rcd13ifvqdug","pricing_plan_id":"free"},{"bike_id":"2972e24b-3b25-4c20-b1ec-9bdeac802d22","system_id":"levelo_inurba_marseille","lat":43.286595,"lon":5.386795,"is_reserved":false,"is_disabled":false,"rental_uris":{"android":"levelo://app?vid=2972e24b-3b25-4c20-b1ec-9bdeac802d22","ios":"levelo://app?vid=2972e24b-3b25-4c20-b1ec-9bdeac802d22"},"vehicle_type_id":"4","last_reported":1701094012,"current_range_meters":20000,"station_id":"ce4bh492rcd13ifvqdug","pricing_plan_id":"free"},{"bike_id":"ebe97762-301b-413d-a63e-dda99a456e61","system_id":"levelo_inurba_marseille","lat":43.28672,"lon":5.38665,"is_reserved":false,"is_disabled":false,"rental_uris":{"android":"levelo://app?vid=ebe97762-301b-413d-a63e-dda99a456e61","ios":"levelo://app?vid=ebe97762-301b-413d-a63e-dda99a456e61"},"vehicle_type_id":"4","last_reported":1701094012,"current_range_meters":6800,"station_id":"ce4bh492rcd13ifvqdug","pricing_plan_id":"free"},{"bike_id":"8c9e9cd8-5f57-4ab0-b667-722229239e81","system_id":"levelo_inurba_marseille","lat":43.319179,"lon":5.407725,"is_reserved":false,"is_disabled":false,"rental_uris":{"android":"levelo://app?vid=8c9e9cd8-5f57-4ab0-b667-722229239e81","ios":"levelo://app?vid=8c9e9cd8-5f57-4ab0-b667-722229239e81"},"vehicle_type_id":"4","last_reported":1701094012,"current_range_meters":28400,"station_id":"ce4bhq12rcd13ifvqhig","pricing_plan_id":"free"},{"bike_id":"37ec9518-8ad3-4273-a336-b15e1f976997","system_id":"levelo_inurba_marseille","lat":43.319179,"lon":5.407725,"is_reserved":false,"is_disabled":false,"rental_uris":{"android":"levelo://app?vid=37ec9518-8ad3-4273-a336-b15e1f976997","ios":"levelo://app?vid=37ec9518-8ad3-4273-a336-b15e1f976997"},"vehicle_type_id":"4","last_reported":1701094012,"current_range_meters":30000,"station_id":"ce4bhq12rcd13ifvqhig","pricing_plan_id":"free"},{"bike_id":"2c8ebe18-36da-4baf-af27-05e16759f8fd","system_id":"levelo_inurba_marseille","lat":43.288501,"lon":5.393087,"is_reserved":false,"is_disabled":false,"rental_uris":{"android":"levelo://app?vid=2c8ebe18-36da-4baf-af27-05e16759f8fd","ios":"levelo://app?vid=2c8ebe18-36da-4baf-af27-05e16759f8fd"},"vehicle_type_id":"4","last_reported":1701094012,"current_range_meters":1600,"station_id":"ce4bh2p2rcd13ifvqdi0","pricing_plan_id":"free"},{"bike_id":"e2284003-4e46-4e0a-93e7-73d05c3666d9","system_id":"levelo_inurba_marseille","lat":43.33508,"lon":5.397755,"is_reserved":false,"is_disabled":false,"rental_uris":{"android":"levelo://app?vid=e2284003-4e46-4e0a-93e7-73d05c3666d9","ios":"levelo://app?vid=e2284003-4e46-4e0a-93e7-73d05c3666d9"},"vehicle_type_id":"4","last_reported":1701094012,"current_range_meters":14800,"station_id":"","pricing_plan_id":"free"},{"bike_id":"55f99cc4-db4c-4847-9736-a8faed082f05","system_id":"levelo_inurba_marseille","lat":43.292724,"lon":5.401131,"is_reserved":false,"is_disabled":false,"rental_uris":{"android":"levelo://app?vid=55f99cc4-db4c-4847-9736-a8faed082f05","ios":"levelo://app?vid=55f99cc4-db4c-4847-9736-a8faed082f05"},"vehicle_type_id":"4","last_reported":1701094012,"current_range_meters":14800,"station_id":"ce4bh312rcd13ifvqdk0","pricing_plan_id":"free"},{"bike_id":"01f5e517-4961-4295-a58f-e4a61497618f","system_id":"levelo_inurba_marseille","lat":43.282754,"lon":5.350519,"is_reserved":false,"is_disabled":false,"rental_uris":{"android":"levelo://app?vid=01f5e517-4961-4295-a58f-e4a61497618f","ios":"levelo://app?vid=01f5e517-4961-4295-a58f-e4a61497618f"},"vehicle_type_id":"4","last_reported":1701094012,"current_range_meters":17200,"station_id":"ce4bhbp2rcd13ifvqerg","pricing_plan_id":"free"},{"bike_id":"f1c93221-b364-4f4e-ba79-8b831af87315","system_id":"levelo_inurba_marseille","lat":43.283502,"lon":5.386471,"is_reserved":false,"is_disabled":false,"rental_uris":{"android":"levelo://app?vid=f1c93221-b364-4f4e-ba79-8b831af87315","ios":"levelo://app?vid=f1c93221-b364-4f4e-ba79-8b831af87315"},"vehicle_type_id":"4","last_reported":1701094012,"current_range_meters":18800,"station_id":"ce4bh492rcd13ifvqdvg","pricing_plan_id":"free"},{"bike_id":"1dddd1de-c9d7-48be-bc4b-00a7e0f57fee","system_id":"levelo_inurba_marseille","lat":43.280382,"lon":5.369291,"is_reserved":false,"is_disabled":false,"rental_uris":{"android":"levelo://app?vid=1dddd1de-c9d7-48be-bc4b-00a7e0f57fee","ios":"levelo://app?vid=1dddd1de-c9d7-48be-bc4b-00a7e0f57fee"},"vehicle_type_id":"4","last_reported":1701094012,"current_range_meters":27200,"station_id":"ce4bha12rcd13ifvqef0","pricing_plan_id":"free"},{"bike_id":"8c9eaeb1-f647-4089-ae75-e14aed63c9f6","system_id":"levelo_inurba_marseille","lat":43.290412,"lon":5.399633,"is_reserved":false,"is_disabled":false,"rental_uris":{"android":"levelo://app?vid=8c9eaeb1-f647-4089-ae75-e14aed63c9f6","ios":"levelo://app?vid=8c9eaeb1-f647-4089-ae75-e14aed63c9f6"},"vehicle_type_id":"4","last_reported":1701094012,"current_range_meters":0,"station_id":"ce4bh392rcd13ifvqdm0","pricing_plan_id":"free"},{"bike_id":"02395a80-79f1-44ed-9f8b-1a51446cec41","system_id":"levelo_inurba_marseille","lat":43.281044,"lon":5.378308,"is_reserved":false,"is_disabled":false,"rental_uris":{"android":"levelo://app?vid=02395a80-79f1-44ed-9f8b-1a51446cec41","ios":"levelo://app?vid=02395a80-79f1-44ed-9f8b-1a51446cec41"},"vehicle_type_id":"4","last_reported":1701094012,"current_range_meters":20000,"station_id":"ce4bha12rcd13ifvqee0","pricing_plan_id":"free"},{"bike_id":"6e809f8b-7711-400f-8dd9-81ab567e7c6f","system_id":"levelo_inurba_marseille","lat":43.296263,"lon":5.40601,"is_reserved":false,"is_disabled":false,"rental_uris":{"android":"levelo://app?vid=6e809f8b-7711-400f-8dd9-81ab567e7c6f","ios":"levelo://app?vid=6e809f8b-7711-400f-8dd9-81ab567e7c6f"},"vehicle_type_id":"4","last_reported":1701094012,"current_range_meters":21200,"station_id":"ce4bh0h2rcd13ifvqd60","pricing_plan_id":"free"},{"bike_id":"145d5a8a-9188-4cd1-b3f4-0db1118f9730","system_id":"levelo_inurba_marseille","lat":43.326605,"lon":5.409903,"is_reserved":false,"is_disabled":false,"rental_uris":{"android":"levelo://app?vid=145d5a8a-9188-4cd1-b3f4-0db1118f9730","ios":"levelo://app?vid=145d5a8a-9188-4cd1-b3f4-0db1118f9730"},"vehicle_type_id":"4","last_reported":1701094012,"current_range_meters":20800,"station_id":"ce4bhpp2rcd13ifvqhgg","pricing_plan_id":"free"},{"bike_id":"6528f8a5-8c28-48e7-a670-5bc52203f2a9","system_id":"levelo_inurba_marseille","lat":43.3266,"lon":5.4099,"is_reserved":false,"is_disabled":false,"rental_uris":{"android":"levelo://app?vid=6528f8a5-8c28-48e7-a670-5bc52203f2a9","ios":"levelo://app?vid=6528f8a5-8c28-48e7-a670-5bc52203f2a9"},"vehicle_type_id":"4","last_reported":1701094012,"current_range_meters":28000,"station_id":"ce4bhpp2rcd13ifvqhgg","pricing_plan_id":"free"},{"bike_id":"b0abe81f-0ed0-4f5b-a793-4ff4424ec64f","system_id":"levelo_inurba_marseille","lat":43.287154,"lon":5.399979,"is_reserved":false,"is_disabled":false,"rental_uris":{"android":"levelo://app?vid=b0abe81f-0ed0-4f5b-a793-4ff4424ec64f","ios":"levelo://app?vid=b0abe81f-0ed0-4f5b-a793-4ff4424ec64f"},"vehicle_type_id":"4","last_reported":1701094012,"current_range_meters":25600,"station_id":"ce4bho92rcd13ifvqh3g","pricing_plan_id":"free"},{"bike_id":"c103b530-9c6d-4ac7-adf6-4ae019cb5aa9","system_id":"levelo_inurba_marseille","lat":43.299579,"lon":5.413255,"is_reserved":false,"is_disabled":false,"rental_uris":{"android":"levelo://app?vid=c103b530-9c6d-4ac7-adf6-4ae019cb5aa9","ios":"levelo://app?vid=c103b530-9c6d-4ac7-adf6-4ae019cb5aa9"},"vehicle_type_id":"4","last_reported":1701094012,"current_range_meters":30400,"station_id":"ce4bhp12rcd13ifvqh9g","pricing_plan_id":"free"},{"bike_id":"c94b5170-10b1-40ed-8a33-63b9bf245846","system_id":"levelo_inurba_marseille","lat":43.299579,"lon":5.413255,"is_reserved":false,"is_disabled":false,"rental_uris":{"android":"levelo://app?vid=c94b5170-10b1-40ed-8a33-63b9bf245846","ios":"levelo://app?vid=c94b5170-10b1-40ed-8a33-63b9bf245846"},"vehicle_type_id":"4","last_reported":1701094012,"current_range_meters":27600,"station_id":"ce4bhp12rcd13ifvqh9g","pricing_plan_id":"free"},{"bike_id":"aa110e0f-0f25-4aca-b102-bb037d138492","system_id":"levelo_inurba_marseille","lat":43.320045,"lon":5.415048,"is_reserved":false,"is_disabled":false,"rental_uris":{"android":"levelo://app?vid=aa110e0f-0f25-4aca-b102-bb037d138492","ios":"levelo://app?vid=aa110e0f-0f25-4aca-b102-bb037d138492"},"vehicle_type_id":"4","last_reported":1701094012,"current_range_meters":31600,"station_id":"ce4bhq92rcd13ifvqhkg","pricing_plan_id":"free"},{"bike_id":"0194955b-a17a-4508-8a8c-752c9bdce6ce","system_id":"levelo_inurba_marseille","lat":43.279742,"lon":5.38744,"is_reserved":false,"is_disabled":false,"rental_uris":{"android":"levelo://app?vid=0194955b-a17a-4508-8a8c-752c9bdce6ce","ios":"levelo://app?vid=0194955b-a17a-4508-8a8c-752c9bdce6ce"},"vehicle_type_id":"4","last_reported":1701094012,"current_range_meters":13600,"station_id":"ce4bhg12rcd13ifvqf80","pricing_plan_id":"free"},{"bike_id":"55cb2616-88c8-4cf0-93ba-772744c2e5bd","system_id":"levelo_inurba_marseille","lat":43.320045,"lon":5.415046,"is_reserved":false,"is_disabled":false,"rental_uris":{"android":"levelo://app?vid=55cb2616-88c8-4cf0-93ba-772744c2e5bd","ios":"levelo://app?vid=55cb2616-88c8-4cf0-93ba-772744c2e5bd"},"vehicle_type_id":"4","last_reported":1701094012,"current_range_meters":29600,"station_id":"ce4bhq92rcd13ifvqhkg","pricing_plan_id":"free"},{"bike_id":"657806be-7db9-41e1-822d-a06444caeee2","system_id":"levelo_inurba_marseille","lat":43.320045,"lon":5.415048,"is_reserved":false,"is_disabled":false,"rental_uris":{"android":"levelo://app?vid=657806be-7db9-41e1-822d-a06444caeee2","ios":"levelo://app?vid=657806be-7db9-41e1-822d-a06444caeee2"},"vehicle_type_id":"4","last_reported":1701094012,"current_range_meters":20000,"station_id":"ce4bhq92rcd13ifvqhkg","pricing_plan_id":"free"},{"bike_id":"6526cad1-2f4b-4db1-8d6b-ce04bc407b31","system_id":"levelo_inurba_marseille","lat":43.34883,"lon":5.37501,"is_reserved":false,"is_disabled":false,"rental_uris":{"android":"levelo://app?vid=6526cad1-2f4b-4db1-8d6b-ce04bc407b31","ios":"levelo://app?vid=6526cad1-2f4b-4db1-8d6b-ce04bc407b31"},"vehicle_type_id":"4","last_reported":1701094012,"current_range_meters":0,"station_id":"","pricing_plan_id":"free"},{"bike_id":"6cc5bb2a-7931-4f98-aad1-01c79659d417","system_id":"levelo_inurba_marseille","lat":43.2762,"lon":5.36107,"is_reserved":false,"is_disabled":false,"rental_uris":{"android":"levelo://app?vid=6cc5bb2a-7931-4f98-aad1-01c79659d417","ios":"levelo://app?vid=6cc5bb2a-7931-4f98-aad1-01c79659d417"},"vehicle_type_id":"4","last_reported":1701094012,"current_range_meters":16000,"station_id":"ce4bgj92rcd13ifvqbe0","pricing_plan_id":"free"},{"bike_id":"8ea7012e-3132-4769-b4ce-fdfe8cd10282","system_id":"levelo_inurba_marseille","lat":43.2786,"lon":5.38827,"is_reserved":false,"is_disabled":false,"rental_uris":{"android":"levelo://app?vid=8ea7012e-3132-4769-b4ce-fdfe8cd10282","ios":"levelo://app?vid=8ea7012e-3132-4769-b4ce-fdfe8cd10282"},"vehicle_type_id":"4","last_reported":1701094012,"current_range_meters":4400,"station_id":"","pricing_plan_id":"free"},{"bike_id":"be9690c5-c7a1-4c76-a31f-e0ecc29f7955","system_id":"levelo_inurba_marseille","lat":43.28082,"lon":5.39662,"is_reserved":false,"is_disabled":false,"rental_uris":{"android":"levelo://app?vid=be9690c5-c7a1-4c76-a31f-e0ecc29f7955","ios":"levelo://app?vid=be9690c5-c7a1-4c76-a31f-e0ecc29f7955"},"vehicle_type_id":"4","last_reported":1701094012,"current_range_meters":13600,"station_id":"ce4bho12rcd13ifvqh2g","pricing_plan_id":"free"},{"bike_id":"e4c9ccea-0b5b-4aae-aebe-e1fbb120f3ee","system_id":"levelo_inurba_marseille","lat":43.303837,"lon":5.418724,"is_reserved":false,"is_disabled":false,"rental_uris":{"android":"levelo://app?vid=e4c9ccea-0b5b-4aae-aebe-e1fbb120f3ee","ios":"levelo://app?vid=e4c9ccea-0b5b-4aae-aebe-e1fbb120f3ee"},"vehicle_type_id":"4","last_reported":1701094012,"current_range_meters":19600,"station_id":"ce4bhop2rcd13ifvqh7g","pricing_plan_id":"free"},{"bike_id":"13efb159-cc65-4ba4-bf13-f46b2bd1323d","system_id":"levelo_inurba_marseille","lat":43.303837,"lon":5.418724,"is_reserved":false,"is_disabled":false,"rental_uris":{"android":"levelo://app?vid=13efb159-cc65-4ba4-bf13-f46b2bd1323d","ios":"levelo://app?vid=13efb159-cc65-4ba4-bf13-f46b2bd1323d"},"vehicle_type_id":"4","last_reported":1701094012,"current_range_meters":30400,"station_id":"ce4bhop2rcd13ifvqh7g","pricing_plan_id":"free"},{"bike_id":"529e1873-c67a-49df-a3f5-37d727adbcee","system_id":"levelo_inurba_marseille","lat":43.273613,"lon":5.362705,"is_reserved":false,"is_disabled":false,"rental_uris":{"android":"levelo://app?vid=529e1873-c67a-49df-a3f5-37d727adbcee","ios":"levelo://app?vid=529e1873-c67a-49df-a3f5-37d727adbcee"},"vehicle_type_id":"4","last_reported":1701094012,"current_range_meters":27600,"station_id":"ce4bhbh2rcd13ifvqeo0","pricing_plan_id":"free"},{"bike_id":"3d955af7-b7d1-4f39-8a2f-4096fce89c61","system_id":"levelo_inurba_marseille","lat":43.273609,"lon":5.362708,"is_reserved":false,"is_disabled":false,"rental_uris":{"android":"levelo://app?vid=3d955af7-b7d1-4f39-8a2f-4096fce89c61","ios":"levelo://app?vid=3d955af7-b7d1-4f39-8a2f-4096fce89c61"},"vehicle_type_id":"4","last_reported":1701094012,"current_range_meters":26000,"station_id":"ce4bhbh2rcd13ifvqeo0","pricing_plan_id":"free"},{"bike_id":"43a0b753-fb47-4881-91d9-d29a0815f06e","system_id":"levelo_inurba_marseille","lat":43.273609,"lon":5.362708,"is_reserved":false,"is_disabled":false,"rental_uris":{"android":"levelo://app?vid=43a0b753-fb47-4881-91d9-d29a0815f06e","ios":"levelo://app?vid=43a0b753-fb47-4881-91d9-d29a0815f06e"},"vehicle_type_id":"4","last_reported":1701094012,"current_range_meters":30800,"station_id":"ce4bhbh2rcd13ifvqeo0","pricing_plan_id":"free"},{"bike_id":"4e3930fc-5f31-483b-9f18-2db24cf2f60f","system_id":"levelo_inurba_marseille","lat":43.336134,"lon":5.410341,"is_reserved":false,"is_disabled":false,"rental_uris":{"android":"levelo://app?vid=4e3930fc-5f31-483b-9f18-2db24cf2f60f","ios":"levelo://app?vid=4e3930fc-5f31-483b-9f18-2db24cf2f60f"},"vehicle_type_id":"4","last_reported":1701094012,"current_range_meters":2400,"station_id":"ce4bhqh2rcd13ifvqhmg","pricing_plan_id":"free"},{"bike_id":"7328163c-88d4-4a83-b0f2-5441f4e02a38","system_id":"levelo_inurba_marseille","lat":43.279952,"lon":5.400085,"is_reserved":false,"is_disabled":false,"rental_uris":{"android":"levelo://app?vid=7328163c-88d4-4a83-b0f2-5441f4e02a38","ios":"levelo://app?vid=7328163c-88d4-4a83-b0f2-5441f4e02a38"},"vehicle_type_id":"4","last_reported":1701094012,"current_range_meters":30400,"station_id":"ce4bho92rcd13ifvqh4g","pricing_plan_id":"free"},{"bike_id":"a125db02-955d-4f26-adec-c20271593583","system_id":"levelo_inurba_marseille","lat":43.279952,"lon":5.400085,"is_reserved":false,"is_disabled":false,"rental_uris":{"android":"levelo://app?vid=a125db02-955d-4f26-adec-c20271593583","ios":"levelo://app?vid=a125db02-955d-4f26-adec-c20271593583"},"vehicle_type_id":"4","last_reported":1701094012,"current_range_meters":5200,"station_id":"ce4bho92rcd13ifvqh4g","pricing_plan_id":"free"},{"bike_id":"4f2be462-1644-4e74-9f34-050e5dac47fe","system_id":"levelo_inurba_marseille","lat":43.27993,"lon":5.4001,"is_reserved":false,"is_disabled":false,"rental_uris":{"android":"levelo://app?vid=4f2be462-1644-4e74-9f34-050e5dac47fe","ios":"levelo://app?vid=4f2be462-1644-4e74-9f34-050e5dac47fe"},"vehicle_type_id":"4","last_reported":1701094012,"current_range_meters":27600,"station_id":"ce4bho92rcd13ifvqh4g","pricing_plan_id":"free"},{"bike_id":"22fd4468-6dd3-4c60-9073-a1ad66d34f91","system_id":"levelo_inurba_marseille","lat":43.317121,"lon":5.423936,"is_reserved":false,"is_disabled":false,"rental_uris":{"android":"levelo://app?vid=22fd4468-6dd3-4c60-9073-a1ad66d34f91","ios":"levelo://app?vid=22fd4468-6dd3-4c60-9073-a1ad66d34f91"},"vehicle_type_id":"4","last_reported":1701094012,"current_range_meters":16400,"station_id":"ce4bhp92rcd13ifvqhbg","pricing_plan_id":"free"},{"bike_id":"373c1c9a-df30-4f3c-9e30-8990214f11fa","system_id":"levelo_inurba_marseille","lat":43.310785,"lon":5.424305,"is_reserved":false,"is_disabled":false,"rental_uris":{"android":"levelo://app?vid=373c1c9a-df30-4f3c-9e30-8990214f11fa","ios":"levelo://app?vid=373c1c9a-df30-4f3c-9e30-8990214f11fa"},"vehicle_type_id":"4","last_reported":1701094012,"current_range_meters":28800,"station_id":"ce4bhp92rcd13ifvqhag","pricing_plan_id":"free"},{"bike_id":"b1bad00d-4ba7-4218-829f-4bd2c4df8453","system_id":"levelo_inurba_marseille","lat":43.310785,"lon":5.424305,"is_reserved":false,"is_disabled":false,"rental_uris":{"android":"levelo://app?vid=b1bad00d-4ba7-4218-829f-4bd2c4df8453","ios":"levelo://app?vid=b1bad00d-4ba7-4218-829f-4bd2c4df8453"},"vehicle_type_id":"4","last_reported":1701094012,"current_range_meters":28800,"station_id":"ce4bhp92rcd13ifvqhag","pricing_plan_id":"free"},{"bike_id":"7179426a-ece1-4877-860f-3ef701f038cd","system_id":"levelo_inurba_marseille","lat":43.27325,"lon":5.39082,"is_reserved":false,"is_disabled":false,"rental_uris":{"android":"levelo://app?vid=7179426a-ece1-4877-860f-3ef701f038cd","ios":"levelo://app?vid=7179426a-ece1-4877-860f-3ef701f038cd"},"vehicle_type_id":"4","last_reported":1701094012,"current_range_meters":14000,"station_id":"ce4bhgp2rcd13ifvqfe0","pricing_plan_id":"free"},{"bike_id":"ea9ec6d9-21bc-482d-9aef-e677e72a3314","system_id":"levelo_inurba_marseille","lat":43.274103,"lon":5.394016,"is_reserved":false,"is_disabled":false,"rental_uris":{"android":"levelo://app?vid=ea9ec6d9-21bc-482d-9aef-e677e72a3314","ios":"levelo://app?vid=ea9ec6d9-21bc-482d-9aef-e677e72a3314"},"vehicle_type_id":"4","last_reported":1701094012,"current_range_meters":26800,"station_id":"ce4bhdp2rcd13ifvqf20","pricing_plan_id":"free"},{"bike_id":"92999649-4b74-49b5-9e40-fb8dd407395d","system_id":"levelo_inurba_marseille","lat":43.272724,"lon":5.391636,"is_reserved":false,"is_disabled":false,"rental_uris":{"android":"levelo://app?vid=92999649-4b74-49b5-9e40-fb8dd407395d","ios":"levelo://app?vid=92999649-4b74-49b5-9e40-fb8dd407395d"},"vehicle_type_id":"4","last_reported":1701094012,"current_range_meters":30000,"station_id":"","pricing_plan_id":"free"},{"bike_id":"487e8935-2222-4e65-8507-6d483307a42a","system_id":"levelo_inurba_marseille","lat":43.295511,"lon":5.422926,"is_reserved":false,"is_disabled":false,"rental_uris":{"android":"levelo://app?vid=487e8935-2222-4e65-8507-6d483307a42a","ios":"levelo://app?vid=487e8935-2222-4e65-8507-6d483307a42a"},"vehicle_type_id":"4","last_reported":1701094012,"current_range_meters":31200,"station_id":"ce4bhph2rcd13ifvqhdg","pricing_plan_id":"free"},{"bike_id":"ef9d4fc2-15fc-4d36-bbad-730b3d424927","system_id":"levelo_inurba_marseille","lat":43.29549,"lon":5.4228,"is_reserved":false,"is_disabled":false,"rental_uris":{"android":"levelo://app?vid=ef9d4fc2-15fc-4d36-bbad-730b3d424927","ios":"levelo://app?vid=ef9d4fc2-15fc-4d36-bbad-730b3d424927"},"vehicle_type_id":"4","last_reported":1701094012,"current_range_meters":16400,"station_id":"ce4bhph2rcd13ifvqhdg","pricing_plan_id":"free"},{"bike_id":"46787825-cd50-42ab-99c3-6c3a26ac265a","system_id":"levelo_inurba_marseille","lat":43.29549,"lon":5.4228,"is_reserved":false,"is_disabled":false,"rental_uris":{"android":"levelo://app?vid=46787825-cd50-42ab-99c3-6c3a26ac265a","ios":"levelo://app?vid=46787825-cd50-42ab-99c3-6c3a26ac265a"},"vehicle_type_id":"4","last_reported":1701094012,"current_range_meters":26800,"station_id":"ce4bhph2rcd13ifvqhdg","pricing_plan_id":"free"},{"bike_id":"21139d74-1775-45b8-873a-dcd423877488","system_id":"levelo_inurba_marseille","lat":43.295523,"lon":5.422926,"is_reserved":false,"is_disabled":false,"rental_uris":{"android":"levelo://app?vid=21139d74-1775-45b8-873a-dcd423877488","ios":"levelo://app?vid=21139d74-1775-45b8-873a-dcd423877488"},"vehicle_type_id":"4","last_reported":1701094012,"current_range_meters":26000,"station_id":"ce4bhph2rcd13ifvqhdg","pricing_plan_id":"free"},{"bike_id":"38605ce9-a0d7-4561-a428-2969313090c5","system_id":"levelo_inurba_marseille","lat":43.29555,"lon":5.42285,"is_reserved":false,"is_disabled":false,"rental_uris":{"android":"levelo://app?vid=38605ce9-a0d7-4561-a428-2969313090c5","ios":"levelo://app?vid=38605ce9-a0d7-4561-a428-2969313090c5"},"vehicle_type_id":"4","last_reported":1701094012,"current_range_meters":30400,"station_id":"ce4bhph2rcd13ifvqhdg","pricing_plan_id":"free"},{"bike_id":"08fe44e4-201e-4497-b2af-1597ca570ac3","system_id":"levelo_inurba_marseille","lat":43.295511,"lon":5.422926,"is_reserved":false,"is_disabled":false,"rental_uris":{"android":"levelo://app?vid=08fe44e4-201e-4497-b2af-1597ca570ac3","ios":"levelo://app?vid=08fe44e4-201e-4497-b2af-1597ca570ac3"},"vehicle_type_id":"4","last_reported":1701094012,"current_range_meters":23200,"station_id":"ce4bhph2rcd13ifvqhdg","pricing_plan_id":"free"},{"bike_id":"2afe8278-72ae-4433-86e3-46ef15a65e53","system_id":"levelo_inurba_marseille","lat":43.295527,"lon":5.42287,"is_reserved":false,"is_disabled":false,"rental_uris":{"android":"levelo://app?vid=2afe8278-72ae-4433-86e3-46ef15a65e53","ios":"levelo://app?vid=2afe8278-72ae-4433-86e3-46ef15a65e53"},"vehicle_type_id":"4","last_reported":1701094012,"current_range_meters":29200,"station_id":"ce4bhph2rcd13ifvqhdg","pricing_plan_id":"free"},{"bike_id":"fe1a0da7-ac78-4623-9b9d-9ec231e567e0","system_id":"levelo_inurba_marseille","lat":43.295518,"lon":5.422873,"is_reserved":false,"is_disabled":false,"rental_uris":{"android":"levelo://app?vid=fe1a0da7-ac78-4623-9b9d-9ec231e567e0","ios":"levelo://app?vid=fe1a0da7-ac78-4623-9b9d-9ec231e567e0"},"vehicle_type_id":"4","last_reported":1701094012,"current_range_meters":25200,"station_id":"ce4bhph2rcd13ifvqhdg","pricing_plan_id":"free"},{"bike_id":"b1b78d16-7343-4dce-aa27-1d5ee41950af","system_id":"levelo_inurba_marseille","lat":43.29544,"lon":5.42287,"is_reserved":false,"is_disabled":false,"rental_uris":{"android":"levelo://app?vid=b1b78d16-7343-4dce-aa27-1d5ee41950af","ios":"levelo://app?vid=b1b78d16-7343-4dce-aa27-1d5ee41950af"},"vehicle_type_id":"4","last_reported":1701094012,"current_range_meters":23600,"station_id":"ce4bhph2rcd13ifvqhdg","pricing_plan_id":"free"},{"bike_id":"9efe761d-4b17-4e3f-a49f-4e76c8ea96ba","system_id":"levelo_inurba_marseille","lat":43.27209,"lon":5.39116,"is_reserved":false,"is_disabled":false,"rental_uris":{"android":"levelo://app?vid=9efe761d-4b17-4e3f-a49f-4e76c8ea96ba","ios":"levelo://app?vid=9efe761d-4b17-4e3f-a49f-4e76c8ea96ba"},"vehicle_type_id":"4","last_reported":1701094012,"current_range_meters":21600,"station_id":"ce4bhhp2rcd13ifvqfm0","pricing_plan_id":"free"},{"bike_id":"11c530ef-3a1e-4341-9786-f43509d01bc1","system_id":"levelo_inurba_marseille","lat":43.29794,"lon":5.42658,"is_reserved":false,"is_disabled":false,"rental_uris":{"android":"levelo://app?vid=11c530ef-3a1e-4341-9786-f43509d01bc1","ios":"levelo://app?vid=11c530ef-3a1e-4341-9786-f43509d01bc1"},"vehicle_type_id":"4","last_reported":1701094012,"current_range_meters":0,"station_id":"","pricing_plan_id":"free"},{"bike_id":"3ec9377b-2879-4cd2-bd53-cedfbd5c78fd","system_id":"levelo_inurba_marseille","lat":43.269319,"lon":5.389397,"is_reserved":false,"is_disabled":false,"rental_uris":{"android":"levelo://app?vid=3ec9377b-2879-4cd2-bd53-cedfbd5c78fd","ios":"levelo://app?vid=3ec9377b-2879-4cd2-bd53-cedfbd5c78fd"},"vehicle_type_id":"4","last_reported":1701094012,"current_range_meters":30800,"station_id":"ce4bhhh2rcd13ifvqfl0","pricing_plan_id":"free"},{"bike_id":"f3f20fbe-d959-47c7-8ad3-6e10dd4e108b","system_id":"levelo_inurba_marseille","lat":43.269319,"lon":5.389397,"is_reserved":false,"is_disabled":false,"rental_uris":{"android":"levelo://app?vid=f3f20fbe-d959-47c7-8ad3-6e10dd4e108b","ios":"levelo://app?vid=f3f20fbe-d959-47c7-8ad3-6e10dd4e108b"},"vehicle_type_id":"4","last_reported":1701094012,"current_range_meters":18800,"station_id":"ce4bhhh2rcd13ifvqfl0","pricing_plan_id":"free"},{"bike_id":"85e14555-81ae-4c2b-bb64-c7d65db3d5a9","system_id":"levelo_inurba_marseille","lat":43.26681,"lon":5.382694,"is_reserved":false,"is_disabled":false,"rental_uris":{"android":"levelo://app?vid=85e14555-81ae-4c2b-bb64-c7d65db3d5a9","ios":"levelo://app?vid=85e14555-81ae-4c2b-bb64-c7d65db3d5a9"},"vehicle_type_id":"4","last_reported":1701094012,"current_range_meters":30000,"station_id":"ce4bhg92rcd13ifvqf90","pricing_plan_id":"free"},{"bike_id":"3f118269-40dc-4f43-80d2-9f0573bdf414","system_id":"levelo_inurba_marseille","lat":43.26681,"lon":5.382694,"is_reserved":false,"is_disabled":false,"rental_uris":{"android":"levelo://app?vid=3f118269-40dc-4f43-80d2-9f0573bdf414","ios":"levelo://app?vid=3f118269-40dc-4f43-80d2-9f0573bdf414"},"vehicle_type_id":"4","last_reported":1701094012,"current_range_meters":25200,"station_id":"ce4bhg92rcd13ifvqf90","pricing_plan_id":"free"},{"bike_id":"e4b68f4a-2ca1-49c2-936e-c6a93135be9a","system_id":"levelo_inurba_marseille","lat":43.26681,"lon":5.382694,"is_reserved":false,"is_disabled":false,"rental_uris":{"android":"levelo://app?vid=e4b68f4a-2ca1-49c2-936e-c6a93135be9a","ios":"levelo://app?vid=e4b68f4a-2ca1-49c2-936e-c6a93135be9a"},"vehicle_type_id":"4","last_reported":1701094012,"current_range_meters":31200,"station_id":"ce4bhg92rcd13ifvqf90","pricing_plan_id":"free"},{"bike_id":"037156c7-a88c-4596-a3d5-0d4f249b58d0","system_id":"levelo_inurba_marseille","lat":43.26553,"lon":5.37284,"is_reserved":false,"is_disabled":false,"rental_uris":{"android":"levelo://app?vid=037156c7-a88c-4596-a3d5-0d4f249b58d0","ios":"levelo://app?vid=037156c7-a88c-4596-a3d5-0d4f249b58d0"},"vehicle_type_id":"4","last_reported":1701094012,"current_range_meters":22800,"station_id":"ce4bhg12rcd13ifvqf70","pricing_plan_id":"free"},{"bike_id":"f23d8119-b478-4639-98c5-6883279f9f84","system_id":"levelo_inurba_marseille","lat":43.32592,"lon":5.43067,"is_reserved":false,"is_disabled":false,"rental_uris":{"android":"levelo://app?vid=f23d8119-b478-4639-98c5-6883279f9f84","ios":"levelo://app?vid=f23d8119-b478-4639-98c5-6883279f9f84"},"vehicle_type_id":"4","last_reported":1701094012,"current_range_meters":18800,"station_id":"","pricing_plan_id":"free"},{"bike_id":"ed30d6a1-b23a-49e5-9c83-5546be72a734","system_id":"levelo_inurba_marseille","lat":43.3259,"lon":5.43075,"is_reserved":false,"is_disabled":false,"rental_uris":{"android":"levelo://app?vid=ed30d6a1-b23a-49e5-9c83-5546be72a734","ios":"levelo://app?vid=ed30d6a1-b23a-49e5-9c83-5546be72a734"},"vehicle_type_id":"4","last_reported":1701094012,"current_range_meters":13600,"station_id":"","pricing_plan_id":"free"},{"bike_id":"d67469ee-5362-4610-a163-fe05ae3cf4f7","system_id":"levelo_inurba_marseille","lat":43.32604,"lon":5.430817,"is_reserved":false,"is_disabled":false,"rental_uris":{"android":"levelo://app?vid=d67469ee-5362-4610-a163-fe05ae3cf4f7","ios":"levelo://app?vid=d67469ee-5362-4610-a163-fe05ae3cf4f7"},"vehicle_type_id":"4","last_reported":1701094012,"current_range_meters":2000,"station_id":"","pricing_plan_id":"free"},{"bike_id":"5986dab0-7b77-4674-8135-17288066df9b","system_id":"levelo_inurba_marseille","lat":43.27541,"lon":5.40951,"is_reserved":false,"is_disabled":false,"rental_uris":{"android":"levelo://app?vid=5986dab0-7b77-4674-8135-17288066df9b","ios":"levelo://app?vid=5986dab0-7b77-4674-8135-17288066df9b"},"vehicle_type_id":"4","last_reported":1701094012,"current_range_meters":18000,"station_id":"","pricing_plan_id":"free"},{"bike_id":"28afb6fe-95f6-4214-82ae-24a6d45f4b3c","system_id":"levelo_inurba_marseille","lat":43.27996,"lon":5.416624,"is_reserved":false,"is_disabled":false,"rental_uris":{"android":"levelo://app?vid=28afb6fe-95f6-4214-82ae-24a6d45f4b3c","ios":"levelo://app?vid=28afb6fe-95f6-4214-82ae-24a6d45f4b3c"},"vehicle_type_id":"4","last_reported":1701094012,"current_range_meters":26000,"station_id":"ce4bho12rcd13ifvqh1g","pricing_plan_id":"free"},{"bike_id":"acc92502-dd6e-440b-bf84-67c42a64736a","system_id":"levelo_inurba_marseille","lat":43.265714,"lon":5.372891,"is_reserved":false,"is_disabled":false,"rental_uris":{"android":"levelo://app?vid=acc92502-dd6e-440b-bf84-67c42a64736a","ios":"levelo://app?vid=acc92502-dd6e-440b-bf84-67c42a64736a"},"vehicle_type_id":"4","last_reported":1701094012,"current_range_meters":16000,"station_id":"ce4bhg12rcd13ifvqf70","pricing_plan_id":"free"},{"bike_id":"390b9c9c-2fea-4ec8-8755-221dda282e17","system_id":"levelo_inurba_marseille","lat":43.267966,"lon":5.393976,"is_reserved":false,"is_disabled":false,"rental_uris":{"android":"levelo://app?vid=390b9c9c-2fea-4ec8-8755-221dda282e17","ios":"levelo://app?vid=390b9c9c-2fea-4ec8-8755-221dda282e17"},"vehicle_type_id":"4","last_reported":1701094012,"current_range_meters":20000,"station_id":"ce4bhh12rcd13ifvqfg0","pricing_plan_id":"free"},{"bike_id":"dc70dda3-5a53-4b11-af38-f8a0919d8a24","system_id":"levelo_inurba_marseille","lat":43.267966,"lon":5.393976,"is_reserved":false,"is_disabled":false,"rental_uris":{"android":"levelo://app?vid=dc70dda3-5a53-4b11-af38-f8a0919d8a24","ios":"levelo://app?vid=dc70dda3-5a53-4b11-af38-f8a0919d8a24"},"vehicle_type_id":"4","last_reported":1701094012,"current_range_meters":19600,"station_id":"ce4bhh12rcd13ifvqfg0","pricing_plan_id":"free"},{"bike_id":"cb4aea11-874c-4aed-be56-4192ba287080","system_id":"levelo_inurba_marseille","lat":43.26566,"lon":5.39015,"is_reserved":false,"is_disabled":false,"rental_uris":{"android":"levelo://app?vid=cb4aea11-874c-4aed-be56-4192ba287080","ios":"levelo://app?vid=cb4aea11-874c-4aed-be56-4192ba287080"},"vehicle_type_id":"4","last_reported":1701094012,"current_range_meters":0,"station_id":"ce4bhe12rcd13ifvqf30","pricing_plan_id":"free"},{"bike_id":"cca5e2dc-d4af-4678-9432-5b34ff076cb7","system_id":"levelo_inurba_marseille","lat":43.26562,"lon":5.39009,"is_reserved":false,"is_disabled":false,"rental_uris":{"android":"levelo://app?vid=cca5e2dc-d4af-4678-9432-5b34ff076cb7","ios":"levelo://app?vid=cca5e2dc-d4af-4678-9432-5b34ff076cb7"},"vehicle_type_id":"4","last_reported":1701094012,"current_range_meters":4000,"station_id":"ce4bhe12rcd13ifvqf30","pricing_plan_id":"free"},{"bike_id":"1aedea6d-b001-47bb-aa2c-772859c03586","system_id":"levelo_inurba_marseille","lat":43.26949,"lon":5.40262,"is_reserved":false,"is_disabled":false,"rental_uris":{"android":"levelo://app?vid=1aedea6d-b001-47bb-aa2c-772859c03586","ios":"levelo://app?vid=1aedea6d-b001-47bb-aa2c-772859c03586"},"vehicle_type_id":"4","last_reported":1701094012,"current_range_meters":20000,"station_id":"cjm6bp8fraef2m0cb0m0","pricing_plan_id":"free"},{"bike_id":"c2a7ec8c-6ff0-40a1-a672-8737d777b9f7","system_id":"levelo_inurba_marseille","lat":43.26949,"lon":5.40262,"is_reserved":false,"is_disabled":false,"rental_uris":{"android":"levelo://app?vid=c2a7ec8c-6ff0-40a1-a672-8737d777b9f7","ios":"levelo://app?vid=c2a7ec8c-6ff0-40a1-a672-8737d777b9f7"},"vehicle_type_id":"4","last_reported":1701094012,"current_range_meters":9600,"station_id":"cjm6bp8fraef2m0cb0m0","pricing_plan_id":"free"},{"bike_id":"0a4f731c-3eb7-4528-bc5f-67f098acc892","system_id":"levelo_inurba_marseille","lat":43.26934,"lon":5.40254,"is_reserved":false,"is_disabled":false,"rental_uris":{"android":"levelo://app?vid=0a4f731c-3eb7-4528-bc5f-67f098acc892","ios":"levelo://app?vid=0a4f731c-3eb7-4528-bc5f-67f098acc892"},"vehicle_type_id":"4","last_reported":1701094012,"current_range_meters":13200,"station_id":"cjm6bp8fraef2m0cb0m0","pricing_plan_id":"free"},{"bike_id":"d0510501-6244-4a65-90f0-44980fe6afd0","system_id":"levelo_inurba_marseille","lat":43.262012,"lon":5.379307,"is_reserved":false,"is_disabled":false,"rental_uris":{"android":"levelo://app?vid=d0510501-6244-4a65-90f0-44980fe6afd0","ios":"levelo://app?vid=d0510501-6244-4a65-90f0-44980fe6afd0"},"vehicle_type_id":"4","last_reported":1701094012,"current_range_meters":24800,"station_id":"ce4bhjp2rcd13ifvqg90","pricing_plan_id":"free"},{"bike_id":"7c5a83ac-336c-4b91-a5ea-82b3c6d6127d","system_id":"levelo_inurba_marseille","lat":43.298768,"lon":5.43643,"is_reserved":false,"is_disabled":false,"rental_uris":{"android":"levelo://app?vid=7c5a83ac-336c-4b91-a5ea-82b3c6d6127d","ios":"levelo://app?vid=7c5a83ac-336c-4b91-a5ea-82b3c6d6127d"},"vehicle_type_id":"4","last_reported":1701094012,"current_range_meters":31200,"station_id":"ce4bhpp2rcd13ifvqhfg","pricing_plan_id":"free"},{"bike_id":"9713bde9-c9a7-4d76-bb95-dac32047e32a","system_id":"levelo_inurba_marseille","lat":43.298768,"lon":5.43643,"is_reserved":false,"is_disabled":false,"rental_uris":{"android":"levelo://app?vid=9713bde9-c9a7-4d76-bb95-dac32047e32a","ios":"levelo://app?vid=9713bde9-c9a7-4d76-bb95-dac32047e32a"},"vehicle_type_id":"4","last_reported":1701094012,"current_range_meters":30000,"station_id":"ce4bhpp2rcd13ifvqhfg","pricing_plan_id":"free"},{"bike_id":"f4f2e1d5-dafa-412d-9b3a-3611814786ce","system_id":"levelo_inurba_marseille","lat":43.298768,"lon":5.43643,"is_reserved":false,"is_disabled":false,"rental_uris":{"android":"levelo://app?vid=f4f2e1d5-dafa-412d-9b3a-3611814786ce","ios":"levelo://app?vid=f4f2e1d5-dafa-412d-9b3a-3611814786ce"},"vehicle_type_id":"4","last_reported":1701094012,"current_range_meters":31200,"station_id":"ce4bhpp2rcd13ifvqhfg","pricing_plan_id":"free"},{"bike_id":"9c01e200-58da-4537-8fa5-2e03c9ec15fb","system_id":"levelo_inurba_marseille","lat":43.298768,"lon":5.43643,"is_reserved":false,"is_disabled":false,"rental_uris":{"android":"levelo://app?vid=9c01e200-58da-4537-8fa5-2e03c9ec15fb","ios":"levelo://app?vid=9c01e200-58da-4537-8fa5-2e03c9ec15fb"},"vehicle_type_id":"4","last_reported":1701094012,"current_range_meters":14800,"station_id":"ce4bhpp2rcd13ifvqhfg","pricing_plan_id":"free"},{"bike_id":"df86183c-2087-436f-9bdd-29ed82a32076","system_id":"levelo_inurba_marseille","lat":43.298768,"lon":5.43643,"is_reserved":false,"is_disabled":false,"rental_uris":{"android":"levelo://app?vid=df86183c-2087-436f-9bdd-29ed82a32076","ios":"levelo://app?vid=df86183c-2087-436f-9bdd-29ed82a32076"},"vehicle_type_id":"4","last_reported":1701094012,"current_range_meters":29600,"station_id":"ce4bhpp2rcd13ifvqhfg","pricing_plan_id":"free"},{"bike_id":"a1278ac8-9b0c-43c6-94f2-1b271c3a41be","system_id":"levelo_inurba_marseille","lat":43.281548,"lon":5.42643,"is_reserved":false,"is_disabled":false,"rental_uris":{"android":"levelo://app?vid=a1278ac8-9b0c-43c6-94f2-1b271c3a41be","ios":"levelo://app?vid=a1278ac8-9b0c-43c6-94f2-1b271c3a41be"},"vehicle_type_id":"4","last_reported":1701094012,"current_range_meters":22400,"station_id":"ce4bhnh2rcd13ifvqgug","pricing_plan_id":"free"},{"bike_id":"01a4df9a-3964-4132-b843-d8e603b41275","system_id":"levelo_inurba_marseille","lat":43.281548,"lon":5.42643,"is_reserved":false,"is_disabled":false,"rental_uris":{"android":"levelo://app?vid=01a4df9a-3964-4132-b843-d8e603b41275","ios":"levelo://app?vid=01a4df9a-3964-4132-b843-d8e603b41275"},"vehicle_type_id":"4","last_reported":1701094012,"current_range_meters":10000,"station_id":"ce4bhnh2rcd13ifvqgug","pricing_plan_id":"free"},{"bike_id":"e23b723f-548a-48e5-96f6-5b49167940a2","system_id":"levelo_inurba_marseille","lat":43.281548,"lon":5.42643,"is_reserved":false,"is_disabled":false,"rental_uris":{"android":"levelo://app?vid=e23b723f-548a-48e5-96f6-5b49167940a2","ios":"levelo://app?vid=e23b723f-548a-48e5-96f6-5b49167940a2"},"vehicle_type_id":"4","last_reported":1701094012,"current_range_meters":31200,"station_id":"ce4bhnh2rcd13ifvqgug","pricing_plan_id":"free"},{"bike_id":"f5487371-dbab-4ae8-8b48-a46fcfb6789c","system_id":"levelo_inurba_marseille","lat":43.281548,"lon":5.42643,"is_reserved":false,"is_disabled":false,"rental_uris":{"android":"levelo://app?vid=f5487371-dbab-4ae8-8b48-a46fcfb6789c","ios":"levelo://app?vid=f5487371-dbab-4ae8-8b48-a46fcfb6789c"},"vehicle_type_id":"4","last_reported":1701094012,"current_range_meters":29600,"station_id":"ce4bhnh2rcd13ifvqgug","pricing_plan_id":"free"},{"bike_id":"f0367da5-1f14-4a04-aa35-c11468a068a1","system_id":"levelo_inurba_marseille","lat":43.2607,"lon":5.393983,"is_reserved":false,"is_disabled":false,"rental_uris":{"android":"levelo://app?vid=f0367da5-1f14-4a04-aa35-c11468a068a1","ios":"levelo://app?vid=f0367da5-1f14-4a04-aa35-c11468a068a1"},"vehicle_type_id":"4","last_reported":1701094012,"current_range_meters":17200,"station_id":"ce4bhh92rcd13ifvqfj0","pricing_plan_id":"free"},{"bike_id":"81dd8d55-76ce-4385-8abb-043e706ef176","system_id":"levelo_inurba_marseille","lat":43.2607,"lon":5.393983,"is_reserved":false,"is_disabled":false,"rental_uris":{"android":"levelo://app?vid=81dd8d55-76ce-4385-8abb-043e706ef176","ios":"levelo://app?vid=81dd8d55-76ce-4385-8abb-043e706ef176"},"vehicle_type_id":"4","last_reported":1701094012,"current_range_meters":25600,"station_id":"ce4bhh92rcd13ifvqfj0","pricing_plan_id":"free"},{"bike_id":"a64a4b70-e7e1-4535-a46a-64b992c0b24e","system_id":"levelo_inurba_marseille","lat":43.2607,"lon":5.393983,"is_reserved":false,"is_disabled":false,"rental_uris":{"android":"levelo://app?vid=a64a4b70-e7e1-4535-a46a-64b992c0b24e","ios":"levelo://app?vid=a64a4b70-e7e1-4535-a46a-64b992c0b24e"},"vehicle_type_id":"4","last_reported":1701094012,"current_range_meters":31200,"station_id":"ce4bhh92rcd13ifvqfj0","pricing_plan_id":"free"},{"bike_id":"155eb1f4-e4ff-4151-870f-9f53e6430e9c","system_id":"levelo_inurba_marseille","lat":43.275028,"lon":5.424534,"is_reserved":false,"is_disabled":false,"rental_uris":{"android":"levelo://app?vid=155eb1f4-e4ff-4151-870f-9f53e6430e9c","ios":"levelo://app?vid=155eb1f4-e4ff-4151-870f-9f53e6430e9c"},"vehicle_type_id":"4","last_reported":1701094012,"current_range_meters":31200,"station_id":"ce4bhn92rcd13ifvqgrg","pricing_plan_id":"free"},{"bike_id":"b6de5f44-50fa-433f-ac99-5954c0ada6f7","system_id":"levelo_inurba_marseille","lat":43.260909,"lon":5.397591,"is_reserved":false,"is_disabled":false,"rental_uris":{"android":"levelo://app?vid=b6de5f44-50fa-433f-ac99-5954c0ada6f7","ios":"levelo://app?vid=b6de5f44-50fa-433f-ac99-5954c0ada6f7"},"vehicle_type_id":"4","last_reported":1701094012,"current_range_meters":16400,"station_id":"ce4bhi12rcd13ifvqfq0","pricing_plan_id":"free"},{"bike_id":"c597dfd4-0172-42b0-a895-f62cf9a76a09","system_id":"levelo_inurba_marseille","lat":43.2609,"lon":5.39761,"is_reserved":false,"is_disabled":false,"rental_uris":{"android":"levelo://app?vid=c597dfd4-0172-42b0-a895-f62cf9a76a09","ios":"levelo://app?vid=c597dfd4-0172-42b0-a895-f62cf9a76a09"},"vehicle_type_id":"4","last_reported":1701094012,"current_range_meters":6000,"station_id":"ce4bhi12rcd13ifvqfq0","pricing_plan_id":"free"},{"bike_id":"cc58797a-8da7-436c-9264-a7526f3dba5b","system_id":"levelo_inurba_marseille","lat":43.274935,"lon":5.424565,"is_reserved":false,"is_disabled":false,"rental_uris":{"android":"levelo://app?vid=cc58797a-8da7-436c-9264-a7526f3dba5b","ios":"levelo://app?vid=cc58797a-8da7-436c-9264-a7526f3dba5b"},"vehicle_type_id":"4","last_reported":1701094012,"current_range_meters":14800,"station_id":"ce4bhn92rcd13ifvqgrg","pricing_plan_id":"free"},{"bike_id":"b0f02c84-1ada-4d05-b86b-b10ba168d322","system_id":"levelo_inurba_marseille","lat":43.27492,"lon":5.42459,"is_reserved":false,"is_disabled":false,"rental_uris":{"android":"levelo://app?vid=b0f02c84-1ada-4d05-b86b-b10ba168d322","ios":"levelo://app?vid=b0f02c84-1ada-4d05-b86b-b10ba168d322"},"vehicle_type_id":"4","last_reported":1701094012,"current_range_meters":8400,"station_id":"ce4bhn92rcd13ifvqgrg","pricing_plan_id":"free"},{"bike_id":"c2eeab1c-5d99-4c53-af08-16cb62e7d408","system_id":"levelo_inurba_marseille","lat":43.260909,"lon":5.397591,"is_reserved":false,"is_disabled":false,"rental_uris":{"android":"levelo://app?vid=c2eeab1c-5d99-4c53-af08-16cb62e7d408","ios":"levelo://app?vid=c2eeab1c-5d99-4c53-af08-16cb62e7d408"},"vehicle_type_id":"4","last_reported":1701094012,"current_range_meters":8400,"station_id":"ce4bhi12rcd13ifvqfq0","pricing_plan_id":"free"},{"bike_id":"c85f7616-3a9e-47a4-ae16-28a03e51ab4f","system_id":"levelo_inurba_marseille","lat":43.28929,"lon":5.438754,"is_reserved":false,"is_disabled":false,"rental_uris":{"android":"levelo://app?vid=c85f7616-3a9e-47a4-ae16-28a03e51ab4f","ios":"levelo://app?vid=c85f7616-3a9e-47a4-ae16-28a03e51ab4f"},"vehicle_type_id":"4","last_reported":1701094012,"current_range_meters":7200,"station_id":"","pricing_plan_id":"free"},{"bike_id":"d1cf0b76-5c28-4642-99f0-f169aa78efca","system_id":"levelo_inurba_marseille","lat":43.255775,"lon":5.38235,"is_reserved":false,"is_disabled":false,"rental_uris":{"android":"levelo://app?vid=d1cf0b76-5c28-4642-99f0-f169aa78efca","ios":"levelo://app?vid=d1cf0b76-5c28-4642-99f0-f169aa78efca"},"vehicle_type_id":"4","last_reported":1701094012,"current_range_meters":22400,"station_id":"ce4bhih2rcd13ifvqfs0","pricing_plan_id":"free"},{"bike_id":"370d0558-5b34-4052-b258-b86676cebe50","system_id":"levelo_inurba_marseille","lat":43.258224,"lon":5.394369,"is_reserved":false,"is_disabled":false,"rental_uris":{"android":"levelo://app?vid=370d0558-5b34-4052-b258-b86676cebe50","ios":"levelo://app?vid=370d0558-5b34-4052-b258-b86676cebe50"},"vehicle_type_id":"4","last_reported":1701094012,"current_range_meters":22400,"station_id":"ce4bhip2rcd13ifvqft0","pricing_plan_id":"free"},{"bike_id":"b7ad3471-3db5-40ae-97d3-0ce4984ee4b4","system_id":"levelo_inurba_marseille","lat":43.258224,"lon":5.394369,"is_reserved":false,"is_disabled":false,"rental_uris":{"android":"levelo://app?vid=b7ad3471-3db5-40ae-97d3-0ce4984ee4b4","ios":"levelo://app?vid=b7ad3471-3db5-40ae-97d3-0ce4984ee4b4"},"vehicle_type_id":"4","last_reported":1701094012,"current_range_meters":29200,"station_id":"ce4bhip2rcd13ifvqft0","pricing_plan_id":"free"},{"bike_id":"852d7d5e-d323-45c7-8758-098582c5478b","system_id":"levelo_inurba_marseille","lat":43.254947,"lon":5.376454,"is_reserved":false,"is_disabled":false,"rental_uris":{"android":"levelo://app?vid=852d7d5e-d323-45c7-8758-098582c5478b","ios":"levelo://app?vid=852d7d5e-d323-45c7-8758-098582c5478b"},"vehicle_type_id":"4","last_reported":1701094012,"current_range_meters":26000,"station_id":"ce4bhh12rcd13ifvqff0","pricing_plan_id":"free"},{"bike_id":"fa94e1b3-924d-484c-aa3a-070aacbdbbfd","system_id":"levelo_inurba_marseille","lat":43.2707,"lon":5.42277,"is_reserved":false,"is_disabled":false,"rental_uris":{"android":"levelo://app?vid=fa94e1b3-924d-484c-aa3a-070aacbdbbfd","ios":"levelo://app?vid=fa94e1b3-924d-484c-aa3a-070aacbdbbfd"},"vehicle_type_id":"4","last_reported":1701094012,"current_range_meters":24400,"station_id":"ce4bhk92rcd13ifvqgb0","pricing_plan_id":"free"},{"bike_id":"6001da6e-607d-42c0-9467-1936910f27e6","system_id":"levelo_inurba_marseille","lat":43.270721,"lon":5.422764,"is_reserved":false,"is_disabled":false,"rental_uris":{"android":"levelo://app?vid=6001da6e-607d-42c0-9467-1936910f27e6","ios":"levelo://app?vid=6001da6e-607d-42c0-9467-1936910f27e6"},"vehicle_type_id":"4","last_reported":1701094012,"current_range_meters":1200,"station_id":"ce4bhk92rcd13ifvqgb0","pricing_plan_id":"free"},{"bike_id":"c6403408-c03d-4a33-8066-445b4460a28e","system_id":"levelo_inurba_marseille","lat":43.270721,"lon":5.422764,"is_reserved":false,"is_disabled":false,"rental_uris":{"android":"levelo://app?vid=c6403408-c03d-4a33-8066-445b4460a28e","ios":"levelo://app?vid=c6403408-c03d-4a33-8066-445b4460a28e"},"vehicle_type_id":"4","last_reported":1701094012,"current_range_meters":30400,"station_id":"ce4bhk92rcd13ifvqgb0","pricing_plan_id":"free"},{"bike_id":"8996178d-25f0-40d2-947b-1feb5661f950","system_id":"levelo_inurba_marseille","lat":43.259013,"lon":5.409301,"is_reserved":false,"is_disabled":false,"rental_uris":{"android":"levelo://app?vid=8996178d-25f0-40d2-947b-1feb5661f950","ios":"levelo://app?vid=8996178d-25f0-40d2-947b-1feb5661f950"},"vehicle_type_id":"4","last_reported":1701094012,"current_range_meters":15600,"station_id":"ce4bhm92rcd13ifvqglg","pricing_plan_id":"free"},{"bike_id":"d80cffa5-e43b-41ec-9e44-46353fc74d12","system_id":"levelo_inurba_marseille","lat":43.259013,"lon":5.409301,"is_reserved":false,"is_disabled":false,"rental_uris":{"android":"levelo://app?vid=d80cffa5-e43b-41ec-9e44-46353fc74d12","ios":"levelo://app?vid=d80cffa5-e43b-41ec-9e44-46353fc74d12"},"vehicle_type_id":"4","last_reported":1701094012,"current_range_meters":4000,"station_id":"ce4bhm92rcd13ifvqglg","pricing_plan_id":"free"},{"bike_id":"d887801b-e995-469c-973f-ffa672bad8e6","system_id":"levelo_inurba_marseille","lat":43.25932,"lon":5.40918,"is_reserved":false,"is_disabled":false,"rental_uris":{"android":"levelo://app?vid=d887801b-e995-469c-973f-ffa672bad8e6","ios":"levelo://app?vid=d887801b-e995-469c-973f-ffa672bad8e6"},"vehicle_type_id":"4","last_reported":1701094012,"current_range_meters":14400,"station_id":"ce4bhm92rcd13ifvqglg","pricing_plan_id":"free"},{"bike_id":"b352fe19-6842-445d-8a5a-33b129452ef7","system_id":"levelo_inurba_marseille","lat":43.257079,"lon":5.411051,"is_reserved":false,"is_disabled":false,"rental_uris":{"android":"levelo://app?vid=b352fe19-6842-445d-8a5a-33b129452ef7","ios":"levelo://app?vid=b352fe19-6842-445d-8a5a-33b129452ef7"},"vehicle_type_id":"4","last_reported":1701094012,"current_range_meters":30800,"station_id":"ce4bhkp2rcd13ifvqgd0","pricing_plan_id":"free"},{"bike_id":"41fb1711-bba5-415a-8a48-893ff73d091b","system_id":"levelo_inurba_marseille","lat":43.250009,"lon":5.389195,"is_reserved":false,"is_disabled":false,"rental_uris":{"android":"levelo://app?vid=41fb1711-bba5-415a-8a48-893ff73d091b","ios":"levelo://app?vid=41fb1711-bba5-415a-8a48-893ff73d091b"},"vehicle_type_id":"4","last_reported":1701094012,"current_range_meters":28400,"station_id":"ce4bhgp2rcd13ifvqfd0","pricing_plan_id":"free"},{"bike_id":"784b99df-472c-4951-8a3f-820e36508ebe","system_id":"levelo_inurba_marseille","lat":43.250023,"lon":5.38919,"is_reserved":false,"is_disabled":false,"rental_uris":{"android":"levelo://app?vid=784b99df-472c-4951-8a3f-820e36508ebe","ios":"levelo://app?vid=784b99df-472c-4951-8a3f-820e36508ebe"},"vehicle_type_id":"4","last_reported":1701094012,"current_range_meters":4800,"station_id":"ce4bhgp2rcd13ifvqfd0","pricing_plan_id":"free"},{"bike_id":"ddac90df-55ea-4184-8e68-30a37c2a337f","system_id":"levelo_inurba_marseille","lat":43.2479,"lon":5.374457,"is_reserved":false,"is_disabled":false,"rental_uris":{"android":"levelo://app?vid=ddac90df-55ea-4184-8e68-30a37c2a337f","ios":"levelo://app?vid=ddac90df-55ea-4184-8e68-30a37c2a337f"},"vehicle_type_id":"4","last_reported":1701094012,"current_range_meters":6400,"station_id":"ce4bhgh2rcd13ifvqfb0","pricing_plan_id":"free"},{"bike_id":"e700eeaa-c69f-4344-9393-dd49f5b54086","system_id":"levelo_inurba_marseille","lat":43.2479,"lon":5.374457,"is_reserved":false,"is_disabled":false,"rental_uris":{"android":"levelo://app?vid=e700eeaa-c69f-4344-9393-dd49f5b54086","ios":"levelo://app?vid=e700eeaa-c69f-4344-9393-dd49f5b54086"},"vehicle_type_id":"4","last_reported":1701094012,"current_range_meters":30000,"station_id":"ce4bhgh2rcd13ifvqfb0","pricing_plan_id":"free"},{"bike_id":"0ae19176-f223-486c-a861-d89e41c1eeec","system_id":"levelo_inurba_marseille","lat":43.250009,"lon":5.389195,"is_reserved":false,"is_disabled":false,"rental_uris":{"android":"levelo://app?vid=0ae19176-f223-486c-a861-d89e41c1eeec","ios":"levelo://app?vid=0ae19176-f223-486c-a861-d89e41c1eeec"},"vehicle_type_id":"4","last_reported":1701094012,"current_range_meters":10000,"station_id":"ce4bhgp2rcd13ifvqfd0","pricing_plan_id":"free"},{"bike_id":"4c0c3118-7eaa-4ebd-8d87-d449bea3e021","system_id":"levelo_inurba_marseille","lat":43.250897,"lon":5.395161,"is_reserved":false,"is_disabled":false,"rental_uris":{"android":"levelo://app?vid=4c0c3118-7eaa-4ebd-8d87-d449bea3e021","ios":"levelo://app?vid=4c0c3118-7eaa-4ebd-8d87-d449bea3e021"},"vehicle_type_id":"4","last_reported":1701094012,"current_range_meters":20400,"station_id":"ce4bhm12rcd13ifvqgkg","pricing_plan_id":"free"},{"bike_id":"3e30ae6a-daca-4eb9-94fd-ebdb8e2e6e1a","system_id":"levelo_inurba_marseille","lat":43.250966,"lon":5.395186,"is_reserved":false,"is_disabled":false,"rental_uris":{"android":"levelo://app?vid=3e30ae6a-daca-4eb9-94fd-ebdb8e2e6e1a","ios":"levelo://app?vid=3e30ae6a-daca-4eb9-94fd-ebdb8e2e6e1a"},"vehicle_type_id":"4","last_reported":1701094012,"current_range_meters":23200,"station_id":"ce4bhm12rcd13ifvqgkg","pricing_plan_id":"free"},{"bike_id":"6ec47fb9-7f4c-4d8b-8761-810cb9b0e8e3","system_id":"levelo_inurba_marseille","lat":43.250966,"lon":5.395186,"is_reserved":false,"is_disabled":false,"rental_uris":{"android":"levelo://app?vid=6ec47fb9-7f4c-4d8b-8761-810cb9b0e8e3","ios":"levelo://app?vid=6ec47fb9-7f4c-4d8b-8761-810cb9b0e8e3"},"vehicle_type_id":"4","last_reported":1701094012,"current_range_meters":21600,"station_id":"ce4bhm12rcd13ifvqgkg","pricing_plan_id":"free"},{"bike_id":"ee245b01-0267-40f5-882d-2d5fab74b768","system_id":"levelo_inurba_marseille","lat":43.250966,"lon":5.395186,"is_reserved":false,"is_disabled":false,"rental_uris":{"android":"levelo://app?vid=ee245b01-0267-40f5-882d-2d5fab74b768","ios":"levelo://app?vid=ee245b01-0267-40f5-882d-2d5fab74b768"},"vehicle_type_id":"4","last_reported":1701094012,"current_range_meters":8400,"station_id":"ce4bhm12rcd13ifvqgkg","pricing_plan_id":"free"},{"bike_id":"4bd988c7-a8cd-4957-9b89-67885582f9a5","system_id":"levelo_inurba_marseille","lat":43.25102,"lon":5.403214,"is_reserved":false,"is_disabled":false,"rental_uris":{"android":"levelo://app?vid=4bd988c7-a8cd-4957-9b89-67885582f9a5","ios":"levelo://app?vid=4bd988c7-a8cd-4957-9b89-67885582f9a5"},"vehicle_type_id":"4","last_reported":1701094012,"current_range_meters":24400,"station_id":"ce4bhlh2rcd13ifvqgig","pricing_plan_id":"free"},{"bike_id":"de3354de-4426-4e2f-a428-7be60e2af2c3","system_id":"levelo_inurba_marseille","lat":43.25102,"lon":5.403214,"is_reserved":false,"is_disabled":false,"rental_uris":{"android":"levelo://app?vid=de3354de-4426-4e2f-a428-7be60e2af2c3","ios":"levelo://app?vid=de3354de-4426-4e2f-a428-7be60e2af2c3"},"vehicle_type_id":"4","last_reported":1701094012,"current_range_meters":32000,"station_id":"ce4bhlh2rcd13ifvqgig","pricing_plan_id":"free"},{"bike_id":"89b14069-da4c-4247-8b5b-d0e90a7f4f72","system_id":"levelo_inurba_marseille","lat":43.25102,"lon":5.403214,"is_reserved":false,"is_disabled":false,"rental_uris":{"android":"levelo://app?vid=89b14069-da4c-4247-8b5b-d0e90a7f4f72","ios":"levelo://app?vid=89b14069-da4c-4247-8b5b-d0e90a7f4f72"},"vehicle_type_id":"4","last_reported":1701094012,"current_range_meters":7200,"station_id":"ce4bhlh2rcd13ifvqgig","pricing_plan_id":"free"},{"bike_id":"d51f738c-e32a-4b47-910d-5961e646aec1","system_id":"levelo_inurba_marseille","lat":43.25102,"lon":5.403214,"is_reserved":false,"is_disabled":false,"rental_uris":{"android":"levelo://app?vid=d51f738c-e32a-4b47-910d-5961e646aec1","ios":"levelo://app?vid=d51f738c-e32a-4b47-910d-5961e646aec1"},"vehicle_type_id":"4","last_reported":1701094012,"current_range_meters":29600,"station_id":"ce4bhlh2rcd13ifvqgig","pricing_plan_id":"free"},{"bike_id":"c8425701-3529-4cf3-a923-e776d96cff65","system_id":"levelo_inurba_marseille","lat":43.25102,"lon":5.403214,"is_reserved":false,"is_disabled":false,"rental_uris":{"android":"levelo://app?vid=c8425701-3529-4cf3-a923-e776d96cff65","ios":"levelo://app?vid=c8425701-3529-4cf3-a923-e776d96cff65"},"vehicle_type_id":"4","last_reported":1701094012,"current_range_meters":31200,"station_id":"ce4bhlh2rcd13ifvqgig","pricing_plan_id":"free"},{"bike_id":"42bbbcf8-a933-407b-adca-cad7c3d6814f","system_id":"levelo_inurba_marseille","lat":43.246467,"lon":5.388984,"is_reserved":false,"is_disabled":false,"rental_uris":{"android":"levelo://app?vid=42bbbcf8-a933-407b-adca-cad7c3d6814f","ios":"levelo://app?vid=42bbbcf8-a933-407b-adca-cad7c3d6814f"},"vehicle_type_id":"4","last_reported":1701094012,"current_range_meters":31200,"station_id":"ce4bhg12rcd13ifvqf60","pricing_plan_id":"free"},{"bike_id":"06b922b6-d3b9-4202-bfb1-1b51eef67c4c","system_id":"levelo_inurba_marseille","lat":43.245581,"lon":5.395069,"is_reserved":false,"is_disabled":false,"rental_uris":{"android":"levelo://app?vid=06b922b6-d3b9-4202-bfb1-1b51eef67c4c","ios":"levelo://app?vid=06b922b6-d3b9-4202-bfb1-1b51eef67c4c"},"vehicle_type_id":"4","last_reported":1701094012,"current_range_meters":28400,"station_id":"ce4bhlp2rcd13ifvqgjg","pricing_plan_id":"free"},