{"last_updated":1735283345,"ttl":60,"version":"2.2","data":{"bikes":[{"bike_id":"dff0098f-f8e0-4eb3-8b10-e0a8b5dee02e","system_id":"levelo_inurba_marseille","lat":43.28366,"lon":5.38118,"is_reserved":false,"is_disabled":false,"rental_uris":{"android":"levelo://app?vid=dff0098f-f8e0-4eb3-8b10-e0a8b5dee02e","ios":"levelo://app?vid=dff0098f-f8e0-4eb3-8b10-e0a8b5dee02e"},"vehicle_type_id":"4","last_reported":1735283346,"current_range_meters":38000,"station_id":"ce4bh412rcd13ifvqdr0","pricing_plan_id":"cebpf4jnsgd1na2vs0mg"},{"bike_id":"02f10b7d-aaef-415b-8fe3-cae349f4991b","system_id":"levelo_inurba_marseille","lat":43.29538,"lon":5.38532,"is_reserved":false,"is_disabled":false,"rental_uris":{"android":"levelo://app?vid=02f10b7d-aaef-415b-8fe3-cae349f4991b","ios":"levelo://app?vid=02f10b7d-aaef-415b-8fe3-cae349f4991b"},"vehicle_type_id":"4","last_reported":1735283346,"current_range_meters":16000,"station_id":"ce4bgih2rcd13ifvqba0","pricing_plan_id":"cebpf4jnsgd1na2vs0mg"},{"bike_id":"f52c2897-0e1e-4374-ae77-9ce773cee8d5","system_id":"levelo_inurba_marseille","lat":43.279,"lon":5.38,"is_reserved":false,"is_disabled":false,"rental_uris":{"android":"levelo://app?vid=f52c2897-0e1e-4374-ae77-9ce773cee8d5","ios":"levelo://app?vid=f52c2897-0e1e-4374-ae77-9ce773cee8d5"},"vehicle_type_id":"4","last_reported":1735283346,"current_range_meters":35600,"station_id":"ce4bhf92rcd13ifvqf50","pricing_plan_id":"cebpf4jnsgd1na2vs0mg"},{"bike_id":"015f3506-0edf-4591-879e-490275f7a7d2","system_id":"levelo_inurba_marseille","lat":43.239614,"lon":5.366378,"is_reserved":false,"is_disabled":false,"rental_uris":{"android":"levelo://app?vid=015f3506-0edf-4591-879e-490275f7a7d2","ios":"levelo://app?vid=015f3506-0edf-4591-879e-490275f7a7d2"},"vehicle_type_id":"4","last_reported":1735283346,"current_range_meters":26000,"station_id":"ce4bhi12rcd13ifvqfp0","pricing_plan_id":"cebpf4jnsgd1na2vs0mg"},{"bike_id":"158de636-4032-42c0-b1f5-dcebbc58cad3","system_id":"levelo_inurba_marseille","lat":43.28444,"lon":5.35892,"is_reserved":false,"is_disabled":false,"rental_uris":{"android":"levelo://app?vid=158de636-4032-42c0-b1f5-dcebbc58cad3","ios":"levelo://app?vid=158de636-4032-42c0-b1f5-dcebbc58cad3"},"vehicle_type_id":"4","last_reported":1735283346,"current_range_meters":34800,"station_id":"ce4bhah2rcd13ifvqei0","pricing_plan_id":"cebpf4jnsgd1na2vs0mg"},{"bike_id":"f232ab45-64c0-4166-baa3-458a69058558","system_id":"levelo_inurba_marseille","lat":43.31728,"lon":5.42412,"is_reserved":false,"is_disabled":false,"rental_uris":{"android":"levelo://app?vid=f232ab45-64c0-4166-baa3-458a69058558","ios":"levelo://app?vid=f232ab45-64c0-4166-baa3-458a69058558"},"vehicle_type_id":"4","last_reported":1735283346,"current_range_meters":38400,"station_id":"ce4bhp92rcd13ifvqhbg","pricing_plan_id":"cebpf4jnsgd1na2vs0mg"},{"bike_id":"1f14806d-ae11-4061-998c-72dada3be529","system_id":"levelo_inurba_marseille","lat":43.28037,"lon":5.36945,"is_reserved":false,"is_disabled":false,"rental_uris":{"android":"levelo://app?vid=1f14806d-ae11-4061-998c-72dada3be529","ios":"levelo://app?vid=1f14806d-ae11-4061-998c-72dada3be529"},"vehicle_type_id":"4","last_reported":1735283346,"current_range_meters":38800,"station_id":"ce4bha12rcd13ifvqef0","pricing_plan_id":"cebpf4jnsgd1na2vs0mg"},{"bike_id":"7ace2682-fd21-434c-807a-20ec337b5bc4","system_id":"levelo_inurba_marseille","lat":43.33018,"lon":5.39044,"is_reserved":false,"is_disabled":false,"rental_uris":{"android":"levelo://app?vid=7ace2682-fd21-434c-807a-20ec337b5bc4","ios":"levelo://app?vid=7ace2682-fd21-434c-807a-20ec337b5bc4"},"vehicle_type_id":"4","last_reported":1735283346,"current_range_meters":25600,"station_id":"ce4bhr92rcd13ifvqhrg","pricing_plan_id":"cebpf4jnsgd1na2vs0mg"},{"bike_id":"3991aac2-ec7f-43c8-801f-23e11845f2d6","system_id":"levelo_inurba_marseille","lat":43.28153,"lon":5.42648,"is_reserved":false,"is_disabled":false,"rental_uris":{"android":"levelo://app?vid=3991aac2-ec7f-43c8-801f-23e11845f2d6","ios":"levelo://app?vid=3991aac2-ec7f-43c8-801f-23e11845f2d6"},"vehicle_type_id":"4","last_reported":1735283346,"current_range_meters":38400,"station_id":"ce4bhnh2rcd13ifvqgug","pricing_plan_id":"cebpf4jnsgd1na2vs0mg"},{"bike_id":"e2180b1a-b62d-4f9a-9c5f-41763223dad9","system_id":"levelo_inurba_marseille","lat":43.28712,"lon":5.37935,"is_reserved":false,"is_disabled":false,"rental_uris":{"android":"levelo://app?vid=e2180b1a-b62d-4f9a-9c5f-41763223dad9","ios":"levelo://app?vid=e2180b1a-b62d-4f9a-9c5f-41763223dad9"},"vehicle_type_id":"4","last_reported":1735283346,"current_range_meters":36400,"station_id":"ce4bh9p2rcd13ifvqec0","pricing_plan_id":"cebpf4jnsgd1na2vs0mg"},{"bike_id":"aa910906-3ca2-4107-80e1-4fe46d1472a6","system_id":"levelo_inurba_marseille","lat":43.32029,"lon":5.41577,"is_reserved":false,"is_disabled":false,"rental_uris":{"android":"levelo://app?vid=aa910906-3ca2-4107-80e1-4fe46d1472a6","ios":"levelo://app?vid=aa910906-3ca2-4107-80e1-4fe46d1472a6"},"vehicle_type_id":"4","last_reported":1735283346,"current_range_meters":36000,"station_id":"ce4bhq92rcd13ifvqhkg","pricing_plan_id":"cebpf4jnsgd1na2vs0mg"},{"bike_id":"5bfe94d5-2cce-4274-80d3-9bbbc4710bf2","system_id":"levelo_inurba_marseille","lat":43.24545,"lon":5.39523,"is_reserved":false,"is_disabled":false,"rental_uris":{"android":"levelo://app?vid=5bfe94d5-2cce-4274-80d3-9bbbc4710bf2","ios":"levelo://app?vid=5bfe94d5-2cce-4274-80d3-9bbbc4710bf2"},"vehicle_type_id":"4","last_reported":1735283346,"current_range_meters":38400,"station_id":"ce4bhlp2rcd13ifvqgjg","pricing_plan_id":"cebpf4jnsgd1na2vs0mg"},{"bike_id":"e45c49e3-49ca-412f-af12-72d43dbe3193","system_id":"levelo_inurba_marseille","lat":43.24685,"lon":5.3814,"is_reserved":false,"is_disabled":false,"rental_uris":{"android":"levelo://app?vid=e45c49e3-49ca-412f-af12-72d43dbe3193","ios":"levelo://app?vid=e45c49e3-49ca-412f-af12-72d43dbe3193"},"vehicle_type_id":"4","last_reported":1735283346,"current_range_meters":10000,"station_id":"ce4bhih2rcd13ifvqfr0","pricing_plan_id":"cebpf4jnsgd1na2vs0mg"},{"bike_id":"3585ea52-bd27-44e2-b337-8546f357cdc1","system_id":"levelo_inurba_marseille","lat":43.24808,"lon":5.37458,"is_reserved":false,"is_disabled":true,"rental_uris":{"android":"levelo://app?vid=3585ea52-bd27-44e2-b337-8546f357cdc1","ios":"levelo://app?vid=3585ea52-bd27-44e2-b337-8546f357cdc1"},"vehicle_type_id":"4","last_reported":1735283346,"current_range_meters":1200,"station_id":"ce4bhgh2rcd13ifvqfb0","pricing_plan_id":"cebpf4jnsgd1na2vs0mg"},{"bike_id":"8fb7c831-5792-4377-aa87-d916da057f88","system_id":"levelo_inurba_marseille","lat":43.31527,"lon":5.3803,"is_reserved":false,"is_disabled":false,"rental_uris":{"android":"levelo://app?vid=8fb7c831-5792-4377-aa87-d916da057f88","ios":"levelo://app?vid=8fb7c831-5792-4377-aa87-d916da057f88"},"vehicle_type_id":"4","last_reported":1735283346,"current_range_meters":24000,"station_id":"ce4bhsp2rcd13ifvqi50","pricing_plan_id":"cebpf4jnsgd1na2vs0mg"},{"bike_id":"4312ef7a-f4f5-400e-aa5f-856511014ea9","system_id":"levelo_inurba_marseille","lat":43.272125,"lon":5.391771,"is_reserved":false,"is_disabled":false,"rental_uris":{"android":"levelo://app?vid=4312ef7a-f4f5-400e-aa5f-856511014ea9","ios":"levelo://app?vid=4312ef7a-f4f5-400e-aa5f-856511014ea9"},"vehicle_type_id":"4","last_reported":1735283346,"current_range_meters":32000,"station_id":"ce4bhhp2rcd13ifvqfm0","pricing_plan_id":"cebpf4jnsgd1na2vs0mg"},{"bike_id":"5bee95f1-fdd3-4371-a9d2-156b6c2cb6af","system_id":"levelo_inurba_marseille","lat":43.26944,"lon":5.38637,"is_reserved":false,"is_disabled":false,"rental_uris":{"android":"levelo://app?vid=5bee95f1-fdd3-4371-a9d2-156b6c2cb6af","ios":"levelo://app?vid=5bee95f1-fdd3-4371-a9d2-156b6c2cb6af"},"vehicle_type_id":"4","last_reported":1735283346,"current_range_meters":17200,"station_id":"ce4bhh92rcd13ifvqfh0","pricing_plan_id":"cebpf4jnsgd1na2vs0mg"},{"bike_id":"4b0fd93f-ab44-4d17-9609-4abb396d054c","system_id":"levelo_inurba_marseille","lat":43.232017,"lon":5.355416,"is_reserved":false,"is_disabled":false,"rental_uris":{"android":"levelo://app?vid=4b0fd93f-ab44-4d17-9609-4abb396d054c","ios":"levelo://app?vid=4b0fd93f-ab44-4d17-9609-4abb396d054c"},"vehicle_type_id":"4","last_reported":1735283346,"current_range_meters":8400,"station_id":"ce4bhu92rcd13ifvqi70","pricing_plan_id":"cebpf4jnsgd1na2vs0mg"},{"bike_id":"3e2955e7-aeeb-4bfd-a8f7-ae5159906e59","system_id":"levelo_inurba_marseille","lat":43.25002,"lon":5.38937,"is_reserved":false,"is_disabled":false,"rental_uris":{"android":"levelo://app?vid=3e2955e7-aeeb-4bfd-a8f7-ae5159906e59","ios":"levelo://app?vid=3e2955e7-aeeb-4bfd-a8f7-ae5159906e59"},"vehicle_type_id":"4","last_reported":1735283346,"current_range_meters":24400,"station_id":"ce4bhgp2rcd13ifvqfd0","pricing_plan_id":"cebpf4jnsgd1na2vs0mg"},{"bike_id":"8d7080ad-cf19-426c-b8c9-9b97d29a2475","system_id":"levelo_inurba_marseille","lat":43.27839,"lon":5.3921,"is_reserved":false,"is_disabled":false,"rental_uris":{"android":"levelo://app?vid=8d7080ad-cf19-426c-b8c9-9b97d29a2475","ios":"levelo://app?vid=8d7080ad-cf19-426c-b8c9-9b97d29a2475"},"vehicle_type_id":"4","last_reported":1735283346,"current_range_meters":38800,"station_id":"ce4bhjp2rcd13ifvqga0","pricing_plan_id":"cebpf4jnsgd1na2vs0mg"},{"bike_id":"29b5973a-1be5-4295-9921-c4c07a270d38","system_id":"levelo_inurba_marseille","lat":43.29253,"lon":5.38453,"is_reserved":false,"is_disabled":false,"rental_uris":{"android":"levelo://app?vid=29b5973a-1be5-4295-9921-c4c07a270d38","ios":"levelo://app?vid=29b5973a-1be5-4295-9921-c4c07a270d38"},"vehicle_type_id":"4","last_reported":1735283346,"current_range_meters":27600,"station_id":"ce4bh692rcd13ifvqea0","pricing_plan_id":"cebpf4jnsgd1na2vs0mg"},{"bike_id":"96d2e472-a01f-42ed-973f-619384c4cf4d","system_id":"levelo_inurba_marseille","lat":43.313601,"lon":5.385063,"is_reserved":false,"is_disabled":false,"rental_uris":{"android":"levelo://app?vid=96d2e472-a01f-42ed-973f-619384c4cf4d","ios":"levelo://app?vid=96d2e472-a01f-42ed-973f-619384c4cf4d"},"vehicle_type_id":"4","last_reported":1735283346,"current_range_meters":35200,"station_id":"ce4bgt92rcd13ifvqcf0","pricing_plan_id":"cebpf4jnsgd1na2vs0mg"},{"bike_id":"ff891e39-252b-4d4e-8692-37efe0bea514","system_id":"levelo_inurba_marseille","lat":43.27935,"lon":5.41041,"is_reserved":false,"is_disabled":false,"rental_uris":{"android":"levelo://app?vid=ff891e39-252b-4d4e-8692-37efe0bea514","ios":"levelo://app?vid=ff891e39-252b-4d4e-8692-37efe0bea514"},"vehicle_type_id":"4","last_reported":1735283346,"current_range_meters":37600,"station_id":"ce4bhnp2rcd13ifvqh0g","pricing_plan_id":"cebpf4jnsgd1na2vs0mg"},{"bike_id":"3fcb2f6f-39f4-445d-a829-8626c3812c7e","system_id":"levelo_inurba_marseille","lat":43.276691,"lon":5.388944,"is_reserved":false,"is_disabled":false,"rental_uris":{"android":"levelo://app?vid=3fcb2f6f-39f4-445d-a829-8626c3812c7e","ios":"levelo://app?vid=3fcb2f6f-39f4-445d-a829-8626c3812c7e"},"vehicle_type_id":"4","last_reported":1735283346,"current_range_meters":27600,"station_id":"ce4bhi12rcd13ifvqfo0","pricing_plan_id":"cebpf4jnsgd1na2vs0mg"},{"bike_id":"54e82adf-653a-40bc-8212-b0e67d34d16f","system_id":"levelo_inurba_marseille","lat":43.29929,"lon":5.36527,"is_reserved":false,"is_disabled":false,"rental_uris":{"android":"levelo://app?vid=54e82adf-653a-40bc-8212-b0e67d34d16f","ios":"levelo://app?vid=54e82adf-653a-40bc-8212-b0e67d34d16f"},"vehicle_type_id":"4","last_reported":1735283346,"current_range_meters":6800,"station_id":"ce4bgm92rcd13ifvqbr0","pricing_plan_id":"cebpf4jnsgd1na2vs0mg"},{"bike_id":"7bf56867-f147-4165-89ee-4c8ea1ec9c93","system_id":"levelo_inurba_marseille","lat":43.29895,"lon":5.43661,"is_reserved":false,"is_disabled":false,"rental_uris":{"android":"levelo://app?vid=7bf56867-f147-4165-89ee-4c8ea1ec9c93","ios":"levelo://app?vid=7bf56867-f147-4165-89ee-4c8ea1ec9c93"},"vehicle_type_id":"4","last_reported":1735283346,"current_range_meters":36400,"station_id":"ce4bhpp2rcd13ifvqhfg","pricing_plan_id":"cebpf4jnsgd1na2vs0mg"},{"bike_id":"857344dd-6be1-4d34-90e7-6f62afbbef2e","system_id":"levelo_inurba_marseille","lat":43.32109,"lon":5.3677,"is_reserved":false,"is_disabled":false,"rental_uris":{"android":"levelo://app?vid=857344dd-6be1-4d34-90e7-6f62afbbef2e","ios":"levelo://app?vid=857344dd-6be1-4d34-90e7-6f62afbbef2e"},"vehicle_type_id":"4","last_reported":1735283346,"current_range_meters":38000,"station_id":"ce4bhrh2rcd13ifvqhug","pricing_plan_id":"cebpf4jnsgd1na2vs0mg"},{"bike_id":"31588482-eee2-4640-9bc7-67834fae3edb","system_id":"levelo_inurba_marseille","lat":43.24178,"lon":5.39733,"is_reserved":false,"is_disabled":false,"rental_uris":{"android":"levelo://app?vid=31588482-eee2-4640-9bc7-67834fae3edb","ios":"levelo://app?vid=31588482-eee2-4640-9bc7-67834fae3edb"},"vehicle_type_id":"4","last_reported":1735283346,"current_range_meters":36800,"station_id":"ce4bhn12rcd13ifvqgpg","pricing_plan_id":"cebpf4jnsgd1na2vs0mg"},{"bike_id":"d2014bbb-761a-4322-8730-b982bc04aa4c","system_id":"levelo_inurba_marseille","lat":43.2799,"lon":5.42481,"is_reserved":false,"is_disabled":false,"rental_uris":{"android":"levelo://app?vid=d2014bbb-761a-4322-8730-b982bc04aa4c","ios":"levelo://app?vid=d2014bbb-761a-4322-8730-b982bc04aa4c"},"vehicle_type_id":"4","last_reported":1735283346,"current_range_meters":27600,"station_id":"","pricing_plan_id":"cebpf4jnsgd1na2vs0mg"},{"bike_id":"2c5b9576-673f-4ca5-ae2d-c1749153fa15","system_id":"levelo_inurba_marseille","lat":43.312525,"lon":5.368838,"is_reserved":false,"is_disabled":false,"rental_uris":{"android":"levelo://app?vid=2c5b9576-673f-4ca5-ae2d-c1749153fa15","ios":"levelo://app?vid=2c5b9576-673f-4ca5-ae2d-c1749153fa15"},"vehicle_type_id":"4","last_reported":1735283346,"current_range_meters":28000,"station_id":"ce4bgl92rcd13ifvqbq0","pricing_plan_id":"cebpf4jnsgd1na2vs0mg"},{"bike_id":"897abce6-717e-48e4-862c-1c4fe53da8d7","system_id":"levelo_inurba_marseille","lat":43.30639,"lon":5.40081,"is_reserved":false,"is_disabled":false,"rental_uris":{"android":"levelo://app?vid=897abce6-717e-48e4-862c-1c4fe53da8d7","ios":"levelo://app?vid=897abce6-717e-48e4-862c-1c4fe53da8d7"},"vehicle_type_id":"4","last_reported":1735283346,"current_range_meters":35600,"station_id":"ce4bh112rcd13ifvqda0","pricing_plan_id":"cebpf4jnsgd1na2vs0mg"},{"bike_id":"4bd7f16b-a13a-408c-8f0b-645b687ee475","system_id":"levelo_inurba_marseille","lat":43.24081,"lon":5.37756,"is_reserved":false,"is_disabled":false,"rental_uris":{"android":"levelo://app?vid=4bd7f16b-a13a-408c-8f0b-645b687ee475","ios":"levelo://app?vid=4bd7f16b-a13a-408c-8f0b-645b687ee475"},"vehicle_type_id":"4","last_reported":1735283346,"current_range_meters":36800,"station_id":"ce4bhnp2rcd13ifvqgvg","pricing_plan_id":"cebpf4jnsgd1na2vs0mg"},{"bike_id":"d8ea974a-4a73-4aa7-892d-99d6b6bac9b7","system_id":"levelo_inurba_marseille","lat":43.29528,"lon":5.38534,"is_reserved":false,"is_disabled":false,"rental_uris":{"android":"levelo://app?vid=d8ea974a-4a73-4aa7-892d-99d6b6bac9b7","ios":"levelo://app?vid=d8ea974a-4a73-4aa7-892d-99d6b6bac9b7"},"vehicle_type_id":"4","last_reported":1735283346,"current_range_meters":20800,"station_id":"ce4bgih2rcd13ifvqba0","pricing_plan_id":"cebpf4jnsgd1na2vs0mg"},{"bike_id":"ad66ce9d-e2b2-4064-ae7f-fe87403c632b","system_id":"levelo_inurba_marseille","lat":43.23066,"lon":5.354916,"is_reserved":false,"is_disabled":false,"rental_uris":{"android":"levelo://app?vid=ad66ce9d-e2b2-4064-ae7f-fe87403c632b","ios":"levelo://app?vid=ad66ce9d-e2b2-4064-ae7f-fe87403c632b"},"vehicle_type_id":"4","last_reported":1735283346,"current_range_meters":26000,"station_id":"cpo3342slgdg3j2ifvpg","pricing_plan_id":"cebpf4jnsgd1na2vs0mg"},{"bike_id":"86c67b44-7a3f-423b-a5f9-71291d4ccb38","system_id":"levelo_inurba_marseille","lat":43.33003,"lon":5.39049,"is_reserved":false,"is_disabled":false,"rental_uris":{"android":"levelo://app?vid=86c67b44-7a3f-423b-a5f9-71291d4ccb38","ios":"levelo://app?vid=86c67b44-7a3f-423b-a5f9-71291d4ccb38"},"vehicle_type_id":"4","last_reported":1735283346,"current_range_meters":38800,"station_id":"ce4bhr92rcd13ifvqhrg","pricing_plan_id":"cebpf4jnsgd1na2vs0mg"},{"bike_id":"f0cb113d-febb-4c46-a09d-4c40b35ad2a3","system_id":"levelo_inurba_marseille","lat":43.30212,"lon":5.39468,"is_reserved":false,"is_disabled":false,"rental_uris":{"android":"levelo://app?vid=f0cb113d-febb-4c46-a09d-4c40b35ad2a3","ios":"levelo://app?vid=f0cb113d-febb-4c46-a09d-4c40b35ad2a3"},"vehicle_type_id":"4","last_reported":1735283346,"current_range_meters":19600,"station_id":"ce4bh0p2rcd13ifvqd70","pricing_plan_id":"cebpf4jnsgd1na2vs0mg"},{"bike_id":"2cfb06de-b84a-4ef6-85b8-bf30546956ef","system_id":"levelo_inurba_marseille","lat":43.29712,"lon":5.36602,"is_reserved":false,"is_disabled":false,"rental_uris":{"android":"levelo://app?vid=2cfb06de-b84a-4ef6-85b8-bf30546956ef","ios":"levelo://app?vid=2cfb06de-b84a-4ef6-85b8-bf30546956ef"},"vehicle_type_id":"4","last_reported":1735283346,"current_range_meters":38800,"station_id":"ce4bgn12rcd13ifvqbt0","pricing_plan_id":"cebpf4jnsgd1na2vs0mg"},{"bike_id":"ced76378-03ce-491e-8851-299c9e2a0e28","system_id":"levelo_inurba_marseille","lat":43.27208,"lon":5.39184,"is_reserved":false,"is_disabled":false,"rental_uris":{"android":"levelo://app?vid=ced76378-03ce-491e-8851-299c9e2a0e28","ios":"levelo://app?vid=ced76378-03ce-491e-8851-299c9e2a0e28"},"vehicle_type_id":"4","last_reported":1735283346,"current_range_meters":38800,"station_id":"ce4bhhp2rcd13ifvqfm0","pricing_plan_id":"cebpf4jnsgd1na2vs0mg"},{"bike_id":"785ae889-869f-4239-a20f-acbe9bf2cb02","system_id":"levelo_inurba_marseille","lat":43.30285,"lon":5.37692,"is_reserved":false,"is_disabled":false,"rental_uris":{"android":"levelo://app?vid=785ae889-869f-4239-a20f-acbe9bf2cb02","ios":"levelo://app?vid=785ae889-869f-4239-a20f-acbe9bf2cb02"},"vehicle_type_id":"4","last_reported":1735283346,"current_range_meters":38000,"station_id":"ce4bguh2rcd13ifvqcj0","pricing_plan_id":"cebpf4jnsgd1na2vs0mg"},{"bike_id":"d0533ccb-11ce-46dc-9cca-daa9f7a4985a","system_id":"levelo_inurba_marseille","lat":43.29555,"lon":5.42299,"is_reserved":false,"is_disabled":false,"rental_uris":{"android":"levelo://app?vid=d0533ccb-11ce-46dc-9cca-daa9f7a4985a","ios":"levelo://app?vid=d0533ccb-11ce-46dc-9cca-daa9f7a4985a"},"vehicle_type_id":"4","last_reported":1735283346,"current_range_meters":38800,"station_id":"ce4bhph2rcd13ifvqhdg","pricing_plan_id":"cebpf4jnsgd1na2vs0mg"},{"bike_id":"42a857c8-82e9-4291-a4ce-68ec25ec7551","system_id":"levelo_inurba_marseille","lat":43.27951,"lon":5.41051,"is_reserved":false,"is_disabled":true,"rental_uris":{"android":"levelo://app?vid=42a857c8-82e9-4291-a4ce-68ec25ec7551","ios":"levelo://app?vid=42a857c8-82e9-4291-a4ce-68ec25ec7551"},"vehicle_type_id":"4","last_reported":1735283346,"current_range_meters":1200,"station_id":"ce4bhnp2rcd13ifvqh0g","pricing_plan_id":"cebpf4jnsgd1na2vs0mg"},{"bike_id":"1363291b-cac3-4b84-b0a4-e6e5991bfd97","system_id":"levelo_inurba_marseille","lat":43.2953,"lon":5.3854,"is_reserved":false,"is_disabled":false,"rental_uris":{"android":"levelo://app?vid=1363291b-cac3-4b84-b0a4-e6e5991bfd97","ios":"levelo://app?vid=1363291b-cac3-4b84-b0a4-e6e5991bfd97"},"vehicle_type_id":"4","last_reported":1735283346,"current_range_meters":23200,"station_id":"ce4bgih2rcd13ifvqba0","pricing_plan_id":"cebpf4jnsgd1na2vs0mg"},{"bike_id":"648f7b41-6558-4508-9484-4305a1485141","system_id":"levelo_inurba_marseille","lat":43.30438,"lon":5.38889,"is_reserved":false,"is_disabled":false,"rental_uris":{"android":"levelo://app?vid=648f7b41-6558-4508-9484-4305a1485141","ios":"levelo://app?vid=648f7b41-6558-4508-9484-4305a1485141"},"vehicle_type_id":"4","last_reported":1735283346,"current_range_meters":38800,"station_id":"ce4bgk12rcd13ifvqbi0","pricing_plan_id":"cebpf4jnsgd1na2vs0mg"},{"bike_id":"b32fb18a-c8a8-4404-98aa-9a585746a89d","system_id":"levelo_inurba_marseille","lat":43.32046,"lon":5.41525,"is_reserved":false,"is_disabled":false,"rental_uris":{"android":"levelo://app?vid=b32fb18a-c8a8-4404-98aa-9a585746a89d","ios":"levelo://app?vid=b32fb18a-c8a8-4404-98aa-9a585746a89d"},"vehicle_type_id":"4","last_reported":1735283346,"current_range_meters":30000,"station_id":"ce4bhq92rcd13ifvqhkg","pricing_plan_id":"cebpf4jnsgd1na2vs0mg"},{"bike_id":"fb65f68e-01b9-464f-abae-a60e8b871ed3","system_id":"levelo_inurba_marseille","lat":43.27921,"lon":5.396,"is_reserved":false,"is_disabled":false,"rental_uris":{"android":"levelo://app?vid=fb65f68e-01b9-464f-abae-a60e8b871ed3","ios":"levelo://app?vid=fb65f68e-01b9-464f-abae-a60e8b871ed3"},"vehicle_type_id":"4","last_reported":1735283346,"current_range_meters":28800,"station_id":"ce4bhf92rcd13ifvqf40","pricing_plan_id":"cebpf4jnsgd1na2vs0mg"},{"bike_id":"454da34b-466f-448b-8665-415e36555e33","system_id":"levelo_inurba_marseille","lat":43.25006,"lon":5.3894,"is_reserved":false,"is_disabled":false,"rental_uris":{"android":"levelo://app?vid=454da34b-466f-448b-8665-415e36555e33","ios":"levelo://app?vid=454da34b-466f-448b-8665-415e36555e33"},"vehicle_type_id":"4","last_reported":1735283346,"current_range_meters":38000,"station_id":"ce4bhgp2rcd13ifvqfd0","pricing_plan_id":"cebpf4jnsgd1na2vs0mg"},{"bike_id":"61b6d437-e950-46a2-8cbf-76c4bc393d6f","system_id":"levelo_inurba_marseille","lat":43.2707,"lon":5.42282,"is_reserved":false,"is_disabled":false,"rental_uris":{"android":"levelo://app?vid=61b6d437-e950-46a2-8cbf-76c4bc393d6f","ios":"levelo://app?vid=61b6d437-e950-46a2-8cbf-76c4bc393d6f"},"vehicle_type_id":"4","last_reported":1735283346,"current_range_meters":6800,"station_id":"ce4bhk92rcd13ifvqgb0","pricing_plan_id":"cebpf4jnsgd1na2vs0mg"},{"bike_id":"f589524c-d6b4-482f-b349-aa8e6e55081a","system_id":"levelo_inurba_marseille","lat":43.2952,"lon":5.39042,"is_reserved":false,"is_disabled":true,"rental_uris":{"android":"levelo://app?vid=f589524c-d6b4-482f-b349-aa8e6e55081a","ios":"levelo://app?vid=f589524c-d6b4-482f-b349-aa8e6e55081a"},"vehicle_type_id":"4","last_reported":1735283346,"current_range_meters":31200,"station_id":"ce4bh3p2rcd13ifvqdp0","pricing_plan_id":"cebpf4jnsgd1na2vs0mg"},{"bike_id":"417a3b93-35ae-43df-b252-fc6e1dccb29d","system_id":"levelo_inurba_marseille","lat":43.301295,"lon":5.398621,"is_reserved":false,"is_disabled":false,"rental_uris":{"android":"levelo://app?vid=417a3b93-35ae-43df-b252-fc6e1dccb29d","ios":"levelo://app?vid=417a3b93-35ae-43df-b252-fc6e1dccb29d"},"vehicle_type_id":"4","last_reported":1735283346,"current_range_meters":38400,"station_id":"ce4bh0h2rcd13ifvqd40","pricing_plan_id":"cebpf4jnsgd1na2vs0mg"},{"bike_id":"b90567a9-45ba-4751-8ddb-c82bcf46dd22","system_id":"levelo_inurba_marseille","lat":43.29024,"lon":5.38651,"is_reserved":false,"is_disabled":false,"rental_uris":{"android":"levelo://app?vid=b90567a9-45ba-4751-8ddb-c82bcf46dd22","ios":"levelo://app?vid=b90567a9-45ba-4751-8ddb-c82bcf46dd22"},"vehicle_type_id":"4","last_reported":1735283346,"current_range_meters":12800,"station_id":"ce4bh4p2rcd13ifvqe0g","pricing_plan_id":"cebpf4jnsgd1na2vs0mg"},{"bike_id":"2b08ca99-c6f3-4395-ab2d-aeebc3305aa4","system_id":"levelo_inurba_marseille","lat":43.33754,"lon":5.37492,"is_reserved":false,"is_disabled":false,"rental_uris":{"android":"levelo://app?vid=2b08ca99-c6f3-4395-ab2d-aeebc3305aa4","ios":"levelo://app?vid=2b08ca99-c6f3-4395-ab2d-aeebc3305aa4"},"vehicle_type_id":"4","last_reported":1735283346,"current_range_meters":35600,"station_id":"","pricing_plan_id":"cebpf4jnsgd1na2vs0mg"},{"bike_id":"23e25e04-dd29-4836-8ab5-f117edae0dca","system_id":"levelo_inurba_marseille","lat":43.3012,"lon":5.37427,"is_reserved":false,"is_disabled":false,"rental_uris":{"android":"levelo://app?vid=23e25e04-dd29-4836-8ab5-f117edae0dca","ios":"levelo://app?vid=23e25e04-dd29-4836-8ab5-f117edae0dca"},"vehicle_type_id":"4","last_reported":1735283346,"current_range_meters":38800,"station_id":"ce4bgs92rcd13ifvqcc0","pricing_plan_id":"cebpf4jnsgd1na2vs0mg"},{"bike_id":"02f185e7-524f-4e9f-8b64-577298a65a8a","system_id":"levelo_inurba_marseille","lat":43.28104,"lon":5.37862,"is_reserved":false,"is_disabled":false,"rental_uris":{"android":"levelo://app?vid=02f185e7-524f-4e9f-8b64-577298a65a8a","ios":"levelo://app?vid=02f185e7-524f-4e9f-8b64-577298a65a8a"},"vehicle_type_id":"4","last_reported":1735283346,"current_range_meters":30400,"station_id":"ce4bha12rcd13ifvqee0","pricing_plan_id":"cebpf4jnsgd1na2vs0mg"},{"bike_id":"b127a35d-b7ce-4f77-8d9a-e00b19875b1d","system_id":"levelo_inurba_marseille","lat":43.29529,"lon":5.37503,"is_reserved":false,"is_disabled":false,"rental_uris":{"android":"levelo://app?vid=b127a35d-b7ce-4f77-8d9a-e00b19875b1d","ios":"levelo://app?vid=b127a35d-b7ce-4f77-8d9a-e00b19875b1d"},"vehicle_type_id":"4","last_reported":1735283346,"current_range_meters":28400,"station_id":"ce4bgkp2rcd13ifvqbmg","pricing_plan_id":"cebpf4jnsgd1na2vs0mg"},{"bike_id":"5866bc0e-db1a-44f5-8487-3ad54920afdf","system_id":"levelo_inurba_marseille","lat":43.30439,"lon":5.38894,"is_reserved":false,"is_disabled":false,"rental_uris":{"android":"levelo://app?vid=5866bc0e-db1a-44f5-8487-3ad54920afdf","ios":"levelo://app?vid=5866bc0e-db1a-44f5-8487-3ad54920afdf"},"vehicle_type_id":"4","last_reported":1735283346,"current_range_meters":38800,"station_id":"ce4bgk12rcd13ifvqbi0","pricing_plan_id":"cebpf4jnsgd1na2vs0mg"},{"bike_id":"33e4c278-497a-4992-9269-3f4bd7a2ca60","system_id":"levelo_inurba_marseille","lat":43.299198,"lon":5.374783,"is_reserved":false,"is_disabled":false,"rental_uris":{"android":"levelo://app?vid=33e4c278-497a-4992-9269-3f4bd7a2ca60","ios":"levelo://app?vid=33e4c278-497a-4992-9269-3f4bd7a2ca60"},"vehicle_type_id":"4","last_reported":1735283346,"current_range_meters":30400,"station_id":"ce4bgjh2rcd13ifvqbg0","pricing_plan_id":"cebpf4jnsgd1na2vs0mg"},{"bike_id":"e1a11227-e418-4e25-acdd-4f7154c5af89","system_id":"levelo_inurba_marseille","lat":43.32035,"lon":5.41548,"is_reserved":false,"is_disabled":false,"rental_uris":{"android":"levelo://app?vid=e1a11227-e418-4e25-acdd-4f7154c5af89","ios":"levelo://app?vid=e1a11227-e418-4e25-acdd-4f7154c5af89"},"vehicle_type_id":"4","last_reported":1735283346,"current_range_meters":38800,"station_id":"ce4bhq92rcd13ifvqhkg","pricing_plan_id":"cebpf4jnsgd1na2vs0mg"},{"bike_id":"b3933d73-bb2c-4d70-9a68-9ee5804063aa","system_id":"levelo_inurba_marseille","lat":43.32361,"lon":5.3889,"is_reserved":false,"is_disabled":false,"rental_uris":{"android":"levelo://app?vid=b3933d73-bb2c-4d70-9a68-9ee5804063aa","ios":"levelo://app?vid=b3933d73-bb2c-4d70-9a68-9ee5804063aa"},"vehicle_type_id":"4","last_reported":1735283346,"current_range_meters":13600,"station_id":"ce4bhqp2rcd13ifvqhog","pricing_plan_id":"cebpf4jnsgd1na2vs0mg"},{"bike_id":"1ce47e76-0435-49e0-9c8d-db57194dc2c7","system_id":"levelo_inurba_marseille","lat":43.27905,"lon":5.38011,"is_reserved":false,"is_disabled":false,"rental_uris":{"android":"levelo://app?vid=1ce47e76-0435-49e0-9c8d-db57194dc2c7","ios":"levelo://app?vid=1ce47e76-0435-49e0-9c8d-db57194dc2c7"},"vehicle_type_id":"4","last_reported":1735283346,"current_range_meters":17200,"station_id":"ce4bhf92rcd13ifvqf50","pricing_plan_id":"cebpf4jnsgd1na2vs0mg"},{"bike_id":"4e0fb82a-cbf9-42c7-aa57-751ba2271dff","system_id":"levelo_inurba_marseille","lat":43.26055,"lon":5.39392,"is_reserved":false,"is_disabled":false,"rental_uris":{"android":"levelo://app?vid=4e0fb82a-cbf9-42c7-aa57-751ba2271dff","ios":"levelo://app?vid=4e0fb82a-cbf9-42c7-aa57-751ba2271dff"},"vehicle_type_id":"4","last_reported":1735283346,"current_range_meters":36800,"station_id":"ce4bhh92rcd13ifvqfj0","pricing_plan_id":"cebpf4jnsgd1na2vs0mg"},{"bike_id":"b5656570-3315-4cb5-bf48-7ff14d1a0a27","system_id":"levelo_inurba_marseille","lat":43.295264,"lon":5.375014,"is_reserved":false,"is_disabled":false,"rental_uris":{"android":"levelo://app?vid=b5656570-3315-4cb5-bf48-7ff14d1a0a27","ios":"levelo://app?vid=b5656570-3315-4cb5-bf48-7ff14d1a0a27"},"vehicle_type_id":"4","last_reported":1735283346,"current_range_meters":12400,"station_id":"ce4bgkp2rcd13ifvqbmg","pricing_plan_id":"cebpf4jnsgd1na2vs0mg"},{"bike_id":"a0898d4b-2086-47da-9ba0-4953b8186d9a","system_id":"levelo_inurba_marseille","lat":43.23961,"lon":5.36631,"is_reserved":false,"is_disabled":false,"rental_uris":{"android":"levelo://app?vid=a0898d4b-2086-47da-9ba0-4953b8186d9a","ios":"levelo://app?vid=a0898d4b-2086-47da-9ba0-4953b8186d9a"},"vehicle_type_id":"4","last_reported":1735283346,"current_range_meters":16800,"station_id":"ce4bhi12rcd13ifvqfp0","pricing_plan_id":"cebpf4jnsgd1na2vs0mg"},{"bike_id":"ec31cf3c-cb5a-4639-89ed-66c774666725","system_id":"levelo_inurba_marseille","lat":43.2572,"lon":5.41106,"is_reserved":false,"is_disabled":false,"rental_uris":{"android":"levelo://app?vid=ec31cf3c-cb5a-4639-89ed-66c774666725","ios":"levelo://app?vid=ec31cf3c-cb5a-4639-89ed-66c774666725"},"vehicle_type_id":"4","last_reported":1735283346,"current_range_meters":27600,"station_id":"ce4bhkp2rcd13ifvqgd0","pricing_plan_id":"cebpf4jnsgd1na2vs0mg"},{"bike_id":"08838da2-af1c-4419-8720-c1bf075f4c73","system_id":"levelo_inurba_marseille","lat":43.3014,"lon":5.38765,"is_reserved":false,"is_disabled":false,"rental_uris":{"android":"levelo://app?vid=08838da2-af1c-4419-8720-c1bf075f4c73","ios":"levelo://app?vid=08838da2-af1c-4419-8720-c1bf075f4c73"},"vehicle_type_id":"4","last_reported":1735283346,"current_range_meters":38800,"station_id":"ce4bhoh2rcd13ifvqh6g","pricing_plan_id":"cebpf4jnsgd1na2vs0mg"},{"bike_id":"688d0d99-20f1-4fc1-971f-5e39b1819456","system_id":"levelo_inurba_marseille","lat":43.27971,"lon":5.40016,"is_reserved":false,"is_disabled":true,"rental_uris":{"android":"levelo://app?vid=688d0d99-20f1-4fc1-971f-5e39b1819456","ios":"levelo://app?vid=688d0d99-20f1-4fc1-971f-5e39b1819456"},"vehicle_type_id":"4","last_reported":1735283346,"current_range_meters":0,"station_id":"","pricing_plan_id":"cebpf4jnsgd1na2vs0mg"},{"bike_id":"4abaf8f8-84b1-49f8-8f51-19f123498143","system_id":"levelo_inurba_marseille","lat":43.29532,"lon":5.39033,"is_reserved":false,"is_disabled":false,"rental_uris":{"android":"levelo://app?vid=4abaf8f8-84b1-49f8-8f51-19f123498143","ios":"levelo://app?vid=4abaf8f8-84b1-49f8-8f51-19f123498143"},"vehicle_type_id":"4","last_reported":1735283346,"current_range_meters":35200,"station_id":"ce4bh3p2rcd13ifvqdp0","pricing_plan_id":"cebpf4jnsgd1na2vs0mg"},{"bike_id":"0b160e29-7510-40b9-a576-40f76ca5be1a","system_id":"levelo_inurba_marseille","lat":43.25005,"lon":5.38941,"is_reserved":false,"is_disabled":false,"rental_uris":{"android":"levelo://app?vid=0b160e29-7510-40b9-a576-40f76ca5be1a","ios":"levelo://app?vid=0b160e29-7510-40b9-a576-40f76ca5be1a"},"vehicle_type_id":"4","last_reported":1735283346,"current_range_meters":30000,"station_id":"ce4bhgp2rcd13ifvqfd0","pricing_plan_id":"cebpf4jnsgd1na2vs0mg"},{"bike_id":"e49de1cd-0acd-4a78-8121-d4a34beac4ee","system_id":"levelo_inurba_marseille","lat":43.292665,"lon":5.384508,"is_reserved":false,"is_disabled":false,"rental_uris":{"android":"levelo://app?vid=e49de1cd-0acd-4a78-8121-d4a34beac4ee","ios":"levelo://app?vid=e49de1cd-0acd-4a78-8121-d4a34beac4ee"},"vehicle_type_id":"4","last_reported":1735283346,"current_range_meters":36400,"station_id":"ce4bh692rcd13ifvqea0","pricing_plan_id":"cebpf4jnsgd1na2vs0mg"},{"bike_id":"89d18f17-dcd9-42e7-b890-3bf88686eea7","system_id":"levelo_inurba_marseille","lat":43.279455,"lon":5.410395,"is_reserved":false,"is_disabled":false,"rental_uris":{"android":"levelo://app?vid=89d18f17-dcd9-42e7-b890-3bf88686eea7","ios":"levelo://app?vid=89d18f17-dcd9-42e7-b890-3bf88686eea7"},"vehicle_type_id":"4","last_reported":1735283346,"current_range_meters":27200,"station_id":"ce4bhnp2rcd13ifvqh0g","pricing_plan_id":"cebpf4jnsgd1na2vs0mg"},{"bike_id":"f349cc7d-3bb2-4ec8-9833-02f92e44fae4","system_id":"levelo_inurba_marseille","lat":43.30883,"lon":5.39621,"is_reserved":false,"is_disabled":false,"rental_uris":{"android":"levelo://app?vid=f349cc7d-3bb2-4ec8-9833-02f92e44fae4","ios":"levelo://app?vid=f349cc7d-3bb2-4ec8-9833-02f92e44fae4"},"vehicle_type_id":"4","last_reported":1735283346,"current_range_meters":38800,"station_id":"ce4bh012rcd13ifvqcv0","pricing_plan_id":"cebpf4jnsgd1na2vs0mg"},{"bike_id":"307e91f2-7eda-4399-8767-f528498164bc","system_id":"levelo_inurba_marseille","lat":43.28695,"lon":5.37387,"is_reserved":false,"is_disabled":false,"rental_uris":{"android":"levelo://app?vid=307e91f2-7eda-4399-8767-f528498164bc","ios":"levelo://app?vid=307e91f2-7eda-4399-8767-f528498164bc"},"vehicle_type_id":"4","last_reported":1735283346,"current_range_meters":39200,"station_id":"ce4bh3p2rcd13ifvqdq0","pricing_plan_id":"cebpf4jnsgd1na2vs0mg"},{"bike_id":"76218b07-979e-4e21-b139-e99b356316d7","system_id":"levelo_inurba_marseille","lat":43.2668,"lon":5.382631,"is_reserved":false,"is_disabled":false,"rental_uris":{"android":"levelo://app?vid=76218b07-979e-4e21-b139-e99b356316d7","ios":"levelo://app?vid=76218b07-979e-4e21-b139-e99b356316d7"},"vehicle_type_id":"4","last_reported":1735283346,"current_range_meters":36800,"station_id":"ce4bhg92rcd13ifvqf90","pricing_plan_id":"cebpf4jnsgd1na2vs0mg"},{"bike_id":"d09e3fdb-576a-4d07-98c5-88b1e58a69ba","system_id":"levelo_inurba_marseille","lat":43.30294,"lon":5.39203,"is_reserved":false,"is_disabled":false,"rental_uris":{"android":"levelo://app?vid=d09e3fdb-576a-4d07-98c5-88b1e58a69ba","ios":"levelo://app?vid=d09e3fdb-576a-4d07-98c5-88b1e58a69ba"},"vehicle_type_id":"4","last_reported":1735283346,"current_range_meters":27200,"station_id":"ce4bgkh2rcd13ifvqbk0","pricing_plan_id":"cebpf4jnsgd1na2vs0mg"},{"bike_id":"01d18412-be78-489a-a2bd-6a56dfca89c5","system_id":"levelo_inurba_marseille","lat":43.25501,"lon":5.37652,"is_reserved":false,"is_disabled":false,"rental_uris":{"android":"levelo://app?vid=01d18412-be78-489a-a2bd-6a56dfca89c5","ios":"levelo://app?vid=01d18412-be78-489a-a2bd-6a56dfca89c5"},"vehicle_type_id":"4","last_reported":1735283346,"current_range_meters":38000,"station_id":"ce4bhh12rcd13ifvqff0","pricing_plan_id":"cebpf4jnsgd1na2vs0mg"},{"bike_id":"b9596caa-1cb9-4a6e-8f74-2063d561793d","system_id":"levelo_inurba_marseille","lat":43.29917,"lon":5.37452,"is_reserved":false,"is_disabled":false,"rental_uris":{"android":"levelo://app?vid=b9596caa-1cb9-4a6e-8f74-2063d561793d","ios":"levelo://app?vid=b9596caa-1cb9-4a6e-8f74-2063d561793d"},"vehicle_type_id":"4","last_reported":1735283346,"current_range_meters":22400,"station_id":"ce4bgjh2rcd13ifvqbg0","pricing_plan_id":"cebpf4jnsgd1na2vs0mg"},{"bike_id":"a47214be-42ca-4886-ab83-630ec790a343","system_id":"levelo_inurba_marseille","lat":43.29785,"lon":5.38109,"is_reserved":false,"is_disabled":false,"rental_uris":{"android":"levelo://app?vid=a47214be-42ca-4886-ab83-630ec790a343","ios":"levelo://app?vid=a47214be-42ca-4886-ab83-630ec790a343"},"vehicle_type_id":"4","last_reported":1735283346,"current_range_meters":38000,"station_id":"ce4bgip2rcd13ifvqbb0","pricing_plan_id":"cebpf4jnsgd1na2vs0mg"},{"bike_id":"09898dd2-84ad-4911-a21d-d1f0823964b3","system_id":"levelo_inurba_marseille","lat":43.29595,"lon":5.37722,"is_reserved":false,"is_disabled":false,"rental_uris":{"android":"levelo://app?vid=09898dd2-84ad-4911-a21d-d1f0823964b3","ios":"levelo://app?vid=09898dd2-84ad-4911-a21d-d1f0823964b3"},"vehicle_type_id":"4","last_reported":1735283346,"current_range_meters":39200,"station_id":"ce4bgi92rcd13ifvqb90","pricing_plan_id":"cebpf4jnsgd1na2vs0mg"},{"bike_id":"60968da4-eb7b-45c8-944b-65c3601ac59f","system_id":"levelo_inurba_marseille","lat":43.29595,"lon":5.38119,"is_reserved":false,"is_disabled":false,"rental_uris":{"android":"levelo://app?vid=60968da4-eb7b-45c8-944b-65c3601ac59f","ios":"levelo://app?vid=60968da4-eb7b-45c8-944b-65c3601ac59f"},"vehicle_type_id":"4","last_reported":1735283346,"current_range_meters":23200,"station_id":"ce4bgl12rcd13ifvqbo0","pricing_plan_id":"cebpf4jnsgd1na2vs0mg"},{"bike_id":"40eee063-b95d-4d32-aca8-c581cf8477cf","system_id":"levelo_inurba_marseille","lat":43.24993,"lon":5.38909,"is_reserved":false,"is_disabled":false,"rental_uris":{"android":"levelo://app?vid=40eee063-b95d-4d32-aca8-c581cf8477cf","ios":"levelo://app?vid=40eee063-b95d-4d32-aca8-c581cf8477cf"},"vehicle_type_id":"4","last_reported":1735283346,"current_range_meters":30000,"station_id":"ce4bhgp2rcd13ifvqfd0","pricing_plan_id":"cebpf4jnsgd1na2vs0mg"},{"bike_id":"244d4ade-4fc4-4115-b8a5-196794b226c5","system_id":"levelo_inurba_marseille","lat":43.33018,"lon":5.39011,"is_reserved":false,"is_disabled":false,"rental_uris":{"android":"levelo://app?vid=244d4ade-4fc4-4115-b8a5-196794b226c5","ios":"levelo://app?vid=244d4ade-4fc4-4115-b8a5-196794b226c5"},"vehicle_type_id":"4","last_reported":1735283346,"current_range_meters":38800,"station_id":"ce4bhr92rcd13ifvqhrg","pricing_plan_id":"cebpf4jnsgd1na2vs0mg"},{"bike_id":"0bdc7275-7d56-4e4a-9983-ff4f39d3d7b9","system_id":"levelo_inurba_marseille","lat":43.30133,"lon":5.38778,"is_reserved":false,"is_disabled":false,"rental_uris":{"android":"levelo://app?vid=0bdc7275-7d56-4e4a-9983-ff4f39d3d7b9","ios":"levelo://app?vid=0bdc7275-7d56-4e4a-9983-ff4f39d3d7b9"},"vehicle_type_id":"4","last_reported":1735283346,"current_range_meters":38800,"station_id":"ce4bghh2rcd13ifvqb60","pricing_plan_id":"cebpf4jnsgd1na2vs0mg"},{"bike_id":"038af3fc-3082-4aae-94ad-d0ead92a965d","system_id":"levelo_inurba_marseille","lat":43.281064,"lon":5.378399,"is_reserved":false,"is_disabled":false,"rental_uris":{"android":"levelo://app?vid=038af3fc-3082-4aae-94ad-d0ead92a965d","ios":"levelo://app?vid=038af3fc-3082-4aae-94ad-d0ead92a965d"},"vehicle_type_id":"4","last_reported":1735283346,"current_range_meters":38400,"station_id":"ce4bha12rcd13ifvqee0","pricing_plan_id":"cebpf4jnsgd1na2vs0mg"},{"bike_id":"1c385a83-8cdf-4f75-9972-c6cedca91f78","system_id":"levelo_inurba_marseille","lat":43.28865,"lon":5.39276,"is_reserved":false,"is_disabled":false,"rental_uris":{"android":"levelo://app?vid=1c385a83-8cdf-4f75-9972-c6cedca91f78","ios":"levelo://app?vid=1c385a83-8cdf-4f75-9972-c6cedca91f78"},"vehicle_type_id":"4","last_reported":1735283346,"current_range_meters":38800,"station_id":"ce4bh2p2rcd13ifvqdi0","pricing_plan_id":"cebpf4jnsgd1na2vs0mg"},{"bike_id":"6fc39219-982d-4feb-9b3b-e1ba4db40afe","system_id":"levelo_inurba_marseille","lat":43.29607,"lon":5.38073,"is_reserved":false,"is_disabled":false,"rental_uris":{"android":"levelo://app?vid=6fc39219-982d-4feb-9b3b-e1ba4db40afe","ios":"levelo://app?vid=6fc39219-982d-4feb-9b3b-e1ba4db40afe"},"vehicle_type_id":"4","last_reported":1735283346,"current_range_meters":38800,"station_id":"ce4bgl12rcd13ifvqbo0","pricing_plan_id":"cebpf4jnsgd1na2vs0mg"},{"bike_id":"e73e6057-e6e9-407b-a17e-f4e119a96aba","system_id":"levelo_inurba_marseille","lat":43.32109,"lon":5.36773,"is_reserved":false,"is_disabled":false,"rental_uris":{"android":"levelo://app?vid=e73e6057-e6e9-407b-a17e-f4e119a96aba","ios":"levelo://app?vid=e73e6057-e6e9-407b-a17e-f4e119a96aba"},"vehicle_type_id":"4","last_reported":1735283346,"current_range_meters":23200,"station_id":"ce4bhrh2rcd13ifvqhug","pricing_plan_id":"cebpf4jnsgd1na2vs0mg"},{"bike_id":"7e9c0897-3c64-490a-8640-969c0a34d3ad","system_id":"levelo_inurba_marseille","lat":43.28845,"lon":5.3932,"is_reserved":false,"is_disabled":false,"rental_uris":{"android":"levelo://app?vid=7e9c0897-3c64-490a-8640-969c0a34d3ad","ios":"levelo://app?vid=7e9c0897-3c64-490a-8640-969c0a34d3ad"},"vehicle_type_id":"4","last_reported":1735283346,"current_range_meters":15200,"station_id":"ce4bh2p2rcd13ifvqdi0","pricing_plan_id":"cebpf4jnsgd1na2vs0mg"},{"bike_id":"4457ac0b-5759-4724-82b6-65c4e675216e","system_id":"levelo_inurba_marseille","lat":43.27815,"lon":5.40711,"is_reserved":false,"is_disabled":false,"rental_uris":{"android":"levelo://app?vid=4457ac0b-5759-4724-82b6-65c4e675216e","ios":"levelo://app?vid=4457ac0b-5759-4724-82b6-65c4e675216e"},"vehicle_type_id":"4","last_reported":1735283346,"current_range_meters":6400,"station_id":"ce4bhnh2rcd13ifvqgtg","pricing_plan_id":"cebpf4jnsgd1na2vs0mg"},{"bike_id":"34b8090c-19a0-45c5-a2d5-6f9467bc44c2","system_id":"levelo_inurba_marseille","lat":43.309513,"lon":5.390494,"is_reserved":false,"is_disabled":false,"rental_uris":{"android":"levelo://app?vid=34b8090c-19a0-45c5-a2d5-6f9467bc44c2","ios":"levelo://app?vid=34b8090c-19a0-45c5-a2d5-6f9467bc44c2"},"vehicle_type_id":"4","last_reported":1735283346,"current_range_meters":38000,"station_id":"ce4bgup2rcd13ifvqco0","pricing_plan_id":"cebpf4jnsgd1na2vs0mg"},{"bike_id":"90a15985-e414-4303-93ac-d5f4499c7362","system_id":"levelo_inurba_marseille","lat":43.28612,"lon":5.35099,"is_reserved":false,"is_disabled":false,"rental_uris":{"android":"levelo://app?vid=90a15985-e414-4303-93ac-d5f4499c7362","ios":"levelo://app?vid=90a15985-e414-4303-93ac-d5f4499c7362"},"vehicle_type_id":"4","last_reported":1735283346,"current_range_meters":36800,"station_id":"ce4bhch2rcd13ifvqeug","pricing_plan_id":"cebpf4jnsgd1na2vs0mg"},{"bike_id":"bcee2927-a4fe-4364-a6e1-b9be33b2bd39","system_id":"levelo_inurba_marseille","lat":43.26215,"lon":5.3744,"is_reserved":false,"is_disabled":false,"rental_uris":{"android":"levelo://app?vid=bcee2927-a4fe-4364-a6e1-b9be33b2bd39","ios":"levelo://app?vid=bcee2927-a4fe-4364-a6e1-b9be33b2bd39"},"vehicle_type_id":"4","last_reported":1735283346,"current_range_meters":29600,"station_id":"ce4bhgp2rcd13ifvqfc0","pricing_plan_id":"cebpf4jnsgd1na2vs0mg"},{"bike_id":"39c2c987-3b88-4998-bc24-3c208058baed","system_id":"levelo_inurba_marseille","lat":43.29917,"lon":5.37462,"is_reserved":false,"is_disabled":false,"rental_uris":{"android":"levelo://app?vid=39c2c987-3b88-4998-bc24-3c208058baed","ios":"levelo://app?vid=39c2c987-3b88-4998-bc24-3c208058baed"},"vehicle_type_id":"4","last_reported":1735283346,"current_range_meters":30000,"station_id":"ce4bgjh2rcd13ifvqbg0","pricing_plan_id":"cebpf4jnsgd1na2vs0mg"},{"bike_id":"731ba9de-00dd-4cec-ab12-769c3978dcf6","system_id":"levelo_inurba_marseille","lat":43.32031,"lon":5.4157,"is_reserved":false,"is_disabled":false,"rental_uris":{"android":"levelo://app?vid=731ba9de-00dd-4cec-ab12-769c3978dcf6","ios":"levelo://app?vid=731ba9de-00dd-4cec-ab12-769c3978dcf6"},"vehicle_type_id":"4","last_reported":1735283346,"current_range_meters":38400,"station_id":"ce4bhq92rcd13ifvqhkg","pricing_plan_id":"cebpf4jnsgd1na2vs0mg"},{"bike_id":"4cac333c-d1dd-4143-9d9b-28dca58be05d","system_id":"levelo_inurba_marseille","lat":43.28924,"lon":5.36404,"is_reserved":false,"is_disabled":false,"rental_uris":{"android":"levelo://app?vid=4cac333c-d1dd-4143-9d9b-28dca58be05d","ios":"levelo://app?vid=4cac333c-d1dd-4143-9d9b-28dca58be05d"},"vehicle_type_id":"4","last_reported":1735283346,"current_range_meters":39200,"station_id":"ce4bhc92rcd13ifvqetg","pricing_plan_id":"cebpf4jnsgd1na2vs0mg"},{"bike_id":"0f974527-e3df-4574-93f8-0190dc1c0535","system_id":"levelo_inurba_marseille","lat":43.3093,"lon":5.40145,"is_reserved":false,"is_disabled":false,"rental_uris":{"android":"levelo://app?vid=0f974527-e3df-4574-93f8-0190dc1c0535","ios":"levelo://app?vid=0f974527-e3df-4574-93f8-0190dc1c0535"},"vehicle_type_id":"4","last_reported":1735283346,"current_range_meters":38000,"station_id":"ce4bgvp2rcd13ifvqct0","pricing_plan_id":"cebpf4jnsgd1na2vs0mg"},{"bike_id":"ea418be2-b096-47ed-970d-8eff98e86cbc","system_id":"levelo_inurba_marseille","lat":43.3127,"lon":5.40172,"is_reserved":false,"is_disabled":false,"rental_uris":{"android":"levelo://app?vid=ea418be2-b096-47ed-970d-8eff98e86cbc","ios":"levelo://app?vid=ea418be2-b096-47ed-970d-8eff98e86cbc"},"vehicle_type_id":"4","last_reported":1735283346,"current_range_meters":39200,"station_id":"ce4bh092rcd13ifvqd30","pricing_plan_id":"cebpf4jnsgd1na2vs0mg"},{"bike_id":"d8fccc13-271f-4400-94aa-e43f9c968a33","system_id":"levelo_inurba_marseille","lat":43.28847,"lon":5.358,"is_reserved":false,"is_disabled":false,"rental_uris":{"android":"levelo://app?vid=d8fccc13-271f-4400-94aa-e43f9c968a33","ios":"levelo://app?vid=d8fccc13-271f-4400-94aa-e43f9c968a33"},"vehicle_type_id":"4","last_reported":1735283346,"current_range_meters":4800,"station_id":"ce4bhb12rcd13ifvqem0","pricing_plan_id":"cebpf4jnsgd1na2vs0mg"},{"bike_id":"8703ddc2-abd8-4ed3-8052-d2dedbc6fd5c","system_id":"levelo_inurba_marseille","lat":43.26951,"lon":5.38644,"is_reserved":false,"is_disabled":false,"rental_uris":{"android":"levelo://app?vid=8703ddc2-abd8-4ed3-8052-d2dedbc6fd5c","ios":"levelo://app?vid=8703ddc2-abd8-4ed3-8052-d2dedbc6fd5c"},"vehicle_type_id":"4","last_reported":1735283346,"current_range_meters":38800,"station_id":"ce4bhh92rcd13ifvqfh0","pricing_plan_id":"cebpf4jnsgd1na2vs0mg"},{"bike_id":"5f900647-c14e-451e-b352-f30b00097dda","system_id":"levelo_inurba_marseille","lat":43.304497,"lon":5.371234,"is_reserved":false,"is_disabled":false,"rental_uris":{"android":"levelo://app?vid=5f900647-c14e-451e-b352-f30b00097dda","ios":"levelo://app?vid=5f900647-c14e-451e-b352-f30b00097dda"},"vehicle_type_id":"4","last_reported":1735283346,"current_range_meters":35600,"station_id":"ce4bgrp2rcd13ifvqc9g","pricing_plan_id":"cebpf4jnsgd1na2vs0mg"},{"bike_id":"d31240d3-9979-449f-a2b4-47db9b31346e","system_id":"levelo_inurba_marseille","lat":43.284798,"lon":5.385485,"is_reserved":false,"is_disabled":false,"rental_uris":{"android":"levelo://app?vid=d31240d3-9979-449f-a2b4-47db9b31346e","ios":"levelo://app?vid=d31240d3-9979-449f-a2b4-47db9b31346e"},"vehicle_type_id":"4","last_reported":1735283346,"current_range_meters":38800,"station_id":"ce4bh8p2rcd13ifvqeb0","pricing_plan_id":"cebpf4jnsgd1na2vs0mg"},{"bike_id":"90bcfe0a-0251-48b9-b280-a465c9bf2e2c","system_id":"levelo_inurba_marseille","lat":43.26205,"lon":5.37444,"is_reserved":false,"is_disabled":false,"rental_uris":{"android":"levelo://app?vid=90bcfe0a-0251-48b9-b280-a465c9bf2e2c","ios":"levelo://app?vid=90bcfe0a-0251-48b9-b280-a465c9bf2e2c"},"vehicle_type_id":"4","last_reported":1735283346,"current_range_meters":9200,"station_id":"ce4bhgp2rcd13ifvqfc0","pricing_plan_id":"cebpf4jnsgd1na2vs0mg"},{"bike_id":"dad6db58-f5bc-4da2-b0b4-3d5d1002166b","system_id":"levelo_inurba_marseille","lat":43.32112,"lon":5.36772,"is_reserved":false,"is_disabled":false,"rental_uris":{"android":"levelo://app?vid=dad6db58-f5bc-4da2-b0b4-3d5d1002166b","ios":"levelo://app?vid=dad6db58-f5bc-4da2-b0b4-3d5d1002166b"},"vehicle_type_id":"4","last_reported":1735283346,"current_range_meters":17200,"station_id":"ce4bhrh2rcd13ifvqhug","pricing_plan_id":"cebpf4jnsgd1na2vs0mg"},{"bike_id":"53de4c91-b843-49c8-a9b8-1f4b2ff43715","system_id":"levelo_inurba_marseille","lat":43.298962,"lon":5.381306,"is_reserved":false,"is_disabled":false,"rental_uris":{"android":"levelo://app?vid=53de4c91-b843-49c8-a9b8-1f4b2ff43715","ios":"levelo://app?vid=53de4c91-b843-49c8-a9b8-1f4b2ff43715"},"vehicle_type_id":"4","last_reported":1735283346,"current_range_meters":36000,"station_id":"ce4bgj12rcd13ifvqbc0","pricing_plan_id":"cebpf4jnsgd1na2vs0mg"},{"bike_id":"f9cb0850-5ace-4138-b2d5-eca55ed379d1","system_id":"levelo_inurba_marseille","lat":43.303045,"lon":5.392016,"is_reserved":false,"is_disabled":false,"rental_uris":{"android":"levelo://app?vid=f9cb0850-5ace-4138-b2d5-eca55ed379d1","ios":"levelo://app?vid=f9cb0850-5ace-4138-b2d5-eca55ed379d1"},"vehicle_type_id":"4","last_reported":1735283346,"current_range_meters":38000,"station_id":"ce4bgkh2rcd13ifvqbk0","pricing_plan_id":"cebpf4jnsgd1na2vs0mg"},{"bike_id":"cd16f9d1-05bb-4011-aa42-a37c81c5600e","system_id":"levelo_inurba_marseille","lat":43.27374,"lon":5.362577,"is_reserved":false,"is_disabled":false,"rental_uris":{"android":"levelo://app?vid=cd16f9d1-05bb-4011-aa42-a37c81c5600e","ios":"levelo://app?vid=cd16f9d1-05bb-4011-aa42-a37c81c5600e"},"vehicle_type_id":"4","last_reported":1735283346,"current_range_meters":16800,"station_id":"ce4bhbh2rcd13ifvqeo0","pricing_plan_id":"cebpf4jnsgd1na2vs0mg"},{"bike_id":"2eddeba4-489b-4fcc-acd0-042ea52f16ea","system_id":"levelo_inurba_marseille","lat":43.250875,"lon":5.395194,"is_reserved":false,"is_disabled":false,"rental_uris":{"android":"levelo://app?vid=2eddeba4-489b-4fcc-acd0-042ea52f16ea","ios":"levelo://app?vid=2eddeba4-489b-4fcc-acd0-042ea52f16ea"},"vehicle_type_id":"4","last_reported":1735283346,"current_range_meters":32400,"station_id":"ce4bhm12rcd13ifvqgkg","pricing_plan_id":"cebpf4jnsgd1na2vs0mg"},{"bike_id":"82cdacf7-ff5a-4d3f-a306-36ce7f7edb3c","system_id":"levelo_inurba_marseille","lat":43.33607,"lon":5.41022,"is_reserved":false,"is_disabled":false,"rental_uris":{"android":"levelo://app?vid=82cdacf7-ff5a-4d3f-a306-36ce7f7edb3c","ios":"levelo://app?vid=82cdacf7-ff5a-4d3f-a306-36ce7f7edb3c"},"vehicle_type_id":"4","last_reported":1735283346,"current_range_meters":12800,"station_id":"ce4bhqh2rcd13ifvqhmg","pricing_plan_id":"cebpf4jnsgd1na2vs0mg"},{"bike_id":"6c845133-d324-4733-bdd1-5616d8af0159","system_id":"levelo_inurba_marseille","lat":43.293122,"lon":5.37186,"is_reserved":false,"is_disabled":false,"rental_uris":{"android":"levelo://app?vid=6c845133-d324-4733-bdd1-5616d8af0159","ios":"levelo://app?vid=6c845133-d324-4733-bdd1-5616d8af0159"},"vehicle_type_id":"4","last_reported":1735283346,"current_range_meters":35200,"station_id":"ce4bgh92rcd13ifvqb40","pricing_plan_id":"cebpf4jnsgd1na2vs0mg"},{"bike_id":"dd65a19b-8912-4b70-a701-96d31698b96d","system_id":"levelo_inurba_marseille","lat":43.25111,"lon":5.40325,"is_reserved":false,"is_disabled":false,"rental_uris":{"android":"levelo://app?vid=dd65a19b-8912-4b70-a701-96d31698b96d","ios":"levelo://app?vid=dd65a19b-8912-4b70-a701-96d31698b96d"},"vehicle_type_id":"4","last_reported":1735283346,"current_range_meters":21600,"station_id":"ce4bhlh2rcd13ifvqgig","pricing_plan_id":"cebpf4jnsgd1na2vs0mg"},{"bike_id":"38a63aaa-adaf-42be-8437-e2cacc57e779","system_id":"levelo_inurba_marseille","lat":43.297931,"lon":5.381153,"is_reserved":false,"is_disabled":false,"rental_uris":{"android":"levelo://app?vid=38a63aaa-adaf-42be-8437-e2cacc57e779","ios":"levelo://app?vid=38a63aaa-adaf-42be-8437-e2cacc57e779"},"vehicle_type_id":"4","last_reported":1735283346,"current_range_meters":38400,"station_id":"ce4bgip2rcd13ifvqbb0","pricing_plan_id":"cebpf4jnsgd1na2vs0mg"},{"bike_id":"81a96c9a-a123-46c9-b2c0-c91b31dae98c","system_id":"levelo_inurba_marseille","lat":43.30552,"lon":5.37188,"is_reserved":false,"is_disabled":false,"rental_uris":{"android":"levelo://app?vid=81a96c9a-a123-46c9-b2c0-c91b31dae98c","ios":"levelo://app?vid=81a96c9a-a123-46c9-b2c0-c91b31dae98c"},"vehicle_type_id":"4","last_reported":1735283346,"current_range_meters":34000,"station_id":"","pricing_plan_id":"cebpf4jnsgd1na2vs0mg"},{"bike_id":"9c99b2b9-cebc-4e69-bb49-8f5a9aa575aa","system_id":"levelo_inurba_marseille","lat":43.29974,"lon":5.38502,"is_reserved":false,"is_disabled":false,"rental_uris":{"android":"levelo://app?vid=9c99b2b9-cebc-4e69-bb49-8f5a9aa575aa","ios":"levelo://app?vid=9c99b2b9-cebc-4e69-bb49-8f5a9aa575aa"},"vehicle_type_id":"4","last_reported":1735283346,"current_range_meters":36400,"station_id":"ce4bgj92rcd13ifvqbd0","pricing_plan_id":"cebpf4jnsgd1na2vs0mg"},{"bike_id":"5c9e938d-95d3-48a6-9b62-edf2b2efb3ce","system_id":"levelo_inurba_marseille","lat":43.28158,"lon":5.42639,"is_reserved":false,"is_disabled":false,"rental_uris":{"android":"levelo://app?vid=5c9e938d-95d3-48a6-9b62-edf2b2efb3ce","ios":"levelo://app?vid=5c9e938d-95d3-48a6-9b62-edf2b2efb3ce"},"vehicle_type_id":"4","last_reported":1735283346,"current_range_meters":22800,"station_id":"ce4bhnh2rcd13ifvqgug","pricing_plan_id":"cebpf4jnsgd1na2vs0mg"},{"bike_id":"c2791464-435d-4609-b2b8-c2ba32814ea4","system_id":"levelo_inurba_marseille","lat":43.28458,"lon":5.35886,"is_reserved":false,"is_disabled":false,"rental_uris":{"android":"levelo://app?vid=c2791464-435d-4609-b2b8-c2ba32814ea4","ios":"levelo://app?vid=c2791464-435d-4609-b2b8-c2ba32814ea4"},"vehicle_type_id":"4","last_reported":1735283346,"current_range_meters":28000,"station_id":"ce4bhah2rcd13ifvqei0","pricing_plan_id":"cebpf4jnsgd1na2vs0mg"},{"bike_id":"06629d57-143e-422c-ad06-c074d554d0d9","system_id":"levelo_inurba_marseille","lat":43.29972,"lon":5.38467,"is_reserved":false,"is_disabled":false,"rental_uris":{"android":"levelo://app?vid=06629d57-143e-422c-ad06-c074d554d0d9","ios":"levelo://app?vid=06629d57-143e-422c-ad06-c074d554d0d9"},"vehicle_type_id":"4","last_reported":1735283346,"current_range_meters":38000,"station_id":"ce4bgj92rcd13ifvqbd0","pricing_plan_id":"cebpf4jnsgd1na2vs0mg"},{"bike_id":"821d987d-d104-4e4b-b2f2-ae7d66aa4bb2","system_id":"levelo_inurba_marseille","lat":43.28967,"lon":5.37841,"is_reserved":false,"is_disabled":false,"rental_uris":{"android":"levelo://app?vid=821d987d-d104-4e4b-b2f2-ae7d66aa4bb2","ios":"levelo://app?vid=821d987d-d104-4e4b-b2f2-ae7d66aa4bb2"},"vehicle_type_id":"4","last_reported":1735283346,"current_range_meters":38000,"station_id":"ce4bh9p2rcd13ifvqed0","pricing_plan_id":"cebpf4jnsgd1na2vs0mg"},{"bike_id":"ca049452-ab87-4154-a37e-a13d001acce4","system_id":"levelo_inurba_marseille","lat":43.31083,"lon":5.42428,"is_reserved":false,"is_disabled":false,"rental_uris":{"android":"levelo://app?vid=ca049452-ab87-4154-a37e-a13d001acce4","ios":"levelo://app?vid=ca049452-ab87-4154-a37e-a13d001acce4"},"vehicle_type_id":"4","last_reported":1735283346,"current_range_meters":38000,"station_id":"ce4bhp92rcd13ifvqhag","pricing_plan_id":"cebpf4jnsgd1na2vs0mg"},{"bike_id":"1f03e07b-50b0-4a9e-bd03-dc766534a5b3","system_id":"levelo_inurba_marseille","lat":43.25581,"lon":5.38246,"is_reserved":false,"is_disabled":false,"rental_uris":{"android":"levelo://app?vid=1f03e07b-50b0-4a9e-bd03-dc766534a5b3","ios":"levelo://app?vid=1f03e07b-50b0-4a9e-bd03-dc766534a5b3"},"vehicle_type_id":"4","last_reported":1735283346,"current_range_meters":32000,"station_id":"ce4bhih2rcd13ifvqfs0","pricing_plan_id":"cebpf4jnsgd1na2vs0mg"},{"bike_id":"61680f59-1eda-4183-8a2c-f358c3b8fe6c","system_id":"levelo_inurba_marseille","lat":43.24996,"lon":5.38938,"is_reserved":false,"is_disabled":false,"rental_uris":{"android":"levelo://app?vid=61680f59-1eda-4183-8a2c-f358c3b8fe6c","ios":"levelo://app?vid=61680f59-1eda-4183-8a2c-f358c3b8fe6c"},"vehicle_type_id":"4","last_reported":1735283346,"current_range_meters":36800,"station_id":"ce4bhgp2rcd13ifvqfd0","pricing_plan_id":"cebpf4jnsgd1na2vs0mg"},{"bike_id":"c6834b76-82f1-466a-8b2d-118839d142cc","system_id":"levelo_inurba_marseille","lat":43.299,"lon":5.43683,"is_reserved":false,"is_disabled":false,"rental_uris":{"android":"levelo://app?vid=c6834b76-82f1-466a-8b2d-118839d142cc","ios":"levelo://app?vid=c6834b76-82f1-466a-8b2d-118839d142cc"},"vehicle_type_id":"4","last_reported":1735283346,"current_range_meters":38400,"station_id":"ce4bhpp2rcd13ifvqhfg","pricing_plan_id":"cebpf4jnsgd1na2vs0mg"},{"bike_id":"61dc103e-f06e-43e2-845c-f2276b4162ee","system_id":"levelo_inurba_marseille","lat":43.30128,"lon":5.39874,"is_reserved":false,"is_disabled":true,"rental_uris":{"android":"levelo://app?vid=61dc103e-f06e-43e2-845c-f2276b4162ee","ios":"levelo://app?vid=61dc103e-f06e-43e2-845c-f2276b4162ee"},"vehicle_type_id":"4","last_reported":1735283346,"current_range_meters":400,"station_id":"ce4bh0h2rcd13ifvqd40","pricing_plan_id":"cebpf4jnsgd1na2vs0mg"},{"bike_id":"1107b56a-98a5-4a01-8449-9eba086fee5a","system_id":"levelo_inurba_marseille","lat":43.29073,"lon":5.39883,"is_reserved":false,"is_disabled":false,"rental_uris":{"android":"levelo://app?vid=1107b56a-98a5-4a01-8449-9eba086fee5a","ios":"levelo://app?vid=1107b56a-98a5-4a01-8449-9eba086fee5a"},"vehicle_type_id":"4","last_reported":1735283346,"current_range_meters":24000,"station_id":"","pricing_plan_id":"cebpf4jnsgd1na2vs0mg"},{"bike_id":"4e4277ec-b79e-43a1-bae0-d0f951c20956","system_id":"levelo_inurba_marseille","lat":43.29796,"lon":5.39352,"is_reserved":false,"is_disabled":false,"rental_uris":{"android":"levelo://app?vid=4e4277ec-b79e-43a1-bae0-d0f951c20956","ios":"levelo://app?vid=4e4277ec-b79e-43a1-bae0-d0f951c20956"},"vehicle_type_id":"4","last_reported":1735283346,"current_range_meters":38800,"station_id":"chh1huq6cuj3fo74tm60","pricing_plan_id":"cebpf4jnsgd1na2vs0mg"},{"bike_id":"6f68edfd-fb24-4919-b968-971a44d10505","system_id":"levelo_inurba_marseille","lat":43.337218,"lon":5.391769,"is_reserved":false,"is_disabled":false,"rental_uris":{"android":"levelo://app?vid=6f68edfd-fb24-4919-b968-971a44d10505","ios":"levelo://app?vid=6f68edfd-fb24-4919-b968-971a44d10505"},"vehicle_type_id":"4","last_reported":1735283346,"current_range_meters":38800,"station_id":"ce4bhr92rcd13ifvqhsg","pricing_plan_id":"cebpf4jnsgd1na2vs0mg"},{"bike_id":"867c36ef-b6e5-4fbd-9b7d-e551c498e6f8","system_id":"levelo_inurba_marseille","lat":43.301361,"lon":5.387904,"is_reserved":false,"is_disabled":true,"rental_uris":{"android":"levelo://app?vid=867c36ef-b6e5-4fbd-9b7d-e551c498e6f8","ios":"levelo://app?vid=867c36ef-b6e5-4fbd-9b7d-e551c498e6f8"},"vehicle_type_id":"4","last_reported":1735283346,"current_range_meters":35600,"station_id":"ce4bghh2rcd13ifvqb60","pricing_plan_id":"cebpf4jnsgd1na2vs0mg"},{"bike_id":"1ba22deb-a0a1-4994-900b-4b7721109cf4","system_id":"levelo_inurba_marseille","lat":43.28942,"lon":5.39633,"is_reserved":false,"is_disabled":false,"rental_uris":{"android":"levelo://app?vid=1ba22deb-a0a1-4994-900b-4b7721109cf4","ios":"levelo://app?vid=1ba22deb-a0a1-4994-900b-4b7721109cf4"},"vehicle_type_id":"4","last_reported":1735283346,"current_range_meters":12400,"station_id":"ce4bh3h2rcd13ifvqdn0","pricing_plan_id":"cebpf4jnsgd1na2vs0mg"},{"bike_id":"e00dfb05-17e3-4fe6-bb2e-302de9c485a7","system_id":"levelo_inurba_marseille","lat":43.29608,"lon":5.38099,"is_reserved":false,"is_disabled":false,"rental_uris":{"android":"levelo://app?vid=e00dfb05-17e3-4fe6-bb2e-302de9c485a7","ios":"levelo://app?vid=e00dfb05-17e3-4fe6-bb2e-302de9c485a7"},"vehicle_type_id":"4","last_reported":1735283346,"current_range_meters":32800,"station_id":"ce4bgl12rcd13ifvqbo0","pricing_plan_id":"cebpf4jnsgd1na2vs0mg"},{"bike_id":"5608df94-b66e-460e-9f45-682a8f36b500","system_id":"levelo_inurba_marseille","lat":43.269394,"lon":5.389265,"is_reserved":false,"is_disabled":false,"rental_uris":{"android":"levelo://app?vid=5608df94-b66e-460e-9f45-682a8f36b500","ios":"levelo://app?vid=5608df94-b66e-460e-9f45-682a8f36b500"},"vehicle_type_id":"4","last_reported":1735283346,"current_range_meters":38400,"station_id":"ce4bhhh2rcd13ifvqfl0","pricing_plan_id":"cebpf4jnsgd1na2vs0mg"},{"bike_id":"3fbbac4e-077e-476b-9b1a-9cc6e989ecb0","system_id":"levelo_inurba_marseille","lat":43.25015,"lon":5.38934,"is_reserved":false,"is_disabled":false,"rental_uris":{"android":"levelo://app?vid=3fbbac4e-077e-476b-9b1a-9cc6e989ecb0","ios":"levelo://app?vid=3fbbac4e-077e-476b-9b1a-9cc6e989ecb0"},"vehicle_type_id":"4","last_reported":1735283346,"current_range_meters":8000,"station_id":"ce4bhgp2rcd13ifvqfd0","pricing_plan_id":"cebpf4jnsgd1na2vs0mg"},{"bike_id":"75a25c31-6238-4964-bf4b-a75b86cd39ad","system_id":"levelo_inurba_marseille","lat":43.2867,"lon":5.38638,"is_reserved":false,"is_disabled":false,"rental_uris":{"android":"levelo://app?vid=75a25c31-6238-4964-bf4b-a75b86cd39ad","ios":"levelo://app?vid=75a25c31-6238-4964-bf4b-a75b86cd39ad"},"vehicle_type_id":"4","last_reported":1735283346,"current_range_meters":25600,"station_id":"ce4bh492rcd13ifvqdug","pricing_plan_id":"cebpf4jnsgd1na2vs0mg"},{"bike_id":"2f61133e-7f6f-4a4e-af8c-9a3e6971fa55","system_id":"levelo_inurba_marseille","lat":43.25001,"lon":5.38933,"is_reserved":false,"is_disabled":false,"rental_uris":{"android":"levelo://app?vid=2f61133e-7f6f-4a4e-af8c-9a3e6971fa55","ios":"levelo://app?vid=2f61133e-7f6f-4a4e-af8c-9a3e6971fa55"},"vehicle_type_id":"4","last_reported":1735283346,"current_range_meters":36400,"station_id":"ce4bhgp2rcd13ifvqfd0","pricing_plan_id":"cebpf4jnsgd1na2vs0mg"},{"bike_id":"aba11208-5584-4274-9480-c7eb3958e8c1","system_id":"levelo_inurba_marseille","lat":43.30486,"lon":5.37909,"is_reserved":false,"is_disabled":false,"rental_uris":{"android":"levelo://app?vid=aba11208-5584-4274-9480-c7eb3958e8c1","ios":"levelo://app?vid=aba11208-5584-4274-9480-c7eb3958e8c1"},"vehicle_type_id":"4","last_reported":1735283346,"current_range_meters":38400,"station_id":"ce4bgup2rcd13ifvqcn0","pricing_plan_id":"cebpf4jnsgd1na2vs0mg"},{"bike_id":"e203eede-93d4-4367-be9a-c6d93cdc799f","system_id":"levelo_inurba_marseille","lat":43.29929,"lon":5.36544,"is_reserved":false,"is_disabled":false,"rental_uris":{"android":"levelo://app?vid=e203eede-93d4-4367-be9a-c6d93cdc799f","ios":"levelo://app?vid=e203eede-93d4-4367-be9a-c6d93cdc799f"},"vehicle_type_id":"4","last_reported":1735283346,"current_range_meters":19600,"station_id":"ce4bgm92rcd13ifvqbr0","pricing_plan_id":"cebpf4jnsgd1na2vs0mg"},{"bike_id":"b96bfa04-2238-4309-819f-1753f346a629","system_id":"levelo_inurba_marseille","lat":43.26063,"lon":5.39387,"is_reserved":false,"is_disabled":false,"rental_uris":{"android":"levelo://app?vid=b96bfa04-2238-4309-819f-1753f346a629","ios":"levelo://app?vid=b96bfa04-2238-4309-819f-1753f346a629"},"vehicle_type_id":"4","last_reported":1735283346,"current_range_meters":28800,"station_id":"ce4bhh92rcd13ifvqfj0","pricing_plan_id":"cebpf4jnsgd1na2vs0mg"},{"bike_id":"50170703-f9ed-4b51-8530-de97ec9120f0","system_id":"levelo_inurba_marseille","lat":43.26941,"lon":5.40247,"is_reserved":false,"is_disabled":false,"rental_uris":{"android":"levelo://app?vid=50170703-f9ed-4b51-8530-de97ec9120f0","ios":"levelo://app?vid=50170703-f9ed-4b51-8530-de97ec9120f0"},"vehicle_type_id":"4","last_reported":1735283346,"current_range_meters":38800,"station_id":"cjm6bp8fraef2m0cb0m0","pricing_plan_id":"cebpf4jnsgd1na2vs0mg"},{"bike_id":"6d8ef030-5ca2-4c70-be8c-27c73a13251a","system_id":"levelo_inurba_marseille","lat":43.30216,"lon":5.39457,"is_reserved":false,"is_disabled":false,"rental_uris":{"android":"levelo://app?vid=6d8ef030-5ca2-4c70-be8c-27c73a13251a","ios":"levelo://app?vid=6d8ef030-5ca2-4c70-be8c-27c73a13251a"},"vehicle_type_id":"4","last_reported":1735283346,"current_range_meters":39200,"station_id":"ce4bh0p2rcd13ifvqd70","pricing_plan_id":"cebpf4jnsgd1na2vs0mg"},{"bike_id":"41e441a8-4ad2-4bf0-81ba-96c35feaf6d8","system_id":"levelo_inurba_marseille","lat":43.28154,"lon":5.42645,"is_reserved":false,"is_disabled":false,"rental_uris":{"android":"levelo://app?vid=41e441a8-4ad2-4bf0-81ba-96c35feaf6d8","ios":"levelo://app?vid=41e441a8-4ad2-4bf0-81ba-96c35feaf6d8"},"vehicle_type_id":"4","last_reported":1735283346,"current_range_meters":6000,"station_id":"ce4bhnh2rcd13ifvqgug","pricing_plan_id":"cebpf4jnsgd1na2vs0mg"},{"bike_id":"e6689c2c-614d-4aff-a64d-00074aa22d06","system_id":"levelo_inurba_marseille","lat":43.29264,"lon":5.38456,"is_reserved":false,"is_disabled":false,"rental_uris":{"android":"levelo://app?vid=e6689c2c-614d-4aff-a64d-00074aa22d06","ios":"levelo://app?vid=e6689c2c-614d-4aff-a64d-00074aa22d06"},"vehicle_type_id":"4","last_reported":1735283346,"current_range_meters":33200,"station_id":"ce4bh692rcd13ifvqea0","pricing_plan_id":"cebpf4jnsgd1na2vs0mg"},{"bike_id":"582d9a40-8d18-45a2-8729-1fdaf167152c","system_id":"levelo_inurba_marseille","lat":43.313681,"lon":5.384989,"is_reserved":false,"is_disabled":false,"rental_uris":{"android":"levelo://app?vid=582d9a40-8d18-45a2-8729-1fdaf167152c","ios":"levelo://app?vid=582d9a40-8d18-45a2-8729-1fdaf167152c"},"vehicle_type_id":"4","last_reported":1735283346,"current_range_meters":34000,"station_id":"ce4bgt92rcd13ifvqcf0","pricing_plan_id":"cebpf4jnsgd1na2vs0mg"},{"bike_id":"74443a71-238f-4b3b-b15d-d6656c115a86","system_id":"levelo_inurba_marseille","lat":43.24997,"lon":5.38931,"is_reserved":false,"is_disabled":false,"rental_uris":{"android":"levelo://app?vid=74443a71-238f-4b3b-b15d-d6656c115a86","ios":"levelo://app?vid=74443a71-238f-4b3b-b15d-d6656c115a86"},"vehicle_type_id":"4","last_reported":1735283346,"current_range_meters":7200,"station_id":"ce4bhgp2rcd13ifvqfd0","pricing_plan_id":"cebpf4jnsgd1na2vs0mg"},{"bike_id":"4e04e3c8-bad8-47c2-a784-0c5eba8b5d4f","system_id":"levelo_inurba_marseille","lat":43.27073,"lon":5.4228,"is_reserved":false,"is_disabled":false,"rental_uris":{"android":"levelo://app?vid=4e04e3c8-bad8-47c2-a784-0c5eba8b5d4f","ios":"levelo://app?vid=4e04e3c8-bad8-47c2-a784-0c5eba8b5d4f"},"vehicle_type_id":"4","last_reported":1735283346,"current_range_meters":30800,"station_id":"ce4bhk92rcd13ifvqgb0","pricing_plan_id":"cebpf4jnsgd1na2vs0mg"},{"bike_id":"ace17414-155a-4d4f-bf54-eca0215684f2","system_id":"levelo_inurba_marseille","lat":43.32353,"lon":5.38876,"is_reserved":false,"is_disabled":false,"rental_uris":{"android":"levelo://app?vid=ace17414-155a-4d4f-bf54-eca0215684f2","ios":"levelo://app?vid=ace17414-155a-4d4f-bf54-eca0215684f2"},"vehicle_type_id":"4","last_reported":1735283346,"current_range_meters":23200,"station_id":"ce4bhqp2rcd13ifvqhog","pricing_plan_id":"cebpf4jnsgd1na2vs0mg"},{"bike_id":"b3f7c1d6-8123-4d01-aa9c-fa3c8f407264","system_id":"levelo_inurba_marseille","lat":43.29023,"lon":5.38643,"is_reserved":false,"is_disabled":false,"rental_uris":{"android":"levelo://app?vid=b3f7c1d6-8123-4d01-aa9c-fa3c8f407264","ios":"levelo://app?vid=b3f7c1d6-8123-4d01-aa9c-fa3c8f407264"},"vehicle_type_id":"4","last_reported":1735283346,"current_range_meters":36800,"station_id":"ce4bh4p2rcd13ifvqe0g","pricing_plan_id":"cebpf4jnsgd1na2vs0mg"},{"bike_id":"d7057fed-10ad-43bf-b4b8-94473c5133f6","system_id":"levelo_inurba_marseille","lat":43.29934,"lon":5.36568,"is_reserved":false,"is_disabled":false,"rental_uris":{"android":"levelo://app?vid=d7057fed-10ad-43bf-b4b8-94473c5133f6","ios":"levelo://app?vid=d7057fed-10ad-43bf-b4b8-94473c5133f6"},"vehicle_type_id":"4","last_reported":1735283346,"current_range_meters":34800,"station_id":"ce4bgm92rcd13ifvqbr0","pricing_plan_id":"cebpf4jnsgd1na2vs0mg"},{"bike_id":"e6d1142e-f5e9-44c0-be26-8ebd37d5ad52","system_id":"levelo_inurba_marseille","lat":43.28412,"lon":5.37529,"is_reserved":false,"is_disabled":false,"rental_uris":{"android":"levelo://app?vid=e6d1142e-f5e9-44c0-be26-8ebd37d5ad52","ios":"levelo://app?vid=e6d1142e-f5e9-44c0-be26-8ebd37d5ad52"},"vehicle_type_id":"4","last_reported":1735283346,"current_range_meters":36000,"station_id":"ce4bh412rcd13ifvqds0","pricing_plan_id":"cebpf4jnsgd1na2vs0mg"},{"bike_id":"68748034-e5dc-43d6-9c47-2c8088710c68","system_id":"levelo_inurba_marseille","lat":43.29541,"lon":5.42296,"is_reserved":false,"is_disabled":false,"rental_uris":{"android":"levelo://app?vid=68748034-e5dc-43d6-9c47-2c8088710c68","ios":"levelo://app?vid=68748034-e5dc-43d6-9c47-2c8088710c68"},"vehicle_type_id":"4","last_reported":1735283346,"current_range_meters":38400,"station_id":"ce4bhph2rcd13ifvqhdg","pricing_plan_id":"cebpf4jnsgd1na2vs0mg"},{"bike_id":"f2f91b7c-af31-49df-af15-35bc0e323143","system_id":"levelo_inurba_marseille","lat":43.27813,"lon":5.40716,"is_reserved":false,"is_disabled":false,"rental_uris":{"android":"levelo://app?vid=f2f91b7c-af31-49df-af15-35bc0e323143","ios":"levelo://app?vid=f2f91b7c-af31-49df-af15-35bc0e323143"},"vehicle_type_id":"4","last_reported":1735283346,"current_range_meters":38800,"station_id":"ce4bhnh2rcd13ifvqgtg","pricing_plan_id":"cebpf4jnsgd1na2vs0mg"},{"bike_id":"356fd92d-e963-40e6-b40e-58fc72ac9553","system_id":"levelo_inurba_marseille","lat":43.32106,"lon":5.36768,"is_reserved":false,"is_disabled":false,"rental_uris":{"android":"levelo://app?vid=356fd92d-e963-40e6-b40e-58fc72ac9553","ios":"levelo://app?vid=356fd92d-e963-40e6-b40e-58fc72ac9553"},"vehicle_type_id":"4","last_reported":1735283346,"current_range_meters":20800,"station_id":"ce4bhrh2rcd13ifvqhug","pricing_plan_id":"cebpf4jnsgd1na2vs0mg"},{"bike_id":"093ea325-05ba-493a-9614-250e339137b8","system_id":"levelo_inurba_marseille","lat":43.248088,"lon":5.374506,"is_reserved":false,"is_disabled":false,"rental_uris":{"android":"levelo://app?vid=093ea325-05ba-493a-9614-250e339137b8","ios":"levelo://app?vid=093ea325-05ba-493a-9614-250e339137b8"},"vehicle_type_id":"4","last_reported":1735283346,"current_range_meters":9600,"station_id":"ce4bhgh2rcd13ifvqfb0","pricing_plan_id":"cebpf4jnsgd1na2vs0mg"},{"bike_id":"1022f0fc-ae62-4d19-8ecf-320d2ab1b80d","system_id":"levelo_inurba_marseille","lat":43.2721,"lon":5.39183,"is_reserved":false,"is_disabled":false,"rental_uris":{"android":"levelo://app?vid=1022f0fc-ae62-4d19-8ecf-320d2ab1b80d","ios":"levelo://app?vid=1022f0fc-ae62-4d19-8ecf-320d2ab1b80d"},"vehicle_type_id":"4","last_reported":1735283346,"current_range_meters":38000,"station_id":"ce4bhhp2rcd13ifvqfm0","pricing_plan_id":"cebpf4jnsgd1na2vs0mg"},{"bike_id":"2d5aab36-7a20-4884-8d38-fd798fcff501","system_id":"levelo_inurba_marseille","lat":43.29173,"lon":5.36906,"is_reserved":false,"is_disabled":false,"rental_uris":{"android":"levelo://app?vid=2d5aab36-7a20-4884-8d38-fd798fcff501","ios":"levelo://app?vid=2d5aab36-7a20-4884-8d38-fd798fcff501"},"vehicle_type_id":"4","last_reported":1735283346,"current_range_meters":8400,"station_id":"","pricing_plan_id":"cebpf4jnsgd1na2vs0mg"},{"bike_id":"cc679926-49d0-4021-a6d1-8fe3eb2e6bd4","system_id":"levelo_inurba_marseille","lat":43.28683,"lon":5.38673,"is_reserved":false,"is_disabled":false,"rental_uris":{"android":"levelo://app?vid=cc679926-49d0-4021-a6d1-8fe3eb2e6bd4","ios":"levelo://app?vid=cc679926-49d0-4021-a6d1-8fe3eb2e6bd4"},"vehicle_type_id":"4","last_reported":1735283346,"current_range_meters":38000,"station_id":"ce4bh492rcd13ifvqdug","pricing_plan_id":"cebpf4jnsgd1na2vs0mg"},{"bike_id":"1578dee4-b4c1-4038-8949-746ae9974646","system_id":"levelo_inurba_marseille","lat":43.30236,"lon":5.40047,"is_reserved":false,"is_disabled":false,"rental_uris":{"android":"levelo://app?vid=1578dee4-b4c1-4038-8949-746ae9974646","ios":"levelo://app?vid=1578dee4-b4c1-4038-8949-746ae9974646"},"vehicle_type_id":"4","last_reported":1735283346,"current_range_meters":34000,"station_id":"ce4bgvh2rcd13ifvqcs0","pricing_plan_id":"cebpf4jnsgd1na2vs0mg"},{"bike_id":"afa1ff45-7503-4146-b21a-bfc51c88b9da","system_id":"levelo_inurba_marseille","lat":43.29567,"lon":5.3751,"is_reserved":false,"is_disabled":false,"rental_uris":{"android":"levelo://app?vid=afa1ff45-7503-4146-b21a-bfc51c88b9da","ios":"levelo://app?vid=afa1ff45-7503-4146-b21a-bfc51c88b9da"},"vehicle_type_id":"4","last_reported":1735283346,"current_range_meters":19200,"station_id":"ce4bgh92rcd13ifvqb50","pricing_plan_id":"cebpf4jnsgd1na2vs0mg"},{"bike_id":"eb70c629-c191-4542-94c5-394ac4724d43","system_id":"levelo_inurba_marseille","lat":43.28459,"lon":5.38537,"is_reserved":false,"is_disabled":false,"rental_uris":{"android":"levelo://app?vid=eb70c629-c191-4542-94c5-394ac4724d43","ios":"levelo://app?vid=eb70c629-c191-4542-94c5-394ac4724d43"},"vehicle_type_id":"4","last_reported":1735283346,"current_range_meters":38400,"station_id":"ce4bh8p2rcd13ifvqeb0","pricing_plan_id":"cebpf4jnsgd1na2vs0mg"},{"bike_id":"f9d7a6aa-83a7-4384-8969-5637dd508436","system_id":"levelo_inurba_marseille","lat":43.2781,"lon":5.40709,"is_reserved":false,"is_disabled":false,"rental_uris":{"android":"levelo://app?vid=f9d7a6aa-83a7-4384-8969-5637dd508436","ios":"levelo://app?vid=f9d7a6aa-83a7-4384-8969-5637dd508436"},"vehicle_type_id":"4","last_reported":1735283346,"current_range_meters":38800,"station_id":"ce4bhnh2rcd13ifvqgtg","pricing_plan_id":"cebpf4jnsgd1na2vs0mg"},{"bike_id":"01fed048-1469-43f6-badd-acb5b8823391","system_id":"levelo_inurba_marseille","lat":43.30948,"lon":5.40179,"is_reserved":false,"is_disabled":false,"rental_uris":{"android":"levelo://app?vid=01fed048-1469-43f6-badd-acb5b8823391","ios":"levelo://app?vid=01fed048-1469-43f6-badd-acb5b8823391"},"vehicle_type_id":"4","last_reported":1735283346,"current_range_meters":27600,"station_id":"ce4bgvp2rcd13ifvqct0","pricing_plan_id":"cebpf4jnsgd1na2vs0mg"},{"bike_id":"673ed0fe-3027-4e1f-9efc-2804b0e32190","system_id":"levelo_inurba_marseille","lat":43.26682,"lon":5.38267,"is_reserved":false,"is_disabled":false,"rental_uris":{"android":"levelo://app?vid=673ed0fe-3027-4e1f-9efc-2804b0e32190","ios":"levelo://app?vid=673ed0fe-3027-4e1f-9efc-2804b0e32190"},"vehicle_type_id":"4","last_reported":1735283346,"current_range_meters":19600,"station_id":"ce4bhg92rcd13ifvqf90","pricing_plan_id":"cebpf4jnsgd1na2vs0mg"},{"bike_id":"8383b770-0a68-43d5-b3f5-5338128961cb","system_id":"levelo_inurba_marseille","lat":43.299319,"lon":5.365349,"is_reserved":false,"is_disabled":false,"rental_uris":{"android":"levelo://app?vid=8383b770-0a68-43d5-b3f5-5338128961cb","ios":"levelo://app?vid=8383b770-0a68-43d5-b3f5-5338128961cb"},"vehicle_type_id":"4","last_reported":1735283346,"current_range_meters":19600,"station_id":"ce4bgm92rcd13ifvqbr0","pricing_plan_id":"cebpf4jnsgd1na2vs0mg"},{"bike_id":"f7d6c7da-f899-4654-ab39-0ada65265426","system_id":"levelo_inurba_marseille","lat":43.29893,"lon":5.38914,"is_reserved":false,"is_disabled":false,"rental_uris":{"android":"levelo://app?vid=f7d6c7da-f899-4654-ab39-0ada65265426","ios":"levelo://app?vid=f7d6c7da-f899-4654-ab39-0ada65265426"},"vehicle_type_id":"4","last_reported":1735283346,"current_range_meters":38800,"station_id":"ce4bh392rcd13ifvqdl0","pricing_plan_id":"cebpf4jnsgd1na2vs0mg"},{"bike_id":"e5da7a22-3d35-4225-a91e-7c6df686c633","system_id":"levelo_inurba_marseille","lat":43.284816,"lon":5.385381,"is_reserved":false,"is_disabled":false,"rental_uris":{"android":"levelo://app?vid=e5da7a22-3d35-4225-a91e-7c6df686c633","ios":"levelo://app?vid=e5da7a22-3d35-4225-a91e-7c6df686c633"},"vehicle_type_id":"4","last_reported":1735283346,"current_range_meters":38400,"station_id":"ce4bh8p2rcd13ifvqeb0","pricing_plan_id":"cebpf4jnsgd1na2vs0mg"},{"bike_id":"a5d526bb-a757-4be3-975b-76bfce10ea48","system_id":"levelo_inurba_marseille","lat":43.28851,"lon":5.35837,"is_reserved":false,"is_disabled":false,"rental_uris":{"android":"levelo://app?vid=a5d526bb-a757-4be3-975b-76bfce10ea48","ios":"levelo://app?vid=a5d526bb-a757-4be3-975b-76bfce10ea48"},"vehicle_type_id":"4","last_reported":1735283346,"current_range_meters":27600,"station_id":"ce4bhb12rcd13ifvqem0","pricing_plan_id":"cebpf4jnsgd1na2vs0mg"},{"bike_id":"1a623009-ffeb-49aa-8bdd-d01b1feb2702","system_id":"levelo_inurba_marseille","lat":43.29197,"lon":5.393265,"is_reserved":false,"is_disabled":false,"rental_uris":{"android":"levelo://app?vid=1a623009-ffeb-49aa-8bdd-d01b1feb2702","ios":"levelo://app?vid=1a623009-ffeb-49aa-8bdd-d01b1feb2702"},"vehicle_type_id":"4","last_reported":1735283346,"current_range_meters":38400,"station_id":"ce4bh192rcd13ifvqdd0","pricing_plan_id":"cebpf4jnsgd1na2vs0mg"},{"bike_id":"c53b72bf-948a-4b1b-b050-e7ad0639e49c","system_id":"levelo_inurba_marseille","lat":43.293673,"lon":5.378543,"is_reserved":false,"is_disabled":false,"rental_uris":{"android":"levelo://app?vid=c53b72bf-948a-4b1b-b050-e7ad0639e49c","ios":"levelo://app?vid=c53b72bf-948a-4b1b-b050-e7ad0639e49c"},"vehicle_type_id":"4","last_reported":1735283346,"current_range_meters":12400,"station_id":"ce4bgjh2rcd13ifvqbf0","pricing_plan_id":"cebpf4jnsgd1na2vs0mg"},{"bike_id":"cadf8335-6df2-49c1-9678-5228c753266c","system_id":"levelo_inurba_marseille","lat":43.28081,"lon":5.39661,"is_reserved":false,"is_disabled":false,"rental_uris":{"android":"levelo://app?vid=cadf8335-6df2-49c1-9678-5228c753266c","ios":"levelo://app?vid=cadf8335-6df2-49c1-9678-5228c753266c"},"vehicle_type_id":"4","last_reported":1735283346,"current_range_meters":2800,"station_id":"ce4bho12rcd13ifvqh2g","pricing_plan_id":"cebpf4jnsgd1na2vs0mg"},{"bike_id":"5f0d8b34-94a0-41d6-9882-f1246c5806d5","system_id":"levelo_inurba_marseille","lat":43.314896,"lon":5.373089,"is_reserved":false,"is_disabled":false,"rental_uris":{"android":"levelo://app?vid=5f0d8b34-94a0-41d6-9882-f1246c5806d5","ios":"levelo://app?vid=5f0d8b34-94a0-41d6-9882-f1246c5806d5"},"vehicle_type_id":"4","last_reported":1735283346,"current_range_meters":38800,"station_id":"ce4bgt12rcd13ifvqcd0","pricing_plan_id":"cebpf4jnsgd1na2vs0mg"},{"bike_id":"36c94d29-a143-4ca2-8a11-fcf2b617451d","system_id":"levelo_inurba_marseille","lat":43.24805,"lon":5.37454,"is_reserved":false,"is_disabled":false,"rental_uris":{"android":"levelo://app?vid=36c94d29-a143-4ca2-8a11-fcf2b617451d","ios":"levelo://app?vid=36c94d29-a143-4ca2-8a11-fcf2b617451d"},"vehicle_type_id":"4","last_reported":1735283346,"current_range_meters":9200,"station_id":"ce4bhgh2rcd13ifvqfb0","pricing_plan_id":"cebpf4jnsgd1na2vs0mg"},{"bike_id":"0d356a97-93db-4905-a410-a6d23d3b385c","system_id":"levelo_inurba_marseille","lat":43.28842,"lon":5.35858,"is_reserved":false,"is_disabled":false,"rental_uris":{"android":"levelo://app?vid=0d356a97-93db-4905-a410-a6d23d3b385c","ios":"levelo://app?vid=0d356a97-93db-4905-a410-a6d23d3b385c"},"vehicle_type_id":"4","last_reported":1735283346,"current_range_meters":16400,"station_id":"ce4bhb12rcd13ifvqem0","pricing_plan_id":"cebpf4jnsgd1na2vs0mg"},{"bike_id":"1ed4773d-d94e-4124-bbaf-beb1d7f19749","system_id":"levelo_inurba_marseille","lat":43.231838,"lon":5.399881,"is_reserved":false,"is_disabled":false,"rental_uris":{"android":"levelo://app?vid=1ed4773d-d94e-4124-bbaf-beb1d7f19749","ios":"levelo://app?vid=1ed4773d-d94e-4124-bbaf-beb1d7f19749"},"vehicle_type_id":"4","last_reported":1735283346,"current_range_meters":38800,"station_id":"ce4bhn12rcd13ifvqgqg","pricing_plan_id":"cebpf4jnsgd1na2vs0mg"},{"bike_id":"1a944b5b-dd26-4c47-8b06-8c825d852e7e","system_id":"levelo_inurba_marseille","lat":43.28418,"lon":5.37522,"is_reserved":false,"is_disabled":false,"rental_uris":{"android":"levelo://app?vid=1a944b5b-dd26-4c47-8b06-8c825d852e7e","ios":"levelo://app?vid=1a944b5b-dd26-4c47-8b06-8c825d852e7e"},"vehicle_type_id":"4","last_reported":1735283346,"current_range_meters":32000,"station_id":"ce4bh412rcd13ifvqds0","pricing_plan_id":"cebpf4jnsgd1na2vs0mg"},{"bike_id":"ed723caa-2168-4c55-adfa-85629ce07988","system_id":"levelo_inurba_marseille","lat":43.31443,"lon":5.37381,"is_reserved":false,"is_disabled":false,"rental_uris":{"android":"levelo://app?vid=ed723caa-2168-4c55-adfa-85629ce07988","ios":"levelo://app?vid=ed723caa-2168-4c55-adfa-85629ce07988"},"vehicle_type_id":"4","last_reported":1735283346,"current_range_meters":31200,"station_id":"","pricing_plan_id":"cebpf4jnsgd1na2vs0mg"},{"bike_id":"4cd6a1cd-046a-4c59-9337-50d0a1d5ad3a","system_id":"levelo_inurba_marseille","lat":43.28704,"lon":5.37421,"is_reserved":false,"is_disabled":false,"rental_uris":{"android":"levelo://app?vid=4cd6a1cd-046a-4c59-9337-50d0a1d5ad3a","ios":"levelo://app?vid=4cd6a1cd-046a-4c59-9337-50d0a1d5ad3a"},"vehicle_type_id":"4","last_reported":1735283346,"current_range_meters":30800,"station_id":"ce4bh3p2rcd13ifvqdq0","pricing_plan_id":"cebpf4jnsgd1na2vs0mg"},{"bike_id":"d36bb8df-822e-49e3-adc4-c36f4503a77d","system_id":"levelo_inurba_marseille","lat":43.274879,"lon":5.424466,"is_reserved":false,"is_disabled":false,"rental_uris":{"android":"levelo://app?vid=d36bb8df-822e-49e3-adc4-c36f4503a77d","ios":"levelo://app?vid=d36bb8df-822e-49e3-adc4-c36f4503a77d"},"vehicle_type_id":"4","last_reported":1735283346,"current_range_meters":6800,"station_id":"ce4bhn92rcd13ifvqgrg","pricing_plan_id":"cebpf4jnsgd1na2vs0mg"},{"bike_id":"1e811527-1895-4bb5-a084-e4a91cd8e769","system_id":"levelo_inurba_marseille","lat":43.26493,"lon":5.39559,"is_reserved":false,"is_disabled":false,"rental_uris":{"android":"levelo://app?vid=1e811527-1895-4bb5-a084-e4a91cd8e769","ios":"levelo://app?vid=1e811527-1895-4bb5-a084-e4a91cd8e769"},"vehicle_type_id":"4","last_reported":1735283346,"current_range_meters":23200,"station_id":"ce4bhi12rcd13ifvqfq0","pricing_plan_id":"cebpf4jnsgd1na2vs0mg"},{"bike_id":"4f5db02c-99f9-460e-a880-3ca7100df048","system_id":"levelo_inurba_marseille","lat":43.27428,"lon":5.39419,"is_reserved":false,"is_disabled":false,"rental_uris":{"android":"levelo://app?vid=4f5db02c-99f9-460e-a880-3ca7100df048","ios":"levelo://app?vid=4f5db02c-99f9-460e-a880-3ca7100df048"},"vehicle_type_id":"4","last_reported":1735283346,"current_range_meters":37600,"station_id":"ce4bhdp2rcd13ifvqf20","pricing_plan_id":"cebpf4jnsgd1na2vs0mg"},{"bike_id":"954849f8-2b6f-4dff-b889-7cc2a88a6e52","system_id":"levelo_inurba_marseille","lat":43.29441,"lon":5.39746,"is_reserved":false,"is_disabled":false,"rental_uris":{"android":"levelo://app?vid=954849f8-2b6f-4dff-b889-7cc2a88a6e52","ios":"levelo://app?vid=954849f8-2b6f-4dff-b889-7cc2a88a6e52"},"vehicle_type_id":"4","last_reported":1735283346,"current_range_meters":39200,"station_id":"ce4bh3h2rcd13ifvqdo0","pricing_plan_id":"cebpf4jnsgd1na2vs0mg"},{"bike_id":"fe73862b-8c55-4fc9-8d05-70c0d05c8069","system_id":"levelo_inurba_marseille","lat":43.30883,"lon":5.39628,"is_reserved":false,"is_disabled":false,"rental_uris":{"android":"levelo://app?vid=fe73862b-8c55-4fc9-8d05-70c0d05c8069","ios":"levelo://app?vid=fe73862b-8c55-4fc9-8d05-70c0d05c8069"},"vehicle_type_id":"4","last_reported":1735283346,"current_range_meters":36800,"station_id":"ce4bh012rcd13ifvqcv0","pricing_plan_id":"cebpf4jnsgd1na2vs0mg"},{"bike_id":"7a519144-206a-401e-ac5a-51065853ad87","system_id":"levelo_inurba_marseille","lat":43.29579,"lon":5.37502,"is_reserved":false,"is_disabled":false,"rental_uris":{"android":"levelo://app?vid=7a519144-206a-401e-ac5a-51065853ad87","ios":"levelo://app?vid=7a519144-206a-401e-ac5a-51065853ad87"},"vehicle_type_id":"4","last_reported":1735283346,"current_range_meters":38800,"station_id":"ce4bgh92rcd13ifvqb50","pricing_plan_id":"cebpf4jnsgd1na2vs0mg"},{"bike_id":"e032b15b-ef69-4043-a5e9-eec51e8ff190","system_id":"levelo_inurba_marseille","lat":43.24674,"lon":5.38127,"is_reserved":false,"is_disabled":false,"rental_uris":{"android":"levelo://app?vid=e032b15b-ef69-4043-a5e9-eec51e8ff190","ios":"levelo://app?vid=e032b15b-ef69-4043-a5e9-eec51e8ff190"},"vehicle_type_id":"4","last_reported":1735283346,"current_range_meters":24400,"station_id":"ce4bhih2rcd13ifvqfr0","pricing_plan_id":"cebpf4jnsgd1na2vs0mg"},{"bike_id":"785bd057-9143-46c6-90a2-af1a18ac69d9","system_id":"levelo_inurba_marseille","lat":43.29314,"lon":5.37163,"is_reserved":false,"is_disabled":false,"rental_uris":{"android":"levelo://app?vid=785bd057-9143-46c6-90a2-af1a18ac69d9","ios":"levelo://app?vid=785bd057-9143-46c6-90a2-af1a18ac69d9"},"vehicle_type_id":"4","last_reported":1735283346,"current_range_meters":27200,"station_id":"ce4bgh92rcd13ifvqb40","pricing_plan_id":"cebpf4jnsgd1na2vs0mg"},{"bike_id":"6abfbbb7-c7bc-4646-8067-a2378789d687","system_id":"levelo_inurba_marseille","lat":43.29046,"lon":5.35914,"is_reserved":false,"is_disabled":false,"rental_uris":{"android":"levelo://app?vid=6abfbbb7-c7bc-4646-8067-a2378789d687","ios":"levelo://app?vid=6abfbbb7-c7bc-4646-8067-a2378789d687"},"vehicle_type_id":"4","last_reported":1735283346,"current_range_meters":38800,"station_id":"ce4bha92rcd13ifvqeg0","pricing_plan_id":"cebpf4jnsgd1na2vs0mg"},{"bike_id":"b07e0204-2c57-49d1-a1f7-320de8610e25","system_id":"levelo_inurba_marseille","lat":43.29402,"lon":5.37344,"is_reserved":false,"is_disabled":true,"rental_uris":{"android":"levelo://app?vid=b07e0204-2c57-49d1-a1f7-320de8610e25","ios":"levelo://app?vid=b07e0204-2c57-49d1-a1f7-320de8610e25"},"vehicle_type_id":"4","last_reported":1735283346,"current_range_meters":7200,"station_id":"","pricing_plan_id":"cebpf4jnsgd1na2vs0mg"},{"bike_id":"288a9011-95b6-4421-825b-ee0e5deb880f","system_id":"levelo_inurba_marseille","lat":43.28678,"lon":5.38646,"is_reserved":false,"is_disabled":false,"rental_uris":{"android":"levelo://app?vid=288a9011-95b6-4421-825b-ee0e5deb880f","ios":"levelo://app?vid=288a9011-95b6-4421-825b-ee0e5deb880f"},"vehicle_type_id":"4","last_reported":1735283346,"current_range_meters":38800,"station_id":"ce4bh492rcd13ifvqdug","pricing_plan_id":"cebpf4jnsgd1na2vs0mg"},{"bike_id":"ffeb48ef-5315-47c6-8853-e3498e8327e0","system_id":"levelo_inurba_marseille","lat":43.26779,"lon":5.394214,"is_reserved":false,"is_disabled":false,"rental_uris":{"android":"levelo://app?vid=ffeb48ef-5315-47c6-8853-e3498e8327e0","ios":"levelo://app?vid=ffeb48ef-5315-47c6-8853-e3498e8327e0"},"vehicle_type_id":"4","last_reported":1735283346,"current_range_meters":29600,"station_id":"ce4bhh12rcd13ifvqfg0","pricing_plan_id":"cebpf4jnsgd1na2vs0mg"},{"bike_id":"458d9f03-ef0f-4020-b064-59eb558becf7","system_id":"levelo_inurba_marseille","lat":43.289304,"lon":5.383978,"is_reserved":false,"is_disabled":true,"rental_uris":{"android":"levelo://app?vid=458d9f03-ef0f-4020-b064-59eb558becf7","ios":"levelo://app?vid=458d9f03-ef0f-4020-b064-59eb558becf7"},"vehicle_type_id":"4","last_reported":1735283346,"current_range_meters":0,"station_id":"ce4bh612rcd13ifvqe6g","pricing_plan_id":"cebpf4jnsgd1na2vs0mg"},{"bike_id":"d051bf13-7445-45ad-86d7-0bc2c858622c","system_id":"levelo_inurba_marseille","lat":43.29194,"lon":5.35796,"is_reserved":false,"is_disabled":false,"rental_uris":{"android":"levelo://app?vid=d051bf13-7445-45ad-86d7-0bc2c858622c","ios":"levelo://app?vid=d051bf13-7445-45ad-86d7-0bc2c858622c"},"vehicle_type_id":"4","last_reported":1735283346,"current_range_meters":24800,"station_id":"ce4bhb12rcd13ifvqel0","pricing_plan_id":"cebpf4jnsgd1na2vs0mg"},{"bike_id":"1786334d-2721-40c5-be60-f94ab6a924f7","system_id":"levelo_inurba_marseille","lat":43.261999,"lon":5.379298,"is_reserved":false,"is_disabled":false,"rental_uris":{"android":"levelo://app?vid=1786334d-2721-40c5-be60-f94ab6a924f7","ios":"levelo://app?vid=1786334d-2721-40c5-be60-f94ab6a924f7"},"vehicle_type_id":"4","last_reported":1735283346,"current_range_meters":39200,"station_id":"ce4bhjp2rcd13ifvqg90","pricing_plan_id":"cebpf4jnsgd1na2vs0mg"},{"bike_id":"43f7e734-263c-460e-a5d5-9f3194a8a7de","system_id":"levelo_inurba_marseille","lat":43.30137,"lon":5.39868,"is_reserved":false,"is_disabled":false,"rental_uris":{"android":"levelo://app?vid=43f7e734-263c-460e-a5d5-9f3194a8a7de","ios":"levelo://app?vid=43f7e734-263c-460e-a5d5-9f3194a8a7de"},"vehicle_type_id":"4","last_reported":1735283346,"current_range_meters":38400,"station_id":"ce4bh0h2rcd13ifvqd40","pricing_plan_id":"cebpf4jnsgd1na2vs0mg"},{"bike_id":"71160096-1f78-4a01-8bd7-5e65b9e0ac95","system_id":"levelo_inurba_marseille","lat":43.26196,"lon":5.37934,"is_reserved":false,"is_disabled":false,"rental_uris":{"android":"levelo://app?vid=71160096-1f78-4a01-8bd7-5e65b9e0ac95","ios":"levelo://app?vid=71160096-1f78-4a01-8bd7-5e65b9e0ac95"},"vehicle_type_id":"4","last_reported":1735283346,"current_range_meters":39200,"station_id":"ce4bhjp2rcd13ifvqg90","pricing_plan_id":"cebpf4jnsgd1na2vs0mg"},{"bike_id":"498c46b1-b214-4ec5-b7cb-f99e10a10477","system_id":"levelo_inurba_marseille","lat":43.29284,"lon":5.40125,"is_reserved":false,"is_disabled":false,"rental_uris":{"android":"levelo://app?vid=498c46b1-b214-4ec5-b7cb-f99e10a10477","ios":"levelo://app?vid=498c46b1-b214-4ec5-b7cb-f99e10a10477"},"vehicle_type_id":"4","last_reported":1735283346,"current_range_meters":17200,"station_id":"ce4bh312rcd13ifvqdk0","pricing_plan_id":"cebpf4jnsgd1na2vs0mg"},{"bike_id":"1db2767a-f1e1-4f0a-b7e3-3e0c4d85a1a9","system_id":"levelo_inurba_marseille","lat":43.29255,"lon":5.38444,"is_reserved":false,"is_disabled":false,"rental_uris":{"android":"levelo://app?vid=1db2767a-f1e1-4f0a-b7e3-3e0c4d85a1a9","ios":"levelo://app?vid=1db2767a-f1e1-4f0a-b7e3-3e0c4d85a1a9"},"vehicle_type_id":"4","last_reported":1735283346,"current_range_meters":14400,"station_id":"ce4bh692rcd13ifvqea0","pricing_plan_id":"cebpf4jnsgd1na2vs0mg"},{"bike_id":"1cece83c-e0bb-4564-81b9-45756f4058e3","system_id":"levelo_inurba_marseille","lat":43.299787,"lon":5.384873,"is_reserved":false,"is_disabled":false,"rental_uris":{"android":"levelo://app?vid=1cece83c-e0bb-4564-81b9-45756f4058e3","ios":"levelo://app?vid=1cece83c-e0bb-4564-81b9-45756f4058e3"},"vehicle_type_id":"4","last_reported":1735283346,"current_range_meters":35600,"station_id":"ce4bgj92rcd13ifvqbd0","pricing_plan_id":"cebpf4jnsgd1na2vs0mg"},{"bike_id":"a32cd1e7-cc87-4292-9d06-455d298daf7c","system_id":"levelo_inurba_marseille","lat":43.304239,"lon":5.397512,"is_reserved":false,"is_disabled":false,"rental_uris":{"android":"levelo://app?vid=a32cd1e7-cc87-4292-9d06-455d298daf7c","ios":"levelo://app?vid=a32cd1e7-cc87-4292-9d06-455d298daf7c"},"vehicle_type_id":"4","last_reported":1735283346,"current_range_meters":37600,"station_id":"ce4bh092rcd13ifvqd20","pricing_plan_id":"cebpf4jnsgd1na2vs0mg"},{"bike_id":"6baa5601-15a9-4a68-9416-e34a6bc01efd","system_id":"levelo_inurba_marseille","lat":43.28741,"lon":5.36068,"is_reserved":false,"is_disabled":false,"rental_uris":{"android":"levelo://app?vid=6baa5601-15a9-4a68-9416-e34a6bc01efd","ios":"levelo://app?vid=6baa5601-15a9-4a68-9416-e34a6bc01efd"},"vehicle_type_id":"4","last_reported":1735283346,"current_range_meters":22400,"station_id":"cki0cbj6b192h4jlfktg","pricing_plan_id":"cebpf4jnsgd1na2vs0mg"},{"bike_id":"28bd3904-ffcb-4595-8c51-c947161caafc","system_id":"levelo_inurba_marseille","lat":43.29598,"lon":5.38134,"is_reserved":false,"is_disabled":false,"rental_uris":{"android":"levelo://app?vid=28bd3904-ffcb-4595-8c51-c947161caafc","ios":"levelo://app?vid=28bd3904-ffcb-4595-8c51-c947161caafc"},"vehicle_type_id":"4","last_reported":1735283346,"current_range_meters":22800,"station_id":"ce4bgl12rcd13ifvqbo0","pricing_plan_id":"cebpf4jnsgd1na2vs0mg"},{"bike_id":"aa41f6f0-cb8e-449e-9786-1f20cafd73ba","system_id":"levelo_inurba_marseille","lat":43.28997,"lon":5.35596,"is_reserved":false,"is_disabled":false,"rental_uris":{"android":"levelo://app?vid=aa41f6f0-cb8e-449e-9786-1f20cafd73ba","ios":"levelo://app?vid=aa41f6f0-cb8e-449e-9786-1f20cafd73ba"},"vehicle_type_id":"4","last_reported":1735283346,"current_range_meters":38000,"station_id":"ce4bhb92rcd13ifvqen0","pricing_plan_id":"cebpf4jnsgd1na2vs0mg"},{"bike_id":"b2da8fde-ab4d-447a-916e-ba0e880bc77b","system_id":"levelo_inurba_marseille","lat":43.27992,"lon":5.40016,"is_reserved":false,"is_disabled":false,"rental_uris":{"android":"levelo://app?vid=b2da8fde-ab4d-447a-916e-ba0e880bc77b","ios":"levelo://app?vid=b2da8fde-ab4d-447a-916e-ba0e880bc77b"},"vehicle_type_id":"4","last_reported":1735283346,"current_range_meters":9200,"station_id":"ce4bho92rcd13ifvqh4g","pricing_plan_id":"cebpf4jnsgd1na2vs0mg"},{"bike_id":"31447bac-a84d-44f6-85a7-010a664cc914","system_id":"levelo_inurba_marseille","lat":43.31692,"lon":5.37757,"is_reserved":false,"is_disabled":false,"rental_uris":{"android":"levelo://app?vid=31447bac-a84d-44f6-85a7-010a664cc914","ios":"levelo://app?vid=31447bac-a84d-44f6-85a7-010a664cc914"},"vehicle_type_id":"4","last_reported":1735283346,"current_range_meters":23200,"station_id":"ce4bgth2rcd13ifvqch0","pricing_plan_id":"cebpf4jnsgd1na2vs0mg"},{"bike_id":"68cc728b-4da1-4ae5-a176-fd3fb61a64ab","system_id":"levelo_inurba_marseille","lat":43.27942,"lon":5.41035,"is_reserved":false,"is_disabled":false,"rental_uris":{"android":"levelo://app?vid=68cc728b-4da1-4ae5-a176-fd3fb61a64ab","ios":"levelo://app?vid=68cc728b-4da1-4ae5-a176-fd3fb61a64ab"},"vehicle_type_id":"4","last_reported":1735283346,"current_range_meters":25200,"station_id":"ce4bhnp2rcd13ifvqh0g","pricing_plan_id":"cebpf4jnsgd1na2vs0mg"},{"bike_id":"19bb7d3d-09d4-4f2f-be58-92073225f4ba","system_id":"levelo_inurba_marseille","lat":43.28472,"lon":5.38529,"is_reserved":false,"is_disabled":false,"rental_uris":{"android":"levelo://app?vid=19bb7d3d-09d4-4f2f-be58-92073225f4ba","ios":"levelo://app?vid=19bb7d3d-09d4-4f2f-be58-92073225f4ba"},"vehicle_type_id":"4","last_reported":1735283346,"current_range_meters":36400,"station_id":"ce4bh8p2rcd13ifvqeb0","pricing_plan_id":"cebpf4jnsgd1na2vs0mg"},{"bike_id":"0d52cbf3-d17e-4e25-8a8a-25ae2b48abd4","system_id":"levelo_inurba_marseille","lat":43.28685,"lon":5.38673,"is_reserved":false,"is_disabled":false,"rental_uris":{"android":"levelo://app?vid=0d52cbf3-d17e-4e25-8a8a-25ae2b48abd4","ios":"levelo://app?vid=0d52cbf3-d17e-4e25-8a8a-25ae2b48abd4"},"vehicle_type_id":"4","last_reported":1735283346,"current_range_meters":33600,"station_id":"ce4bh492rcd13ifvqdug","pricing_plan_id":"cebpf4jnsgd1na2vs0mg"},{"bike_id":"ecc3069f-ed87-41d9-ac7d-367b2e369d31","system_id":"levelo_inurba_marseille","lat":43.29254,"lon":5.38436,"is_reserved":false,"is_disabled":true,"rental_uris":{"android":"levelo://app?vid=ecc3069f-ed87-41d9-ac7d-367b2e369d31","ios":"levelo://app?vid=ecc3069f-ed87-41d9-ac7d-367b2e369d31"},"vehicle_type_id":"4","last_reported":1735283346,"current_range_meters":16800,"station_id":"ce4bh692rcd13ifvqea0","pricing_plan_id":"cebpf4jnsgd1na2vs0mg"},{"bike_id":"4c195953-5514-46fb-930f-1cb8cc1ead13","system_id":"levelo_inurba_marseille","lat":43.28693,"lon":5.37394,"is_reserved":false,"is_disabled":false,"rental_uris":{"android":"levelo://app?vid=4c195953-5514-46fb-930f-1cb8cc1ead13","ios":"levelo://app?vid=4c195953-5514-46fb-930f-1cb8cc1ead13"},"vehicle_type_id":"4","last_reported":1735283346,"current_range_meters":30400,"station_id":"ce4bh3p2rcd13ifvqdq0","pricing_plan_id":"cebpf4jnsgd1na2vs0mg"},{"bike_id":"611cadad-7288-4e32-8515-4e34564ac707","system_id":"levelo_inurba_marseille","lat":43.24389,"lon":5.37062,"is_reserved":false,"is_disabled":false,"rental_uris":{"android":"levelo://app?vid=611cadad-7288-4e32-8515-4e34564ac707","ios":"levelo://app?vid=611cadad-7288-4e32-8515-4e34564ac707"},"vehicle_type_id":"4","last_reported":1735283346,"current_range_meters":36800,"station_id":"ce4bhhh2rcd13ifvqfk0","pricing_plan_id":"cebpf4jnsgd1na2vs0mg"},{"bike_id":"e9081ace-5d5c-4eae-9910-c1e01fc02b5e","system_id":"levelo_inurba_marseille","lat":43.2846,"lon":5.38415,"is_reserved":false,"is_disabled":false,"rental_uris":{"android":"levelo://app?vid=e9081ace-5d5c-4eae-9910-c1e01fc02b5e","ios":"levelo://app?vid=e9081ace-5d5c-4eae-9910-c1e01fc02b5e"},"vehicle_type_id":"4","last_reported":1735283346,"current_range_meters":19200,"station_id":"ce4bh512rcd13ifvqe3g","pricing_plan_id":"cebpf4jnsgd1na2vs0mg"},{"bike_id":"6fa05ba4-8a22-468c-a828-c3aee18643bb","system_id":"levelo_inurba_marseille","lat":43.28708,"lon":5.37393,"is_reserved":false,"is_disabled":false,"rental_uris":{"android":"levelo://app?vid=6fa05ba4-8a22-468c-a828-c3aee18643bb","ios":"levelo://app?vid=6fa05ba4-8a22-468c-a828-c3aee18643bb"},"vehicle_type_id":"4","last_reported":1735283346,"current_range_meters":38800,"station_id":"ce4bh3p2rcd13ifvqdq0","pricing_plan_id":"cebpf4jnsgd1na2vs0mg"},{"bike_id":"aaa78394-0f83-4d1b-bc11-2e06bb634e07","system_id":"levelo_inurba_marseille","lat":43.28154,"lon":5.4263,"is_reserved":false,"is_disabled":false,"rental_uris":{"android":"levelo://app?vid=aaa78394-0f83-4d1b-bc11-2e06bb634e07","ios":"levelo://app?vid=aaa78394-0f83-4d1b-bc11-2e06bb634e07"},"vehicle_type_id":"4","last_reported":1735283346,"current_range_meters":16800,"station_id":"ce4bhnh2rcd13ifvqgug","pricing_plan_id":"cebpf4jnsgd1na2vs0mg"},{"bike_id":"9e0ce3af-2e3c-435a-8c4f-d3ce16f81c59","system_id":"levelo_inurba_marseille","lat":43.29214,"lon":5.36038,"is_reserved":false,"is_disabled":true,"rental_uris":{"android":"levelo://app?vid=9e0ce3af-2e3c-435a-8c4f-d3ce16f81c59","ios":"levelo://app?vid=9e0ce3af-2e3c-435a-8c4f-d3ce16f81c59"},"vehicle_type_id":"4","last_reported":1735283346,"current_range_meters":16000,"station_id":"ce4bhbh2rcd13ifvqeqg","pricing_plan_id":"cebpf4jnsgd1na2vs0mg"},{"bike_id":"6e3040a0-4f02-4e0a-9f35-2544cb1bd4ff","system_id":"levelo_inurba_marseille","lat":43.26562,"lon":5.38997,"is_reserved":false,"is_disabled":false,"rental_uris":{"android":"levelo://app?vid=6e3040a0-4f02-4e0a-9f35-2544cb1bd4ff","ios":"levelo://app?vid=6e3040a0-4f02-4e0a-9f35-2544cb1bd4ff"},"vehicle_type_id":"4","last_reported":1735283346,"current_range_meters":35600,"station_id":"ce4bhe12rcd13ifvqf30","pricing_plan_id":"cebpf4jnsgd1na2vs0mg"},{"bike_id":"28614f0f-83c7-4a5e-aa82-6698d8d0f203","system_id":"levelo_inurba_marseille","lat":43.24811,"lon":5.3746,"is_reserved":false,"is_disabled":false,"rental_uris":{"android":"levelo://app?vid=28614f0f-83c7-4a5e-aa82-6698d8d0f203","ios":"levelo://app?vid=28614f0f-83c7-4a5e-aa82-6698d8d0f203"},"vehicle_type_id":"4","last_reported":1735283346,"current_range_meters":37600,"station_id":"ce4bhgh2rcd13ifvqfb0","pricing_plan_id":"cebpf4jnsgd1na2vs0mg"},{"bike_id":"64f979ed-5d65-4090-a4c0-8957b5e62fb2","system_id":"levelo_inurba_marseille","lat":43.29018,"lon":5.38636,"is_reserved":false,"is_disabled":false,"rental_uris":{"android":"levelo://app?vid=64f979ed-5d65-4090-a4c0-8957b5e62fb2","ios":"levelo://app?vid=64f979ed-5d65-4090-a4c0-8957b5e62fb2"},"vehicle_type_id":"4","last_reported":1735283346,"current_range_meters":27200,"station_id":"ce4bh4p2rcd13ifvqe0g","pricing_plan_id":"cebpf4jnsgd1na2vs0mg"},{"bike_id":"c9e5d6c6-5601-4769-be5c-20fef93ca121","system_id":"levelo_inurba_marseille","lat":43.24171,"lon":5.36385,"is_reserved":false,"is_disabled":false,"rental_uris":{"android":"levelo://app?vid=c9e5d6c6-5601-4769-be5c-20fef93ca121","ios":"levelo://app?vid=c9e5d6c6-5601-4769-be5c-20fef93ca121"},"vehicle_type_id":"4","last_reported":1735283346,"current_range_meters":24000,"station_id":"cpo36qri1sfpv3e86is0","pricing_plan_id":"cebpf4jnsgd1na2vs0mg"},{"bike_id":"c80131bb-f60e-48f2-a147-21e290d09238","system_id":"levelo_inurba_marseille","lat":43.29794,"lon":5.38102,"is_reserved":false,"is_disabled":false,"rental_uris":{"android":"levelo://app?vid=c80131bb-f60e-48f2-a147-21e290d09238","ios":"levelo://app?vid=c80131bb-f60e-48f2-a147-21e290d09238"},"vehicle_type_id":"4","last_reported":1735283346,"current_range_meters":36800,"station_id":"ce4bgip2rcd13ifvqbb0","pricing_plan_id":"cebpf4jnsgd1na2vs0mg"},{"bike_id":"69965e05-3ff1-4807-a3fd-18bc35fa9075","system_id":"levelo_inurba_marseille","lat":43.29022,"lon":5.38144,"is_reserved":false,"is_disabled":false,"rental_uris":{"android":"levelo://app?vid=69965e05-3ff1-4807-a3fd-18bc35fa9075","ios":"levelo://app?vid=69965e05-3ff1-4807-a3fd-18bc35fa9075"},"vehicle_type_id":"4","last_reported":1735283346,"current_range_meters":38000,"station_id":"ce4bh4p2rcd13ifvqe1g","pricing_plan_id":"cebpf4jnsgd1na2vs0mg"},{"bike_id":"5f40a28c-af80-4a3d-9206-2695407d24b8","system_id":"levelo_inurba_marseille","lat":43.31536,"lon":5.38032,"is_reserved":false,"is_disabled":false,"rental_uris":{"android":"levelo://app?vid=5f40a28c-af80-4a3d-9206-2695407d24b8","ios":"levelo://app?vid=5f40a28c-af80-4a3d-9206-2695407d24b8"},"vehicle_type_id":"4","last_reported":1735283346,"current_range_meters":26000,"station_id":"ce4bhsp2rcd13ifvqi50","pricing_plan_id":"cebpf4jnsgd1na2vs0mg"},{"bike_id":"c7754673-3d55-4611-bd3b-81482ae422a3","system_id":"levelo_inurba_marseille","lat":43.30305,"lon":5.39212,"is_reserved":false,"is_disabled":false,"rental_uris":{"android":"levelo://app?vid=c7754673-3d55-4611-bd3b-81482ae422a3","ios":"levelo://app?vid=c7754673-3d55-4611-bd3b-81482ae422a3"},"vehicle_type_id":"4","last_reported":1735283346,"current_range_meters":38800,"station_id":"ce4bgkh2rcd13ifvqbk0","pricing_plan_id":"cebpf4jnsgd1na2vs0mg"},{"bike_id":"2cca7a4c-2861-4c49-80ab-3fd5edea29ec","system_id":"levelo_inurba_marseille","lat":43.28407,"lon":5.37523,"is_reserved":false,"is_disabled":false,"rental_uris":{"android":"levelo://app?vid=2cca7a4c-2861-4c49-80ab-3fd5edea29ec","ios":"levelo://app?vid=2cca7a4c-2861-4c49-80ab-3fd5edea29ec"},"vehicle_type_id":"4","last_reported":1735283346,"current_range_meters":17200,"station_id":"ce4bh412rcd13ifvqds0","pricing_plan_id":"cebpf4jnsgd1na2vs0mg"},{"bike_id":"c885ab47-94e1-42c7-b4a6-0605cecd4097","system_id":"levelo_inurba_marseille","lat":43.284501,"lon":5.35897,"is_reserved":false,"is_disabled":false,"rental_uris":{"android":"levelo://app?vid=c885ab47-94e1-42c7-b4a6-0605cecd4097","ios":"levelo://app?vid=c885ab47-94e1-42c7-b4a6-0605cecd4097"},"vehicle_type_id":"4","last_reported":1735283346,"current_range_meters":38400,"station_id":"ce4bhah2rcd13ifvqei0","pricing_plan_id":"cebpf4jnsgd1na2vs0mg"},{"bike_id":"4e7c8620-84dc-4bc7-8f9b-4ff4d2d3c951","system_id":"levelo_inurba_marseille","lat":43.27373,"lon":5.36268,"is_reserved":false,"is_disabled":false,"rental_uris":{"android":"levelo://app?vid=4e7c8620-84dc-4bc7-8f9b-4ff4d2d3c951","ios":"levelo://app?vid=4e7c8620-84dc-4bc7-8f9b-4ff4d2d3c951"},"vehicle_type_id":"4","last_reported":1735283346,"current_range_meters":30400,"station_id":"ce4bhbh2rcd13ifvqeo0","pricing_plan_id":"cebpf4jnsgd1na2vs0mg"},{"bike_id":"48e53a62-ac9d-418a-bce9-7d328673ad1f","system_id":"levelo_inurba_marseille","lat":43.301359,"lon":5.398821,"is_reserved":false,"is_disabled":false,"rental_uris":{"android":"levelo://app?vid=48e53a62-ac9d-418a-bce9-7d328673ad1f","ios":"levelo://app?vid=48e53a62-ac9d-418a-bce9-7d328673ad1f"},"vehicle_type_id":"4","last_reported":1735283346,"current_range_meters":18800,"station_id":"ce4bh0h2rcd13ifvqd40","pricing_plan_id":"cebpf4jnsgd1na2vs0mg"},