{"last_updated":1746400147,"ttl":60,"version":"2.2","data":{"bikes":[{"bike_id":"ccd5790a-ee27-4b55-8880-7cee5aeb7cdf","system_id":"levelo_inurba_marseille","lat":43.217502,"lon":5.34611,"is_reserved":false,"is_disabled":true,"rental_uris":{"android":"levelo://app?vid=ccd5790a-ee27-4b55-8880-7cee5aeb7cdf","ios":"levelo://app?vid=ccd5790a-ee27-4b55-8880-7cee5aeb7cdf"},"vehicle_type_id":"4","last_reported":1746400147,"current_range_meters":0,"station_id":"","pricing_plan_id":"cebpf4jnsgd1na2vs0mg"},{"bike_id":"2d87f24b-bb92-4f5a-9c64-611905425c8d","system_id":"levelo_inurba_marseille","lat":43.23667,"lon":5.39143,"is_reserved":false,"is_disabled":true,"rental_uris":{"android":"levelo://app?vid=2d87f24b-bb92-4f5a-9c64-611905425c8d","ios":"levelo://app?vid=2d87f24b-bb92-4f5a-9c64-611905425c8d"},"vehicle_type_id":"4","last_reported":1746400147,"current_range_meters":0,"station_id":"","pricing_plan_id":"cebpf4jnsgd1na2vs0mg"},{"bike_id":"f73daf93-45c7-48c0-a61a-2d28ac89db8d","system_id":"levelo_inurba_marseille","lat":43.338971,"lon":5.420529,"is_reserved":false,"is_disabled":true,"rental_uris":{"android":"levelo://app?vid=f73daf93-45c7-48c0-a61a-2d28ac89db8d","ios":"levelo://app?vid=f73daf93-45c7-48c0-a61a-2d28ac89db8d"},"vehicle_type_id":"4","last_reported":1746400147,"current_range_meters":0,"station_id":"","pricing_plan_id":"cebpf4jnsgd1na2vs0mg"},{"bike_id":"f0d9958c-fef5-4f95-873c-52f048f53a76","system_id":"levelo_inurba_marseille","lat":43.277042,"lon":5.419972,"is_reserved":false,"is_disabled":true,"rental_uris":{"android":"levelo://app?vid=f0d9958c-fef5-4f95-873c-52f048f53a76","ios":"levelo://app?vid=f0d9958c-fef5-4f95-873c-52f048f53a76"},"vehicle_type_id":"4","last_reported":1746400147,"current_range_meters":0,"station_id":"","pricing_plan_id":"cebpf4jnsgd1na2vs0mg"},{"bike_id":"ed81ad13-da53-482c-b849-b96a88e788b0","system_id":"levelo_inurba_marseille","lat":43.294544,"lon":5.457979,"is_reserved":false,"is_disabled":true,"rental_uris":{"android":"levelo://app?vid=ed81ad13-da53-482c-b849-b96a88e788b0","ios":"levelo://app?vid=ed81ad13-da53-482c-b849-b96a88e788b0"},"vehicle_type_id":"4","last_reported":1746400147,"current_range_meters":0,"station_id":"","pricing_plan_id":"cebpf4jnsgd1na2vs0mg"},{"bike_id":"e93b949e-1738-47f2-ad13-8f512df2ffaf","system_id":"levelo_inurba_marseille","lat":43.281598,"lon":5.443263,"is_reserved":false,"is_disabled":true,"rental_uris":{"android":"levelo://app?vid=e93b949e-1738-47f2-ad13-8f512df2ffaf","ios":"levelo://app?vid=e93b949e-1738-47f2-ad13-8f512df2ffaf"},"vehicle_type_id":"4","last_reported":1746400147,"current_range_meters":0,"station_id":"","pricing_plan_id":"cebpf4jnsgd1na2vs0mg"},{"bike_id":"ce7eaa2a-3d8b-45c5-8379-cd758fb93612","system_id":"levelo_inurba_marseille","lat":43.217461,"lon":5.346051,"is_reserved":false,"is_disabled":true,"rental_uris":{"android":"levelo://app?vid=ce7eaa2a-3d8b-45c5-8379-cd758fb93612","ios":"levelo://app?vid=ce7eaa2a-3d8b-45c5-8379-cd758fb93612"},"vehicle_type_id":"4","last_reported":1746400147,"current_range_meters":0,"station_id":"st_cvj6r9ubvosntc0bgbag","pricing_plan_id":"cebpf4jnsgd1na2vs0mg"},{"bike_id":"e9e1572f-0374-4bcf-914f-8f2eeda7905b","system_id":"levelo_inurba_marseille","lat":43.212074,"lon":5.350652,"is_reserved":false,"is_disabled":true,"rental_uris":{"android":"levelo://app?vid=e9e1572f-0374-4bcf-914f-8f2eeda7905b","ios":"levelo://app?vid=e9e1572f-0374-4bcf-914f-8f2eeda7905b"},"vehicle_type_id":"4","last_reported":1746400147,"current_range_meters":400,"station_id":"st_cvj6sg6p6f1abm77japg","pricing_plan_id":"cebpf4jnsgd1na2vs0mg"},{"bike_id":"570b486c-50df-4f1f-97df-caa86c0d419e","system_id":"levelo_inurba_marseille","lat":43.33702,"lon":5.35553,"is_reserved":false,"is_disabled":true,"rental_uris":{"android":"levelo://app?vid=570b486c-50df-4f1f-97df-caa86c0d419e","ios":"levelo://app?vid=570b486c-50df-4f1f-97df-caa86c0d419e"},"vehicle_type_id":"4","last_reported":1746400147,"current_range_meters":1600,"station_id":"","pricing_plan_id":"cebpf4jnsgd1na2vs0mg"},{"bike_id":"441771cd-0001-4237-b26e-f2e1502d0768","system_id":"levelo_inurba_marseille","lat":43.23646,"lon":5.36599,"is_reserved":false,"is_disabled":true,"rental_uris":{"android":"levelo://app?vid=441771cd-0001-4237-b26e-f2e1502d0768","ios":"levelo://app?vid=441771cd-0001-4237-b26e-f2e1502d0768"},"vehicle_type_id":"4","last_reported":1746400147,"current_range_meters":1600,"station_id":"","pricing_plan_id":"cebpf4jnsgd1na2vs0mg"},{"bike_id":"d5586c93-90e0-4b44-adca-d2a09f47a491","system_id":"levelo_inurba_marseille","lat":43.23156,"lon":5.43703,"is_reserved":false,"is_disabled":true,"rental_uris":{"android":"levelo://app?vid=d5586c93-90e0-4b44-adca-d2a09f47a491","ios":"levelo://app?vid=d5586c93-90e0-4b44-adca-d2a09f47a491"},"vehicle_type_id":"4","last_reported":1746400147,"current_range_meters":1600,"station_id":"ce4bhmp2rcd13ifvqgog","pricing_plan_id":"cebpf4jnsgd1na2vs0mg"},{"bike_id":"a62c4081-0a00-4338-a99f-b605c981f909","system_id":"levelo_inurba_marseille","lat":43.21192,"lon":5.350695,"is_reserved":false,"is_disabled":true,"rental_uris":{"android":"levelo://app?vid=a62c4081-0a00-4338-a99f-b605c981f909","ios":"levelo://app?vid=a62c4081-0a00-4338-a99f-b605c981f909"},"vehicle_type_id":"4","last_reported":1746400147,"current_range_meters":1600,"station_id":"st_cvj6sg6p6f1abm77japg","pricing_plan_id":"cebpf4jnsgd1na2vs0mg"},{"bike_id":"fefd08ec-5881-4aed-9781-2a8173dd5fb9","system_id":"levelo_inurba_marseille","lat":43.29422,"lon":5.38246,"is_reserved":false,"is_disabled":false,"rental_uris":{"android":"levelo://app?vid=fefd08ec-5881-4aed-9781-2a8173dd5fb9","ios":"levelo://app?vid=fefd08ec-5881-4aed-9781-2a8173dd5fb9"},"vehicle_type_id":"4","last_reported":1746400147,"current_range_meters":2800,"station_id":"","pricing_plan_id":"cebpf4jnsgd1na2vs0mg"},{"bike_id":"12278e9d-daa9-4f73-99c4-8d9bcb3f55da","system_id":"levelo_inurba_marseille","lat":43.26956,"lon":5.3862,"is_reserved":false,"is_disabled":false,"rental_uris":{"android":"levelo://app?vid=12278e9d-daa9-4f73-99c4-8d9bcb3f55da","ios":"levelo://app?vid=12278e9d-daa9-4f73-99c4-8d9bcb3f55da"},"vehicle_type_id":"4","last_reported":1746400147,"current_range_meters":2800,"station_id":"ce4bhh92rcd13ifvqfh0","pricing_plan_id":"cebpf4jnsgd1na2vs0mg"},{"bike_id":"0139c81b-3678-4800-8454-c4e45f4988a9","system_id":"levelo_inurba_marseille","lat":43.243867,"lon":5.370586,"is_reserved":false,"is_disabled":false,"rental_uris":{"android":"levelo://app?vid=0139c81b-3678-4800-8454-c4e45f4988a9","ios":"levelo://app?vid=0139c81b-3678-4800-8454-c4e45f4988a9"},"vehicle_type_id":"4","last_reported":1746400147,"current_range_meters":3200,"station_id":"ce4bhhh2rcd13ifvqfk0","pricing_plan_id":"cebpf4jnsgd1na2vs0mg"},{"bike_id":"20df041c-a6f2-4643-9d23-e8d01f5c1c92","system_id":"levelo_inurba_marseille","lat":43.288615,"lon":5.358612,"is_reserved":false,"is_disabled":false,"rental_uris":{"android":"levelo://app?vid=20df041c-a6f2-4643-9d23-e8d01f5c1c92","ios":"levelo://app?vid=20df041c-a6f2-4643-9d23-e8d01f5c1c92"},"vehicle_type_id":"4","last_reported":1746400147,"current_range_meters":3600,"station_id":"ce4bhb12rcd13ifvqem0","pricing_plan_id":"cebpf4jnsgd1na2vs0mg"},{"bike_id":"8df37787-a611-4ce6-9e65-032cb168f59b","system_id":"levelo_inurba_marseille","lat":43.21201,"lon":5.35062,"is_reserved":false,"is_disabled":false,"rental_uris":{"android":"levelo://app?vid=8df37787-a611-4ce6-9e65-032cb168f59b","ios":"levelo://app?vid=8df37787-a611-4ce6-9e65-032cb168f59b"},"vehicle_type_id":"4","last_reported":1746400147,"current_range_meters":4000,"station_id":"st_cvj6sg6p6f1abm77japg","pricing_plan_id":"cebpf4jnsgd1na2vs0mg"},{"bike_id":"dfb3396e-96f5-457c-af11-f6f27dad33e9","system_id":"levelo_inurba_marseille","lat":43.272003,"lon":5.364754,"is_reserved":false,"is_disabled":false,"rental_uris":{"android":"levelo://app?vid=dfb3396e-96f5-457c-af11-f6f27dad33e9","ios":"levelo://app?vid=dfb3396e-96f5-457c-af11-f6f27dad33e9"},"vehicle_type_id":"4","last_reported":1746400147,"current_range_meters":4400,"station_id":"","pricing_plan_id":"cebpf4jnsgd1na2vs0mg"},{"bike_id":"8df6e310-0880-40a9-a691-cd475dfa3928","system_id":"levelo_inurba_marseille","lat":43.285904,"lon":5.442444,"is_reserved":false,"is_disabled":false,"rental_uris":{"android":"levelo://app?vid=8df6e310-0880-40a9-a691-cd475dfa3928","ios":"levelo://app?vid=8df6e310-0880-40a9-a691-cd475dfa3928"},"vehicle_type_id":"4","last_reported":1746400147,"current_range_meters":4400,"station_id":"","pricing_plan_id":"cebpf4jnsgd1na2vs0mg"},{"bike_id":"c9a801f5-424c-467a-87a1-0c5468a6bf61","system_id":"levelo_inurba_marseille","lat":43.2469,"lon":5.38156,"is_reserved":false,"is_disabled":false,"rental_uris":{"android":"levelo://app?vid=c9a801f5-424c-467a-87a1-0c5468a6bf61","ios":"levelo://app?vid=c9a801f5-424c-467a-87a1-0c5468a6bf61"},"vehicle_type_id":"4","last_reported":1746400147,"current_range_meters":4800,"station_id":"ce4bhih2rcd13ifvqfr0","pricing_plan_id":"cebpf4jnsgd1na2vs0mg"},{"bike_id":"6ae9068b-8534-47e2-832a-cb0e5255371d","system_id":"levelo_inurba_marseille","lat":43.337444,"lon":5.374475,"is_reserved":false,"is_disabled":false,"rental_uris":{"android":"levelo://app?vid=6ae9068b-8534-47e2-832a-cb0e5255371d","ios":"levelo://app?vid=6ae9068b-8534-47e2-832a-cb0e5255371d"},"vehicle_type_id":"4","last_reported":1746400147,"current_range_meters":6000,"station_id":"ce4bgvp2rcd13ifvqct0","pricing_plan_id":"cebpf4jnsgd1na2vs0mg"},{"bike_id":"520135cb-d0f1-4103-9c00-37026b85cda0","system_id":"levelo_inurba_marseille","lat":43.25115,"lon":5.40327,"is_reserved":false,"is_disabled":false,"rental_uris":{"android":"levelo://app?vid=520135cb-d0f1-4103-9c00-37026b85cda0","ios":"levelo://app?vid=520135cb-d0f1-4103-9c00-37026b85cda0"},"vehicle_type_id":"4","last_reported":1746400147,"current_range_meters":6000,"station_id":"ce4bhlh2rcd13ifvqgig","pricing_plan_id":"cebpf4jnsgd1na2vs0mg"},{"bike_id":"4009a77b-fe27-4d0e-82d7-e7e29be4a9e9","system_id":"levelo_inurba_marseille","lat":43.242191,"lon":5.367354,"is_reserved":false,"is_disabled":false,"rental_uris":{"android":"levelo://app?vid=4009a77b-fe27-4d0e-82d7-e7e29be4a9e9","ios":"levelo://app?vid=4009a77b-fe27-4d0e-82d7-e7e29be4a9e9"},"vehicle_type_id":"4","last_reported":1746400147,"current_range_meters":6400,"station_id":"","pricing_plan_id":"cebpf4jnsgd1na2vs0mg"},{"bike_id":"f0259f55-382d-4317-a5a3-c63365a0d76b","system_id":"levelo_inurba_marseille","lat":43.255345,"lon":5.41797,"is_reserved":false,"is_disabled":false,"rental_uris":{"android":"levelo://app?vid=f0259f55-382d-4317-a5a3-c63365a0d76b","ios":"levelo://app?vid=f0259f55-382d-4317-a5a3-c63365a0d76b"},"vehicle_type_id":"4","last_reported":1746400147,"current_range_meters":7200,"station_id":"","pricing_plan_id":"cebpf4jnsgd1na2vs0mg"},{"bike_id":"4d9c785a-6a14-4f60-8bcb-eb74d56c9262","system_id":"levelo_inurba_marseille","lat":43.2713,"lon":5.42239,"is_reserved":false,"is_disabled":false,"rental_uris":{"android":"levelo://app?vid=4d9c785a-6a14-4f60-8bcb-eb74d56c9262","ios":"levelo://app?vid=4d9c785a-6a14-4f60-8bcb-eb74d56c9262"},"vehicle_type_id":"4","last_reported":1746400147,"current_range_meters":7200,"station_id":"","pricing_plan_id":"cebpf4jnsgd1na2vs0mg"},{"bike_id":"5c9dd6f7-5aa2-4737-aecd-852f9c336272","system_id":"levelo_inurba_marseille","lat":43.24674,"lon":5.38153,"is_reserved":false,"is_disabled":false,"rental_uris":{"android":"levelo://app?vid=5c9dd6f7-5aa2-4737-aecd-852f9c336272","ios":"levelo://app?vid=5c9dd6f7-5aa2-4737-aecd-852f9c336272"},"vehicle_type_id":"4","last_reported":1746400147,"current_range_meters":7200,"station_id":"ce4bhih2rcd13ifvqfr0","pricing_plan_id":"cebpf4jnsgd1na2vs0mg"},{"bike_id":"a0aac932-6b84-4bac-a7c4-3a8fc55fef05","system_id":"levelo_inurba_marseille","lat":43.270644,"lon":5.402553,"is_reserved":false,"is_disabled":false,"rental_uris":{"android":"levelo://app?vid=a0aac932-6b84-4bac-a7c4-3a8fc55fef05","ios":"levelo://app?vid=a0aac932-6b84-4bac-a7c4-3a8fc55fef05"},"vehicle_type_id":"4","last_reported":1746400147,"current_range_meters":7200,"station_id":"ce4bhk92rcd13ifvqgc0","pricing_plan_id":"cebpf4jnsgd1na2vs0mg"},{"bike_id":"7360cdc5-33e1-42e0-875f-ac8503d88901","system_id":"levelo_inurba_marseille","lat":43.29266,"lon":5.40095,"is_reserved":false,"is_disabled":false,"rental_uris":{"android":"levelo://app?vid=7360cdc5-33e1-42e0-875f-ac8503d88901","ios":"levelo://app?vid=7360cdc5-33e1-42e0-875f-ac8503d88901"},"vehicle_type_id":"4","last_reported":1746400147,"current_range_meters":8000,"station_id":"ce4bh312rcd13ifvqdk0","pricing_plan_id":"cebpf4jnsgd1na2vs0mg"},{"bike_id":"a7cd7cac-5a32-4d14-92f2-2738618b7e69","system_id":"levelo_inurba_marseille","lat":43.25936,"lon":5.40907,"is_reserved":false,"is_disabled":false,"rental_uris":{"android":"levelo://app?vid=a7cd7cac-5a32-4d14-92f2-2738618b7e69","ios":"levelo://app?vid=a7cd7cac-5a32-4d14-92f2-2738618b7e69"},"vehicle_type_id":"4","last_reported":1746400147,"current_range_meters":8000,"station_id":"ce4bhm92rcd13ifvqglg","pricing_plan_id":"cebpf4jnsgd1na2vs0mg"},{"bike_id":"d707b1cf-a32d-44a6-98bb-8d42f8f23ed2","system_id":"levelo_inurba_marseille","lat":43.337444,"lon":5.374475,"is_reserved":false,"is_disabled":false,"rental_uris":{"android":"levelo://app?vid=d707b1cf-a32d-44a6-98bb-8d42f8f23ed2","ios":"levelo://app?vid=d707b1cf-a32d-44a6-98bb-8d42f8f23ed2"},"vehicle_type_id":"4","last_reported":1746400147,"current_range_meters":8400,"station_id":"","pricing_plan_id":"cebpf4jnsgd1na2vs0mg"},{"bike_id":"6bfbb116-0497-430b-92bf-ec271b411f23","system_id":"levelo_inurba_marseille","lat":43.243918,"lon":5.37061,"is_reserved":false,"is_disabled":false,"rental_uris":{"android":"levelo://app?vid=6bfbb116-0497-430b-92bf-ec271b411f23","ios":"levelo://app?vid=6bfbb116-0497-430b-92bf-ec271b411f23"},"vehicle_type_id":"4","last_reported":1746400147,"current_range_meters":8400,"station_id":"ce4bhhh2rcd13ifvqfk0","pricing_plan_id":"cebpf4jnsgd1na2vs0mg"},{"bike_id":"f2f259d1-36b8-4370-b79f-1e8086cc6d08","system_id":"levelo_inurba_marseille","lat":43.27061,"lon":5.42266,"is_reserved":false,"is_disabled":false,"rental_uris":{"android":"levelo://app?vid=f2f259d1-36b8-4370-b79f-1e8086cc6d08","ios":"levelo://app?vid=f2f259d1-36b8-4370-b79f-1e8086cc6d08"},"vehicle_type_id":"4","last_reported":1746400147,"current_range_meters":8400,"station_id":"ce4bhk92rcd13ifvqgb0","pricing_plan_id":"cebpf4jnsgd1na2vs0mg"},{"bike_id":"51e137dc-06d4-4721-8a2f-24e002c6d5d0","system_id":"levelo_inurba_marseille","lat":43.24076,"lon":5.37755,"is_reserved":false,"is_disabled":false,"rental_uris":{"android":"levelo://app?vid=51e137dc-06d4-4721-8a2f-24e002c6d5d0","ios":"levelo://app?vid=51e137dc-06d4-4721-8a2f-24e002c6d5d0"},"vehicle_type_id":"4","last_reported":1746400147,"current_range_meters":8400,"station_id":"ce4bhnp2rcd13ifvqgvg","pricing_plan_id":"cebpf4jnsgd1na2vs0mg"},{"bike_id":"029d1da9-ddaa-4b16-929e-555a1ebde3de","system_id":"levelo_inurba_marseille","lat":43.310828,"lon":5.424321,"is_reserved":false,"is_disabled":false,"rental_uris":{"android":"levelo://app?vid=029d1da9-ddaa-4b16-929e-555a1ebde3de","ios":"levelo://app?vid=029d1da9-ddaa-4b16-929e-555a1ebde3de"},"vehicle_type_id":"4","last_reported":1746400147,"current_range_meters":8400,"station_id":"ce4bhp92rcd13ifvqhag","pricing_plan_id":"cebpf4jnsgd1na2vs0mg"},{"bike_id":"d55c8237-2304-4efd-993e-dc727f0f1b6a","system_id":"levelo_inurba_marseille","lat":43.22498,"lon":5.34786,"is_reserved":false,"is_disabled":false,"rental_uris":{"android":"levelo://app?vid=d55c8237-2304-4efd-993e-dc727f0f1b6a","ios":"levelo://app?vid=d55c8237-2304-4efd-993e-dc727f0f1b6a"},"vehicle_type_id":"4","last_reported":1746400147,"current_range_meters":8400,"station_id":"st_cvj5dfep6f1abm77gieg","pricing_plan_id":"cebpf4jnsgd1na2vs0mg"},{"bike_id":"aedf206f-89f3-4f30-9da6-56fb7ff8915b","system_id":"levelo_inurba_marseille","lat":43.281155,"lon":5.403988,"is_reserved":false,"is_disabled":false,"rental_uris":{"android":"levelo://app?vid=aedf206f-89f3-4f30-9da6-56fb7ff8915b","ios":"levelo://app?vid=aedf206f-89f3-4f30-9da6-56fb7ff8915b"},"vehicle_type_id":"4","last_reported":1746400147,"current_range_meters":9200,"station_id":"","pricing_plan_id":"cebpf4jnsgd1na2vs0mg"},{"bike_id":"04290b2c-247f-478e-94c5-5ed6e367660d","system_id":"levelo_inurba_marseille","lat":43.243945,"lon":5.370625,"is_reserved":false,"is_disabled":false,"rental_uris":{"android":"levelo://app?vid=04290b2c-247f-478e-94c5-5ed6e367660d","ios":"levelo://app?vid=04290b2c-247f-478e-94c5-5ed6e367660d"},"vehicle_type_id":"4","last_reported":1746400147,"current_range_meters":9200,"station_id":"ce4bhhh2rcd13ifvqfk0","pricing_plan_id":"cebpf4jnsgd1na2vs0mg"},{"bike_id":"374dd859-82fc-4168-94d4-d7c0e9baadfe","system_id":"levelo_inurba_marseille","lat":43.24392,"lon":5.370576,"is_reserved":false,"is_disabled":false,"rental_uris":{"android":"levelo://app?vid=374dd859-82fc-4168-94d4-d7c0e9baadfe","ios":"levelo://app?vid=374dd859-82fc-4168-94d4-d7c0e9baadfe"},"vehicle_type_id":"4","last_reported":1746400147,"current_range_meters":9200,"station_id":"ce4bhhh2rcd13ifvqfk0","pricing_plan_id":"cebpf4jnsgd1na2vs0mg"},{"bike_id":"1658d859-00dc-4bbc-b527-5df1d4eb43db","system_id":"levelo_inurba_marseille","lat":43.270548,"lon":5.402545,"is_reserved":false,"is_disabled":false,"rental_uris":{"android":"levelo://app?vid=1658d859-00dc-4bbc-b527-5df1d4eb43db","ios":"levelo://app?vid=1658d859-00dc-4bbc-b527-5df1d4eb43db"},"vehicle_type_id":"4","last_reported":1746400147,"current_range_meters":9200,"station_id":"ce4bhk92rcd13ifvqgc0","pricing_plan_id":"cebpf4jnsgd1na2vs0mg"},{"bike_id":"29b58c37-cff3-4c0d-a588-184999f8685f","system_id":"levelo_inurba_marseille","lat":43.28705,"lon":5.399815,"is_reserved":false,"is_disabled":false,"rental_uris":{"android":"levelo://app?vid=29b58c37-cff3-4c0d-a588-184999f8685f","ios":"levelo://app?vid=29b58c37-cff3-4c0d-a588-184999f8685f"},"vehicle_type_id":"4","last_reported":1746400147,"current_range_meters":9200,"station_id":"ce4bho92rcd13ifvqh3g","pricing_plan_id":"cebpf4jnsgd1na2vs0mg"},{"bike_id":"c59dd5c1-a195-4870-b3d7-afb523598e23","system_id":"levelo_inurba_marseille","lat":43.308059,"lon":5.435256,"is_reserved":false,"is_disabled":false,"rental_uris":{"android":"levelo://app?vid=c59dd5c1-a195-4870-b3d7-afb523598e23","ios":"levelo://app?vid=c59dd5c1-a195-4870-b3d7-afb523598e23"},"vehicle_type_id":"4","last_reported":1746400147,"current_range_meters":9200,"station_id":"ce4bhph2rcd13ifvqheg","pricing_plan_id":"cebpf4jnsgd1na2vs0mg"},{"bike_id":"bd278318-d5f1-4ccf-9ac5-893e7bd91ba3","system_id":"levelo_inurba_marseille","lat":43.32362,"lon":5.36755,"is_reserved":false,"is_disabled":false,"rental_uris":{"android":"levelo://app?vid=bd278318-d5f1-4ccf-9ac5-893e7bd91ba3","ios":"levelo://app?vid=bd278318-d5f1-4ccf-9ac5-893e7bd91ba3"},"vehicle_type_id":"4","last_reported":1746400147,"current_range_meters":9200,"station_id":"ce4bhsh2rcd13ifvqi2g","pricing_plan_id":"cebpf4jnsgd1na2vs0mg"},{"bike_id":"77e5fc0c-8247-4eae-976e-b65c5c479c47","system_id":"levelo_inurba_marseille","lat":43.24398,"lon":5.37048,"is_reserved":false,"is_disabled":false,"rental_uris":{"android":"levelo://app?vid=77e5fc0c-8247-4eae-976e-b65c5c479c47","ios":"levelo://app?vid=77e5fc0c-8247-4eae-976e-b65c5c479c47"},"vehicle_type_id":"4","last_reported":1746400147,"current_range_meters":9600,"station_id":"ce4bhhh2rcd13ifvqfk0","pricing_plan_id":"cebpf4jnsgd1na2vs0mg"},{"bike_id":"e0f477fa-43e0-437f-aa44-25c8d96e5853","system_id":"levelo_inurba_marseille","lat":43.310851,"lon":5.424287,"is_reserved":false,"is_disabled":false,"rental_uris":{"android":"levelo://app?vid=e0f477fa-43e0-437f-aa44-25c8d96e5853","ios":"levelo://app?vid=e0f477fa-43e0-437f-aa44-25c8d96e5853"},"vehicle_type_id":"4","last_reported":1746400147,"current_range_meters":9600,"station_id":"ce4bhp92rcd13ifvqhag","pricing_plan_id":"cebpf4jnsgd1na2vs0mg"},{"bike_id":"1289b118-18ac-49c9-9878-4479fd6a84e6","system_id":"levelo_inurba_marseille","lat":43.292606,"lon":5.376191,"is_reserved":false,"is_disabled":false,"rental_uris":{"android":"levelo://app?vid=1289b118-18ac-49c9-9878-4479fd6a84e6","ios":"levelo://app?vid=1289b118-18ac-49c9-9878-4479fd6a84e6"},"vehicle_type_id":"4","last_reported":1746400147,"current_range_meters":10000,"station_id":"ce4bgi12rcd13ifvqb80","pricing_plan_id":"cebpf4jnsgd1na2vs0mg"},{"bike_id":"11e449b2-acad-4b2b-b811-47bd1346b7a8","system_id":"levelo_inurba_marseille","lat":43.2442,"lon":5.37085,"is_reserved":false,"is_disabled":false,"rental_uris":{"android":"levelo://app?vid=11e449b2-acad-4b2b-b811-47bd1346b7a8","ios":"levelo://app?vid=11e449b2-acad-4b2b-b811-47bd1346b7a8"},"vehicle_type_id":"4","last_reported":1746400147,"current_range_meters":10000,"station_id":"ce4bhhh2rcd13ifvqfk0","pricing_plan_id":"cebpf4jnsgd1na2vs0mg"},{"bike_id":"e234c9c4-65cf-42bc-b2d9-38acc77199c3","system_id":"levelo_inurba_marseille","lat":43.37421,"lon":5.43788,"is_reserved":false,"is_disabled":false,"rental_uris":{"android":"levelo://app?vid=e234c9c4-65cf-42bc-b2d9-38acc77199c3","ios":"levelo://app?vid=e234c9c4-65cf-42bc-b2d9-38acc77199c3"},"vehicle_type_id":"4","last_reported":1746400147,"current_range_meters":10800,"station_id":"","pricing_plan_id":"cebpf4jnsgd1na2vs0mg"},{"bike_id":"26041b1f-bf05-4248-b8f5-229a08c6e70f","system_id":"levelo_inurba_marseille","lat":43.28468,"lon":5.43152,"is_reserved":false,"is_disabled":false,"rental_uris":{"android":"levelo://app?vid=26041b1f-bf05-4248-b8f5-229a08c6e70f","ios":"levelo://app?vid=26041b1f-bf05-4248-b8f5-229a08c6e70f"},"vehicle_type_id":"4","last_reported":1746400147,"current_range_meters":10800,"station_id":"","pricing_plan_id":"cebpf4jnsgd1na2vs0mg"},{"bike_id":"55ac8c9d-5d28-4a9e-9f8c-5dcf84dbd7d2","system_id":"levelo_inurba_marseille","lat":43.31075,"lon":5.38355,"is_reserved":false,"is_disabled":false,"rental_uris":{"android":"levelo://app?vid=55ac8c9d-5d28-4a9e-9f8c-5dcf84dbd7d2","ios":"levelo://app?vid=55ac8c9d-5d28-4a9e-9f8c-5dcf84dbd7d2"},"vehicle_type_id":"4","last_reported":1746400147,"current_range_meters":10800,"station_id":"ce4bgv92rcd13ifvqcr0","pricing_plan_id":"cebpf4jnsgd1na2vs0mg"},{"bike_id":"b8ebe123-18b6-4e5d-addb-12ec10c089ac","system_id":"levelo_inurba_marseille","lat":43.32104,"lon":5.3677,"is_reserved":false,"is_disabled":false,"rental_uris":{"android":"levelo://app?vid=b8ebe123-18b6-4e5d-addb-12ec10c089ac","ios":"levelo://app?vid=b8ebe123-18b6-4e5d-addb-12ec10c089ac"},"vehicle_type_id":"4","last_reported":1746400147,"current_range_meters":10800,"station_id":"ce4bhrh2rcd13ifvqhug","pricing_plan_id":"cebpf4jnsgd1na2vs0mg"},{"bike_id":"cec02868-da4c-46a9-bbda-15dc1c82835b","system_id":"levelo_inurba_marseille","lat":43.23145,"lon":5.43708,"is_reserved":false,"is_disabled":false,"rental_uris":{"android":"levelo://app?vid=cec02868-da4c-46a9-bbda-15dc1c82835b","ios":"levelo://app?vid=cec02868-da4c-46a9-bbda-15dc1c82835b"},"vehicle_type_id":"4","last_reported":1746400147,"current_range_meters":11200,"station_id":"ce4bhmp2rcd13ifvqgog","pricing_plan_id":"cebpf4jnsgd1na2vs0mg"},{"bike_id":"e84eee43-7ebe-4b56-a08b-27d6e58561fd","system_id":"levelo_inurba_marseille","lat":43.241879,"lon":5.39741,"is_reserved":false,"is_disabled":false,"rental_uris":{"android":"levelo://app?vid=e84eee43-7ebe-4b56-a08b-27d6e58561fd","ios":"levelo://app?vid=e84eee43-7ebe-4b56-a08b-27d6e58561fd"},"vehicle_type_id":"4","last_reported":1746400147,"current_range_meters":11600,"station_id":"ce4bhn12rcd13ifvqgpg","pricing_plan_id":"cebpf4jnsgd1na2vs0mg"},{"bike_id":"8ac96b14-2aa7-4e6b-b367-e870e3637490","system_id":"levelo_inurba_marseille","lat":43.33609,"lon":5.41035,"is_reserved":false,"is_disabled":false,"rental_uris":{"android":"levelo://app?vid=8ac96b14-2aa7-4e6b-b367-e870e3637490","ios":"levelo://app?vid=8ac96b14-2aa7-4e6b-b367-e870e3637490"},"vehicle_type_id":"4","last_reported":1746400147,"current_range_meters":11600,"station_id":"ce4bhqh2rcd13ifvqhmg","pricing_plan_id":"cebpf4jnsgd1na2vs0mg"},{"bike_id":"6fa37660-dd23-4a8f-8ac3-f6c97ec4896d","system_id":"levelo_inurba_marseille","lat":43.26801,"lon":5.40268,"is_reserved":false,"is_disabled":false,"rental_uris":{"android":"levelo://app?vid=6fa37660-dd23-4a8f-8ac3-f6c97ec4896d","ios":"levelo://app?vid=6fa37660-dd23-4a8f-8ac3-f6c97ec4896d"},"vehicle_type_id":"4","last_reported":1746400147,"current_range_meters":11600,"station_id":"ce501612rcd8frsf0b60","pricing_plan_id":"cebpf4jnsgd1na2vs0mg"},{"bike_id":"11821aae-3df6-4ca0-ac43-7edf5d125583","system_id":"levelo_inurba_marseille","lat":43.316855,"lon":5.404499,"is_reserved":false,"is_disabled":false,"rental_uris":{"android":"levelo://app?vid=11821aae-3df6-4ca0-ac43-7edf5d125583","ios":"levelo://app?vid=11821aae-3df6-4ca0-ac43-7edf5d125583"},"vehicle_type_id":"4","last_reported":1746400147,"current_range_meters":12000,"station_id":"ce4bh012rcd13ifvqd00","pricing_plan_id":"cebpf4jnsgd1na2vs0mg"},{"bike_id":"883f13a3-7510-4e69-8571-35eb92a4f62b","system_id":"levelo_inurba_marseille","lat":43.246562,"lon":5.381602,"is_reserved":false,"is_disabled":false,"rental_uris":{"android":"levelo://app?vid=883f13a3-7510-4e69-8571-35eb92a4f62b","ios":"levelo://app?vid=883f13a3-7510-4e69-8571-35eb92a4f62b"},"vehicle_type_id":"4","last_reported":1746400147,"current_range_meters":12000,"station_id":"ce4bhih2rcd13ifvqfr0","pricing_plan_id":"cebpf4jnsgd1na2vs0mg"},{"bike_id":"c041e647-a532-4271-ab4c-b8d07e0d410f","system_id":"levelo_inurba_marseille","lat":43.24563,"lon":5.39496,"is_reserved":false,"is_disabled":false,"rental_uris":{"android":"levelo://app?vid=c041e647-a532-4271-ab4c-b8d07e0d410f","ios":"levelo://app?vid=c041e647-a532-4271-ab4c-b8d07e0d410f"},"vehicle_type_id":"4","last_reported":1746400147,"current_range_meters":12000,"station_id":"ce4bhlp2rcd13ifvqgjg","pricing_plan_id":"cebpf4jnsgd1na2vs0mg"},{"bike_id":"ea356f0d-ac09-41bd-ad7f-6aa844ff8cc2","system_id":"levelo_inurba_marseille","lat":43.26228,"lon":5.4045,"is_reserved":false,"is_disabled":false,"rental_uris":{"android":"levelo://app?vid=ea356f0d-ac09-41bd-ad7f-6aa844ff8cc2","ios":"levelo://app?vid=ea356f0d-ac09-41bd-ad7f-6aa844ff8cc2"},"vehicle_type_id":"4","last_reported":1746400147,"current_range_meters":12000,"station_id":"ce4bhmh2rcd13ifvqgmg","pricing_plan_id":"cebpf4jnsgd1na2vs0mg"},{"bike_id":"610f5703-5c7a-4e92-bb0e-da46bb15c29e","system_id":"levelo_inurba_marseille","lat":43.30736,"lon":5.424462,"is_reserved":false,"is_disabled":false,"rental_uris":{"android":"levelo://app?vid=610f5703-5c7a-4e92-bb0e-da46bb15c29e","ios":"levelo://app?vid=610f5703-5c7a-4e92-bb0e-da46bb15c29e"},"vehicle_type_id":"4","last_reported":1746400147,"current_range_meters":12000,"station_id":"st_cvj6ca6bvosntc0bfgr0","pricing_plan_id":"cebpf4jnsgd1na2vs0mg"},{"bike_id":"01d67fd8-ff6a-49d8-b9b8-a97ee824ce65","system_id":"levelo_inurba_marseille","lat":43.280307,"lon":5.369416,"is_reserved":false,"is_disabled":false,"rental_uris":{"android":"levelo://app?vid=01d67fd8-ff6a-49d8-b9b8-a97ee824ce65","ios":"levelo://app?vid=01d67fd8-ff6a-49d8-b9b8-a97ee824ce65"},"vehicle_type_id":"4","last_reported":1746400147,"current_range_meters":12400,"station_id":"ce4bha12rcd13ifvqef0","pricing_plan_id":"cebpf4jnsgd1na2vs0mg"},{"bike_id":"5dd43bf0-0cc1-45c3-ba92-ba5d5d1109e0","system_id":"levelo_inurba_marseille","lat":43.287074,"lon":5.399919,"is_reserved":false,"is_disabled":false,"rental_uris":{"android":"levelo://app?vid=5dd43bf0-0cc1-45c3-ba92-ba5d5d1109e0","ios":"levelo://app?vid=5dd43bf0-0cc1-45c3-ba92-ba5d5d1109e0"},"vehicle_type_id":"4","last_reported":1746400147,"current_range_meters":12400,"station_id":"ce4bho92rcd13ifvqh3g","pricing_plan_id":"cebpf4jnsgd1na2vs0mg"},{"bike_id":"43f220ab-0408-46b3-abe5-60437ce3bc1e","system_id":"levelo_inurba_marseille","lat":43.231876,"lon":5.355562,"is_reserved":false,"is_disabled":false,"rental_uris":{"android":"levelo://app?vid=43f220ab-0408-46b3-abe5-60437ce3bc1e","ios":"levelo://app?vid=43f220ab-0408-46b3-abe5-60437ce3bc1e"},"vehicle_type_id":"4","last_reported":1746400147,"current_range_meters":12400,"station_id":"ce4bhu92rcd13ifvqi70","pricing_plan_id":"cebpf4jnsgd1na2vs0mg"},{"bike_id":"adfb74a1-d514-4275-aa2d-d7b368f7a5e8","system_id":"levelo_inurba_marseille","lat":43.30806,"lon":5.38162,"is_reserved":false,"is_disabled":false,"rental_uris":{"android":"levelo://app?vid=adfb74a1-d514-4275-aa2d-d7b368f7a5e8","ios":"levelo://app?vid=adfb74a1-d514-4275-aa2d-d7b368f7a5e8"},"vehicle_type_id":"4","last_reported":1746400147,"current_range_meters":13600,"station_id":"ce4bgt12rcd13ifvqce0","pricing_plan_id":"cebpf4jnsgd1na2vs0mg"},{"bike_id":"8ab46f99-9644-474c-9745-b78357bd9ec9","system_id":"levelo_inurba_marseille","lat":43.374079,"lon":5.437929,"is_reserved":false,"is_disabled":false,"rental_uris":{"android":"levelo://app?vid=8ab46f99-9644-474c-9745-b78357bd9ec9","ios":"levelo://app?vid=8ab46f99-9644-474c-9745-b78357bd9ec9"},"vehicle_type_id":"4","last_reported":1746400147,"current_range_meters":14000,"station_id":"","pricing_plan_id":"cebpf4jnsgd1na2vs0mg"},{"bike_id":"6541fd63-6c6b-4f6b-b5ad-83b6829727f2","system_id":"levelo_inurba_marseille","lat":43.275012,"lon":5.424473,"is_reserved":false,"is_disabled":false,"rental_uris":{"android":"levelo://app?vid=6541fd63-6c6b-4f6b-b5ad-83b6829727f2","ios":"levelo://app?vid=6541fd63-6c6b-4f6b-b5ad-83b6829727f2"},"vehicle_type_id":"4","last_reported":1746400147,"current_range_meters":14400,"station_id":"ce4bhn92rcd13ifvqgrg","pricing_plan_id":"cebpf4jnsgd1na2vs0mg"},{"bike_id":"4b26eea2-1003-47cb-947f-d6f76a5c0c89","system_id":"levelo_inurba_marseille","lat":43.32101,"lon":5.36765,"is_reserved":false,"is_disabled":false,"rental_uris":{"android":"levelo://app?vid=4b26eea2-1003-47cb-947f-d6f76a5c0c89","ios":"levelo://app?vid=4b26eea2-1003-47cb-947f-d6f76a5c0c89"},"vehicle_type_id":"4","last_reported":1746400147,"current_range_meters":14400,"station_id":"ce4bhrh2rcd13ifvqhug","pricing_plan_id":"cebpf4jnsgd1na2vs0mg"},{"bike_id":"d342a70b-0490-4dea-b796-15cb5536d152","system_id":"levelo_inurba_marseille","lat":43.3211,"lon":5.36774,"is_reserved":false,"is_disabled":false,"rental_uris":{"android":"levelo://app?vid=d342a70b-0490-4dea-b796-15cb5536d152","ios":"levelo://app?vid=d342a70b-0490-4dea-b796-15cb5536d152"},"vehicle_type_id":"4","last_reported":1746400147,"current_range_meters":14800,"station_id":"ce4bhrh2rcd13ifvqhug","pricing_plan_id":"cebpf4jnsgd1na2vs0mg"},{"bike_id":"ea917bfb-1fbe-4ee4-bd35-27a97c01ebe4","system_id":"levelo_inurba_marseille","lat":43.30947,"lon":5.39044,"is_reserved":false,"is_disabled":false,"rental_uris":{"android":"levelo://app?vid=ea917bfb-1fbe-4ee4-bd35-27a97c01ebe4","ios":"levelo://app?vid=ea917bfb-1fbe-4ee4-bd35-27a97c01ebe4"},"vehicle_type_id":"4","last_reported":1746400147,"current_range_meters":15200,"station_id":"ce4bgup2rcd13ifvqco0","pricing_plan_id":"cebpf4jnsgd1na2vs0mg"},{"bike_id":"37c6684c-8b36-4fd4-9901-e8ae133092d9","system_id":"levelo_inurba_marseille","lat":43.280325,"lon":5.369496,"is_reserved":false,"is_disabled":false,"rental_uris":{"android":"levelo://app?vid=37c6684c-8b36-4fd4-9901-e8ae133092d9","ios":"levelo://app?vid=37c6684c-8b36-4fd4-9901-e8ae133092d9"},"vehicle_type_id":"4","last_reported":1746400147,"current_range_meters":15200,"station_id":"ce4bha12rcd13ifvqef0","pricing_plan_id":"cebpf4jnsgd1na2vs0mg"},{"bike_id":"336c6afb-1b51-4cba-a855-ea7fe0b45e0a","system_id":"levelo_inurba_marseille","lat":43.29253,"lon":5.37593,"is_reserved":false,"is_disabled":false,"rental_uris":{"android":"levelo://app?vid=336c6afb-1b51-4cba-a855-ea7fe0b45e0a","ios":"levelo://app?vid=336c6afb-1b51-4cba-a855-ea7fe0b45e0a"},"vehicle_type_id":"4","last_reported":1746400147,"current_range_meters":16000,"station_id":"ce4bgi12rcd13ifvqb80","pricing_plan_id":"cebpf4jnsgd1na2vs0mg"},{"bike_id":"fdd57315-9847-491f-93f0-1a6aad4ba1d7","system_id":"levelo_inurba_marseille","lat":43.31704,"lon":5.40446,"is_reserved":false,"is_disabled":false,"rental_uris":{"android":"levelo://app?vid=fdd57315-9847-491f-93f0-1a6aad4ba1d7","ios":"levelo://app?vid=fdd57315-9847-491f-93f0-1a6aad4ba1d7"},"vehicle_type_id":"4","last_reported":1746400147,"current_range_meters":16000,"station_id":"ce4bh012rcd13ifvqd00","pricing_plan_id":"cebpf4jnsgd1na2vs0mg"},{"bike_id":"1885e4e4-787e-4399-a182-13afb5671e8f","system_id":"levelo_inurba_marseille","lat":43.317592,"lon":5.390102,"is_reserved":false,"is_disabled":false,"rental_uris":{"android":"levelo://app?vid=1885e4e4-787e-4399-a182-13afb5671e8f","ios":"levelo://app?vid=1885e4e4-787e-4399-a182-13afb5671e8f"},"vehicle_type_id":"4","last_reported":1746400147,"current_range_meters":16000,"station_id":"ce4bhqp2rcd13ifvqhng","pricing_plan_id":"cebpf4jnsgd1na2vs0mg"},{"bike_id":"0eb03b21-ded2-4839-b379-667e677a96e6","system_id":"levelo_inurba_marseille","lat":43.267988,"lon":5.402608,"is_reserved":false,"is_disabled":false,"rental_uris":{"android":"levelo://app?vid=0eb03b21-ded2-4839-b379-667e677a96e6","ios":"levelo://app?vid=0eb03b21-ded2-4839-b379-667e677a96e6"},"vehicle_type_id":"4","last_reported":1746400147,"current_range_meters":16000,"station_id":"ce501612rcd8frsf0b60","pricing_plan_id":"cebpf4jnsgd1na2vs0mg"},{"bike_id":"cadcadb0-8d85-4324-8589-86adb1cb8e02","system_id":"levelo_inurba_marseille","lat":43.29298,"lon":5.40118,"is_reserved":false,"is_disabled":false,"rental_uris":{"android":"levelo://app?vid=cadcadb0-8d85-4324-8589-86adb1cb8e02","ios":"levelo://app?vid=cadcadb0-8d85-4324-8589-86adb1cb8e02"},"vehicle_type_id":"4","last_reported":1746400147,"current_range_meters":16400,"station_id":"ce4bh312rcd13ifvqdk0","pricing_plan_id":"cebpf4jnsgd1na2vs0mg"},{"bike_id":"a7393548-1ca4-426f-bec8-e094325f844e","system_id":"levelo_inurba_marseille","lat":43.26257,"lon":5.37433,"is_reserved":false,"is_disabled":false,"rental_uris":{"android":"levelo://app?vid=a7393548-1ca4-426f-bec8-e094325f844e","ios":"levelo://app?vid=a7393548-1ca4-426f-bec8-e094325f844e"},"vehicle_type_id":"4","last_reported":1746400147,"current_range_meters":16800,"station_id":"","pricing_plan_id":"cebpf4jnsgd1na2vs0mg"},{"bike_id":"65bbcdea-6576-4f9b-a7d1-5faabb2eb8f8","system_id":"levelo_inurba_marseille","lat":43.3168,"lon":5.40463,"is_reserved":false,"is_disabled":false,"rental_uris":{"android":"levelo://app?vid=65bbcdea-6576-4f9b-a7d1-5faabb2eb8f8","ios":"levelo://app?vid=65bbcdea-6576-4f9b-a7d1-5faabb2eb8f8"},"vehicle_type_id":"4","last_reported":1746400147,"current_range_meters":16800,"station_id":"ce4bh012rcd13ifvqd00","pricing_plan_id":"cebpf4jnsgd1na2vs0mg"},{"bike_id":"89c1c22e-4deb-4a12-b25d-9d0f09a1f79b","system_id":"levelo_inurba_marseille","lat":43.217515,"lon":5.346008,"is_reserved":false,"is_disabled":false,"rental_uris":{"android":"levelo://app?vid=89c1c22e-4deb-4a12-b25d-9d0f09a1f79b","ios":"levelo://app?vid=89c1c22e-4deb-4a12-b25d-9d0f09a1f79b"},"vehicle_type_id":"4","last_reported":1746400147,"current_range_meters":16800,"station_id":"st_cvj6r9ubvosntc0bgbag","pricing_plan_id":"cebpf4jnsgd1na2vs0mg"},{"bike_id":"d252a272-7b85-44ee-b117-a17b072d1a91","system_id":"levelo_inurba_marseille","lat":43.21765,"lon":5.34577,"is_reserved":false,"is_disabled":false,"rental_uris":{"android":"levelo://app?vid=d252a272-7b85-44ee-b117-a17b072d1a91","ios":"levelo://app?vid=d252a272-7b85-44ee-b117-a17b072d1a91"},"vehicle_type_id":"4","last_reported":1746400147,"current_range_meters":16800,"station_id":"st_cvj6r9ubvosntc0bgbag","pricing_plan_id":"cebpf4jnsgd1na2vs0mg"},{"bike_id":"f662e7cd-b4d2-4ab5-9419-ae14f3c0e84b","system_id":"levelo_inurba_marseille","lat":43.292656,"lon":5.376174,"is_reserved":false,"is_disabled":false,"rental_uris":{"android":"levelo://app?vid=f662e7cd-b4d2-4ab5-9419-ae14f3c0e84b","ios":"levelo://app?vid=f662e7cd-b4d2-4ab5-9419-ae14f3c0e84b"},"vehicle_type_id":"4","last_reported":1746400147,"current_range_meters":17200,"station_id":"ce4bgi12rcd13ifvqb80","pricing_plan_id":"cebpf4jnsgd1na2vs0mg"},{"bike_id":"c30d345d-8f61-435b-94a6-e8aff4a879ab","system_id":"levelo_inurba_marseille","lat":43.25097,"lon":5.39506,"is_reserved":false,"is_disabled":false,"rental_uris":{"android":"levelo://app?vid=c30d345d-8f61-435b-94a6-e8aff4a879ab","ios":"levelo://app?vid=c30d345d-8f61-435b-94a6-e8aff4a879ab"},"vehicle_type_id":"4","last_reported":1746400147,"current_range_meters":17200,"station_id":"ce4bhm12rcd13ifvqgkg","pricing_plan_id":"cebpf4jnsgd1na2vs0mg"},{"bike_id":"0e42e81c-9a07-4a97-bdd7-e94210c258de","system_id":"levelo_inurba_marseille","lat":43.245909,"lon":5.404936,"is_reserved":false,"is_disabled":false,"rental_uris":{"android":"levelo://app?vid=0e42e81c-9a07-4a97-bdd7-e94210c258de","ios":"levelo://app?vid=0e42e81c-9a07-4a97-bdd7-e94210c258de"},"vehicle_type_id":"4","last_reported":1746400147,"current_range_meters":17600,"station_id":"","pricing_plan_id":"cebpf4jnsgd1na2vs0mg"},{"bike_id":"287e4c0e-ca75-42c3-a27a-656a4af8b939","system_id":"levelo_inurba_marseille","lat":43.30323,"lon":5.40438,"is_reserved":false,"is_disabled":false,"rental_uris":{"android":"levelo://app?vid=287e4c0e-ca75-42c3-a27a-656a4af8b939","ios":"levelo://app?vid=287e4c0e-ca75-42c3-a27a-656a4af8b939"},"vehicle_type_id":"4","last_reported":1746400147,"current_range_meters":17600,"station_id":"ce4bh012rcd13ifvqd10","pricing_plan_id":"cebpf4jnsgd1na2vs0mg"},{"bike_id":"bbba4a42-41f1-4d4c-a0ec-15062e1d6496","system_id":"levelo_inurba_marseille","lat":43.3084,"lon":5.43483,"is_reserved":false,"is_disabled":false,"rental_uris":{"android":"levelo://app?vid=bbba4a42-41f1-4d4c-a0ec-15062e1d6496","ios":"levelo://app?vid=bbba4a42-41f1-4d4c-a0ec-15062e1d6496"},"vehicle_type_id":"4","last_reported":1746400147,"current_range_meters":18000,"station_id":"","pricing_plan_id":"cebpf4jnsgd1na2vs0mg"},{"bike_id":"f6990bbf-7200-4595-9d3c-805bae17a99e","system_id":"levelo_inurba_marseille","lat":43.22514,"lon":5.34768,"is_reserved":false,"is_disabled":false,"rental_uris":{"android":"levelo://app?vid=f6990bbf-7200-4595-9d3c-805bae17a99e","ios":"levelo://app?vid=f6990bbf-7200-4595-9d3c-805bae17a99e"},"vehicle_type_id":"4","last_reported":1746400147,"current_range_meters":18000,"station_id":"","pricing_plan_id":"cebpf4jnsgd1na2vs0mg"},{"bike_id":"4dd8f25a-57d1-44af-a567-51b6f1f0acdf","system_id":"levelo_inurba_marseille","lat":43.312711,"lon":5.401716,"is_reserved":false,"is_disabled":false,"rental_uris":{"android":"levelo://app?vid=4dd8f25a-57d1-44af-a567-51b6f1f0acdf","ios":"levelo://app?vid=4dd8f25a-57d1-44af-a567-51b6f1f0acdf"},"vehicle_type_id":"4","last_reported":1746400147,"current_range_meters":18000,"station_id":"ce4bh092rcd13ifvqd30","pricing_plan_id":"cebpf4jnsgd1na2vs0mg"},{"bike_id":"482edc50-583e-4eec-bc5f-69c08404e8a0","system_id":"levelo_inurba_marseille","lat":43.290981,"lon":5.38127,"is_reserved":false,"is_disabled":false,"rental_uris":{"android":"levelo://app?vid=482edc50-583e-4eec-bc5f-69c08404e8a0","ios":"levelo://app?vid=482edc50-583e-4eec-bc5f-69c08404e8a0"},"vehicle_type_id":"4","last_reported":1746400147,"current_range_meters":18000,"station_id":"ce4bh512rcd13ifvqe2g","pricing_plan_id":"cebpf4jnsgd1na2vs0mg"},{"bike_id":"1bc89dec-24f6-4cf3-9a07-0634e2bc1366","system_id":"levelo_inurba_marseille","lat":43.231875,"lon":5.3999,"is_reserved":false,"is_disabled":false,"rental_uris":{"android":"levelo://app?vid=1bc89dec-24f6-4cf3-9a07-0634e2bc1366","ios":"levelo://app?vid=1bc89dec-24f6-4cf3-9a07-0634e2bc1366"},"vehicle_type_id":"4","last_reported":1746400147,"current_range_meters":18000,"station_id":"ce4bhn12rcd13ifvqgqg","pricing_plan_id":"cebpf4jnsgd1na2vs0mg"},{"bike_id":"9cd22332-462d-4ba8-b350-59a9c91b9485","system_id":"levelo_inurba_marseille","lat":43.2785,"lon":5.40726,"is_reserved":false,"is_disabled":false,"rental_uris":{"android":"levelo://app?vid=9cd22332-462d-4ba8-b350-59a9c91b9485","ios":"levelo://app?vid=9cd22332-462d-4ba8-b350-59a9c91b9485"},"vehicle_type_id":"4","last_reported":1746400147,"current_range_meters":18000,"station_id":"ce4bhnh2rcd13ifvqgtg","pricing_plan_id":"cebpf4jnsgd1na2vs0mg"},{"bike_id":"65808fbe-2959-42e9-a56a-88f03257b471","system_id":"levelo_inurba_marseille","lat":43.319936,"lon":5.381541,"is_reserved":false,"is_disabled":false,"rental_uris":{"android":"levelo://app?vid=65808fbe-2959-42e9-a56a-88f03257b471","ios":"levelo://app?vid=65808fbe-2959-42e9-a56a-88f03257b471"},"vehicle_type_id":"4","last_reported":1746400147,"current_range_meters":18000,"station_id":"ce4bhr12rcd13ifvqhpg","pricing_plan_id":"cebpf4jnsgd1na2vs0mg"},{"bike_id":"36839d2f-f3fb-4ae5-87d2-3bdb958b3981","system_id":"levelo_inurba_marseille","lat":43.26206,"lon":5.37919,"is_reserved":false,"is_disabled":false,"rental_uris":{"android":"levelo://app?vid=36839d2f-f3fb-4ae5-87d2-3bdb958b3981","ios":"levelo://app?vid=36839d2f-f3fb-4ae5-87d2-3bdb958b3981"},"vehicle_type_id":"4","last_reported":1746400147,"current_range_meters":18800,"station_id":"ce4bhjp2rcd13ifvqg90","pricing_plan_id":"cebpf4jnsgd1na2vs0mg"},{"bike_id":"91149c37-e52f-4fbb-b2a2-78ea2f7134c3","system_id":"levelo_inurba_marseille","lat":43.25116,"lon":5.40327,"is_reserved":false,"is_disabled":false,"rental_uris":{"android":"levelo://app?vid=91149c37-e52f-4fbb-b2a2-78ea2f7134c3","ios":"levelo://app?vid=91149c37-e52f-4fbb-b2a2-78ea2f7134c3"},"vehicle_type_id":"4","last_reported":1746400147,"current_range_meters":18800,"station_id":"ce4bhlh2rcd13ifvqgig","pricing_plan_id":"cebpf4jnsgd1na2vs0mg"},{"bike_id":"2dce38cf-a8d4-49cd-9fcf-ef494d90a125","system_id":"levelo_inurba_marseille","lat":43.27148,"lon":5.3636,"is_reserved":false,"is_disabled":false,"rental_uris":{"android":"levelo://app?vid=2dce38cf-a8d4-49cd-9fcf-ef494d90a125","ios":"levelo://app?vid=2dce38cf-a8d4-49cd-9fcf-ef494d90a125"},"vehicle_type_id":"4","last_reported":1746400147,"current_range_meters":19200,"station_id":"","pricing_plan_id":"cebpf4jnsgd1na2vs0mg"},{"bike_id":"ce7dbab7-9310-4b7e-bf0c-465a151ac403","system_id":"levelo_inurba_marseille","lat":43.35248,"lon":5.43712,"is_reserved":false,"is_disabled":false,"rental_uris":{"android":"levelo://app?vid=ce7dbab7-9310-4b7e-bf0c-465a151ac403","ios":"levelo://app?vid=ce7dbab7-9310-4b7e-bf0c-465a151ac403"},"vehicle_type_id":"4","last_reported":1746400147,"current_range_meters":19200,"station_id":"","pricing_plan_id":"cebpf4jnsgd1na2vs0mg"},{"bike_id":"fedc619d-d7cc-4df1-a967-c5d0953b5b95","system_id":"levelo_inurba_marseille","lat":43.246048,"lon":5.408368,"is_reserved":false,"is_disabled":false,"rental_uris":{"android":"levelo://app?vid=fedc619d-d7cc-4df1-a967-c5d0953b5b95","ios":"levelo://app?vid=fedc619d-d7cc-4df1-a967-c5d0953b5b95"},"vehicle_type_id":"4","last_reported":1746400147,"current_range_meters":19600,"station_id":"","pricing_plan_id":"cebpf4jnsgd1na2vs0mg"},{"bike_id":"55e2365c-b270-4dfe-a830-699a54b79cdb","system_id":"levelo_inurba_marseille","lat":43.255838,"lon":5.421013,"is_reserved":false,"is_disabled":false,"rental_uris":{"android":"levelo://app?vid=55e2365c-b270-4dfe-a830-699a54b79cdb","ios":"levelo://app?vid=55e2365c-b270-4dfe-a830-699a54b79cdb"},"vehicle_type_id":"4","last_reported":1746400147,"current_range_meters":19600,"station_id":"","pricing_plan_id":"cebpf4jnsgd1na2vs0mg"},{"bike_id":"9633a82d-b5d1-4e50-918b-56d4b0e44004","system_id":"levelo_inurba_marseille","lat":43.30939,"lon":5.40159,"is_reserved":false,"is_disabled":false,"rental_uris":{"android":"levelo://app?vid=9633a82d-b5d1-4e50-918b-56d4b0e44004","ios":"levelo://app?vid=9633a82d-b5d1-4e50-918b-56d4b0e44004"},"vehicle_type_id":"4","last_reported":1746400147,"current_range_meters":19600,"station_id":"ce4bgvp2rcd13ifvqct0","pricing_plan_id":"cebpf4jnsgd1na2vs0mg"},{"bike_id":"0cdf18f7-acd7-4c32-bd78-96ff79b6a3da","system_id":"levelo_inurba_marseille","lat":43.241054,"lon":5.377511,"is_reserved":false,"is_disabled":false,"rental_uris":{"android":"levelo://app?vid=0cdf18f7-acd7-4c32-bd78-96ff79b6a3da","ios":"levelo://app?vid=0cdf18f7-acd7-4c32-bd78-96ff79b6a3da"},"vehicle_type_id":"4","last_reported":1746400147,"current_range_meters":19600,"station_id":"ce4bhnp2rcd13ifvqgvg","pricing_plan_id":"cebpf4jnsgd1na2vs0mg"},{"bike_id":"b9c4d27b-24f4-4260-8ad3-f9dc7d6406b5","system_id":"levelo_inurba_marseille","lat":43.278985,"lon":5.379922,"is_reserved":false,"is_disabled":false,"rental_uris":{"android":"levelo://app?vid=b9c4d27b-24f4-4260-8ad3-f9dc7d6406b5","ios":"levelo://app?vid=b9c4d27b-24f4-4260-8ad3-f9dc7d6406b5"},"vehicle_type_id":"4","last_reported":1746400147,"current_range_meters":20000,"station_id":"ce4bhf92rcd13ifvqf50","pricing_plan_id":"cebpf4jnsgd1na2vs0mg"},{"bike_id":"1e647515-6c7f-48aa-a10d-fac1d349ac41","system_id":"levelo_inurba_marseille","lat":43.23057,"lon":5.35487,"is_reserved":false,"is_disabled":false,"rental_uris":{"android":"levelo://app?vid=1e647515-6c7f-48aa-a10d-fac1d349ac41","ios":"levelo://app?vid=1e647515-6c7f-48aa-a10d-fac1d349ac41"},"vehicle_type_id":"4","last_reported":1746400147,"current_range_meters":20000,"station_id":"cpo3342slgdg3j2ifvpg","pricing_plan_id":"cebpf4jnsgd1na2vs0mg"},{"bike_id":"21a4b78c-5f0d-4732-914a-f21e5d98f8f2","system_id":"levelo_inurba_marseille","lat":43.3095,"lon":5.36875,"is_reserved":false,"is_disabled":false,"rental_uris":{"android":"levelo://app?vid=21a4b78c-5f0d-4732-914a-f21e5d98f8f2","ios":"levelo://app?vid=21a4b78c-5f0d-4732-914a-f21e5d98f8f2"},"vehicle_type_id":"4","last_reported":1746400147,"current_range_meters":20800,"station_id":"","pricing_plan_id":"cebpf4jnsgd1na2vs0mg"},{"bike_id":"83f6b08d-f27a-482d-a4cc-4e8c70cf89b3","system_id":"levelo_inurba_marseille","lat":43.24545,"lon":5.39517,"is_reserved":false,"is_disabled":false,"rental_uris":{"android":"levelo://app?vid=83f6b08d-f27a-482d-a4cc-4e8c70cf89b3","ios":"levelo://app?vid=83f6b08d-f27a-482d-a4cc-4e8c70cf89b3"},"vehicle_type_id":"4","last_reported":1746400147,"current_range_meters":20800,"station_id":"ce4bhlp2rcd13ifvqgjg","pricing_plan_id":"cebpf4jnsgd1na2vs0mg"},{"bike_id":"3f72b7ea-5944-4b5c-833d-de535a116f71","system_id":"levelo_inurba_marseille","lat":43.31166,"lon":5.38691,"is_reserved":false,"is_disabled":false,"rental_uris":{"android":"levelo://app?vid=3f72b7ea-5944-4b5c-833d-de535a116f71","ios":"levelo://app?vid=3f72b7ea-5944-4b5c-833d-de535a116f71"},"vehicle_type_id":"4","last_reported":1746400147,"current_range_meters":21600,"station_id":"ce4bgv12rcd13ifvqcp0","pricing_plan_id":"cebpf4jnsgd1na2vs0mg"},{"bike_id":"29d03aa6-cfe4-4d48-a249-8bf35c2be982","system_id":"levelo_inurba_marseille","lat":43.30322,"lon":5.40432,"is_reserved":false,"is_disabled":false,"rental_uris":{"android":"levelo://app?vid=29d03aa6-cfe4-4d48-a249-8bf35c2be982","ios":"levelo://app?vid=29d03aa6-cfe4-4d48-a249-8bf35c2be982"},"vehicle_type_id":"4","last_reported":1746400147,"current_range_meters":21600,"station_id":"ce4bh012rcd13ifvqd10","pricing_plan_id":"cebpf4jnsgd1na2vs0mg"},{"bike_id":"1f970aa1-0ef0-4e5d-8193-665c2b2c7975","system_id":"levelo_inurba_marseille","lat":43.30783,"lon":5.37644,"is_reserved":false,"is_disabled":false,"rental_uris":{"android":"levelo://app?vid=1f970aa1-0ef0-4e5d-8193-665c2b2c7975","ios":"levelo://app?vid=1f970aa1-0ef0-4e5d-8193-665c2b2c7975"},"vehicle_type_id":"4","last_reported":1746400147,"current_range_meters":22000,"station_id":"ce4bgv92rcd13ifvqcq0","pricing_plan_id":"cebpf4jnsgd1na2vs0mg"},{"bike_id":"0aa4a36d-0981-486d-b07b-8a99840ac71d","system_id":"levelo_inurba_marseille","lat":43.303294,"lon":5.404556,"is_reserved":false,"is_disabled":false,"rental_uris":{"android":"levelo://app?vid=0aa4a36d-0981-486d-b07b-8a99840ac71d","ios":"levelo://app?vid=0aa4a36d-0981-486d-b07b-8a99840ac71d"},"vehicle_type_id":"4","last_reported":1746400147,"current_range_meters":22000,"station_id":"ce4bh012rcd13ifvqd10","pricing_plan_id":"cebpf4jnsgd1na2vs0mg"},{"bike_id":"76d2b5e4-c2ba-4c6a-ae1f-8e0e8f954baf","system_id":"levelo_inurba_marseille","lat":43.28854,"lon":5.39327,"is_reserved":false,"is_disabled":false,"rental_uris":{"android":"levelo://app?vid=76d2b5e4-c2ba-4c6a-ae1f-8e0e8f954baf","ios":"levelo://app?vid=76d2b5e4-c2ba-4c6a-ae1f-8e0e8f954baf"},"vehicle_type_id":"4","last_reported":1746400147,"current_range_meters":22000,"station_id":"ce4bh2p2rcd13ifvqdi0","pricing_plan_id":"cebpf4jnsgd1na2vs0mg"},{"bike_id":"9976e80d-8d37-4191-a14a-6d2f5afad59d","system_id":"levelo_inurba_marseille","lat":43.31721,"lon":5.42385,"is_reserved":false,"is_disabled":false,"rental_uris":{"android":"levelo://app?vid=9976e80d-8d37-4191-a14a-6d2f5afad59d","ios":"levelo://app?vid=9976e80d-8d37-4191-a14a-6d2f5afad59d"},"vehicle_type_id":"4","last_reported":1746400147,"current_range_meters":22000,"station_id":"ce4bhp92rcd13ifvqhbg","pricing_plan_id":"cebpf4jnsgd1na2vs0mg"},{"bike_id":"48406110-a345-43b2-b145-b3298828c686","system_id":"levelo_inurba_marseille","lat":43.29582,"lon":5.42251,"is_reserved":false,"is_disabled":false,"rental_uris":{"android":"levelo://app?vid=48406110-a345-43b2-b145-b3298828c686","ios":"levelo://app?vid=48406110-a345-43b2-b145-b3298828c686"},"vehicle_type_id":"4","last_reported":1746400147,"current_range_meters":22000,"station_id":"ce4bhph2rcd13ifvqhdg","pricing_plan_id":"cebpf4jnsgd1na2vs0mg"},{"bike_id":"e6ce42df-4e60-47ef-899c-9ec88f083a71","system_id":"levelo_inurba_marseille","lat":43.34154,"lon":5.40896,"is_reserved":false,"is_disabled":false,"rental_uris":{"android":"levelo://app?vid=e6ce42df-4e60-47ef-899c-9ec88f083a71","ios":"levelo://app?vid=e6ce42df-4e60-47ef-899c-9ec88f083a71"},"vehicle_type_id":"4","last_reported":1746400147,"current_range_meters":22000,"station_id":"ce4bhqh2rcd13ifvqhlg","pricing_plan_id":"cebpf4jnsgd1na2vs0mg"},{"bike_id":"6060de6f-ce0d-4b10-8fe7-05153f8c8379","system_id":"levelo_inurba_marseille","lat":43.24168,"lon":5.36396,"is_reserved":false,"is_disabled":false,"rental_uris":{"android":"levelo://app?vid=6060de6f-ce0d-4b10-8fe7-05153f8c8379","ios":"levelo://app?vid=6060de6f-ce0d-4b10-8fe7-05153f8c8379"},"vehicle_type_id":"4","last_reported":1746400147,"current_range_meters":22000,"station_id":"cpo36qri1sfpv3e86is0","pricing_plan_id":"cebpf4jnsgd1na2vs0mg"},{"bike_id":"c65bfca5-581d-447d-9b11-2fbd2f29d892","system_id":"levelo_inurba_marseille","lat":43.30198,"lon":5.36623,"is_reserved":false,"is_disabled":false,"rental_uris":{"android":"levelo://app?vid=c65bfca5-581d-447d-9b11-2fbd2f29d892","ios":"levelo://app?vid=c65bfca5-581d-447d-9b11-2fbd2f29d892"},"vehicle_type_id":"4","last_reported":1746400147,"current_range_meters":22400,"station_id":"ce4bgrh2rcd13ifvqc8g","pricing_plan_id":"cebpf4jnsgd1na2vs0mg"},{"bike_id":"9a18ecd5-d117-4756-a1d7-a3899ebd4ccc","system_id":"levelo_inurba_marseille","lat":43.29026,"lon":5.38643,"is_reserved":false,"is_disabled":false,"rental_uris":{"android":"levelo://app?vid=9a18ecd5-d117-4756-a1d7-a3899ebd4ccc","ios":"levelo://app?vid=9a18ecd5-d117-4756-a1d7-a3899ebd4ccc"},"vehicle_type_id":"4","last_reported":1746400147,"current_range_meters":22400,"station_id":"ce4bh4p2rcd13ifvqe0g","pricing_plan_id":"cebpf4jnsgd1na2vs0mg"},{"bike_id":"243b49a7-8924-4b7d-8d65-fa1ee8c16a75","system_id":"levelo_inurba_marseille","lat":43.29057,"lon":5.40522,"is_reserved":false,"is_disabled":false,"rental_uris":{"android":"levelo://app?vid=243b49a7-8924-4b7d-8d65-fa1ee8c16a75","ios":"levelo://app?vid=243b49a7-8924-4b7d-8d65-fa1ee8c16a75"},"vehicle_type_id":"4","last_reported":1746400147,"current_range_meters":22800,"station_id":"","pricing_plan_id":"cebpf4jnsgd1na2vs0mg"},{"bike_id":"e4c0e2c1-3ec1-400b-b207-609f3d8889aa","system_id":"levelo_inurba_marseille","lat":43.236356,"lon":5.366035,"is_reserved":false,"is_disabled":false,"rental_uris":{"android":"levelo://app?vid=e4c0e2c1-3ec1-400b-b207-609f3d8889aa","ios":"levelo://app?vid=e4c0e2c1-3ec1-400b-b207-609f3d8889aa"},"vehicle_type_id":"4","last_reported":1746400147,"current_range_meters":22800,"station_id":"","pricing_plan_id":"cebpf4jnsgd1na2vs0mg"},{"bike_id":"b44cbc78-3810-410f-85e5-1b043b9f7abf","system_id":"levelo_inurba_marseille","lat":43.28416,"lon":5.37509,"is_reserved":false,"is_disabled":false,"rental_uris":{"android":"levelo://app?vid=b44cbc78-3810-410f-85e5-1b043b9f7abf","ios":"levelo://app?vid=b44cbc78-3810-410f-85e5-1b043b9f7abf"},"vehicle_type_id":"4","last_reported":1746400147,"current_range_meters":22800,"station_id":"ce4bh412rcd13ifvqds0","pricing_plan_id":"cebpf4jnsgd1na2vs0mg"},{"bike_id":"4b20c193-e56c-4ab2-9636-05e5dde4e4bc","system_id":"levelo_inurba_marseille","lat":43.24649,"lon":5.38144,"is_reserved":false,"is_disabled":false,"rental_uris":{"android":"levelo://app?vid=4b20c193-e56c-4ab2-9636-05e5dde4e4bc","ios":"levelo://app?vid=4b20c193-e56c-4ab2-9636-05e5dde4e4bc"},"vehicle_type_id":"4","last_reported":1746400147,"current_range_meters":22800,"station_id":"ce4bhih2rcd13ifvqfr0","pricing_plan_id":"cebpf4jnsgd1na2vs0mg"},{"bike_id":"d4f6b9d7-a1e2-42ac-9fe1-75c7c9bda882","system_id":"levelo_inurba_marseille","lat":43.32108,"lon":5.36764,"is_reserved":false,"is_disabled":false,"rental_uris":{"android":"levelo://app?vid=d4f6b9d7-a1e2-42ac-9fe1-75c7c9bda882","ios":"levelo://app?vid=d4f6b9d7-a1e2-42ac-9fe1-75c7c9bda882"},"vehicle_type_id":"4","last_reported":1746400147,"current_range_meters":22800,"station_id":"ce4bhrh2rcd13ifvqhug","pricing_plan_id":"cebpf4jnsgd1na2vs0mg"},{"bike_id":"8e30af91-24f7-47e6-a1ab-d023efed48a2","system_id":"levelo_inurba_marseille","lat":43.28705,"lon":5.37362,"is_reserved":false,"is_disabled":false,"rental_uris":{"android":"levelo://app?vid=8e30af91-24f7-47e6-a1ab-d023efed48a2","ios":"levelo://app?vid=8e30af91-24f7-47e6-a1ab-d023efed48a2"},"vehicle_type_id":"4","last_reported":1746400147,"current_range_meters":23200,"station_id":"ce4bh3p2rcd13ifvqdq0","pricing_plan_id":"cebpf4jnsgd1na2vs0mg"},{"bike_id":"00e3a5fe-c5c3-448f-8457-1e7128038399","system_id":"levelo_inurba_marseille","lat":43.27839,"lon":5.39203,"is_reserved":false,"is_disabled":false,"rental_uris":{"android":"levelo://app?vid=00e3a5fe-c5c3-448f-8457-1e7128038399","ios":"levelo://app?vid=00e3a5fe-c5c3-448f-8457-1e7128038399"},"vehicle_type_id":"4","last_reported":1746400147,"current_range_meters":23200,"station_id":"ce4bhjp2rcd13ifvqga0","pricing_plan_id":"cebpf4jnsgd1na2vs0mg"},{"bike_id":"788046ab-4020-4c6e-a0e2-de3aee25f874","system_id":"levelo_inurba_marseille","lat":43.21218,"lon":5.35082,"is_reserved":false,"is_disabled":false,"rental_uris":{"android":"levelo://app?vid=788046ab-4020-4c6e-a0e2-de3aee25f874","ios":"levelo://app?vid=788046ab-4020-4c6e-a0e2-de3aee25f874"},"vehicle_type_id":"4","last_reported":1746400147,"current_range_meters":23200,"station_id":"st_cvj6sg6p6f1abm77japg","pricing_plan_id":"cebpf4jnsgd1na2vs0mg"},{"bike_id":"24b5a3fc-5a36-418d-a927-13628250e23d","system_id":"levelo_inurba_marseille","lat":43.28434,"lon":5.375048,"is_reserved":false,"is_disabled":false,"rental_uris":{"android":"levelo://app?vid=24b5a3fc-5a36-418d-a927-13628250e23d","ios":"levelo://app?vid=24b5a3fc-5a36-418d-a927-13628250e23d"},"vehicle_type_id":"4","last_reported":1746400147,"current_range_meters":24000,"station_id":"ce4bh412rcd13ifvqds0","pricing_plan_id":"cebpf4jnsgd1na2vs0mg"},{"bike_id":"e2584ce3-2abc-49db-818f-ddb939ea4d71","system_id":"levelo_inurba_marseille","lat":43.28166,"lon":5.42644,"is_reserved":false,"is_disabled":false,"rental_uris":{"android":"levelo://app?vid=e2584ce3-2abc-49db-818f-ddb939ea4d71","ios":"levelo://app?vid=e2584ce3-2abc-49db-818f-ddb939ea4d71"},"vehicle_type_id":"4","last_reported":1746400147,"current_range_meters":24000,"station_id":"ce4bhnh2rcd13ifvqgug","pricing_plan_id":"cebpf4jnsgd1na2vs0mg"},{"bike_id":"11a299b1-95c9-4dc6-98a6-3de11cb01ed0","system_id":"levelo_inurba_marseille","lat":43.29597,"lon":5.38094,"is_reserved":false,"is_disabled":false,"rental_uris":{"android":"levelo://app?vid=11a299b1-95c9-4dc6-98a6-3de11cb01ed0","ios":"levelo://app?vid=11a299b1-95c9-4dc6-98a6-3de11cb01ed0"},"vehicle_type_id":"4","last_reported":1746400147,"current_range_meters":24400,"station_id":"ce4bgl12rcd13ifvqbo0","pricing_plan_id":"cebpf4jnsgd1na2vs0mg"},{"bike_id":"a50a4a67-05bb-4583-976f-db292240aa19","system_id":"levelo_inurba_marseille","lat":43.28622,"lon":5.35109,"is_reserved":false,"is_disabled":false,"rental_uris":{"android":"levelo://app?vid=a50a4a67-05bb-4583-976f-db292240aa19","ios":"levelo://app?vid=a50a4a67-05bb-4583-976f-db292240aa19"},"vehicle_type_id":"4","last_reported":1746400147,"current_range_meters":24400,"station_id":"ce4bhch2rcd13ifvqeug","pricing_plan_id":"cebpf4jnsgd1na2vs0mg"},{"bike_id":"a50010f5-5697-410d-b819-2a07956aac4a","system_id":"levelo_inurba_marseille","lat":43.24392,"lon":5.37069,"is_reserved":false,"is_disabled":false,"rental_uris":{"android":"levelo://app?vid=a50010f5-5697-410d-b819-2a07956aac4a","ios":"levelo://app?vid=a50010f5-5697-410d-b819-2a07956aac4a"},"vehicle_type_id":"4","last_reported":1746400147,"current_range_meters":24400,"station_id":"ce4bhhh2rcd13ifvqfk0","pricing_plan_id":"cebpf4jnsgd1na2vs0mg"},{"bike_id":"d3a852b4-655d-4d40-9d50-42e796c56f96","system_id":"levelo_inurba_marseille","lat":43.323629,"lon":5.367531,"is_reserved":false,"is_disabled":false,"rental_uris":{"android":"levelo://app?vid=d3a852b4-655d-4d40-9d50-42e796c56f96","ios":"levelo://app?vid=d3a852b4-655d-4d40-9d50-42e796c56f96"},"vehicle_type_id":"4","last_reported":1746400147,"current_range_meters":24800,"station_id":"ce4bhsh2rcd13ifvqi2g","pricing_plan_id":"cebpf4jnsgd1na2vs0mg"},{"bike_id":"59c49738-91e4-41bb-9f86-24e182875f09","system_id":"levelo_inurba_marseille","lat":43.31536,"lon":5.38016,"is_reserved":false,"is_disabled":false,"rental_uris":{"android":"levelo://app?vid=59c49738-91e4-41bb-9f86-24e182875f09","ios":"levelo://app?vid=59c49738-91e4-41bb-9f86-24e182875f09"},"vehicle_type_id":"4","last_reported":1746400147,"current_range_meters":24800,"station_id":"ce4bhsp2rcd13ifvqi50","pricing_plan_id":"cebpf4jnsgd1na2vs0mg"},{"bike_id":"df2dffc8-1238-4dcc-886e-d38e123e9473","system_id":"levelo_inurba_marseille","lat":43.28463,"lon":5.35887,"is_reserved":false,"is_disabled":false,"rental_uris":{"android":"levelo://app?vid=df2dffc8-1238-4dcc-886e-d38e123e9473","ios":"levelo://app?vid=df2dffc8-1238-4dcc-886e-d38e123e9473"},"vehicle_type_id":"4","last_reported":1746400147,"current_range_meters":25200,"station_id":"ce4bhah2rcd13ifvqei0","pricing_plan_id":"cebpf4jnsgd1na2vs0mg"},{"bike_id":"4e2841b6-72d8-46b9-a02b-8a31a02b484c","system_id":"levelo_inurba_marseille","lat":43.29028,"lon":5.43941,"is_reserved":false,"is_disabled":false,"rental_uris":{"android":"levelo://app?vid=4e2841b6-72d8-46b9-a02b-8a31a02b484c","ios":"levelo://app?vid=4e2841b6-72d8-46b9-a02b-8a31a02b484c"},"vehicle_type_id":"4","last_reported":1746400147,"current_range_meters":25600,"station_id":"","pricing_plan_id":"cebpf4jnsgd1na2vs0mg"},{"bike_id":"3106b05d-bf60-4f42-8d00-caf767897f70","system_id":"levelo_inurba_marseille","lat":43.28705,"lon":5.37374,"is_reserved":false,"is_disabled":false,"rental_uris":{"android":"levelo://app?vid=3106b05d-bf60-4f42-8d00-caf767897f70","ios":"levelo://app?vid=3106b05d-bf60-4f42-8d00-caf767897f70"},"vehicle_type_id":"4","last_reported":1746400147,"current_range_meters":25600,"station_id":"ce4bh3p2rcd13ifvqdq0","pricing_plan_id":"cebpf4jnsgd1na2vs0mg"},{"bike_id":"78f8bc1b-2eb0-4644-9381-ca03397abd63","system_id":"levelo_inurba_marseille","lat":43.25924,"lon":5.40894,"is_reserved":false,"is_disabled":false,"rental_uris":{"android":"levelo://app?vid=78f8bc1b-2eb0-4644-9381-ca03397abd63","ios":"levelo://app?vid=78f8bc1b-2eb0-4644-9381-ca03397abd63"},"vehicle_type_id":"4","last_reported":1746400147,"current_range_meters":25600,"station_id":"ce4bhm92rcd13ifvqglg","pricing_plan_id":"cebpf4jnsgd1na2vs0mg"},{"bike_id":"cde0fa0e-c4c6-4bc4-a852-f4c917846b32","system_id":"levelo_inurba_marseille","lat":43.230664,"lon":5.354892,"is_reserved":false,"is_disabled":false,"rental_uris":{"android":"levelo://app?vid=cde0fa0e-c4c6-4bc4-a852-f4c917846b32","ios":"levelo://app?vid=cde0fa0e-c4c6-4bc4-a852-f4c917846b32"},"vehicle_type_id":"4","last_reported":1746400147,"current_range_meters":25600,"station_id":"cpo3342slgdg3j2ifvpg","pricing_plan_id":"cebpf4jnsgd1na2vs0mg"},{"bike_id":"638d16bc-c6e8-422e-8907-cb54e849c916","system_id":"levelo_inurba_marseille","lat":43.229251,"lon":5.353821,"is_reserved":false,"is_disabled":false,"rental_uris":{"android":"levelo://app?vid=638d16bc-c6e8-422e-8907-cb54e849c916","ios":"levelo://app?vid=638d16bc-c6e8-422e-8907-cb54e849c916"},"vehicle_type_id":"4","last_reported":1746400147,"current_range_meters":25600,"station_id":"cpo3532slgdg3j2ikp40","pricing_plan_id":"cebpf4jnsgd1na2vs0mg"},{"bike_id":"cb93ea8b-8707-499b-bb2b-fa48c131f0b5","system_id":"levelo_inurba_marseille","lat":43.29572,"lon":5.39981,"is_reserved":false,"is_disabled":false,"rental_uris":{"android":"levelo://app?vid=cb93ea8b-8707-499b-bb2b-fa48c131f0b5","ios":"levelo://app?vid=cb93ea8b-8707-499b-bb2b-fa48c131f0b5"},"vehicle_type_id":"4","last_reported":1746400147,"current_range_meters":26000,"station_id":"ce4bh312rcd13ifvqdj0","pricing_plan_id":"cebpf4jnsgd1na2vs0mg"},{"bike_id":"15d82010-d2bc-400d-927f-79f55d37d3cc","system_id":"levelo_inurba_marseille","lat":43.27837,"lon":5.39208,"is_reserved":false,"is_disabled":false,"rental_uris":{"android":"levelo://app?vid=15d82010-d2bc-400d-927f-79f55d37d3cc","ios":"levelo://app?vid=15d82010-d2bc-400d-927f-79f55d37d3cc"},"vehicle_type_id":"4","last_reported":1746400147,"current_range_meters":26000,"station_id":"ce4bhjp2rcd13ifvqga0","pricing_plan_id":"cebpf4jnsgd1na2vs0mg"},{"bike_id":"6da6273f-ed15-4143-92fd-9d1568116870","system_id":"levelo_inurba_marseille","lat":43.28,"lon":5.4001,"is_reserved":false,"is_disabled":false,"rental_uris":{"android":"levelo://app?vid=6da6273f-ed15-4143-92fd-9d1568116870","ios":"levelo://app?vid=6da6273f-ed15-4143-92fd-9d1568116870"},"vehicle_type_id":"4","last_reported":1746400147,"current_range_meters":26000,"station_id":"ce4bho92rcd13ifvqh4g","pricing_plan_id":"cebpf4jnsgd1na2vs0mg"},{"bike_id":"aab8d3f2-fc3c-4c05-b577-d2da8e3ad63e","system_id":"levelo_inurba_marseille","lat":43.29773,"lon":5.37097,"is_reserved":false,"is_disabled":false,"rental_uris":{"android":"levelo://app?vid=aab8d3f2-fc3c-4c05-b577-d2da8e3ad63e","ios":"levelo://app?vid=aab8d3f2-fc3c-4c05-b577-d2da8e3ad63e"},"vehicle_type_id":"4","last_reported":1746400147,"current_range_meters":26800,"station_id":"ce4bgop2rcd13ifvqc1g","pricing_plan_id":"cebpf4jnsgd1na2vs0mg"},{"bike_id":"aff7f353-1d59-47ca-961c-89eac1a9e879","system_id":"levelo_inurba_marseille","lat":43.248054,"lon":5.374563,"is_reserved":false,"is_disabled":false,"rental_uris":{"android":"levelo://app?vid=aff7f353-1d59-47ca-961c-89eac1a9e879","ios":"levelo://app?vid=aff7f353-1d59-47ca-961c-89eac1a9e879"},"vehicle_type_id":"4","last_reported":1746400147,"current_range_meters":26800,"station_id":"ce4bhgh2rcd13ifvqfb0","pricing_plan_id":"cebpf4jnsgd1na2vs0mg"},{"bike_id":"ee5ad966-a73f-42cf-9c54-205676d83b0e","system_id":"levelo_inurba_marseille","lat":43.32363,"lon":5.388895,"is_reserved":false,"is_disabled":false,"rental_uris":{"android":"levelo://app?vid=ee5ad966-a73f-42cf-9c54-205676d83b0e","ios":"levelo://app?vid=ee5ad966-a73f-42cf-9c54-205676d83b0e"},"vehicle_type_id":"4","last_reported":1746400147,"current_range_meters":26800,"station_id":"ce4bhqp2rcd13ifvqhog","pricing_plan_id":"cebpf4jnsgd1na2vs0mg"},{"bike_id":"3a63acc5-b352-4e5e-8ce6-37badecb6507","system_id":"levelo_inurba_marseille","lat":43.29482,"lon":5.418308,"is_reserved":false,"is_disabled":false,"rental_uris":{"android":"levelo://app?vid=3a63acc5-b352-4e5e-8ce6-37badecb6507","ios":"levelo://app?vid=3a63acc5-b352-4e5e-8ce6-37badecb6507"},"vehicle_type_id":"4","last_reported":1746400147,"current_range_meters":27200,"station_id":"","pricing_plan_id":"cebpf4jnsgd1na2vs0mg"},{"bike_id":"82b48ae8-6591-44c0-b17f-2e42a828b2ab","system_id":"levelo_inurba_marseille","lat":43.27074,"lon":5.42276,"is_reserved":false,"is_disabled":false,"rental_uris":{"android":"levelo://app?vid=82b48ae8-6591-44c0-b17f-2e42a828b2ab","ios":"levelo://app?vid=82b48ae8-6591-44c0-b17f-2e42a828b2ab"},"vehicle_type_id":"4","last_reported":1746400147,"current_range_meters":27200,"station_id":"ce4bhk92rcd13ifvqgb0","pricing_plan_id":"cebpf4jnsgd1na2vs0mg"},{"bike_id":"38214a63-ce33-4893-9845-0c7338a97e1e","system_id":"levelo_inurba_marseille","lat":43.32291,"lon":5.38299,"is_reserved":false,"is_disabled":false,"rental_uris":{"android":"levelo://app?vid=38214a63-ce33-4893-9845-0c7338a97e1e","ios":"levelo://app?vid=38214a63-ce33-4893-9845-0c7338a97e1e"},"vehicle_type_id":"4","last_reported":1746400147,"current_range_meters":27200,"station_id":"ce4bhr12rcd13ifvqhqg","pricing_plan_id":"cebpf4jnsgd1na2vs0mg"},{"bike_id":"ded42051-0039-4cc2-a841-aeed54376989","system_id":"levelo_inurba_marseille","lat":43.26513,"lon":5.424514,"is_reserved":false,"is_disabled":false,"rental_uris":{"android":"levelo://app?vid=ded42051-0039-4cc2-a841-aeed54376989","ios":"levelo://app?vid=ded42051-0039-4cc2-a841-aeed54376989"},"vehicle_type_id":"4","last_reported":1746400147,"current_range_meters":27600,"station_id":"","pricing_plan_id":"cebpf4jnsgd1na2vs0mg"},{"bike_id":"663bc8d8-6812-463c-bac9-0c5c81d5e30f","system_id":"levelo_inurba_marseille","lat":43.30806,"lon":5.38158,"is_reserved":false,"is_disabled":false,"rental_uris":{"android":"levelo://app?vid=663bc8d8-6812-463c-bac9-0c5c81d5e30f","ios":"levelo://app?vid=663bc8d8-6812-463c-bac9-0c5c81d5e30f"},"vehicle_type_id":"4","last_reported":1746400147,"current_range_meters":27600,"station_id":"ce4bgt12rcd13ifvqce0","pricing_plan_id":"cebpf4jnsgd1na2vs0mg"},{"bike_id":"6196fcf0-a902-4fba-87f7-efd34c1c86b2","system_id":"levelo_inurba_marseille","lat":43.31119,"lon":5.37781,"is_reserved":false,"is_disabled":false,"rental_uris":{"android":"levelo://app?vid=6196fcf0-a902-4fba-87f7-efd34c1c86b2","ios":"levelo://app?vid=6196fcf0-a902-4fba-87f7-efd34c1c86b2"},"vehicle_type_id":"4","last_reported":1746400147,"current_range_meters":27600,"station_id":"ce4bgt92rcd13ifvqcg0","pricing_plan_id":"cebpf4jnsgd1na2vs0mg"},{"bike_id":"679eefb6-7262-4571-ab75-845bd2640fee","system_id":"levelo_inurba_marseille","lat":43.288473,"lon":5.393101,"is_reserved":false,"is_disabled":false,"rental_uris":{"android":"levelo://app?vid=679eefb6-7262-4571-ab75-845bd2640fee","ios":"levelo://app?vid=679eefb6-7262-4571-ab75-845bd2640fee"},"vehicle_type_id":"4","last_reported":1746400147,"current_range_meters":27600,"station_id":"ce4bh2p2rcd13ifvqdi0","pricing_plan_id":"cebpf4jnsgd1na2vs0mg"},{"bike_id":"45c5de8a-489c-419b-986a-80790cec2827","system_id":"levelo_inurba_marseille","lat":43.2886,"lon":5.35847,"is_reserved":false,"is_disabled":false,"rental_uris":{"android":"levelo://app?vid=45c5de8a-489c-419b-986a-80790cec2827","ios":"levelo://app?vid=45c5de8a-489c-419b-986a-80790cec2827"},"vehicle_type_id":"4","last_reported":1746400147,"current_range_meters":27600,"station_id":"ce4bhb12rcd13ifvqem0","pricing_plan_id":"cebpf4jnsgd1na2vs0mg"},{"bike_id":"0aa5b90f-550a-4efd-9bbc-22b1b2133141","system_id":"levelo_inurba_marseille","lat":43.27091,"lon":5.42236,"is_reserved":false,"is_disabled":false,"rental_uris":{"android":"levelo://app?vid=0aa5b90f-550a-4efd-9bbc-22b1b2133141","ios":"levelo://app?vid=0aa5b90f-550a-4efd-9bbc-22b1b2133141"},"vehicle_type_id":"4","last_reported":1746400147,"current_range_meters":27600,"station_id":"ce4bhk92rcd13ifvqgb0","pricing_plan_id":"cebpf4jnsgd1na2vs0mg"},{"bike_id":"f8b0b83e-3275-4842-8279-54953a201dd7","system_id":"levelo_inurba_marseille","lat":43.26229,"lon":5.40454,"is_reserved":false,"is_disabled":false,"rental_uris":{"android":"levelo://app?vid=f8b0b83e-3275-4842-8279-54953a201dd7","ios":"levelo://app?vid=f8b0b83e-3275-4842-8279-54953a201dd7"},"vehicle_type_id":"4","last_reported":1746400147,"current_range_meters":27600,"station_id":"ce4bhmh2rcd13ifvqgmg","pricing_plan_id":"cebpf4jnsgd1na2vs0mg"},{"bike_id":"90dcb8cb-8c67-4289-87e8-d33cd070827f","system_id":"levelo_inurba_marseille","lat":43.279889,"lon":5.416721,"is_reserved":false,"is_disabled":false,"rental_uris":{"android":"levelo://app?vid=90dcb8cb-8c67-4289-87e8-d33cd070827f","ios":"levelo://app?vid=90dcb8cb-8c67-4289-87e8-d33cd070827f"},"vehicle_type_id":"4","last_reported":1746400147,"current_range_meters":27600,"station_id":"ce4bho12rcd13ifvqh1g","pricing_plan_id":"cebpf4jnsgd1na2vs0mg"},{"bike_id":"9d9a157b-58a1-4298-a5a8-917957c7ddfe","system_id":"levelo_inurba_marseille","lat":43.3234,"lon":5.406124,"is_reserved":false,"is_disabled":false,"rental_uris":{"android":"levelo://app?vid=9d9a157b-58a1-4298-a5a8-917957c7ddfe","ios":"levelo://app?vid=9d9a157b-58a1-4298-a5a8-917957c7ddfe"},"vehicle_type_id":"4","last_reported":1746400147,"current_range_meters":27600,"station_id":"ce4bhq92rcd13ifvqhjg","pricing_plan_id":"cebpf4jnsgd1na2vs0mg"},{"bike_id":"1bcedd05-90fb-4c2c-b71e-896ea9a48d5f","system_id":"levelo_inurba_marseille","lat":43.29306,"lon":5.434466,"is_reserved":false,"is_disabled":false,"rental_uris":{"android":"levelo://app?vid=1bcedd05-90fb-4c2c-b71e-896ea9a48d5f","ios":"levelo://app?vid=1bcedd05-90fb-4c2c-b71e-896ea9a48d5f"},"vehicle_type_id":"4","last_reported":1746400147,"current_range_meters":28000,"station_id":"","pricing_plan_id":"cebpf4jnsgd1na2vs0mg"},{"bike_id":"5d02be9b-19c3-4361-80e9-b1638646d396","system_id":"levelo_inurba_marseille","lat":43.30588,"lon":5.39361,"is_reserved":false,"is_disabled":false,"rental_uris":{"android":"levelo://app?vid=5d02be9b-19c3-4361-80e9-b1638646d396","ios":"levelo://app?vid=5d02be9b-19c3-4361-80e9-b1638646d396"},"vehicle_type_id":"4","last_reported":1746400147,"current_range_meters":28000,"station_id":"ce4bh0p2rcd13ifvqd80","pricing_plan_id":"cebpf4jnsgd1na2vs0mg"},{"bike_id":"88d088bd-cc4b-4d60-8404-5bc3ecc3d02b","system_id":"levelo_inurba_marseille","lat":43.290419,"lon":5.39969,"is_reserved":false,"is_disabled":false,"rental_uris":{"android":"levelo://app?vid=88d088bd-cc4b-4d60-8404-5bc3ecc3d02b","ios":"levelo://app?vid=88d088bd-cc4b-4d60-8404-5bc3ecc3d02b"},"vehicle_type_id":"4","last_reported":1746400147,"current_range_meters":28000,"station_id":"ce4bh392rcd13ifvqdm0","pricing_plan_id":"cebpf4jnsgd1na2vs0mg"},{"bike_id":"1876cfd0-e066-44d0-8dfb-3d8d2e10aa65","system_id":"levelo_inurba_marseille","lat":43.24668,"lon":5.38155,"is_reserved":false,"is_disabled":false,"rental_uris":{"android":"levelo://app?vid=1876cfd0-e066-44d0-8dfb-3d8d2e10aa65","ios":"levelo://app?vid=1876cfd0-e066-44d0-8dfb-3d8d2e10aa65"},"vehicle_type_id":"4","last_reported":1746400147,"current_range_meters":28000,"station_id":"ce4bhih2rcd13ifvqfr0","pricing_plan_id":"cebpf4jnsgd1na2vs0mg"},{"bike_id":"977f4bb4-3d44-493d-b5a1-22093907125a","system_id":"levelo_inurba_marseille","lat":43.27073,"lon":5.42276,"is_reserved":false,"is_disabled":false,"rental_uris":{"android":"levelo://app?vid=977f4bb4-3d44-493d-b5a1-22093907125a","ios":"levelo://app?vid=977f4bb4-3d44-493d-b5a1-22093907125a"},"vehicle_type_id":"4","last_reported":1746400147,"current_range_meters":28000,"station_id":"ce4bhk92rcd13ifvqgb0","pricing_plan_id":"cebpf4jnsgd1na2vs0mg"},{"bike_id":"004020fc-37f8-4e03-b0ac-a166d627ac17","system_id":"levelo_inurba_marseille","lat":43.32339,"lon":5.40616,"is_reserved":false,"is_disabled":false,"rental_uris":{"android":"levelo://app?vid=004020fc-37f8-4e03-b0ac-a166d627ac17","ios":"levelo://app?vid=004020fc-37f8-4e03-b0ac-a166d627ac17"},"vehicle_type_id":"4","last_reported":1746400147,"current_range_meters":28000,"station_id":"ce4bhq92rcd13ifvqhjg","pricing_plan_id":"cebpf4jnsgd1na2vs0mg"},{"bike_id":"3cf90fdc-4134-4300-840d-06fac8bdb9d9","system_id":"levelo_inurba_marseille","lat":43.2771,"lon":5.388246,"is_reserved":false,"is_disabled":false,"rental_uris":{"android":"levelo://app?vid=3cf90fdc-4134-4300-840d-06fac8bdb9d9","ios":"levelo://app?vid=3cf90fdc-4134-4300-840d-06fac8bdb9d9"},"vehicle_type_id":"4","last_reported":1746400147,"current_range_meters":28400,"station_id":"","pricing_plan_id":"cebpf4jnsgd1na2vs0mg"},{"bike_id":"1fd45b08-0111-44db-a9e4-a869c587b1e6","system_id":"levelo_inurba_marseille","lat":43.3127,"lon":5.40164,"is_reserved":false,"is_disabled":false,"rental_uris":{"android":"levelo://app?vid=1fd45b08-0111-44db-a9e4-a869c587b1e6","ios":"levelo://app?vid=1fd45b08-0111-44db-a9e4-a869c587b1e6"},"vehicle_type_id":"4","last_reported":1746400147,"current_range_meters":28400,"station_id":"ce4bh092rcd13ifvqd30","pricing_plan_id":"cebpf4jnsgd1na2vs0mg"},{"bike_id":"8d7962f0-e8dd-4b93-bf65-5c1c79a71221","system_id":"levelo_inurba_marseille","lat":43.29889,"lon":5.39733,"is_reserved":false,"is_disabled":false,"rental_uris":{"android":"levelo://app?vid=8d7962f0-e8dd-4b93-bf65-5c1c79a71221","ios":"levelo://app?vid=8d7962f0-e8dd-4b93-bf65-5c1c79a71221"},"vehicle_type_id":"4","last_reported":1746400147,"current_range_meters":28400,"station_id":"ce4bh0h2rcd13ifvqd50","pricing_plan_id":"cebpf4jnsgd1na2vs0mg"},{"bike_id":"7eca223e-2f11-477c-be4c-5e69b0962ed4","system_id":"levelo_inurba_marseille","lat":43.28459,"lon":5.35886,"is_reserved":false,"is_disabled":false,"rental_uris":{"android":"levelo://app?vid=7eca223e-2f11-477c-be4c-5e69b0962ed4","ios":"levelo://app?vid=7eca223e-2f11-477c-be4c-5e69b0962ed4"},"vehicle_type_id":"4","last_reported":1746400147,"current_range_meters":28400,"station_id":"ce4bhah2rcd13ifvqei0","pricing_plan_id":"cebpf4jnsgd1na2vs0mg"},{"bike_id":"7e58533c-6e99-49b2-aa19-279baf411c23","system_id":"levelo_inurba_marseille","lat":43.26236,"lon":5.40472,"is_reserved":false,"is_disabled":false,"rental_uris":{"android":"levelo://app?vid=7e58533c-6e99-49b2-aa19-279baf411c23","ios":"levelo://app?vid=7e58533c-6e99-49b2-aa19-279baf411c23"},"vehicle_type_id":"4","last_reported":1746400147,"current_range_meters":28400,"station_id":"ce4bhmh2rcd13ifvqgmg","pricing_plan_id":"cebpf4jnsgd1na2vs0mg"},{"bike_id":"79b06513-1be3-43fd-a1aa-b7c7c6c1c8db","system_id":"levelo_inurba_marseille","lat":43.30796,"lon":5.43519,"is_reserved":false,"is_disabled":false,"rental_uris":{"android":"levelo://app?vid=79b06513-1be3-43fd-a1aa-b7c7c6c1c8db","ios":"levelo://app?vid=79b06513-1be3-43fd-a1aa-b7c7c6c1c8db"},"vehicle_type_id":"4","last_reported":1746400147,"current_range_meters":28400,"station_id":"ce4bhph2rcd13ifvqheg","pricing_plan_id":"cebpf4jnsgd1na2vs0mg"},{"bike_id":"6f10c397-2fb9-4802-915f-b2f2dce9e14a","system_id":"levelo_inurba_marseille","lat":43.230658,"lon":5.354818,"is_reserved":false,"is_disabled":false,"rental_uris":{"android":"levelo://app?vid=6f10c397-2fb9-4802-915f-b2f2dce9e14a","ios":"levelo://app?vid=6f10c397-2fb9-4802-915f-b2f2dce9e14a"},"vehicle_type_id":"4","last_reported":1746400147,"current_range_meters":28400,"station_id":"cpo3342slgdg3j2ifvpg","pricing_plan_id":"cebpf4jnsgd1na2vs0mg"},{"bike_id":"89a87ac7-bc3b-476b-9481-69c3b8e589cc","system_id":"levelo_inurba_marseille","lat":43.28503,"lon":5.37072,"is_reserved":false,"is_disabled":false,"rental_uris":{"android":"levelo://app?vid=89a87ac7-bc3b-476b-9481-69c3b8e589cc","ios":"levelo://app?vid=89a87ac7-bc3b-476b-9481-69c3b8e589cc"},"vehicle_type_id":"4","last_reported":1746400147,"current_range_meters":28800,"station_id":"","pricing_plan_id":"cebpf4jnsgd1na2vs0mg"},{"bike_id":"19cf6c26-4c45-4e89-93af-060bb114a7c2","system_id":"levelo_inurba_marseille","lat":43.30892,"lon":5.37185,"is_reserved":false,"is_disabled":false,"rental_uris":{"android":"levelo://app?vid=19cf6c26-4c45-4e89-93af-060bb114a7c2","ios":"levelo://app?vid=19cf6c26-4c45-4e89-93af-060bb114a7c2"},"vehicle_type_id":"4","last_reported":1746400147,"current_range_meters":28800,"station_id":"ce4bguh2rcd13ifvqckg","pricing_plan_id":"cebpf4jnsgd1na2vs0mg"},{"bike_id":"b92243f4-c85b-49e6-94c6-e8d2563e6104","system_id":"levelo_inurba_marseille","lat":43.298711,"lon":5.397464,"is_reserved":false,"is_disabled":false,"rental_uris":{"android":"levelo://app?vid=b92243f4-c85b-49e6-94c6-e8d2563e6104","ios":"levelo://app?vid=b92243f4-c85b-49e6-94c6-e8d2563e6104"},"vehicle_type_id":"4","last_reported":1746400147,"current_range_meters":28800,"station_id":"ce4bh0h2rcd13ifvqd50","pricing_plan_id":"cebpf4jnsgd1na2vs0mg"},{"bike_id":"4a736302-6dab-464d-9d1e-51176916dd4f","system_id":"levelo_inurba_marseille","lat":43.27071,"lon":5.42279,"is_reserved":false,"is_disabled":false,"rental_uris":{"android":"levelo://app?vid=4a736302-6dab-464d-9d1e-51176916dd4f","ios":"levelo://app?vid=4a736302-6dab-464d-9d1e-51176916dd4f"},"vehicle_type_id":"4","last_reported":1746400147,"current_range_meters":28800,"station_id":"ce4bhk92rcd13ifvqgb0","pricing_plan_id":"cebpf4jnsgd1na2vs0mg"},{"bike_id":"bdbe79d5-2811-4bf8-acd5-601e9723fd45","system_id":"levelo_inurba_marseille","lat":43.30308,"lon":5.36881,"is_reserved":false,"is_disabled":false,"rental_uris":{"android":"levelo://app?vid=bdbe79d5-2811-4bf8-acd5-601e9723fd45","ios":"levelo://app?vid=bdbe79d5-2811-4bf8-acd5-601e9723fd45"},"vehicle_type_id":"4","last_reported":1746400147,"current_range_meters":29600,"station_id":"ce4bgqh2rcd13ifvqc5g","pricing_plan_id":"cebpf4jnsgd1na2vs0mg"},{"bike_id":"726a8434-7bb0-4d24-9166-82ef593f66c2","system_id":"levelo_inurba_marseille","lat":43.284813,"lon":5.384093,"is_reserved":false,"is_disabled":false,"rental_uris":{"android":"levelo://app?vid=726a8434-7bb0-4d24-9166-82ef593f66c2","ios":"levelo://app?vid=726a8434-7bb0-4d24-9166-82ef593f66c2"},"vehicle_type_id":"4","last_reported":1746400147,"current_range_meters":29600,"station_id":"ce4bh512rcd13ifvqe3g","pricing_plan_id":"cebpf4jnsgd1na2vs0mg"},{"bike_id":"2d86816c-79e5-4ae1-96e4-025782f2700a","system_id":"levelo_inurba_marseille","lat":43.275,"lon":5.42479,"is_reserved":false,"is_disabled":false,"rental_uris":{"android":"levelo://app?vid=2d86816c-79e5-4ae1-96e4-025782f2700a","ios":"levelo://app?vid=2d86816c-79e5-4ae1-96e4-025782f2700a"},"vehicle_type_id":"4","last_reported":1746400147,"current_range_meters":29600,"station_id":"ce4bhn92rcd13ifvqgrg","pricing_plan_id":"cebpf4jnsgd1na2vs0mg"},{"bike_id":"8565ba90-4de3-4ac4-b9b5-8c07682df056","system_id":"levelo_inurba_marseille","lat":43.28479,"lon":5.38396,"is_reserved":false,"is_disabled":false,"rental_uris":{"android":"levelo://app?vid=8565ba90-4de3-4ac4-b9b5-8c07682df056","ios":"levelo://app?vid=8565ba90-4de3-4ac4-b9b5-8c07682df056"},"vehicle_type_id":"4","last_reported":1746400147,"current_range_meters":30000,"station_id":"ce4bh512rcd13ifvqe3g","pricing_plan_id":"cebpf4jnsgd1na2vs0mg"},{"bike_id":"0fd66003-5e86-4aac-bedf-6522b816c71f","system_id":"levelo_inurba_marseille","lat":43.26227,"lon":5.40467,"is_reserved":false,"is_disabled":false,"rental_uris":{"android":"levelo://app?vid=0fd66003-5e86-4aac-bedf-6522b816c71f","ios":"levelo://app?vid=0fd66003-5e86-4aac-bedf-6522b816c71f"},"vehicle_type_id":"4","last_reported":1746400147,"current_range_meters":30000,"station_id":"ce4bhmh2rcd13ifvqgmg","pricing_plan_id":"cebpf4jnsgd1na2vs0mg"},{"bike_id":"607f5a81-5db3-4d32-88be-8c0d80a3fa8a","system_id":"levelo_inurba_marseille","lat":43.29567,"lon":5.42277,"is_reserved":false,"is_disabled":false,"rental_uris":{"android":"levelo://app?vid=607f5a81-5db3-4d32-88be-8c0d80a3fa8a","ios":"levelo://app?vid=607f5a81-5db3-4d32-88be-8c0d80a3fa8a"},"vehicle_type_id":"4","last_reported":1746400147,"current_range_meters":30000,"station_id":"ce4bhph2rcd13ifvqhdg","pricing_plan_id":"cebpf4jnsgd1na2vs0mg"},{"bike_id":"dd2b968c-69a3-4930-a55c-61d4d42604cf","system_id":"levelo_inurba_marseille","lat":43.32488,"lon":5.36625,"is_reserved":false,"is_disabled":false,"rental_uris":{"android":"levelo://app?vid=dd2b968c-69a3-4930-a55c-61d4d42604cf","ios":"levelo://app?vid=dd2b968c-69a3-4930-a55c-61d4d42604cf"},"vehicle_type_id":"4","last_reported":1746400147,"current_range_meters":30400,"station_id":"","pricing_plan_id":"cebpf4jnsgd1na2vs0mg"},{"bike_id":"095e0fec-258e-46cd-b790-33950b370e67","system_id":"levelo_inurba_marseille","lat":43.280265,"lon":5.387243,"is_reserved":false,"is_disabled":false,"rental_uris":{"android":"levelo://app?vid=095e0fec-258e-46cd-b790-33950b370e67","ios":"levelo://app?vid=095e0fec-258e-46cd-b790-33950b370e67"},"vehicle_type_id":"4","last_reported":1746400147,"current_range_meters":30400,"station_id":"","pricing_plan_id":"cebpf4jnsgd1na2vs0mg"},{"bike_id":"96cefdfe-50b7-4f67-9216-102b18922e6e","system_id":"levelo_inurba_marseille","lat":43.309427,"lon":5.390373,"is_reserved":false,"is_disabled":false,"rental_uris":{"android":"levelo://app?vid=96cefdfe-50b7-4f67-9216-102b18922e6e","ios":"levelo://app?vid=96cefdfe-50b7-4f67-9216-102b18922e6e"},"vehicle_type_id":"4","last_reported":1746400147,"current_range_meters":30400,"station_id":"ce4bgup2rcd13ifvqco0","pricing_plan_id":"cebpf4jnsgd1na2vs0mg"},{"bike_id":"5308ac6d-2fa9-400c-b8c9-04e89f61a5dc","system_id":"levelo_inurba_marseille","lat":43.28182,"lon":5.42643,"is_reserved":false,"is_disabled":false,"rental_uris":{"android":"levelo://app?vid=5308ac6d-2fa9-400c-b8c9-04e89f61a5dc","ios":"levelo://app?vid=5308ac6d-2fa9-400c-b8c9-04e89f61a5dc"},"vehicle_type_id":"4","last_reported":1746400147,"current_range_meters":30400,"station_id":"ce4bhnh2rcd13ifvqgug","pricing_plan_id":"cebpf4jnsgd1na2vs0mg"},{"bike_id":"a5e1891a-c555-402f-bcab-d5c3234447e8","system_id":"levelo_inurba_marseille","lat":43.281546,"lon":5.426406,"is_reserved":false,"is_disabled":false,"rental_uris":{"android":"levelo://app?vid=a5e1891a-c555-402f-bcab-d5c3234447e8","ios":"levelo://app?vid=a5e1891a-c555-402f-bcab-d5c3234447e8"},"vehicle_type_id":"4","last_reported":1746400147,"current_range_meters":30400,"station_id":"ce4bhnh2rcd13ifvqgug","pricing_plan_id":"cebpf4jnsgd1na2vs0mg"},{"bike_id":"feb8e8cf-0340-43a7-b399-bac0cd045c7a","system_id":"levelo_inurba_marseille","lat":43.30428,"lon":5.41289,"is_reserved":false,"is_disabled":false,"rental_uris":{"android":"levelo://app?vid=feb8e8cf-0340-43a7-b399-bac0cd045c7a","ios":"levelo://app?vid=feb8e8cf-0340-43a7-b399-bac0cd045c7a"},"vehicle_type_id":"4","last_reported":1746400147,"current_range_meters":30400,"station_id":"ce4bhop2rcd13ifvqh8g","pricing_plan_id":"cebpf4jnsgd1na2vs0mg"},{"bike_id":"a6ef1a95-4d7b-4fa1-aca4-666b791716c9","system_id":"levelo_inurba_marseille","lat":43.33569,"lon":5.42842,"is_reserved":false,"is_disabled":false,"rental_uris":{"android":"levelo://app?vid=a6ef1a95-4d7b-4fa1-aca4-666b791716c9","ios":"levelo://app?vid=a6ef1a95-4d7b-4fa1-aca4-666b791716c9"},"vehicle_type_id":"4","last_reported":1746400147,"current_range_meters":30800,"station_id":"","pricing_plan_id":"cebpf4jnsgd1na2vs0mg"},{"bike_id":"01cf93c7-ffdc-476e-acbc-a82dc4eafe5f","system_id":"levelo_inurba_marseille","lat":43.28461,"lon":5.35894,"is_reserved":false,"is_disabled":false,"rental_uris":{"android":"levelo://app?vid=01cf93c7-ffdc-476e-acbc-a82dc4eafe5f","ios":"levelo://app?vid=01cf93c7-ffdc-476e-acbc-a82dc4eafe5f"},"vehicle_type_id":"4","last_reported":1746400147,"current_range_meters":30800,"station_id":"ce4bhah2rcd13ifvqei0","pricing_plan_id":"cebpf4jnsgd1na2vs0mg"},{"bike_id":"bc45d86a-a349-4a05-9057-e364a34803a0","system_id":"levelo_inurba_marseille","lat":43.25009,"lon":5.3893,"is_reserved":false,"is_disabled":false,"rental_uris":{"android":"levelo://app?vid=bc45d86a-a349-4a05-9057-e364a34803a0","ios":"levelo://app?vid=bc45d86a-a349-4a05-9057-e364a34803a0"},"vehicle_type_id":"4","last_reported":1746400147,"current_range_meters":30800,"station_id":"ce4bhgp2rcd13ifvqfd0","pricing_plan_id":"cebpf4jnsgd1na2vs0mg"},{"bike_id":"8615739d-0c96-4e53-93f8-ee0893ee0487","system_id":"levelo_inurba_marseille","lat":43.26206,"lon":5.40442,"is_reserved":false,"is_disabled":false,"rental_uris":{"android":"levelo://app?vid=8615739d-0c96-4e53-93f8-ee0893ee0487","ios":"levelo://app?vid=8615739d-0c96-4e53-93f8-ee0893ee0487"},"vehicle_type_id":"4","last_reported":1746400147,"current_range_meters":30800,"station_id":"ce4bhmh2rcd13ifvqgmg","pricing_plan_id":"cebpf4jnsgd1na2vs0mg"},{"bike_id":"9b8fa0d0-8f6e-498c-b135-205d7175ac8c","system_id":"levelo_inurba_marseille","lat":43.29603,"lon":5.36292,"is_reserved":false,"is_disabled":false,"rental_uris":{"android":"levelo://app?vid=9b8fa0d0-8f6e-498c-b135-205d7175ac8c","ios":"levelo://app?vid=9b8fa0d0-8f6e-498c-b135-205d7175ac8c"},"vehicle_type_id":"4","last_reported":1746400147,"current_range_meters":31200,"station_id":"","pricing_plan_id":"cebpf4jnsgd1na2vs0mg"},{"bike_id":"59e75120-b9c5-4b4a-818e-7811468da080","system_id":"levelo_inurba_marseille","lat":43.30912,"lon":5.36846,"is_reserved":false,"is_disabled":false,"rental_uris":{"android":"levelo://app?vid=59e75120-b9c5-4b4a-818e-7811468da080","ios":"levelo://app?vid=59e75120-b9c5-4b4a-818e-7811468da080"},"vehicle_type_id":"4","last_reported":1746400147,"current_range_meters":31200,"station_id":"ce4bgn92rcd13ifvqbvg","pricing_plan_id":"cebpf4jnsgd1na2vs0mg"},{"bike_id":"2e4b4884-d24c-4d9e-bfd6-8d942c5485a6","system_id":"levelo_inurba_marseille","lat":43.308,"lon":5.38151,"is_reserved":false,"is_disabled":false,"rental_uris":{"android":"levelo://app?vid=2e4b4884-d24c-4d9e-bfd6-8d942c5485a6","ios":"levelo://app?vid=2e4b4884-d24c-4d9e-bfd6-8d942c5485a6"},"vehicle_type_id":"4","last_reported":1746400147,"current_range_meters":31200,"station_id":"ce4bgt12rcd13ifvqce0","pricing_plan_id":"cebpf4jnsgd1na2vs0mg"},{"bike_id":"f762cea5-93b5-40f5-bdd6-e4b7230bc7fb","system_id":"levelo_inurba_marseille","lat":43.30883,"lon":5.39629,"is_reserved":false,"is_disabled":false,"rental_uris":{"android":"levelo://app?vid=f762cea5-93b5-40f5-bdd6-e4b7230bc7fb","ios":"levelo://app?vid=f762cea5-93b5-40f5-bdd6-e4b7230bc7fb"},"vehicle_type_id":"4","last_reported":1746400147,"current_range_meters":31200,"station_id":"ce4bh012rcd13ifvqcv0","pricing_plan_id":"cebpf4jnsgd1na2vs0mg"},{"bike_id":"a281d369-5099-4859-80f5-88b596d38fdd","system_id":"levelo_inurba_marseille","lat":43.30212,"lon":5.39476,"is_reserved":false,"is_disabled":false,"rental_uris":{"android":"levelo://app?vid=a281d369-5099-4859-80f5-88b596d38fdd","ios":"levelo://app?vid=a281d369-5099-4859-80f5-88b596d38fdd"},"vehicle_type_id":"4","last_reported":1746400147,"current_range_meters":31200,"station_id":"ce4bh0p2rcd13ifvqd70","pricing_plan_id":"cebpf4jnsgd1na2vs0mg"},{"bike_id":"d09fc9c8-9eac-4773-b424-1b87f407405b","system_id":"levelo_inurba_marseille","lat":43.24538,"lon":5.39518,"is_reserved":false,"is_disabled":false,"rental_uris":{"android":"levelo://app?vid=d09fc9c8-9eac-4773-b424-1b87f407405b","ios":"levelo://app?vid=d09fc9c8-9eac-4773-b424-1b87f407405b"},"vehicle_type_id":"4","last_reported":1746400147,"current_range_meters":31200,"station_id":"ce4bhlp2rcd13ifvqgjg","pricing_plan_id":"cebpf4jnsgd1na2vs0mg"},{"bike_id":"e8a28bbe-58a7-404f-b5f0-0cf2f02674c8","system_id":"levelo_inurba_marseille","lat":43.27944,"lon":5.4103,"is_reserved":false,"is_disabled":false,"rental_uris":{"android":"levelo://app?vid=e8a28bbe-58a7-404f-b5f0-0cf2f02674c8","ios":"levelo://app?vid=e8a28bbe-58a7-404f-b5f0-0cf2f02674c8"},"vehicle_type_id":"4","last_reported":1746400147,"current_range_meters":31200,"station_id":"ce4bhnp2rcd13ifvqh0g","pricing_plan_id":"cebpf4jnsgd1na2vs0mg"},{"bike_id":"9387838b-c64d-4024-81b1-942ee019e4c6","system_id":"levelo_inurba_marseille","lat":43.268037,"lon":5.402577,"is_reserved":false,"is_disabled":false,"rental_uris":{"android":"levelo://app?vid=9387838b-c64d-4024-81b1-942ee019e4c6","ios":"levelo://app?vid=9387838b-c64d-4024-81b1-942ee019e4c6"},"vehicle_type_id":"4","last_reported":1746400147,"current_range_meters":31200,"station_id":"ce501612rcd8frsf0b60","pricing_plan_id":"cebpf4jnsgd1na2vs0mg"},{"bike_id":"66de1ca3-3095-4785-b376-9cad4758c4f1","system_id":"levelo_inurba_marseille","lat":43.2816,"lon":5.4265,"is_reserved":false,"is_disabled":false,"rental_uris":{"android":"levelo://app?vid=66de1ca3-3095-4785-b376-9cad4758c4f1","ios":"levelo://app?vid=66de1ca3-3095-4785-b376-9cad4758c4f1"},"vehicle_type_id":"4","last_reported":1746400147,"current_range_meters":32400,"station_id":"ce4bhnh2rcd13ifvqgug","pricing_plan_id":"cebpf4jnsgd1na2vs0mg"},{"bike_id":"7cd1e00b-ab85-416f-af03-66c215361e38","system_id":"levelo_inurba_marseille","lat":43.30889,"lon":5.3719,"is_reserved":false,"is_disabled":false,"rental_uris":{"android":"levelo://app?vid=7cd1e00b-ab85-416f-af03-66c215361e38","ios":"levelo://app?vid=7cd1e00b-ab85-416f-af03-66c215361e38"},"vehicle_type_id":"4","last_reported":1746400147,"current_range_meters":32800,"station_id":"ce4bguh2rcd13ifvqckg","pricing_plan_id":"cebpf4jnsgd1na2vs0mg"},{"bike_id":"3ac00367-5d15-44cf-b568-0dce7c9e3f83","system_id":"levelo_inurba_marseille","lat":43.29961,"lon":5.41314,"is_reserved":false,"is_disabled":false,"rental_uris":{"android":"levelo://app?vid=3ac00367-5d15-44cf-b568-0dce7c9e3f83","ios":"levelo://app?vid=3ac00367-5d15-44cf-b568-0dce7c9e3f83"},"vehicle_type_id":"4","last_reported":1746400147,"current_range_meters":32800,"station_id":"ce4bhp12rcd13ifvqh9g","pricing_plan_id":"cebpf4jnsgd1na2vs0mg"},{"bike_id":"e914354c-86c9-412f-b268-6472ee24abb1","system_id":"levelo_inurba_marseille","lat":43.30743,"lon":5.42437,"is_reserved":false,"is_disabled":false,"rental_uris":{"android":"levelo://app?vid=e914354c-86c9-412f-b268-6472ee24abb1","ios":"levelo://app?vid=e914354c-86c9-412f-b268-6472ee24abb1"},"vehicle_type_id":"4","last_reported":1746400147,"current_range_meters":32800,"station_id":"st_cvj6ca6bvosntc0bfgr0","pricing_plan_id":"cebpf4jnsgd1na2vs0mg"},{"bike_id":"859dd97b-ff6d-4640-a603-36b76bebd2f2","system_id":"levelo_inurba_marseille","lat":43.313604,"lon":5.385017,"is_reserved":false,"is_disabled":false,"rental_uris":{"android":"levelo://app?vid=859dd97b-ff6d-4640-a603-36b76bebd2f2","ios":"levelo://app?vid=859dd97b-ff6d-4640-a603-36b76bebd2f2"},"vehicle_type_id":"4","last_reported":1746400147,"current_range_meters":33200,"station_id":"ce4bgt92rcd13ifvqcf0","pricing_plan_id":"cebpf4jnsgd1na2vs0mg"},{"bike_id":"14cfb6c8-d1a9-446d-a45e-a3a2e96bb041","system_id":"levelo_inurba_marseille","lat":43.303267,"lon":5.40433,"is_reserved":false,"is_disabled":false,"rental_uris":{"android":"levelo://app?vid=14cfb6c8-d1a9-446d-a45e-a3a2e96bb041","ios":"levelo://app?vid=14cfb6c8-d1a9-446d-a45e-a3a2e96bb041"},"vehicle_type_id":"4","last_reported":1746400147,"current_range_meters":33200,"station_id":"ce4bh012rcd13ifvqd10","pricing_plan_id":"cebpf4jnsgd1na2vs0mg"},{"bike_id":"69aa30cd-f2b1-4ec7-8146-19e1fd94eb42","system_id":"levelo_inurba_marseille","lat":43.28572,"lon":5.39101,"is_reserved":false,"is_disabled":false,"rental_uris":{"android":"levelo://app?vid=69aa30cd-f2b1-4ec7-8146-19e1fd94eb42","ios":"levelo://app?vid=69aa30cd-f2b1-4ec7-8146-19e1fd94eb42"},"vehicle_type_id":"4","last_reported":1746400147,"current_range_meters":33600,"station_id":"","pricing_plan_id":"cebpf4jnsgd1na2vs0mg"},{"bike_id":"6b5fc1d2-b369-4821-88f2-e0fe213d9c98","system_id":"levelo_inurba_marseille","lat":43.31182,"lon":5.38711,"is_reserved":false,"is_disabled":false,"rental_uris":{"android":"levelo://app?vid=6b5fc1d2-b369-4821-88f2-e0fe213d9c98","ios":"levelo://app?vid=6b5fc1d2-b369-4821-88f2-e0fe213d9c98"},"vehicle_type_id":"4","last_reported":1746400147,"current_range_meters":33600,"station_id":"ce4bgv12rcd13ifvqcp0","pricing_plan_id":"cebpf4jnsgd1na2vs0mg"},{"bike_id":"5dae170b-46d9-44dc-a5ac-e6e35871a666","system_id":"levelo_inurba_marseille","lat":43.30781,"lon":5.37649,"is_reserved":false,"is_disabled":false,"rental_uris":{"android":"levelo://app?vid=5dae170b-46d9-44dc-a5ac-e6e35871a666","ios":"levelo://app?vid=5dae170b-46d9-44dc-a5ac-e6e35871a666"},"vehicle_type_id":"4","last_reported":1746400147,"current_range_meters":33600,"station_id":"ce4bgv92rcd13ifvqcq0","pricing_plan_id":"cebpf4jnsgd1na2vs0mg"},{"bike_id":"193f0f80-7912-4069-a5e3-ca7bf85ffd92","system_id":"levelo_inurba_marseille","lat":43.24998,"lon":5.38946,"is_reserved":false,"is_disabled":false,"rental_uris":{"android":"levelo://app?vid=193f0f80-7912-4069-a5e3-ca7bf85ffd92","ios":"levelo://app?vid=193f0f80-7912-4069-a5e3-ca7bf85ffd92"},"vehicle_type_id":"4","last_reported":1746400147,"current_range_meters":33600,"station_id":"ce4bhgp2rcd13ifvqfd0","pricing_plan_id":"cebpf4jnsgd1na2vs0mg"},{"bike_id":"3556074c-39f7-4cd9-8691-0e51b4eb67af","system_id":"levelo_inurba_marseille","lat":43.30803,"lon":5.38142,"is_reserved":false,"is_disabled":false,"rental_uris":{"android":"levelo://app?vid=3556074c-39f7-4cd9-8691-0e51b4eb67af","ios":"levelo://app?vid=3556074c-39f7-4cd9-8691-0e51b4eb67af"},"vehicle_type_id":"4","last_reported":1746400147,"current_range_meters":34000,"station_id":"ce4bgt12rcd13ifvqce0","pricing_plan_id":"cebpf4jnsgd1na2vs0mg"},{"bike_id":"02447a04-f072-471f-bc4b-82ddfd1d7fed","system_id":"levelo_inurba_marseille","lat":43.31362,"lon":5.38484,"is_reserved":false,"is_disabled":false,"rental_uris":{"android":"levelo://app?vid=02447a04-f072-471f-bc4b-82ddfd1d7fed","ios":"levelo://app?vid=02447a04-f072-471f-bc4b-82ddfd1d7fed"},"vehicle_type_id":"4","last_reported":1746400147,"current_range_meters":34000,"station_id":"ce4bgt92rcd13ifvqcf0","pricing_plan_id":"cebpf4jnsgd1na2vs0mg"},{"bike_id":"b7c9eb6a-7126-4114-b4fd-d235a15b653e","system_id":"levelo_inurba_marseille","lat":43.28845,"lon":5.39316,"is_reserved":false,"is_disabled":false,"rental_uris":{"android":"levelo://app?vid=b7c9eb6a-7126-4114-b4fd-d235a15b653e","ios":"levelo://app?vid=b7c9eb6a-7126-4114-b4fd-d235a15b653e"},"vehicle_type_id":"4","last_reported":1746400147,"current_range_meters":34000,"station_id":"ce4bh2p2rcd13ifvqdi0","pricing_plan_id":"cebpf4jnsgd1na2vs0mg"},{"bike_id":"fab798aa-658a-4ea4-96c7-1502b1f053a3","system_id":"levelo_inurba_marseille","lat":43.290362,"lon":5.381348,"is_reserved":false,"is_disabled":false,"rental_uris":{"android":"levelo://app?vid=fab798aa-658a-4ea4-96c7-1502b1f053a3","ios":"levelo://app?vid=fab798aa-658a-4ea4-96c7-1502b1f053a3"},"vehicle_type_id":"4","last_reported":1746400147,"current_range_meters":34000,"station_id":"ce4bh4p2rcd13ifvqe1g","pricing_plan_id":"cebpf4jnsgd1na2vs0mg"},{"bike_id":"78c1cfe7-ef4d-41c7-a00b-93c8126f15ea","system_id":"levelo_inurba_marseille","lat":43.28462,"lon":5.35886,"is_reserved":false,"is_disabled":false,"rental_uris":{"android":"levelo://app?vid=78c1cfe7-ef4d-41c7-a00b-93c8126f15ea","ios":"levelo://app?vid=78c1cfe7-ef4d-41c7-a00b-93c8126f15ea"},"vehicle_type_id":"4","last_reported":1746400147,"current_range_meters":34000,"station_id":"ce4bhah2rcd13ifvqei0","pricing_plan_id":"cebpf4jnsgd1na2vs0mg"},{"bike_id":"743222bd-84cf-45ed-a920-8084932e7bba","system_id":"levelo_inurba_marseille","lat":43.27057,"lon":5.42274,"is_reserved":false,"is_disabled":false,"rental_uris":{"android":"levelo://app?vid=743222bd-84cf-45ed-a920-8084932e7bba","ios":"levelo://app?vid=743222bd-84cf-45ed-a920-8084932e7bba"},"vehicle_type_id":"4","last_reported":1746400147,"current_range_meters":34000,"station_id":"ce4bhk92rcd13ifvqgb0","pricing_plan_id":"cebpf4jnsgd1na2vs0mg"},{"bike_id":"99d7cd05-107a-4d48-8125-721407c2568c","system_id":"levelo_inurba_marseille","lat":43.28434,"lon":5.391937,"is_reserved":false,"is_disabled":false,"rental_uris":{"android":"levelo://app?vid=99d7cd05-107a-4d48-8125-721407c2568c","ios":"levelo://app?vid=99d7cd05-107a-4d48-8125-721407c2568c"},"vehicle_type_id":"4","last_reported":1746400147,"current_range_meters":34000,"station_id":"ce4bhoh2rcd13ifvqh5g","pricing_plan_id":"cebpf4jnsgd1na2vs0mg"},{"bike_id":"79cc74fb-3f83-40d6-95e4-82d51131ce66","system_id":"levelo_inurba_marseille","lat":43.33729,"lon":5.39209,"is_reserved":false,"is_disabled":false,"rental_uris":{"android":"levelo://app?vid=79cc74fb-3f83-40d6-95e4-82d51131ce66","ios":"levelo://app?vid=79cc74fb-3f83-40d6-95e4-82d51131ce66"},"vehicle_type_id":"4","last_reported":1746400147,"current_range_meters":34000,"station_id":"ce4bhr92rcd13ifvqhsg","pricing_plan_id":"cebpf4jnsgd1na2vs0mg"},{"bike_id":"fa5987e4-b639-4429-a0fc-9a92930fd1bc","system_id":"levelo_inurba_marseille","lat":43.30163,"lon":5.38077,"is_reserved":false,"is_disabled":false,"rental_uris":{"android":"levelo://app?vid=fa5987e4-b639-4429-a0fc-9a92930fd1bc","ios":"levelo://app?vid=fa5987e4-b639-4429-a0fc-9a92930fd1bc"},"vehicle_type_id":"4","last_reported":1746400147,"current_range_meters":34800,"station_id":"ce4bgjp2rcd13ifvqbh0","pricing_plan_id":"cebpf4jnsgd1na2vs0mg"},{"bike_id":"d2da935a-57de-485a-ae48-f495a2332f9e","system_id":"levelo_inurba_marseille","lat":43.31078,"lon":5.38348,"is_reserved":false,"is_disabled":false,"rental_uris":{"android":"levelo://app?vid=d2da935a-57de-485a-ae48-f495a2332f9e","ios":"levelo://app?vid=d2da935a-57de-485a-ae48-f495a2332f9e"},"vehicle_type_id":"4","last_reported":1746400147,"current_range_meters":34800,"station_id":"ce4bgv92rcd13ifvqcr0","pricing_plan_id":"cebpf4jnsgd1na2vs0mg"},{"bike_id":"39fc9256-9e22-4392-9774-f2f1b831f802","system_id":"levelo_inurba_marseille","lat":43.31534,"lon":5.38028,"is_reserved":false,"is_disabled":false,"rental_uris":{"android":"levelo://app?vid=39fc9256-9e22-4392-9774-f2f1b831f802","ios":"levelo://app?vid=39fc9256-9e22-4392-9774-f2f1b831f802"},"vehicle_type_id":"4","last_reported":1746400147,"current_range_meters":34800,"station_id":"ce4bhsp2rcd13ifvqi50","pricing_plan_id":"cebpf4jnsgd1na2vs0mg"},{"bike_id":"af930bdf-d2ef-4589-8566-9054690beabf","system_id":"levelo_inurba_marseille","lat":43.302063,"lon":5.437698,"is_reserved":false,"is_disabled":false,"rental_uris":{"android":"levelo://app?vid=af930bdf-d2ef-4589-8566-9054690beabf","ios":"levelo://app?vid=af930bdf-d2ef-4589-8566-9054690beabf"},"vehicle_type_id":"4","last_reported":1746400147,"current_range_meters":35200,"station_id":"","pricing_plan_id":"cebpf4jnsgd1na2vs0mg"},{"bike_id":"85822c5a-377f-4044-9705-b563e09e266d","system_id":"levelo_inurba_marseille","lat":43.31069,"lon":5.38352,"is_reserved":false,"is_disabled":false,"rental_uris":{"android":"levelo://app?vid=85822c5a-377f-4044-9705-b563e09e266d","ios":"levelo://app?vid=85822c5a-377f-4044-9705-b563e09e266d"},"vehicle_type_id":"4","last_reported":1746400147,"current_range_meters":35200,"station_id":"ce4bgv92rcd13ifvqcr0","pricing_plan_id":"cebpf4jnsgd1na2vs0mg"},{"bike_id":"21cbed04-612f-4115-9985-47d81293578e","system_id":"levelo_inurba_marseille","lat":43.30212,"lon":5.39477,"is_reserved":false,"is_disabled":false,"rental_uris":{"android":"levelo://app?vid=21cbed04-612f-4115-9985-47d81293578e","ios":"levelo://app?vid=21cbed04-612f-4115-9985-47d81293578e"},"vehicle_type_id":"4","last_reported":1746400147,"current_range_meters":35200,"station_id":"ce4bh0p2rcd13ifvqd70","pricing_plan_id":"cebpf4jnsgd1na2vs0mg"},{"bike_id":"a3c4a404-766c-49dc-ba7a-56d1713d7767","system_id":"levelo_inurba_marseille","lat":43.29261,"lon":5.40912,"is_reserved":false,"is_disabled":false,"rental_uris":{"android":"levelo://app?vid=a3c4a404-766c-49dc-ba7a-56d1713d7767","ios":"levelo://app?vid=a3c4a404-766c-49dc-ba7a-56d1713d7767"},"vehicle_type_id":"4","last_reported":1746400147,"current_range_meters":35200,"station_id":"ce4bh192rcd13ifvqdc0","pricing_plan_id":"cebpf4jnsgd1na2vs0mg"},{"bike_id":"501705ca-1687-4a71-ac5f-8fcf448f29d8","system_id":"levelo_inurba_marseille","lat":43.29279,"lon":5.40067,"is_reserved":false,"is_disabled":false,"rental_uris":{"android":"levelo://app?vid=501705ca-1687-4a71-ac5f-8fcf448f29d8","ios":"levelo://app?vid=501705ca-1687-4a71-ac5f-8fcf448f29d8"},"vehicle_type_id":"4","last_reported":1746400147,"current_range_meters":35200,"station_id":"ce4bh312rcd13ifvqdk0","pricing_plan_id":"cebpf4jnsgd1na2vs0mg"},{"bike_id":"68869b85-ab9d-4747-9dac-043a15da8816","system_id":"levelo_inurba_marseille","lat":43.29887,"lon":5.38892,"is_reserved":false,"is_disabled":false,"rental_uris":{"android":"levelo://app?vid=68869b85-ab9d-4747-9dac-043a15da8816","ios":"levelo://app?vid=68869b85-ab9d-4747-9dac-043a15da8816"},"vehicle_type_id":"4","last_reported":1746400147,"current_range_meters":35200,"station_id":"ce4bh392rcd13ifvqdl0","pricing_plan_id":"cebpf4jnsgd1na2vs0mg"},{"bike_id":"b0f58154-c1a4-44a9-8a86-07f2938a54a4","system_id":"levelo_inurba_marseille","lat":43.29049,"lon":5.3994,"is_reserved":false,"is_disabled":false,"rental_uris":{"android":"levelo://app?vid=b0f58154-c1a4-44a9-8a86-07f2938a54a4","ios":"levelo://app?vid=b0f58154-c1a4-44a9-8a86-07f2938a54a4"},"vehicle_type_id":"4","last_reported":1746400147,"current_range_meters":35200,"station_id":"ce4bh392rcd13ifvqdm0","pricing_plan_id":"cebpf4jnsgd1na2vs0mg"},