{"last_updated":1732032695,"ttl":60,"version":"2.2","data":{"bikes":[{"bike_id":"cacde89c-5086-4b87-8bcd-a2b586b3345d","system_id":"levelo_inurba_marseille","lat":43.3017,"lon":5.381,"is_reserved":false,"is_disabled":true,"rental_uris":{"android":"levelo://app?vid=cacde89c-5086-4b87-8bcd-a2b586b3345d","ios":"levelo://app?vid=cacde89c-5086-4b87-8bcd-a2b586b3345d"},"vehicle_type_id":"4","last_reported":1732032695,"current_range_meters":38800,"station_id":"ce4bgjp2rcd13ifvqbh0","pricing_plan_id":"cebpf4jnsgd1na2vs0mg"},{"bike_id":"acd6185c-33a0-4407-9b6f-d6e54a412225","system_id":"levelo_inurba_marseille","lat":43.29576,"lon":5.37498,"is_reserved":false,"is_disabled":false,"rental_uris":{"android":"levelo://app?vid=acd6185c-33a0-4407-9b6f-d6e54a412225","ios":"levelo://app?vid=acd6185c-33a0-4407-9b6f-d6e54a412225"},"vehicle_type_id":"4","last_reported":1732032695,"current_range_meters":38800,"station_id":"ce4bgh92rcd13ifvqb50","pricing_plan_id":"cebpf4jnsgd1na2vs0mg"},{"bike_id":"bb9ea763-6e93-4922-b0c2-ce9421dca49b","system_id":"levelo_inurba_marseille","lat":43.25936,"lon":5.40915,"is_reserved":false,"is_disabled":true,"rental_uris":{"android":"levelo://app?vid=bb9ea763-6e93-4922-b0c2-ce9421dca49b","ios":"levelo://app?vid=bb9ea763-6e93-4922-b0c2-ce9421dca49b"},"vehicle_type_id":"4","last_reported":1732032695,"current_range_meters":0,"station_id":"ce4bhm92rcd13ifvqglg","pricing_plan_id":"cebpf4jnsgd1na2vs0mg"},{"bike_id":"ae36fd86-149a-45ba-b9dd-b30d0ef40959","system_id":"levelo_inurba_marseille","lat":43.29857,"lon":5.36276,"is_reserved":false,"is_disabled":false,"rental_uris":{"android":"levelo://app?vid=ae36fd86-149a-45ba-b9dd-b30d0ef40959","ios":"levelo://app?vid=ae36fd86-149a-45ba-b9dd-b30d0ef40959"},"vehicle_type_id":"4","last_reported":1732032695,"current_range_meters":17600,"station_id":"ce4bgpp2rcd13ifvqc3g","pricing_plan_id":"cebpf4jnsgd1na2vs0mg"},{"bike_id":"8837be14-93f2-4ec4-963c-6ea26bad9216","system_id":"levelo_inurba_marseille","lat":43.31075,"lon":5.38355,"is_reserved":false,"is_disabled":false,"rental_uris":{"android":"levelo://app?vid=8837be14-93f2-4ec4-963c-6ea26bad9216","ios":"levelo://app?vid=8837be14-93f2-4ec4-963c-6ea26bad9216"},"vehicle_type_id":"4","last_reported":1732032695,"current_range_meters":8000,"station_id":"ce4bgv92rcd13ifvqcr0","pricing_plan_id":"cebpf4jnsgd1na2vs0mg"},{"bike_id":"eea69eb2-0835-4004-a007-1f9f2279b455","system_id":"levelo_inurba_marseille","lat":43.30139,"lon":5.38783,"is_reserved":false,"is_disabled":false,"rental_uris":{"android":"levelo://app?vid=eea69eb2-0835-4004-a007-1f9f2279b455","ios":"levelo://app?vid=eea69eb2-0835-4004-a007-1f9f2279b455"},"vehicle_type_id":"4","last_reported":1732032695,"current_range_meters":33600,"station_id":"ce4bghh2rcd13ifvqb60","pricing_plan_id":"cebpf4jnsgd1na2vs0mg"},{"bike_id":"c8c1db44-3f46-4851-a84a-f4f502fc1899","system_id":"levelo_inurba_marseille","lat":43.27913,"lon":5.39585,"is_reserved":false,"is_disabled":false,"rental_uris":{"android":"levelo://app?vid=c8c1db44-3f46-4851-a84a-f4f502fc1899","ios":"levelo://app?vid=c8c1db44-3f46-4851-a84a-f4f502fc1899"},"vehicle_type_id":"4","last_reported":1732032695,"current_range_meters":4400,"station_id":"ce4bhf92rcd13ifvqf40","pricing_plan_id":"cebpf4jnsgd1na2vs0mg"},{"bike_id":"ee4489f6-f94a-41d8-a411-753856a63822","system_id":"levelo_inurba_marseille","lat":43.30526,"lon":5.38076,"is_reserved":false,"is_disabled":false,"rental_uris":{"android":"levelo://app?vid=ee4489f6-f94a-41d8-a411-753856a63822","ios":"levelo://app?vid=ee4489f6-f94a-41d8-a411-753856a63822"},"vehicle_type_id":"4","last_reported":1732032695,"current_range_meters":9600,"station_id":"","pricing_plan_id":"cebpf4jnsgd1na2vs0mg"},{"bike_id":"a56f6a73-a417-4b77-990d-34fd53b180b1","system_id":"levelo_inurba_marseille","lat":43.308844,"lon":5.396708,"is_reserved":false,"is_disabled":true,"rental_uris":{"android":"levelo://app?vid=a56f6a73-a417-4b77-990d-34fd53b180b1","ios":"levelo://app?vid=a56f6a73-a417-4b77-990d-34fd53b180b1"},"vehicle_type_id":"4","last_reported":1732032695,"current_range_meters":0,"station_id":"ce4bh012rcd13ifvqcv0","pricing_plan_id":"cebpf4jnsgd1na2vs0mg"},{"bike_id":"0ea93326-5034-4b5e-97b8-0a33b4d38611","system_id":"levelo_inurba_marseille","lat":43.30161,"lon":5.38098,"is_reserved":false,"is_disabled":true,"rental_uris":{"android":"levelo://app?vid=0ea93326-5034-4b5e-97b8-0a33b4d38611","ios":"levelo://app?vid=0ea93326-5034-4b5e-97b8-0a33b4d38611"},"vehicle_type_id":"4","last_reported":1732032695,"current_range_meters":0,"station_id":"ce4bgjp2rcd13ifvqbh0","pricing_plan_id":"cebpf4jnsgd1na2vs0mg"},{"bike_id":"8f387bf0-3327-47fd-b1c1-c2af46a3e3f7","system_id":"levelo_inurba_marseille","lat":43.23149,"lon":5.43717,"is_reserved":false,"is_disabled":false,"rental_uris":{"android":"levelo://app?vid=8f387bf0-3327-47fd-b1c1-c2af46a3e3f7","ios":"levelo://app?vid=8f387bf0-3327-47fd-b1c1-c2af46a3e3f7"},"vehicle_type_id":"4","last_reported":1732032695,"current_range_meters":16400,"station_id":"ce4bhmp2rcd13ifvqgog","pricing_plan_id":"cebpf4jnsgd1na2vs0mg"},{"bike_id":"48c6384e-fc0a-4df9-aa16-6b93faedfd67","system_id":"levelo_inurba_marseille","lat":43.2938,"lon":5.37849,"is_reserved":false,"is_disabled":false,"rental_uris":{"android":"levelo://app?vid=48c6384e-fc0a-4df9-aa16-6b93faedfd67","ios":"levelo://app?vid=48c6384e-fc0a-4df9-aa16-6b93faedfd67"},"vehicle_type_id":"4","last_reported":1732032695,"current_range_meters":11600,"station_id":"ce4bgjh2rcd13ifvqbf0","pricing_plan_id":"cebpf4jnsgd1na2vs0mg"},{"bike_id":"b1879da0-4952-4a10-8d90-fd2192536eda","system_id":"levelo_inurba_marseille","lat":43.23154,"lon":5.43719,"is_reserved":false,"is_disabled":false,"rental_uris":{"android":"levelo://app?vid=b1879da0-4952-4a10-8d90-fd2192536eda","ios":"levelo://app?vid=b1879da0-4952-4a10-8d90-fd2192536eda"},"vehicle_type_id":"4","last_reported":1732032695,"current_range_meters":39200,"station_id":"ce4bhmp2rcd13ifvqgog","pricing_plan_id":"cebpf4jnsgd1na2vs0mg"},{"bike_id":"24061edd-ded8-42aa-93d0-1520d915e818","system_id":"levelo_inurba_marseille","lat":43.30883,"lon":5.39653,"is_reserved":false,"is_disabled":false,"rental_uris":{"android":"levelo://app?vid=24061edd-ded8-42aa-93d0-1520d915e818","ios":"levelo://app?vid=24061edd-ded8-42aa-93d0-1520d915e818"},"vehicle_type_id":"4","last_reported":1732032695,"current_range_meters":30000,"station_id":"ce4bh012rcd13ifvqcv0","pricing_plan_id":"cebpf4jnsgd1na2vs0mg"},{"bike_id":"9de44c0b-9da7-4053-8dbb-5bd6deebf2d5","system_id":"levelo_inurba_marseille","lat":43.311762,"lon":5.387153,"is_reserved":false,"is_disabled":false,"rental_uris":{"android":"levelo://app?vid=9de44c0b-9da7-4053-8dbb-5bd6deebf2d5","ios":"levelo://app?vid=9de44c0b-9da7-4053-8dbb-5bd6deebf2d5"},"vehicle_type_id":"4","last_reported":1732032695,"current_range_meters":31200,"station_id":"ce4bgv12rcd13ifvqcp0","pricing_plan_id":"cebpf4jnsgd1na2vs0mg"},{"bike_id":"d876d88b-3bde-4396-8b49-6ed1ce255db3","system_id":"levelo_inurba_marseille","lat":43.30541,"lon":5.36558,"is_reserved":false,"is_disabled":false,"rental_uris":{"android":"levelo://app?vid=d876d88b-3bde-4396-8b49-6ed1ce255db3","ios":"levelo://app?vid=d876d88b-3bde-4396-8b49-6ed1ce255db3"},"vehicle_type_id":"4","last_reported":1732032695,"current_range_meters":8400,"station_id":"ce4bgs12rcd13ifvqcag","pricing_plan_id":"cebpf4jnsgd1na2vs0mg"},{"bike_id":"91988532-8808-464d-8a57-05e57412c828","system_id":"levelo_inurba_marseille","lat":43.24087,"lon":5.37747,"is_reserved":false,"is_disabled":true,"rental_uris":{"android":"levelo://app?vid=91988532-8808-464d-8a57-05e57412c828","ios":"levelo://app?vid=91988532-8808-464d-8a57-05e57412c828"},"vehicle_type_id":"4","last_reported":1732032695,"current_range_meters":0,"station_id":"ce4bhnp2rcd13ifvqgvg","pricing_plan_id":"cebpf4jnsgd1na2vs0mg"},{"bike_id":"c85666ef-4eaa-47a5-b89b-259bc40468c0","system_id":"levelo_inurba_marseille","lat":43.330243,"lon":5.390365,"is_reserved":false,"is_disabled":false,"rental_uris":{"android":"levelo://app?vid=c85666ef-4eaa-47a5-b89b-259bc40468c0","ios":"levelo://app?vid=c85666ef-4eaa-47a5-b89b-259bc40468c0"},"vehicle_type_id":"4","last_reported":1732032695,"current_range_meters":38800,"station_id":"ce4bhr92rcd13ifvqhrg","pricing_plan_id":"cebpf4jnsgd1na2vs0mg"},{"bike_id":"6414caae-d205-40bb-a1a7-13615a926124","system_id":"levelo_inurba_marseille","lat":43.29699,"lon":5.37296,"is_reserved":false,"is_disabled":false,"rental_uris":{"android":"levelo://app?vid=6414caae-d205-40bb-a1a7-13615a926124","ios":"levelo://app?vid=6414caae-d205-40bb-a1a7-13615a926124"},"vehicle_type_id":"4","last_reported":1732032695,"current_range_meters":32000,"station_id":"ce4bgk12rcd13ifvqbj0","pricing_plan_id":"cebpf4jnsgd1na2vs0mg"},{"bike_id":"b678d168-a1c5-424d-9a53-73b26037134d","system_id":"levelo_inurba_marseille","lat":43.3057,"lon":5.38421,"is_reserved":false,"is_disabled":false,"rental_uris":{"android":"levelo://app?vid=b678d168-a1c5-424d-9a53-73b26037134d","ios":"levelo://app?vid=b678d168-a1c5-424d-9a53-73b26037134d"},"vehicle_type_id":"4","last_reported":1732032695,"current_range_meters":4800,"station_id":"ce4bgg92rcd13ifvqb30","pricing_plan_id":"cebpf4jnsgd1na2vs0mg"},{"bike_id":"b04ad296-73fd-46cf-b300-f56f4c87b2e8","system_id":"levelo_inurba_marseille","lat":43.25109,"lon":5.40324,"is_reserved":false,"is_disabled":false,"rental_uris":{"android":"levelo://app?vid=b04ad296-73fd-46cf-b300-f56f4c87b2e8","ios":"levelo://app?vid=b04ad296-73fd-46cf-b300-f56f4c87b2e8"},"vehicle_type_id":"4","last_reported":1732032695,"current_range_meters":30800,"station_id":"ce4bhlh2rcd13ifvqgig","pricing_plan_id":"cebpf4jnsgd1na2vs0mg"},{"bike_id":"4f17ca83-5b56-46c8-9eb1-44219ca2b9a0","system_id":"levelo_inurba_marseille","lat":43.2986,"lon":5.38344,"is_reserved":false,"is_disabled":false,"rental_uris":{"android":"levelo://app?vid=4f17ca83-5b56-46c8-9eb1-44219ca2b9a0","ios":"levelo://app?vid=4f17ca83-5b56-46c8-9eb1-44219ca2b9a0"},"vehicle_type_id":"4","last_reported":1732032695,"current_range_meters":22000,"station_id":"","pricing_plan_id":"cebpf4jnsgd1na2vs0mg"},{"bike_id":"cbccd853-9bf6-4195-af9b-63f16bc19009","system_id":"levelo_inurba_marseille","lat":43.28458,"lon":5.35887,"is_reserved":false,"is_disabled":false,"rental_uris":{"android":"levelo://app?vid=cbccd853-9bf6-4195-af9b-63f16bc19009","ios":"levelo://app?vid=cbccd853-9bf6-4195-af9b-63f16bc19009"},"vehicle_type_id":"4","last_reported":1732032695,"current_range_meters":33600,"station_id":"ce4bhah2rcd13ifvqei0","pricing_plan_id":"cebpf4jnsgd1na2vs0mg"},{"bike_id":"276b723e-a083-4b05-bd93-e0b7dcd17592","system_id":"levelo_inurba_marseille","lat":43.30891,"lon":5.3719,"is_reserved":false,"is_disabled":false,"rental_uris":{"android":"levelo://app?vid=276b723e-a083-4b05-bd93-e0b7dcd17592","ios":"levelo://app?vid=276b723e-a083-4b05-bd93-e0b7dcd17592"},"vehicle_type_id":"4","last_reported":1732032695,"current_range_meters":5600,"station_id":"ce4bguh2rcd13ifvqckg","pricing_plan_id":"cebpf4jnsgd1na2vs0mg"},{"bike_id":"c6c8493f-c7ba-4abf-b274-210b70c0e3d0","system_id":"levelo_inurba_marseille","lat":43.30324,"lon":5.36898,"is_reserved":false,"is_disabled":false,"rental_uris":{"android":"levelo://app?vid=c6c8493f-c7ba-4abf-b274-210b70c0e3d0","ios":"levelo://app?vid=c6c8493f-c7ba-4abf-b274-210b70c0e3d0"},"vehicle_type_id":"4","last_reported":1732032695,"current_range_meters":17200,"station_id":"ce4bgqh2rcd13ifvqc5g","pricing_plan_id":"cebpf4jnsgd1na2vs0mg"},{"bike_id":"80d85317-818b-4a79-bb82-168093edf425","system_id":"levelo_inurba_marseille","lat":43.30787,"lon":5.37649,"is_reserved":false,"is_disabled":false,"rental_uris":{"android":"levelo://app?vid=80d85317-818b-4a79-bb82-168093edf425","ios":"levelo://app?vid=80d85317-818b-4a79-bb82-168093edf425"},"vehicle_type_id":"4","last_reported":1732032695,"current_range_meters":24800,"station_id":"ce4bgv92rcd13ifvqcq0","pricing_plan_id":"cebpf4jnsgd1na2vs0mg"},{"bike_id":"1b8af928-fe7e-4b01-81c7-85d16857d205","system_id":"levelo_inurba_marseille","lat":43.29579,"lon":5.37518,"is_reserved":false,"is_disabled":true,"rental_uris":{"android":"levelo://app?vid=1b8af928-fe7e-4b01-81c7-85d16857d205","ios":"levelo://app?vid=1b8af928-fe7e-4b01-81c7-85d16857d205"},"vehicle_type_id":"4","last_reported":1732032695,"current_range_meters":0,"station_id":"ce4bgh92rcd13ifvqb50","pricing_plan_id":"cebpf4jnsgd1na2vs0mg"},{"bike_id":"bda7a0ca-2e71-4ff6-a6fa-a5227cbca8c1","system_id":"levelo_inurba_marseille","lat":43.31999,"lon":5.38167,"is_reserved":false,"is_disabled":false,"rental_uris":{"android":"levelo://app?vid=bda7a0ca-2e71-4ff6-a6fa-a5227cbca8c1","ios":"levelo://app?vid=bda7a0ca-2e71-4ff6-a6fa-a5227cbca8c1"},"vehicle_type_id":"4","last_reported":1732032695,"current_range_meters":9200,"station_id":"ce4bhr12rcd13ifvqhpg","pricing_plan_id":"cebpf4jnsgd1na2vs0mg"},{"bike_id":"85308c21-24d3-4ff7-9073-790d239a9901","system_id":"levelo_inurba_marseille","lat":43.31076,"lon":5.38348,"is_reserved":false,"is_disabled":true,"rental_uris":{"android":"levelo://app?vid=85308c21-24d3-4ff7-9073-790d239a9901","ios":"levelo://app?vid=85308c21-24d3-4ff7-9073-790d239a9901"},"vehicle_type_id":"4","last_reported":1732032695,"current_range_meters":36400,"station_id":"ce4bgv92rcd13ifvqcr0","pricing_plan_id":"cebpf4jnsgd1na2vs0mg"},{"bike_id":"5e481ac0-bb6d-495c-8a42-48c5d476221a","system_id":"levelo_inurba_marseille","lat":43.255,"lon":5.37653,"is_reserved":false,"is_disabled":false,"rental_uris":{"android":"levelo://app?vid=5e481ac0-bb6d-495c-8a42-48c5d476221a","ios":"levelo://app?vid=5e481ac0-bb6d-495c-8a42-48c5d476221a"},"vehicle_type_id":"4","last_reported":1732032695,"current_range_meters":24000,"station_id":"ce4bhh12rcd13ifvqff0","pricing_plan_id":"cebpf4jnsgd1na2vs0mg"},{"bike_id":"1341a828-b981-4198-a789-8a5791ca7539","system_id":"levelo_inurba_marseille","lat":43.25015,"lon":5.38917,"is_reserved":false,"is_disabled":false,"rental_uris":{"android":"levelo://app?vid=1341a828-b981-4198-a789-8a5791ca7539","ios":"levelo://app?vid=1341a828-b981-4198-a789-8a5791ca7539"},"vehicle_type_id":"4","last_reported":1732032695,"current_range_meters":36000,"station_id":"ce4bhgp2rcd13ifvqfd0","pricing_plan_id":"cebpf4jnsgd1na2vs0mg"},{"bike_id":"645e3cc3-5d53-4fad-b652-8da2295d3996","system_id":"levelo_inurba_marseille","lat":43.31753,"lon":5.39011,"is_reserved":false,"is_disabled":false,"rental_uris":{"android":"levelo://app?vid=645e3cc3-5d53-4fad-b652-8da2295d3996","ios":"levelo://app?vid=645e3cc3-5d53-4fad-b652-8da2295d3996"},"vehicle_type_id":"4","last_reported":1732032695,"current_range_meters":30400,"station_id":"ce4bhqp2rcd13ifvqhng","pricing_plan_id":"cebpf4jnsgd1na2vs0mg"},{"bike_id":"fc7acaeb-fc0d-4e63-9b87-f2f18bd788cb","system_id":"levelo_inurba_marseille","lat":43.30931,"lon":5.40146,"is_reserved":false,"is_disabled":false,"rental_uris":{"android":"levelo://app?vid=fc7acaeb-fc0d-4e63-9b87-f2f18bd788cb","ios":"levelo://app?vid=fc7acaeb-fc0d-4e63-9b87-f2f18bd788cb"},"vehicle_type_id":"4","last_reported":1732032695,"current_range_meters":16400,"station_id":"ce4bgvp2rcd13ifvqct0","pricing_plan_id":"cebpf4jnsgd1na2vs0mg"},{"bike_id":"e3511c0c-eb2b-4100-bb2d-c5ebcd644bea","system_id":"levelo_inurba_marseille","lat":43.23962,"lon":5.36627,"is_reserved":false,"is_disabled":true,"rental_uris":{"android":"levelo://app?vid=e3511c0c-eb2b-4100-bb2d-c5ebcd644bea","ios":"levelo://app?vid=e3511c0c-eb2b-4100-bb2d-c5ebcd644bea"},"vehicle_type_id":"4","last_reported":1732032695,"current_range_meters":35600,"station_id":"ce4bhi12rcd13ifvqfp0","pricing_plan_id":"cebpf4jnsgd1na2vs0mg"},{"bike_id":"7dc2540e-5c15-49cc-843d-b22dafd2ded0","system_id":"levelo_inurba_marseille","lat":43.33771,"lon":5.37443,"is_reserved":false,"is_disabled":false,"rental_uris":{"android":"levelo://app?vid=7dc2540e-5c15-49cc-843d-b22dafd2ded0","ios":"levelo://app?vid=7dc2540e-5c15-49cc-843d-b22dafd2ded0"},"vehicle_type_id":"4","last_reported":1732032695,"current_range_meters":36800,"station_id":"","pricing_plan_id":"cebpf4jnsgd1na2vs0mg"},{"bike_id":"5917a06d-1a89-42ee-9c96-70b3e49f2520","system_id":"levelo_inurba_marseille","lat":43.31693,"lon":5.40473,"is_reserved":false,"is_disabled":true,"rental_uris":{"android":"levelo://app?vid=5917a06d-1a89-42ee-9c96-70b3e49f2520","ios":"levelo://app?vid=5917a06d-1a89-42ee-9c96-70b3e49f2520"},"vehicle_type_id":"4","last_reported":1732032695,"current_range_meters":11200,"station_id":"ce4bh012rcd13ifvqd00","pricing_plan_id":"cebpf4jnsgd1na2vs0mg"},{"bike_id":"006581b7-d15d-4c9e-8bd8-b97264d67a93","system_id":"levelo_inurba_marseille","lat":43.27201,"lon":5.39189,"is_reserved":false,"is_disabled":false,"rental_uris":{"android":"levelo://app?vid=006581b7-d15d-4c9e-8bd8-b97264d67a93","ios":"levelo://app?vid=006581b7-d15d-4c9e-8bd8-b97264d67a93"},"vehicle_type_id":"4","last_reported":1732032695,"current_range_meters":28800,"station_id":"ce4bhhp2rcd13ifvqfm0","pricing_plan_id":"cebpf4jnsgd1na2vs0mg"},{"bike_id":"497454ce-e4eb-4dce-94e8-18190e4c429b","system_id":"levelo_inurba_marseille","lat":43.278087,"lon":5.407195,"is_reserved":false,"is_disabled":true,"rental_uris":{"android":"levelo://app?vid=497454ce-e4eb-4dce-94e8-18190e4c429b","ios":"levelo://app?vid=497454ce-e4eb-4dce-94e8-18190e4c429b"},"vehicle_type_id":"4","last_reported":1732032695,"current_range_meters":0,"station_id":"ce4bhnh2rcd13ifvqgtg","pricing_plan_id":"cebpf4jnsgd1na2vs0mg"},{"bike_id":"e0923d0a-78be-4bab-82bb-c6c79e9ce96c","system_id":"levelo_inurba_marseille","lat":43.31171,"lon":5.3872,"is_reserved":false,"is_disabled":false,"rental_uris":{"android":"levelo://app?vid=e0923d0a-78be-4bab-82bb-c6c79e9ce96c","ios":"levelo://app?vid=e0923d0a-78be-4bab-82bb-c6c79e9ce96c"},"vehicle_type_id":"4","last_reported":1732032695,"current_range_meters":8000,"station_id":"ce4bgv12rcd13ifvqcp0","pricing_plan_id":"cebpf4jnsgd1na2vs0mg"},{"bike_id":"25073dac-1c4b-4235-88f2-ba7b09ca22ac","system_id":"levelo_inurba_marseille","lat":43.32295,"lon":5.38271,"is_reserved":false,"is_disabled":false,"rental_uris":{"android":"levelo://app?vid=25073dac-1c4b-4235-88f2-ba7b09ca22ac","ios":"levelo://app?vid=25073dac-1c4b-4235-88f2-ba7b09ca22ac"},"vehicle_type_id":"4","last_reported":1732032695,"current_range_meters":22000,"station_id":"ce4bhr12rcd13ifvqhqg","pricing_plan_id":"cebpf4jnsgd1na2vs0mg"},{"bike_id":"b48ffeaa-acd3-4b4d-a578-625f39d31859","system_id":"levelo_inurba_marseille","lat":43.3204,"lon":5.41568,"is_reserved":false,"is_disabled":false,"rental_uris":{"android":"levelo://app?vid=b48ffeaa-acd3-4b4d-a578-625f39d31859","ios":"levelo://app?vid=b48ffeaa-acd3-4b4d-a578-625f39d31859"},"vehicle_type_id":"4","last_reported":1732032695,"current_range_meters":38800,"station_id":"ce4bhq92rcd13ifvqhkg","pricing_plan_id":"cebpf4jnsgd1na2vs0mg"},{"bike_id":"37f14134-d611-451c-9aaa-25a59bd49fe3","system_id":"levelo_inurba_marseille","lat":43.298802,"lon":5.39729,"is_reserved":false,"is_disabled":true,"rental_uris":{"android":"levelo://app?vid=37f14134-d611-451c-9aaa-25a59bd49fe3","ios":"levelo://app?vid=37f14134-d611-451c-9aaa-25a59bd49fe3"},"vehicle_type_id":"4","last_reported":1732032695,"current_range_meters":38800,"station_id":"ce4bh0h2rcd13ifvqd50","pricing_plan_id":"cebpf4jnsgd1na2vs0mg"},{"bike_id":"e9f09ced-3a27-401c-8649-0abb461c1459","system_id":"levelo_inurba_marseille","lat":43.28658,"lon":5.36362,"is_reserved":false,"is_disabled":false,"rental_uris":{"android":"levelo://app?vid=e9f09ced-3a27-401c-8649-0abb461c1459","ios":"levelo://app?vid=e9f09ced-3a27-401c-8649-0abb461c1459"},"vehicle_type_id":"4","last_reported":1732032695,"current_range_meters":30400,"station_id":"ce4bhah2rcd13ifvqej0","pricing_plan_id":"cebpf4jnsgd1na2vs0mg"},{"bike_id":"d674a550-723f-4e20-a0c2-89aa344c2ade","system_id":"levelo_inurba_marseille","lat":43.282034,"lon":5.443804,"is_reserved":false,"is_disabled":true,"rental_uris":{"android":"levelo://app?vid=d674a550-723f-4e20-a0c2-89aa344c2ade","ios":"levelo://app?vid=d674a550-723f-4e20-a0c2-89aa344c2ade"},"vehicle_type_id":"4","last_reported":1732032695,"current_range_meters":1200,"station_id":"","pricing_plan_id":"cebpf4jnsgd1na2vs0mg"},{"bike_id":"f542b112-204e-4422-a866-9c7f8c2c4c4d","system_id":"levelo_inurba_marseille","lat":43.315,"lon":5.37308,"is_reserved":false,"is_disabled":false,"rental_uris":{"android":"levelo://app?vid=f542b112-204e-4422-a866-9c7f8c2c4c4d","ios":"levelo://app?vid=f542b112-204e-4422-a866-9c7f8c2c4c4d"},"vehicle_type_id":"4","last_reported":1732032695,"current_range_meters":39200,"station_id":"ce4bgt12rcd13ifvqcd0","pricing_plan_id":"cebpf4jnsgd1na2vs0mg"},{"bike_id":"df5ec5a8-f958-46da-9c24-4495fcd7b8c0","system_id":"levelo_inurba_marseille","lat":43.30355,"lon":5.41885,"is_reserved":false,"is_disabled":true,"rental_uris":{"android":"levelo://app?vid=df5ec5a8-f958-46da-9c24-4495fcd7b8c0","ios":"levelo://app?vid=df5ec5a8-f958-46da-9c24-4495fcd7b8c0"},"vehicle_type_id":"4","last_reported":1732032695,"current_range_meters":1600,"station_id":"ce4bhop2rcd13ifvqh7g","pricing_plan_id":"cebpf4jnsgd1na2vs0mg"},{"bike_id":"f5cf085e-8694-4c6f-ba9c-aa6e0d3c58c6","system_id":"levelo_inurba_marseille","lat":43.34614,"lon":5.35458,"is_reserved":false,"is_disabled":true,"rental_uris":{"android":"levelo://app?vid=f5cf085e-8694-4c6f-ba9c-aa6e0d3c58c6","ios":"levelo://app?vid=f5cf085e-8694-4c6f-ba9c-aa6e0d3c58c6"},"vehicle_type_id":"4","last_reported":1732032695,"current_range_meters":17200,"station_id":"","pricing_plan_id":"cebpf4jnsgd1na2vs0mg"},{"bike_id":"6e4700da-2223-4213-b156-7eedfb193e83","system_id":"levelo_inurba_marseille","lat":43.23192,"lon":5.35555,"is_reserved":false,"is_disabled":false,"rental_uris":{"android":"levelo://app?vid=6e4700da-2223-4213-b156-7eedfb193e83","ios":"levelo://app?vid=6e4700da-2223-4213-b156-7eedfb193e83"},"vehicle_type_id":"4","last_reported":1732032695,"current_range_meters":3600,"station_id":"ce4bhu92rcd13ifvqi70","pricing_plan_id":"cebpf4jnsgd1na2vs0mg"},{"bike_id":"df1d9aa1-d2fb-4342-994b-059a1bcec75d","system_id":"levelo_inurba_marseille","lat":43.29568,"lon":5.3998,"is_reserved":false,"is_disabled":false,"rental_uris":{"android":"levelo://app?vid=df1d9aa1-d2fb-4342-994b-059a1bcec75d","ios":"levelo://app?vid=df1d9aa1-d2fb-4342-994b-059a1bcec75d"},"vehicle_type_id":"4","last_reported":1732032695,"current_range_meters":20800,"station_id":"ce4bh312rcd13ifvqdj0","pricing_plan_id":"cebpf4jnsgd1na2vs0mg"},{"bike_id":"bd4a772f-74de-4528-ae45-171c28be203c","system_id":"levelo_inurba_marseille","lat":43.30422,"lon":5.41287,"is_reserved":false,"is_disabled":false,"rental_uris":{"android":"levelo://app?vid=bd4a772f-74de-4528-ae45-171c28be203c","ios":"levelo://app?vid=bd4a772f-74de-4528-ae45-171c28be203c"},"vehicle_type_id":"4","last_reported":1732032695,"current_range_meters":26000,"station_id":"ce4bhop2rcd13ifvqh8g","pricing_plan_id":"cebpf4jnsgd1na2vs0mg"},{"bike_id":"31e6bd0b-c283-428e-a60e-39ea0d752798","system_id":"levelo_inurba_marseille","lat":43.26213,"lon":5.37442,"is_reserved":false,"is_disabled":false,"rental_uris":{"android":"levelo://app?vid=31e6bd0b-c283-428e-a60e-39ea0d752798","ios":"levelo://app?vid=31e6bd0b-c283-428e-a60e-39ea0d752798"},"vehicle_type_id":"4","last_reported":1732032695,"current_range_meters":12800,"station_id":"ce4bhgp2rcd13ifvqfc0","pricing_plan_id":"cebpf4jnsgd1na2vs0mg"},{"bike_id":"b025ac42-87a5-4dd9-9db1-d22342e3b716","system_id":"levelo_inurba_marseille","lat":43.30422,"lon":5.41275,"is_reserved":false,"is_disabled":false,"rental_uris":{"android":"levelo://app?vid=b025ac42-87a5-4dd9-9db1-d22342e3b716","ios":"levelo://app?vid=b025ac42-87a5-4dd9-9db1-d22342e3b716"},"vehicle_type_id":"4","last_reported":1732032695,"current_range_meters":10000,"station_id":"ce4bhop2rcd13ifvqh8g","pricing_plan_id":"cebpf4jnsgd1na2vs0mg"},{"bike_id":"c965d922-041e-4314-8721-46b1ef5413d3","system_id":"levelo_inurba_marseille","lat":43.26203,"lon":5.37929,"is_reserved":false,"is_disabled":false,"rental_uris":{"android":"levelo://app?vid=c965d922-041e-4314-8721-46b1ef5413d3","ios":"levelo://app?vid=c965d922-041e-4314-8721-46b1ef5413d3"},"vehicle_type_id":"4","last_reported":1732032695,"current_range_meters":39200,"station_id":"ce4bhjp2rcd13ifvqg90","pricing_plan_id":"cebpf4jnsgd1na2vs0mg"},{"bike_id":"d15c7760-f488-495f-9c75-1d42bc50c96e","system_id":"levelo_inurba_marseille","lat":43.30189,"lon":5.36631,"is_reserved":false,"is_disabled":false,"rental_uris":{"android":"levelo://app?vid=d15c7760-f488-495f-9c75-1d42bc50c96e","ios":"levelo://app?vid=d15c7760-f488-495f-9c75-1d42bc50c96e"},"vehicle_type_id":"4","last_reported":1732032695,"current_range_meters":27600,"station_id":"ce4bgrh2rcd13ifvqc8g","pricing_plan_id":"cebpf4jnsgd1na2vs0mg"},{"bike_id":"bc249293-6395-4334-b84a-652f70f197fc","system_id":"levelo_inurba_marseille","lat":43.2763,"lon":5.42656,"is_reserved":false,"is_disabled":true,"rental_uris":{"android":"levelo://app?vid=bc249293-6395-4334-b84a-652f70f197fc","ios":"levelo://app?vid=bc249293-6395-4334-b84a-652f70f197fc"},"vehicle_type_id":"4","last_reported":1732032695,"current_range_meters":0,"station_id":"","pricing_plan_id":"cebpf4jnsgd1na2vs0mg"},{"bike_id":"1426cae0-d8f2-4da7-9cfb-ba7cf7c941f1","system_id":"levelo_inurba_marseille","lat":43.31068,"lon":5.38351,"is_reserved":false,"is_disabled":false,"rental_uris":{"android":"levelo://app?vid=1426cae0-d8f2-4da7-9cfb-ba7cf7c941f1","ios":"levelo://app?vid=1426cae0-d8f2-4da7-9cfb-ba7cf7c941f1"},"vehicle_type_id":"4","last_reported":1732032695,"current_range_meters":36000,"station_id":"ce4bgv92rcd13ifvqcr0","pricing_plan_id":"cebpf4jnsgd1na2vs0mg"},{"bike_id":"5d99237c-43fd-4199-9b06-53d7207472aa","system_id":"levelo_inurba_marseille","lat":43.31711,"lon":5.37743,"is_reserved":false,"is_disabled":false,"rental_uris":{"android":"levelo://app?vid=5d99237c-43fd-4199-9b06-53d7207472aa","ios":"levelo://app?vid=5d99237c-43fd-4199-9b06-53d7207472aa"},"vehicle_type_id":"4","last_reported":1732032695,"current_range_meters":35600,"station_id":"ce4bgth2rcd13ifvqch0","pricing_plan_id":"cebpf4jnsgd1na2vs0mg"},{"bike_id":"be1dd5f8-91fc-4786-8461-76cd869dae13","system_id":"levelo_inurba_marseille","lat":43.31982,"lon":5.41584,"is_reserved":false,"is_disabled":true,"rental_uris":{"android":"levelo://app?vid=be1dd5f8-91fc-4786-8461-76cd869dae13","ios":"levelo://app?vid=be1dd5f8-91fc-4786-8461-76cd869dae13"},"vehicle_type_id":"4","last_reported":1732032695,"current_range_meters":25600,"station_id":"","pricing_plan_id":"cebpf4jnsgd1na2vs0mg"},{"bike_id":"3ee1cd87-a64d-4e8f-b6b7-7016f6b807a9","system_id":"levelo_inurba_marseille","lat":43.29261,"lon":5.4091,"is_reserved":false,"is_disabled":false,"rental_uris":{"android":"levelo://app?vid=3ee1cd87-a64d-4e8f-b6b7-7016f6b807a9","ios":"levelo://app?vid=3ee1cd87-a64d-4e8f-b6b7-7016f6b807a9"},"vehicle_type_id":"4","last_reported":1732032695,"current_range_meters":39200,"station_id":"ce4bh192rcd13ifvqdc0","pricing_plan_id":"cebpf4jnsgd1na2vs0mg"},{"bike_id":"e5e2248a-03d3-4b07-b4f7-fd61796e9419","system_id":"levelo_inurba_marseille","lat":43.299732,"lon":5.3809,"is_reserved":false,"is_disabled":true,"rental_uris":{"android":"levelo://app?vid=e5e2248a-03d3-4b07-b4f7-fd61796e9419","ios":"levelo://app?vid=e5e2248a-03d3-4b07-b4f7-fd61796e9419"},"vehicle_type_id":"4","last_reported":1732032695,"current_range_meters":0,"station_id":"","pricing_plan_id":"cebpf4jnsgd1na2vs0mg"},{"bike_id":"36ba09ff-507a-47c0-b9f3-3a7fecb7e190","system_id":"levelo_inurba_marseille","lat":43.28564,"lon":5.39499,"is_reserved":false,"is_disabled":false,"rental_uris":{"android":"levelo://app?vid=36ba09ff-507a-47c0-b9f3-3a7fecb7e190","ios":"levelo://app?vid=36ba09ff-507a-47c0-b9f3-3a7fecb7e190"},"vehicle_type_id":"4","last_reported":1732032695,"current_range_meters":38400,"station_id":"ce4bh292rcd13ifvqdg0","pricing_plan_id":"cebpf4jnsgd1na2vs0mg"},{"bike_id":"6fe65320-959e-41bb-8132-72e6c31cb31d","system_id":"levelo_inurba_marseille","lat":43.28085,"lon":5.39672,"is_reserved":false,"is_disabled":true,"rental_uris":{"android":"levelo://app?vid=6fe65320-959e-41bb-8132-72e6c31cb31d","ios":"levelo://app?vid=6fe65320-959e-41bb-8132-72e6c31cb31d"},"vehicle_type_id":"4","last_reported":1732032695,"current_range_meters":30400,"station_id":"ce4bho12rcd13ifvqh2g","pricing_plan_id":"cebpf4jnsgd1na2vs0mg"},{"bike_id":"ba59463a-04ad-4026-a556-a71eff3a7030","system_id":"levelo_inurba_marseille","lat":43.30121,"lon":5.39867,"is_reserved":false,"is_disabled":false,"rental_uris":{"android":"levelo://app?vid=ba59463a-04ad-4026-a556-a71eff3a7030","ios":"levelo://app?vid=ba59463a-04ad-4026-a556-a71eff3a7030"},"vehicle_type_id":"4","last_reported":1732032695,"current_range_meters":30800,"station_id":"ce4bh0h2rcd13ifvqd40","pricing_plan_id":"cebpf4jnsgd1na2vs0mg"},{"bike_id":"14ebe899-5497-496b-a7d2-0439a5bc1c89","system_id":"levelo_inurba_marseille","lat":43.29214,"lon":5.38358,"is_reserved":false,"is_disabled":false,"rental_uris":{"android":"levelo://app?vid=14ebe899-5497-496b-a7d2-0439a5bc1c89","ios":"levelo://app?vid=14ebe899-5497-496b-a7d2-0439a5bc1c89"},"vehicle_type_id":"4","last_reported":1732032695,"current_range_meters":11200,"station_id":"ce4bh692rcd13ifvqea0","pricing_plan_id":"cebpf4jnsgd1na2vs0mg"},{"bike_id":"5fe20d58-65ac-4c8a-b149-a2e6de20044d","system_id":"levelo_inurba_marseille","lat":43.2937,"lon":5.37864,"is_reserved":false,"is_disabled":true,"rental_uris":{"android":"levelo://app?vid=5fe20d58-65ac-4c8a-b149-a2e6de20044d","ios":"levelo://app?vid=5fe20d58-65ac-4c8a-b149-a2e6de20044d"},"vehicle_type_id":"4","last_reported":1732032695,"current_range_meters":32000,"station_id":"ce4bgjh2rcd13ifvqbf0","pricing_plan_id":"cebpf4jnsgd1na2vs0mg"},{"bike_id":"524d919a-3f8c-4052-8e3f-3a0413f019de","system_id":"levelo_inurba_marseille","lat":43.29908,"lon":5.37475,"is_reserved":false,"is_disabled":false,"rental_uris":{"android":"levelo://app?vid=524d919a-3f8c-4052-8e3f-3a0413f019de","ios":"levelo://app?vid=524d919a-3f8c-4052-8e3f-3a0413f019de"},"vehicle_type_id":"4","last_reported":1732032695,"current_range_meters":28400,"station_id":"ce4bgjh2rcd13ifvqbg0","pricing_plan_id":"cebpf4jnsgd1na2vs0mg"},{"bike_id":"3998fa86-df3e-43f8-8260-dbe423f81a2d","system_id":"levelo_inurba_marseille","lat":43.30799,"lon":5.38156,"is_reserved":false,"is_disabled":false,"rental_uris":{"android":"levelo://app?vid=3998fa86-df3e-43f8-8260-dbe423f81a2d","ios":"levelo://app?vid=3998fa86-df3e-43f8-8260-dbe423f81a2d"},"vehicle_type_id":"4","last_reported":1732032695,"current_range_meters":38400,"station_id":"ce4bgt12rcd13ifvqce0","pricing_plan_id":"cebpf4jnsgd1na2vs0mg"},{"bike_id":"8fa9f268-d1c1-43e2-960c-f1716ed2fc74","system_id":"levelo_inurba_marseille","lat":43.28565,"lon":5.39487,"is_reserved":false,"is_disabled":false,"rental_uris":{"android":"levelo://app?vid=8fa9f268-d1c1-43e2-960c-f1716ed2fc74","ios":"levelo://app?vid=8fa9f268-d1c1-43e2-960c-f1716ed2fc74"},"vehicle_type_id":"4","last_reported":1732032695,"current_range_meters":16800,"station_id":"ce4bh292rcd13ifvqdg0","pricing_plan_id":"cebpf4jnsgd1na2vs0mg"},{"bike_id":"24b2c3eb-8b9b-40a7-8aad-177c7a5a5f47","system_id":"levelo_inurba_marseille","lat":43.26929,"lon":5.3892,"is_reserved":false,"is_disabled":true,"rental_uris":{"android":"levelo://app?vid=24b2c3eb-8b9b-40a7-8aad-177c7a5a5f47","ios":"levelo://app?vid=24b2c3eb-8b9b-40a7-8aad-177c7a5a5f47"},"vehicle_type_id":"4","last_reported":1732032695,"current_range_meters":0,"station_id":"ce4bhhh2rcd13ifvqfl0","pricing_plan_id":"cebpf4jnsgd1na2vs0mg"},{"bike_id":"0c21866d-64a6-48bd-84ec-2cdb016bb953","system_id":"levelo_inurba_marseille","lat":43.24394,"lon":5.37064,"is_reserved":false,"is_disabled":true,"rental_uris":{"android":"levelo://app?vid=0c21866d-64a6-48bd-84ec-2cdb016bb953","ios":"levelo://app?vid=0c21866d-64a6-48bd-84ec-2cdb016bb953"},"vehicle_type_id":"4","last_reported":1732032695,"current_range_meters":0,"station_id":"ce4bhhh2rcd13ifvqfk0","pricing_plan_id":"cebpf4jnsgd1na2vs0mg"},{"bike_id":"c13ac81e-db5a-4cc2-a885-8d9f40c0ed97","system_id":"levelo_inurba_marseille","lat":43.31174,"lon":5.38719,"is_reserved":false,"is_disabled":false,"rental_uris":{"android":"levelo://app?vid=c13ac81e-db5a-4cc2-a885-8d9f40c0ed97","ios":"levelo://app?vid=c13ac81e-db5a-4cc2-a885-8d9f40c0ed97"},"vehicle_type_id":"4","last_reported":1732032695,"current_range_meters":20800,"station_id":"ce4bgv12rcd13ifvqcp0","pricing_plan_id":"cebpf4jnsgd1na2vs0mg"},{"bike_id":"9b4d52a8-a22b-418c-a556-65afaca3a235","system_id":"levelo_inurba_marseille","lat":43.33761,"lon":5.37456,"is_reserved":false,"is_disabled":false,"rental_uris":{"android":"levelo://app?vid=9b4d52a8-a22b-418c-a556-65afaca3a235","ios":"levelo://app?vid=9b4d52a8-a22b-418c-a556-65afaca3a235"},"vehicle_type_id":"4","last_reported":1732032695,"current_range_meters":22400,"station_id":"","pricing_plan_id":"cebpf4jnsgd1na2vs0mg"},{"bike_id":"0f3ece26-4a8b-42e2-bf99-8ffb37ae1603","system_id":"levelo_inurba_marseille","lat":43.30095,"lon":5.39084,"is_reserved":false,"is_disabled":false,"rental_uris":{"android":"levelo://app?vid=0f3ece26-4a8b-42e2-bf99-8ffb37ae1603","ios":"levelo://app?vid=0f3ece26-4a8b-42e2-bf99-8ffb37ae1603"},"vehicle_type_id":"4","last_reported":1732032695,"current_range_meters":38800,"station_id":"ce4bh192rcd13ifvqdb0","pricing_plan_id":"cebpf4jnsgd1na2vs0mg"},{"bike_id":"d6e54eb8-b569-4670-b12b-fc7e345ccec9","system_id":"levelo_inurba_marseille","lat":43.29731,"lon":5.37677,"is_reserved":false,"is_disabled":false,"rental_uris":{"android":"levelo://app?vid=d6e54eb8-b569-4670-b12b-fc7e345ccec9","ios":"levelo://app?vid=d6e54eb8-b569-4670-b12b-fc7e345ccec9"},"vehicle_type_id":"4","last_reported":1732032695,"current_range_meters":36400,"station_id":"ce4bgkh2rcd13ifvqbl0","pricing_plan_id":"cebpf4jnsgd1na2vs0mg"},{"bike_id":"9d7f33d6-544f-45e1-ab1a-5dac43b5da56","system_id":"levelo_inurba_marseille","lat":43.2718,"lon":5.40991,"is_reserved":false,"is_disabled":false,"rental_uris":{"android":"levelo://app?vid=9d7f33d6-544f-45e1-ab1a-5dac43b5da56","ios":"levelo://app?vid=9d7f33d6-544f-45e1-ab1a-5dac43b5da56"},"vehicle_type_id":"4","last_reported":1732032695,"current_range_meters":30400,"station_id":"ce4bhl12rcd13ifvqgf0","pricing_plan_id":"cebpf4jnsgd1na2vs0mg"},{"bike_id":"5c215695-7517-4c59-b4ed-3d09ca94c869","system_id":"levelo_inurba_marseille","lat":43.24805,"lon":5.37459,"is_reserved":false,"is_disabled":false,"rental_uris":{"android":"levelo://app?vid=5c215695-7517-4c59-b4ed-3d09ca94c869","ios":"levelo://app?vid=5c215695-7517-4c59-b4ed-3d09ca94c869"},"vehicle_type_id":"4","last_reported":1732032695,"current_range_meters":17600,"station_id":"ce4bhgh2rcd13ifvqfb0","pricing_plan_id":"cebpf4jnsgd1na2vs0mg"},{"bike_id":"3b0c545d-4cf2-4e15-900f-03b6156ee277","system_id":"levelo_inurba_marseille","lat":43.30431,"lon":5.3688,"is_reserved":false,"is_disabled":false,"rental_uris":{"android":"levelo://app?vid=3b0c545d-4cf2-4e15-900f-03b6156ee277","ios":"levelo://app?vid=3b0c545d-4cf2-4e15-900f-03b6156ee277"},"vehicle_type_id":"4","last_reported":1732032695,"current_range_meters":3600,"station_id":"","pricing_plan_id":"cebpf4jnsgd1na2vs0mg"},{"bike_id":"b8e0ff19-cfbf-49c3-a9f8-f8dcefd4b613","system_id":"levelo_inurba_marseille","lat":43.27669,"lon":5.38902,"is_reserved":false,"is_disabled":true,"rental_uris":{"android":"levelo://app?vid=b8e0ff19-cfbf-49c3-a9f8-f8dcefd4b613","ios":"levelo://app?vid=b8e0ff19-cfbf-49c3-a9f8-f8dcefd4b613"},"vehicle_type_id":"4","last_reported":1732032695,"current_range_meters":37600,"station_id":"ce4bhi12rcd13ifvqfo0","pricing_plan_id":"cebpf4jnsgd1na2vs0mg"},{"bike_id":"26ddda58-69e9-4b8c-8c18-27bf5802ac62","system_id":"levelo_inurba_marseille","lat":43.30647,"lon":5.40103,"is_reserved":false,"is_disabled":false,"rental_uris":{"android":"levelo://app?vid=26ddda58-69e9-4b8c-8c18-27bf5802ac62","ios":"levelo://app?vid=26ddda58-69e9-4b8c-8c18-27bf5802ac62"},"vehicle_type_id":"4","last_reported":1732032695,"current_range_meters":29600,"station_id":"ce4bh112rcd13ifvqda0","pricing_plan_id":"cebpf4jnsgd1na2vs0mg"},{"bike_id":"1462f68e-113f-431d-9d5b-f4d7f987f2b8","system_id":"levelo_inurba_marseille","lat":43.28488,"lon":5.38424,"is_reserved":false,"is_disabled":true,"rental_uris":{"android":"levelo://app?vid=1462f68e-113f-431d-9d5b-f4d7f987f2b8","ios":"levelo://app?vid=1462f68e-113f-431d-9d5b-f4d7f987f2b8"},"vehicle_type_id":"4","last_reported":1732032695,"current_range_meters":14000,"station_id":"ce4bh512rcd13ifvqe3g","pricing_plan_id":"cebpf4jnsgd1na2vs0mg"},{"bike_id":"86b82a4b-df2d-4ef2-a7e8-d193fa0f68ad","system_id":"levelo_inurba_marseille","lat":43.26194,"lon":5.37464,"is_reserved":false,"is_disabled":false,"rental_uris":{"android":"levelo://app?vid=86b82a4b-df2d-4ef2-a7e8-d193fa0f68ad","ios":"levelo://app?vid=86b82a4b-df2d-4ef2-a7e8-d193fa0f68ad"},"vehicle_type_id":"4","last_reported":1732032695,"current_range_meters":26000,"station_id":"ce4bhgp2rcd13ifvqfc0","pricing_plan_id":"cebpf4jnsgd1na2vs0mg"},{"bike_id":"0b733133-03c9-4766-961e-92b775b50bbc","system_id":"levelo_inurba_marseille","lat":43.28193,"lon":5.44272,"is_reserved":false,"is_disabled":true,"rental_uris":{"android":"levelo://app?vid=0b733133-03c9-4766-961e-92b775b50bbc","ios":"levelo://app?vid=0b733133-03c9-4766-961e-92b775b50bbc"},"vehicle_type_id":"4","last_reported":1732032695,"current_range_meters":0,"station_id":"","pricing_plan_id":"cebpf4jnsgd1na2vs0mg"},{"bike_id":"87f72484-0dd8-4a5a-8b7f-bb079e67d618","system_id":"levelo_inurba_marseille","lat":43.29586,"lon":5.3675,"is_reserved":false,"is_disabled":false,"rental_uris":{"android":"levelo://app?vid=87f72484-0dd8-4a5a-8b7f-bb079e67d618","ios":"levelo://app?vid=87f72484-0dd8-4a5a-8b7f-bb079e67d618"},"vehicle_type_id":"4","last_reported":1732032695,"current_range_meters":35200,"station_id":"ce4bgph2rcd13ifvqc2g","pricing_plan_id":"cebpf4jnsgd1na2vs0mg"},{"bike_id":"2d33b904-a4d3-4605-a511-60a4d70b7d6e","system_id":"levelo_inurba_marseille","lat":43.25816,"lon":5.39436,"is_reserved":false,"is_disabled":false,"rental_uris":{"android":"levelo://app?vid=2d33b904-a4d3-4605-a511-60a4d70b7d6e","ios":"levelo://app?vid=2d33b904-a4d3-4605-a511-60a4d70b7d6e"},"vehicle_type_id":"4","last_reported":1732032695,"current_range_meters":28800,"station_id":"ce4bhip2rcd13ifvqft0","pricing_plan_id":"cebpf4jnsgd1na2vs0mg"},{"bike_id":"7d02f161-c4ab-430d-be6a-e052ba68aacf","system_id":"levelo_inurba_marseille","lat":43.30955,"lon":5.39028,"is_reserved":false,"is_disabled":true,"rental_uris":{"android":"levelo://app?vid=7d02f161-c4ab-430d-be6a-e052ba68aacf","ios":"levelo://app?vid=7d02f161-c4ab-430d-be6a-e052ba68aacf"},"vehicle_type_id":"4","last_reported":1732032695,"current_range_meters":10800,"station_id":"ce4bgup2rcd13ifvqco0","pricing_plan_id":"cebpf4jnsgd1na2vs0mg"},{"bike_id":"e65461e3-d425-4dee-a20c-933c7023442e","system_id":"levelo_inurba_marseille","lat":43.30253,"lon":5.40081,"is_reserved":false,"is_disabled":true,"rental_uris":{"android":"levelo://app?vid=e65461e3-d425-4dee-a20c-933c7023442e","ios":"levelo://app?vid=e65461e3-d425-4dee-a20c-933c7023442e"},"vehicle_type_id":"4","last_reported":1732032695,"current_range_meters":37600,"station_id":"ce4bgvh2rcd13ifvqcs0","pricing_plan_id":"cebpf4jnsgd1na2vs0mg"},{"bike_id":"b0d43db2-f73a-4ba1-938c-1a7ae291c3da","system_id":"levelo_inurba_marseille","lat":43.30798,"lon":5.38165,"is_reserved":false,"is_disabled":false,"rental_uris":{"android":"levelo://app?vid=b0d43db2-f73a-4ba1-938c-1a7ae291c3da","ios":"levelo://app?vid=b0d43db2-f73a-4ba1-938c-1a7ae291c3da"},"vehicle_type_id":"4","last_reported":1732032695,"current_range_meters":2800,"station_id":"ce4bgt12rcd13ifvqce0","pricing_plan_id":"cebpf4jnsgd1na2vs0mg"},{"bike_id":"f0eda71d-65af-404e-933d-8f79e03e9143","system_id":"levelo_inurba_marseille","lat":43.28679,"lon":5.37375,"is_reserved":false,"is_disabled":false,"rental_uris":{"android":"levelo://app?vid=f0eda71d-65af-404e-933d-8f79e03e9143","ios":"levelo://app?vid=f0eda71d-65af-404e-933d-8f79e03e9143"},"vehicle_type_id":"4","last_reported":1732032695,"current_range_meters":35600,"station_id":"ce4bh3p2rcd13ifvqdq0","pricing_plan_id":"cebpf4jnsgd1na2vs0mg"},{"bike_id":"8632ca3c-32d7-4c27-b845-d08c678d0faf","system_id":"levelo_inurba_marseille","lat":43.303064,"lon":5.36899,"is_reserved":false,"is_disabled":false,"rental_uris":{"android":"levelo://app?vid=8632ca3c-32d7-4c27-b845-d08c678d0faf","ios":"levelo://app?vid=8632ca3c-32d7-4c27-b845-d08c678d0faf"},"vehicle_type_id":"4","last_reported":1732032695,"current_range_meters":20800,"station_id":"ce4bgqh2rcd13ifvqc5g","pricing_plan_id":"cebpf4jnsgd1na2vs0mg"},{"bike_id":"bf616fda-0885-4bcf-8258-bc47aa3041a1","system_id":"levelo_inurba_marseille","lat":43.32486,"lon":5.36573,"is_reserved":false,"is_disabled":false,"rental_uris":{"android":"levelo://app?vid=bf616fda-0885-4bcf-8258-bc47aa3041a1","ios":"levelo://app?vid=bf616fda-0885-4bcf-8258-bc47aa3041a1"},"vehicle_type_id":"4","last_reported":1732032695,"current_range_meters":40000,"station_id":"ce4bhs12rcd13ifvqhvg","pricing_plan_id":"cebpf4jnsgd1na2vs0mg"},{"bike_id":"7836ee15-9674-4a39-836c-e47452279c83","system_id":"levelo_inurba_marseille","lat":43.29274,"lon":5.36854,"is_reserved":false,"is_disabled":false,"rental_uris":{"android":"levelo://app?vid=7836ee15-9674-4a39-836c-e47452279c83","ios":"levelo://app?vid=7836ee15-9674-4a39-836c-e47452279c83"},"vehicle_type_id":"4","last_reported":1732032695,"current_range_meters":38800,"station_id":"ce4bhbp2rcd13ifvqesg","pricing_plan_id":"cebpf4jnsgd1na2vs0mg"},{"bike_id":"89379fa8-228f-484a-9998-5c6ca866613d","system_id":"levelo_inurba_marseille","lat":43.30545,"lon":5.36537,"is_reserved":false,"is_disabled":false,"rental_uris":{"android":"levelo://app?vid=89379fa8-228f-484a-9998-5c6ca866613d","ios":"levelo://app?vid=89379fa8-228f-484a-9998-5c6ca866613d"},"vehicle_type_id":"4","last_reported":1732032695,"current_range_meters":28000,"station_id":"ce4bgs12rcd13ifvqcag","pricing_plan_id":"cebpf4jnsgd1na2vs0mg"},{"bike_id":"c74836a6-d7c4-4fb6-93d9-f05eac413489","system_id":"levelo_inurba_marseille","lat":43.30135,"lon":5.388,"is_reserved":false,"is_disabled":false,"rental_uris":{"android":"levelo://app?vid=c74836a6-d7c4-4fb6-93d9-f05eac413489","ios":"levelo://app?vid=c74836a6-d7c4-4fb6-93d9-f05eac413489"},"vehicle_type_id":"4","last_reported":1732032695,"current_range_meters":22800,"station_id":"ce4bghh2rcd13ifvqb60","pricing_plan_id":"cebpf4jnsgd1na2vs0mg"},{"bike_id":"20d43469-0b35-4110-9c40-be0f1a781705","system_id":"levelo_inurba_marseille","lat":43.26208,"lon":5.37449,"is_reserved":false,"is_disabled":false,"rental_uris":{"android":"levelo://app?vid=20d43469-0b35-4110-9c40-be0f1a781705","ios":"levelo://app?vid=20d43469-0b35-4110-9c40-be0f1a781705"},"vehicle_type_id":"4","last_reported":1732032695,"current_range_meters":26800,"station_id":"ce4bhgp2rcd13ifvqfc0","pricing_plan_id":"cebpf4jnsgd1na2vs0mg"},{"bike_id":"16ba5952-f889-40f8-9ece-7dbf11f097ae","system_id":"levelo_inurba_marseille","lat":43.29308,"lon":5.37174,"is_reserved":false,"is_disabled":false,"rental_uris":{"android":"levelo://app?vid=16ba5952-f889-40f8-9ece-7dbf11f097ae","ios":"levelo://app?vid=16ba5952-f889-40f8-9ece-7dbf11f097ae"},"vehicle_type_id":"4","last_reported":1732032695,"current_range_meters":22400,"station_id":"ce4bgh92rcd13ifvqb40","pricing_plan_id":"cebpf4jnsgd1na2vs0mg"},{"bike_id":"cd600d2b-7cc6-47e2-8667-4034a3acdd71","system_id":"levelo_inurba_marseille","lat":43.2706,"lon":5.40264,"is_reserved":false,"is_disabled":false,"rental_uris":{"android":"levelo://app?vid=cd600d2b-7cc6-47e2-8667-4034a3acdd71","ios":"levelo://app?vid=cd600d2b-7cc6-47e2-8667-4034a3acdd71"},"vehicle_type_id":"4","last_reported":1732032695,"current_range_meters":19600,"station_id":"ce4bhk92rcd13ifvqgc0","pricing_plan_id":"cebpf4jnsgd1na2vs0mg"},{"bike_id":"8dfe3502-1a44-41d0-93ec-2f8847296f61","system_id":"levelo_inurba_marseille","lat":43.29203,"lon":5.35802,"is_reserved":false,"is_disabled":true,"rental_uris":{"android":"levelo://app?vid=8dfe3502-1a44-41d0-93ec-2f8847296f61","ios":"levelo://app?vid=8dfe3502-1a44-41d0-93ec-2f8847296f61"},"vehicle_type_id":"4","last_reported":1732032695,"current_range_meters":38800,"station_id":"ce4bhb12rcd13ifvqel0","pricing_plan_id":"cebpf4jnsgd1na2vs0mg"},{"bike_id":"954054ad-77ac-46c3-a1b5-c8fc266a522b","system_id":"levelo_inurba_marseille","lat":43.31719,"lon":5.42407,"is_reserved":false,"is_disabled":false,"rental_uris":{"android":"levelo://app?vid=954054ad-77ac-46c3-a1b5-c8fc266a522b","ios":"levelo://app?vid=954054ad-77ac-46c3-a1b5-c8fc266a522b"},"vehicle_type_id":"4","last_reported":1732032695,"current_range_meters":39200,"station_id":"ce4bhp92rcd13ifvqhbg","pricing_plan_id":"cebpf4jnsgd1na2vs0mg"},{"bike_id":"a068dc40-1862-43fc-975c-c8329fcb1c80","system_id":"levelo_inurba_marseille","lat":43.27315,"lon":5.39097,"is_reserved":false,"is_disabled":true,"rental_uris":{"android":"levelo://app?vid=a068dc40-1862-43fc-975c-c8329fcb1c80","ios":"levelo://app?vid=a068dc40-1862-43fc-975c-c8329fcb1c80"},"vehicle_type_id":"4","last_reported":1732032695,"current_range_meters":1200,"station_id":"ce4bhgp2rcd13ifvqfe0","pricing_plan_id":"cebpf4jnsgd1na2vs0mg"},{"bike_id":"9c4a655e-2680-4a60-a844-6a2ea62fb4b1","system_id":"levelo_inurba_marseille","lat":43.26063,"lon":5.3939,"is_reserved":false,"is_disabled":true,"rental_uris":{"android":"levelo://app?vid=9c4a655e-2680-4a60-a844-6a2ea62fb4b1","ios":"levelo://app?vid=9c4a655e-2680-4a60-a844-6a2ea62fb4b1"},"vehicle_type_id":"4","last_reported":1732032695,"current_range_meters":28400,"station_id":"ce4bhh92rcd13ifvqfj0","pricing_plan_id":"cebpf4jnsgd1na2vs0mg"},{"bike_id":"2d983866-913c-4390-ae48-1873d10c9730","system_id":"levelo_inurba_marseille","lat":43.24813,"lon":5.37458,"is_reserved":false,"is_disabled":true,"rental_uris":{"android":"levelo://app?vid=2d983866-913c-4390-ae48-1873d10c9730","ios":"levelo://app?vid=2d983866-913c-4390-ae48-1873d10c9730"},"vehicle_type_id":"4","last_reported":1732032695,"current_range_meters":14800,"station_id":"ce4bhgh2rcd13ifvqfb0","pricing_plan_id":"cebpf4jnsgd1na2vs0mg"},{"bike_id":"8fd18ae9-aed3-411f-9c2d-95d6ae12c81e","system_id":"levelo_inurba_marseille","lat":43.2957,"lon":5.37505,"is_reserved":false,"is_disabled":false,"rental_uris":{"android":"levelo://app?vid=8fd18ae9-aed3-411f-9c2d-95d6ae12c81e","ios":"levelo://app?vid=8fd18ae9-aed3-411f-9c2d-95d6ae12c81e"},"vehicle_type_id":"4","last_reported":1732032695,"current_range_meters":36800,"station_id":"ce4bgh92rcd13ifvqb50","pricing_plan_id":"cebpf4jnsgd1na2vs0mg"},{"bike_id":"8f8eba56-03be-480e-9451-dc1fb902e708","system_id":"levelo_inurba_marseille","lat":43.2991,"lon":5.37475,"is_reserved":false,"is_disabled":false,"rental_uris":{"android":"levelo://app?vid=8f8eba56-03be-480e-9451-dc1fb902e708","ios":"levelo://app?vid=8f8eba56-03be-480e-9451-dc1fb902e708"},"vehicle_type_id":"4","last_reported":1732032695,"current_range_meters":38000,"station_id":"ce4bgjh2rcd13ifvqbg0","pricing_plan_id":"cebpf4jnsgd1na2vs0mg"},{"bike_id":"88196073-5d79-4eef-8b98-5b6c67eee457","system_id":"levelo_inurba_marseille","lat":43.31083,"lon":5.4243,"is_reserved":false,"is_disabled":true,"rental_uris":{"android":"levelo://app?vid=88196073-5d79-4eef-8b98-5b6c67eee457","ios":"levelo://app?vid=88196073-5d79-4eef-8b98-5b6c67eee457"},"vehicle_type_id":"4","last_reported":1732032695,"current_range_meters":18800,"station_id":"ce4bhp92rcd13ifvqhag","pricing_plan_id":"cebpf4jnsgd1na2vs0mg"},{"bike_id":"653baa63-efe1-4bd9-a5dc-ac2baa2ece89","system_id":"levelo_inurba_marseille","lat":43.30889,"lon":5.37198,"is_reserved":false,"is_disabled":true,"rental_uris":{"android":"levelo://app?vid=653baa63-efe1-4bd9-a5dc-ac2baa2ece89","ios":"levelo://app?vid=653baa63-efe1-4bd9-a5dc-ac2baa2ece89"},"vehicle_type_id":"4","last_reported":1732032695,"current_range_meters":400,"station_id":"ce4bguh2rcd13ifvqckg","pricing_plan_id":"cebpf4jnsgd1na2vs0mg"},{"bike_id":"c520e4a2-1a05-4d78-b472-d9f835f223e8","system_id":"levelo_inurba_marseille","lat":43.27204,"lon":5.39186,"is_reserved":false,"is_disabled":false,"rental_uris":{"android":"levelo://app?vid=c520e4a2-1a05-4d78-b472-d9f835f223e8","ios":"levelo://app?vid=c520e4a2-1a05-4d78-b472-d9f835f223e8"},"vehicle_type_id":"4","last_reported":1732032695,"current_range_meters":36000,"station_id":"ce4bhhp2rcd13ifvqfm0","pricing_plan_id":"cebpf4jnsgd1na2vs0mg"},{"bike_id":"ed3fb425-55b7-43dd-ae0e-bc6b3489a829","system_id":"levelo_inurba_marseille","lat":43.29793,"lon":5.40394,"is_reserved":false,"is_disabled":false,"rental_uris":{"android":"levelo://app?vid=ed3fb425-55b7-43dd-ae0e-bc6b3489a829","ios":"levelo://app?vid=ed3fb425-55b7-43dd-ae0e-bc6b3489a829"},"vehicle_type_id":"4","last_reported":1732032695,"current_range_meters":38000,"station_id":"ce4bh112rcd13ifvqd90","pricing_plan_id":"cebpf4jnsgd1na2vs0mg"},{"bike_id":"e264033a-f915-4b27-a08a-2f42cfcf052a","system_id":"levelo_inurba_marseille","lat":43.33789,"lon":5.37433,"is_reserved":false,"is_disabled":false,"rental_uris":{"android":"levelo://app?vid=e264033a-f915-4b27-a08a-2f42cfcf052a","ios":"levelo://app?vid=e264033a-f915-4b27-a08a-2f42cfcf052a"},"vehicle_type_id":"4","last_reported":1732032695,"current_range_meters":31200,"station_id":"","pricing_plan_id":"cebpf4jnsgd1na2vs0mg"},{"bike_id":"a4476bd5-a123-4d55-884d-9db170ccc9f0","system_id":"levelo_inurba_marseille","lat":43.27915,"lon":5.39584,"is_reserved":false,"is_disabled":false,"rental_uris":{"android":"levelo://app?vid=a4476bd5-a123-4d55-884d-9db170ccc9f0","ios":"levelo://app?vid=a4476bd5-a123-4d55-884d-9db170ccc9f0"},"vehicle_type_id":"4","last_reported":1732032695,"current_range_meters":7200,"station_id":"ce4bhf92rcd13ifvqf40","pricing_plan_id":"cebpf4jnsgd1na2vs0mg"},{"bike_id":"81011bf1-e4e3-45af-ae44-d72c87f0bd94","system_id":"levelo_inurba_marseille","lat":43.29565,"lon":5.38534,"is_reserved":false,"is_disabled":false,"rental_uris":{"android":"levelo://app?vid=81011bf1-e4e3-45af-ae44-d72c87f0bd94","ios":"levelo://app?vid=81011bf1-e4e3-45af-ae44-d72c87f0bd94"},"vehicle_type_id":"4","last_reported":1732032695,"current_range_meters":37600,"station_id":"ce4bgih2rcd13ifvqba0","pricing_plan_id":"cebpf4jnsgd1na2vs0mg"},{"bike_id":"eb4b2787-e63f-4094-b37f-32948629bb2e","system_id":"levelo_inurba_marseille","lat":43.25871,"lon":5.399,"is_reserved":false,"is_disabled":false,"rental_uris":{"android":"levelo://app?vid=eb4b2787-e63f-4094-b37f-32948629bb2e","ios":"levelo://app?vid=eb4b2787-e63f-4094-b37f-32948629bb2e"},"vehicle_type_id":"4","last_reported":1732032695,"current_range_meters":38800,"station_id":"ce4bhl92rcd13ifvqghg","pricing_plan_id":"cebpf4jnsgd1na2vs0mg"},{"bike_id":"123862ba-68e2-48f6-a477-31ab9dae8bd5","system_id":"levelo_inurba_marseille","lat":43.337444,"lon":5.374475,"is_reserved":false,"is_disabled":true,"rental_uris":{"android":"levelo://app?vid=123862ba-68e2-48f6-a477-31ab9dae8bd5","ios":"levelo://app?vid=123862ba-68e2-48f6-a477-31ab9dae8bd5"},"vehicle_type_id":"4","last_reported":1732032695,"current_range_meters":15200,"station_id":"","pricing_plan_id":"cebpf4jnsgd1na2vs0mg"},{"bike_id":"6556ee87-fee4-4938-876f-0f9d08875a70","system_id":"levelo_inurba_marseille","lat":43.29174,"lon":5.37149,"is_reserved":false,"is_disabled":false,"rental_uris":{"android":"levelo://app?vid=6556ee87-fee4-4938-876f-0f9d08875a70","ios":"levelo://app?vid=6556ee87-fee4-4938-876f-0f9d08875a70"},"vehicle_type_id":"4","last_reported":1732032695,"current_range_meters":38000,"station_id":"ce4bha92rcd13ifvqeh0","pricing_plan_id":"cebpf4jnsgd1na2vs0mg"},{"bike_id":"e09f5bd3-1d6d-4c2b-8ba5-e78c43cdb728","system_id":"levelo_inurba_marseille","lat":43.29561,"lon":5.42275,"is_reserved":false,"is_disabled":false,"rental_uris":{"android":"levelo://app?vid=e09f5bd3-1d6d-4c2b-8ba5-e78c43cdb728","ios":"levelo://app?vid=e09f5bd3-1d6d-4c2b-8ba5-e78c43cdb728"},"vehicle_type_id":"4","last_reported":1732032695,"current_range_meters":37600,"station_id":"ce4bhph2rcd13ifvqhdg","pricing_plan_id":"cebpf4jnsgd1na2vs0mg"},{"bike_id":"c0414705-628e-4ecb-a390-6a6747dfe975","system_id":"levelo_inurba_marseille","lat":43.30447,"lon":5.36749,"is_reserved":false,"is_disabled":false,"rental_uris":{"android":"levelo://app?vid=c0414705-628e-4ecb-a390-6a6747dfe975","ios":"levelo://app?vid=c0414705-628e-4ecb-a390-6a6747dfe975"},"vehicle_type_id":"4","last_reported":1732032695,"current_range_meters":35600,"station_id":"","pricing_plan_id":"cebpf4jnsgd1na2vs0mg"},{"bike_id":"b75726ec-2270-41ea-94f9-6d7ebe50abe0","system_id":"levelo_inurba_marseille","lat":43.28465,"lon":5.35884,"is_reserved":false,"is_disabled":false,"rental_uris":{"android":"levelo://app?vid=b75726ec-2270-41ea-94f9-6d7ebe50abe0","ios":"levelo://app?vid=b75726ec-2270-41ea-94f9-6d7ebe50abe0"},"vehicle_type_id":"4","last_reported":1732032695,"current_range_meters":12000,"station_id":"ce4bhah2rcd13ifvqei0","pricing_plan_id":"cebpf4jnsgd1na2vs0mg"},{"bike_id":"ec5c8222-b869-4c4a-87cc-2cea650ed6bf","system_id":"levelo_inurba_marseille","lat":43.30203,"lon":5.36623,"is_reserved":false,"is_disabled":false,"rental_uris":{"android":"levelo://app?vid=ec5c8222-b869-4c4a-87cc-2cea650ed6bf","ios":"levelo://app?vid=ec5c8222-b869-4c4a-87cc-2cea650ed6bf"},"vehicle_type_id":"4","last_reported":1732032695,"current_range_meters":14800,"station_id":"ce4bgrh2rcd13ifvqc8g","pricing_plan_id":"cebpf4jnsgd1na2vs0mg"},{"bike_id":"9a0f8073-9fc4-477f-af62-f52952da19ac","system_id":"levelo_inurba_marseille","lat":43.28467,"lon":5.35896,"is_reserved":false,"is_disabled":false,"rental_uris":{"android":"levelo://app?vid=9a0f8073-9fc4-477f-af62-f52952da19ac","ios":"levelo://app?vid=9a0f8073-9fc4-477f-af62-f52952da19ac"},"vehicle_type_id":"4","last_reported":1732032695,"current_range_meters":14800,"station_id":"ce4bhah2rcd13ifvqei0","pricing_plan_id":"cebpf4jnsgd1na2vs0mg"},{"bike_id":"f2a1ed37-3453-498d-993c-8ae9b8644e7e","system_id":"levelo_inurba_marseille","lat":43.29886,"lon":5.3891,"is_reserved":false,"is_disabled":false,"rental_uris":{"android":"levelo://app?vid=f2a1ed37-3453-498d-993c-8ae9b8644e7e","ios":"levelo://app?vid=f2a1ed37-3453-498d-993c-8ae9b8644e7e"},"vehicle_type_id":"4","last_reported":1732032695,"current_range_meters":20800,"station_id":"ce4bh392rcd13ifvqdl0","pricing_plan_id":"cebpf4jnsgd1na2vs0mg"},{"bike_id":"efaa20f7-d2fb-4778-9ca3-b17e9193d440","system_id":"levelo_inurba_marseille","lat":43.33718,"lon":5.39175,"is_reserved":false,"is_disabled":false,"rental_uris":{"android":"levelo://app?vid=efaa20f7-d2fb-4778-9ca3-b17e9193d440","ios":"levelo://app?vid=efaa20f7-d2fb-4778-9ca3-b17e9193d440"},"vehicle_type_id":"4","last_reported":1732032695,"current_range_meters":38000,"station_id":"ce4bhr92rcd13ifvqhsg","pricing_plan_id":"cebpf4jnsgd1na2vs0mg"},{"bike_id":"ed0e1186-fc28-4178-8f27-67d3ee3d858e","system_id":"levelo_inurba_marseille","lat":43.278061,"lon":5.4071,"is_reserved":false,"is_disabled":false,"rental_uris":{"android":"levelo://app?vid=ed0e1186-fc28-4178-8f27-67d3ee3d858e","ios":"levelo://app?vid=ed0e1186-fc28-4178-8f27-67d3ee3d858e"},"vehicle_type_id":"4","last_reported":1732032695,"current_range_meters":9200,"station_id":"ce4bhnh2rcd13ifvqgtg","pricing_plan_id":"cebpf4jnsgd1na2vs0mg"},{"bike_id":"cbb19e09-aa20-4763-8e71-dc123172ec07","system_id":"levelo_inurba_marseille","lat":43.2316,"lon":5.43704,"is_reserved":false,"is_disabled":true,"rental_uris":{"android":"levelo://app?vid=cbb19e09-aa20-4763-8e71-dc123172ec07","ios":"levelo://app?vid=cbb19e09-aa20-4763-8e71-dc123172ec07"},"vehicle_type_id":"4","last_reported":1732032695,"current_range_meters":17600,"station_id":"ce4bhmp2rcd13ifvqgog","pricing_plan_id":"cebpf4jnsgd1na2vs0mg"},{"bike_id":"bdf773a7-015c-4bf3-8c5a-59e3dcdff924","system_id":"levelo_inurba_marseille","lat":43.25495,"lon":5.37646,"is_reserved":false,"is_disabled":false,"rental_uris":{"android":"levelo://app?vid=bdf773a7-015c-4bf3-8c5a-59e3dcdff924","ios":"levelo://app?vid=bdf773a7-015c-4bf3-8c5a-59e3dcdff924"},"vehicle_type_id":"4","last_reported":1732032695,"current_range_meters":33600,"station_id":"ce4bhh12rcd13ifvqff0","pricing_plan_id":"cebpf4jnsgd1na2vs0mg"},{"bike_id":"fbf50743-a751-4d22-8d7f-9047b9d72787","system_id":"levelo_inurba_marseille","lat":43.33333,"lon":5.41878,"is_reserved":false,"is_disabled":false,"rental_uris":{"android":"levelo://app?vid=fbf50743-a751-4d22-8d7f-9047b9d72787","ios":"levelo://app?vid=fbf50743-a751-4d22-8d7f-9047b9d72787"},"vehicle_type_id":"4","last_reported":1732032695,"current_range_meters":27200,"station_id":"","pricing_plan_id":"cebpf4jnsgd1na2vs0mg"},{"bike_id":"56af11bc-cc37-43d6-99b5-a146ef7aeedc","system_id":"levelo_inurba_marseille","lat":43.29714,"lon":5.36611,"is_reserved":false,"is_disabled":false,"rental_uris":{"android":"levelo://app?vid=56af11bc-cc37-43d6-99b5-a146ef7aeedc","ios":"levelo://app?vid=56af11bc-cc37-43d6-99b5-a146ef7aeedc"},"vehicle_type_id":"4","last_reported":1732032695,"current_range_meters":39200,"station_id":"ce4bgn12rcd13ifvqbt0","pricing_plan_id":"cebpf4jnsgd1na2vs0mg"},{"bike_id":"1bbc3019-2930-4f65-9a53-9c72d10c9d75","system_id":"levelo_inurba_marseille","lat":43.28702,"lon":5.37394,"is_reserved":false,"is_disabled":false,"rental_uris":{"android":"levelo://app?vid=1bbc3019-2930-4f65-9a53-9c72d10c9d75","ios":"levelo://app?vid=1bbc3019-2930-4f65-9a53-9c72d10c9d75"},"vehicle_type_id":"4","last_reported":1732032695,"current_range_meters":14800,"station_id":"ce4bh3p2rcd13ifvqdq0","pricing_plan_id":"cebpf4jnsgd1na2vs0mg"},{"bike_id":"1ea9d202-7235-44ff-a808-1a87a3b9cfc1","system_id":"levelo_inurba_marseille","lat":43.25578,"lon":5.38242,"is_reserved":false,"is_disabled":false,"rental_uris":{"android":"levelo://app?vid=1ea9d202-7235-44ff-a808-1a87a3b9cfc1","ios":"levelo://app?vid=1ea9d202-7235-44ff-a808-1a87a3b9cfc1"},"vehicle_type_id":"4","last_reported":1732032695,"current_range_meters":14400,"station_id":"ce4bhih2rcd13ifvqfs0","pricing_plan_id":"cebpf4jnsgd1na2vs0mg"},{"bike_id":"d0a8d1e0-8de9-4df8-bcae-ad9cbd74d90d","system_id":"levelo_inurba_marseille","lat":43.32368,"lon":5.38886,"is_reserved":false,"is_disabled":false,"rental_uris":{"android":"levelo://app?vid=d0a8d1e0-8de9-4df8-bcae-ad9cbd74d90d","ios":"levelo://app?vid=d0a8d1e0-8de9-4df8-bcae-ad9cbd74d90d"},"vehicle_type_id":"4","last_reported":1732032695,"current_range_meters":21600,"station_id":"ce4bhqp2rcd13ifvqhog","pricing_plan_id":"cebpf4jnsgd1na2vs0mg"},{"bike_id":"e724f48d-7831-4a53-bd1c-2ddf0f9a9faa","system_id":"levelo_inurba_marseille","lat":43.30309,"lon":5.36916,"is_reserved":false,"is_disabled":false,"rental_uris":{"android":"levelo://app?vid=e724f48d-7831-4a53-bd1c-2ddf0f9a9faa","ios":"levelo://app?vid=e724f48d-7831-4a53-bd1c-2ddf0f9a9faa"},"vehicle_type_id":"4","last_reported":1732032695,"current_range_meters":7200,"station_id":"ce4bgqh2rcd13ifvqc5g","pricing_plan_id":"cebpf4jnsgd1na2vs0mg"},{"bike_id":"29860f8d-356a-4715-b755-e109046695d2","system_id":"levelo_inurba_marseille","lat":43.25862,"lon":5.399,"is_reserved":false,"is_disabled":false,"rental_uris":{"android":"levelo://app?vid=29860f8d-356a-4715-b755-e109046695d2","ios":"levelo://app?vid=29860f8d-356a-4715-b755-e109046695d2"},"vehicle_type_id":"4","last_reported":1732032695,"current_range_meters":8000,"station_id":"ce4bhl92rcd13ifvqghg","pricing_plan_id":"cebpf4jnsgd1na2vs0mg"},{"bike_id":"90a4dacc-9992-419d-8a78-723ec838ca88","system_id":"levelo_inurba_marseille","lat":43.28614,"lon":5.37059,"is_reserved":false,"is_disabled":false,"rental_uris":{"android":"levelo://app?vid=90a4dacc-9992-419d-8a78-723ec838ca88","ios":"levelo://app?vid=90a4dacc-9992-419d-8a78-723ec838ca88"},"vehicle_type_id":"4","last_reported":1732032695,"current_range_meters":17200,"station_id":"ce4bht12rcd13ifvqi60","pricing_plan_id":"cebpf4jnsgd1na2vs0mg"},{"bike_id":"e5951ee3-4a5a-4ebb-b469-096c5188dfa3","system_id":"levelo_inurba_marseille","lat":43.24029,"lon":5.36612,"is_reserved":false,"is_disabled":true,"rental_uris":{"android":"levelo://app?vid=e5951ee3-4a5a-4ebb-b469-096c5188dfa3","ios":"levelo://app?vid=e5951ee3-4a5a-4ebb-b469-096c5188dfa3"},"vehicle_type_id":"4","last_reported":1732032695,"current_range_meters":1600,"station_id":"","pricing_plan_id":"cebpf4jnsgd1na2vs0mg"},{"bike_id":"b6222235-e0f1-4c74-94cb-5f1820a16bea","system_id":"levelo_inurba_marseille","lat":43.29965,"lon":5.37175,"is_reserved":false,"is_disabled":false,"rental_uris":{"android":"levelo://app?vid=b6222235-e0f1-4c74-94cb-5f1820a16bea","ios":"levelo://app?vid=b6222235-e0f1-4c74-94cb-5f1820a16bea"},"vehicle_type_id":"4","last_reported":1732032695,"current_range_meters":32000,"station_id":"ce4bgr92rcd13ifvqc7g","pricing_plan_id":"cebpf4jnsgd1na2vs0mg"},{"bike_id":"b2f6b9cf-69db-40ab-8230-689c41a2c16c","system_id":"levelo_inurba_marseille","lat":43.24169,"lon":5.36393,"is_reserved":false,"is_disabled":true,"rental_uris":{"android":"levelo://app?vid=b2f6b9cf-69db-40ab-8230-689c41a2c16c","ios":"levelo://app?vid=b2f6b9cf-69db-40ab-8230-689c41a2c16c"},"vehicle_type_id":"4","last_reported":1732032695,"current_range_meters":400,"station_id":"cpo36qri1sfpv3e86is0","pricing_plan_id":"cebpf4jnsgd1na2vs0mg"},{"bike_id":"377c4c9e-9f10-4afa-b571-5e53ffdb52c9","system_id":"levelo_inurba_marseille","lat":43.28351,"lon":5.38107,"is_reserved":false,"is_disabled":false,"rental_uris":{"android":"levelo://app?vid=377c4c9e-9f10-4afa-b571-5e53ffdb52c9","ios":"levelo://app?vid=377c4c9e-9f10-4afa-b571-5e53ffdb52c9"},"vehicle_type_id":"4","last_reported":1732032695,"current_range_meters":27600,"station_id":"ce4bh412rcd13ifvqdr0","pricing_plan_id":"cebpf4jnsgd1na2vs0mg"},{"bike_id":"0a5a60ac-404d-484a-b3c8-3f60e722bf85","system_id":"levelo_inurba_marseille","lat":43.28281,"lon":5.35076,"is_reserved":false,"is_disabled":false,"rental_uris":{"android":"levelo://app?vid=0a5a60ac-404d-484a-b3c8-3f60e722bf85","ios":"levelo://app?vid=0a5a60ac-404d-484a-b3c8-3f60e722bf85"},"vehicle_type_id":"4","last_reported":1732032695,"current_range_meters":24800,"station_id":"ce4bhbp2rcd13ifvqerg","pricing_plan_id":"cebpf4jnsgd1na2vs0mg"},{"bike_id":"2910f69a-6dac-4d69-a60d-e4f1b8cce200","system_id":"levelo_inurba_marseille","lat":43.27811,"lon":5.4073,"is_reserved":false,"is_disabled":true,"rental_uris":{"android":"levelo://app?vid=2910f69a-6dac-4d69-a60d-e4f1b8cce200","ios":"levelo://app?vid=2910f69a-6dac-4d69-a60d-e4f1b8cce200"},"vehicle_type_id":"4","last_reported":1732032695,"current_range_meters":18800,"station_id":"ce4bhnh2rcd13ifvqgtg","pricing_plan_id":"cebpf4jnsgd1na2vs0mg"},{"bike_id":"082ef2b8-e679-42de-b6fd-b668632ff581","system_id":"levelo_inurba_marseille","lat":43.31075,"lon":5.38361,"is_reserved":false,"is_disabled":false,"rental_uris":{"android":"levelo://app?vid=082ef2b8-e679-42de-b6fd-b668632ff581","ios":"levelo://app?vid=082ef2b8-e679-42de-b6fd-b668632ff581"},"vehicle_type_id":"4","last_reported":1732032695,"current_range_meters":37600,"station_id":"ce4bgv92rcd13ifvqcr0","pricing_plan_id":"cebpf4jnsgd1na2vs0mg"},{"bike_id":"0a2d4ddc-b22f-4300-a800-0847d05d1b0e","system_id":"levelo_inurba_marseille","lat":43.30896,"lon":5.39673,"is_reserved":false,"is_disabled":false,"rental_uris":{"android":"levelo://app?vid=0a2d4ddc-b22f-4300-a800-0847d05d1b0e","ios":"levelo://app?vid=0a2d4ddc-b22f-4300-a800-0847d05d1b0e"},"vehicle_type_id":"4","last_reported":1732032695,"current_range_meters":38800,"station_id":"ce4bh012rcd13ifvqcv0","pricing_plan_id":"cebpf4jnsgd1na2vs0mg"},{"bike_id":"fa669ad0-1017-40b7-8261-015648cca736","system_id":"levelo_inurba_marseille","lat":43.28863,"lon":5.35867,"is_reserved":false,"is_disabled":false,"rental_uris":{"android":"levelo://app?vid=fa669ad0-1017-40b7-8261-015648cca736","ios":"levelo://app?vid=fa669ad0-1017-40b7-8261-015648cca736"},"vehicle_type_id":"4","last_reported":1732032695,"current_range_meters":38800,"station_id":"ce4bhb12rcd13ifvqem0","pricing_plan_id":"cebpf4jnsgd1na2vs0mg"},{"bike_id":"85782696-36f2-4c33-98b6-2d88f8670e2c","system_id":"levelo_inurba_marseille","lat":43.31081,"lon":5.42429,"is_reserved":false,"is_disabled":false,"rental_uris":{"android":"levelo://app?vid=85782696-36f2-4c33-98b6-2d88f8670e2c","ios":"levelo://app?vid=85782696-36f2-4c33-98b6-2d88f8670e2c"},"vehicle_type_id":"4","last_reported":1732032695,"current_range_meters":35600,"station_id":"ce4bhp92rcd13ifvqhag","pricing_plan_id":"cebpf4jnsgd1na2vs0mg"},{"bike_id":"4f5f4851-2e13-4251-ac45-3f24904f12a5","system_id":"levelo_inurba_marseille","lat":43.27613,"lon":5.36114,"is_reserved":false,"is_disabled":false,"rental_uris":{"android":"levelo://app?vid=4f5f4851-2e13-4251-ac45-3f24904f12a5","ios":"levelo://app?vid=4f5f4851-2e13-4251-ac45-3f24904f12a5"},"vehicle_type_id":"4","last_reported":1732032695,"current_range_meters":23200,"station_id":"ce4bgj92rcd13ifvqbe0","pricing_plan_id":"cebpf4jnsgd1na2vs0mg"},{"bike_id":"9d96a5a4-6272-449c-a8d3-ed3959966b5b","system_id":"levelo_inurba_marseille","lat":43.27211,"lon":5.39196,"is_reserved":false,"is_disabled":false,"rental_uris":{"android":"levelo://app?vid=9d96a5a4-6272-449c-a8d3-ed3959966b5b","ios":"levelo://app?vid=9d96a5a4-6272-449c-a8d3-ed3959966b5b"},"vehicle_type_id":"4","last_reported":1732032695,"current_range_meters":20000,"station_id":"ce4bhhp2rcd13ifvqfm0","pricing_plan_id":"cebpf4jnsgd1na2vs0mg"},{"bike_id":"ac9d2f49-8491-4f64-8df3-f15847cdf648","system_id":"levelo_inurba_marseille","lat":43.29919,"lon":5.38133,"is_reserved":false,"is_disabled":false,"rental_uris":{"android":"levelo://app?vid=ac9d2f49-8491-4f64-8df3-f15847cdf648","ios":"levelo://app?vid=ac9d2f49-8491-4f64-8df3-f15847cdf648"},"vehicle_type_id":"4","last_reported":1732032695,"current_range_meters":38000,"station_id":"ce4bgj12rcd13ifvqbc0","pricing_plan_id":"cebpf4jnsgd1na2vs0mg"},{"bike_id":"7e35deb2-0950-494e-a5fc-48886e723f0a","system_id":"levelo_inurba_marseille","lat":43.290368,"lon":5.37561,"is_reserved":false,"is_disabled":true,"rental_uris":{"android":"levelo://app?vid=7e35deb2-0950-494e-a5fc-48886e723f0a","ios":"levelo://app?vid=7e35deb2-0950-494e-a5fc-48886e723f0a"},"vehicle_type_id":"4","last_reported":1732032695,"current_range_meters":8800,"station_id":"ce4bh692rcd13ifvqe90","pricing_plan_id":"cebpf4jnsgd1na2vs0mg"},{"bike_id":"d482b473-8011-43d1-9203-ef428f8af553","system_id":"levelo_inurba_marseille","lat":43.29554,"lon":5.42285,"is_reserved":false,"is_disabled":false,"rental_uris":{"android":"levelo://app?vid=d482b473-8011-43d1-9203-ef428f8af553","ios":"levelo://app?vid=d482b473-8011-43d1-9203-ef428f8af553"},"vehicle_type_id":"4","last_reported":1732032695,"current_range_meters":38800,"station_id":"ce4bhph2rcd13ifvqhdg","pricing_plan_id":"cebpf4jnsgd1na2vs0mg"},{"bike_id":"1985f0ad-5fec-4017-9c67-4c18c8f68667","system_id":"levelo_inurba_marseille","lat":43.29577,"lon":5.36735,"is_reserved":false,"is_disabled":false,"rental_uris":{"android":"levelo://app?vid=1985f0ad-5fec-4017-9c67-4c18c8f68667","ios":"levelo://app?vid=1985f0ad-5fec-4017-9c67-4c18c8f68667"},"vehicle_type_id":"4","last_reported":1732032695,"current_range_meters":9600,"station_id":"ce4bgph2rcd13ifvqc2g","pricing_plan_id":"cebpf4jnsgd1na2vs0mg"},{"bike_id":"cde5eb04-35f5-4971-aec4-8004f9b2dcd9","system_id":"levelo_inurba_marseille","lat":43.28283,"lon":5.35075,"is_reserved":false,"is_disabled":true,"rental_uris":{"android":"levelo://app?vid=cde5eb04-35f5-4971-aec4-8004f9b2dcd9","ios":"levelo://app?vid=cde5eb04-35f5-4971-aec4-8004f9b2dcd9"},"vehicle_type_id":"4","last_reported":1732032695,"current_range_meters":32800,"station_id":"ce4bhbp2rcd13ifvqerg","pricing_plan_id":"cebpf4jnsgd1na2vs0mg"},{"bike_id":"e63fa20f-859b-43dc-995d-a32935dd2a71","system_id":"levelo_inurba_marseille","lat":43.2761,"lon":5.36111,"is_reserved":false,"is_disabled":false,"rental_uris":{"android":"levelo://app?vid=e63fa20f-859b-43dc-995d-a32935dd2a71","ios":"levelo://app?vid=e63fa20f-859b-43dc-995d-a32935dd2a71"},"vehicle_type_id":"4","last_reported":1732032695,"current_range_meters":17600,"station_id":"ce4bgj92rcd13ifvqbe0","pricing_plan_id":"cebpf4jnsgd1na2vs0mg"},{"bike_id":"7fc71c05-3421-4424-ba9e-625cdcc2e2d9","system_id":"levelo_inurba_marseille","lat":43.33028,"lon":5.39038,"is_reserved":false,"is_disabled":false,"rental_uris":{"android":"levelo://app?vid=7fc71c05-3421-4424-ba9e-625cdcc2e2d9","ios":"levelo://app?vid=7fc71c05-3421-4424-ba9e-625cdcc2e2d9"},"vehicle_type_id":"4","last_reported":1732032695,"current_range_meters":37600,"station_id":"ce4bhr92rcd13ifvqhrg","pricing_plan_id":"cebpf4jnsgd1na2vs0mg"},{"bike_id":"0e2bbe61-8f31-47ba-b582-6a82d0b052e0","system_id":"levelo_inurba_marseille","lat":43.29024,"lon":5.38348,"is_reserved":false,"is_disabled":false,"rental_uris":{"android":"levelo://app?vid=0e2bbe61-8f31-47ba-b582-6a82d0b052e0","ios":"levelo://app?vid=0e2bbe61-8f31-47ba-b582-6a82d0b052e0"},"vehicle_type_id":"4","last_reported":1732032695,"current_range_meters":28400,"station_id":"ce4bgip2rcd13ifvqbb0","pricing_plan_id":"cebpf4jnsgd1na2vs0mg"},{"bike_id":"c3bc0f64-f384-48a7-9517-04f95522a7e3","system_id":"levelo_inurba_marseille","lat":43.318242,"lon":5.37611,"is_reserved":false,"is_disabled":true,"rental_uris":{"android":"levelo://app?vid=c3bc0f64-f384-48a7-9517-04f95522a7e3","ios":"levelo://app?vid=c3bc0f64-f384-48a7-9517-04f95522a7e3"},"vehicle_type_id":"4","last_reported":1732032695,"current_range_meters":14800,"station_id":"","pricing_plan_id":"cebpf4jnsgd1na2vs0mg"},{"bike_id":"da8b076d-8325-46bc-83fa-f77af832ce07","system_id":"levelo_inurba_marseille","lat":43.27318,"lon":5.39096,"is_reserved":false,"is_disabled":true,"rental_uris":{"android":"levelo://app?vid=da8b076d-8325-46bc-83fa-f77af832ce07","ios":"levelo://app?vid=da8b076d-8325-46bc-83fa-f77af832ce07"},"vehicle_type_id":"4","last_reported":1732032695,"current_range_meters":0,"station_id":"ce4bhgp2rcd13ifvqfe0","pricing_plan_id":"cebpf4jnsgd1na2vs0mg"},{"bike_id":"44ee0950-3528-490a-948e-7f3976ab238c","system_id":"levelo_inurba_marseille","lat":43.32367,"lon":5.38888,"is_reserved":false,"is_disabled":false,"rental_uris":{"android":"levelo://app?vid=44ee0950-3528-490a-948e-7f3976ab238c","ios":"levelo://app?vid=44ee0950-3528-490a-948e-7f3976ab238c"},"vehicle_type_id":"4","last_reported":1732032695,"current_range_meters":30400,"station_id":"ce4bhqp2rcd13ifvqhog","pricing_plan_id":"cebpf4jnsgd1na2vs0mg"},{"bike_id":"b0e105d9-9f4c-4aac-ad98-aa479f2fe03e","system_id":"levelo_inurba_marseille","lat":43.30994,"lon":5.39004,"is_reserved":false,"is_disabled":false,"rental_uris":{"android":"levelo://app?vid=b0e105d9-9f4c-4aac-ad98-aa479f2fe03e","ios":"levelo://app?vid=b0e105d9-9f4c-4aac-ad98-aa479f2fe03e"},"vehicle_type_id":"4","last_reported":1732032695,"current_range_meters":24800,"station_id":"ce4bgv12rcd13ifvqcp0","pricing_plan_id":"cebpf4jnsgd1na2vs0mg"},{"bike_id":"ce27fe64-e773-48c7-8be0-dcaf49f06d43","system_id":"levelo_inurba_marseille","lat":43.24086,"lon":5.37749,"is_reserved":false,"is_disabled":true,"rental_uris":{"android":"levelo://app?vid=ce27fe64-e773-48c7-8be0-dcaf49f06d43","ios":"levelo://app?vid=ce27fe64-e773-48c7-8be0-dcaf49f06d43"},"vehicle_type_id":"4","last_reported":1732032695,"current_range_meters":0,"station_id":"ce4bhnp2rcd13ifvqgvg","pricing_plan_id":"cebpf4jnsgd1na2vs0mg"},{"bike_id":"5bd0dee0-f1f6-4953-a1ac-ae03db5073c5","system_id":"levelo_inurba_marseille","lat":43.29623,"lon":5.3717,"is_reserved":false,"is_disabled":false,"rental_uris":{"android":"levelo://app?vid=5bd0dee0-f1f6-4953-a1ac-ae03db5073c5","ios":"levelo://app?vid=5bd0dee0-f1f6-4953-a1ac-ae03db5073c5"},"vehicle_type_id":"4","last_reported":1732032695,"current_range_meters":33600,"station_id":"ce4bgnh2rcd13ifvqc0g","pricing_plan_id":"cebpf4jnsgd1na2vs0mg"},{"bike_id":"a288582f-e609-4b1f-9e1f-4b407176785e","system_id":"levelo_inurba_marseille","lat":43.29914,"lon":5.37464,"is_reserved":false,"is_disabled":true,"rental_uris":{"android":"levelo://app?vid=a288582f-e609-4b1f-9e1f-4b407176785e","ios":"levelo://app?vid=a288582f-e609-4b1f-9e1f-4b407176785e"},"vehicle_type_id":"4","last_reported":1732032695,"current_range_meters":21600,"station_id":"ce4bgjh2rcd13ifvqbg0","pricing_plan_id":"cebpf4jnsgd1na2vs0mg"},{"bike_id":"729f081d-5184-4f31-801f-2b41f23e3a17","system_id":"levelo_inurba_marseille","lat":43.33114,"lon":5.38222,"is_reserved":false,"is_disabled":true,"rental_uris":{"android":"levelo://app?vid=729f081d-5184-4f31-801f-2b41f23e3a17","ios":"levelo://app?vid=729f081d-5184-4f31-801f-2b41f23e3a17"},"vehicle_type_id":"4","last_reported":1732032695,"current_range_meters":33600,"station_id":"","pricing_plan_id":"cebpf4jnsgd1na2vs0mg"},{"bike_id":"dfc89b6e-47f2-4819-80c9-f9834d905865","system_id":"levelo_inurba_marseille","lat":43.30429,"lon":5.41291,"is_reserved":false,"is_disabled":false,"rental_uris":{"android":"levelo://app?vid=dfc89b6e-47f2-4819-80c9-f9834d905865","ios":"levelo://app?vid=dfc89b6e-47f2-4819-80c9-f9834d905865"},"vehicle_type_id":"4","last_reported":1732032695,"current_range_meters":32000,"station_id":"ce4bhop2rcd13ifvqh8g","pricing_plan_id":"cebpf4jnsgd1na2vs0mg"},{"bike_id":"7770b1cc-2a54-4d08-8255-6bed2fc397aa","system_id":"levelo_inurba_marseille","lat":43.23196,"lon":5.35555,"is_reserved":false,"is_disabled":false,"rental_uris":{"android":"levelo://app?vid=7770b1cc-2a54-4d08-8255-6bed2fc397aa","ios":"levelo://app?vid=7770b1cc-2a54-4d08-8255-6bed2fc397aa"},"vehicle_type_id":"4","last_reported":1732032695,"current_range_meters":29600,"station_id":"ce4bhu92rcd13ifvqi70","pricing_plan_id":"cebpf4jnsgd1na2vs0mg"},{"bike_id":"f8610b55-6663-430e-98ea-6d5e1d1b43cc","system_id":"levelo_inurba_marseille","lat":43.3237,"lon":5.38885,"is_reserved":false,"is_disabled":false,"rental_uris":{"android":"levelo://app?vid=f8610b55-6663-430e-98ea-6d5e1d1b43cc","ios":"levelo://app?vid=f8610b55-6663-430e-98ea-6d5e1d1b43cc"},"vehicle_type_id":"4","last_reported":1732032695,"current_range_meters":28000,"station_id":"ce4bhqp2rcd13ifvqhog","pricing_plan_id":"cebpf4jnsgd1na2vs0mg"},{"bike_id":"b321c3f8-cfeb-49c2-9411-946d91e0b750","system_id":"levelo_inurba_marseille","lat":43.2956,"lon":5.4228,"is_reserved":false,"is_disabled":false,"rental_uris":{"android":"levelo://app?vid=b321c3f8-cfeb-49c2-9411-946d91e0b750","ios":"levelo://app?vid=b321c3f8-cfeb-49c2-9411-946d91e0b750"},"vehicle_type_id":"4","last_reported":1732032695,"current_range_meters":16800,"station_id":"ce4bhph2rcd13ifvqhdg","pricing_plan_id":"cebpf4jnsgd1na2vs0mg"},{"bike_id":"834cf89d-1fd0-4cae-a79d-6752ebf29317","system_id":"levelo_inurba_marseille","lat":43.29266,"lon":5.38434,"is_reserved":false,"is_disabled":false,"rental_uris":{"android":"levelo://app?vid=834cf89d-1fd0-4cae-a79d-6752ebf29317","ios":"levelo://app?vid=834cf89d-1fd0-4cae-a79d-6752ebf29317"},"vehicle_type_id":"4","last_reported":1732032695,"current_range_meters":4000,"station_id":"ce4bh692rcd13ifvqea0","pricing_plan_id":"cebpf4jnsgd1na2vs0mg"},{"bike_id":"f9fbd483-13b7-4c57-a99d-7b86e5f62429","system_id":"levelo_inurba_marseille","lat":43.30533,"lon":5.36731,"is_reserved":false,"is_disabled":false,"rental_uris":{"android":"levelo://app?vid=f9fbd483-13b7-4c57-a99d-7b86e5f62429","ios":"levelo://app?vid=f9fbd483-13b7-4c57-a99d-7b86e5f62429"},"vehicle_type_id":"4","last_reported":1732032695,"current_range_meters":28800,"station_id":"ce4bgrp2rcd13ifvqc9g","pricing_plan_id":"cebpf4jnsgd1na2vs0mg"},{"bike_id":"3d25d818-80cf-415a-996a-afc2d01ce97b","system_id":"levelo_inurba_marseille","lat":43.27788,"lon":5.4073,"is_reserved":false,"is_disabled":false,"rental_uris":{"android":"levelo://app?vid=3d25d818-80cf-415a-996a-afc2d01ce97b","ios":"levelo://app?vid=3d25d818-80cf-415a-996a-afc2d01ce97b"},"vehicle_type_id":"4","last_reported":1732032695,"current_range_meters":14800,"station_id":"ce4bhnh2rcd13ifvqgtg","pricing_plan_id":"cebpf4jnsgd1na2vs0mg"},{"bike_id":"64ed23a0-3533-4dca-8fb9-650aaf2586c1","system_id":"levelo_inurba_marseille","lat":43.31721,"lon":5.42406,"is_reserved":false,"is_disabled":false,"rental_uris":{"android":"levelo://app?vid=64ed23a0-3533-4dca-8fb9-650aaf2586c1","ios":"levelo://app?vid=64ed23a0-3533-4dca-8fb9-650aaf2586c1"},"vehicle_type_id":"4","last_reported":1732032695,"current_range_meters":39200,"station_id":"ce4bhp92rcd13ifvqhbg","pricing_plan_id":"cebpf4jnsgd1na2vs0mg"},{"bike_id":"50b44e30-7bf5-4e2e-be3f-0e38514d5052","system_id":"levelo_inurba_marseille","lat":43.23155,"lon":5.43703,"is_reserved":false,"is_disabled":true,"rental_uris":{"android":"levelo://app?vid=50b44e30-7bf5-4e2e-be3f-0e38514d5052","ios":"levelo://app?vid=50b44e30-7bf5-4e2e-be3f-0e38514d5052"},"vehicle_type_id":"4","last_reported":1732032695,"current_range_meters":0,"station_id":"ce4bhmp2rcd13ifvqgog","pricing_plan_id":"cebpf4jnsgd1na2vs0mg"},{"bike_id":"5fbaf450-90c7-416c-a9b6-8e3b3003c75c","system_id":"levelo_inurba_marseille","lat":43.32488,"lon":5.36562,"is_reserved":false,"is_disabled":false,"rental_uris":{"android":"levelo://app?vid=5fbaf450-90c7-416c-a9b6-8e3b3003c75c","ios":"levelo://app?vid=5fbaf450-90c7-416c-a9b6-8e3b3003c75c"},"vehicle_type_id":"4","last_reported":1732032695,"current_range_meters":40000,"station_id":"ce4bhs12rcd13ifvqhvg","pricing_plan_id":"cebpf4jnsgd1na2vs0mg"},{"bike_id":"7b42e9ae-feed-4a9d-adf7-2371209dc174","system_id":"levelo_inurba_marseille","lat":43.28463,"lon":5.35887,"is_reserved":false,"is_disabled":true,"rental_uris":{"android":"levelo://app?vid=7b42e9ae-feed-4a9d-adf7-2371209dc174","ios":"levelo://app?vid=7b42e9ae-feed-4a9d-adf7-2371209dc174"},"vehicle_type_id":"4","last_reported":1732032695,"current_range_meters":400,"station_id":"ce4bhah2rcd13ifvqei0","pricing_plan_id":"cebpf4jnsgd1na2vs0mg"},{"bike_id":"ca7f02db-066e-4a14-97a8-5890785ca700","system_id":"levelo_inurba_marseille","lat":43.29619,"lon":5.37725,"is_reserved":false,"is_disabled":false,"rental_uris":{"android":"levelo://app?vid=ca7f02db-066e-4a14-97a8-5890785ca700","ios":"levelo://app?vid=ca7f02db-066e-4a14-97a8-5890785ca700"},"vehicle_type_id":"4","last_reported":1732032695,"current_range_meters":39200,"station_id":"ce4bgi92rcd13ifvqb90","pricing_plan_id":"cebpf4jnsgd1na2vs0mg"},{"bike_id":"03624f7d-f25e-4ca6-82bf-9bdcb0d27757","system_id":"levelo_inurba_marseille","lat":43.30634,"lon":5.36758,"is_reserved":false,"is_disabled":true,"rental_uris":{"android":"levelo://app?vid=03624f7d-f25e-4ca6-82bf-9bdcb0d27757","ios":"levelo://app?vid=03624f7d-f25e-4ca6-82bf-9bdcb0d27757"},"vehicle_type_id":"4","last_reported":1732032695,"current_range_meters":400,"station_id":"","pricing_plan_id":"cebpf4jnsgd1na2vs0mg"},{"bike_id":"c6623bb0-f692-407d-853b-d2ee9390c3ed","system_id":"levelo_inurba_marseille","lat":43.30133,"lon":5.39874,"is_reserved":false,"is_disabled":true,"rental_uris":{"android":"levelo://app?vid=c6623bb0-f692-407d-853b-d2ee9390c3ed","ios":"levelo://app?vid=c6623bb0-f692-407d-853b-d2ee9390c3ed"},"vehicle_type_id":"4","last_reported":1732032695,"current_range_meters":22800,"station_id":"ce4bh0h2rcd13ifvqd40","pricing_plan_id":"cebpf4jnsgd1na2vs0mg"},{"bike_id":"8b3601dd-844a-4847-baf3-c4b7e38fcb75","system_id":"levelo_inurba_marseille","lat":43.27615,"lon":5.36122,"is_reserved":false,"is_disabled":false,"rental_uris":{"android":"levelo://app?vid=8b3601dd-844a-4847-baf3-c4b7e38fcb75","ios":"levelo://app?vid=8b3601dd-844a-4847-baf3-c4b7e38fcb75"},"vehicle_type_id":"4","last_reported":1732032695,"current_range_meters":38800,"station_id":"ce4bgj92rcd13ifvqbe0","pricing_plan_id":"cebpf4jnsgd1na2vs0mg"},{"bike_id":"0f2467d1-1167-4925-884d-9c904673fb17","system_id":"levelo_inurba_marseille","lat":43.27206,"lon":5.39174,"is_reserved":false,"is_disabled":false,"rental_uris":{"android":"levelo://app?vid=0f2467d1-1167-4925-884d-9c904673fb17","ios":"levelo://app?vid=0f2467d1-1167-4925-884d-9c904673fb17"},"vehicle_type_id":"4","last_reported":1732032695,"current_range_meters":1200,"station_id":"ce4bhhp2rcd13ifvqfm0","pricing_plan_id":"cebpf4jnsgd1na2vs0mg"},{"bike_id":"18b8f091-c34a-472c-8dc3-5f3caf056c58","system_id":"levelo_inurba_marseille","lat":43.337444,"lon":5.374475,"is_reserved":false,"is_disabled":false,"rental_uris":{"android":"levelo://app?vid=18b8f091-c34a-472c-8dc3-5f3caf056c58","ios":"levelo://app?vid=18b8f091-c34a-472c-8dc3-5f3caf056c58"},"vehicle_type_id":"4","last_reported":1732032695,"current_range_meters":38800,"station_id":"","pricing_plan_id":"cebpf4jnsgd1na2vs0mg"},{"bike_id":"9044f75c-15b5-4f34-bbd2-226c9f41adac","system_id":"levelo_inurba_marseille","lat":43.27613,"lon":5.36113,"is_reserved":false,"is_disabled":true,"rental_uris":{"android":"levelo://app?vid=9044f75c-15b5-4f34-bbd2-226c9f41adac","ios":"levelo://app?vid=9044f75c-15b5-4f34-bbd2-226c9f41adac"},"vehicle_type_id":"4","last_reported":1732032695,"current_range_meters":33200,"station_id":"ce4bgj92rcd13ifvqbe0","pricing_plan_id":"cebpf4jnsgd1na2vs0mg"},{"bike_id":"e03a06b6-df6d-487f-8834-4cdb03f56f47","system_id":"levelo_inurba_marseille","lat":43.2811,"lon":5.44081,"is_reserved":false,"is_disabled":true,"rental_uris":{"android":"levelo://app?vid=e03a06b6-df6d-487f-8834-4cdb03f56f47","ios":"levelo://app?vid=e03a06b6-df6d-487f-8834-4cdb03f56f47"},"vehicle_type_id":"4","last_reported":1732032695,"current_range_meters":0,"station_id":"","pricing_plan_id":"cebpf4jnsgd1na2vs0mg"},{"bike_id":"f5557847-0cf1-4ada-bcd6-c7726194655d","system_id":"levelo_inurba_marseille","lat":43.33771,"lon":5.37444,"is_reserved":false,"is_disabled":false,"rental_uris":{"android":"levelo://app?vid=f5557847-0cf1-4ada-bcd6-c7726194655d","ios":"levelo://app?vid=f5557847-0cf1-4ada-bcd6-c7726194655d"},"vehicle_type_id":"4","last_reported":1732032695,"current_range_meters":36800,"station_id":"","pricing_plan_id":"cebpf4jnsgd1na2vs0mg"},{"bike_id":"79511df2-b072-4a83-b5fb-62b31b8c5f1e","system_id":"levelo_inurba_marseille","lat":43.30531,"lon":5.36709,"is_reserved":false,"is_disabled":true,"rental_uris":{"android":"levelo://app?vid=79511df2-b072-4a83-b5fb-62b31b8c5f1e","ios":"levelo://app?vid=79511df2-b072-4a83-b5fb-62b31b8c5f1e"},"vehicle_type_id":"4","last_reported":1732032695,"current_range_meters":17600,"station_id":"ce4bgrp2rcd13ifvqc9g","pricing_plan_id":"cebpf4jnsgd1na2vs0mg"},{"bike_id":"87a1679d-aa59-41b4-bd56-bc5165abd16a","system_id":"levelo_inurba_marseille","lat":43.27901,"lon":5.38006,"is_reserved":false,"is_disabled":true,"rental_uris":{"android":"levelo://app?vid=87a1679d-aa59-41b4-bd56-bc5165abd16a","ios":"levelo://app?vid=87a1679d-aa59-41b4-bd56-bc5165abd16a"},"vehicle_type_id":"4","last_reported":1732032695,"current_range_meters":0,"station_id":"","pricing_plan_id":"cebpf4jnsgd1na2vs0mg"},{"bike_id":"609583c9-a87e-46ce-a96f-1176e0cd038e","system_id":"levelo_inurba_marseille","lat":43.29621,"lon":5.37159,"is_reserved":false,"is_disabled":false,"rental_uris":{"android":"levelo://app?vid=609583c9-a87e-46ce-a96f-1176e0cd038e","ios":"levelo://app?vid=609583c9-a87e-46ce-a96f-1176e0cd038e"},"vehicle_type_id":"4","last_reported":1732032695,"current_range_meters":12800,"station_id":"ce4bgnh2rcd13ifvqc0g","pricing_plan_id":"cebpf4jnsgd1na2vs0mg"},{"bike_id":"2d36e073-3a2a-4e2e-80a5-4cfb4ad75bb5","system_id":"levelo_inurba_marseille","lat":43.312892,"lon":5.401698,"is_reserved":false,"is_disabled":false,"rental_uris":{"android":"levelo://app?vid=2d36e073-3a2a-4e2e-80a5-4cfb4ad75bb5","ios":"levelo://app?vid=2d36e073-3a2a-4e2e-80a5-4cfb4ad75bb5"},"vehicle_type_id":"4","last_reported":1732032695,"current_range_meters":38800,"station_id":"ce4bh092rcd13ifvqd30","pricing_plan_id":"cebpf4jnsgd1na2vs0mg"},{"bike_id":"173d2649-402a-41e7-bab7-d5a24248377f","system_id":"levelo_inurba_marseille","lat":43.28447,"lon":5.39185,"is_reserved":false,"is_disabled":false,"rental_uris":{"android":"levelo://app?vid=173d2649-402a-41e7-bab7-d5a24248377f","ios":"levelo://app?vid=173d2649-402a-41e7-bab7-d5a24248377f"},"vehicle_type_id":"4","last_reported":1732032695,"current_range_meters":38800,"station_id":"ce4bhoh2rcd13ifvqh5g","pricing_plan_id":"cebpf4jnsgd1na2vs0mg"},{"bike_id":"7d3aad7d-1fb9-42e8-9b07-af2a54dfd5bb","system_id":"levelo_inurba_marseille","lat":43.31715,"lon":5.37751,"is_reserved":false,"is_disabled":false,"rental_uris":{"android":"levelo://app?vid=7d3aad7d-1fb9-42e8-9b07-af2a54dfd5bb","ios":"levelo://app?vid=7d3aad7d-1fb9-42e8-9b07-af2a54dfd5bb"},"vehicle_type_id":"4","last_reported":1732032695,"current_range_meters":40000,"station_id":"ce4bgth2rcd13ifvqch0","pricing_plan_id":"cebpf4jnsgd1na2vs0mg"},{"bike_id":"ff7011d0-1dbd-4ee9-8b45-bf668b5f2a9a","system_id":"levelo_inurba_marseille","lat":43.286718,"lon":5.363564,"is_reserved":false,"is_disabled":false,"rental_uris":{"android":"levelo://app?vid=ff7011d0-1dbd-4ee9-8b45-bf668b5f2a9a","ios":"levelo://app?vid=ff7011d0-1dbd-4ee9-8b45-bf668b5f2a9a"},"vehicle_type_id":"4","last_reported":1732032695,"current_range_meters":26000,"station_id":"ce4bhah2rcd13ifvqej0","pricing_plan_id":"cebpf4jnsgd1na2vs0mg"},{"bike_id":"58165298-9415-410c-81e8-3778d767ad67","system_id":"levelo_inurba_marseille","lat":43.24656,"lon":5.38895,"is_reserved":false,"is_disabled":false,"rental_uris":{"android":"levelo://app?vid=58165298-9415-410c-81e8-3778d767ad67","ios":"levelo://app?vid=58165298-9415-410c-81e8-3778d767ad67"},"vehicle_type_id":"4","last_reported":1732032695,"current_range_meters":38000,"station_id":"ce4bhg12rcd13ifvqf60","pricing_plan_id":"cebpf4jnsgd1na2vs0mg"},{"bike_id":"69f17539-1b4d-4258-b123-6f9f3b0b3b71","system_id":"levelo_inurba_marseille","lat":43.26489,"lon":5.39545,"is_reserved":false,"is_disabled":false,"rental_uris":{"android":"levelo://app?vid=69f17539-1b4d-4258-b123-6f9f3b0b3b71","ios":"levelo://app?vid=69f17539-1b4d-4258-b123-6f9f3b0b3b71"},"vehicle_type_id":"4","last_reported":1732032695,"current_range_meters":9600,"station_id":"ce4bhi12rcd13ifvqfq0","pricing_plan_id":"cebpf4jnsgd1na2vs0mg"},{"bike_id":"66b88995-beb8-44fb-9286-84c35096bf4d","system_id":"levelo_inurba_marseille","lat":43.3014,"lon":5.39855,"is_reserved":false,"is_disabled":false,"rental_uris":{"android":"levelo://app?vid=66b88995-beb8-44fb-9286-84c35096bf4d","ios":"levelo://app?vid=66b88995-beb8-44fb-9286-84c35096bf4d"},"vehicle_type_id":"4","last_reported":1732032695,"current_range_meters":36800,"station_id":"ce4bh0h2rcd13ifvqd40","pricing_plan_id":"cebpf4jnsgd1na2vs0mg"},{"bike_id":"ea19813a-60dd-4179-850b-eefbf2bb844d","system_id":"levelo_inurba_marseille","lat":43.33026,"lon":5.39051,"is_reserved":false,"is_disabled":false,"rental_uris":{"android":"levelo://app?vid=ea19813a-60dd-4179-850b-eefbf2bb844d","ios":"levelo://app?vid=ea19813a-60dd-4179-850b-eefbf2bb844d"},"vehicle_type_id":"4","last_reported":1732032695,"current_range_meters":40000,"station_id":"ce4bhr92rcd13ifvqhrg","pricing_plan_id":"cebpf4jnsgd1na2vs0mg"},{"bike_id":"bb0b1444-1ada-404a-8de9-cd5587a621cd","system_id":"levelo_inurba_marseille","lat":43.26201,"lon":5.37928,"is_reserved":false,"is_disabled":false,"rental_uris":{"android":"levelo://app?vid=bb0b1444-1ada-404a-8de9-cd5587a621cd","ios":"levelo://app?vid=bb0b1444-1ada-404a-8de9-cd5587a621cd"},"vehicle_type_id":"4","last_reported":1732032695,"current_range_meters":32400,"station_id":"ce4bhjp2rcd13ifvqg90","pricing_plan_id":"cebpf4jnsgd1na2vs0mg"},{"bike_id":"1feae83f-ad96-4e3f-9a90-500f4643de9d","system_id":"levelo_inurba_marseille","lat":43.29098,"lon":5.42649,"is_reserved":false,"is_disabled":true,"rental_uris":{"android":"levelo://app?vid=1feae83f-ad96-4e3f-9a90-500f4643de9d","ios":"levelo://app?vid=1feae83f-ad96-4e3f-9a90-500f4643de9d"},"vehicle_type_id":"4","last_reported":1732032695,"current_range_meters":0,"station_id":"","pricing_plan_id":"cebpf4jnsgd1na2vs0mg"},{"bike_id":"45df09e2-d7c0-489f-a521-932bc0e15166","system_id":"levelo_inurba_marseille","lat":43.296351,"lon":5.406007,"is_reserved":false,"is_disabled":false,"rental_uris":{"android":"levelo://app?vid=45df09e2-d7c0-489f-a521-932bc0e15166","ios":"levelo://app?vid=45df09e2-d7c0-489f-a521-932bc0e15166"},"vehicle_type_id":"4","last_reported":1732032695,"current_range_meters":28000,"station_id":"","pricing_plan_id":"cebpf4jnsgd1na2vs0mg"},{"bike_id":"d5d89c8e-e1c0-44d3-943c-ad32cfd36d27","system_id":"levelo_inurba_marseille","lat":43.284299,"lon":5.349948,"is_reserved":false,"is_disabled":false,"rental_uris":{"android":"levelo://app?vid=d5d89c8e-e1c0-44d3-943c-ad32cfd36d27","ios":"levelo://app?vid=d5d89c8e-e1c0-44d3-943c-ad32cfd36d27"},"vehicle_type_id":"4","last_reported":1732032695,"current_range_meters":31200,"station_id":"ce4bhbh2rcd13ifvqepg","pricing_plan_id":"cebpf4jnsgd1na2vs0mg"},{"bike_id":"712c14ef-d6b1-4fc2-9130-25cddc19a39b","system_id":"levelo_inurba_marseille","lat":43.29421,"lon":5.38607,"is_reserved":false,"is_disabled":false,"rental_uris":{"android":"levelo://app?vid=712c14ef-d6b1-4fc2-9130-25cddc19a39b","ios":"levelo://app?vid=712c14ef-d6b1-4fc2-9130-25cddc19a39b"},"vehicle_type_id":"4","last_reported":1732032695,"current_range_meters":39200,"station_id":"ce4bh2h2rcd13ifvqdh0","pricing_plan_id":"cebpf4jnsgd1na2vs0mg"},{"bike_id":"52e259fe-ea2b-47ef-aaeb-680705e61994","system_id":"levelo_inurba_marseille","lat":43.29697,"lon":5.36607,"is_reserved":false,"is_disabled":false,"rental_uris":{"android":"levelo://app?vid=52e259fe-ea2b-47ef-aaeb-680705e61994","ios":"levelo://app?vid=52e259fe-ea2b-47ef-aaeb-680705e61994"},"vehicle_type_id":"4","last_reported":1732032695,"current_range_meters":37600,"station_id":"ce4bgn12rcd13ifvqbt0","pricing_plan_id":"cebpf4jnsgd1na2vs0mg"},{"bike_id":"09d0c9a4-1c9a-4ec8-b255-eb2867edcba4","system_id":"levelo_inurba_marseille","lat":43.28087,"lon":5.39662,"is_reserved":false,"is_disabled":true,"rental_uris":{"android":"levelo://app?vid=09d0c9a4-1c9a-4ec8-b255-eb2867edcba4","ios":"levelo://app?vid=09d0c9a4-1c9a-4ec8-b255-eb2867edcba4"},"vehicle_type_id":"4","last_reported":1732032695,"current_range_meters":18800,"station_id":"ce4bho12rcd13ifvqh2g","pricing_plan_id":"cebpf4jnsgd1na2vs0mg"},{"bike_id":"f269f5cc-4fea-43fd-a517-90ab40d6b461","system_id":"levelo_inurba_marseille","lat":43.28573,"lon":5.39502,"is_reserved":false,"is_disabled":false,"rental_uris":{"android":"levelo://app?vid=f269f5cc-4fea-43fd-a517-90ab40d6b461","ios":"levelo://app?vid=f269f5cc-4fea-43fd-a517-90ab40d6b461"},"vehicle_type_id":"4","last_reported":1732032695,"current_range_meters":39200,"station_id":"ce4bh292rcd13ifvqdg0","pricing_plan_id":"cebpf4jnsgd1na2vs0mg"},{"bike_id":"1453fdae-ebe7-4e68-a828-fc537931e82c","system_id":"levelo_inurba_marseille","lat":43.24173,"lon":5.36403,"is_reserved":false,"is_disabled":false,"rental_uris":{"android":"levelo://app?vid=1453fdae-ebe7-4e68-a828-fc537931e82c","ios":"levelo://app?vid=1453fdae-ebe7-4e68-a828-fc537931e82c"},"vehicle_type_id":"4","last_reported":1732032695,"current_range_meters":7200,"station_id":"cpo36qri1sfpv3e86is0","pricing_plan_id":"cebpf4jnsgd1na2vs0mg"},{"bike_id":"5f0ff2c4-06fa-4fca-8c33-df3add0c7d83","system_id":"levelo_inurba_marseille","lat":43.23193,"lon":5.35557,"is_reserved":false,"is_disabled":false,"rental_uris":{"android":"levelo://app?vid=5f0ff2c4-06fa-4fca-8c33-df3add0c7d83","ios":"levelo://app?vid=5f0ff2c4-06fa-4fca-8c33-df3add0c7d83"},"vehicle_type_id":"4","last_reported":1732032695,"current_range_meters":28800,"station_id":"ce4bhu92rcd13ifvqi70","pricing_plan_id":"cebpf4jnsgd1na2vs0mg"},{"bike_id":"3e7a62b5-caf3-454a-a5f2-7f4897668031","system_id":"levelo_inurba_marseille","lat":43.29582,"lon":5.36747,"is_reserved":false,"is_disabled":false,"rental_uris":{"android":"levelo://app?vid=3e7a62b5-caf3-454a-a5f2-7f4897668031","ios":"levelo://app?vid=3e7a62b5-caf3-454a-a5f2-7f4897668031"},"vehicle_type_id":"4","last_reported":1732032695,"current_range_meters":38400,"station_id":"ce4bgph2rcd13ifvqc2g","pricing_plan_id":"cebpf4jnsgd1na2vs0mg"},{"bike_id":"8fa2381b-af56-40b3-9ae7-43720966ee84","system_id":"levelo_inurba_marseille","lat":43.28183,"lon":5.43834,"is_reserved":false,"is_disabled":false,"rental_uris":{"android":"levelo://app?vid=8fa2381b-af56-40b3-9ae7-43720966ee84","ios":"levelo://app?vid=8fa2381b-af56-40b3-9ae7-43720966ee84"},"vehicle_type_id":"4","last_reported":1732032695,"current_range_meters":16800,"station_id":"","pricing_plan_id":"cebpf4jnsgd1na2vs0mg"},{"bike_id":"763aa97f-8462-4ab9-a2e5-c761e964dbba","system_id":"levelo_inurba_marseille","lat":43.33747,"lon":5.37503,"is_reserved":false,"is_disabled":true,"rental_uris":{"android":"levelo://app?vid=763aa97f-8462-4ab9-a2e5-c761e964dbba","ios":"levelo://app?vid=763aa97f-8462-4ab9-a2e5-c761e964dbba"},"vehicle_type_id":"4","last_reported":1732032695,"current_range_meters":36000,"station_id":"","pricing_plan_id":"cebpf4jnsgd1na2vs0mg"},{"bike_id":"a2159901-96d9-454e-a405-681e12c1190f","system_id":"levelo_inurba_marseille","lat":43.28077,"lon":5.39654,"is_reserved":false,"is_disabled":false,"rental_uris":{"android":"levelo://app?vid=a2159901-96d9-454e-a405-681e12c1190f","ios":"levelo://app?vid=a2159901-96d9-454e-a405-681e12c1190f"},"vehicle_type_id":"4","last_reported":1732032695,"current_range_meters":9200,"station_id":"ce4bho12rcd13ifvqh2g","pricing_plan_id":"cebpf4jnsgd1na2vs0mg"},{"bike_id":"36a025e7-3ef4-4d11-bef1-caec279de062","system_id":"levelo_inurba_marseille","lat":43.2953,"lon":5.39054,"is_reserved":false,"is_disabled":false,"rental_uris":{"android":"levelo://app?vid=36a025e7-3ef4-4d11-bef1-caec279de062","ios":"levelo://app?vid=36a025e7-3ef4-4d11-bef1-caec279de062"},"vehicle_type_id":"4","last_reported":1732032695,"current_range_meters":22000,"station_id":"ce4bh3p2rcd13ifvqdp0","pricing_plan_id":"cebpf4jnsgd1na2vs0mg"},{"bike_id":"d72ee6a4-5bd4-40b6-bdc9-42b5cfffd4a1","system_id":"levelo_inurba_marseille","lat":43.27183,"lon":5.40987,"is_reserved":false,"is_disabled":false,"rental_uris":{"android":"levelo://app?vid=d72ee6a4-5bd4-40b6-bdc9-42b5cfffd4a1","ios":"levelo://app?vid=d72ee6a4-5bd4-40b6-bdc9-42b5cfffd4a1"},"vehicle_type_id":"4","last_reported":1732032695,"current_range_meters":38800,"station_id":"ce4bhl12rcd13ifvqgf0","pricing_plan_id":"cebpf4jnsgd1na2vs0mg"},{"bike_id":"937a931b-2374-4786-bb3c-c73fee51785a","system_id":"levelo_inurba_marseille","lat":43.27929,"lon":5.39584,"is_reserved":false,"is_disabled":true,"rental_uris":{"android":"levelo://app?vid=937a931b-2374-4786-bb3c-c73fee51785a","ios":"levelo://app?vid=937a931b-2374-4786-bb3c-c73fee51785a"},"vehicle_type_id":"4","last_reported":1732032695,"current_range_meters":0,"station_id":"ce4bhf92rcd13ifvqf40","pricing_plan_id":"cebpf4jnsgd1na2vs0mg"},{"bike_id":"b94293a3-11e3-4e29-835b-db6f66d9e7a3","system_id":"levelo_inurba_marseille","lat":43.28407,"lon":5.34989,"is_reserved":false,"is_disabled":false,"rental_uris":{"android":"levelo://app?vid=b94293a3-11e3-4e29-835b-db6f66d9e7a3","ios":"levelo://app?vid=b94293a3-11e3-4e29-835b-db6f66d9e7a3"},"vehicle_type_id":"4","last_reported":1732032695,"current_range_meters":38000,"station_id":"ce4bhbh2rcd13ifvqepg","pricing_plan_id":"cebpf4jnsgd1na2vs0mg"},{"bike_id":"d59c1db0-8888-4163-91bc-59e3aee346ec","system_id":"levelo_inurba_marseille","lat":43.28926,"lon":5.38388,"is_reserved":false,"is_disabled":false,"rental_uris":{"android":"levelo://app?vid=d59c1db0-8888-4163-91bc-59e3aee346ec","ios":"levelo://app?vid=d59c1db0-8888-4163-91bc-59e3aee346ec"},"vehicle_type_id":"4","last_reported":1732032695,"current_range_meters":12400,"station_id":"ce4bh612rcd13ifvqe6g","pricing_plan_id":"cebpf4jnsgd1na2vs0mg"},{"bike_id":"b111eafb-b194-4552-8557-ecf831b8a3ae","system_id":"levelo_inurba_marseille","lat":43.26564,"lon":5.37282,"is_reserved":false,"is_disabled":false,"rental_uris":{"android":"levelo://app?vid=b111eafb-b194-4552-8557-ecf831b8a3ae","ios":"levelo://app?vid=b111eafb-b194-4552-8557-ecf831b8a3ae"},"vehicle_type_id":"4","last_reported":1732032695,"current_range_meters":8800,"station_id":"ce4bhg12rcd13ifvqf70","pricing_plan_id":"cebpf4jnsgd1na2vs0mg"},{"bike_id":"398ba751-e691-4350-9fca-078333063f46","system_id":"levelo_inurba_marseille","lat":43.28715,"lon":5.37935,"is_reserved":false,"is_disabled":false,"rental_uris":{"android":"levelo://app?vid=398ba751-e691-4350-9fca-078333063f46","ios":"levelo://app?vid=398ba751-e691-4350-9fca-078333063f46"},"vehicle_type_id":"4","last_reported":1732032695,"current_range_meters":20400,"station_id":"ce4bh9p2rcd13ifvqec0","pricing_plan_id":"cebpf4jnsgd1na2vs0mg"},{"bike_id":"4b3adea2-93b2-4f04-a6f0-f70cc502b5fa","system_id":"levelo_inurba_marseille","lat":43.29623,"lon":5.37729,"is_reserved":false,"is_disabled":false,"rental_uris":{"android":"levelo://app?vid=4b3adea2-93b2-4f04-a6f0-f70cc502b5fa","ios":"levelo://app?vid=4b3adea2-93b2-4f04-a6f0-f70cc502b5fa"},"vehicle_type_id":"4","last_reported":1732032695,"current_range_meters":26000,"station_id":"ce4bgi92rcd13ifvqb90","pricing_plan_id":"cebpf4jnsgd1na2vs0mg"},{"bike_id":"1ed3655d-6a3e-46c7-8d08-44d7eddfc40f","system_id":"levelo_inurba_marseille","lat":43.299744,"lon":5.371769,"is_reserved":false,"is_disabled":false,"rental_uris":{"android":"levelo://app?vid=1ed3655d-6a3e-46c7-8d08-44d7eddfc40f","ios":"levelo://app?vid=1ed3655d-6a3e-46c7-8d08-44d7eddfc40f"},"vehicle_type_id":"4","last_reported":1732032695,"current_range_meters":36800,"station_id":"ce4bgr92rcd13ifvqc7g","pricing_plan_id":"cebpf4jnsgd1na2vs0mg"},{"bike_id":"cfd5a0c5-a477-4389-8834-15ea5cb9fb35","system_id":"levelo_inurba_marseille","lat":43.29422,"lon":5.38621,"is_reserved":false,"is_disabled":false,"rental_uris":{"android":"levelo://app?vid=cfd5a0c5-a477-4389-8834-15ea5cb9fb35","ios":"levelo://app?vid=cfd5a0c5-a477-4389-8834-15ea5cb9fb35"},"vehicle_type_id":"4","last_reported":1732032695,"current_range_meters":36400,"station_id":"ce4bh2h2rcd13ifvqdh0","pricing_plan_id":"cebpf4jnsgd1na2vs0mg"},{"bike_id":"d09bf99f-4466-414d-ad1a-11a8cf15a8b0","system_id":"levelo_inurba_marseille","lat":43.24483,"lon":5.36912,"is_reserved":false,"is_disabled":true,"rental_uris":{"android":"levelo://app?vid=d09bf99f-4466-414d-ad1a-11a8cf15a8b0","ios":"levelo://app?vid=d09bf99f-4466-414d-ad1a-11a8cf15a8b0"},"vehicle_type_id":"4","last_reported":1732032695,"current_range_meters":0,"station_id":"","pricing_plan_id":"cebpf4jnsgd1na2vs0mg"},{"bike_id":"8bf6eb78-32ed-47bc-84a3-af22a32d3664","system_id":"levelo_inurba_marseille","lat":43.30309,"lon":5.36915,"is_reserved":false,"is_disabled":false,"rental_uris":{"android":"levelo://app?vid=8bf6eb78-32ed-47bc-84a3-af22a32d3664","ios":"levelo://app?vid=8bf6eb78-32ed-47bc-84a3-af22a32d3664"},"vehicle_type_id":"4","last_reported":1732032695,"current_range_meters":28800,"station_id":"ce4bgqh2rcd13ifvqc5g","pricing_plan_id":"cebpf4jnsgd1na2vs0mg"},{"bike_id":"44f20087-fc3a-4f0f-b0d3-4abed00ccf45","system_id":"levelo_inurba_marseille","lat":43.30887,"lon":5.39659,"is_reserved":false,"is_disabled":true,"rental_uris":{"android":"levelo://app?vid=44f20087-fc3a-4f0f-b0d3-4abed00ccf45","ios":"levelo://app?vid=44f20087-fc3a-4f0f-b0d3-4abed00ccf45"},"vehicle_type_id":"4","last_reported":1732032695,"current_range_meters":0,"station_id":"ce4bh012rcd13ifvqcv0","pricing_plan_id":"cebpf4jnsgd1na2vs0mg"},{"bike_id":"e8a68965-0793-4891-ad47-7a7be6ed2cf7","system_id":"levelo_inurba_marseille","lat":43.31487,"lon":5.37311,"is_reserved":false,"is_disabled":false,"rental_uris":{"android":"levelo://app?vid=e8a68965-0793-4891-ad47-7a7be6ed2cf7","ios":"levelo://app?vid=e8a68965-0793-4891-ad47-7a7be6ed2cf7"},"vehicle_type_id":"4","last_reported":1732032695,"current_range_meters":33600,"station_id":"ce4bgt12rcd13ifvqcd0","pricing_plan_id":"cebpf4jnsgd1na2vs0mg"},{"bike_id":"3fd5ed91-c221-4c95-a18e-cf9f57b6a653","system_id":"levelo_inurba_marseille","lat":43.26204,"lon":5.37442,"is_reserved":false,"is_disabled":false,"rental_uris":{"android":"levelo://app?vid=3fd5ed91-c221-4c95-a18e-cf9f57b6a653","ios":"levelo://app?vid=3fd5ed91-c221-4c95-a18e-cf9f57b6a653"},"vehicle_type_id":"4","last_reported":1732032695,"current_range_meters":16400,"station_id":"ce4bhgp2rcd13ifvqfc0","pricing_plan_id":"cebpf4jnsgd1na2vs0mg"},{"bike_id":"148f383a-540b-4a86-9a44-820c48660626","system_id":"levelo_inurba_marseille","lat":43.30147,"lon":5.37427,"is_reserved":false,"is_disabled":false,"rental_uris":{"android":"levelo://app?vid=148f383a-540b-4a86-9a44-820c48660626","ios":"levelo://app?vid=148f383a-540b-4a86-9a44-820c48660626"},"vehicle_type_id":"4","last_reported":1732032695,"current_range_meters":39200,"station_id":"ce4bgs92rcd13ifvqcc0","pricing_plan_id":"cebpf4jnsgd1na2vs0mg"},