{"last_updated":1761462557,"ttl":60,"version":"2.2","data":{"bikes":[{"bike_id":"00fd3c6a-780c-49dc-9993-d4de69c9b57a","system_id":"levelo_inurba_marseille","lat":43.310738,"lon":5.37455,"is_reserved":false,"is_disabled":false,"rental_uris":{"android":"levelo://app?vid=00fd3c6a-780c-49dc-9993-d4de69c9b57a","ios":"levelo://app?vid=00fd3c6a-780c-49dc-9993-d4de69c9b57a"},"vehicle_type_id":"4","last_reported":1761462557,"current_range_meters":2800,"station_id":"","pricing_plan_id":"cebpf4jnsgd1na2vs0mg"},{"bike_id":"1e172e2b-37c5-4615-b8ba-35833d700090","system_id":"levelo_inurba_marseille","lat":43.265684,"lon":5.390263,"is_reserved":false,"is_disabled":false,"rental_uris":{"android":"levelo://app?vid=1e172e2b-37c5-4615-b8ba-35833d700090","ios":"levelo://app?vid=1e172e2b-37c5-4615-b8ba-35833d700090"},"vehicle_type_id":"4","last_reported":1761462557,"current_range_meters":2800,"station_id":"ce4bhe12rcd13ifvqf30","pricing_plan_id":"cebpf4jnsgd1na2vs0mg"},{"bike_id":"ef9f94b6-49db-4195-b862-563223e2ba3d","system_id":"levelo_inurba_marseille","lat":43.21742,"lon":5.34605,"is_reserved":false,"is_disabled":false,"rental_uris":{"android":"levelo://app?vid=ef9f94b6-49db-4195-b862-563223e2ba3d","ios":"levelo://app?vid=ef9f94b6-49db-4195-b862-563223e2ba3d"},"vehicle_type_id":"4","last_reported":1761462557,"current_range_meters":3200,"station_id":"st_cvj6r9ubvosntc0bgbag","pricing_plan_id":"cebpf4jnsgd1na2vs0mg"},{"bike_id":"23fa39a9-a9c6-4c5a-b7fb-0f83dc865641","system_id":"levelo_inurba_marseille","lat":43.270509,"lon":5.40262,"is_reserved":false,"is_disabled":false,"rental_uris":{"android":"levelo://app?vid=23fa39a9-a9c6-4c5a-b7fb-0f83dc865641","ios":"levelo://app?vid=23fa39a9-a9c6-4c5a-b7fb-0f83dc865641"},"vehicle_type_id":"4","last_reported":1761462557,"current_range_meters":3200,"station_id":"ce4bhk92rcd13ifvqgc0","pricing_plan_id":"cebpf4jnsgd1na2vs0mg"},{"bike_id":"809286ea-3e9d-46a5-b098-901598f76651","system_id":"levelo_inurba_marseille","lat":43.255021,"lon":5.376517,"is_reserved":false,"is_disabled":false,"rental_uris":{"android":"levelo://app?vid=809286ea-3e9d-46a5-b098-901598f76651","ios":"levelo://app?vid=809286ea-3e9d-46a5-b098-901598f76651"},"vehicle_type_id":"4","last_reported":1761462557,"current_range_meters":3200,"station_id":"ce4bhh12rcd13ifvqff0","pricing_plan_id":"cebpf4jnsgd1na2vs0mg"},{"bike_id":"ad59d08a-36e0-428b-ad60-c245b162df87","system_id":"levelo_inurba_marseille","lat":43.28838,"lon":5.3585,"is_reserved":false,"is_disabled":false,"rental_uris":{"android":"levelo://app?vid=ad59d08a-36e0-428b-ad60-c245b162df87","ios":"levelo://app?vid=ad59d08a-36e0-428b-ad60-c245b162df87"},"vehicle_type_id":"4","last_reported":1761462557,"current_range_meters":3200,"station_id":"ce4bhb12rcd13ifvqem0","pricing_plan_id":"cebpf4jnsgd1na2vs0mg"},{"bike_id":"8bcacd78-80de-4026-af75-b37ebe3030fe","system_id":"levelo_inurba_marseille","lat":43.334756,"lon":5.404255,"is_reserved":false,"is_disabled":false,"rental_uris":{"android":"levelo://app?vid=8bcacd78-80de-4026-af75-b37ebe3030fe","ios":"levelo://app?vid=8bcacd78-80de-4026-af75-b37ebe3030fe"},"vehicle_type_id":"4","last_reported":1761462557,"current_range_meters":3200,"station_id":"","pricing_plan_id":"cebpf4jnsgd1na2vs0mg"},{"bike_id":"024df3e2-5d23-452c-96e8-d98812f10694","system_id":"levelo_inurba_marseille","lat":43.30587,"lon":5.37243,"is_reserved":false,"is_disabled":false,"rental_uris":{"android":"levelo://app?vid=024df3e2-5d23-452c-96e8-d98812f10694","ios":"levelo://app?vid=024df3e2-5d23-452c-96e8-d98812f10694"},"vehicle_type_id":"4","last_reported":1761462557,"current_range_meters":3200,"station_id":"ce4bgqh2rcd13ifvqc4g","pricing_plan_id":"cebpf4jnsgd1na2vs0mg"},{"bike_id":"cb14a91a-e5a7-4fa2-9c1d-b1acec3d3362","system_id":"levelo_inurba_marseille","lat":43.24163,"lon":5.36406,"is_reserved":false,"is_disabled":false,"rental_uris":{"android":"levelo://app?vid=cb14a91a-e5a7-4fa2-9c1d-b1acec3d3362","ios":"levelo://app?vid=cb14a91a-e5a7-4fa2-9c1d-b1acec3d3362"},"vehicle_type_id":"4","last_reported":1761462557,"current_range_meters":3200,"station_id":"cpo36qri1sfpv3e86is0","pricing_plan_id":"cebpf4jnsgd1na2vs0mg"},{"bike_id":"9881c788-42a8-46f5-8ccc-580a73583155","system_id":"levelo_inurba_marseille","lat":43.32083,"lon":5.40696,"is_reserved":false,"is_disabled":false,"rental_uris":{"android":"levelo://app?vid=9881c788-42a8-46f5-8ccc-580a73583155","ios":"levelo://app?vid=9881c788-42a8-46f5-8ccc-580a73583155"},"vehicle_type_id":"4","last_reported":1761462557,"current_range_meters":3200,"station_id":"","pricing_plan_id":"cebpf4jnsgd1na2vs0mg"},{"bike_id":"b9764ed2-f91a-421e-b54e-d7527bd8af22","system_id":"levelo_inurba_marseille","lat":43.29811,"lon":5.36588,"is_reserved":false,"is_disabled":false,"rental_uris":{"android":"levelo://app?vid=b9764ed2-f91a-421e-b54e-d7527bd8af22","ios":"levelo://app?vid=b9764ed2-f91a-421e-b54e-d7527bd8af22"},"vehicle_type_id":"4","last_reported":1761462557,"current_range_meters":3600,"station_id":"","pricing_plan_id":"cebpf4jnsgd1na2vs0mg"},{"bike_id":"79b7db10-4eec-40c9-8d7a-ed593829d628","system_id":"levelo_inurba_marseille","lat":43.2882,"lon":5.35859,"is_reserved":false,"is_disabled":false,"rental_uris":{"android":"levelo://app?vid=79b7db10-4eec-40c9-8d7a-ed593829d628","ios":"levelo://app?vid=79b7db10-4eec-40c9-8d7a-ed593829d628"},"vehicle_type_id":"4","last_reported":1761462557,"current_range_meters":3600,"station_id":"ce4bhb12rcd13ifvqem0","pricing_plan_id":"cebpf4jnsgd1na2vs0mg"},{"bike_id":"bc82830f-5bcb-4e13-9365-9e42ff6e9b20","system_id":"levelo_inurba_marseille","lat":43.27216,"lon":5.39173,"is_reserved":false,"is_disabled":false,"rental_uris":{"android":"levelo://app?vid=bc82830f-5bcb-4e13-9365-9e42ff6e9b20","ios":"levelo://app?vid=bc82830f-5bcb-4e13-9365-9e42ff6e9b20"},"vehicle_type_id":"4","last_reported":1761462557,"current_range_meters":3600,"station_id":"ce4bhhp2rcd13ifvqfm0","pricing_plan_id":"cebpf4jnsgd1na2vs0mg"},{"bike_id":"cdfb7327-90fa-4772-b32e-4303c6a3ff45","system_id":"levelo_inurba_marseille","lat":43.24388,"lon":5.37064,"is_reserved":false,"is_disabled":false,"rental_uris":{"android":"levelo://app?vid=cdfb7327-90fa-4772-b32e-4303c6a3ff45","ios":"levelo://app?vid=cdfb7327-90fa-4772-b32e-4303c6a3ff45"},"vehicle_type_id":"4","last_reported":1761462557,"current_range_meters":4000,"station_id":"ce4bhhh2rcd13ifvqfk0","pricing_plan_id":"cebpf4jnsgd1na2vs0mg"},{"bike_id":"2ac32ba2-91a2-4a18-983f-e02eddf58cab","system_id":"levelo_inurba_marseille","lat":43.27914,"lon":5.39587,"is_reserved":false,"is_disabled":false,"rental_uris":{"android":"levelo://app?vid=2ac32ba2-91a2-4a18-983f-e02eddf58cab","ios":"levelo://app?vid=2ac32ba2-91a2-4a18-983f-e02eddf58cab"},"vehicle_type_id":"4","last_reported":1761462557,"current_range_meters":4000,"station_id":"ce4bhf92rcd13ifvqf40","pricing_plan_id":"cebpf4jnsgd1na2vs0mg"},{"bike_id":"139d020b-78f9-452a-b9f6-07a4ecc161b4","system_id":"levelo_inurba_marseille","lat":43.245437,"lon":5.395235,"is_reserved":false,"is_disabled":false,"rental_uris":{"android":"levelo://app?vid=139d020b-78f9-452a-b9f6-07a4ecc161b4","ios":"levelo://app?vid=139d020b-78f9-452a-b9f6-07a4ecc161b4"},"vehicle_type_id":"4","last_reported":1761462557,"current_range_meters":4000,"station_id":"ce4bhlp2rcd13ifvqgjg","pricing_plan_id":"cebpf4jnsgd1na2vs0mg"},{"bike_id":"af37cf42-0c62-43d0-bb3a-42bf13c7a169","system_id":"levelo_inurba_marseille","lat":43.279271,"lon":5.395818,"is_reserved":false,"is_disabled":false,"rental_uris":{"android":"levelo://app?vid=af37cf42-0c62-43d0-bb3a-42bf13c7a169","ios":"levelo://app?vid=af37cf42-0c62-43d0-bb3a-42bf13c7a169"},"vehicle_type_id":"4","last_reported":1761462557,"current_range_meters":4000,"station_id":"ce4bhf92rcd13ifvqf40","pricing_plan_id":"cebpf4jnsgd1na2vs0mg"},{"bike_id":"f97c0dc2-7b8a-4617-9b00-119e60b0647a","system_id":"levelo_inurba_marseille","lat":43.316954,"lon":5.377604,"is_reserved":false,"is_disabled":false,"rental_uris":{"android":"levelo://app?vid=f97c0dc2-7b8a-4617-9b00-119e60b0647a","ios":"levelo://app?vid=f97c0dc2-7b8a-4617-9b00-119e60b0647a"},"vehicle_type_id":"4","last_reported":1761462557,"current_range_meters":5600,"station_id":"ce4bgth2rcd13ifvqch0","pricing_plan_id":"cebpf4jnsgd1na2vs0mg"},{"bike_id":"4cc0edfc-ff46-4c96-9438-209e9afb380b","system_id":"levelo_inurba_marseille","lat":43.282268,"lon":5.372576,"is_reserved":false,"is_disabled":false,"rental_uris":{"android":"levelo://app?vid=4cc0edfc-ff46-4c96-9438-209e9afb380b","ios":"levelo://app?vid=4cc0edfc-ff46-4c96-9438-209e9afb380b"},"vehicle_type_id":"4","last_reported":1761462557,"current_range_meters":5600,"station_id":"","pricing_plan_id":"cebpf4jnsgd1na2vs0mg"},{"bike_id":"69fbf5d7-a9e3-4bf6-a8f2-00d5422c6837","system_id":"levelo_inurba_marseille","lat":43.25092,"lon":5.39544,"is_reserved":false,"is_disabled":false,"rental_uris":{"android":"levelo://app?vid=69fbf5d7-a9e3-4bf6-a8f2-00d5422c6837","ios":"levelo://app?vid=69fbf5d7-a9e3-4bf6-a8f2-00d5422c6837"},"vehicle_type_id":"4","last_reported":1761462557,"current_range_meters":5600,"station_id":"ce4bhm12rcd13ifvqgkg","pricing_plan_id":"cebpf4jnsgd1na2vs0mg"},{"bike_id":"e35e1247-2ec0-4206-a360-6aaa534a130f","system_id":"levelo_inurba_marseille","lat":43.28488,"lon":5.48372,"is_reserved":false,"is_disabled":false,"rental_uris":{"android":"levelo://app?vid=e35e1247-2ec0-4206-a360-6aaa534a130f","ios":"levelo://app?vid=e35e1247-2ec0-4206-a360-6aaa534a130f"},"vehicle_type_id":"4","last_reported":1761462557,"current_range_meters":5600,"station_id":"st_d3svhcjqgbts73a3dn0g","pricing_plan_id":"cebpf4jnsgd1na2vs0mg"},{"bike_id":"822da2d3-fcf8-484b-86dc-5443dae6d3c4","system_id":"levelo_inurba_marseille","lat":43.237782,"lon":5.366301,"is_reserved":false,"is_disabled":false,"rental_uris":{"android":"levelo://app?vid=822da2d3-fcf8-484b-86dc-5443dae6d3c4","ios":"levelo://app?vid=822da2d3-fcf8-484b-86dc-5443dae6d3c4"},"vehicle_type_id":"4","last_reported":1761462557,"current_range_meters":5600,"station_id":"st_d3nk18o9ro0c73en2l3g","pricing_plan_id":"cebpf4jnsgd1na2vs0mg"},{"bike_id":"b7f21f4f-9a32-4271-ae0d-8bec4a96e257","system_id":"levelo_inurba_marseille","lat":43.30594,"lon":5.37242,"is_reserved":false,"is_disabled":false,"rental_uris":{"android":"levelo://app?vid=b7f21f4f-9a32-4271-ae0d-8bec4a96e257","ios":"levelo://app?vid=b7f21f4f-9a32-4271-ae0d-8bec4a96e257"},"vehicle_type_id":"4","last_reported":1761462557,"current_range_meters":6000,"station_id":"ce4bgqh2rcd13ifvqc4g","pricing_plan_id":"cebpf4jnsgd1na2vs0mg"},{"bike_id":"5f9debc0-c360-4a2e-b517-592e9a0c2818","system_id":"levelo_inurba_marseille","lat":43.329407,"lon":5.427743,"is_reserved":false,"is_disabled":false,"rental_uris":{"android":"levelo://app?vid=5f9debc0-c360-4a2e-b517-592e9a0c2818","ios":"levelo://app?vid=5f9debc0-c360-4a2e-b517-592e9a0c2818"},"vehicle_type_id":"4","last_reported":1761462557,"current_range_meters":6000,"station_id":"","pricing_plan_id":"cebpf4jnsgd1na2vs0mg"},{"bike_id":"b3160317-0963-48d9-91d8-043b1042fa86","system_id":"levelo_inurba_marseille","lat":43.26908,"lon":5.39286,"is_reserved":false,"is_disabled":false,"rental_uris":{"android":"levelo://app?vid=b3160317-0963-48d9-91d8-043b1042fa86","ios":"levelo://app?vid=b3160317-0963-48d9-91d8-043b1042fa86"},"vehicle_type_id":"4","last_reported":1761462557,"current_range_meters":6000,"station_id":"","pricing_plan_id":"cebpf4jnsgd1na2vs0mg"},{"bike_id":"9350e66e-1bd1-439d-9cc0-822125878999","system_id":"levelo_inurba_marseille","lat":43.297566,"lon":5.427832,"is_reserved":false,"is_disabled":false,"rental_uris":{"android":"levelo://app?vid=9350e66e-1bd1-439d-9cc0-822125878999","ios":"levelo://app?vid=9350e66e-1bd1-439d-9cc0-822125878999"},"vehicle_type_id":"4","last_reported":1761462557,"current_range_meters":6000,"station_id":"st_d3md5207bmas73dh9klg","pricing_plan_id":"cebpf4jnsgd1na2vs0mg"},{"bike_id":"c97e2da3-f938-4bb6-a99e-7041ad969b33","system_id":"levelo_inurba_marseille","lat":43.28583,"lon":5.39918,"is_reserved":false,"is_disabled":false,"rental_uris":{"android":"levelo://app?vid=c97e2da3-f938-4bb6-a99e-7041ad969b33","ios":"levelo://app?vid=c97e2da3-f938-4bb6-a99e-7041ad969b33"},"vehicle_type_id":"4","last_reported":1761462557,"current_range_meters":6400,"station_id":"","pricing_plan_id":"cebpf4jnsgd1na2vs0mg"},{"bike_id":"ce4cbc8c-f134-4256-a32e-1f00470425f1","system_id":"levelo_inurba_marseille","lat":43.303186,"lon":5.404407,"is_reserved":false,"is_disabled":false,"rental_uris":{"android":"levelo://app?vid=ce4cbc8c-f134-4256-a32e-1f00470425f1","ios":"levelo://app?vid=ce4cbc8c-f134-4256-a32e-1f00470425f1"},"vehicle_type_id":"4","last_reported":1761462557,"current_range_meters":6400,"station_id":"ce4bh012rcd13ifvqd10","pricing_plan_id":"cebpf4jnsgd1na2vs0mg"},{"bike_id":"f94e0d49-4040-4d4a-b108-76d55893ed0c","system_id":"levelo_inurba_marseille","lat":43.29028,"lon":5.39964,"is_reserved":false,"is_disabled":false,"rental_uris":{"android":"levelo://app?vid=f94e0d49-4040-4d4a-b108-76d55893ed0c","ios":"levelo://app?vid=f94e0d49-4040-4d4a-b108-76d55893ed0c"},"vehicle_type_id":"4","last_reported":1761462557,"current_range_meters":6400,"station_id":"ce4bh392rcd13ifvqdm0","pricing_plan_id":"cebpf4jnsgd1na2vs0mg"},{"bike_id":"120ff619-a55e-400f-961f-a43081db1a2f","system_id":"levelo_inurba_marseille","lat":43.29892,"lon":5.436643,"is_reserved":false,"is_disabled":false,"rental_uris":{"android":"levelo://app?vid=120ff619-a55e-400f-961f-a43081db1a2f","ios":"levelo://app?vid=120ff619-a55e-400f-961f-a43081db1a2f"},"vehicle_type_id":"4","last_reported":1761462557,"current_range_meters":6800,"station_id":"ce4bhpp2rcd13ifvqhfg","pricing_plan_id":"cebpf4jnsgd1na2vs0mg"},{"bike_id":"af0c9ba3-0f23-49a2-a4bb-9a3b0b688705","system_id":"levelo_inurba_marseille","lat":43.282686,"lon":5.350787,"is_reserved":false,"is_disabled":false,"rental_uris":{"android":"levelo://app?vid=af0c9ba3-0f23-49a2-a4bb-9a3b0b688705","ios":"levelo://app?vid=af0c9ba3-0f23-49a2-a4bb-9a3b0b688705"},"vehicle_type_id":"4","last_reported":1761462557,"current_range_meters":6800,"station_id":"ce4bhbp2rcd13ifvqerg","pricing_plan_id":"cebpf4jnsgd1na2vs0mg"},{"bike_id":"6398fd05-47e5-41f8-95bf-116d17d1d757","system_id":"levelo_inurba_marseille","lat":43.292603,"lon":5.384447,"is_reserved":false,"is_disabled":false,"rental_uris":{"android":"levelo://app?vid=6398fd05-47e5-41f8-95bf-116d17d1d757","ios":"levelo://app?vid=6398fd05-47e5-41f8-95bf-116d17d1d757"},"vehicle_type_id":"4","last_reported":1761462557,"current_range_meters":6800,"station_id":"","pricing_plan_id":"cebpf4jnsgd1na2vs0mg"},{"bike_id":"fa063608-29c2-42ab-95b5-2fc82231eea9","system_id":"levelo_inurba_marseille","lat":43.211962,"lon":5.350773,"is_reserved":false,"is_disabled":true,"rental_uris":{"android":"levelo://app?vid=fa063608-29c2-42ab-95b5-2fc82231eea9","ios":"levelo://app?vid=fa063608-29c2-42ab-95b5-2fc82231eea9"},"vehicle_type_id":"4","last_reported":1761462557,"current_range_meters":6800,"station_id":"st_cvj6sg6p6f1abm77japg","pricing_plan_id":"cebpf4jnsgd1na2vs0mg"},{"bike_id":"4f5c5045-2f2c-4ab7-ad8b-eeba1d52fe66","system_id":"levelo_inurba_marseille","lat":43.310813,"lon":5.37478,"is_reserved":false,"is_disabled":false,"rental_uris":{"android":"levelo://app?vid=4f5c5045-2f2c-4ab7-ad8b-eeba1d52fe66","ios":"levelo://app?vid=4f5c5045-2f2c-4ab7-ad8b-eeba1d52fe66"},"vehicle_type_id":"4","last_reported":1761462557,"current_range_meters":7200,"station_id":"","pricing_plan_id":"cebpf4jnsgd1na2vs0mg"},{"bike_id":"6d748f3f-9b78-4557-9b71-13da24fa702d","system_id":"levelo_inurba_marseille","lat":43.24691,"lon":5.38141,"is_reserved":false,"is_disabled":false,"rental_uris":{"android":"levelo://app?vid=6d748f3f-9b78-4557-9b71-13da24fa702d","ios":"levelo://app?vid=6d748f3f-9b78-4557-9b71-13da24fa702d"},"vehicle_type_id":"4","last_reported":1761462557,"current_range_meters":7200,"station_id":"ce4bhih2rcd13ifvqfr0","pricing_plan_id":"cebpf4jnsgd1na2vs0mg"},{"bike_id":"e94f57f2-601c-4cad-a187-6e953770aa25","system_id":"levelo_inurba_marseille","lat":43.312122,"lon":5.37854,"is_reserved":false,"is_disabled":false,"rental_uris":{"android":"levelo://app?vid=e94f57f2-601c-4cad-a187-6e953770aa25","ios":"levelo://app?vid=e94f57f2-601c-4cad-a187-6e953770aa25"},"vehicle_type_id":"4","last_reported":1761462557,"current_range_meters":7200,"station_id":"","pricing_plan_id":"cebpf4jnsgd1na2vs0mg"},{"bike_id":"cfb6d980-a1ae-441f-a504-92186a8c75da","system_id":"levelo_inurba_marseille","lat":43.3064,"lon":5.37335,"is_reserved":false,"is_disabled":false,"rental_uris":{"android":"levelo://app?vid=cfb6d980-a1ae-441f-a504-92186a8c75da","ios":"levelo://app?vid=cfb6d980-a1ae-441f-a504-92186a8c75da"},"vehicle_type_id":"4","last_reported":1761462557,"current_range_meters":7200,"station_id":"","pricing_plan_id":"cebpf4jnsgd1na2vs0mg"},{"bike_id":"2b08430f-3826-4249-8325-53b3985c5d73","system_id":"levelo_inurba_marseille","lat":43.278254,"lon":5.414737,"is_reserved":false,"is_disabled":false,"rental_uris":{"android":"levelo://app?vid=2b08430f-3826-4249-8325-53b3985c5d73","ios":"levelo://app?vid=2b08430f-3826-4249-8325-53b3985c5d73"},"vehicle_type_id":"4","last_reported":1761462557,"current_range_meters":8000,"station_id":"","pricing_plan_id":"cebpf4jnsgd1na2vs0mg"},{"bike_id":"63607eb3-248e-4001-9ec1-0690f1f9728e","system_id":"levelo_inurba_marseille","lat":43.262122,"lon":5.374455,"is_reserved":false,"is_disabled":false,"rental_uris":{"android":"levelo://app?vid=63607eb3-248e-4001-9ec1-0690f1f9728e","ios":"levelo://app?vid=63607eb3-248e-4001-9ec1-0690f1f9728e"},"vehicle_type_id":"4","last_reported":1761462557,"current_range_meters":8000,"station_id":"ce4bhgp2rcd13ifvqfc0","pricing_plan_id":"cebpf4jnsgd1na2vs0mg"},{"bike_id":"87c5eadd-186c-4492-b8a9-66bf74147c4e","system_id":"levelo_inurba_marseille","lat":43.27056,"lon":5.40255,"is_reserved":false,"is_disabled":false,"rental_uris":{"android":"levelo://app?vid=87c5eadd-186c-4492-b8a9-66bf74147c4e","ios":"levelo://app?vid=87c5eadd-186c-4492-b8a9-66bf74147c4e"},"vehicle_type_id":"4","last_reported":1761462557,"current_range_meters":8000,"station_id":"ce4bhk92rcd13ifvqgc0","pricing_plan_id":"cebpf4jnsgd1na2vs0mg"},{"bike_id":"5334db16-532d-447f-bed6-9cfa8d288895","system_id":"levelo_inurba_marseille","lat":43.253644,"lon":5.416142,"is_reserved":false,"is_disabled":false,"rental_uris":{"android":"levelo://app?vid=5334db16-532d-447f-bed6-9cfa8d288895","ios":"levelo://app?vid=5334db16-532d-447f-bed6-9cfa8d288895"},"vehicle_type_id":"4","last_reported":1761462557,"current_range_meters":8400,"station_id":"","pricing_plan_id":"cebpf4jnsgd1na2vs0mg"},{"bike_id":"7818236f-a5a6-4b5f-8f2d-4546cbb27187","system_id":"levelo_inurba_marseille","lat":43.27979,"lon":5.41666,"is_reserved":false,"is_disabled":false,"rental_uris":{"android":"levelo://app?vid=7818236f-a5a6-4b5f-8f2d-4546cbb27187","ios":"levelo://app?vid=7818236f-a5a6-4b5f-8f2d-4546cbb27187"},"vehicle_type_id":"4","last_reported":1761462557,"current_range_meters":8400,"station_id":"ce4bho12rcd13ifvqh1g","pricing_plan_id":"cebpf4jnsgd1na2vs0mg"},{"bike_id":"2ac8257c-304a-42bd-af2a-b2d558ccfb36","system_id":"levelo_inurba_marseille","lat":43.27048,"lon":5.40257,"is_reserved":false,"is_disabled":false,"rental_uris":{"android":"levelo://app?vid=2ac8257c-304a-42bd-af2a-b2d558ccfb36","ios":"levelo://app?vid=2ac8257c-304a-42bd-af2a-b2d558ccfb36"},"vehicle_type_id":"4","last_reported":1761462557,"current_range_meters":8400,"station_id":"ce4bhk92rcd13ifvqgc0","pricing_plan_id":"cebpf4jnsgd1na2vs0mg"},{"bike_id":"51b614d1-6dfe-4e67-9a5e-bfd8acf52d94","system_id":"levelo_inurba_marseille","lat":43.30131,"lon":5.38796,"is_reserved":false,"is_disabled":true,"rental_uris":{"android":"levelo://app?vid=51b614d1-6dfe-4e67-9a5e-bfd8acf52d94","ios":"levelo://app?vid=51b614d1-6dfe-4e67-9a5e-bfd8acf52d94"},"vehicle_type_id":"4","last_reported":1761462557,"current_range_meters":8400,"station_id":"ce4bghh2rcd13ifvqb60","pricing_plan_id":"cebpf4jnsgd1na2vs0mg"},{"bike_id":"a35a4922-b803-4cd9-8623-7e895c294787","system_id":"levelo_inurba_marseille","lat":43.298093,"lon":5.382435,"is_reserved":false,"is_disabled":true,"rental_uris":{"android":"levelo://app?vid=a35a4922-b803-4cd9-8623-7e895c294787","ios":"levelo://app?vid=a35a4922-b803-4cd9-8623-7e895c294787"},"vehicle_type_id":"4","last_reported":1761462557,"current_range_meters":8400,"station_id":"","pricing_plan_id":"cebpf4jnsgd1na2vs0mg"},{"bike_id":"7cd91938-3219-470e-835d-7418891d9874","system_id":"levelo_inurba_marseille","lat":43.265553,"lon":5.372887,"is_reserved":false,"is_disabled":false,"rental_uris":{"android":"levelo://app?vid=7cd91938-3219-470e-835d-7418891d9874","ios":"levelo://app?vid=7cd91938-3219-470e-835d-7418891d9874"},"vehicle_type_id":"4","last_reported":1761462557,"current_range_meters":8400,"station_id":"ce4bhg12rcd13ifvqf70","pricing_plan_id":"cebpf4jnsgd1na2vs0mg"},{"bike_id":"3289c138-5cfe-4438-99e3-8b3c8633c055","system_id":"levelo_inurba_marseille","lat":43.2962,"lon":5.40621,"is_reserved":false,"is_disabled":false,"rental_uris":{"android":"levelo://app?vid=3289c138-5cfe-4438-99e3-8b3c8633c055","ios":"levelo://app?vid=3289c138-5cfe-4438-99e3-8b3c8633c055"},"vehicle_type_id":"4","last_reported":1761462557,"current_range_meters":8800,"station_id":"ce4bh0h2rcd13ifvqd60","pricing_plan_id":"cebpf4jnsgd1na2vs0mg"},{"bike_id":"9d964ec4-c537-4f1d-b21c-451d3f46b1bf","system_id":"levelo_inurba_marseille","lat":43.298952,"lon":5.378825,"is_reserved":false,"is_disabled":false,"rental_uris":{"android":"levelo://app?vid=9d964ec4-c537-4f1d-b21c-451d3f46b1bf","ios":"levelo://app?vid=9d964ec4-c537-4f1d-b21c-451d3f46b1bf"},"vehicle_type_id":"4","last_reported":1761462557,"current_range_meters":8800,"station_id":"","pricing_plan_id":"cebpf4jnsgd1na2vs0mg"},{"bike_id":"b271dec7-e9c0-4031-a78b-d3a50b11d54a","system_id":"levelo_inurba_marseille","lat":43.286786,"lon":5.412601,"is_reserved":false,"is_disabled":false,"rental_uris":{"android":"levelo://app?vid=b271dec7-e9c0-4031-a78b-d3a50b11d54a","ios":"levelo://app?vid=b271dec7-e9c0-4031-a78b-d3a50b11d54a"},"vehicle_type_id":"4","last_reported":1761462557,"current_range_meters":8800,"station_id":"","pricing_plan_id":"cebpf4jnsgd1na2vs0mg"},{"bike_id":"8be6a47c-9542-4fed-8109-f6d91a0f2b3f","system_id":"levelo_inurba_marseille","lat":43.29174,"lon":5.37161,"is_reserved":false,"is_disabled":false,"rental_uris":{"android":"levelo://app?vid=8be6a47c-9542-4fed-8109-f6d91a0f2b3f","ios":"levelo://app?vid=8be6a47c-9542-4fed-8109-f6d91a0f2b3f"},"vehicle_type_id":"4","last_reported":1761462557,"current_range_meters":9200,"station_id":"ce4bha92rcd13ifvqeh0","pricing_plan_id":"cebpf4jnsgd1na2vs0mg"},{"bike_id":"dab36927-4328-48fa-bffb-145a737de07e","system_id":"levelo_inurba_marseille","lat":43.30794,"lon":5.43532,"is_reserved":false,"is_disabled":true,"rental_uris":{"android":"levelo://app?vid=dab36927-4328-48fa-bffb-145a737de07e","ios":"levelo://app?vid=dab36927-4328-48fa-bffb-145a737de07e"},"vehicle_type_id":"4","last_reported":1761462557,"current_range_meters":9600,"station_id":"ce4bhph2rcd13ifvqheg","pricing_plan_id":"cebpf4jnsgd1na2vs0mg"},{"bike_id":"5b91766d-91d0-4602-8be6-6a369c10831e","system_id":"levelo_inurba_marseille","lat":43.2379,"lon":5.36621,"is_reserved":false,"is_disabled":false,"rental_uris":{"android":"levelo://app?vid=5b91766d-91d0-4602-8be6-6a369c10831e","ios":"levelo://app?vid=5b91766d-91d0-4602-8be6-6a369c10831e"},"vehicle_type_id":"4","last_reported":1761462557,"current_range_meters":9600,"station_id":"st_d3nk18o9ro0c73en2l3g","pricing_plan_id":"cebpf4jnsgd1na2vs0mg"},{"bike_id":"f368b25a-4d02-443d-abea-6209d0c00b02","system_id":"levelo_inurba_marseille","lat":43.29641,"lon":5.37876,"is_reserved":false,"is_disabled":false,"rental_uris":{"android":"levelo://app?vid=f368b25a-4d02-443d-abea-6209d0c00b02","ios":"levelo://app?vid=f368b25a-4d02-443d-abea-6209d0c00b02"},"vehicle_type_id":"4","last_reported":1761462557,"current_range_meters":9600,"station_id":"","pricing_plan_id":"cebpf4jnsgd1na2vs0mg"},{"bike_id":"43117888-69d1-4bc6-a73a-697554e4a08e","system_id":"levelo_inurba_marseille","lat":43.252553,"lon":5.377999,"is_reserved":false,"is_disabled":false,"rental_uris":{"android":"levelo://app?vid=43117888-69d1-4bc6-a73a-697554e4a08e","ios":"levelo://app?vid=43117888-69d1-4bc6-a73a-697554e4a08e"},"vehicle_type_id":"4","last_reported":1761462557,"current_range_meters":9600,"station_id":"","pricing_plan_id":"cebpf4jnsgd1na2vs0mg"},{"bike_id":"c004ca58-fa04-42cb-af70-2d846e3067b7","system_id":"levelo_inurba_marseille","lat":43.27808,"lon":5.40735,"is_reserved":false,"is_disabled":false,"rental_uris":{"android":"levelo://app?vid=c004ca58-fa04-42cb-af70-2d846e3067b7","ios":"levelo://app?vid=c004ca58-fa04-42cb-af70-2d846e3067b7"},"vehicle_type_id":"4","last_reported":1761462557,"current_range_meters":9600,"station_id":"ce4bhnh2rcd13ifvqgtg","pricing_plan_id":"cebpf4jnsgd1na2vs0mg"},{"bike_id":"bb27bfe2-5f13-4832-a5f4-33677ca2d5b0","system_id":"levelo_inurba_marseille","lat":43.26215,"lon":5.37445,"is_reserved":false,"is_disabled":false,"rental_uris":{"android":"levelo://app?vid=bb27bfe2-5f13-4832-a5f4-33677ca2d5b0","ios":"levelo://app?vid=bb27bfe2-5f13-4832-a5f4-33677ca2d5b0"},"vehicle_type_id":"4","last_reported":1761462557,"current_range_meters":10000,"station_id":"ce4bhgp2rcd13ifvqfc0","pricing_plan_id":"cebpf4jnsgd1na2vs0mg"},{"bike_id":"6dcc0e11-8d8d-443e-8072-cb509a87c375","system_id":"levelo_inurba_marseille","lat":43.24996,"lon":5.38932,"is_reserved":false,"is_disabled":false,"rental_uris":{"android":"levelo://app?vid=6dcc0e11-8d8d-443e-8072-cb509a87c375","ios":"levelo://app?vid=6dcc0e11-8d8d-443e-8072-cb509a87c375"},"vehicle_type_id":"4","last_reported":1761462557,"current_range_meters":10000,"station_id":"ce4bhgp2rcd13ifvqfd0","pricing_plan_id":"cebpf4jnsgd1na2vs0mg"},{"bike_id":"2759f09f-c9d7-4af9-9d94-c01d2bb37c83","system_id":"levelo_inurba_marseille","lat":43.3016,"lon":5.38085,"is_reserved":false,"is_disabled":false,"rental_uris":{"android":"levelo://app?vid=2759f09f-c9d7-4af9-9d94-c01d2bb37c83","ios":"levelo://app?vid=2759f09f-c9d7-4af9-9d94-c01d2bb37c83"},"vehicle_type_id":"4","last_reported":1761462557,"current_range_meters":10000,"station_id":"ce4bgjp2rcd13ifvqbh0","pricing_plan_id":"cebpf4jnsgd1na2vs0mg"},{"bike_id":"3693a0c9-6156-4456-86fb-2d34ab5fde82","system_id":"levelo_inurba_marseille","lat":43.30419,"lon":5.412791,"is_reserved":false,"is_disabled":false,"rental_uris":{"android":"levelo://app?vid=3693a0c9-6156-4456-86fb-2d34ab5fde82","ios":"levelo://app?vid=3693a0c9-6156-4456-86fb-2d34ab5fde82"},"vehicle_type_id":"4","last_reported":1761462557,"current_range_meters":10000,"station_id":"ce4bhop2rcd13ifvqh8g","pricing_plan_id":"cebpf4jnsgd1na2vs0mg"},{"bike_id":"69535adb-866b-4d46-83ce-846cd2ddbb99","system_id":"levelo_inurba_marseille","lat":43.26546,"lon":5.3903,"is_reserved":false,"is_disabled":false,"rental_uris":{"android":"levelo://app?vid=69535adb-866b-4d46-83ce-846cd2ddbb99","ios":"levelo://app?vid=69535adb-866b-4d46-83ce-846cd2ddbb99"},"vehicle_type_id":"4","last_reported":1761462557,"current_range_meters":10000,"station_id":"ce4bhe12rcd13ifvqf30","pricing_plan_id":"cebpf4jnsgd1na2vs0mg"},{"bike_id":"0ab2d94e-78b2-43a7-83b4-3fa9105dc9b9","system_id":"levelo_inurba_marseille","lat":43.31278,"lon":5.40167,"is_reserved":false,"is_disabled":false,"rental_uris":{"android":"levelo://app?vid=0ab2d94e-78b2-43a7-83b4-3fa9105dc9b9","ios":"levelo://app?vid=0ab2d94e-78b2-43a7-83b4-3fa9105dc9b9"},"vehicle_type_id":"4","last_reported":1761462557,"current_range_meters":10800,"station_id":"ce4bh092rcd13ifvqd30","pricing_plan_id":"cebpf4jnsgd1na2vs0mg"},{"bike_id":"f74b73b5-86b9-4be7-98da-7ab4dc567bcc","system_id":"levelo_inurba_marseille","lat":43.310659,"lon":5.383485,"is_reserved":false,"is_disabled":false,"rental_uris":{"android":"levelo://app?vid=f74b73b5-86b9-4be7-98da-7ab4dc567bcc","ios":"levelo://app?vid=f74b73b5-86b9-4be7-98da-7ab4dc567bcc"},"vehicle_type_id":"4","last_reported":1761462557,"current_range_meters":10800,"station_id":"ce4bgv92rcd13ifvqcr0","pricing_plan_id":"cebpf4jnsgd1na2vs0mg"},{"bike_id":"f39598b4-29ff-4f21-be45-0a249ecf2690","system_id":"levelo_inurba_marseille","lat":43.279208,"lon":5.395802,"is_reserved":false,"is_disabled":false,"rental_uris":{"android":"levelo://app?vid=f39598b4-29ff-4f21-be45-0a249ecf2690","ios":"levelo://app?vid=f39598b4-29ff-4f21-be45-0a249ecf2690"},"vehicle_type_id":"4","last_reported":1761462557,"current_range_meters":10800,"station_id":"ce4bhf92rcd13ifvqf40","pricing_plan_id":"cebpf4jnsgd1na2vs0mg"},{"bike_id":"5ee9edc8-dc97-44a6-876e-7a09b34dd265","system_id":"levelo_inurba_marseille","lat":43.295493,"lon":5.422848,"is_reserved":false,"is_disabled":true,"rental_uris":{"android":"levelo://app?vid=5ee9edc8-dc97-44a6-876e-7a09b34dd265","ios":"levelo://app?vid=5ee9edc8-dc97-44a6-876e-7a09b34dd265"},"vehicle_type_id":"4","last_reported":1761462557,"current_range_meters":11200,"station_id":"ce4bhph2rcd13ifvqhdg","pricing_plan_id":"cebpf4jnsgd1na2vs0mg"},{"bike_id":"f3816400-7461-49f4-8637-c6da23ae7098","system_id":"levelo_inurba_marseille","lat":43.32233,"lon":5.38933,"is_reserved":false,"is_disabled":false,"rental_uris":{"android":"levelo://app?vid=f3816400-7461-49f4-8637-c6da23ae7098","ios":"levelo://app?vid=f3816400-7461-49f4-8637-c6da23ae7098"},"vehicle_type_id":"4","last_reported":1761462557,"current_range_meters":11200,"station_id":"","pricing_plan_id":"cebpf4jnsgd1na2vs0mg"},{"bike_id":"dabc5321-7dca-43de-9278-8cc0ee0db18c","system_id":"levelo_inurba_marseille","lat":43.257146,"lon":5.411068,"is_reserved":false,"is_disabled":false,"rental_uris":{"android":"levelo://app?vid=dabc5321-7dca-43de-9278-8cc0ee0db18c","ios":"levelo://app?vid=dabc5321-7dca-43de-9278-8cc0ee0db18c"},"vehicle_type_id":"4","last_reported":1761462557,"current_range_meters":11200,"station_id":"ce4bhkp2rcd13ifvqgd0","pricing_plan_id":"cebpf4jnsgd1na2vs0mg"},{"bike_id":"c97c0c7b-4d40-4177-9082-d869a13c90e0","system_id":"levelo_inurba_marseille","lat":43.29049,"lon":5.359069,"is_reserved":false,"is_disabled":false,"rental_uris":{"android":"levelo://app?vid=c97c0c7b-4d40-4177-9082-d869a13c90e0","ios":"levelo://app?vid=c97c0c7b-4d40-4177-9082-d869a13c90e0"},"vehicle_type_id":"4","last_reported":1761462557,"current_range_meters":11200,"station_id":"ce4bha92rcd13ifvqeg0","pricing_plan_id":"cebpf4jnsgd1na2vs0mg"},{"bike_id":"d3145067-3ca0-4e72-b01a-ef78c0959aad","system_id":"levelo_inurba_marseille","lat":43.302426,"lon":5.400632,"is_reserved":false,"is_disabled":true,"rental_uris":{"android":"levelo://app?vid=d3145067-3ca0-4e72-b01a-ef78c0959aad","ios":"levelo://app?vid=d3145067-3ca0-4e72-b01a-ef78c0959aad"},"vehicle_type_id":"4","last_reported":1761462557,"current_range_meters":11200,"station_id":"ce4bgvh2rcd13ifvqcs0","pricing_plan_id":"cebpf4jnsgd1na2vs0mg"},{"bike_id":"51f6b392-8d0d-41b5-9bf6-76a949608beb","system_id":"levelo_inurba_marseille","lat":43.25334,"lon":5.42165,"is_reserved":false,"is_disabled":false,"rental_uris":{"android":"levelo://app?vid=51f6b392-8d0d-41b5-9bf6-76a949608beb","ios":"levelo://app?vid=51f6b392-8d0d-41b5-9bf6-76a949608beb"},"vehicle_type_id":"4","last_reported":1761462557,"current_range_meters":11600,"station_id":"st_d2m65c5bi1j21697t3ng","pricing_plan_id":"cebpf4jnsgd1na2vs0mg"},{"bike_id":"21aa8fb6-424f-4556-a9a7-e8b397ae9d98","system_id":"levelo_inurba_marseille","lat":43.27053,"lon":5.40262,"is_reserved":false,"is_disabled":false,"rental_uris":{"android":"levelo://app?vid=21aa8fb6-424f-4556-a9a7-e8b397ae9d98","ios":"levelo://app?vid=21aa8fb6-424f-4556-a9a7-e8b397ae9d98"},"vehicle_type_id":"4","last_reported":1761462557,"current_range_meters":11600,"station_id":"ce4bhk92rcd13ifvqgc0","pricing_plan_id":"cebpf4jnsgd1na2vs0mg"},{"bike_id":"9e83dc36-0288-47ce-863a-762352d61e9d","system_id":"levelo_inurba_marseille","lat":43.26933,"lon":5.40257,"is_reserved":false,"is_disabled":false,"rental_uris":{"android":"levelo://app?vid=9e83dc36-0288-47ce-863a-762352d61e9d","ios":"levelo://app?vid=9e83dc36-0288-47ce-863a-762352d61e9d"},"vehicle_type_id":"4","last_reported":1761462557,"current_range_meters":12000,"station_id":"cjm6bp8fraef2m0cb0m0","pricing_plan_id":"cebpf4jnsgd1na2vs0mg"},{"bike_id":"ab097f15-aad4-45c1-872b-28a77488204a","system_id":"levelo_inurba_marseille","lat":43.29896,"lon":5.43669,"is_reserved":false,"is_disabled":false,"rental_uris":{"android":"levelo://app?vid=ab097f15-aad4-45c1-872b-28a77488204a","ios":"levelo://app?vid=ab097f15-aad4-45c1-872b-28a77488204a"},"vehicle_type_id":"4","last_reported":1761462557,"current_range_meters":12000,"station_id":"ce4bhpp2rcd13ifvqhfg","pricing_plan_id":"cebpf4jnsgd1na2vs0mg"},{"bike_id":"a0648f66-7c69-4e08-be25-a3fafba98199","system_id":"levelo_inurba_marseille","lat":43.284552,"lon":5.358774,"is_reserved":false,"is_disabled":false,"rental_uris":{"android":"levelo://app?vid=a0648f66-7c69-4e08-be25-a3fafba98199","ios":"levelo://app?vid=a0648f66-7c69-4e08-be25-a3fafba98199"},"vehicle_type_id":"4","last_reported":1761462557,"current_range_meters":12000,"station_id":"ce4bhah2rcd13ifvqei0","pricing_plan_id":"cebpf4jnsgd1na2vs0mg"},{"bike_id":"5dd04910-101f-4654-853d-341f84b98945","system_id":"levelo_inurba_marseille","lat":43.289976,"lon":5.371931,"is_reserved":false,"is_disabled":false,"rental_uris":{"android":"levelo://app?vid=5dd04910-101f-4654-853d-341f84b98945","ios":"levelo://app?vid=5dd04910-101f-4654-853d-341f84b98945"},"vehicle_type_id":"4","last_reported":1761462557,"current_range_meters":12000,"station_id":"","pricing_plan_id":"cebpf4jnsgd1na2vs0mg"},{"bike_id":"875ed736-33ec-4fd9-9ccc-07f69a3506cb","system_id":"levelo_inurba_marseille","lat":43.24543,"lon":5.39528,"is_reserved":false,"is_disabled":false,"rental_uris":{"android":"levelo://app?vid=875ed736-33ec-4fd9-9ccc-07f69a3506cb","ios":"levelo://app?vid=875ed736-33ec-4fd9-9ccc-07f69a3506cb"},"vehicle_type_id":"4","last_reported":1761462557,"current_range_meters":12000,"station_id":"ce4bhlp2rcd13ifvqgjg","pricing_plan_id":"cebpf4jnsgd1na2vs0mg"},{"bike_id":"3dae4e58-acf8-461b-bdbd-4903b9e132b1","system_id":"levelo_inurba_marseille","lat":43.31998,"lon":5.38175,"is_reserved":false,"is_disabled":false,"rental_uris":{"android":"levelo://app?vid=3dae4e58-acf8-461b-bdbd-4903b9e132b1","ios":"levelo://app?vid=3dae4e58-acf8-461b-bdbd-4903b9e132b1"},"vehicle_type_id":"4","last_reported":1761462557,"current_range_meters":12400,"station_id":"ce4bhr12rcd13ifvqhpg","pricing_plan_id":"cebpf4jnsgd1na2vs0mg"},{"bike_id":"3ad4d97d-497f-4447-841e-5d883753625f","system_id":"levelo_inurba_marseille","lat":43.282758,"lon":5.350795,"is_reserved":false,"is_disabled":false,"rental_uris":{"android":"levelo://app?vid=3ad4d97d-497f-4447-841e-5d883753625f","ios":"levelo://app?vid=3ad4d97d-497f-4447-841e-5d883753625f"},"vehicle_type_id":"4","last_reported":1761462557,"current_range_meters":12400,"station_id":"ce4bhbp2rcd13ifvqerg","pricing_plan_id":"cebpf4jnsgd1na2vs0mg"},{"bike_id":"ab35a204-84d2-4e3b-be4a-b95652d8c25f","system_id":"levelo_inurba_marseille","lat":43.245474,"lon":5.395186,"is_reserved":false,"is_disabled":false,"rental_uris":{"android":"levelo://app?vid=ab35a204-84d2-4e3b-be4a-b95652d8c25f","ios":"levelo://app?vid=ab35a204-84d2-4e3b-be4a-b95652d8c25f"},"vehicle_type_id":"4","last_reported":1761462557,"current_range_meters":12400,"station_id":"ce4bhlp2rcd13ifvqgjg","pricing_plan_id":"cebpf4jnsgd1na2vs0mg"},{"bike_id":"2d2b3a0d-5fe0-4130-853e-b3238745f69f","system_id":"levelo_inurba_marseille","lat":43.26565,"lon":5.390282,"is_reserved":false,"is_disabled":false,"rental_uris":{"android":"levelo://app?vid=2d2b3a0d-5fe0-4130-853e-b3238745f69f","ios":"levelo://app?vid=2d2b3a0d-5fe0-4130-853e-b3238745f69f"},"vehicle_type_id":"4","last_reported":1761462557,"current_range_meters":12400,"station_id":"ce4bhe12rcd13ifvqf30","pricing_plan_id":"cebpf4jnsgd1na2vs0mg"},{"bike_id":"1f26898c-e964-441f-b120-b6697144bb99","system_id":"levelo_inurba_marseille","lat":43.282288,"lon":5.388334,"is_reserved":false,"is_disabled":false,"rental_uris":{"android":"levelo://app?vid=1f26898c-e964-441f-b120-b6697144bb99","ios":"levelo://app?vid=1f26898c-e964-441f-b120-b6697144bb99"},"vehicle_type_id":"4","last_reported":1761462557,"current_range_meters":12400,"station_id":"ce4bhg12rcd13ifvqf80","pricing_plan_id":"cebpf4jnsgd1na2vs0mg"},{"bike_id":"a7b24216-4bc4-4eec-9601-98ed556867f7","system_id":"levelo_inurba_marseille","lat":43.27414,"lon":5.39413,"is_reserved":false,"is_disabled":false,"rental_uris":{"android":"levelo://app?vid=a7b24216-4bc4-4eec-9601-98ed556867f7","ios":"levelo://app?vid=a7b24216-4bc4-4eec-9601-98ed556867f7"},"vehicle_type_id":"4","last_reported":1761462557,"current_range_meters":12800,"station_id":"ce4bhdp2rcd13ifvqf20","pricing_plan_id":"cebpf4jnsgd1na2vs0mg"},{"bike_id":"29b38a45-3e07-40c1-b8b1-5f85b487711f","system_id":"levelo_inurba_marseille","lat":43.31233,"lon":5.40435,"is_reserved":false,"is_disabled":false,"rental_uris":{"android":"levelo://app?vid=29b38a45-3e07-40c1-b8b1-5f85b487711f","ios":"levelo://app?vid=29b38a45-3e07-40c1-b8b1-5f85b487711f"},"vehicle_type_id":"4","last_reported":1761462557,"current_range_meters":12800,"station_id":"","pricing_plan_id":"cebpf4jnsgd1na2vs0mg"},{"bike_id":"e4746a2d-9cd3-46c8-bf0e-3a10fdb16ced","system_id":"levelo_inurba_marseille","lat":43.323578,"lon":5.367329,"is_reserved":false,"is_disabled":false,"rental_uris":{"android":"levelo://app?vid=e4746a2d-9cd3-46c8-bf0e-3a10fdb16ced","ios":"levelo://app?vid=e4746a2d-9cd3-46c8-bf0e-3a10fdb16ced"},"vehicle_type_id":"4","last_reported":1761462557,"current_range_meters":12800,"station_id":"ce4bhsh2rcd13ifvqi2g","pricing_plan_id":"cebpf4jnsgd1na2vs0mg"},{"bike_id":"e5bd73c9-d2fd-429b-a719-e50033314cf7","system_id":"levelo_inurba_marseille","lat":43.22551,"lon":5.41635,"is_reserved":false,"is_disabled":false,"rental_uris":{"android":"levelo://app?vid=e5bd73c9-d2fd-429b-a719-e50033314cf7","ios":"levelo://app?vid=e5bd73c9-d2fd-429b-a719-e50033314cf7"},"vehicle_type_id":"4","last_reported":1761462557,"current_range_meters":12800,"station_id":"st_d2o4gvlbi1j2169b742g","pricing_plan_id":"cebpf4jnsgd1na2vs0mg"},{"bike_id":"e3c37ef6-fc8d-40f6-aaa7-3e531d410441","system_id":"levelo_inurba_marseille","lat":43.33692,"lon":5.39184,"is_reserved":false,"is_disabled":false,"rental_uris":{"android":"levelo://app?vid=e3c37ef6-fc8d-40f6-aaa7-3e531d410441","ios":"levelo://app?vid=e3c37ef6-fc8d-40f6-aaa7-3e531d410441"},"vehicle_type_id":"4","last_reported":1761462557,"current_range_meters":13600,"station_id":"ce4bhr92rcd13ifvqhsg","pricing_plan_id":"cebpf4jnsgd1na2vs0mg"},{"bike_id":"6b8486c6-4cdf-4138-b813-f784534597ae","system_id":"levelo_inurba_marseille","lat":43.32111,"lon":5.36746,"is_reserved":false,"is_disabled":false,"rental_uris":{"android":"levelo://app?vid=6b8486c6-4cdf-4138-b813-f784534597ae","ios":"levelo://app?vid=6b8486c6-4cdf-4138-b813-f784534597ae"},"vehicle_type_id":"4","last_reported":1761462557,"current_range_meters":13600,"station_id":"ce4bhrh2rcd13ifvqhug","pricing_plan_id":"cebpf4jnsgd1na2vs0mg"},{"bike_id":"900ab184-d5eb-4bfe-873b-8cdca2a52913","system_id":"levelo_inurba_marseille","lat":43.320994,"lon":5.367867,"is_reserved":false,"is_disabled":false,"rental_uris":{"android":"levelo://app?vid=900ab184-d5eb-4bfe-873b-8cdca2a52913","ios":"levelo://app?vid=900ab184-d5eb-4bfe-873b-8cdca2a52913"},"vehicle_type_id":"4","last_reported":1761462557,"current_range_meters":13600,"station_id":"ce4bhrh2rcd13ifvqhug","pricing_plan_id":"cebpf4jnsgd1na2vs0mg"},{"bike_id":"3e7fd0f5-a88a-485f-8077-3afcef15c8db","system_id":"levelo_inurba_marseille","lat":43.303187,"lon":5.40441,"is_reserved":false,"is_disabled":false,"rental_uris":{"android":"levelo://app?vid=3e7fd0f5-a88a-485f-8077-3afcef15c8db","ios":"levelo://app?vid=3e7fd0f5-a88a-485f-8077-3afcef15c8db"},"vehicle_type_id":"4","last_reported":1761462557,"current_range_meters":13600,"station_id":"ce4bh012rcd13ifvqd10","pricing_plan_id":"cebpf4jnsgd1na2vs0mg"},{"bike_id":"bf526c33-28dd-4a6a-a10d-b02e3c57c12e","system_id":"levelo_inurba_marseille","lat":43.239612,"lon":5.36634,"is_reserved":false,"is_disabled":false,"rental_uris":{"android":"levelo://app?vid=bf526c33-28dd-4a6a-a10d-b02e3c57c12e","ios":"levelo://app?vid=bf526c33-28dd-4a6a-a10d-b02e3c57c12e"},"vehicle_type_id":"4","last_reported":1761462557,"current_range_meters":13600,"station_id":"ce4bhi12rcd13ifvqfp0","pricing_plan_id":"cebpf4jnsgd1na2vs0mg"},{"bike_id":"2d37b67a-b91c-4fd1-8113-f0add5ec7d40","system_id":"levelo_inurba_marseille","lat":43.30887,"lon":5.39645,"is_reserved":false,"is_disabled":false,"rental_uris":{"android":"levelo://app?vid=2d37b67a-b91c-4fd1-8113-f0add5ec7d40","ios":"levelo://app?vid=2d37b67a-b91c-4fd1-8113-f0add5ec7d40"},"vehicle_type_id":"4","last_reported":1761462557,"current_range_meters":13600,"station_id":"ce4bh012rcd13ifvqcv0","pricing_plan_id":"cebpf4jnsgd1na2vs0mg"},{"bike_id":"bf725e26-be18-4372-84c1-2e0a157f0fbb","system_id":"levelo_inurba_marseille","lat":43.26921,"lon":5.40257,"is_reserved":false,"is_disabled":false,"rental_uris":{"android":"levelo://app?vid=bf725e26-be18-4372-84c1-2e0a157f0fbb","ios":"levelo://app?vid=bf725e26-be18-4372-84c1-2e0a157f0fbb"},"vehicle_type_id":"4","last_reported":1761462557,"current_range_meters":14000,"station_id":"cjm6bp8fraef2m0cb0m0","pricing_plan_id":"cebpf4jnsgd1na2vs0mg"},{"bike_id":"3cc54c1d-71ff-4f82-bf53-5c25775d2246","system_id":"levelo_inurba_marseille","lat":43.321089,"lon":5.367717,"is_reserved":false,"is_disabled":false,"rental_uris":{"android":"levelo://app?vid=3cc54c1d-71ff-4f82-bf53-5c25775d2246","ios":"levelo://app?vid=3cc54c1d-71ff-4f82-bf53-5c25775d2246"},"vehicle_type_id":"4","last_reported":1761462557,"current_range_meters":14000,"station_id":"ce4bhrh2rcd13ifvqhug","pricing_plan_id":"cebpf4jnsgd1na2vs0mg"},{"bike_id":"86bb99a4-3bed-453c-bdfd-4fd969cec0ce","system_id":"levelo_inurba_marseille","lat":43.26057,"lon":5.39409,"is_reserved":false,"is_disabled":false,"rental_uris":{"android":"levelo://app?vid=86bb99a4-3bed-453c-bdfd-4fd969cec0ce","ios":"levelo://app?vid=86bb99a4-3bed-453c-bdfd-4fd969cec0ce"},"vehicle_type_id":"4","last_reported":1761462557,"current_range_meters":14000,"station_id":"ce4bhh92rcd13ifvqfj0","pricing_plan_id":"cebpf4jnsgd1na2vs0mg"},{"bike_id":"3fbd66b1-e2a9-4be3-b923-94252387751e","system_id":"levelo_inurba_marseille","lat":43.27927,"lon":5.39585,"is_reserved":false,"is_disabled":false,"rental_uris":{"android":"levelo://app?vid=3fbd66b1-e2a9-4be3-b923-94252387751e","ios":"levelo://app?vid=3fbd66b1-e2a9-4be3-b923-94252387751e"},"vehicle_type_id":"4","last_reported":1761462557,"current_range_meters":14000,"station_id":"ce4bhf92rcd13ifvqf40","pricing_plan_id":"cebpf4jnsgd1na2vs0mg"},{"bike_id":"58e0f91f-720a-4899-88e5-a8dd612ceab2","system_id":"levelo_inurba_marseille","lat":43.30137,"lon":5.38082,"is_reserved":false,"is_disabled":false,"rental_uris":{"android":"levelo://app?vid=58e0f91f-720a-4899-88e5-a8dd612ceab2","ios":"levelo://app?vid=58e0f91f-720a-4899-88e5-a8dd612ceab2"},"vehicle_type_id":"4","last_reported":1761462557,"current_range_meters":14000,"station_id":"ce4bgjp2rcd13ifvqbh0","pricing_plan_id":"cebpf4jnsgd1na2vs0mg"},{"bike_id":"f72a00f1-1fed-4f6c-b4b5-8473dfdb4606","system_id":"levelo_inurba_marseille","lat":43.29681,"lon":5.40381,"is_reserved":false,"is_disabled":false,"rental_uris":{"android":"levelo://app?vid=f72a00f1-1fed-4f6c-b4b5-8473dfdb4606","ios":"levelo://app?vid=f72a00f1-1fed-4f6c-b4b5-8473dfdb4606"},"vehicle_type_id":"4","last_reported":1761462557,"current_range_meters":14000,"station_id":"","pricing_plan_id":"cebpf4jnsgd1na2vs0mg"},{"bike_id":"c0b81f28-bbba-4247-a74b-c55a34b31846","system_id":"levelo_inurba_marseille","lat":43.33258,"lon":5.41086,"is_reserved":false,"is_disabled":false,"rental_uris":{"android":"levelo://app?vid=c0b81f28-bbba-4247-a74b-c55a34b31846","ios":"levelo://app?vid=c0b81f28-bbba-4247-a74b-c55a34b31846"},"vehicle_type_id":"4","last_reported":1761462557,"current_range_meters":14400,"station_id":"","pricing_plan_id":"cebpf4jnsgd1na2vs0mg"},{"bike_id":"45590a6b-966e-4533-b809-efc51cc9687d","system_id":"levelo_inurba_marseille","lat":43.31085,"lon":5.42435,"is_reserved":false,"is_disabled":false,"rental_uris":{"android":"levelo://app?vid=45590a6b-966e-4533-b809-efc51cc9687d","ios":"levelo://app?vid=45590a6b-966e-4533-b809-efc51cc9687d"},"vehicle_type_id":"4","last_reported":1761462557,"current_range_meters":14400,"station_id":"ce4bhp92rcd13ifvqhag","pricing_plan_id":"cebpf4jnsgd1na2vs0mg"},{"bike_id":"131383a1-8a4f-43bc-87be-c4279527b101","system_id":"levelo_inurba_marseille","lat":43.28466,"lon":5.35886,"is_reserved":false,"is_disabled":false,"rental_uris":{"android":"levelo://app?vid=131383a1-8a4f-43bc-87be-c4279527b101","ios":"levelo://app?vid=131383a1-8a4f-43bc-87be-c4279527b101"},"vehicle_type_id":"4","last_reported":1761462557,"current_range_meters":14400,"station_id":"ce4bhah2rcd13ifvqei0","pricing_plan_id":"cebpf4jnsgd1na2vs0mg"},{"bike_id":"ef8701f2-8b95-4d10-ada3-a8b00599d2dc","system_id":"levelo_inurba_marseille","lat":43.29731,"lon":5.37928,"is_reserved":false,"is_disabled":false,"rental_uris":{"android":"levelo://app?vid=ef8701f2-8b95-4d10-ada3-a8b00599d2dc","ios":"levelo://app?vid=ef8701f2-8b95-4d10-ada3-a8b00599d2dc"},"vehicle_type_id":"4","last_reported":1761462557,"current_range_meters":14400,"station_id":"","pricing_plan_id":"cebpf4jnsgd1na2vs0mg"},{"bike_id":"41d45b45-3a52-4b5a-b2b3-1e62d5490ada","system_id":"levelo_inurba_marseille","lat":43.285401,"lon":5.440997,"is_reserved":false,"is_disabled":false,"rental_uris":{"android":"levelo://app?vid=41d45b45-3a52-4b5a-b2b3-1e62d5490ada","ios":"levelo://app?vid=41d45b45-3a52-4b5a-b2b3-1e62d5490ada"},"vehicle_type_id":"4","last_reported":1761462557,"current_range_meters":14400,"station_id":"st_d3j3df2ikq2c7380ej80","pricing_plan_id":"cebpf4jnsgd1na2vs0mg"},{"bike_id":"373e58f4-cc22-45cb-b231-110395df66e6","system_id":"levelo_inurba_marseille","lat":43.272163,"lon":5.391661,"is_reserved":false,"is_disabled":false,"rental_uris":{"android":"levelo://app?vid=373e58f4-cc22-45cb-b231-110395df66e6","ios":"levelo://app?vid=373e58f4-cc22-45cb-b231-110395df66e6"},"vehicle_type_id":"4","last_reported":1761462557,"current_range_meters":14800,"station_id":"ce4bhhp2rcd13ifvqfm0","pricing_plan_id":"cebpf4jnsgd1na2vs0mg"},{"bike_id":"b61c15e0-c19c-4445-b92d-6adef82d396f","system_id":"levelo_inurba_marseille","lat":43.279448,"lon":5.410487,"is_reserved":false,"is_disabled":false,"rental_uris":{"android":"levelo://app?vid=b61c15e0-c19c-4445-b92d-6adef82d396f","ios":"levelo://app?vid=b61c15e0-c19c-4445-b92d-6adef82d396f"},"vehicle_type_id":"4","last_reported":1761462557,"current_range_meters":14800,"station_id":"ce4bhnp2rcd13ifvqh0g","pricing_plan_id":"cebpf4jnsgd1na2vs0mg"},{"bike_id":"a19578d6-d951-4028-8fd3-5a6107e3816c","system_id":"levelo_inurba_marseille","lat":43.248068,"lon":5.374599,"is_reserved":false,"is_disabled":false,"rental_uris":{"android":"levelo://app?vid=a19578d6-d951-4028-8fd3-5a6107e3816c","ios":"levelo://app?vid=a19578d6-d951-4028-8fd3-5a6107e3816c"},"vehicle_type_id":"4","last_reported":1761462557,"current_range_meters":14800,"station_id":"ce4bhgh2rcd13ifvqfb0","pricing_plan_id":"cebpf4jnsgd1na2vs0mg"},{"bike_id":"e8a83a2f-bf08-41e3-a2e2-249149418233","system_id":"levelo_inurba_marseille","lat":43.25333,"lon":5.42168,"is_reserved":false,"is_disabled":false,"rental_uris":{"android":"levelo://app?vid=e8a83a2f-bf08-41e3-a2e2-249149418233","ios":"levelo://app?vid=e8a83a2f-bf08-41e3-a2e2-249149418233"},"vehicle_type_id":"4","last_reported":1761462557,"current_range_meters":14800,"station_id":"st_d2m65c5bi1j21697t3ng","pricing_plan_id":"cebpf4jnsgd1na2vs0mg"},{"bike_id":"a68c8946-fca1-4a4f-91c2-8fedf3b4c230","system_id":"levelo_inurba_marseille","lat":43.313627,"lon":5.385004,"is_reserved":false,"is_disabled":false,"rental_uris":{"android":"levelo://app?vid=a68c8946-fca1-4a4f-91c2-8fedf3b4c230","ios":"levelo://app?vid=a68c8946-fca1-4a4f-91c2-8fedf3b4c230"},"vehicle_type_id":"4","last_reported":1761462557,"current_range_meters":14800,"station_id":"ce4bgt92rcd13ifvqcf0","pricing_plan_id":"cebpf4jnsgd1na2vs0mg"},{"bike_id":"3da36b46-32f0-4723-8f3b-8cba39a84287","system_id":"levelo_inurba_marseille","lat":43.243846,"lon":5.370454,"is_reserved":false,"is_disabled":false,"rental_uris":{"android":"levelo://app?vid=3da36b46-32f0-4723-8f3b-8cba39a84287","ios":"levelo://app?vid=3da36b46-32f0-4723-8f3b-8cba39a84287"},"vehicle_type_id":"4","last_reported":1761462557,"current_range_meters":14800,"station_id":"ce4bhhh2rcd13ifvqfk0","pricing_plan_id":"cebpf4jnsgd1na2vs0mg"},{"bike_id":"ae6bf635-0651-4b2d-9e37-c2ac19adb437","system_id":"levelo_inurba_marseille","lat":43.30655,"lon":5.40077,"is_reserved":false,"is_disabled":false,"rental_uris":{"android":"levelo://app?vid=ae6bf635-0651-4b2d-9e37-c2ac19adb437","ios":"levelo://app?vid=ae6bf635-0651-4b2d-9e37-c2ac19adb437"},"vehicle_type_id":"4","last_reported":1761462557,"current_range_meters":14800,"station_id":"ce4bh112rcd13ifvqda0","pricing_plan_id":"cebpf4jnsgd1na2vs0mg"},{"bike_id":"e4ccce50-4824-4895-aa8c-033835526f23","system_id":"levelo_inurba_marseille","lat":43.3189,"lon":5.39992,"is_reserved":false,"is_disabled":false,"rental_uris":{"android":"levelo://app?vid=e4ccce50-4824-4895-aa8c-033835526f23","ios":"levelo://app?vid=e4ccce50-4824-4895-aa8c-033835526f23"},"vehicle_type_id":"4","last_reported":1761462557,"current_range_meters":14800,"station_id":"","pricing_plan_id":"cebpf4jnsgd1na2vs0mg"},{"bike_id":"12cefd40-c26f-402c-b50f-33cfb17b8e9f","system_id":"levelo_inurba_marseille","lat":43.2596,"lon":5.37541,"is_reserved":false,"is_disabled":false,"rental_uris":{"android":"levelo://app?vid=12cefd40-c26f-402c-b50f-33cfb17b8e9f","ios":"levelo://app?vid=12cefd40-c26f-402c-b50f-33cfb17b8e9f"},"vehicle_type_id":"4","last_reported":1761462557,"current_range_meters":15200,"station_id":"","pricing_plan_id":"cebpf4jnsgd1na2vs0mg"},{"bike_id":"6586bf90-b8c4-4eb8-89d5-5af30c464a58","system_id":"levelo_inurba_marseille","lat":43.287087,"lon":5.399766,"is_reserved":false,"is_disabled":false,"rental_uris":{"android":"levelo://app?vid=6586bf90-b8c4-4eb8-89d5-5af30c464a58","ios":"levelo://app?vid=6586bf90-b8c4-4eb8-89d5-5af30c464a58"},"vehicle_type_id":"4","last_reported":1761462557,"current_range_meters":15200,"station_id":"ce4bho92rcd13ifvqh3g","pricing_plan_id":"cebpf4jnsgd1na2vs0mg"},{"bike_id":"076b1675-da23-4da2-8566-0b033b3d5601","system_id":"levelo_inurba_marseille","lat":43.287031,"lon":5.399826,"is_reserved":false,"is_disabled":false,"rental_uris":{"android":"levelo://app?vid=076b1675-da23-4da2-8566-0b033b3d5601","ios":"levelo://app?vid=076b1675-da23-4da2-8566-0b033b3d5601"},"vehicle_type_id":"4","last_reported":1761462557,"current_range_meters":15200,"station_id":"ce4bho92rcd13ifvqh3g","pricing_plan_id":"cebpf4jnsgd1na2vs0mg"},{"bike_id":"e839176d-7771-4ced-80b2-427b45cc06c3","system_id":"levelo_inurba_marseille","lat":43.29525,"lon":5.37521,"is_reserved":false,"is_disabled":false,"rental_uris":{"android":"levelo://app?vid=e839176d-7771-4ced-80b2-427b45cc06c3","ios":"levelo://app?vid=e839176d-7771-4ced-80b2-427b45cc06c3"},"vehicle_type_id":"4","last_reported":1761462557,"current_range_meters":16000,"station_id":"ce4bgkp2rcd13ifvqbmg","pricing_plan_id":"cebpf4jnsgd1na2vs0mg"},{"bike_id":"33768696-a2d3-45cb-a560-e61f09030a44","system_id":"levelo_inurba_marseille","lat":43.28685,"lon":5.39979,"is_reserved":false,"is_disabled":false,"rental_uris":{"android":"levelo://app?vid=33768696-a2d3-45cb-a560-e61f09030a44","ios":"levelo://app?vid=33768696-a2d3-45cb-a560-e61f09030a44"},"vehicle_type_id":"4","last_reported":1761462557,"current_range_meters":16000,"station_id":"ce4bho92rcd13ifvqh3g","pricing_plan_id":"cebpf4jnsgd1na2vs0mg"},{"bike_id":"1c18cac1-a78c-48f3-8ede-93a5617120b1","system_id":"levelo_inurba_marseille","lat":43.324741,"lon":5.365681,"is_reserved":false,"is_disabled":false,"rental_uris":{"android":"levelo://app?vid=1c18cac1-a78c-48f3-8ede-93a5617120b1","ios":"levelo://app?vid=1c18cac1-a78c-48f3-8ede-93a5617120b1"},"vehicle_type_id":"4","last_reported":1761462557,"current_range_meters":16000,"station_id":"ce4bhs12rcd13ifvqhvg","pricing_plan_id":"cebpf4jnsgd1na2vs0mg"},{"bike_id":"67f8857f-0853-46d2-b9ef-96c5ce2639bc","system_id":"levelo_inurba_marseille","lat":43.23291,"lon":5.35089,"is_reserved":false,"is_disabled":false,"rental_uris":{"android":"levelo://app?vid=67f8857f-0853-46d2-b9ef-96c5ce2639bc","ios":"levelo://app?vid=67f8857f-0853-46d2-b9ef-96c5ce2639bc"},"vehicle_type_id":"4","last_reported":1761462557,"current_range_meters":16000,"station_id":"","pricing_plan_id":"cebpf4jnsgd1na2vs0mg"},{"bike_id":"1cacdbfe-6b31-4d5a-8eaf-0c098b9a978d","system_id":"levelo_inurba_marseille","lat":43.26928,"lon":5.38936,"is_reserved":false,"is_disabled":false,"rental_uris":{"android":"levelo://app?vid=1cacdbfe-6b31-4d5a-8eaf-0c098b9a978d","ios":"levelo://app?vid=1cacdbfe-6b31-4d5a-8eaf-0c098b9a978d"},"vehicle_type_id":"4","last_reported":1761462557,"current_range_meters":16000,"station_id":"ce4bhhh2rcd13ifvqfl0","pricing_plan_id":"cebpf4jnsgd1na2vs0mg"},{"bike_id":"e5aafa61-e384-4c69-800b-fe726c41fdc6","system_id":"levelo_inurba_marseille","lat":43.29976,"lon":5.38503,"is_reserved":false,"is_disabled":true,"rental_uris":{"android":"levelo://app?vid=e5aafa61-e384-4c69-800b-fe726c41fdc6","ios":"levelo://app?vid=e5aafa61-e384-4c69-800b-fe726c41fdc6"},"vehicle_type_id":"4","last_reported":1761462557,"current_range_meters":16000,"station_id":"ce4bgj92rcd13ifvqbd0","pricing_plan_id":"cebpf4jnsgd1na2vs0mg"},{"bike_id":"de5cece4-6186-4ccb-b70e-a25e8bd3fc86","system_id":"levelo_inurba_marseille","lat":43.337444,"lon":5.374475,"is_reserved":false,"is_disabled":false,"rental_uris":{"android":"levelo://app?vid=de5cece4-6186-4ccb-b70e-a25e8bd3fc86","ios":"levelo://app?vid=de5cece4-6186-4ccb-b70e-a25e8bd3fc86"},"vehicle_type_id":"4","last_reported":1761462557,"current_range_meters":16000,"station_id":"","pricing_plan_id":"cebpf4jnsgd1na2vs0mg"},{"bike_id":"731aeccc-0da2-4fe8-a5e2-94574eb41cd3","system_id":"levelo_inurba_marseille","lat":43.27828,"lon":5.39205,"is_reserved":false,"is_disabled":false,"rental_uris":{"android":"levelo://app?vid=731aeccc-0da2-4fe8-a5e2-94574eb41cd3","ios":"levelo://app?vid=731aeccc-0da2-4fe8-a5e2-94574eb41cd3"},"vehicle_type_id":"4","last_reported":1761462557,"current_range_meters":16400,"station_id":"ce4bhjp2rcd13ifvqga0","pricing_plan_id":"cebpf4jnsgd1na2vs0mg"},{"bike_id":"476ede32-cfdc-42f2-8cc1-233e266f9923","system_id":"levelo_inurba_marseille","lat":43.295699,"lon":5.37555,"is_reserved":false,"is_disabled":false,"rental_uris":{"android":"levelo://app?vid=476ede32-cfdc-42f2-8cc1-233e266f9923","ios":"levelo://app?vid=476ede32-cfdc-42f2-8cc1-233e266f9923"},"vehicle_type_id":"4","last_reported":1761462557,"current_range_meters":16400,"station_id":"","pricing_plan_id":"cebpf4jnsgd1na2vs0mg"},{"bike_id":"1ffe1259-bda0-45d2-bfd5-822026a61c98","system_id":"levelo_inurba_marseille","lat":43.25089,"lon":5.39527,"is_reserved":false,"is_disabled":false,"rental_uris":{"android":"levelo://app?vid=1ffe1259-bda0-45d2-bfd5-822026a61c98","ios":"levelo://app?vid=1ffe1259-bda0-45d2-bfd5-822026a61c98"},"vehicle_type_id":"4","last_reported":1761462557,"current_range_meters":16400,"station_id":"ce4bhm12rcd13ifvqgkg","pricing_plan_id":"cebpf4jnsgd1na2vs0mg"},{"bike_id":"8847af5d-c1ad-4d8d-a5c1-273c3b41c105","system_id":"levelo_inurba_marseille","lat":43.322454,"lon":5.41961,"is_reserved":false,"is_disabled":false,"rental_uris":{"android":"levelo://app?vid=8847af5d-c1ad-4d8d-a5c1-273c3b41c105","ios":"levelo://app?vid=8847af5d-c1ad-4d8d-a5c1-273c3b41c105"},"vehicle_type_id":"4","last_reported":1761462557,"current_range_meters":16400,"station_id":"","pricing_plan_id":"cebpf4jnsgd1na2vs0mg"},{"bike_id":"46b0db6c-35c8-470b-a45d-db7e7afa9bfd","system_id":"levelo_inurba_marseille","lat":43.284033,"lon":5.375137,"is_reserved":false,"is_disabled":true,"rental_uris":{"android":"levelo://app?vid=46b0db6c-35c8-470b-a45d-db7e7afa9bfd","ios":"levelo://app?vid=46b0db6c-35c8-470b-a45d-db7e7afa9bfd"},"vehicle_type_id":"4","last_reported":1761462557,"current_range_meters":16400,"station_id":"ce4bh412rcd13ifvqds0","pricing_plan_id":"cebpf4jnsgd1na2vs0mg"},{"bike_id":"80bbf991-6681-4970-b679-b420bff212f4","system_id":"levelo_inurba_marseille","lat":43.31114,"lon":5.37766,"is_reserved":false,"is_disabled":false,"rental_uris":{"android":"levelo://app?vid=80bbf991-6681-4970-b679-b420bff212f4","ios":"levelo://app?vid=80bbf991-6681-4970-b679-b420bff212f4"},"vehicle_type_id":"4","last_reported":1761462557,"current_range_meters":16400,"station_id":"ce4bgt92rcd13ifvqcg0","pricing_plan_id":"cebpf4jnsgd1na2vs0mg"},{"bike_id":"64b75b4a-3497-4861-8cc2-90dd62cd9f5e","system_id":"levelo_inurba_marseille","lat":43.294868,"lon":5.433038,"is_reserved":false,"is_disabled":false,"rental_uris":{"android":"levelo://app?vid=64b75b4a-3497-4861-8cc2-90dd62cd9f5e","ios":"levelo://app?vid=64b75b4a-3497-4861-8cc2-90dd62cd9f5e"},"vehicle_type_id":"4","last_reported":1761462557,"current_range_meters":16400,"station_id":"st_d3j5ugp08ojc73fj9d10","pricing_plan_id":"cebpf4jnsgd1na2vs0mg"},{"bike_id":"8d922c2e-fd1c-4861-a7c8-82dfdd23c009","system_id":"levelo_inurba_marseille","lat":43.24164,"lon":5.36379,"is_reserved":false,"is_disabled":false,"rental_uris":{"android":"levelo://app?vid=8d922c2e-fd1c-4861-a7c8-82dfdd23c009","ios":"levelo://app?vid=8d922c2e-fd1c-4861-a7c8-82dfdd23c009"},"vehicle_type_id":"4","last_reported":1761462557,"current_range_meters":16400,"station_id":"cpo36qri1sfpv3e86is0","pricing_plan_id":"cebpf4jnsgd1na2vs0mg"},{"bike_id":"2a5b7299-20c3-4378-bf5a-92d9cd0f3d4c","system_id":"levelo_inurba_marseille","lat":43.280286,"lon":5.369392,"is_reserved":false,"is_disabled":false,"rental_uris":{"android":"levelo://app?vid=2a5b7299-20c3-4378-bf5a-92d9cd0f3d4c","ios":"levelo://app?vid=2a5b7299-20c3-4378-bf5a-92d9cd0f3d4c"},"vehicle_type_id":"4","last_reported":1761462557,"current_range_meters":16400,"station_id":"ce4bha12rcd13ifvqef0","pricing_plan_id":"cebpf4jnsgd1na2vs0mg"},{"bike_id":"c124d4a0-9e47-48ec-ad7a-ea36eb6e5d35","system_id":"levelo_inurba_marseille","lat":43.243924,"lon":5.370546,"is_reserved":false,"is_disabled":false,"rental_uris":{"android":"levelo://app?vid=c124d4a0-9e47-48ec-ad7a-ea36eb6e5d35","ios":"levelo://app?vid=c124d4a0-9e47-48ec-ad7a-ea36eb6e5d35"},"vehicle_type_id":"4","last_reported":1761462557,"current_range_meters":16400,"station_id":"ce4bhhh2rcd13ifvqfk0","pricing_plan_id":"cebpf4jnsgd1na2vs0mg"},{"bike_id":"e8c9a1ee-ed6f-4541-9142-80413064a185","system_id":"levelo_inurba_marseille","lat":43.32363,"lon":5.388876,"is_reserved":false,"is_disabled":false,"rental_uris":{"android":"levelo://app?vid=e8c9a1ee-ed6f-4541-9142-80413064a185","ios":"levelo://app?vid=e8c9a1ee-ed6f-4541-9142-80413064a185"},"vehicle_type_id":"4","last_reported":1761462557,"current_range_meters":16400,"station_id":"ce4bhqp2rcd13ifvqhog","pricing_plan_id":"cebpf4jnsgd1na2vs0mg"},{"bike_id":"303bc768-d0f9-44e6-8009-cff3ec7da67d","system_id":"levelo_inurba_marseille","lat":43.27423,"lon":5.39415,"is_reserved":false,"is_disabled":false,"rental_uris":{"android":"levelo://app?vid=303bc768-d0f9-44e6-8009-cff3ec7da67d","ios":"levelo://app?vid=303bc768-d0f9-44e6-8009-cff3ec7da67d"},"vehicle_type_id":"4","last_reported":1761462557,"current_range_meters":16800,"station_id":"ce4bhdp2rcd13ifvqf20","pricing_plan_id":"cebpf4jnsgd1na2vs0mg"},{"bike_id":"ee63d3c4-f9ad-48dd-a91b-8e565e473a00","system_id":"levelo_inurba_marseille","lat":43.30131,"lon":5.431106,"is_reserved":false,"is_disabled":false,"rental_uris":{"android":"levelo://app?vid=ee63d3c4-f9ad-48dd-a91b-8e565e473a00","ios":"levelo://app?vid=ee63d3c4-f9ad-48dd-a91b-8e565e473a00"},"vehicle_type_id":"4","last_reported":1761462557,"current_range_meters":16800,"station_id":"st_d3js3co5814s73ftftug","pricing_plan_id":"cebpf4jnsgd1na2vs0mg"},{"bike_id":"af9e12e7-38b8-459b-8665-a09998ee41f3","system_id":"levelo_inurba_marseille","lat":43.24642,"lon":5.38924,"is_reserved":false,"is_disabled":false,"rental_uris":{"android":"levelo://app?vid=af9e12e7-38b8-459b-8665-a09998ee41f3","ios":"levelo://app?vid=af9e12e7-38b8-459b-8665-a09998ee41f3"},"vehicle_type_id":"4","last_reported":1761462557,"current_range_meters":16800,"station_id":"ce4bhg12rcd13ifvqf60","pricing_plan_id":"cebpf4jnsgd1na2vs0mg"},{"bike_id":"a70a5c56-54da-4a9c-92ae-4bd04c5f57d9","system_id":"levelo_inurba_marseille","lat":43.298947,"lon":5.436581,"is_reserved":false,"is_disabled":false,"rental_uris":{"android":"levelo://app?vid=a70a5c56-54da-4a9c-92ae-4bd04c5f57d9","ios":"levelo://app?vid=a70a5c56-54da-4a9c-92ae-4bd04c5f57d9"},"vehicle_type_id":"4","last_reported":1761462557,"current_range_meters":16800,"station_id":"ce4bhpp2rcd13ifvqhfg","pricing_plan_id":"cebpf4jnsgd1na2vs0mg"},{"bike_id":"317107fa-306d-4b8d-9380-a16cd06486ce","system_id":"levelo_inurba_marseille","lat":43.28465,"lon":5.35899,"is_reserved":false,"is_disabled":true,"rental_uris":{"android":"levelo://app?vid=317107fa-306d-4b8d-9380-a16cd06486ce","ios":"levelo://app?vid=317107fa-306d-4b8d-9380-a16cd06486ce"},"vehicle_type_id":"4","last_reported":1761462557,"current_range_meters":16800,"station_id":"ce4bhah2rcd13ifvqei0","pricing_plan_id":"cebpf4jnsgd1na2vs0mg"},{"bike_id":"7a1877e8-1310-4142-900d-3cea9a2ef65f","system_id":"levelo_inurba_marseille","lat":43.294877,"lon":5.433089,"is_reserved":false,"is_disabled":false,"rental_uris":{"android":"levelo://app?vid=7a1877e8-1310-4142-900d-3cea9a2ef65f","ios":"levelo://app?vid=7a1877e8-1310-4142-900d-3cea9a2ef65f"},"vehicle_type_id":"4","last_reported":1761462557,"current_range_meters":16800,"station_id":"st_d3j5ugp08ojc73fj9d10","pricing_plan_id":"cebpf4jnsgd1na2vs0mg"},{"bike_id":"526cddf7-e629-4e01-a3fa-d060ef7dfdd4","system_id":"levelo_inurba_marseille","lat":43.24655,"lon":5.38907,"is_reserved":false,"is_disabled":false,"rental_uris":{"android":"levelo://app?vid=526cddf7-e629-4e01-a3fa-d060ef7dfdd4","ios":"levelo://app?vid=526cddf7-e629-4e01-a3fa-d060ef7dfdd4"},"vehicle_type_id":"4","last_reported":1761462557,"current_range_meters":16800,"station_id":"ce4bhg12rcd13ifvqf60","pricing_plan_id":"cebpf4jnsgd1na2vs0mg"},{"bike_id":"fc900bb4-539d-4c37-92c1-81891d689b0b","system_id":"levelo_inurba_marseille","lat":43.260277,"lon":5.375498,"is_reserved":false,"is_disabled":false,"rental_uris":{"android":"levelo://app?vid=fc900bb4-539d-4c37-92c1-81891d689b0b","ios":"levelo://app?vid=fc900bb4-539d-4c37-92c1-81891d689b0b"},"vehicle_type_id":"4","last_reported":1761462557,"current_range_meters":16800,"station_id":"ce4bhgh2rcd13ifvqfa0","pricing_plan_id":"cebpf4jnsgd1na2vs0mg"},{"bike_id":"26c6a81a-4568-4934-a001-6703f4c6d2e7","system_id":"levelo_inurba_marseille","lat":43.31355,"lon":5.38498,"is_reserved":false,"is_disabled":false,"rental_uris":{"android":"levelo://app?vid=26c6a81a-4568-4934-a001-6703f4c6d2e7","ios":"levelo://app?vid=26c6a81a-4568-4934-a001-6703f4c6d2e7"},"vehicle_type_id":"4","last_reported":1761462557,"current_range_meters":16800,"station_id":"ce4bgt92rcd13ifvqcf0","pricing_plan_id":"cebpf4jnsgd1na2vs0mg"},{"bike_id":"319ca0c2-d300-4c44-a118-f6afd2d0307c","system_id":"levelo_inurba_marseille","lat":43.3089,"lon":5.37203,"is_reserved":false,"is_disabled":false,"rental_uris":{"android":"levelo://app?vid=319ca0c2-d300-4c44-a118-f6afd2d0307c","ios":"levelo://app?vid=319ca0c2-d300-4c44-a118-f6afd2d0307c"},"vehicle_type_id":"4","last_reported":1761462557,"current_range_meters":16800,"station_id":"ce4bguh2rcd13ifvqckg","pricing_plan_id":"cebpf4jnsgd1na2vs0mg"},{"bike_id":"f1bb6824-0b46-4e32-a3ef-c1b764bd053e","system_id":"levelo_inurba_marseille","lat":43.30114,"lon":5.40069,"is_reserved":false,"is_disabled":false,"rental_uris":{"android":"levelo://app?vid=f1bb6824-0b46-4e32-a3ef-c1b764bd053e","ios":"levelo://app?vid=f1bb6824-0b46-4e32-a3ef-c1b764bd053e"},"vehicle_type_id":"4","last_reported":1761462557,"current_range_meters":16800,"station_id":"","pricing_plan_id":"cebpf4jnsgd1na2vs0mg"},{"bike_id":"baa93571-061d-4d98-a7c4-ab842c53f2f8","system_id":"levelo_inurba_marseille","lat":43.301333,"lon":5.384969,"is_reserved":false,"is_disabled":false,"rental_uris":{"android":"levelo://app?vid=baa93571-061d-4d98-a7c4-ab842c53f2f8","ios":"levelo://app?vid=baa93571-061d-4d98-a7c4-ab842c53f2f8"},"vehicle_type_id":"4","last_reported":1761462557,"current_range_meters":17200,"station_id":"","pricing_plan_id":"cebpf4jnsgd1na2vs0mg"},{"bike_id":"7972169b-80a8-473e-b4f4-65b804e4b17c","system_id":"levelo_inurba_marseille","lat":43.2722,"lon":5.39196,"is_reserved":false,"is_disabled":false,"rental_uris":{"android":"levelo://app?vid=7972169b-80a8-473e-b4f4-65b804e4b17c","ios":"levelo://app?vid=7972169b-80a8-473e-b4f4-65b804e4b17c"},"vehicle_type_id":"4","last_reported":1761462557,"current_range_meters":17200,"station_id":"ce4bhhp2rcd13ifvqfm0","pricing_plan_id":"cebpf4jnsgd1na2vs0mg"},{"bike_id":"6ee611b3-bf13-495e-a0dc-dfd1a8718271","system_id":"levelo_inurba_marseille","lat":43.298166,"lon":5.440648,"is_reserved":false,"is_disabled":false,"rental_uris":{"android":"levelo://app?vid=6ee611b3-bf13-495e-a0dc-dfd1a8718271","ios":"levelo://app?vid=6ee611b3-bf13-495e-a0dc-dfd1a8718271"},"vehicle_type_id":"4","last_reported":1761462557,"current_range_meters":17200,"station_id":"st_d3jp68qikq2c7381ktn0","pricing_plan_id":"cebpf4jnsgd1na2vs0mg"},{"bike_id":"8f1595ee-0c39-45ec-bd05-7feb852a34d8","system_id":"levelo_inurba_marseille","lat":43.2509,"lon":5.39537,"is_reserved":false,"is_disabled":false,"rental_uris":{"android":"levelo://app?vid=8f1595ee-0c39-45ec-bd05-7feb852a34d8","ios":"levelo://app?vid=8f1595ee-0c39-45ec-bd05-7feb852a34d8"},"vehicle_type_id":"4","last_reported":1761462557,"current_range_meters":17200,"station_id":"ce4bhm12rcd13ifvqgkg","pricing_plan_id":"cebpf4jnsgd1na2vs0mg"},{"bike_id":"ca8c5fef-8841-4e27-bf56-b75f84bec5da","system_id":"levelo_inurba_marseille","lat":43.237839,"lon":5.366295,"is_reserved":false,"is_disabled":false,"rental_uris":{"android":"levelo://app?vid=ca8c5fef-8841-4e27-bf56-b75f84bec5da","ios":"levelo://app?vid=ca8c5fef-8841-4e27-bf56-b75f84bec5da"},"vehicle_type_id":"4","last_reported":1761462557,"current_range_meters":17200,"station_id":"st_d3nk18o9ro0c73en2l3g","pricing_plan_id":"cebpf4jnsgd1na2vs0mg"},{"bike_id":"63496c9e-d690-4500-b92f-a176f5c5177f","system_id":"levelo_inurba_marseille","lat":43.306039,"lon":5.37221,"is_reserved":false,"is_disabled":false,"rental_uris":{"android":"levelo://app?vid=63496c9e-d690-4500-b92f-a176f5c5177f","ios":"levelo://app?vid=63496c9e-d690-4500-b92f-a176f5c5177f"},"vehicle_type_id":"4","last_reported":1761462557,"current_range_meters":17600,"station_id":"ce4bgqh2rcd13ifvqc4g","pricing_plan_id":"cebpf4jnsgd1na2vs0mg"},{"bike_id":"d290b727-6836-4e17-bb70-fa6919fa7378","system_id":"levelo_inurba_marseille","lat":43.255111,"lon":5.376658,"is_reserved":false,"is_disabled":false,"rental_uris":{"android":"levelo://app?vid=d290b727-6836-4e17-bb70-fa6919fa7378","ios":"levelo://app?vid=d290b727-6836-4e17-bb70-fa6919fa7378"},"vehicle_type_id":"4","last_reported":1761462557,"current_range_meters":17600,"station_id":"ce4bhh12rcd13ifvqff0","pricing_plan_id":"cebpf4jnsgd1na2vs0mg"},{"bike_id":"53619b52-f6a4-4a36-9715-aa47e9e64dbc","system_id":"levelo_inurba_marseille","lat":43.292473,"lon":5.384357,"is_reserved":false,"is_disabled":true,"rental_uris":{"android":"levelo://app?vid=53619b52-f6a4-4a36-9715-aa47e9e64dbc","ios":"levelo://app?vid=53619b52-f6a4-4a36-9715-aa47e9e64dbc"},"vehicle_type_id":"4","last_reported":1761462557,"current_range_meters":17600,"station_id":"ce4bh692rcd13ifvqea0","pricing_plan_id":"cebpf4jnsgd1na2vs0mg"},{"bike_id":"de7582b4-8119-4dc4-89b9-6ead48018aad","system_id":"levelo_inurba_marseille","lat":43.30342,"lon":5.40453,"is_reserved":false,"is_disabled":false,"rental_uris":{"android":"levelo://app?vid=de7582b4-8119-4dc4-89b9-6ead48018aad","ios":"levelo://app?vid=de7582b4-8119-4dc4-89b9-6ead48018aad"},"vehicle_type_id":"4","last_reported":1761462557,"current_range_meters":17600,"station_id":"ce4bh012rcd13ifvqd10","pricing_plan_id":"cebpf4jnsgd1na2vs0mg"},{"bike_id":"cbcdd39f-b16b-4830-bef7-1f20f112a7de","system_id":"levelo_inurba_marseille","lat":43.319879,"lon":5.381412,"is_reserved":false,"is_disabled":false,"rental_uris":{"android":"levelo://app?vid=cbcdd39f-b16b-4830-bef7-1f20f112a7de","ios":"levelo://app?vid=cbcdd39f-b16b-4830-bef7-1f20f112a7de"},"vehicle_type_id":"4","last_reported":1761462557,"current_range_meters":17600,"station_id":"ce4bhr12rcd13ifvqhpg","pricing_plan_id":"cebpf4jnsgd1na2vs0mg"},{"bike_id":"87bbf993-1256-4c6b-a1f8-ec4c8719189d","system_id":"levelo_inurba_marseille","lat":43.27838,"lon":5.39206,"is_reserved":false,"is_disabled":false,"rental_uris":{"android":"levelo://app?vid=87bbf993-1256-4c6b-a1f8-ec4c8719189d","ios":"levelo://app?vid=87bbf993-1256-4c6b-a1f8-ec4c8719189d"},"vehicle_type_id":"4","last_reported":1761462557,"current_range_meters":17600,"station_id":"ce4bhjp2rcd13ifvqga0","pricing_plan_id":"cebpf4jnsgd1na2vs0mg"},{"bike_id":"ad166e8d-320f-47c2-bfd9-9e014a946d21","system_id":"levelo_inurba_marseille","lat":43.278151,"lon":5.407267,"is_reserved":false,"is_disabled":true,"rental_uris":{"android":"levelo://app?vid=ad166e8d-320f-47c2-bfd9-9e014a946d21","ios":"levelo://app?vid=ad166e8d-320f-47c2-bfd9-9e014a946d21"},"vehicle_type_id":"4","last_reported":1761462557,"current_range_meters":17600,"station_id":"ce4bhnh2rcd13ifvqgtg","pricing_plan_id":"cebpf4jnsgd1na2vs0mg"},{"bike_id":"b711399f-b3e7-48ed-b950-30750d9f548b","system_id":"levelo_inurba_marseille","lat":43.310611,"lon":5.383549,"is_reserved":false,"is_disabled":false,"rental_uris":{"android":"levelo://app?vid=b711399f-b3e7-48ed-b950-30750d9f548b","ios":"levelo://app?vid=b711399f-b3e7-48ed-b950-30750d9f548b"},"vehicle_type_id":"4","last_reported":1761462557,"current_range_meters":17600,"station_id":"ce4bgv92rcd13ifvqcr0","pricing_plan_id":"cebpf4jnsgd1na2vs0mg"},{"bike_id":"de0ca7a8-116a-46c8-8c50-6b445a473423","system_id":"levelo_inurba_marseille","lat":43.288653,"lon":5.425113,"is_reserved":false,"is_disabled":false,"rental_uris":{"android":"levelo://app?vid=de0ca7a8-116a-46c8-8c50-6b445a473423","ios":"levelo://app?vid=de0ca7a8-116a-46c8-8c50-6b445a473423"},"vehicle_type_id":"4","last_reported":1761462557,"current_range_meters":18000,"station_id":"st_d3b462108ojc7389ooeg","pricing_plan_id":"cebpf4jnsgd1na2vs0mg"},{"bike_id":"528aef34-7fbc-4a2b-b380-aa6d55aa5885","system_id":"levelo_inurba_marseille","lat":43.2606,"lon":5.39405,"is_reserved":false,"is_disabled":false,"rental_uris":{"android":"levelo://app?vid=528aef34-7fbc-4a2b-b380-aa6d55aa5885","ios":"levelo://app?vid=528aef34-7fbc-4a2b-b380-aa6d55aa5885"},"vehicle_type_id":"4","last_reported":1761462557,"current_range_meters":18000,"station_id":"ce4bhh92rcd13ifvqfj0","pricing_plan_id":"cebpf4jnsgd1na2vs0mg"},{"bike_id":"2145a63e-517b-4880-912d-5ec1a435c4df","system_id":"levelo_inurba_marseille","lat":43.30889,"lon":5.396423,"is_reserved":false,"is_disabled":false,"rental_uris":{"android":"levelo://app?vid=2145a63e-517b-4880-912d-5ec1a435c4df","ios":"levelo://app?vid=2145a63e-517b-4880-912d-5ec1a435c4df"},"vehicle_type_id":"4","last_reported":1761462557,"current_range_meters":18000,"station_id":"ce4bh012rcd13ifvqcv0","pricing_plan_id":"cebpf4jnsgd1na2vs0mg"},{"bike_id":"ce15d64c-7bd4-4017-a01a-0dc353c2995b","system_id":"levelo_inurba_marseille","lat":43.281288,"lon":5.350275,"is_reserved":false,"is_disabled":false,"rental_uris":{"android":"levelo://app?vid=ce15d64c-7bd4-4017-a01a-0dc353c2995b","ios":"levelo://app?vid=ce15d64c-7bd4-4017-a01a-0dc353c2995b"},"vehicle_type_id":"4","last_reported":1761462557,"current_range_meters":18000,"station_id":"","pricing_plan_id":"cebpf4jnsgd1na2vs0mg"},{"bike_id":"e5782673-6e31-49d6-a807-809e270a9ea0","system_id":"levelo_inurba_marseille","lat":43.29933,"lon":5.365302,"is_reserved":false,"is_disabled":false,"rental_uris":{"android":"levelo://app?vid=e5782673-6e31-49d6-a807-809e270a9ea0","ios":"levelo://app?vid=e5782673-6e31-49d6-a807-809e270a9ea0"},"vehicle_type_id":"4","last_reported":1761462557,"current_range_meters":18800,"station_id":"ce4bgm92rcd13ifvqbr0","pricing_plan_id":"cebpf4jnsgd1na2vs0mg"},{"bike_id":"bac1245a-88c1-4fe5-baae-0f4a8b74990b","system_id":"levelo_inurba_marseille","lat":43.24646,"lon":5.38908,"is_reserved":false,"is_disabled":false,"rental_uris":{"android":"levelo://app?vid=bac1245a-88c1-4fe5-baae-0f4a8b74990b","ios":"levelo://app?vid=bac1245a-88c1-4fe5-baae-0f4a8b74990b"},"vehicle_type_id":"4","last_reported":1761462557,"current_range_meters":18800,"station_id":"ce4bhg12rcd13ifvqf60","pricing_plan_id":"cebpf4jnsgd1na2vs0mg"},{"bike_id":"dd49c643-708e-4930-9902-c0a947f622bd","system_id":"levelo_inurba_marseille","lat":43.230566,"lon":5.354969,"is_reserved":false,"is_disabled":false,"rental_uris":{"android":"levelo://app?vid=dd49c643-708e-4930-9902-c0a947f622bd","ios":"levelo://app?vid=dd49c643-708e-4930-9902-c0a947f622bd"},"vehicle_type_id":"4","last_reported":1761462557,"current_range_meters":18800,"station_id":"cpo3342slgdg3j2ifvpg","pricing_plan_id":"cebpf4jnsgd1na2vs0mg"},{"bike_id":"7ebb4a77-9058-4726-915d-018c57111d93","system_id":"levelo_inurba_marseille","lat":43.31326,"lon":5.39708,"is_reserved":false,"is_disabled":false,"rental_uris":{"android":"levelo://app?vid=7ebb4a77-9058-4726-915d-018c57111d93","ios":"levelo://app?vid=7ebb4a77-9058-4726-915d-018c57111d93"},"vehicle_type_id":"4","last_reported":1761462557,"current_range_meters":18800,"station_id":"ce4bgvp2rcd13ifvqcu0","pricing_plan_id":"cebpf4jnsgd1na2vs0mg"},{"bike_id":"e9c59ef7-f889-42af-a387-98050af3bbe7","system_id":"levelo_inurba_marseille","lat":43.30885,"lon":5.39634,"is_reserved":false,"is_disabled":false,"rental_uris":{"android":"levelo://app?vid=e9c59ef7-f889-42af-a387-98050af3bbe7","ios":"levelo://app?vid=e9c59ef7-f889-42af-a387-98050af3bbe7"},"vehicle_type_id":"4","last_reported":1761462557,"current_range_meters":18800,"station_id":"ce4bh012rcd13ifvqcv0","pricing_plan_id":"cebpf4jnsgd1na2vs0mg"},{"bike_id":"7a6d68ca-a21b-4edb-8a04-d3198efcf4e1","system_id":"levelo_inurba_marseille","lat":43.27937,"lon":5.41061,"is_reserved":false,"is_disabled":false,"rental_uris":{"android":"levelo://app?vid=7a6d68ca-a21b-4edb-8a04-d3198efcf4e1","ios":"levelo://app?vid=7a6d68ca-a21b-4edb-8a04-d3198efcf4e1"},"vehicle_type_id":"4","last_reported":1761462557,"current_range_meters":18800,"station_id":"ce4bhnp2rcd13ifvqh0g","pricing_plan_id":"cebpf4jnsgd1na2vs0mg"},{"bike_id":"8f3e64eb-5cc7-4bf0-8964-9ab3d59c4e2b","system_id":"levelo_inurba_marseille","lat":43.241638,"lon":5.36387,"is_reserved":false,"is_disabled":false,"rental_uris":{"android":"levelo://app?vid=8f3e64eb-5cc7-4bf0-8964-9ab3d59c4e2b","ios":"levelo://app?vid=8f3e64eb-5cc7-4bf0-8964-9ab3d59c4e2b"},"vehicle_type_id":"4","last_reported":1761462557,"current_range_meters":18800,"station_id":"cpo36qri1sfpv3e86is0","pricing_plan_id":"cebpf4jnsgd1na2vs0mg"},{"bike_id":"d89cae02-c286-46f1-8467-19851e436161","system_id":"levelo_inurba_marseille","lat":43.260611,"lon":5.393871,"is_reserved":false,"is_disabled":false,"rental_uris":{"android":"levelo://app?vid=d89cae02-c286-46f1-8467-19851e436161","ios":"levelo://app?vid=d89cae02-c286-46f1-8467-19851e436161"},"vehicle_type_id":"4","last_reported":1761462557,"current_range_meters":19200,"station_id":"ce4bhh92rcd13ifvqfj0","pricing_plan_id":"cebpf4jnsgd1na2vs0mg"},{"bike_id":"b62ff10a-bff1-4502-8805-3c101f57f478","system_id":"levelo_inurba_marseille","lat":43.28425,"lon":5.37501,"is_reserved":false,"is_disabled":false,"rental_uris":{"android":"levelo://app?vid=b62ff10a-bff1-4502-8805-3c101f57f478","ios":"levelo://app?vid=b62ff10a-bff1-4502-8805-3c101f57f478"},"vehicle_type_id":"4","last_reported":1761462557,"current_range_meters":19200,"station_id":"ce4bh412rcd13ifvqds0","pricing_plan_id":"cebpf4jnsgd1na2vs0mg"},{"bike_id":"36d7fbc3-e4e1-4b61-8e94-e74b2c6446ca","system_id":"levelo_inurba_marseille","lat":43.25498,"lon":5.37671,"is_reserved":false,"is_disabled":true,"rental_uris":{"android":"levelo://app?vid=36d7fbc3-e4e1-4b61-8e94-e74b2c6446ca","ios":"levelo://app?vid=36d7fbc3-e4e1-4b61-8e94-e74b2c6446ca"},"vehicle_type_id":"4","last_reported":1761462557,"current_range_meters":19200,"station_id":"ce4bhh12rcd13ifvqff0","pricing_plan_id":"cebpf4jnsgd1na2vs0mg"},{"bike_id":"6eb9a672-8cb2-4252-94ed-40f0b3bbf07b","system_id":"levelo_inurba_marseille","lat":43.30147,"lon":5.38086,"is_reserved":false,"is_disabled":false,"rental_uris":{"android":"levelo://app?vid=6eb9a672-8cb2-4252-94ed-40f0b3bbf07b","ios":"levelo://app?vid=6eb9a672-8cb2-4252-94ed-40f0b3bbf07b"},"vehicle_type_id":"4","last_reported":1761462557,"current_range_meters":19200,"station_id":"ce4bgjp2rcd13ifvqbh0","pricing_plan_id":"cebpf4jnsgd1na2vs0mg"},{"bike_id":"7165d414-e8a5-415f-8a72-9e3295be2a67","system_id":"levelo_inurba_marseille","lat":43.31046,"lon":5.37896,"is_reserved":false,"is_disabled":false,"rental_uris":{"android":"levelo://app?vid=7165d414-e8a5-415f-8a72-9e3295be2a67","ios":"levelo://app?vid=7165d414-e8a5-415f-8a72-9e3295be2a67"},"vehicle_type_id":"4","last_reported":1761462557,"current_range_meters":19200,"station_id":"","pricing_plan_id":"cebpf4jnsgd1na2vs0mg"},{"bike_id":"b9ae3ff8-1fd5-421b-a8a3-72ad80cdae9e","system_id":"levelo_inurba_marseille","lat":43.265689,"lon":5.390065,"is_reserved":false,"is_disabled":false,"rental_uris":{"android":"levelo://app?vid=b9ae3ff8-1fd5-421b-a8a3-72ad80cdae9e","ios":"levelo://app?vid=b9ae3ff8-1fd5-421b-a8a3-72ad80cdae9e"},"vehicle_type_id":"4","last_reported":1761462557,"current_range_meters":19200,"station_id":"ce4bhe12rcd13ifvqf30","pricing_plan_id":"cebpf4jnsgd1na2vs0mg"},{"bike_id":"918ab731-8e3f-436c-837a-4ff2667629fc","system_id":"levelo_inurba_marseille","lat":43.2558,"lon":5.38249,"is_reserved":false,"is_disabled":false,"rental_uris":{"android":"levelo://app?vid=918ab731-8e3f-436c-837a-4ff2667629fc","ios":"levelo://app?vid=918ab731-8e3f-436c-837a-4ff2667629fc"},"vehicle_type_id":"4","last_reported":1761462557,"current_range_meters":19200,"station_id":"ce4bhih2rcd13ifvqfs0","pricing_plan_id":"cebpf4jnsgd1na2vs0mg"},{"bike_id":"f6f41915-49e3-4fb8-8c5c-96d42e084e15","system_id":"levelo_inurba_marseille","lat":43.32012,"lon":5.37106,"is_reserved":false,"is_disabled":false,"rental_uris":{"android":"levelo://app?vid=f6f41915-49e3-4fb8-8c5c-96d42e084e15","ios":"levelo://app?vid=f6f41915-49e3-4fb8-8c5c-96d42e084e15"},"vehicle_type_id":"4","last_reported":1761462557,"current_range_meters":19200,"station_id":"","pricing_plan_id":"cebpf4jnsgd1na2vs0mg"},{"bike_id":"3f406faa-f29d-4045-b655-34cbf78be9a9","system_id":"levelo_inurba_marseille","lat":43.26938,"lon":5.40252,"is_reserved":false,"is_disabled":false,"rental_uris":{"android":"levelo://app?vid=3f406faa-f29d-4045-b655-34cbf78be9a9","ios":"levelo://app?vid=3f406faa-f29d-4045-b655-34cbf78be9a9"},"vehicle_type_id":"4","last_reported":1761462557,"current_range_meters":19200,"station_id":"cjm6bp8fraef2m0cb0m0","pricing_plan_id":"cebpf4jnsgd1na2vs0mg"},{"bike_id":"cf2edc85-5546-4730-8729-79cad6d71f12","system_id":"levelo_inurba_marseille","lat":43.31354,"lon":5.38508,"is_reserved":false,"is_disabled":false,"rental_uris":{"android":"levelo://app?vid=cf2edc85-5546-4730-8729-79cad6d71f12","ios":"levelo://app?vid=cf2edc85-5546-4730-8729-79cad6d71f12"},"vehicle_type_id":"4","last_reported":1761462557,"current_range_meters":19200,"station_id":"ce4bgt92rcd13ifvqcf0","pricing_plan_id":"cebpf4jnsgd1na2vs0mg"},{"bike_id":"f11b7d45-67d1-4eb4-b8b6-69c65c9cd299","system_id":"levelo_inurba_marseille","lat":43.30778,"lon":5.37665,"is_reserved":false,"is_disabled":false,"rental_uris":{"android":"levelo://app?vid=f11b7d45-67d1-4eb4-b8b6-69c65c9cd299","ios":"levelo://app?vid=f11b7d45-67d1-4eb4-b8b6-69c65c9cd299"},"vehicle_type_id":"4","last_reported":1761462557,"current_range_meters":19200,"station_id":"ce4bgv92rcd13ifvqcq0","pricing_plan_id":"cebpf4jnsgd1na2vs0mg"},{"bike_id":"b093f329-277a-43e7-9ff3-54a02ec2f529","system_id":"levelo_inurba_marseille","lat":43.31121,"lon":5.37777,"is_reserved":false,"is_disabled":false,"rental_uris":{"android":"levelo://app?vid=b093f329-277a-43e7-9ff3-54a02ec2f529","ios":"levelo://app?vid=b093f329-277a-43e7-9ff3-54a02ec2f529"},"vehicle_type_id":"4","last_reported":1761462557,"current_range_meters":19200,"station_id":"ce4bgt92rcd13ifvqcg0","pricing_plan_id":"cebpf4jnsgd1na2vs0mg"},{"bike_id":"50dd3cec-7415-41a0-8a40-a15df02d7acc","system_id":"levelo_inurba_marseille","lat":43.29811,"lon":5.38106,"is_reserved":false,"is_disabled":false,"rental_uris":{"android":"levelo://app?vid=50dd3cec-7415-41a0-8a40-a15df02d7acc","ios":"levelo://app?vid=50dd3cec-7415-41a0-8a40-a15df02d7acc"},"vehicle_type_id":"4","last_reported":1761462557,"current_range_meters":19200,"station_id":"ce4bgip2rcd13ifvqbb0","pricing_plan_id":"cebpf4jnsgd1na2vs0mg"},{"bike_id":"c7dc7d8a-05e2-4ea3-8adc-2dd23fbc4f29","system_id":"levelo_inurba_marseille","lat":43.28163,"lon":5.42647,"is_reserved":false,"is_disabled":false,"rental_uris":{"android":"levelo://app?vid=c7dc7d8a-05e2-4ea3-8adc-2dd23fbc4f29","ios":"levelo://app?vid=c7dc7d8a-05e2-4ea3-8adc-2dd23fbc4f29"},"vehicle_type_id":"4","last_reported":1761462557,"current_range_meters":19600,"station_id":"ce4bhnh2rcd13ifvqgug","pricing_plan_id":"cebpf4jnsgd1na2vs0mg"},{"bike_id":"79f9cde6-2fc1-438e-a896-83f6555a03e6","system_id":"levelo_inurba_marseille","lat":43.32119,"lon":5.3679,"is_reserved":false,"is_disabled":false,"rental_uris":{"android":"levelo://app?vid=79f9cde6-2fc1-438e-a896-83f6555a03e6","ios":"levelo://app?vid=79f9cde6-2fc1-438e-a896-83f6555a03e6"},"vehicle_type_id":"4","last_reported":1761462557,"current_range_meters":19600,"station_id":"ce4bhrh2rcd13ifvqhug","pricing_plan_id":"cebpf4jnsgd1na2vs0mg"},{"bike_id":"73e3d00c-eed9-4474-8470-2701da8f5335","system_id":"levelo_inurba_marseille","lat":43.257354,"lon":5.410347,"is_reserved":false,"is_disabled":false,"rental_uris":{"android":"levelo://app?vid=73e3d00c-eed9-4474-8470-2701da8f5335","ios":"levelo://app?vid=73e3d00c-eed9-4474-8470-2701da8f5335"},"vehicle_type_id":"4","last_reported":1761462557,"current_range_meters":19600,"station_id":"","pricing_plan_id":"cebpf4jnsgd1na2vs0mg"},{"bike_id":"94aaf935-55ff-4431-b612-265a39fb330c","system_id":"levelo_inurba_marseille","lat":43.29027,"lon":5.38661,"is_reserved":false,"is_disabled":true,"rental_uris":{"android":"levelo://app?vid=94aaf935-55ff-4431-b612-265a39fb330c","ios":"levelo://app?vid=94aaf935-55ff-4431-b612-265a39fb330c"},"vehicle_type_id":"4","last_reported":1761462557,"current_range_meters":19600,"station_id":"ce4bh4p2rcd13ifvqe0g","pricing_plan_id":"cebpf4jnsgd1na2vs0mg"},{"bike_id":"766024bb-f0cf-4573-8d62-7934baf6c547","system_id":"levelo_inurba_marseille","lat":43.29032,"lon":5.39868,"is_reserved":false,"is_disabled":false,"rental_uris":{"android":"levelo://app?vid=766024bb-f0cf-4573-8d62-7934baf6c547","ios":"levelo://app?vid=766024bb-f0cf-4573-8d62-7934baf6c547"},"vehicle_type_id":"4","last_reported":1761462557,"current_range_meters":19600,"station_id":"ce4bh392rcd13ifvqdm0","pricing_plan_id":"cebpf4jnsgd1na2vs0mg"},{"bike_id":"c1c167dd-f5e3-43a8-a933-1a6a5ed79d07","system_id":"levelo_inurba_marseille","lat":43.230521,"lon":5.354904,"is_reserved":false,"is_disabled":false,"rental_uris":{"android":"levelo://app?vid=c1c167dd-f5e3-43a8-a933-1a6a5ed79d07","ios":"levelo://app?vid=c1c167dd-f5e3-43a8-a933-1a6a5ed79d07"},"vehicle_type_id":"4","last_reported":1761462557,"current_range_meters":19600,"station_id":"cpo3342slgdg3j2ifvpg","pricing_plan_id":"cebpf4jnsgd1na2vs0mg"},{"bike_id":"26c48375-1e6e-43b2-9750-bd0ef6e16469","system_id":"levelo_inurba_marseille","lat":43.22554,"lon":5.41641,"is_reserved":false,"is_disabled":false,"rental_uris":{"android":"levelo://app?vid=26c48375-1e6e-43b2-9750-bd0ef6e16469","ios":"levelo://app?vid=26c48375-1e6e-43b2-9750-bd0ef6e16469"},"vehicle_type_id":"4","last_reported":1761462557,"current_range_meters":19600,"station_id":"st_d2o4gvlbi1j2169b742g","pricing_plan_id":"cebpf4jnsgd1na2vs0mg"},{"bike_id":"a1617119-cd47-4ba2-b3fd-d3214485d3fa","system_id":"levelo_inurba_marseille","lat":43.229239,"lon":5.353809,"is_reserved":false,"is_disabled":false,"rental_uris":{"android":"levelo://app?vid=a1617119-cd47-4ba2-b3fd-d3214485d3fa","ios":"levelo://app?vid=a1617119-cd47-4ba2-b3fd-d3214485d3fa"},"vehicle_type_id":"4","last_reported":1761462557,"current_range_meters":19600,"station_id":"cpo3532slgdg3j2ikp40","pricing_plan_id":"cebpf4jnsgd1na2vs0mg"},{"bike_id":"611000ca-5aa7-40da-a0d2-9b3c8da9f53a","system_id":"levelo_inurba_marseille","lat":43.250978,"lon":5.395044,"is_reserved":false,"is_disabled":false,"rental_uris":{"android":"levelo://app?vid=611000ca-5aa7-40da-a0d2-9b3c8da9f53a","ios":"levelo://app?vid=611000ca-5aa7-40da-a0d2-9b3c8da9f53a"},"vehicle_type_id":"4","last_reported":1761462557,"current_range_meters":19600,"station_id":"ce4bhm12rcd13ifvqgkg","pricing_plan_id":"cebpf4jnsgd1na2vs0mg"},{"bike_id":"dea76e1b-a01d-415a-8864-695f90f26959","system_id":"levelo_inurba_marseille","lat":43.263613,"lon":5.396479,"is_reserved":false,"is_disabled":false,"rental_uris":{"android":"levelo://app?vid=dea76e1b-a01d-415a-8864-695f90f26959","ios":"levelo://app?vid=dea76e1b-a01d-415a-8864-695f90f26959"},"vehicle_type_id":"4","last_reported":1761462557,"current_range_meters":19600,"station_id":"","pricing_plan_id":"cebpf4jnsgd1na2vs0mg"},{"bike_id":"47438ea8-9e06-4f18-9f61-d9073ef15d0f","system_id":"levelo_inurba_marseille","lat":43.250042,"lon":5.389314,"is_reserved":false,"is_disabled":false,"rental_uris":{"android":"levelo://app?vid=47438ea8-9e06-4f18-9f61-d9073ef15d0f","ios":"levelo://app?vid=47438ea8-9e06-4f18-9f61-d9073ef15d0f"},"vehicle_type_id":"4","last_reported":1761462557,"current_range_meters":20000,"station_id":"ce4bhgp2rcd13ifvqfd0","pricing_plan_id":"cebpf4jnsgd1na2vs0mg"},{"bike_id":"83106217-f024-4381-9607-50194d3370ce","system_id":"levelo_inurba_marseille","lat":43.241629,"lon":5.364125,"is_reserved":false,"is_disabled":false,"rental_uris":{"android":"levelo://app?vid=83106217-f024-4381-9607-50194d3370ce","ios":"levelo://app?vid=83106217-f024-4381-9607-50194d3370ce"},"vehicle_type_id":"4","last_reported":1761462557,"current_range_meters":20000,"station_id":"cpo36qri1sfpv3e86is0","pricing_plan_id":"cebpf4jnsgd1na2vs0mg"},{"bike_id":"e92a5181-3093-4535-adde-2230374de0aa","system_id":"levelo_inurba_marseille","lat":43.313696,"lon":5.376901,"is_reserved":false,"is_disabled":false,"rental_uris":{"android":"levelo://app?vid=e92a5181-3093-4535-adde-2230374de0aa","ios":"levelo://app?vid=e92a5181-3093-4535-adde-2230374de0aa"},"vehicle_type_id":"4","last_reported":1761462557,"current_range_meters":20000,"station_id":"","pricing_plan_id":"cebpf4jnsgd1na2vs0mg"},{"bike_id":"0e3a1375-1454-4101-915f-2208001d5e2b","system_id":"levelo_inurba_marseille","lat":43.30255,"lon":5.40068,"is_reserved":false,"is_disabled":true,"rental_uris":{"android":"levelo://app?vid=0e3a1375-1454-4101-915f-2208001d5e2b","ios":"levelo://app?vid=0e3a1375-1454-4101-915f-2208001d5e2b"},"vehicle_type_id":"4","last_reported":1761462557,"current_range_meters":20000,"station_id":"ce4bgvh2rcd13ifvqcs0","pricing_plan_id":"cebpf4jnsgd1na2vs0mg"},{"bike_id":"da945370-32c7-4765-8b8c-dadee680d38e","system_id":"levelo_inurba_marseille","lat":43.34058,"lon":5.40415,"is_reserved":false,"is_disabled":false,"rental_uris":{"android":"levelo://app?vid=da945370-32c7-4765-8b8c-dadee680d38e","ios":"levelo://app?vid=da945370-32c7-4765-8b8c-dadee680d38e"},"vehicle_type_id":"4","last_reported":1761462557,"current_range_meters":20000,"station_id":"","pricing_plan_id":"cebpf4jnsgd1na2vs0mg"},{"bike_id":"af17a055-2048-497c-b479-e7254336773f","system_id":"levelo_inurba_marseille","lat":43.27314,"lon":5.39079,"is_reserved":false,"is_disabled":false,"rental_uris":{"android":"levelo://app?vid=af17a055-2048-497c-b479-e7254336773f","ios":"levelo://app?vid=af17a055-2048-497c-b479-e7254336773f"},"vehicle_type_id":"4","last_reported":1761462557,"current_range_meters":20000,"station_id":"ce4bhgp2rcd13ifvqfe0","pricing_plan_id":"cebpf4jnsgd1na2vs0mg"},{"bike_id":"ba6bdb84-efa9-45a9-9e20-4bde528874fd","system_id":"levelo_inurba_marseille","lat":43.27942,"lon":5.396,"is_reserved":false,"is_disabled":false,"rental_uris":{"android":"levelo://app?vid=ba6bdb84-efa9-45a9-9e20-4bde528874fd","ios":"levelo://app?vid=ba6bdb84-efa9-45a9-9e20-4bde528874fd"},"vehicle_type_id":"4","last_reported":1761462557,"current_range_meters":20400,"station_id":"ce4bhf92rcd13ifvqf40","pricing_plan_id":"cebpf4jnsgd1na2vs0mg"},{"bike_id":"93ef566c-0909-48d1-8deb-d11c9c5aea5b","system_id":"levelo_inurba_marseille","lat":43.323568,"lon":5.36744,"is_reserved":false,"is_disabled":false,"rental_uris":{"android":"levelo://app?vid=93ef566c-0909-48d1-8deb-d11c9c5aea5b","ios":"levelo://app?vid=93ef566c-0909-48d1-8deb-d11c9c5aea5b"},"vehicle_type_id":"4","last_reported":1761462557,"current_range_meters":20400,"station_id":"ce4bhsh2rcd13ifvqi2g","pricing_plan_id":"cebpf4jnsgd1na2vs0mg"},{"bike_id":"26a33dcf-50de-4561-a5e9-8254886f89ed","system_id":"levelo_inurba_marseille","lat":43.24324,"lon":5.39224,"is_reserved":false,"is_disabled":false,"rental_uris":{"android":"levelo://app?vid=26a33dcf-50de-4561-a5e9-8254886f89ed","ios":"levelo://app?vid=26a33dcf-50de-4561-a5e9-8254886f89ed"},"vehicle_type_id":"4","last_reported":1761462557,"current_range_meters":20400,"station_id":"","pricing_plan_id":"cebpf4jnsgd1na2vs0mg"},{"bike_id":"c57a62bc-e78f-4888-b4a5-2300b72f2edf","system_id":"levelo_inurba_marseille","lat":43.30457,"lon":5.37904,"is_reserved":false,"is_disabled":false,"rental_uris":{"android":"levelo://app?vid=c57a62bc-e78f-4888-b4a5-2300b72f2edf","ios":"levelo://app?vid=c57a62bc-e78f-4888-b4a5-2300b72f2edf"},"vehicle_type_id":"4","last_reported":1761462557,"current_range_meters":20400,"station_id":"ce4bgup2rcd13ifvqcn0","pricing_plan_id":"cebpf4jnsgd1na2vs0mg"},{"bike_id":"8e449deb-01cb-47ca-be6e-16f516426fdb","system_id":"levelo_inurba_marseille","lat":43.29253,"lon":5.40918,"is_reserved":false,"is_disabled":false,"rental_uris":{"android":"levelo://app?vid=8e449deb-01cb-47ca-be6e-16f516426fdb","ios":"levelo://app?vid=8e449deb-01cb-47ca-be6e-16f516426fdb"},"vehicle_type_id":"4","last_reported":1761462557,"current_range_meters":20400,"station_id":"ce4bh192rcd13ifvqdc0","pricing_plan_id":"cebpf4jnsgd1na2vs0mg"},{"bike_id":"ac1054ea-b7cc-4fc4-b666-bf8c0c517e3a","system_id":"levelo_inurba_marseille","lat":43.2305,"lon":5.35501,"is_reserved":false,"is_disabled":false,"rental_uris":{"android":"levelo://app?vid=ac1054ea-b7cc-4fc4-b666-bf8c0c517e3a","ios":"levelo://app?vid=ac1054ea-b7cc-4fc4-b666-bf8c0c517e3a"},"vehicle_type_id":"4","last_reported":1761462557,"current_range_meters":20400,"station_id":"cpo3342slgdg3j2ifvpg","pricing_plan_id":"cebpf4jnsgd1na2vs0mg"},{"bike_id":"db9de1fc-21ad-43f6-9eec-77de2c93e6d8","system_id":"levelo_inurba_marseille","lat":43.229364,"lon":5.353952,"is_reserved":false,"is_disabled":false,"rental_uris":{"android":"levelo://app?vid=db9de1fc-21ad-43f6-9eec-77de2c93e6d8","ios":"levelo://app?vid=db9de1fc-21ad-43f6-9eec-77de2c93e6d8"},"vehicle_type_id":"4","last_reported":1761462557,"current_range_meters":20400,"station_id":"cpo3532slgdg3j2ikp40","pricing_plan_id":"cebpf4jnsgd1na2vs0mg"},{"bike_id":"74440bb7-72c3-4ad8-9dec-9a57ed6d17c9","system_id":"levelo_inurba_marseille","lat":43.323665,"lon":5.388918,"is_reserved":false,"is_disabled":false,"rental_uris":{"android":"levelo://app?vid=74440bb7-72c3-4ad8-9dec-9a57ed6d17c9","ios":"levelo://app?vid=74440bb7-72c3-4ad8-9dec-9a57ed6d17c9"},"vehicle_type_id":"4","last_reported":1761462557,"current_range_meters":20400,"station_id":"ce4bhqp2rcd13ifvqhog","pricing_plan_id":"cebpf4jnsgd1na2vs0mg"},{"bike_id":"5837d1ef-6ff3-4b6b-9d0b-6fb51011d077","system_id":"levelo_inurba_marseille","lat":43.27422,"lon":5.39427,"is_reserved":false,"is_disabled":true,"rental_uris":{"android":"levelo://app?vid=5837d1ef-6ff3-4b6b-9d0b-6fb51011d077","ios":"levelo://app?vid=5837d1ef-6ff3-4b6b-9d0b-6fb51011d077"},"vehicle_type_id":"4","last_reported":1761462557,"current_range_meters":20400,"station_id":"ce4bhdp2rcd13ifvqf20","pricing_plan_id":"cebpf4jnsgd1na2vs0mg"},{"bike_id":"582fe2d6-0ae9-4675-bd90-c18d8f24c8d4","system_id":"levelo_inurba_marseille","lat":43.279196,"lon":5.395932,"is_reserved":false,"is_disabled":false,"rental_uris":{"android":"levelo://app?vid=582fe2d6-0ae9-4675-bd90-c18d8f24c8d4","ios":"levelo://app?vid=582fe2d6-0ae9-4675-bd90-c18d8f24c8d4"},"vehicle_type_id":"4","last_reported":1761462557,"current_range_meters":20400,"station_id":"ce4bhf92rcd13ifvqf40","pricing_plan_id":"cebpf4jnsgd1na2vs0mg"},{"bike_id":"804dbda5-2784-4e57-879b-8ddc8a13c73c","system_id":"levelo_inurba_marseille","lat":43.2949,"lon":5.43298,"is_reserved":false,"is_disabled":false,"rental_uris":{"android":"levelo://app?vid=804dbda5-2784-4e57-879b-8ddc8a13c73c","ios":"levelo://app?vid=804dbda5-2784-4e57-879b-8ddc8a13c73c"},"vehicle_type_id":"4","last_reported":1761462557,"current_range_meters":20400,"station_id":"st_d3j5ugp08ojc73fj9d10","pricing_plan_id":"cebpf4jnsgd1na2vs0mg"},{"bike_id":"fdc43030-5704-454e-ad42-cd94061c06a1","system_id":"levelo_inurba_marseille","lat":43.32103,"lon":5.3677,"is_reserved":false,"is_disabled":false,"rental_uris":{"android":"levelo://app?vid=fdc43030-5704-454e-ad42-cd94061c06a1","ios":"levelo://app?vid=fdc43030-5704-454e-ad42-cd94061c06a1"},"vehicle_type_id":"4","last_reported":1761462557,"current_range_meters":20400,"station_id":"ce4bhrh2rcd13ifvqhug","pricing_plan_id":"cebpf4jnsgd1na2vs0mg"},{"bike_id":"b83891d3-7971-45ae-9af3-651a6e6209e2","system_id":"levelo_inurba_marseille","lat":43.231913,"lon":5.355707,"is_reserved":false,"is_disabled":false,"rental_uris":{"android":"levelo://app?vid=b83891d3-7971-45ae-9af3-651a6e6209e2","ios":"levelo://app?vid=b83891d3-7971-45ae-9af3-651a6e6209e2"},"vehicle_type_id":"4","last_reported":1761462557,"current_range_meters":20800,"station_id":"ce4bhu92rcd13ifvqi70","pricing_plan_id":"cebpf4jnsgd1na2vs0mg"},{"bike_id":"fc415666-0eee-42cf-ad7e-559eb9802048","system_id":"levelo_inurba_marseille","lat":43.31097,"lon":5.37487,"is_reserved":false,"is_disabled":false,"rental_uris":{"android":"levelo://app?vid=fc415666-0eee-42cf-ad7e-559eb9802048","ios":"levelo://app?vid=fc415666-0eee-42cf-ad7e-559eb9802048"},"vehicle_type_id":"4","last_reported":1761462557,"current_range_meters":20800,"station_id":"","pricing_plan_id":"cebpf4jnsgd1na2vs0mg"},{"bike_id":"48f379fc-9021-4051-8306-9d9acbadecc0","system_id":"levelo_inurba_marseille","lat":43.303177,"lon":5.404407,"is_reserved":false,"is_disabled":false,"rental_uris":{"android":"levelo://app?vid=48f379fc-9021-4051-8306-9d9acbadecc0","ios":"levelo://app?vid=48f379fc-9021-4051-8306-9d9acbadecc0"},"vehicle_type_id":"4","last_reported":1761462557,"current_range_meters":20800,"station_id":"ce4bh012rcd13ifvqd10","pricing_plan_id":"cebpf4jnsgd1na2vs0mg"},{"bike_id":"e0f6a33f-8aa4-4a58-9626-cf221b60f85c","system_id":"levelo_inurba_marseille","lat":43.25711,"lon":5.41119,"is_reserved":false,"is_disabled":false,"rental_uris":{"android":"levelo://app?vid=e0f6a33f-8aa4-4a58-9626-cf221b60f85c","ios":"levelo://app?vid=e0f6a33f-8aa4-4a58-9626-cf221b60f85c"},"vehicle_type_id":"4","last_reported":1761462557,"current_range_meters":20800,"station_id":"ce4bhkp2rcd13ifvqgd0","pricing_plan_id":"cebpf4jnsgd1na2vs0mg"},{"bike_id":"458f5d68-7d8c-47e9-9206-2c8e9417c3d0","system_id":"levelo_inurba_marseille","lat":43.311151,"lon":5.377635,"is_reserved":false,"is_disabled":false,"rental_uris":{"android":"levelo://app?vid=458f5d68-7d8c-47e9-9206-2c8e9417c3d0","ios":"levelo://app?vid=458f5d68-7d8c-47e9-9206-2c8e9417c3d0"},"vehicle_type_id":"4","last_reported":1761462557,"current_range_meters":20800,"station_id":"ce4bgt92rcd13ifvqcg0","pricing_plan_id":"cebpf4jnsgd1na2vs0mg"},{"bike_id":"3cf954f8-897c-4098-b7a1-1e4490c2b26a","system_id":"levelo_inurba_marseille","lat":43.25822,"lon":5.39453,"is_reserved":false,"is_disabled":false,"rental_uris":{"android":"levelo://app?vid=3cf954f8-897c-4098-b7a1-1e4490c2b26a","ios":"levelo://app?vid=3cf954f8-897c-4098-b7a1-1e4490c2b26a"},"vehicle_type_id":"4","last_reported":1761462557,"current_range_meters":20800,"station_id":"ce4bhip2rcd13ifvqft0","pricing_plan_id":"cebpf4jnsgd1na2vs0mg"},{"bike_id":"5a025cd9-27dc-454b-837f-b07a75999f2f","system_id":"levelo_inurba_marseille","lat":43.2955,"lon":5.42282,"is_reserved":false,"is_disabled":false,"rental_uris":{"android":"levelo://app?vid=5a025cd9-27dc-454b-837f-b07a75999f2f","ios":"levelo://app?vid=5a025cd9-27dc-454b-837f-b07a75999f2f"},"vehicle_type_id":"4","last_reported":1761462557,"current_range_meters":20800,"station_id":"ce4bhph2rcd13ifvqhdg","pricing_plan_id":"cebpf4jnsgd1na2vs0mg"},{"bike_id":"3bbf0ac0-530a-490c-8628-abdb3b178099","system_id":"levelo_inurba_marseille","lat":43.30316,"lon":5.36888,"is_reserved":false,"is_disabled":false,"rental_uris":{"android":"levelo://app?vid=3bbf0ac0-530a-490c-8628-abdb3b178099","ios":"levelo://app?vid=3bbf0ac0-530a-490c-8628-abdb3b178099"},"vehicle_type_id":"4","last_reported":1761462557,"current_range_meters":20800,"station_id":"ce4bgqh2rcd13ifvqc5g","pricing_plan_id":"cebpf4jnsgd1na2vs0mg"},{"bike_id":"50c41fd9-15b8-47fc-9776-e10bad83b525","system_id":"levelo_inurba_marseille","lat":43.313232,"lon":5.397029,"is_reserved":false,"is_disabled":false,"rental_uris":{"android":"levelo://app?vid=50c41fd9-15b8-47fc-9776-e10bad83b525","ios":"levelo://app?vid=50c41fd9-15b8-47fc-9776-e10bad83b525"},"vehicle_type_id":"4","last_reported":1761462557,"current_range_meters":21600,"station_id":"ce4bgvp2rcd13ifvqcu0","pricing_plan_id":"cebpf4jnsgd1na2vs0mg"},{"bike_id":"e0a24cc3-4e18-410b-992e-b70e0df7f3fd","system_id":"levelo_inurba_marseille","lat":43.27839,"lon":5.39212,"is_reserved":false,"is_disabled":false,"rental_uris":{"android":"levelo://app?vid=e0a24cc3-4e18-410b-992e-b70e0df7f3fd","ios":"levelo://app?vid=e0a24cc3-4e18-410b-992e-b70e0df7f3fd"},"vehicle_type_id":"4","last_reported":1761462557,"current_range_meters":21600,"station_id":"ce4bhjp2rcd13ifvqga0","pricing_plan_id":"cebpf4jnsgd1na2vs0mg"},{"bike_id":"4b219a79-a7cc-4cd2-a25e-838fe8d3bf04","system_id":"levelo_inurba_marseille","lat":43.30882,"lon":5.39618,"is_reserved":false,"is_disabled":false,"rental_uris":{"android":"levelo://app?vid=4b219a79-a7cc-4cd2-a25e-838fe8d3bf04","ios":"levelo://app?vid=4b219a79-a7cc-4cd2-a25e-838fe8d3bf04"},"vehicle_type_id":"4","last_reported":1761462557,"current_range_meters":21600,"station_id":"ce4bh012rcd13ifvqcv0","pricing_plan_id":"cebpf4jnsgd1na2vs0mg"},{"bike_id":"cae791e4-9320-485f-9c28-50184ab330aa","system_id":"levelo_inurba_marseille","lat":43.29724,"lon":5.37701,"is_reserved":false,"is_disabled":false,"rental_uris":{"android":"levelo://app?vid=cae791e4-9320-485f-9c28-50184ab330aa","ios":"levelo://app?vid=cae791e4-9320-485f-9c28-50184ab330aa"},"vehicle_type_id":"4","last_reported":1761462557,"current_range_meters":21600,"station_id":"ce4bgkh2rcd13ifvqbl0","pricing_plan_id":"cebpf4jnsgd1na2vs0mg"},{"bike_id":"5e01e153-f568-4dd1-9830-ed5137b3b890","system_id":"levelo_inurba_marseille","lat":43.27947,"lon":5.41038,"is_reserved":false,"is_disabled":false,"rental_uris":{"android":"levelo://app?vid=5e01e153-f568-4dd1-9830-ed5137b3b890","ios":"levelo://app?vid=5e01e153-f568-4dd1-9830-ed5137b3b890"},"vehicle_type_id":"4","last_reported":1761462557,"current_range_meters":21600,"station_id":"ce4bhnp2rcd13ifvqh0g","pricing_plan_id":"cebpf4jnsgd1na2vs0mg"},{"bike_id":"b81de7ee-225d-4a99-8da8-15b3eb59c30b","system_id":"levelo_inurba_marseille","lat":43.26927,"lon":5.38906,"is_reserved":false,"is_disabled":false,"rental_uris":{"android":"levelo://app?vid=b81de7ee-225d-4a99-8da8-15b3eb59c30b","ios":"levelo://app?vid=b81de7ee-225d-4a99-8da8-15b3eb59c30b"},"vehicle_type_id":"4","last_reported":1761462557,"current_range_meters":21600,"station_id":"ce4bhhh2rcd13ifvqfl0","pricing_plan_id":"cebpf4jnsgd1na2vs0mg"},