{"last_updated":1714068551,"ttl":30,"version":"2.2","data":{"bikes":[{"bike_id":"298cd0a3-5b3d-45c8-9a01-733bd0cea2b2","system_id":"levelo_inurba_marseille","lat":43.312239,"lon":5.368562,"is_reserved":false,"is_disabled":false,"rental_uris":{"android":"levelo://app?vid=298cd0a3-5b3d-45c8-9a01-733bd0cea2b2","ios":"levelo://app?vid=298cd0a3-5b3d-45c8-9a01-733bd0cea2b2"},"vehicle_type_id":"4","last_reported":1714068551,"current_range_meters":14400,"station_id":"ce4bgl92rcd13ifvqbq0","pricing_plan_id":"cebpf4jnsgd1na2vs0mg"},{"bike_id":"0419197f-dc17-4598-bbff-862ca06e361d","system_id":"levelo_inurba_marseille","lat":43.312239,"lon":5.368562,"is_reserved":false,"is_disabled":false,"rental_uris":{"android":"levelo://app?vid=0419197f-dc17-4598-bbff-862ca06e361d","ios":"levelo://app?vid=0419197f-dc17-4598-bbff-862ca06e361d"},"vehicle_type_id":"4","last_reported":1714068551,"current_range_meters":24800,"station_id":"ce4bgl92rcd13ifvqbq0","pricing_plan_id":"cebpf4jnsgd1na2vs0mg"},{"bike_id":"d203eb23-29b4-45c7-8ac8-dae53740cb42","system_id":"levelo_inurba_marseille","lat":43.312239,"lon":5.368562,"is_reserved":false,"is_disabled":false,"rental_uris":{"android":"levelo://app?vid=d203eb23-29b4-45c7-8ac8-dae53740cb42","ios":"levelo://app?vid=d203eb23-29b4-45c7-8ac8-dae53740cb42"},"vehicle_type_id":"4","last_reported":1714068551,"current_range_meters":13200,"station_id":"ce4bgl92rcd13ifvqbq0","pricing_plan_id":"cebpf4jnsgd1na2vs0mg"},{"bike_id":"bfe04d9a-7390-495a-bac4-4ec94aa03129","system_id":"levelo_inurba_marseille","lat":43.312203,"lon":5.368433,"is_reserved":false,"is_disabled":false,"rental_uris":{"android":"levelo://app?vid=bfe04d9a-7390-495a-bac4-4ec94aa03129","ios":"levelo://app?vid=bfe04d9a-7390-495a-bac4-4ec94aa03129"},"vehicle_type_id":"4","last_reported":1714068551,"current_range_meters":0,"station_id":"ce4bgl92rcd13ifvqbq0","pricing_plan_id":"cebpf4jnsgd1na2vs0mg"},{"bike_id":"c289cad0-9ba4-4708-9e84-84bf16d65a5f","system_id":"levelo_inurba_marseille","lat":43.312239,"lon":5.368562,"is_reserved":false,"is_disabled":false,"rental_uris":{"android":"levelo://app?vid=c289cad0-9ba4-4708-9e84-84bf16d65a5f","ios":"levelo://app?vid=c289cad0-9ba4-4708-9e84-84bf16d65a5f"},"vehicle_type_id":"4","last_reported":1714068551,"current_range_meters":7600,"station_id":"ce4bgl92rcd13ifvqbq0","pricing_plan_id":"cebpf4jnsgd1na2vs0mg"},{"bike_id":"1a872476-553d-4fcc-ac5a-b67bc9a4c898","system_id":"levelo_inurba_marseille","lat":43.312239,"lon":5.368562,"is_reserved":false,"is_disabled":false,"rental_uris":{"android":"levelo://app?vid=1a872476-553d-4fcc-ac5a-b67bc9a4c898","ios":"levelo://app?vid=1a872476-553d-4fcc-ac5a-b67bc9a4c898"},"vehicle_type_id":"4","last_reported":1714068551,"current_range_meters":10400,"station_id":"ce4bgl92rcd13ifvqbq0","pricing_plan_id":"cebpf4jnsgd1na2vs0mg"},{"bike_id":"c3b9770a-0a82-45c6-b5c1-7eb586992f54","system_id":"levelo_inurba_marseille","lat":43.312239,"lon":5.368562,"is_reserved":false,"is_disabled":false,"rental_uris":{"android":"levelo://app?vid=c3b9770a-0a82-45c6-b5c1-7eb586992f54","ios":"levelo://app?vid=c3b9770a-0a82-45c6-b5c1-7eb586992f54"},"vehicle_type_id":"4","last_reported":1714068551,"current_range_meters":2000,"station_id":"ce4bgl92rcd13ifvqbq0","pricing_plan_id":"cebpf4jnsgd1na2vs0mg"},{"bike_id":"89d5e278-9609-4e6c-946a-97ea946849af","system_id":"levelo_inurba_marseille","lat":43.312239,"lon":5.368562,"is_reserved":false,"is_disabled":false,"rental_uris":{"android":"levelo://app?vid=89d5e278-9609-4e6c-946a-97ea946849af","ios":"levelo://app?vid=89d5e278-9609-4e6c-946a-97ea946849af"},"vehicle_type_id":"4","last_reported":1714068551,"current_range_meters":0,"station_id":"ce4bgl92rcd13ifvqbq0","pricing_plan_id":"cebpf4jnsgd1na2vs0mg"},{"bike_id":"b6aecdf6-0e46-41c7-b1ea-de108a69d816","system_id":"levelo_inurba_marseille","lat":43.312239,"lon":5.368562,"is_reserved":false,"is_disabled":false,"rental_uris":{"android":"levelo://app?vid=b6aecdf6-0e46-41c7-b1ea-de108a69d816","ios":"levelo://app?vid=b6aecdf6-0e46-41c7-b1ea-de108a69d816"},"vehicle_type_id":"4","last_reported":1714068551,"current_range_meters":12800,"station_id":"ce4bgl92rcd13ifvqbq0","pricing_plan_id":"cebpf4jnsgd1na2vs0mg"},{"bike_id":"28feb37d-81bb-477c-aba4-d6ee7d35c677","system_id":"levelo_inurba_marseille","lat":43.312239,"lon":5.368562,"is_reserved":false,"is_disabled":false,"rental_uris":{"android":"levelo://app?vid=28feb37d-81bb-477c-aba4-d6ee7d35c677","ios":"levelo://app?vid=28feb37d-81bb-477c-aba4-d6ee7d35c677"},"vehicle_type_id":"4","last_reported":1714068551,"current_range_meters":0,"station_id":"ce4bgl92rcd13ifvqbq0","pricing_plan_id":"cebpf4jnsgd1na2vs0mg"},{"bike_id":"a688304b-117c-41af-9d8a-66b81ef8c5a7","system_id":"levelo_inurba_marseille","lat":43.312239,"lon":5.368562,"is_reserved":false,"is_disabled":false,"rental_uris":{"android":"levelo://app?vid=a688304b-117c-41af-9d8a-66b81ef8c5a7","ios":"levelo://app?vid=a688304b-117c-41af-9d8a-66b81ef8c5a7"},"vehicle_type_id":"4","last_reported":1714068551,"current_range_meters":27200,"station_id":"ce4bgl92rcd13ifvqbq0","pricing_plan_id":"cebpf4jnsgd1na2vs0mg"},{"bike_id":"6313c8ac-7cd1-4be3-a192-44d9e59a22aa","system_id":"levelo_inurba_marseille","lat":43.309076,"lon":5.368465,"is_reserved":false,"is_disabled":false,"rental_uris":{"android":"levelo://app?vid=6313c8ac-7cd1-4be3-a192-44d9e59a22aa","ios":"levelo://app?vid=6313c8ac-7cd1-4be3-a192-44d9e59a22aa"},"vehicle_type_id":"4","last_reported":1714068551,"current_range_meters":13600,"station_id":"ce4bgn92rcd13ifvqbvg","pricing_plan_id":"cebpf4jnsgd1na2vs0mg"},{"bike_id":"4cee523d-3892-4c32-a543-70eeaa819d19","system_id":"levelo_inurba_marseille","lat":43.314844,"lon":5.372997,"is_reserved":false,"is_disabled":false,"rental_uris":{"android":"levelo://app?vid=4cee523d-3892-4c32-a543-70eeaa819d19","ios":"levelo://app?vid=4cee523d-3892-4c32-a543-70eeaa819d19"},"vehicle_type_id":"4","last_reported":1714068551,"current_range_meters":0,"station_id":"ce4bgt12rcd13ifvqcd0","pricing_plan_id":"cebpf4jnsgd1na2vs0mg"},{"bike_id":"c12d1915-3b58-4e26-ae24-8ea1f867b411","system_id":"levelo_inurba_marseille","lat":43.314811,"lon":5.373103,"is_reserved":false,"is_disabled":false,"rental_uris":{"android":"levelo://app?vid=c12d1915-3b58-4e26-ae24-8ea1f867b411","ios":"levelo://app?vid=c12d1915-3b58-4e26-ae24-8ea1f867b411"},"vehicle_type_id":"4","last_reported":1714068551,"current_range_meters":0,"station_id":"ce4bgt12rcd13ifvqcd0","pricing_plan_id":"cebpf4jnsgd1na2vs0mg"},{"bike_id":"2d5ca1d9-afe8-4103-bc71-0e2c97b365cb","system_id":"levelo_inurba_marseille","lat":43.31491,"lon":5.37309,"is_reserved":false,"is_disabled":false,"rental_uris":{"android":"levelo://app?vid=2d5ca1d9-afe8-4103-bc71-0e2c97b365cb","ios":"levelo://app?vid=2d5ca1d9-afe8-4103-bc71-0e2c97b365cb"},"vehicle_type_id":"4","last_reported":1714068551,"current_range_meters":5200,"station_id":"ce4bgt12rcd13ifvqcd0","pricing_plan_id":"cebpf4jnsgd1na2vs0mg"},{"bike_id":"fb88706c-7cd4-41be-b4ca-e7deb61f0015","system_id":"levelo_inurba_marseille","lat":43.314811,"lon":5.373103,"is_reserved":false,"is_disabled":false,"rental_uris":{"android":"levelo://app?vid=fb88706c-7cd4-41be-b4ca-e7deb61f0015","ios":"levelo://app?vid=fb88706c-7cd4-41be-b4ca-e7deb61f0015"},"vehicle_type_id":"4","last_reported":1714068551,"current_range_meters":5600,"station_id":"ce4bgt12rcd13ifvqcd0","pricing_plan_id":"cebpf4jnsgd1na2vs0mg"},{"bike_id":"87d444d8-8c8d-46ef-99f2-2d13542235b3","system_id":"levelo_inurba_marseille","lat":43.314811,"lon":5.373103,"is_reserved":false,"is_disabled":false,"rental_uris":{"android":"levelo://app?vid=87d444d8-8c8d-46ef-99f2-2d13542235b3","ios":"levelo://app?vid=87d444d8-8c8d-46ef-99f2-2d13542235b3"},"vehicle_type_id":"4","last_reported":1714068551,"current_range_meters":16400,"station_id":"ce4bgt12rcd13ifvqcd0","pricing_plan_id":"cebpf4jnsgd1na2vs0mg"},{"bike_id":"4060ac5c-ad52-40f7-b1a5-0574eaaaaeba","system_id":"levelo_inurba_marseille","lat":43.314811,"lon":5.373103,"is_reserved":false,"is_disabled":false,"rental_uris":{"android":"levelo://app?vid=4060ac5c-ad52-40f7-b1a5-0574eaaaaeba","ios":"levelo://app?vid=4060ac5c-ad52-40f7-b1a5-0574eaaaaeba"},"vehicle_type_id":"4","last_reported":1714068551,"current_range_meters":9600,"station_id":"ce4bgt12rcd13ifvqcd0","pricing_plan_id":"cebpf4jnsgd1na2vs0mg"},{"bike_id":"f52c225b-5149-4fb2-9059-ce6ff681d98d","system_id":"levelo_inurba_marseille","lat":43.314811,"lon":5.373103,"is_reserved":false,"is_disabled":false,"rental_uris":{"android":"levelo://app?vid=f52c225b-5149-4fb2-9059-ce6ff681d98d","ios":"levelo://app?vid=f52c225b-5149-4fb2-9059-ce6ff681d98d"},"vehicle_type_id":"4","last_reported":1714068551,"current_range_meters":8800,"station_id":"ce4bgt12rcd13ifvqcd0","pricing_plan_id":"cebpf4jnsgd1na2vs0mg"},{"bike_id":"4b2b05c4-f5cd-46ae-a965-f1f19afcebee","system_id":"levelo_inurba_marseille","lat":43.314811,"lon":5.373104,"is_reserved":false,"is_disabled":false,"rental_uris":{"android":"levelo://app?vid=4b2b05c4-f5cd-46ae-a965-f1f19afcebee","ios":"levelo://app?vid=4b2b05c4-f5cd-46ae-a965-f1f19afcebee"},"vehicle_type_id":"4","last_reported":1714068551,"current_range_meters":2000,"station_id":"ce4bgt12rcd13ifvqcd0","pricing_plan_id":"cebpf4jnsgd1na2vs0mg"},{"bike_id":"6483d9b0-4028-425b-99b1-7d926ab49a53","system_id":"levelo_inurba_marseille","lat":43.31508,"lon":5.37302,"is_reserved":false,"is_disabled":false,"rental_uris":{"android":"levelo://app?vid=6483d9b0-4028-425b-99b1-7d926ab49a53","ios":"levelo://app?vid=6483d9b0-4028-425b-99b1-7d926ab49a53"},"vehicle_type_id":"4","last_reported":1714068551,"current_range_meters":0,"station_id":"ce4bgt12rcd13ifvqcd0","pricing_plan_id":"cebpf4jnsgd1na2vs0mg"},{"bike_id":"19cb6e2e-df35-4aeb-9552-45eb1c381056","system_id":"levelo_inurba_marseille","lat":43.309039,"lon":5.371797,"is_reserved":false,"is_disabled":false,"rental_uris":{"android":"levelo://app?vid=19cb6e2e-df35-4aeb-9552-45eb1c381056","ios":"levelo://app?vid=19cb6e2e-df35-4aeb-9552-45eb1c381056"},"vehicle_type_id":"4","last_reported":1714068551,"current_range_meters":23600,"station_id":"ce4bguh2rcd13ifvqckg","pricing_plan_id":"cebpf4jnsgd1na2vs0mg"},{"bike_id":"4da7f9d0-0044-4deb-82fd-031cc17a6971","system_id":"levelo_inurba_marseille","lat":43.314811,"lon":5.373103,"is_reserved":false,"is_disabled":false,"rental_uris":{"android":"levelo://app?vid=4da7f9d0-0044-4deb-82fd-031cc17a6971","ios":"levelo://app?vid=4da7f9d0-0044-4deb-82fd-031cc17a6971"},"vehicle_type_id":"4","last_reported":1714068551,"current_range_meters":20400,"station_id":"ce4bgt12rcd13ifvqcd0","pricing_plan_id":"cebpf4jnsgd1na2vs0mg"},{"bike_id":"0c1daa90-1eb2-4db1-b998-93222a1d6078","system_id":"levelo_inurba_marseille","lat":43.309034,"lon":5.371783,"is_reserved":false,"is_disabled":false,"rental_uris":{"android":"levelo://app?vid=0c1daa90-1eb2-4db1-b998-93222a1d6078","ios":"levelo://app?vid=0c1daa90-1eb2-4db1-b998-93222a1d6078"},"vehicle_type_id":"4","last_reported":1714068551,"current_range_meters":3200,"station_id":"ce4bguh2rcd13ifvqckg","pricing_plan_id":"cebpf4jnsgd1na2vs0mg"},{"bike_id":"273ec9fb-e5a6-47bc-ab8d-99fd227a4ef3","system_id":"levelo_inurba_marseille","lat":43.30594,"lon":5.36552,"is_reserved":false,"is_disabled":false,"rental_uris":{"android":"levelo://app?vid=273ec9fb-e5a6-47bc-ab8d-99fd227a4ef3","ios":"levelo://app?vid=273ec9fb-e5a6-47bc-ab8d-99fd227a4ef3"},"vehicle_type_id":"4","last_reported":1714068551,"current_range_meters":0,"station_id":"ce4bgs12rcd13ifvqcag","pricing_plan_id":"cebpf4jnsgd1na2vs0mg"},{"bike_id":"bd2907e0-0677-406a-aa56-23dd9fe586f0","system_id":"levelo_inurba_marseille","lat":43.30548,"lon":5.3672,"is_reserved":false,"is_disabled":false,"rental_uris":{"android":"levelo://app?vid=bd2907e0-0677-406a-aa56-23dd9fe586f0","ios":"levelo://app?vid=bd2907e0-0677-406a-aa56-23dd9fe586f0"},"vehicle_type_id":"4","last_reported":1714068551,"current_range_meters":6400,"station_id":"ce4bgrp2rcd13ifvqc9g","pricing_plan_id":"cebpf4jnsgd1na2vs0mg"},{"bike_id":"7b46e66c-1e19-40bc-bfb5-d6280bdcf405","system_id":"levelo_inurba_marseille","lat":43.305435,"lon":5.367075,"is_reserved":false,"is_disabled":false,"rental_uris":{"android":"levelo://app?vid=7b46e66c-1e19-40bc-bfb5-d6280bdcf405","ios":"levelo://app?vid=7b46e66c-1e19-40bc-bfb5-d6280bdcf405"},"vehicle_type_id":"4","last_reported":1714068551,"current_range_meters":10800,"station_id":"ce4bh2h2rcd13ifvqdh0","pricing_plan_id":"cebpf4jnsgd1na2vs0mg"},{"bike_id":"f0781bb7-0b2f-4abd-81f7-bb8327baad33","system_id":"levelo_inurba_marseille","lat":43.30548,"lon":5.36542,"is_reserved":false,"is_disabled":false,"rental_uris":{"android":"levelo://app?vid=f0781bb7-0b2f-4abd-81f7-bb8327baad33","ios":"levelo://app?vid=f0781bb7-0b2f-4abd-81f7-bb8327baad33"},"vehicle_type_id":"4","last_reported":1714068551,"current_range_meters":0,"station_id":"ce4bgs12rcd13ifvqcag","pricing_plan_id":"cebpf4jnsgd1na2vs0mg"},{"bike_id":"a34400e2-6c6b-4ea1-96ca-bac207eb5a67","system_id":"levelo_inurba_marseille","lat":43.311131,"lon":5.377651,"is_reserved":false,"is_disabled":false,"rental_uris":{"android":"levelo://app?vid=a34400e2-6c6b-4ea1-96ca-bac207eb5a67","ios":"levelo://app?vid=a34400e2-6c6b-4ea1-96ca-bac207eb5a67"},"vehicle_type_id":"4","last_reported":1714068551,"current_range_meters":13600,"station_id":"ce4bgt92rcd13ifvqcg0","pricing_plan_id":"cebpf4jnsgd1na2vs0mg"},{"bike_id":"abd9f1fe-6ec4-4fbc-a7ca-e5ef953a1cec","system_id":"levelo_inurba_marseille","lat":43.305368,"lon":5.367343,"is_reserved":false,"is_disabled":false,"rental_uris":{"android":"levelo://app?vid=abd9f1fe-6ec4-4fbc-a7ca-e5ef953a1cec","ios":"levelo://app?vid=abd9f1fe-6ec4-4fbc-a7ca-e5ef953a1cec"},"vehicle_type_id":"4","last_reported":1714068551,"current_range_meters":2000,"station_id":"ce4bgrp2rcd13ifvqc9g","pricing_plan_id":"cebpf4jnsgd1na2vs0mg"},{"bike_id":"6bddcd4c-beb1-492d-ac76-35d415dc8302","system_id":"levelo_inurba_marseille","lat":43.305989,"lon":5.37225,"is_reserved":false,"is_disabled":false,"rental_uris":{"android":"levelo://app?vid=6bddcd4c-beb1-492d-ac76-35d415dc8302","ios":"levelo://app?vid=6bddcd4c-beb1-492d-ac76-35d415dc8302"},"vehicle_type_id":"4","last_reported":1714068551,"current_range_meters":400,"station_id":"ce4bgqh2rcd13ifvqc4g","pricing_plan_id":"cebpf4jnsgd1na2vs0mg"},{"bike_id":"144dacf6-26c7-4313-9177-60e6a6722639","system_id":"levelo_inurba_marseille","lat":43.292311,"lon":5.360731,"is_reserved":false,"is_disabled":false,"rental_uris":{"android":"levelo://app?vid=144dacf6-26c7-4313-9177-60e6a6722639","ios":"levelo://app?vid=144dacf6-26c7-4313-9177-60e6a6722639"},"vehicle_type_id":"4","last_reported":1714068551,"current_range_meters":400,"station_id":"ce4bhbh2rcd13ifvqeqg","pricing_plan_id":"cebpf4jnsgd1na2vs0mg"},{"bike_id":"d8cd826e-3235-4cb8-a30a-c6d966cc6074","system_id":"levelo_inurba_marseille","lat":43.31126,"lon":5.37761,"is_reserved":false,"is_disabled":false,"rental_uris":{"android":"levelo://app?vid=d8cd826e-3235-4cb8-a30a-c6d966cc6074","ios":"levelo://app?vid=d8cd826e-3235-4cb8-a30a-c6d966cc6074"},"vehicle_type_id":"4","last_reported":1714068551,"current_range_meters":14800,"station_id":"ce4bgt92rcd13ifvqcg0","pricing_plan_id":"cebpf4jnsgd1na2vs0mg"},{"bike_id":"1b0bf927-10a4-49a5-95e6-ed422d1c95d3","system_id":"levelo_inurba_marseille","lat":43.311131,"lon":5.377651,"is_reserved":false,"is_disabled":false,"rental_uris":{"android":"levelo://app?vid=1b0bf927-10a4-49a5-95e6-ed422d1c95d3","ios":"levelo://app?vid=1b0bf927-10a4-49a5-95e6-ed422d1c95d3"},"vehicle_type_id":"4","last_reported":1714068551,"current_range_meters":19600,"station_id":"ce4bgt92rcd13ifvqcg0","pricing_plan_id":"cebpf4jnsgd1na2vs0mg"},{"bike_id":"b8988897-dcc5-432e-8d1b-c5fa0c5ccf41","system_id":"levelo_inurba_marseille","lat":43.3112,"lon":5.377685,"is_reserved":false,"is_disabled":false,"rental_uris":{"android":"levelo://app?vid=b8988897-dcc5-432e-8d1b-c5fa0c5ccf41","ios":"levelo://app?vid=b8988897-dcc5-432e-8d1b-c5fa0c5ccf41"},"vehicle_type_id":"4","last_reported":1714068551,"current_range_meters":3600,"station_id":"ce4bgt92rcd13ifvqcg0","pricing_plan_id":"cebpf4jnsgd1na2vs0mg"},{"bike_id":"b187bbf1-adaf-474b-a5a6-d34001008d70","system_id":"levelo_inurba_marseille","lat":43.311131,"lon":5.377651,"is_reserved":false,"is_disabled":false,"rental_uris":{"android":"levelo://app?vid=b187bbf1-adaf-474b-a5a6-d34001008d70","ios":"levelo://app?vid=b187bbf1-adaf-474b-a5a6-d34001008d70"},"vehicle_type_id":"4","last_reported":1714068551,"current_range_meters":1600,"station_id":"ce4bgt92rcd13ifvqcg0","pricing_plan_id":"cebpf4jnsgd1na2vs0mg"},{"bike_id":"0f495ed8-e111-49aa-8497-665a64d5ec9b","system_id":"levelo_inurba_marseille","lat":43.311204,"lon":5.377711,"is_reserved":false,"is_disabled":false,"rental_uris":{"android":"levelo://app?vid=0f495ed8-e111-49aa-8497-665a64d5ec9b","ios":"levelo://app?vid=0f495ed8-e111-49aa-8497-665a64d5ec9b"},"vehicle_type_id":"4","last_reported":1714068551,"current_range_meters":4400,"station_id":"ce4bgt92rcd13ifvqcg0","pricing_plan_id":"cebpf4jnsgd1na2vs0mg"},{"bike_id":"86ac819e-fb03-4f9e-8252-15eebdd5abfc","system_id":"levelo_inurba_marseille","lat":43.311125,"lon":5.377624,"is_reserved":false,"is_disabled":false,"rental_uris":{"android":"levelo://app?vid=86ac819e-fb03-4f9e-8252-15eebdd5abfc","ios":"levelo://app?vid=86ac819e-fb03-4f9e-8252-15eebdd5abfc"},"vehicle_type_id":"4","last_reported":1714068551,"current_range_meters":6400,"station_id":"ce4bgt92rcd13ifvqcg0","pricing_plan_id":"cebpf4jnsgd1na2vs0mg"},{"bike_id":"d7ff5d25-f5cf-45be-b981-02f3dde7104a","system_id":"levelo_inurba_marseille","lat":43.311131,"lon":5.377651,"is_reserved":false,"is_disabled":false,"rental_uris":{"android":"levelo://app?vid=d7ff5d25-f5cf-45be-b981-02f3dde7104a","ios":"levelo://app?vid=d7ff5d25-f5cf-45be-b981-02f3dde7104a"},"vehicle_type_id":"4","last_reported":1714068551,"current_range_meters":1200,"station_id":"ce4bgt92rcd13ifvqcg0","pricing_plan_id":"cebpf4jnsgd1na2vs0mg"},{"bike_id":"18382e17-6a6b-4a45-a3bc-0e5895473ddc","system_id":"levelo_inurba_marseille","lat":43.307945,"lon":5.376487,"is_reserved":false,"is_disabled":false,"rental_uris":{"android":"levelo://app?vid=18382e17-6a6b-4a45-a3bc-0e5895473ddc","ios":"levelo://app?vid=18382e17-6a6b-4a45-a3bc-0e5895473ddc"},"vehicle_type_id":"4","last_reported":1714068551,"current_range_meters":10400,"station_id":"ce4bgv92rcd13ifvqcq0","pricing_plan_id":"cebpf4jnsgd1na2vs0mg"},{"bike_id":"01c8efeb-4fb7-4f8f-a731-f28ede50a3f2","system_id":"levelo_inurba_marseille","lat":43.317075,"lon":5.377367,"is_reserved":false,"is_disabled":false,"rental_uris":{"android":"levelo://app?vid=01c8efeb-4fb7-4f8f-a731-f28ede50a3f2","ios":"levelo://app?vid=01c8efeb-4fb7-4f8f-a731-f28ede50a3f2"},"vehicle_type_id":"4","last_reported":1714068551,"current_range_meters":0,"station_id":"ce4bgth2rcd13ifvqch0","pricing_plan_id":"cebpf4jnsgd1na2vs0mg"},{"bike_id":"b6c8fcc3-ed57-4f98-b4f6-2c265221d32d","system_id":"levelo_inurba_marseille","lat":43.31704,"lon":5.37724,"is_reserved":false,"is_disabled":false,"rental_uris":{"android":"levelo://app?vid=b6c8fcc3-ed57-4f98-b4f6-2c265221d32d","ios":"levelo://app?vid=b6c8fcc3-ed57-4f98-b4f6-2c265221d32d"},"vehicle_type_id":"4","last_reported":1714068551,"current_range_meters":18400,"station_id":"ce4bgth2rcd13ifvqch0","pricing_plan_id":"cebpf4jnsgd1na2vs0mg"},{"bike_id":"8566e564-63c6-4173-8da1-27d616f3b694","system_id":"levelo_inurba_marseille","lat":43.311131,"lon":5.377651,"is_reserved":false,"is_disabled":false,"rental_uris":{"android":"levelo://app?vid=8566e564-63c6-4173-8da1-27d616f3b694","ios":"levelo://app?vid=8566e564-63c6-4173-8da1-27d616f3b694"},"vehicle_type_id":"4","last_reported":1714068551,"current_range_meters":12800,"station_id":"ce4bgt92rcd13ifvqcg0","pricing_plan_id":"cebpf4jnsgd1na2vs0mg"},{"bike_id":"4384296e-0b0b-42c2-b297-d14615187f1e","system_id":"levelo_inurba_marseille","lat":43.317075,"lon":5.377367,"is_reserved":false,"is_disabled":false,"rental_uris":{"android":"levelo://app?vid=4384296e-0b0b-42c2-b297-d14615187f1e","ios":"levelo://app?vid=4384296e-0b0b-42c2-b297-d14615187f1e"},"vehicle_type_id":"4","last_reported":1714068551,"current_range_meters":16000,"station_id":"ce4bgth2rcd13ifvqch0","pricing_plan_id":"cebpf4jnsgd1na2vs0mg"},{"bike_id":"c37f48fc-3c3d-4b0c-bb4a-05e02fd57fb6","system_id":"levelo_inurba_marseille","lat":43.31703,"lon":5.37749,"is_reserved":false,"is_disabled":false,"rental_uris":{"android":"levelo://app?vid=c37f48fc-3c3d-4b0c-bb4a-05e02fd57fb6","ios":"levelo://app?vid=c37f48fc-3c3d-4b0c-bb4a-05e02fd57fb6"},"vehicle_type_id":"4","last_reported":1714068551,"current_range_meters":7200,"station_id":"ce4bgth2rcd13ifvqch0","pricing_plan_id":"cebpf4jnsgd1na2vs0mg"},{"bike_id":"68b19812-56b4-488e-98dc-73863d342630","system_id":"levelo_inurba_marseille","lat":43.30326,"lon":5.36919,"is_reserved":false,"is_disabled":false,"rental_uris":{"android":"levelo://app?vid=68b19812-56b4-488e-98dc-73863d342630","ios":"levelo://app?vid=68b19812-56b4-488e-98dc-73863d342630"},"vehicle_type_id":"4","last_reported":1714068551,"current_range_meters":0,"station_id":"ce4bgqh2rcd13ifvqc5g","pricing_plan_id":"cebpf4jnsgd1na2vs0mg"},{"bike_id":"8c72f155-6d72-43dd-8a9e-73fe1ee06213","system_id":"levelo_inurba_marseille","lat":43.303046,"lon":5.368981,"is_reserved":false,"is_disabled":false,"rental_uris":{"android":"levelo://app?vid=8c72f155-6d72-43dd-8a9e-73fe1ee06213","ios":"levelo://app?vid=8c72f155-6d72-43dd-8a9e-73fe1ee06213"},"vehicle_type_id":"4","last_reported":1714068551,"current_range_meters":20400,"station_id":"ce4bgqh2rcd13ifvqc5g","pricing_plan_id":"cebpf4jnsgd1na2vs0mg"},{"bike_id":"76e0122d-924d-4040-9e24-3001e861f245","system_id":"levelo_inurba_marseille","lat":43.30506,"lon":5.377243,"is_reserved":false,"is_disabled":false,"rental_uris":{"android":"levelo://app?vid=76e0122d-924d-4040-9e24-3001e861f245","ios":"levelo://app?vid=76e0122d-924d-4040-9e24-3001e861f245"},"vehicle_type_id":"4","last_reported":1714068551,"current_range_meters":18400,"station_id":"","pricing_plan_id":"cebpf4jnsgd1na2vs0mg"},{"bike_id":"1fdf8c56-fd64-48ac-9450-29f6da508e40","system_id":"levelo_inurba_marseille","lat":43.301939,"lon":5.366286,"is_reserved":false,"is_disabled":false,"rental_uris":{"android":"levelo://app?vid=1fdf8c56-fd64-48ac-9450-29f6da508e40","ios":"levelo://app?vid=1fdf8c56-fd64-48ac-9450-29f6da508e40"},"vehicle_type_id":"4","last_reported":1714068551,"current_range_meters":30400,"station_id":"ce4bgrh2rcd13ifvqc8g","pricing_plan_id":"cebpf4jnsgd1na2vs0mg"},{"bike_id":"bb30593d-3e6d-4a17-a3a7-020d36cc86c9","system_id":"levelo_inurba_marseille","lat":43.308012,"lon":5.381511,"is_reserved":false,"is_disabled":false,"rental_uris":{"android":"levelo://app?vid=bb30593d-3e6d-4a17-a3a7-020d36cc86c9","ios":"levelo://app?vid=bb30593d-3e6d-4a17-a3a7-020d36cc86c9"},"vehicle_type_id":"4","last_reported":1714068551,"current_range_meters":4800,"station_id":"ce4bgt12rcd13ifvqce0","pricing_plan_id":"cebpf4jnsgd1na2vs0mg"},{"bike_id":"d4e8fc6c-b7fc-401b-9976-041b5b3254c4","system_id":"levelo_inurba_marseille","lat":43.304606,"lon":5.379026,"is_reserved":false,"is_disabled":false,"rental_uris":{"android":"levelo://app?vid=d4e8fc6c-b7fc-401b-9976-041b5b3254c4","ios":"levelo://app?vid=d4e8fc6c-b7fc-401b-9976-041b5b3254c4"},"vehicle_type_id":"4","last_reported":1714068551,"current_range_meters":1600,"station_id":"ce4bgup2rcd13ifvqcn0","pricing_plan_id":"cebpf4jnsgd1na2vs0mg"},{"bike_id":"877e302f-f794-440a-9ffa-4012c03bb6dc","system_id":"levelo_inurba_marseille","lat":43.304606,"lon":5.379026,"is_reserved":false,"is_disabled":false,"rental_uris":{"android":"levelo://app?vid=877e302f-f794-440a-9ffa-4012c03bb6dc","ios":"levelo://app?vid=877e302f-f794-440a-9ffa-4012c03bb6dc"},"vehicle_type_id":"4","last_reported":1714068551,"current_range_meters":31200,"station_id":"ce4bgup2rcd13ifvqcn0","pricing_plan_id":"cebpf4jnsgd1na2vs0mg"},{"bike_id":"09c91168-0602-4356-a9a2-11ba17154e3f","system_id":"levelo_inurba_marseille","lat":43.304606,"lon":5.379026,"is_reserved":false,"is_disabled":false,"rental_uris":{"android":"levelo://app?vid=09c91168-0602-4356-a9a2-11ba17154e3f","ios":"levelo://app?vid=09c91168-0602-4356-a9a2-11ba17154e3f"},"vehicle_type_id":"4","last_reported":1714068551,"current_range_meters":24800,"station_id":"ce4bgup2rcd13ifvqcn0","pricing_plan_id":"cebpf4jnsgd1na2vs0mg"},{"bike_id":"368ecea6-d208-4355-89eb-3edd21cf2972","system_id":"levelo_inurba_marseille","lat":43.324771,"lon":5.36557,"is_reserved":false,"is_disabled":false,"rental_uris":{"android":"levelo://app?vid=368ecea6-d208-4355-89eb-3edd21cf2972","ios":"levelo://app?vid=368ecea6-d208-4355-89eb-3edd21cf2972"},"vehicle_type_id":"4","last_reported":1714068551,"current_range_meters":23600,"station_id":"ce4bhs12rcd13ifvqhvg","pricing_plan_id":"cebpf4jnsgd1na2vs0mg"},{"bike_id":"d46c7698-787b-42d7-aca4-58e471af82c1","system_id":"levelo_inurba_marseille","lat":43.324771,"lon":5.36557,"is_reserved":false,"is_disabled":false,"rental_uris":{"android":"levelo://app?vid=d46c7698-787b-42d7-aca4-58e471af82c1","ios":"levelo://app?vid=d46c7698-787b-42d7-aca4-58e471af82c1"},"vehicle_type_id":"4","last_reported":1714068551,"current_range_meters":23200,"station_id":"ce4bhs12rcd13ifvqhvg","pricing_plan_id":"cebpf4jnsgd1na2vs0mg"},{"bike_id":"8f88d152-971d-4d2c-8874-d58372618b70","system_id":"levelo_inurba_marseille","lat":43.32479,"lon":5.36564,"is_reserved":false,"is_disabled":false,"rental_uris":{"android":"levelo://app?vid=8f88d152-971d-4d2c-8874-d58372618b70","ios":"levelo://app?vid=8f88d152-971d-4d2c-8874-d58372618b70"},"vehicle_type_id":"4","last_reported":1714068551,"current_range_meters":5200,"station_id":"ce4bhs12rcd13ifvqhvg","pricing_plan_id":"cebpf4jnsgd1na2vs0mg"},{"bike_id":"ca4ca187-799d-46f4-a1d1-32619e2f58ca","system_id":"levelo_inurba_marseille","lat":43.324771,"lon":5.36557,"is_reserved":false,"is_disabled":false,"rental_uris":{"android":"levelo://app?vid=ca4ca187-799d-46f4-a1d1-32619e2f58ca","ios":"levelo://app?vid=ca4ca187-799d-46f4-a1d1-32619e2f58ca"},"vehicle_type_id":"4","last_reported":1714068551,"current_range_meters":29200,"station_id":"ce4bhs12rcd13ifvqhvg","pricing_plan_id":"cebpf4jnsgd1na2vs0mg"},{"bike_id":"f49a684d-610a-4500-a8c0-16dc58fc4d13","system_id":"levelo_inurba_marseille","lat":43.324771,"lon":5.36557,"is_reserved":false,"is_disabled":false,"rental_uris":{"android":"levelo://app?vid=f49a684d-610a-4500-a8c0-16dc58fc4d13","ios":"levelo://app?vid=f49a684d-610a-4500-a8c0-16dc58fc4d13"},"vehicle_type_id":"4","last_reported":1714068551,"current_range_meters":13200,"station_id":"ce4bhs12rcd13ifvqhvg","pricing_plan_id":"cebpf4jnsgd1na2vs0mg"},{"bike_id":"40b666b2-30b2-4933-aaa5-d61dd1849f20","system_id":"levelo_inurba_marseille","lat":43.324771,"lon":5.36557,"is_reserved":false,"is_disabled":false,"rental_uris":{"android":"levelo://app?vid=40b666b2-30b2-4933-aaa5-d61dd1849f20","ios":"levelo://app?vid=40b666b2-30b2-4933-aaa5-d61dd1849f20"},"vehicle_type_id":"4","last_reported":1714068551,"current_range_meters":29200,"station_id":"ce4bhs12rcd13ifvqhvg","pricing_plan_id":"cebpf4jnsgd1na2vs0mg"},{"bike_id":"516e5cf7-9fd5-499c-ac13-c35246d1c116","system_id":"levelo_inurba_marseille","lat":43.324771,"lon":5.36557,"is_reserved":false,"is_disabled":false,"rental_uris":{"android":"levelo://app?vid=516e5cf7-9fd5-499c-ac13-c35246d1c116","ios":"levelo://app?vid=516e5cf7-9fd5-499c-ac13-c35246d1c116"},"vehicle_type_id":"4","last_reported":1714068551,"current_range_meters":10400,"station_id":"ce4bhs12rcd13ifvqhvg","pricing_plan_id":"cebpf4jnsgd1na2vs0mg"},{"bike_id":"e7467c82-0d42-4813-a3e5-8b0fe2f5bd7b","system_id":"levelo_inurba_marseille","lat":43.324771,"lon":5.36557,"is_reserved":false,"is_disabled":false,"rental_uris":{"android":"levelo://app?vid=e7467c82-0d42-4813-a3e5-8b0fe2f5bd7b","ios":"levelo://app?vid=e7467c82-0d42-4813-a3e5-8b0fe2f5bd7b"},"vehicle_type_id":"4","last_reported":1714068551,"current_range_meters":21200,"station_id":"ce4bhs12rcd13ifvqhvg","pricing_plan_id":"cebpf4jnsgd1na2vs0mg"},{"bike_id":"48791681-48d0-4948-be97-7a720fbe1e98","system_id":"levelo_inurba_marseille","lat":43.324771,"lon":5.36557,"is_reserved":false,"is_disabled":false,"rental_uris":{"android":"levelo://app?vid=48791681-48d0-4948-be97-7a720fbe1e98","ios":"levelo://app?vid=48791681-48d0-4948-be97-7a720fbe1e98"},"vehicle_type_id":"4","last_reported":1714068551,"current_range_meters":28800,"station_id":"ce4bhs12rcd13ifvqhvg","pricing_plan_id":"cebpf4jnsgd1na2vs0mg"},{"bike_id":"db7931df-8e84-4e96-b13e-33c41fec8621","system_id":"levelo_inurba_marseille","lat":43.310804,"lon":5.38359,"is_reserved":false,"is_disabled":false,"rental_uris":{"android":"levelo://app?vid=db7931df-8e84-4e96-b13e-33c41fec8621","ios":"levelo://app?vid=db7931df-8e84-4e96-b13e-33c41fec8621"},"vehicle_type_id":"4","last_reported":1714068551,"current_range_meters":2800,"station_id":"ce4bgv92rcd13ifvqcr0","pricing_plan_id":"cebpf4jnsgd1na2vs0mg"},{"bike_id":"f9126dfc-64ce-4aa8-be6e-ef2a45d0480a","system_id":"levelo_inurba_marseille","lat":43.310804,"lon":5.38359,"is_reserved":false,"is_disabled":false,"rental_uris":{"android":"levelo://app?vid=f9126dfc-64ce-4aa8-be6e-ef2a45d0480a","ios":"levelo://app?vid=f9126dfc-64ce-4aa8-be6e-ef2a45d0480a"},"vehicle_type_id":"4","last_reported":1714068551,"current_range_meters":4000,"station_id":"ce4bgv92rcd13ifvqcr0","pricing_plan_id":"cebpf4jnsgd1na2vs0mg"},{"bike_id":"49587430-d4a1-4231-85c4-9af5f0e154c2","system_id":"levelo_inurba_marseille","lat":43.302784,"lon":5.377158,"is_reserved":false,"is_disabled":false,"rental_uris":{"android":"levelo://app?vid=49587430-d4a1-4231-85c4-9af5f0e154c2","ios":"levelo://app?vid=49587430-d4a1-4231-85c4-9af5f0e154c2"},"vehicle_type_id":"4","last_reported":1714068551,"current_range_meters":0,"station_id":"ce4bguh2rcd13ifvqcj0","pricing_plan_id":"cebpf4jnsgd1na2vs0mg"},{"bike_id":"371ce480-326a-4569-8e56-9687cd2cf1f7","system_id":"levelo_inurba_marseille","lat":43.310804,"lon":5.38359,"is_reserved":false,"is_disabled":false,"rental_uris":{"android":"levelo://app?vid=371ce480-326a-4569-8e56-9687cd2cf1f7","ios":"levelo://app?vid=371ce480-326a-4569-8e56-9687cd2cf1f7"},"vehicle_type_id":"4","last_reported":1714068551,"current_range_meters":2800,"station_id":"ce4bgv92rcd13ifvqcr0","pricing_plan_id":"cebpf4jnsgd1na2vs0mg"},{"bike_id":"a9f0373f-b434-4341-822b-c7c927c91da9","system_id":"levelo_inurba_marseille","lat":43.302784,"lon":5.377158,"is_reserved":false,"is_disabled":false,"rental_uris":{"android":"levelo://app?vid=a9f0373f-b434-4341-822b-c7c927c91da9","ios":"levelo://app?vid=a9f0373f-b434-4341-822b-c7c927c91da9"},"vehicle_type_id":"4","last_reported":1714068551,"current_range_meters":15600,"station_id":"ce4bguh2rcd13ifvqcj0","pricing_plan_id":"cebpf4jnsgd1na2vs0mg"},{"bike_id":"f3032ffa-aadd-46a1-a7e9-124c07c4406f","system_id":"levelo_inurba_marseille","lat":43.301429,"lon":5.37413,"is_reserved":false,"is_disabled":false,"rental_uris":{"android":"levelo://app?vid=f3032ffa-aadd-46a1-a7e9-124c07c4406f","ios":"levelo://app?vid=f3032ffa-aadd-46a1-a7e9-124c07c4406f"},"vehicle_type_id":"4","last_reported":1714068551,"current_range_meters":30000,"station_id":"ce4bgs92rcd13ifvqcc0","pricing_plan_id":"cebpf4jnsgd1na2vs0mg"},{"bike_id":"81f9b193-22d1-4841-88a9-1e6859aeb76b","system_id":"levelo_inurba_marseille","lat":43.319935,"lon":5.381699,"is_reserved":false,"is_disabled":false,"rental_uris":{"android":"levelo://app?vid=81f9b193-22d1-4841-88a9-1e6859aeb76b","ios":"levelo://app?vid=81f9b193-22d1-4841-88a9-1e6859aeb76b"},"vehicle_type_id":"4","last_reported":1714068551,"current_range_meters":22000,"station_id":"ce4bhr12rcd13ifvqhpg","pricing_plan_id":"cebpf4jnsgd1na2vs0mg"},{"bike_id":"c392d2a5-7b30-4977-9da0-86522e68a790","system_id":"levelo_inurba_marseille","lat":43.319935,"lon":5.381699,"is_reserved":false,"is_disabled":false,"rental_uris":{"android":"levelo://app?vid=c392d2a5-7b30-4977-9da0-86522e68a790","ios":"levelo://app?vid=c392d2a5-7b30-4977-9da0-86522e68a790"},"vehicle_type_id":"4","last_reported":1714068551,"current_range_meters":10000,"station_id":"ce4bhr12rcd13ifvqhpg","pricing_plan_id":"cebpf4jnsgd1na2vs0mg"},{"bike_id":"ce070fc7-b747-4b1b-92f6-e9fe1b0b823b","system_id":"levelo_inurba_marseille","lat":43.299222,"lon":5.365554,"is_reserved":false,"is_disabled":false,"rental_uris":{"android":"levelo://app?vid=ce070fc7-b747-4b1b-92f6-e9fe1b0b823b","ios":"levelo://app?vid=ce070fc7-b747-4b1b-92f6-e9fe1b0b823b"},"vehicle_type_id":"4","last_reported":1714068551,"current_range_meters":2800,"station_id":"ce4bgm92rcd13ifvqbr0","pricing_plan_id":"cebpf4jnsgd1na2vs0mg"},{"bike_id":"ca510126-9f8b-4447-94bf-dc030295f492","system_id":"levelo_inurba_marseille","lat":43.299222,"lon":5.365554,"is_reserved":false,"is_disabled":false,"rental_uris":{"android":"levelo://app?vid=ca510126-9f8b-4447-94bf-dc030295f492","ios":"levelo://app?vid=ca510126-9f8b-4447-94bf-dc030295f492"},"vehicle_type_id":"4","last_reported":1714068551,"current_range_meters":6400,"station_id":"ce4bgm92rcd13ifvqbr0","pricing_plan_id":"cebpf4jnsgd1na2vs0mg"},{"bike_id":"dcebdfa2-bedd-4e4d-b09a-3e7b772166bc","system_id":"levelo_inurba_marseille","lat":43.299222,"lon":5.365554,"is_reserved":false,"is_disabled":false,"rental_uris":{"android":"levelo://app?vid=dcebdfa2-bedd-4e4d-b09a-3e7b772166bc","ios":"levelo://app?vid=dcebdfa2-bedd-4e4d-b09a-3e7b772166bc"},"vehicle_type_id":"4","last_reported":1714068551,"current_range_meters":7200,"station_id":"ce4bgm92rcd13ifvqbr0","pricing_plan_id":"cebpf4jnsgd1na2vs0mg"},{"bike_id":"df82cdab-f8f5-4ecf-9876-0eedf14b78a5","system_id":"levelo_inurba_marseille","lat":43.29983,"lon":5.37172,"is_reserved":false,"is_disabled":false,"rental_uris":{"android":"levelo://app?vid=df82cdab-f8f5-4ecf-9876-0eedf14b78a5","ios":"levelo://app?vid=df82cdab-f8f5-4ecf-9876-0eedf14b78a5"},"vehicle_type_id":"4","last_reported":1714068551,"current_range_meters":20400,"station_id":"ce4bgr92rcd13ifvqc7g","pricing_plan_id":"cebpf4jnsgd1na2vs0mg"},{"bike_id":"e88bb27c-7a6f-457a-bd18-baf20728ceb7","system_id":"levelo_inurba_marseille","lat":43.299724,"lon":5.371829,"is_reserved":false,"is_disabled":false,"rental_uris":{"android":"levelo://app?vid=e88bb27c-7a6f-457a-bd18-baf20728ceb7","ios":"levelo://app?vid=e88bb27c-7a6f-457a-bd18-baf20728ceb7"},"vehicle_type_id":"4","last_reported":1714068551,"current_range_meters":5600,"station_id":"ce4bgr92rcd13ifvqc7g","pricing_plan_id":"cebpf4jnsgd1na2vs0mg"},{"bike_id":"8b1bb719-9a91-4c51-b758-a13f1bb3954f","system_id":"levelo_inurba_marseille","lat":43.299222,"lon":5.365554,"is_reserved":false,"is_disabled":false,"rental_uris":{"android":"levelo://app?vid=8b1bb719-9a91-4c51-b758-a13f1bb3954f","ios":"levelo://app?vid=8b1bb719-9a91-4c51-b758-a13f1bb3954f"},"vehicle_type_id":"4","last_reported":1714068551,"current_range_meters":5600,"station_id":"ce4bgm92rcd13ifvqbr0","pricing_plan_id":"cebpf4jnsgd1na2vs0mg"},{"bike_id":"0affbc0b-0eef-4e3a-912d-edafd1ad8d47","system_id":"levelo_inurba_marseille","lat":43.299222,"lon":5.365554,"is_reserved":false,"is_disabled":false,"rental_uris":{"android":"levelo://app?vid=0affbc0b-0eef-4e3a-912d-edafd1ad8d47","ios":"levelo://app?vid=0affbc0b-0eef-4e3a-912d-edafd1ad8d47"},"vehicle_type_id":"4","last_reported":1714068551,"current_range_meters":17200,"station_id":"ce4bgm92rcd13ifvqbr0","pricing_plan_id":"cebpf4jnsgd1na2vs0mg"},{"bike_id":"f3d2b81b-9450-4227-989d-3c8cc4be9364","system_id":"levelo_inurba_marseille","lat":43.299724,"lon":5.371829,"is_reserved":false,"is_disabled":false,"rental_uris":{"android":"levelo://app?vid=f3d2b81b-9450-4227-989d-3c8cc4be9364","ios":"levelo://app?vid=f3d2b81b-9450-4227-989d-3c8cc4be9364"},"vehicle_type_id":"4","last_reported":1714068551,"current_range_meters":19600,"station_id":"ce4bgr92rcd13ifvqc7g","pricing_plan_id":"cebpf4jnsgd1na2vs0mg"},{"bike_id":"611b25c5-36d8-45f8-86e7-2cfbfef14812","system_id":"levelo_inurba_marseille","lat":43.29948,"lon":5.373727,"is_reserved":false,"is_disabled":false,"rental_uris":{"android":"levelo://app?vid=611b25c5-36d8-45f8-86e7-2cfbfef14812","ios":"levelo://app?vid=611b25c5-36d8-45f8-86e7-2cfbfef14812"},"vehicle_type_id":"4","last_reported":1714068551,"current_range_meters":20400,"station_id":"","pricing_plan_id":"cebpf4jnsgd1na2vs0mg"},{"bike_id":"1bc15c55-44ed-471a-bfeb-09fa6bae724d","system_id":"levelo_inurba_marseille","lat":43.298433,"lon":5.362774,"is_reserved":false,"is_disabled":false,"rental_uris":{"android":"levelo://app?vid=1bc15c55-44ed-471a-bfeb-09fa6bae724d","ios":"levelo://app?vid=1bc15c55-44ed-471a-bfeb-09fa6bae724d"},"vehicle_type_id":"4","last_reported":1714068551,"current_range_meters":25600,"station_id":"ce4bgpp2rcd13ifvqc3g","pricing_plan_id":"cebpf4jnsgd1na2vs0mg"},{"bike_id":"cd277b31-a36e-491a-90e8-eef06a735e7b","system_id":"levelo_inurba_marseille","lat":43.298433,"lon":5.362774,"is_reserved":false,"is_disabled":false,"rental_uris":{"android":"levelo://app?vid=cd277b31-a36e-491a-90e8-eef06a735e7b","ios":"levelo://app?vid=cd277b31-a36e-491a-90e8-eef06a735e7b"},"vehicle_type_id":"4","last_reported":1714068551,"current_range_meters":2400,"station_id":"ce4bgpp2rcd13ifvqc3g","pricing_plan_id":"cebpf4jnsgd1na2vs0mg"},{"bike_id":"15243dcb-ddf5-429a-8b3c-c04ff76df733","system_id":"levelo_inurba_marseille","lat":43.305364,"lon":5.384119,"is_reserved":false,"is_disabled":false,"rental_uris":{"android":"levelo://app?vid=15243dcb-ddf5-429a-8b3c-c04ff76df733","ios":"levelo://app?vid=15243dcb-ddf5-429a-8b3c-c04ff76df733"},"vehicle_type_id":"4","last_reported":1714068551,"current_range_meters":4800,"station_id":"ce4bgg92rcd13ifvqb30","pricing_plan_id":"cebpf4jnsgd1na2vs0mg"},{"bike_id":"1c2fa12f-df3a-41cb-9f07-5189cab895bd","system_id":"levelo_inurba_marseille","lat":43.305413,"lon":5.38428,"is_reserved":false,"is_disabled":false,"rental_uris":{"android":"levelo://app?vid=1c2fa12f-df3a-41cb-9f07-5189cab895bd","ios":"levelo://app?vid=1c2fa12f-df3a-41cb-9f07-5189cab895bd"},"vehicle_type_id":"4","last_reported":1714068551,"current_range_meters":0,"station_id":"ce4bgg92rcd13ifvqb30","pricing_plan_id":"cebpf4jnsgd1na2vs0mg"},{"bike_id":"990a9c95-e3db-45b2-ba18-8c3353da44a5","system_id":"levelo_inurba_marseille","lat":43.299243,"lon":5.37481,"is_reserved":false,"is_disabled":false,"rental_uris":{"android":"levelo://app?vid=990a9c95-e3db-45b2-ba18-8c3353da44a5","ios":"levelo://app?vid=990a9c95-e3db-45b2-ba18-8c3353da44a5"},"vehicle_type_id":"4","last_reported":1714068551,"current_range_meters":0,"station_id":"ce4bgjh2rcd13ifvqbg0","pricing_plan_id":"cebpf4jnsgd1na2vs0mg"},{"bike_id":"58166dda-a050-46df-b19f-e82a66a32f61","system_id":"levelo_inurba_marseille","lat":43.29842,"lon":5.36271,"is_reserved":false,"is_disabled":false,"rental_uris":{"android":"levelo://app?vid=58166dda-a050-46df-b19f-e82a66a32f61","ios":"levelo://app?vid=58166dda-a050-46df-b19f-e82a66a32f61"},"vehicle_type_id":"4","last_reported":1714068551,"current_range_meters":0,"station_id":"ce4bgpp2rcd13ifvqc3g","pricing_plan_id":"cebpf4jnsgd1na2vs0mg"},{"bike_id":"aee83e5b-2591-4f7d-91d8-1f4fba75b456","system_id":"levelo_inurba_marseille","lat":43.262012,"lon":5.379307,"is_reserved":false,"is_disabled":false,"rental_uris":{"android":"levelo://app?vid=aee83e5b-2591-4f7d-91d8-1f4fba75b456","ios":"levelo://app?vid=aee83e5b-2591-4f7d-91d8-1f4fba75b456"},"vehicle_type_id":"4","last_reported":1714068551,"current_range_meters":0,"station_id":"ce4bhjp2rcd13ifvqg90","pricing_plan_id":"cebpf4jnsgd1na2vs0mg"},{"bike_id":"67a385e5-1ef9-4656-a06c-ad6b30169780","system_id":"levelo_inurba_marseille","lat":43.311753,"lon":5.38729,"is_reserved":false,"is_disabled":false,"rental_uris":{"android":"levelo://app?vid=67a385e5-1ef9-4656-a06c-ad6b30169780","ios":"levelo://app?vid=67a385e5-1ef9-4656-a06c-ad6b30169780"},"vehicle_type_id":"4","last_reported":1714068551,"current_range_meters":0,"station_id":"ce4bgv12rcd13ifvqcp0","pricing_plan_id":"cebpf4jnsgd1na2vs0mg"},{"bike_id":"53f1b87e-8eac-41c2-ad76-f19fa21971b2","system_id":"levelo_inurba_marseille","lat":43.30153,"lon":5.38108,"is_reserved":false,"is_disabled":false,"rental_uris":{"android":"levelo://app?vid=53f1b87e-8eac-41c2-ad76-f19fa21971b2","ios":"levelo://app?vid=53f1b87e-8eac-41c2-ad76-f19fa21971b2"},"vehicle_type_id":"4","last_reported":1714068551,"current_range_meters":10000,"station_id":"","pricing_plan_id":"cebpf4jnsgd1na2vs0mg"},{"bike_id":"a8e2ca69-f699-47f0-8ae7-ac0a3630abe3","system_id":"levelo_inurba_marseille","lat":43.322872,"lon":5.382756,"is_reserved":false,"is_disabled":false,"rental_uris":{"android":"levelo://app?vid=a8e2ca69-f699-47f0-8ae7-ac0a3630abe3","ios":"levelo://app?vid=a8e2ca69-f699-47f0-8ae7-ac0a3630abe3"},"vehicle_type_id":"4","last_reported":1714068551,"current_range_meters":12000,"station_id":"ce4bhr12rcd13ifvqhqg","pricing_plan_id":"cebpf4jnsgd1na2vs0mg"},{"bike_id":"3a030d44-086f-4717-80c1-f39d4835fb23","system_id":"levelo_inurba_marseille","lat":43.322872,"lon":5.382756,"is_reserved":false,"is_disabled":false,"rental_uris":{"android":"levelo://app?vid=3a030d44-086f-4717-80c1-f39d4835fb23","ios":"levelo://app?vid=3a030d44-086f-4717-80c1-f39d4835fb23"},"vehicle_type_id":"4","last_reported":1714068551,"current_range_meters":2800,"station_id":"ce4bhr12rcd13ifvqhqg","pricing_plan_id":"cebpf4jnsgd1na2vs0mg"},{"bike_id":"8b506ba7-9169-46bf-b217-6300b8bf2f5a","system_id":"levelo_inurba_marseille","lat":43.322872,"lon":5.382756,"is_reserved":false,"is_disabled":false,"rental_uris":{"android":"levelo://app?vid=8b506ba7-9169-46bf-b217-6300b8bf2f5a","ios":"levelo://app?vid=8b506ba7-9169-46bf-b217-6300b8bf2f5a"},"vehicle_type_id":"4","last_reported":1714068551,"current_range_meters":31200,"station_id":"ce4bhr12rcd13ifvqhqg","pricing_plan_id":"cebpf4jnsgd1na2vs0mg"},{"bike_id":"e47fb431-2897-499a-958a-373a9ab19ebb","system_id":"levelo_inurba_marseille","lat":43.322872,"lon":5.382756,"is_reserved":false,"is_disabled":false,"rental_uris":{"android":"levelo://app?vid=e47fb431-2897-499a-958a-373a9ab19ebb","ios":"levelo://app?vid=e47fb431-2897-499a-958a-373a9ab19ebb"},"vehicle_type_id":"4","last_reported":1714068551,"current_range_meters":6000,"station_id":"ce4bhr12rcd13ifvqhqg","pricing_plan_id":"cebpf4jnsgd1na2vs0mg"},{"bike_id":"71e3a9f2-64e7-4850-ab91-0ecc8e71cbb2","system_id":"levelo_inurba_marseille","lat":43.322872,"lon":5.382756,"is_reserved":false,"is_disabled":false,"rental_uris":{"android":"levelo://app?vid=71e3a9f2-64e7-4850-ab91-0ecc8e71cbb2","ios":"levelo://app?vid=71e3a9f2-64e7-4850-ab91-0ecc8e71cbb2"},"vehicle_type_id":"4","last_reported":1714068551,"current_range_meters":23200,"station_id":"ce4bhr12rcd13ifvqhqg","pricing_plan_id":"cebpf4jnsgd1na2vs0mg"},{"bike_id":"af01b064-90cb-45ce-ba16-abcd8fc35ded","system_id":"levelo_inurba_marseille","lat":43.322872,"lon":5.382756,"is_reserved":false,"is_disabled":false,"rental_uris":{"android":"levelo://app?vid=af01b064-90cb-45ce-ba16-abcd8fc35ded","ios":"levelo://app?vid=af01b064-90cb-45ce-ba16-abcd8fc35ded"},"vehicle_type_id":"4","last_reported":1714068551,"current_range_meters":20400,"station_id":"ce4bhr12rcd13ifvqhqg","pricing_plan_id":"cebpf4jnsgd1na2vs0mg"},{"bike_id":"c68acec1-54c9-4a61-830c-663a5260a249","system_id":"levelo_inurba_marseille","lat":43.297163,"lon":5.365866,"is_reserved":false,"is_disabled":false,"rental_uris":{"android":"levelo://app?vid=c68acec1-54c9-4a61-830c-663a5260a249","ios":"levelo://app?vid=c68acec1-54c9-4a61-830c-663a5260a249"},"vehicle_type_id":"4","last_reported":1714068551,"current_range_meters":22400,"station_id":"ce4bgn12rcd13ifvqbt0","pricing_plan_id":"cebpf4jnsgd1na2vs0mg"},{"bike_id":"be791d3d-d6f2-4f88-b374-4be5debc20bc","system_id":"levelo_inurba_marseille","lat":43.297163,"lon":5.365866,"is_reserved":false,"is_disabled":false,"rental_uris":{"android":"levelo://app?vid=be791d3d-d6f2-4f88-b374-4be5debc20bc","ios":"levelo://app?vid=be791d3d-d6f2-4f88-b374-4be5debc20bc"},"vehicle_type_id":"4","last_reported":1714068551,"current_range_meters":800,"station_id":"ce4bgn12rcd13ifvqbt0","pricing_plan_id":"cebpf4jnsgd1na2vs0mg"},{"bike_id":"19b1322d-078d-42b4-8e35-303febda0b31","system_id":"levelo_inurba_marseille","lat":43.297,"lon":5.36604,"is_reserved":false,"is_disabled":false,"rental_uris":{"android":"levelo://app?vid=19b1322d-078d-42b4-8e35-303febda0b31","ios":"levelo://app?vid=19b1322d-078d-42b4-8e35-303febda0b31"},"vehicle_type_id":"4","last_reported":1714068551,"current_range_meters":0,"station_id":"ce4bgn12rcd13ifvqbt0","pricing_plan_id":"cebpf4jnsgd1na2vs0mg"},{"bike_id":"691e2f1e-60d3-4ceb-bfb6-22067e8ad034","system_id":"levelo_inurba_marseille","lat":43.29573,"lon":5.367355,"is_reserved":false,"is_disabled":false,"rental_uris":{"android":"levelo://app?vid=691e2f1e-60d3-4ceb-bfb6-22067e8ad034","ios":"levelo://app?vid=691e2f1e-60d3-4ceb-bfb6-22067e8ad034"},"vehicle_type_id":"4","last_reported":1714068551,"current_range_meters":23600,"station_id":"ce4bgph2rcd13ifvqc2g","pricing_plan_id":"cebpf4jnsgd1na2vs0mg"},{"bike_id":"22ee16ca-a245-4dc1-ad8a-db06da73955c","system_id":"levelo_inurba_marseille","lat":43.295983,"lon":5.369013,"is_reserved":false,"is_disabled":false,"rental_uris":{"android":"levelo://app?vid=22ee16ca-a245-4dc1-ad8a-db06da73955c","ios":"levelo://app?vid=22ee16ca-a245-4dc1-ad8a-db06da73955c"},"vehicle_type_id":"4","last_reported":1714068551,"current_range_meters":2400,"station_id":"","pricing_plan_id":"cebpf4jnsgd1na2vs0mg"},{"bike_id":"31c653e1-0049-422c-8e44-84b6f1b55752","system_id":"levelo_inurba_marseille","lat":43.296131,"lon":5.370791,"is_reserved":false,"is_disabled":false,"rental_uris":{"android":"levelo://app?vid=31c653e1-0049-422c-8e44-84b6f1b55752","ios":"levelo://app?vid=31c653e1-0049-422c-8e44-84b6f1b55752"},"vehicle_type_id":"4","last_reported":1714068551,"current_range_meters":4400,"station_id":"ce4bgnh2rcd13ifvqc0g","pricing_plan_id":"cebpf4jnsgd1na2vs0mg"},{"bike_id":"653edb9d-ce9a-433d-9403-f9eff8398017","system_id":"levelo_inurba_marseille","lat":43.29582,"lon":5.36761,"is_reserved":false,"is_disabled":false,"rental_uris":{"android":"levelo://app?vid=653edb9d-ce9a-433d-9403-f9eff8398017","ios":"levelo://app?vid=653edb9d-ce9a-433d-9403-f9eff8398017"},"vehicle_type_id":"4","last_reported":1714068551,"current_range_meters":2800,"station_id":"ce4bgph2rcd13ifvqc2g","pricing_plan_id":"cebpf4jnsgd1na2vs0mg"},{"bike_id":"1a92005b-a250-4f08-b1c7-95e574cf5dae","system_id":"levelo_inurba_marseille","lat":43.29734,"lon":5.37698,"is_reserved":false,"is_disabled":false,"rental_uris":{"android":"levelo://app?vid=1a92005b-a250-4f08-b1c7-95e574cf5dae","ios":"levelo://app?vid=1a92005b-a250-4f08-b1c7-95e574cf5dae"},"vehicle_type_id":"4","last_reported":1714068551,"current_range_meters":0,"station_id":"ce4bgkh2rcd13ifvqbl0","pricing_plan_id":"cebpf4jnsgd1na2vs0mg"},{"bike_id":"d3cdf45f-1fba-42f0-9778-0f06b610387a","system_id":"levelo_inurba_marseille","lat":43.296921,"lon":5.376579,"is_reserved":false,"is_disabled":false,"rental_uris":{"android":"levelo://app?vid=d3cdf45f-1fba-42f0-9778-0f06b610387a","ios":"levelo://app?vid=d3cdf45f-1fba-42f0-9778-0f06b610387a"},"vehicle_type_id":"4","last_reported":1714068551,"current_range_meters":7200,"station_id":"ce4bgkh2rcd13ifvqbl0","pricing_plan_id":"cebpf4jnsgd1na2vs0mg"},{"bike_id":"f87aa324-5a99-4769-97d7-acf394c37742","system_id":"levelo_inurba_marseille","lat":43.309589,"lon":5.390258,"is_reserved":false,"is_disabled":false,"rental_uris":{"android":"levelo://app?vid=f87aa324-5a99-4769-97d7-acf394c37742","ios":"levelo://app?vid=f87aa324-5a99-4769-97d7-acf394c37742"},"vehicle_type_id":"4","last_reported":1714068551,"current_range_meters":5600,"station_id":"ce4bgup2rcd13ifvqco0","pricing_plan_id":"cebpf4jnsgd1na2vs0mg"},{"bike_id":"5f5c01a4-ce03-419c-940e-67c13b264860","system_id":"levelo_inurba_marseille","lat":43.305706,"lon":5.365654,"is_reserved":false,"is_disabled":false,"rental_uris":{"android":"levelo://app?vid=5f5c01a4-ce03-419c-940e-67c13b264860","ios":"levelo://app?vid=5f5c01a4-ce03-419c-940e-67c13b264860"},"vehicle_type_id":"4","last_reported":1714068551,"current_range_meters":12800,"station_id":"ce4bgs12rcd13ifvqcag","pricing_plan_id":"cebpf4jnsgd1na2vs0mg"},{"bike_id":"68888e14-1232-4706-8f53-b3dfc4c68772","system_id":"levelo_inurba_marseille","lat":43.290319,"lon":5.375732,"is_reserved":false,"is_disabled":false,"rental_uris":{"android":"levelo://app?vid=68888e14-1232-4706-8f53-b3dfc4c68772","ios":"levelo://app?vid=68888e14-1232-4706-8f53-b3dfc4c68772"},"vehicle_type_id":"4","last_reported":1714068551,"current_range_meters":1200,"station_id":"ce4bh692rcd13ifvqe90","pricing_plan_id":"cebpf4jnsgd1na2vs0mg"},{"bike_id":"26e42a3e-1b42-4f16-89a3-515a872aee90","system_id":"levelo_inurba_marseille","lat":43.298831,"lon":5.380993,"is_reserved":false,"is_disabled":false,"rental_uris":{"android":"levelo://app?vid=26e42a3e-1b42-4f16-89a3-515a872aee90","ios":"levelo://app?vid=26e42a3e-1b42-4f16-89a3-515a872aee90"},"vehicle_type_id":"4","last_reported":1714068551,"current_range_meters":5200,"station_id":"ce4bgj12rcd13ifvqbc0","pricing_plan_id":"cebpf4jnsgd1na2vs0mg"},{"bike_id":"06ce5eb4-4fb7-4b00-a7b5-152694e84f1b","system_id":"levelo_inurba_marseille","lat":43.29711,"lon":5.37706,"is_reserved":false,"is_disabled":false,"rental_uris":{"android":"levelo://app?vid=06ce5eb4-4fb7-4b00-a7b5-152694e84f1b","ios":"levelo://app?vid=06ce5eb4-4fb7-4b00-a7b5-152694e84f1b"},"vehicle_type_id":"4","last_reported":1714068551,"current_range_meters":0,"station_id":"ce4bgkh2rcd13ifvqbl0","pricing_plan_id":"cebpf4jnsgd1na2vs0mg"},{"bike_id":"7be8c0a7-3629-4d5b-a48b-bef4b25ce70f","system_id":"levelo_inurba_marseille","lat":43.309547,"lon":5.39029,"is_reserved":false,"is_disabled":false,"rental_uris":{"android":"levelo://app?vid=7be8c0a7-3629-4d5b-a48b-bef4b25ce70f","ios":"levelo://app?vid=7be8c0a7-3629-4d5b-a48b-bef4b25ce70f"},"vehicle_type_id":"4","last_reported":1714068551,"current_range_meters":0,"station_id":"ce4bgup2rcd13ifvqco0","pricing_plan_id":"cebpf4jnsgd1na2vs0mg"},{"bike_id":"bb579f88-0c34-4f92-ab8f-a9885a47ae79","system_id":"levelo_inurba_marseille","lat":43.299028,"lon":5.381509,"is_reserved":false,"is_disabled":false,"rental_uris":{"android":"levelo://app?vid=bb579f88-0c34-4f92-ab8f-a9885a47ae79","ios":"levelo://app?vid=bb579f88-0c34-4f92-ab8f-a9885a47ae79"},"vehicle_type_id":"4","last_reported":1714068551,"current_range_meters":800,"station_id":"ce4bgj12rcd13ifvqbc0","pricing_plan_id":"cebpf4jnsgd1na2vs0mg"},{"bike_id":"2ec09f9a-b35d-4a95-bafd-e3cbcf9f22c7","system_id":"levelo_inurba_marseille","lat":43.309589,"lon":5.390258,"is_reserved":false,"is_disabled":false,"rental_uris":{"android":"levelo://app?vid=2ec09f9a-b35d-4a95-bafd-e3cbcf9f22c7","ios":"levelo://app?vid=2ec09f9a-b35d-4a95-bafd-e3cbcf9f22c7"},"vehicle_type_id":"4","last_reported":1714068551,"current_range_meters":26400,"station_id":"ce4bgup2rcd13ifvqco0","pricing_plan_id":"cebpf4jnsgd1na2vs0mg"},{"bike_id":"e380c741-8d09-430c-8c8d-fa875afbc26f","system_id":"levelo_inurba_marseille","lat":43.309589,"lon":5.390258,"is_reserved":false,"is_disabled":false,"rental_uris":{"android":"levelo://app?vid=e380c741-8d09-430c-8c8d-fa875afbc26f","ios":"levelo://app?vid=e380c741-8d09-430c-8c8d-fa875afbc26f"},"vehicle_type_id":"4","last_reported":1714068551,"current_range_meters":0,"station_id":"ce4bgup2rcd13ifvqco0","pricing_plan_id":"cebpf4jnsgd1na2vs0mg"},{"bike_id":"54614c25-a8e4-4191-8753-94105b129105","system_id":"levelo_inurba_marseille","lat":43.309589,"lon":5.390258,"is_reserved":false,"is_disabled":false,"rental_uris":{"android":"levelo://app?vid=54614c25-a8e4-4191-8753-94105b129105","ios":"levelo://app?vid=54614c25-a8e4-4191-8753-94105b129105"},"vehicle_type_id":"4","last_reported":1714068551,"current_range_meters":6000,"station_id":"ce4bgup2rcd13ifvqco0","pricing_plan_id":"cebpf4jnsgd1na2vs0mg"},{"bike_id":"4245c43f-bcb1-41df-9411-25754639f239","system_id":"levelo_inurba_marseille","lat":43.309589,"lon":5.390258,"is_reserved":false,"is_disabled":false,"rental_uris":{"android":"levelo://app?vid=4245c43f-bcb1-41df-9411-25754639f239","ios":"levelo://app?vid=4245c43f-bcb1-41df-9411-25754639f239"},"vehicle_type_id":"4","last_reported":1714068551,"current_range_meters":24800,"station_id":"ce4bgup2rcd13ifvqco0","pricing_plan_id":"cebpf4jnsgd1na2vs0mg"},{"bike_id":"ccd1bbbe-c5ea-40da-9766-02ca6101b6c9","system_id":"levelo_inurba_marseille","lat":43.309589,"lon":5.390258,"is_reserved":false,"is_disabled":false,"rental_uris":{"android":"levelo://app?vid=ccd1bbbe-c5ea-40da-9766-02ca6101b6c9","ios":"levelo://app?vid=ccd1bbbe-c5ea-40da-9766-02ca6101b6c9"},"vehicle_type_id":"4","last_reported":1714068551,"current_range_meters":19600,"station_id":"ce4bgup2rcd13ifvqco0","pricing_plan_id":"cebpf4jnsgd1na2vs0mg"},{"bike_id":"e5772f92-a855-4044-a45b-292cd2168d34","system_id":"levelo_inurba_marseille","lat":43.31759,"lon":5.39014,"is_reserved":false,"is_disabled":false,"rental_uris":{"android":"levelo://app?vid=e5772f92-a855-4044-a45b-292cd2168d34","ios":"levelo://app?vid=e5772f92-a855-4044-a45b-292cd2168d34"},"vehicle_type_id":"4","last_reported":1714068551,"current_range_meters":18800,"station_id":"ce4bhqp2rcd13ifvqhng","pricing_plan_id":"cebpf4jnsgd1na2vs0mg"},{"bike_id":"c0cdaebe-36f5-422c-820f-0c75650afebf","system_id":"levelo_inurba_marseille","lat":43.317557,"lon":5.390173,"is_reserved":false,"is_disabled":false,"rental_uris":{"android":"levelo://app?vid=c0cdaebe-36f5-422c-820f-0c75650afebf","ios":"levelo://app?vid=c0cdaebe-36f5-422c-820f-0c75650afebf"},"vehicle_type_id":"4","last_reported":1714068551,"current_range_meters":19600,"station_id":"ce4bhqp2rcd13ifvqhng","pricing_plan_id":"cebpf4jnsgd1na2vs0mg"},{"bike_id":"819bb36a-c005-4f6f-b488-ff59d6226ed0","system_id":"levelo_inurba_marseille","lat":43.31758,"lon":5.39023,"is_reserved":false,"is_disabled":false,"rental_uris":{"android":"levelo://app?vid=819bb36a-c005-4f6f-b488-ff59d6226ed0","ios":"levelo://app?vid=819bb36a-c005-4f6f-b488-ff59d6226ed0"},"vehicle_type_id":"4","last_reported":1714068551,"current_range_meters":11600,"station_id":"ce4bhqp2rcd13ifvqhng","pricing_plan_id":"cebpf4jnsgd1na2vs0mg"},{"bike_id":"9ba01d8c-d192-4a45-b060-af781f2a8f2d","system_id":"levelo_inurba_marseille","lat":43.296921,"lon":5.376579,"is_reserved":false,"is_disabled":false,"rental_uris":{"android":"levelo://app?vid=9ba01d8c-d192-4a45-b060-af781f2a8f2d","ios":"levelo://app?vid=9ba01d8c-d192-4a45-b060-af781f2a8f2d"},"vehicle_type_id":"4","last_reported":1714068551,"current_range_meters":17600,"station_id":"ce4bgkh2rcd13ifvqbl0","pricing_plan_id":"cebpf4jnsgd1na2vs0mg"},{"bike_id":"4e53254a-1e3e-4d2d-8e79-f9b6c8e6fafa","system_id":"levelo_inurba_marseille","lat":43.298037,"lon":5.381066,"is_reserved":false,"is_disabled":false,"rental_uris":{"android":"levelo://app?vid=4e53254a-1e3e-4d2d-8e79-f9b6c8e6fafa","ios":"levelo://app?vid=4e53254a-1e3e-4d2d-8e79-f9b6c8e6fafa"},"vehicle_type_id":"4","last_reported":1714068551,"current_range_meters":30800,"station_id":"ce4bgip2rcd13ifvqbb0","pricing_plan_id":"cebpf4jnsgd1na2vs0mg"},{"bike_id":"91865d7e-e056-4131-8cfe-51fe06681799","system_id":"levelo_inurba_marseille","lat":43.298037,"lon":5.381066,"is_reserved":false,"is_disabled":false,"rental_uris":{"android":"levelo://app?vid=91865d7e-e056-4131-8cfe-51fe06681799","ios":"levelo://app?vid=91865d7e-e056-4131-8cfe-51fe06681799"},"vehicle_type_id":"4","last_reported":1714068551,"current_range_meters":4000,"station_id":"ce4bgip2rcd13ifvqbb0","pricing_plan_id":"cebpf4jnsgd1na2vs0mg"},{"bike_id":"5b12d71a-9a64-4533-8bc1-999bda40d9ac","system_id":"levelo_inurba_marseille","lat":43.304278,"lon":5.388868,"is_reserved":false,"is_disabled":false,"rental_uris":{"android":"levelo://app?vid=5b12d71a-9a64-4533-8bc1-999bda40d9ac","ios":"levelo://app?vid=5b12d71a-9a64-4533-8bc1-999bda40d9ac"},"vehicle_type_id":"4","last_reported":1714068551,"current_range_meters":10800,"station_id":"ce4bgk12rcd13ifvqbi0","pricing_plan_id":"cebpf4jnsgd1na2vs0mg"},{"bike_id":"7b7d83bb-6add-4d70-8a33-1313f5ff51a7","system_id":"levelo_inurba_marseille","lat":43.304278,"lon":5.388868,"is_reserved":false,"is_disabled":false,"rental_uris":{"android":"levelo://app?vid=7b7d83bb-6add-4d70-8a33-1313f5ff51a7","ios":"levelo://app?vid=7b7d83bb-6add-4d70-8a33-1313f5ff51a7"},"vehicle_type_id":"4","last_reported":1714068551,"current_range_meters":16800,"station_id":"ce4bgk12rcd13ifvqbi0","pricing_plan_id":"cebpf4jnsgd1na2vs0mg"},{"bike_id":"94b7053d-54fc-4f33-826a-8cbe8cba4382","system_id":"levelo_inurba_marseille","lat":43.304274,"lon":5.388873,"is_reserved":false,"is_disabled":false,"rental_uris":{"android":"levelo://app?vid=94b7053d-54fc-4f33-826a-8cbe8cba4382","ios":"levelo://app?vid=94b7053d-54fc-4f33-826a-8cbe8cba4382"},"vehicle_type_id":"4","last_reported":1714068551,"current_range_meters":26800,"station_id":"ce4bgk12rcd13ifvqbi0","pricing_plan_id":"cebpf4jnsgd1na2vs0mg"},{"bike_id":"174057a0-ee79-4c7a-877c-313d54b98ebb","system_id":"levelo_inurba_marseille","lat":43.304278,"lon":5.388868,"is_reserved":false,"is_disabled":false,"rental_uris":{"android":"levelo://app?vid=174057a0-ee79-4c7a-877c-313d54b98ebb","ios":"levelo://app?vid=174057a0-ee79-4c7a-877c-313d54b98ebb"},"vehicle_type_id":"4","last_reported":1714068551,"current_range_meters":31600,"station_id":"ce4bgk12rcd13ifvqbi0","pricing_plan_id":"cebpf4jnsgd1na2vs0mg"},{"bike_id":"3eff24c9-c8d7-44ca-98c4-8dc16b638245","system_id":"levelo_inurba_marseille","lat":43.304278,"lon":5.388868,"is_reserved":false,"is_disabled":false,"rental_uris":{"android":"levelo://app?vid=3eff24c9-c8d7-44ca-98c4-8dc16b638245","ios":"levelo://app?vid=3eff24c9-c8d7-44ca-98c4-8dc16b638245"},"vehicle_type_id":"4","last_reported":1714068551,"current_range_meters":12800,"station_id":"ce4bgk12rcd13ifvqbi0","pricing_plan_id":"cebpf4jnsgd1na2vs0mg"},{"bike_id":"4a7b0936-6947-446c-8e14-b5cde3fb2b2f","system_id":"levelo_inurba_marseille","lat":43.295748,"lon":5.37522,"is_reserved":false,"is_disabled":false,"rental_uris":{"android":"levelo://app?vid=4a7b0936-6947-446c-8e14-b5cde3fb2b2f","ios":"levelo://app?vid=4a7b0936-6947-446c-8e14-b5cde3fb2b2f"},"vehicle_type_id":"4","last_reported":1714068551,"current_range_meters":20800,"station_id":"ce4bgh92rcd13ifvqb50","pricing_plan_id":"cebpf4jnsgd1na2vs0mg"},{"bike_id":"476a9000-7276-46f4-84e2-f7e783c60d4e","system_id":"levelo_inurba_marseille","lat":43.292571,"lon":5.409107,"is_reserved":false,"is_disabled":false,"rental_uris":{"android":"levelo://app?vid=476a9000-7276-46f4-84e2-f7e783c60d4e","ios":"levelo://app?vid=476a9000-7276-46f4-84e2-f7e783c60d4e"},"vehicle_type_id":"4","last_reported":1714068551,"current_range_meters":3600,"station_id":"ce4bh192rcd13ifvqdc0","pricing_plan_id":"cebpf4jnsgd1na2vs0mg"},{"bike_id":"c64e2653-0182-4aa9-9a2d-f9764fbe2e5f","system_id":"levelo_inurba_marseille","lat":43.296277,"lon":5.377108,"is_reserved":false,"is_disabled":false,"rental_uris":{"android":"levelo://app?vid=c64e2653-0182-4aa9-9a2d-f9764fbe2e5f","ios":"levelo://app?vid=c64e2653-0182-4aa9-9a2d-f9764fbe2e5f"},"vehicle_type_id":"4","last_reported":1714068551,"current_range_meters":0,"station_id":"ce4bgi92rcd13ifvqb90","pricing_plan_id":"cebpf4jnsgd1na2vs0mg"},{"bike_id":"5d1f3bc1-568a-4396-b8d5-03dea19f62e2","system_id":"levelo_inurba_marseille","lat":43.304278,"lon":5.388868,"is_reserved":false,"is_disabled":false,"rental_uris":{"android":"levelo://app?vid=5d1f3bc1-568a-4396-b8d5-03dea19f62e2","ios":"levelo://app?vid=5d1f3bc1-568a-4396-b8d5-03dea19f62e2"},"vehicle_type_id":"4","last_reported":1714068551,"current_range_meters":0,"station_id":"ce4bgk12rcd13ifvqbi0","pricing_plan_id":"cebpf4jnsgd1na2vs0mg"},{"bike_id":"e61fa2cf-79c3-4d70-9f9b-7e7c0421ea0a","system_id":"levelo_inurba_marseille","lat":43.295748,"lon":5.37522,"is_reserved":false,"is_disabled":false,"rental_uris":{"android":"levelo://app?vid=e61fa2cf-79c3-4d70-9f9b-7e7c0421ea0a","ios":"levelo://app?vid=e61fa2cf-79c3-4d70-9f9b-7e7c0421ea0a"},"vehicle_type_id":"4","last_reported":1714068551,"current_range_meters":23200,"station_id":"ce4bgh92rcd13ifvqb50","pricing_plan_id":"cebpf4jnsgd1na2vs0mg"},{"bike_id":"b1e536f7-b03a-4cf2-9795-fbdafc6fdf2b","system_id":"levelo_inurba_marseille","lat":43.304278,"lon":5.388868,"is_reserved":false,"is_disabled":false,"rental_uris":{"android":"levelo://app?vid=b1e536f7-b03a-4cf2-9795-fbdafc6fdf2b","ios":"levelo://app?vid=b1e536f7-b03a-4cf2-9795-fbdafc6fdf2b"},"vehicle_type_id":"4","last_reported":1714068551,"current_range_meters":2800,"station_id":"ce4bgk12rcd13ifvqbi0","pricing_plan_id":"cebpf4jnsgd1na2vs0mg"},{"bike_id":"dfad4dff-101f-4ea2-a9db-0e9133a0a9a8","system_id":"levelo_inurba_marseille","lat":43.304278,"lon":5.388868,"is_reserved":false,"is_disabled":false,"rental_uris":{"android":"levelo://app?vid=dfad4dff-101f-4ea2-a9db-0e9133a0a9a8","ios":"levelo://app?vid=dfad4dff-101f-4ea2-a9db-0e9133a0a9a8"},"vehicle_type_id":"4","last_reported":1714068551,"current_range_meters":23600,"station_id":"ce4bgk12rcd13ifvqbi0","pricing_plan_id":"cebpf4jnsgd1na2vs0mg"},{"bike_id":"327647e3-f9e7-4d45-b49b-1552733b466f","system_id":"levelo_inurba_marseille","lat":43.304278,"lon":5.388868,"is_reserved":false,"is_disabled":false,"rental_uris":{"android":"levelo://app?vid=327647e3-f9e7-4d45-b49b-1552733b466f","ios":"levelo://app?vid=327647e3-f9e7-4d45-b49b-1552733b466f"},"vehicle_type_id":"4","last_reported":1714068551,"current_range_meters":9200,"station_id":"ce4bgk12rcd13ifvqbi0","pricing_plan_id":"cebpf4jnsgd1na2vs0mg"},{"bike_id":"2adffe97-0a1f-4940-b72a-ad3f24217d39","system_id":"levelo_inurba_marseille","lat":43.30424,"lon":5.3889,"is_reserved":false,"is_disabled":false,"rental_uris":{"android":"levelo://app?vid=2adffe97-0a1f-4940-b72a-ad3f24217d39","ios":"levelo://app?vid=2adffe97-0a1f-4940-b72a-ad3f24217d39"},"vehicle_type_id":"4","last_reported":1714068551,"current_range_meters":12000,"station_id":"ce4bgk12rcd13ifvqbi0","pricing_plan_id":"cebpf4jnsgd1na2vs0mg"},{"bike_id":"9f5f9dc2-622c-421a-a236-e265632b98e2","system_id":"levelo_inurba_marseille","lat":43.295748,"lon":5.37522,"is_reserved":false,"is_disabled":false,"rental_uris":{"android":"levelo://app?vid=9f5f9dc2-622c-421a-a236-e265632b98e2","ios":"levelo://app?vid=9f5f9dc2-622c-421a-a236-e265632b98e2"},"vehicle_type_id":"4","last_reported":1714068551,"current_range_meters":14800,"station_id":"ce4bgh92rcd13ifvqb50","pricing_plan_id":"cebpf4jnsgd1na2vs0mg"},{"bike_id":"f9a87b06-aa0c-43f9-8002-2bcb2a79748a","system_id":"levelo_inurba_marseille","lat":43.296263,"lon":5.377094,"is_reserved":false,"is_disabled":false,"rental_uris":{"android":"levelo://app?vid=f9a87b06-aa0c-43f9-8002-2bcb2a79748a","ios":"levelo://app?vid=f9a87b06-aa0c-43f9-8002-2bcb2a79748a"},"vehicle_type_id":"4","last_reported":1714068551,"current_range_meters":4000,"station_id":"ce4bgi92rcd13ifvqb90","pricing_plan_id":"cebpf4jnsgd1na2vs0mg"},{"bike_id":"b7a08759-2d55-43c0-8d69-c0b4d74217a0","system_id":"levelo_inurba_marseille","lat":43.2998,"lon":5.38476,"is_reserved":false,"is_disabled":false,"rental_uris":{"android":"levelo://app?vid=b7a08759-2d55-43c0-8d69-c0b4d74217a0","ios":"levelo://app?vid=b7a08759-2d55-43c0-8d69-c0b4d74217a0"},"vehicle_type_id":"4","last_reported":1714068551,"current_range_meters":15200,"station_id":"ce4bgj92rcd13ifvqbd0","pricing_plan_id":"cebpf4jnsgd1na2vs0mg"},{"bike_id":"bba7f1db-7e52-4b30-a486-97e76b503eaf","system_id":"levelo_inurba_marseille","lat":43.29981,"lon":5.384825,"is_reserved":false,"is_disabled":false,"rental_uris":{"android":"levelo://app?vid=bba7f1db-7e52-4b30-a486-97e76b503eaf","ios":"levelo://app?vid=bba7f1db-7e52-4b30-a486-97e76b503eaf"},"vehicle_type_id":"4","last_reported":1714068551,"current_range_meters":10400,"station_id":"ce4bgj92rcd13ifvqbd0","pricing_plan_id":"cebpf4jnsgd1na2vs0mg"},{"bike_id":"59ce1125-8b71-4287-a08d-04fd433c99be","system_id":"levelo_inurba_marseille","lat":43.29976,"lon":5.38479,"is_reserved":false,"is_disabled":false,"rental_uris":{"android":"levelo://app?vid=59ce1125-8b71-4287-a08d-04fd433c99be","ios":"levelo://app?vid=59ce1125-8b71-4287-a08d-04fd433c99be"},"vehicle_type_id":"4","last_reported":1714068551,"current_range_meters":11600,"station_id":"ce4bgj92rcd13ifvqbd0","pricing_plan_id":"cebpf4jnsgd1na2vs0mg"},{"bike_id":"ac41bcf5-a5e4-403f-a99a-4a8b54012eca","system_id":"levelo_inurba_marseille","lat":43.2998,"lon":5.38488,"is_reserved":false,"is_disabled":false,"rental_uris":{"android":"levelo://app?vid=ac41bcf5-a5e4-403f-a99a-4a8b54012eca","ios":"levelo://app?vid=ac41bcf5-a5e4-403f-a99a-4a8b54012eca"},"vehicle_type_id":"4","last_reported":1714068551,"current_range_meters":27200,"station_id":"ce4bgj92rcd13ifvqbd0","pricing_plan_id":"cebpf4jnsgd1na2vs0mg"},{"bike_id":"d8cb0325-d5d5-4843-b2dd-ed36d3f7ef8f","system_id":"levelo_inurba_marseille","lat":43.309039,"lon":5.371797,"is_reserved":false,"is_disabled":false,"rental_uris":{"android":"levelo://app?vid=d8cb0325-d5d5-4843-b2dd-ed36d3f7ef8f","ios":"levelo://app?vid=d8cb0325-d5d5-4843-b2dd-ed36d3f7ef8f"},"vehicle_type_id":"4","last_reported":1714068551,"current_range_meters":26400,"station_id":"ce4bguh2rcd13ifvqckg","pricing_plan_id":"cebpf4jnsgd1na2vs0mg"},{"bike_id":"dd824729-73c2-40ed-b58a-c2c8ec46791c","system_id":"levelo_inurba_marseille","lat":43.29972,"lon":5.38488,"is_reserved":false,"is_disabled":false,"rental_uris":{"android":"levelo://app?vid=dd824729-73c2-40ed-b58a-c2c8ec46791c","ios":"levelo://app?vid=dd824729-73c2-40ed-b58a-c2c8ec46791c"},"vehicle_type_id":"4","last_reported":1714068551,"current_range_meters":30000,"station_id":"ce4bgj92rcd13ifvqbd0","pricing_plan_id":"cebpf4jnsgd1na2vs0mg"},{"bike_id":"1ab7e062-84eb-4c2f-b06d-ca8cfa93e930","system_id":"levelo_inurba_marseille","lat":43.299769,"lon":5.384949,"is_reserved":false,"is_disabled":false,"rental_uris":{"android":"levelo://app?vid=1ab7e062-84eb-4c2f-b06d-ca8cfa93e930","ios":"levelo://app?vid=1ab7e062-84eb-4c2f-b06d-ca8cfa93e930"},"vehicle_type_id":"4","last_reported":1714068551,"current_range_meters":31200,"station_id":"ce4bgj92rcd13ifvqbd0","pricing_plan_id":"cebpf4jnsgd1na2vs0mg"},{"bike_id":"03a475c2-b1ee-4fec-af8e-934ab723cdae","system_id":"levelo_inurba_marseille","lat":43.299717,"lon":5.384845,"is_reserved":false,"is_disabled":false,"rental_uris":{"android":"levelo://app?vid=03a475c2-b1ee-4fec-af8e-934ab723cdae","ios":"levelo://app?vid=03a475c2-b1ee-4fec-af8e-934ab723cdae"},"vehicle_type_id":"4","last_reported":1714068551,"current_range_meters":5600,"station_id":"ce4bgj92rcd13ifvqbd0","pricing_plan_id":"cebpf4jnsgd1na2vs0mg"},{"bike_id":"e0e487aa-2c8e-4097-9018-847668448b57","system_id":"levelo_inurba_marseille","lat":43.299717,"lon":5.384845,"is_reserved":false,"is_disabled":false,"rental_uris":{"android":"levelo://app?vid=e0e487aa-2c8e-4097-9018-847668448b57","ios":"levelo://app?vid=e0e487aa-2c8e-4097-9018-847668448b57"},"vehicle_type_id":"4","last_reported":1714068551,"current_range_meters":800,"station_id":"ce4bgj92rcd13ifvqbd0","pricing_plan_id":"cebpf4jnsgd1na2vs0mg"},{"bike_id":"43c45e4b-f1b8-48e3-99c9-2b8614e0645d","system_id":"levelo_inurba_marseille","lat":43.299724,"lon":5.384848,"is_reserved":false,"is_disabled":false,"rental_uris":{"android":"levelo://app?vid=43c45e4b-f1b8-48e3-99c9-2b8614e0645d","ios":"levelo://app?vid=43c45e4b-f1b8-48e3-99c9-2b8614e0645d"},"vehicle_type_id":"4","last_reported":1714068551,"current_range_meters":5600,"station_id":"ce4bgj92rcd13ifvqbd0","pricing_plan_id":"cebpf4jnsgd1na2vs0mg"},{"bike_id":"20008218-4e9e-401a-b960-d919759d2ab0","system_id":"levelo_inurba_marseille","lat":43.299676,"lon":5.38493,"is_reserved":false,"is_disabled":false,"rental_uris":{"android":"levelo://app?vid=20008218-4e9e-401a-b960-d919759d2ab0","ios":"levelo://app?vid=20008218-4e9e-401a-b960-d919759d2ab0"},"vehicle_type_id":"4","last_reported":1714068551,"current_range_meters":0,"station_id":"ce4bgj92rcd13ifvqbd0","pricing_plan_id":"cebpf4jnsgd1na2vs0mg"},{"bike_id":"f8b31e00-859f-47c3-b193-9044a7a9e67b","system_id":"levelo_inurba_marseille","lat":43.299724,"lon":5.384848,"is_reserved":false,"is_disabled":false,"rental_uris":{"android":"levelo://app?vid=f8b31e00-859f-47c3-b193-9044a7a9e67b","ios":"levelo://app?vid=f8b31e00-859f-47c3-b193-9044a7a9e67b"},"vehicle_type_id":"4","last_reported":1714068551,"current_range_meters":19600,"station_id":"ce4bgj92rcd13ifvqbd0","pricing_plan_id":"cebpf4jnsgd1na2vs0mg"},{"bike_id":"fa0e0a5c-5986-49e1-8e19-3e9cba985fbc","system_id":"levelo_inurba_marseille","lat":43.299717,"lon":5.384845,"is_reserved":false,"is_disabled":false,"rental_uris":{"android":"levelo://app?vid=fa0e0a5c-5986-49e1-8e19-3e9cba985fbc","ios":"levelo://app?vid=fa0e0a5c-5986-49e1-8e19-3e9cba985fbc"},"vehicle_type_id":"4","last_reported":1714068551,"current_range_meters":6000,"station_id":"ce4bgj92rcd13ifvqbd0","pricing_plan_id":"cebpf4jnsgd1na2vs0mg"},{"bike_id":"fab6d2ea-67a2-45ab-b7b2-b1d5ba2c48c1","system_id":"levelo_inurba_marseille","lat":43.299724,"lon":5.384848,"is_reserved":false,"is_disabled":false,"rental_uris":{"android":"levelo://app?vid=fab6d2ea-67a2-45ab-b7b2-b1d5ba2c48c1","ios":"levelo://app?vid=fab6d2ea-67a2-45ab-b7b2-b1d5ba2c48c1"},"vehicle_type_id":"4","last_reported":1714068551,"current_range_meters":0,"station_id":"ce4bgj92rcd13ifvqbd0","pricing_plan_id":"cebpf4jnsgd1na2vs0mg"},{"bike_id":"31b60ef0-e26b-4200-92e5-79f9b6e58995","system_id":"levelo_inurba_marseille","lat":43.32366,"lon":5.38886,"is_reserved":false,"is_disabled":false,"rental_uris":{"android":"levelo://app?vid=31b60ef0-e26b-4200-92e5-79f9b6e58995","ios":"levelo://app?vid=31b60ef0-e26b-4200-92e5-79f9b6e58995"},"vehicle_type_id":"4","last_reported":1714068551,"current_range_meters":0,"station_id":"ce4bhqp2rcd13ifvqhog","pricing_plan_id":"cebpf4jnsgd1na2vs0mg"},{"bike_id":"c8da0cbe-72e5-4a7a-a918-14f35852bf8b","system_id":"levelo_inurba_marseille","lat":43.32367,"lon":5.388836,"is_reserved":false,"is_disabled":false,"rental_uris":{"android":"levelo://app?vid=c8da0cbe-72e5-4a7a-a918-14f35852bf8b","ios":"levelo://app?vid=c8da0cbe-72e5-4a7a-a918-14f35852bf8b"},"vehicle_type_id":"4","last_reported":1714068551,"current_range_meters":10000,"station_id":"ce4bhqp2rcd13ifvqhog","pricing_plan_id":"cebpf4jnsgd1na2vs0mg"},{"bike_id":"e5aed3df-55c2-4cba-ab3d-14ef8487bba5","system_id":"levelo_inurba_marseille","lat":43.32367,"lon":5.388836,"is_reserved":false,"is_disabled":false,"rental_uris":{"android":"levelo://app?vid=e5aed3df-55c2-4cba-ab3d-14ef8487bba5","ios":"levelo://app?vid=e5aed3df-55c2-4cba-ab3d-14ef8487bba5"},"vehicle_type_id":"4","last_reported":1714068551,"current_range_meters":21600,"station_id":"ce4bhqp2rcd13ifvqhog","pricing_plan_id":"cebpf4jnsgd1na2vs0mg"},{"bike_id":"87bcbafd-2bfc-4684-bd0b-2590607476bd","system_id":"levelo_inurba_marseille","lat":43.293259,"lon":5.371586,"is_reserved":false,"is_disabled":false,"rental_uris":{"android":"levelo://app?vid=87bcbafd-2bfc-4684-bd0b-2590607476bd","ios":"levelo://app?vid=87bcbafd-2bfc-4684-bd0b-2590607476bd"},"vehicle_type_id":"4","last_reported":1714068551,"current_range_meters":18000,"station_id":"ce4bgh92rcd13ifvqb40","pricing_plan_id":"cebpf4jnsgd1na2vs0mg"},{"bike_id":"eab2c8b3-0011-4fbf-8bc0-4971b32cbea6","system_id":"levelo_inurba_marseille","lat":43.29602,"lon":5.381084,"is_reserved":false,"is_disabled":false,"rental_uris":{"android":"levelo://app?vid=eab2c8b3-0011-4fbf-8bc0-4971b32cbea6","ios":"levelo://app?vid=eab2c8b3-0011-4fbf-8bc0-4971b32cbea6"},"vehicle_type_id":"4","last_reported":1714068551,"current_range_meters":31200,"station_id":"ce4bgl12rcd13ifvqbo0","pricing_plan_id":"cebpf4jnsgd1na2vs0mg"},{"bike_id":"d5b51493-1dfb-4892-9525-6a970c69ab2b","system_id":"levelo_inurba_marseille","lat":43.29602,"lon":5.381084,"is_reserved":false,"is_disabled":false,"rental_uris":{"android":"levelo://app?vid=d5b51493-1dfb-4892-9525-6a970c69ab2b","ios":"levelo://app?vid=d5b51493-1dfb-4892-9525-6a970c69ab2b"},"vehicle_type_id":"4","last_reported":1714068551,"current_range_meters":16400,"station_id":"ce4bgl12rcd13ifvqbo0","pricing_plan_id":"cebpf4jnsgd1na2vs0mg"},{"bike_id":"3b59442f-d1c9-4f4c-a3a6-e8d3b3281dca","system_id":"levelo_inurba_marseille","lat":43.29602,"lon":5.381084,"is_reserved":false,"is_disabled":false,"rental_uris":{"android":"levelo://app?vid=3b59442f-d1c9-4f4c-a3a6-e8d3b3281dca","ios":"levelo://app?vid=3b59442f-d1c9-4f4c-a3a6-e8d3b3281dca"},"vehicle_type_id":"4","last_reported":1714068551,"current_range_meters":6400,"station_id":"ce4bgl12rcd13ifvqbo0","pricing_plan_id":"cebpf4jnsgd1na2vs0mg"},{"bike_id":"4b5967da-6088-4ee4-a35a-affc695cf987","system_id":"levelo_inurba_marseille","lat":43.290345,"lon":5.38646,"is_reserved":false,"is_disabled":false,"rental_uris":{"android":"levelo://app?vid=4b5967da-6088-4ee4-a35a-affc695cf987","ios":"levelo://app?vid=4b5967da-6088-4ee4-a35a-affc695cf987"},"vehicle_type_id":"4","last_reported":1714068551,"current_range_meters":9200,"station_id":"ce4bh4p2rcd13ifvqe0g","pricing_plan_id":"cebpf4jnsgd1na2vs0mg"},{"bike_id":"996db643-369e-45da-a252-103abdf922e2","system_id":"levelo_inurba_marseille","lat":43.293249,"lon":5.371578,"is_reserved":false,"is_disabled":false,"rental_uris":{"android":"levelo://app?vid=996db643-369e-45da-a252-103abdf922e2","ios":"levelo://app?vid=996db643-369e-45da-a252-103abdf922e2"},"vehicle_type_id":"4","last_reported":1714068551,"current_range_meters":28000,"station_id":"ce4bgh92rcd13ifvqb40","pricing_plan_id":"cebpf4jnsgd1na2vs0mg"},{"bike_id":"b1c1bfdd-293a-448e-98b9-f4abaee03231","system_id":"levelo_inurba_marseille","lat":43.29309,"lon":5.37164,"is_reserved":false,"is_disabled":false,"rental_uris":{"android":"levelo://app?vid=b1c1bfdd-293a-448e-98b9-f4abaee03231","ios":"levelo://app?vid=b1c1bfdd-293a-448e-98b9-f4abaee03231"},"vehicle_type_id":"4","last_reported":1714068551,"current_range_meters":0,"station_id":"ce4bgh92rcd13ifvqb40","pricing_plan_id":"cebpf4jnsgd1na2vs0mg"},{"bike_id":"305c5d8f-1c05-4e91-9daa-9d2a66acfe4c","system_id":"levelo_inurba_marseille","lat":43.2931,"lon":5.3718,"is_reserved":false,"is_disabled":false,"rental_uris":{"android":"levelo://app?vid=305c5d8f-1c05-4e91-9daa-9d2a66acfe4c","ios":"levelo://app?vid=305c5d8f-1c05-4e91-9daa-9d2a66acfe4c"},"vehicle_type_id":"4","last_reported":1714068551,"current_range_meters":15200,"station_id":"ce4bgh92rcd13ifvqb40","pricing_plan_id":"cebpf4jnsgd1na2vs0mg"},{"bike_id":"5ec59abb-f348-4212-a7d4-1a3dfb91b71d","system_id":"levelo_inurba_marseille","lat":43.29308,"lon":5.37173,"is_reserved":false,"is_disabled":false,"rental_uris":{"android":"levelo://app?vid=5ec59abb-f348-4212-a7d4-1a3dfb91b71d","ios":"levelo://app?vid=5ec59abb-f348-4212-a7d4-1a3dfb91b71d"},"vehicle_type_id":"4","last_reported":1714068551,"current_range_meters":8400,"station_id":"ce4bgh92rcd13ifvqb40","pricing_plan_id":"cebpf4jnsgd1na2vs0mg"},{"bike_id":"a8cf6d21-2305-4ecf-a8a9-727b979f3136","system_id":"levelo_inurba_marseille","lat":43.29308,"lon":5.37175,"is_reserved":false,"is_disabled":false,"rental_uris":{"android":"levelo://app?vid=a8cf6d21-2305-4ecf-a8a9-727b979f3136","ios":"levelo://app?vid=a8cf6d21-2305-4ecf-a8a9-727b979f3136"},"vehicle_type_id":"4","last_reported":1714068551,"current_range_meters":5200,"station_id":"ce4bgh92rcd13ifvqb40","pricing_plan_id":"cebpf4jnsgd1na2vs0mg"},{"bike_id":"53a83b1d-84de-4c98-90ce-77b056857856","system_id":"levelo_inurba_marseille","lat":43.29308,"lon":5.37175,"is_reserved":false,"is_disabled":false,"rental_uris":{"android":"levelo://app?vid=53a83b1d-84de-4c98-90ce-77b056857856","ios":"levelo://app?vid=53a83b1d-84de-4c98-90ce-77b056857856"},"vehicle_type_id":"4","last_reported":1714068551,"current_range_meters":6800,"station_id":"ce4bgh92rcd13ifvqb40","pricing_plan_id":"cebpf4jnsgd1na2vs0mg"},{"bike_id":"dfb36066-65c6-4105-96bb-5d7376f5ca56","system_id":"levelo_inurba_marseille","lat":43.292749,"lon":5.368402,"is_reserved":false,"is_disabled":false,"rental_uris":{"android":"levelo://app?vid=dfb36066-65c6-4105-96bb-5d7376f5ca56","ios":"levelo://app?vid=dfb36066-65c6-4105-96bb-5d7376f5ca56"},"vehicle_type_id":"4","last_reported":1714068551,"current_range_meters":18000,"station_id":"ce4bhbp2rcd13ifvqesg","pricing_plan_id":"cebpf4jnsgd1na2vs0mg"},{"bike_id":"77fa9a90-c5b1-4aab-a90d-e2ec370a90ba","system_id":"levelo_inurba_marseille","lat":43.29307,"lon":5.37178,"is_reserved":false,"is_disabled":false,"rental_uris":{"android":"levelo://app?vid=77fa9a90-c5b1-4aab-a90d-e2ec370a90ba","ios":"levelo://app?vid=77fa9a90-c5b1-4aab-a90d-e2ec370a90ba"},"vehicle_type_id":"4","last_reported":1714068551,"current_range_meters":0,"station_id":"ce4bgh92rcd13ifvqb40","pricing_plan_id":"cebpf4jnsgd1na2vs0mg"},{"bike_id":"e2e6c8bd-8e99-4f3a-8d51-e4c02009ccda","system_id":"levelo_inurba_marseille","lat":43.292749,"lon":5.368398,"is_reserved":false,"is_disabled":false,"rental_uris":{"android":"levelo://app?vid=e2e6c8bd-8e99-4f3a-8d51-e4c02009ccda","ios":"levelo://app?vid=e2e6c8bd-8e99-4f3a-8d51-e4c02009ccda"},"vehicle_type_id":"4","last_reported":1714068551,"current_range_meters":19600,"station_id":"ce4bhbp2rcd13ifvqesg","pricing_plan_id":"cebpf4jnsgd1na2vs0mg"},{"bike_id":"8e9d3ec2-2a46-48d3-8791-f977c950fd01","system_id":"levelo_inurba_marseille","lat":43.29306,"lon":5.37179,"is_reserved":false,"is_disabled":false,"rental_uris":{"android":"levelo://app?vid=8e9d3ec2-2a46-48d3-8791-f977c950fd01","ios":"levelo://app?vid=8e9d3ec2-2a46-48d3-8791-f977c950fd01"},"vehicle_type_id":"4","last_reported":1714068551,"current_range_meters":800,"station_id":"ce4bgh92rcd13ifvqb40","pricing_plan_id":"cebpf4jnsgd1na2vs0mg"},{"bike_id":"2c7f3510-fb9d-4449-97f2-046b7948ee2d","system_id":"levelo_inurba_marseille","lat":43.292749,"lon":5.368402,"is_reserved":false,"is_disabled":false,"rental_uris":{"android":"levelo://app?vid=2c7f3510-fb9d-4449-97f2-046b7948ee2d","ios":"levelo://app?vid=2c7f3510-fb9d-4449-97f2-046b7948ee2d"},"vehicle_type_id":"4","last_reported":1714068551,"current_range_meters":15200,"station_id":"ce4bhbp2rcd13ifvqesg","pricing_plan_id":"cebpf4jnsgd1na2vs0mg"},{"bike_id":"c1371cbd-463b-419d-b04c-3c84c8735cba","system_id":"levelo_inurba_marseille","lat":43.292749,"lon":5.368402,"is_reserved":false,"is_disabled":false,"rental_uris":{"android":"levelo://app?vid=c1371cbd-463b-419d-b04c-3c84c8735cba","ios":"levelo://app?vid=c1371cbd-463b-419d-b04c-3c84c8735cba"},"vehicle_type_id":"4","last_reported":1714068551,"current_range_meters":23200,"station_id":"ce4bhbp2rcd13ifvqesg","pricing_plan_id":"cebpf4jnsgd1na2vs0mg"},{"bike_id":"dfb04e16-d911-4e42-8da5-a593a152981e","system_id":"levelo_inurba_marseille","lat":43.292749,"lon":5.368402,"is_reserved":false,"is_disabled":false,"rental_uris":{"android":"levelo://app?vid=dfb04e16-d911-4e42-8da5-a593a152981e","ios":"levelo://app?vid=dfb04e16-d911-4e42-8da5-a593a152981e"},"vehicle_type_id":"4","last_reported":1714068551,"current_range_meters":1600,"station_id":"ce4bhbp2rcd13ifvqesg","pricing_plan_id":"cebpf4jnsgd1na2vs0mg"},{"bike_id":"3190e011-9d54-48c3-8df4-24c375041388","system_id":"levelo_inurba_marseille","lat":43.292749,"lon":5.368402,"is_reserved":false,"is_disabled":false,"rental_uris":{"android":"levelo://app?vid=3190e011-9d54-48c3-8df4-24c375041388","ios":"levelo://app?vid=3190e011-9d54-48c3-8df4-24c375041388"},"vehicle_type_id":"4","last_reported":1714068551,"current_range_meters":18400,"station_id":"ce4bhbp2rcd13ifvqesg","pricing_plan_id":"cebpf4jnsgd1na2vs0mg"},{"bike_id":"3a9dcb5e-324d-45a3-aa3b-9976b089f72b","system_id":"levelo_inurba_marseille","lat":43.29304,"lon":5.37177,"is_reserved":false,"is_disabled":false,"rental_uris":{"android":"levelo://app?vid=3a9dcb5e-324d-45a3-aa3b-9976b089f72b","ios":"levelo://app?vid=3a9dcb5e-324d-45a3-aa3b-9976b089f72b"},"vehicle_type_id":"4","last_reported":1714068551,"current_range_meters":3600,"station_id":"ce4bgh92rcd13ifvqb40","pricing_plan_id":"cebpf4jnsgd1na2vs0mg"},{"bike_id":"7c7ac130-f88e-42b3-ba55-9fb6cb8abd02","system_id":"levelo_inurba_marseille","lat":43.292749,"lon":5.368402,"is_reserved":false,"is_disabled":false,"rental_uris":{"android":"levelo://app?vid=7c7ac130-f88e-42b3-ba55-9fb6cb8abd02","ios":"levelo://app?vid=7c7ac130-f88e-42b3-ba55-9fb6cb8abd02"},"vehicle_type_id":"4","last_reported":1714068551,"current_range_meters":19600,"station_id":"ce4bhbp2rcd13ifvqesg","pricing_plan_id":"cebpf4jnsgd1na2vs0mg"},{"bike_id":"4706ec81-8520-400d-b878-cbbfa34d49ed","system_id":"levelo_inurba_marseille","lat":43.292749,"lon":5.368402,"is_reserved":false,"is_disabled":false,"rental_uris":{"android":"levelo://app?vid=4706ec81-8520-400d-b878-cbbfa34d49ed","ios":"levelo://app?vid=4706ec81-8520-400d-b878-cbbfa34d49ed"},"vehicle_type_id":"4","last_reported":1714068551,"current_range_meters":4000,"station_id":"ce4bhbp2rcd13ifvqesg","pricing_plan_id":"cebpf4jnsgd1na2vs0mg"},{"bike_id":"daae5c69-c2fe-479d-acff-451c86fc32ef","system_id":"levelo_inurba_marseille","lat":43.299243,"lon":5.37481,"is_reserved":false,"is_disabled":false,"rental_uris":{"android":"levelo://app?vid=daae5c69-c2fe-479d-acff-451c86fc32ef","ios":"levelo://app?vid=daae5c69-c2fe-479d-acff-451c86fc32ef"},"vehicle_type_id":"4","last_reported":1714068551,"current_range_meters":11200,"station_id":"ce4bgjh2rcd13ifvqbg0","pricing_plan_id":"cebpf4jnsgd1na2vs0mg"},{"bike_id":"397bcdb0-ea47-44fa-9607-8f1cbc93477f","system_id":"levelo_inurba_marseille","lat":43.293009,"lon":5.374584,"is_reserved":false,"is_disabled":false,"rental_uris":{"android":"levelo://app?vid=397bcdb0-ea47-44fa-9607-8f1cbc93477f","ios":"levelo://app?vid=397bcdb0-ea47-44fa-9607-8f1cbc93477f"},"vehicle_type_id":"4","last_reported":1714068551,"current_range_meters":16800,"station_id":"ce4bgi12rcd13ifvqb70","pricing_plan_id":"cebpf4jnsgd1na2vs0mg"},{"bike_id":"20f149a6-f4f8-4563-bc14-48e293b22efb","system_id":"levelo_inurba_marseille","lat":43.284538,"lon":5.358657,"is_reserved":false,"is_disabled":false,"rental_uris":{"android":"levelo://app?vid=20f149a6-f4f8-4563-bc14-48e293b22efb","ios":"levelo://app?vid=20f149a6-f4f8-4563-bc14-48e293b22efb"},"vehicle_type_id":"4","last_reported":1714068551,"current_range_meters":10400,"station_id":"ce4bhah2rcd13ifvqei0","pricing_plan_id":"cebpf4jnsgd1na2vs0mg"},{"bike_id":"d62c64ca-3ea5-48b2-b4d1-546c0809a4ea","system_id":"levelo_inurba_marseille","lat":43.305994,"lon":5.393687,"is_reserved":false,"is_disabled":false,"rental_uris":{"android":"levelo://app?vid=d62c64ca-3ea5-48b2-b4d1-546c0809a4ea","ios":"levelo://app?vid=d62c64ca-3ea5-48b2-b4d1-546c0809a4ea"},"vehicle_type_id":"4","last_reported":1714068551,"current_range_meters":12800,"station_id":"ce4bh0p2rcd13ifvqd80","pricing_plan_id":"cebpf4jnsgd1na2vs0mg"},{"bike_id":"d21edb1d-9d32-41b7-9d79-8f7eabc25454","system_id":"levelo_inurba_marseille","lat":43.293009,"lon":5.374584,"is_reserved":false,"is_disabled":false,"rental_uris":{"android":"levelo://app?vid=d21edb1d-9d32-41b7-9d79-8f7eabc25454","ios":"levelo://app?vid=d21edb1d-9d32-41b7-9d79-8f7eabc25454"},"vehicle_type_id":"4","last_reported":1714068551,"current_range_meters":18800,"station_id":"ce4bgi12rcd13ifvqb70","pricing_plan_id":"cebpf4jnsgd1na2vs0mg"},{"bike_id":"99df1428-99c0-4c86-8aa8-3edba56fac5f","system_id":"levelo_inurba_marseille","lat":43.305994,"lon":5.393687,"is_reserved":false,"is_disabled":false,"rental_uris":{"android":"levelo://app?vid=99df1428-99c0-4c86-8aa8-3edba56fac5f","ios":"levelo://app?vid=99df1428-99c0-4c86-8aa8-3edba56fac5f"},"vehicle_type_id":"4","last_reported":1714068551,"current_range_meters":2800,"station_id":"ce4bh0p2rcd13ifvqd80","pricing_plan_id":"cebpf4jnsgd1na2vs0mg"},{"bike_id":"b4146a1f-57e5-4585-88d2-f3efa915b1ff","system_id":"levelo_inurba_marseille","lat":43.293009,"lon":5.374584,"is_reserved":false,"is_disabled":false,"rental_uris":{"android":"levelo://app?vid=b4146a1f-57e5-4585-88d2-f3efa915b1ff","ios":"levelo://app?vid=b4146a1f-57e5-4585-88d2-f3efa915b1ff"},"vehicle_type_id":"4","last_reported":1714068551,"current_range_meters":28000,"station_id":"ce4bgi12rcd13ifvqb70","pricing_plan_id":"cebpf4jnsgd1na2vs0mg"},{"bike_id":"3940266f-dca4-4365-8ed1-09a9ef119a6d","system_id":"levelo_inurba_marseille","lat":43.305994,"lon":5.393687,"is_reserved":false,"is_disabled":false,"rental_uris":{"android":"levelo://app?vid=3940266f-dca4-4365-8ed1-09a9ef119a6d","ios":"levelo://app?vid=3940266f-dca4-4365-8ed1-09a9ef119a6d"},"vehicle_type_id":"4","last_reported":1714068551,"current_range_meters":14800,"station_id":"ce4bh0p2rcd13ifvqd80","pricing_plan_id":"cebpf4jnsgd1na2vs0mg"},{"bike_id":"b947b593-9064-4653-b0c4-cb69839ec0a0","system_id":"levelo_inurba_marseille","lat":43.305994,"lon":5.393687,"is_reserved":false,"is_disabled":false,"rental_uris":{"android":"levelo://app?vid=b947b593-9064-4653-b0c4-cb69839ec0a0","ios":"levelo://app?vid=b947b593-9064-4653-b0c4-cb69839ec0a0"},"vehicle_type_id":"4","last_reported":1714068551,"current_range_meters":8400,"station_id":"ce4bh0p2rcd13ifvqd80","pricing_plan_id":"cebpf4jnsgd1na2vs0mg"},{"bike_id":"c77841c8-e6fc-4e11-95e7-8b419a5ab50d","system_id":"levelo_inurba_marseille","lat":43.306,"lon":5.39368,"is_reserved":false,"is_disabled":false,"rental_uris":{"android":"levelo://app?vid=c77841c8-e6fc-4e11-95e7-8b419a5ab50d","ios":"levelo://app?vid=c77841c8-e6fc-4e11-95e7-8b419a5ab50d"},"vehicle_type_id":"4","last_reported":1714068551,"current_range_meters":0,"station_id":"ce4bh0p2rcd13ifvqd80","pricing_plan_id":"cebpf4jnsgd1na2vs0mg"},{"bike_id":"1672a663-b900-4aea-a040-9eb16f1f32ed","system_id":"levelo_inurba_marseille","lat":43.2936,"lon":5.37835,"is_reserved":false,"is_disabled":false,"rental_uris":{"android":"levelo://app?vid=1672a663-b900-4aea-a040-9eb16f1f32ed","ios":"levelo://app?vid=1672a663-b900-4aea-a040-9eb16f1f32ed"},"vehicle_type_id":"4","last_reported":1714068551,"current_range_meters":6000,"station_id":"ce4bgjh2rcd13ifvqbf0","pricing_plan_id":"cebpf4jnsgd1na2vs0mg"},{"bike_id":"308a2c8a-bdb9-40a9-94d6-0abf1894a390","system_id":"levelo_inurba_marseille","lat":43.30306,"lon":5.39221,"is_reserved":false,"is_disabled":false,"rental_uris":{"android":"levelo://app?vid=308a2c8a-bdb9-40a9-94d6-0abf1894a390","ios":"levelo://app?vid=308a2c8a-bdb9-40a9-94d6-0abf1894a390"},"vehicle_type_id":"4","last_reported":1714068551,"current_range_meters":400,"station_id":"ce4bgkh2rcd13ifvqbk0","pricing_plan_id":"cebpf4jnsgd1na2vs0mg"},{"bike_id":"73f9d167-1a01-460e-9766-35fde88a482f","system_id":"levelo_inurba_marseille","lat":43.2936,"lon":5.37835,"is_reserved":false,"is_disabled":false,"rental_uris":{"android":"levelo://app?vid=73f9d167-1a01-460e-9766-35fde88a482f","ios":"levelo://app?vid=73f9d167-1a01-460e-9766-35fde88a482f"},"vehicle_type_id":"4","last_reported":1714068551,"current_range_meters":2800,"station_id":"ce4bgjh2rcd13ifvqbf0","pricing_plan_id":"cebpf4jnsgd1na2vs0mg"},{"bike_id":"c3c2d961-482d-4ef3-a61e-d27ccf460e65","system_id":"levelo_inurba_marseille","lat":43.2936,"lon":5.37835,"is_reserved":false,"is_disabled":false,"rental_uris":{"android":"levelo://app?vid=c3c2d961-482d-4ef3-a61e-d27ccf460e65","ios":"levelo://app?vid=c3c2d961-482d-4ef3-a61e-d27ccf460e65"},"vehicle_type_id":"4","last_reported":1714068551,"current_range_meters":8800,"station_id":"ce4bgjh2rcd13ifvqbf0","pricing_plan_id":"cebpf4jnsgd1na2vs0mg"},{"bike_id":"ae3dc7fd-8ad1-492c-98c8-61c4b861d35b","system_id":"levelo_inurba_marseille","lat":43.292311,"lon":5.360731,"is_reserved":false,"is_disabled":false,"rental_uris":{"android":"levelo://app?vid=ae3dc7fd-8ad1-492c-98c8-61c4b861d35b","ios":"levelo://app?vid=ae3dc7fd-8ad1-492c-98c8-61c4b861d35b"},"vehicle_type_id":"4","last_reported":1714068551,"current_range_meters":1200,"station_id":"ce4bhbh2rcd13ifvqeqg","pricing_plan_id":"cebpf4jnsgd1na2vs0mg"},{"bike_id":"dcbed6a0-da46-41c1-b2ba-356fa0271e73","system_id":"levelo_inurba_marseille","lat":43.30093,"lon":5.39071,"is_reserved":false,"is_disabled":false,"rental_uris":{"android":"levelo://app?vid=dcbed6a0-da46-41c1-b2ba-356fa0271e73","ios":"levelo://app?vid=dcbed6a0-da46-41c1-b2ba-356fa0271e73"},"vehicle_type_id":"4","last_reported":1714068551,"current_range_meters":0,"station_id":"ce4bh192rcd13ifvqdb0","pricing_plan_id":"cebpf4jnsgd1na2vs0mg"},{"bike_id":"44d56a95-b01b-4773-bf2b-9d2ad785e91d","system_id":"levelo_inurba_marseille","lat":43.292311,"lon":5.360731,"is_reserved":false,"is_disabled":false,"rental_uris":{"android":"levelo://app?vid=44d56a95-b01b-4773-bf2b-9d2ad785e91d","ios":"levelo://app?vid=44d56a95-b01b-4773-bf2b-9d2ad785e91d"},"vehicle_type_id":"4","last_reported":1714068551,"current_range_meters":19200,"station_id":"ce4bhbh2rcd13ifvqeqg","pricing_plan_id":"cebpf4jnsgd1na2vs0mg"},{"bike_id":"341d8805-e338-4232-ab3e-3f7ce4115651","system_id":"levelo_inurba_marseille","lat":43.292311,"lon":5.360731,"is_reserved":false,"is_disabled":false,"rental_uris":{"android":"levelo://app?vid=341d8805-e338-4232-ab3e-3f7ce4115651","ios":"levelo://app?vid=341d8805-e338-4232-ab3e-3f7ce4115651"},"vehicle_type_id":"4","last_reported":1714068551,"current_range_meters":800,"station_id":"ce4bhbh2rcd13ifvqeqg","pricing_plan_id":"cebpf4jnsgd1na2vs0mg"},{"bike_id":"527f6e20-de23-4196-80f5-3bed6676709f","system_id":"levelo_inurba_marseille","lat":43.292311,"lon":5.360731,"is_reserved":false,"is_disabled":false,"rental_uris":{"android":"levelo://app?vid=527f6e20-de23-4196-80f5-3bed6676709f","ios":"levelo://app?vid=527f6e20-de23-4196-80f5-3bed6676709f"},"vehicle_type_id":"4","last_reported":1714068551,"current_range_meters":6000,"station_id":"ce4bhbh2rcd13ifvqeqg","pricing_plan_id":"cebpf4jnsgd1na2vs0mg"},{"bike_id":"9600d761-551a-424e-82a7-096b8f31f589","system_id":"levelo_inurba_marseille","lat":43.29222,"lon":5.36075,"is_reserved":false,"is_disabled":false,"rental_uris":{"android":"levelo://app?vid=9600d761-551a-424e-82a7-096b8f31f589","ios":"levelo://app?vid=9600d761-551a-424e-82a7-096b8f31f589"},"vehicle_type_id":"4","last_reported":1714068551,"current_range_meters":0,"station_id":"ce4bgh92rcd13ifvqb40","pricing_plan_id":"cebpf4jnsgd1na2vs0mg"},{"bike_id":"74073281-37f3-4e5d-b7ba-7c226e150b5b","system_id":"levelo_inurba_marseille","lat":43.300852,"lon":5.390859,"is_reserved":false,"is_disabled":false,"rental_uris":{"android":"levelo://app?vid=74073281-37f3-4e5d-b7ba-7c226e150b5b","ios":"levelo://app?vid=74073281-37f3-4e5d-b7ba-7c226e150b5b"},"vehicle_type_id":"4","last_reported":1714068551,"current_range_meters":26000,"station_id":"ce4bh192rcd13ifvqdb0","pricing_plan_id":"cebpf4jnsgd1na2vs0mg"},{"bike_id":"b53afe13-27b2-45b7-8522-ea3780a4f4f7","system_id":"levelo_inurba_marseille","lat":43.2928,"lon":5.376358,"is_reserved":false,"is_disabled":false,"rental_uris":{"android":"levelo://app?vid=b53afe13-27b2-45b7-8522-ea3780a4f4f7","ios":"levelo://app?vid=b53afe13-27b2-45b7-8522-ea3780a4f4f7"},"vehicle_type_id":"4","last_reported":1714068551,"current_range_meters":0,"station_id":"","pricing_plan_id":"cebpf4jnsgd1na2vs0mg"},{"bike_id":"381f976f-18d6-4bcb-92ca-8e782a1d1561","system_id":"levelo_inurba_marseille","lat":43.29265,"lon":5.37632,"is_reserved":false,"is_disabled":false,"rental_uris":{"android":"levelo://app?vid=381f976f-18d6-4bcb-92ca-8e782a1d1561","ios":"levelo://app?vid=381f976f-18d6-4bcb-92ca-8e782a1d1561"},"vehicle_type_id":"4","last_reported":1714068551,"current_range_meters":10400,"station_id":"","pricing_plan_id":"cebpf4jnsgd1na2vs0mg"},{"bike_id":"c0aa8142-3d69-4be0-876b-b430ebc05242","system_id":"levelo_inurba_marseille","lat":43.291671,"lon":5.371575,"is_reserved":false,"is_disabled":false,"rental_uris":{"android":"levelo://app?vid=c0aa8142-3d69-4be0-876b-b430ebc05242","ios":"levelo://app?vid=c0aa8142-3d69-4be0-876b-b430ebc05242"},"vehicle_type_id":"4","last_reported":1714068551,"current_range_meters":15200,"station_id":"ce4bha92rcd13ifvqeh0","pricing_plan_id":"cebpf4jnsgd1na2vs0mg"},{"bike_id":"1c30ae01-25e8-45fd-a58a-4556b8f793ff","system_id":"levelo_inurba_marseille","lat":43.291671,"lon":5.371575,"is_reserved":false,"is_disabled":false,"rental_uris":{"android":"levelo://app?vid=1c30ae01-25e8-45fd-a58a-4556b8f793ff","ios":"levelo://app?vid=1c30ae01-25e8-45fd-a58a-4556b8f793ff"},"vehicle_type_id":"4","last_reported":1714068551,"current_range_meters":16800,"station_id":"ce4bha92rcd13ifvqeh0","pricing_plan_id":"cebpf4jnsgd1na2vs0mg"},{"bike_id":"b7d1ad2a-9954-4335-8c0d-7e7ffe25f303","system_id":"levelo_inurba_marseille","lat":43.29881,"lon":5.3891,"is_reserved":false,"is_disabled":false,"rental_uris":{"android":"levelo://app?vid=b7d1ad2a-9954-4335-8c0d-7e7ffe25f303","ios":"levelo://app?vid=b7d1ad2a-9954-4335-8c0d-7e7ffe25f303"},"vehicle_type_id":"4","last_reported":1714068551,"current_range_meters":31200,"station_id":"","pricing_plan_id":"cebpf4jnsgd1na2vs0mg"},{"bike_id":"ed50d77c-1136-4623-a3ae-3fe48cd036fc","system_id":"levelo_inurba_marseille","lat":43.298764,"lon":5.388973,"is_reserved":false,"is_disabled":false,"rental_uris":{"android":"levelo://app?vid=ed50d77c-1136-4623-a3ae-3fe48cd036fc","ios":"levelo://app?vid=ed50d77c-1136-4623-a3ae-3fe48cd036fc"},"vehicle_type_id":"4","last_reported":1714068551,"current_range_meters":29200,"station_id":"ce4bh392rcd13ifvqdl0","pricing_plan_id":"cebpf4jnsgd1na2vs0mg"},{"bike_id":"8065529b-791d-4fab-a617-3ce007c46bf3","system_id":"levelo_inurba_marseille","lat":43.298764,"lon":5.388973,"is_reserved":false,"is_disabled":false,"rental_uris":{"android":"levelo://app?vid=8065529b-791d-4fab-a617-3ce007c46bf3","ios":"levelo://app?vid=8065529b-791d-4fab-a617-3ce007c46bf3"},"vehicle_type_id":"4","last_reported":1714068551,"current_range_meters":30800,"station_id":"ce4bh392rcd13ifvqdl0","pricing_plan_id":"cebpf4jnsgd1na2vs0mg"},{"bike_id":"4f5b9033-ff43-460b-a588-64b75f574778","system_id":"levelo_inurba_marseille","lat":43.292005,"lon":5.357875,"is_reserved":false,"is_disabled":false,"rental_uris":{"android":"levelo://app?vid=4f5b9033-ff43-460b-a588-64b75f574778","ios":"levelo://app?vid=4f5b9033-ff43-460b-a588-64b75f574778"},"vehicle_type_id":"4","last_reported":1714068551,"current_range_meters":15200,"station_id":"ce4bhb12rcd13ifvqel0","pricing_plan_id":"cebpf4jnsgd1na2vs0mg"},{"bike_id":"31430b88-8500-49b6-ab4c-ea69b15ac5b5","system_id":"levelo_inurba_marseille","lat":43.29196,"lon":5.358,"is_reserved":false,"is_disabled":false,"rental_uris":{"android":"levelo://app?vid=31430b88-8500-49b6-ab4c-ea69b15ac5b5","ios":"levelo://app?vid=31430b88-8500-49b6-ab4c-ea69b15ac5b5"},"vehicle_type_id":"4","last_reported":1714068551,"current_range_meters":11600,"station_id":"ce4bhb12rcd13ifvqel0","pricing_plan_id":"cebpf4jnsgd1na2vs0mg"},{"bike_id":"cb2dd440-e950-4cba-8541-5e598d86e851","system_id":"levelo_inurba_marseille","lat":43.308051,"lon":5.43527,"is_reserved":false,"is_disabled":false,"rental_uris":{"android":"levelo://app?vid=cb2dd440-e950-4cba-8541-5e598d86e851","ios":"levelo://app?vid=cb2dd440-e950-4cba-8541-5e598d86e851"},"vehicle_type_id":"4","last_reported":1714068551,"current_range_meters":0,"station_id":"ce4bhph2rcd13ifvqheg","pricing_plan_id":"cebpf4jnsgd1na2vs0mg"},{"bike_id":"20a9225a-c679-4123-b5ff-0a1feb52f227","system_id":"levelo_inurba_marseille","lat":43.31326,"lon":5.39692,"is_reserved":false,"is_disabled":false,"rental_uris":{"android":"levelo://app?vid=20a9225a-c679-4123-b5ff-0a1feb52f227","ios":"levelo://app?vid=20a9225a-c679-4123-b5ff-0a1feb52f227"},"vehicle_type_id":"4","last_reported":1714068551,"current_range_meters":0,"station_id":"ce4bgvp2rcd13ifvqcu0","pricing_plan_id":"cebpf4jnsgd1na2vs0mg"},{"bike_id":"151e1120-225d-412b-a89b-ad9ef2add216","system_id":"levelo_inurba_marseille","lat":43.309047,"lon":5.396551,"is_reserved":false,"is_disabled":false,"rental_uris":{"android":"levelo://app?vid=151e1120-225d-412b-a89b-ad9ef2add216","ios":"levelo://app?vid=151e1120-225d-412b-a89b-ad9ef2add216"},"vehicle_type_id":"4","last_reported":1714068551,"current_range_meters":18400,"station_id":"ce4bh012rcd13ifvqcv0","pricing_plan_id":"cebpf4jnsgd1na2vs0mg"},{"bike_id":"caef10bb-0c2c-45ae-8e0a-9055c0ef47d4","system_id":"levelo_inurba_marseille","lat":43.31329,"lon":5.39693,"is_reserved":false,"is_disabled":false,"rental_uris":{"android":"levelo://app?vid=caef10bb-0c2c-45ae-8e0a-9055c0ef47d4","ios":"levelo://app?vid=caef10bb-0c2c-45ae-8e0a-9055c0ef47d4"},"vehicle_type_id":"4","last_reported":1714068551,"current_range_meters":0,"station_id":"ce4bgvp2rcd13ifvqcu0","pricing_plan_id":"cebpf4jnsgd1na2vs0mg"},{"bike_id":"fc64117d-2234-4acf-a044-61bcc3796a52","system_id":"levelo_inurba_marseille","lat":43.31326,"lon":5.39694,"is_reserved":false,"is_disabled":false,"rental_uris":{"android":"levelo://app?vid=fc64117d-2234-4acf-a044-61bcc3796a52","ios":"levelo://app?vid=fc64117d-2234-4acf-a044-61bcc3796a52"},"vehicle_type_id":"4","last_reported":1714068551,"current_range_meters":20800,"station_id":"","pricing_plan_id":"cebpf4jnsgd1na2vs0mg"},{"bike_id":"6c648ca5-d19f-49c3-aeb9-710ce706730e","system_id":"levelo_inurba_marseille","lat":43.313291,"lon":5.396838,"is_reserved":false,"is_disabled":false,"rental_uris":{"android":"levelo://app?vid=6c648ca5-d19f-49c3-aeb9-710ce706730e","ios":"levelo://app?vid=6c648ca5-d19f-49c3-aeb9-710ce706730e"},"vehicle_type_id":"4","last_reported":1714068551,"current_range_meters":0,"station_id":"ce4bgvp2rcd13ifvqcu0","pricing_plan_id":"cebpf4jnsgd1na2vs0mg"},{"bike_id":"003f6191-3ac8-486a-816d-7bb9e2ccb16c","system_id":"levelo_inurba_marseille","lat":43.313291,"lon":5.396838,"is_reserved":false,"is_disabled":false,"rental_uris":{"android":"levelo://app?vid=003f6191-3ac8-486a-816d-7bb9e2ccb16c","ios":"levelo://app?vid=003f6191-3ac8-486a-816d-7bb9e2ccb16c"},"vehicle_type_id":"4","last_reported":1714068551,"current_range_meters":30400,"station_id":"ce4bgvp2rcd13ifvqcu0","pricing_plan_id":"cebpf4jnsgd1na2vs0mg"},{"bike_id":"04becaa8-a8a8-4ab1-a818-aca246b7df77","system_id":"levelo_inurba_marseille","lat":43.291994,"lon":5.357886,"is_reserved":false,"is_disabled":false,"rental_uris":{"android":"levelo://app?vid=04becaa8-a8a8-4ab1-a818-aca246b7df77","ios":"levelo://app?vid=04becaa8-a8a8-4ab1-a818-aca246b7df77"},"vehicle_type_id":"4","last_reported":1714068551,"current_range_meters":30400,"station_id":"ce4bhb12rcd13ifvqel0","pricing_plan_id":"cebpf4jnsgd1na2vs0mg"},{"bike_id":"4a3aba0b-14df-4933-97ae-4f70ec12d01d","system_id":"levelo_inurba_marseille","lat":43.309047,"lon":5.396551,"is_reserved":false,"is_disabled":false,"rental_uris":{"android":"levelo://app?vid=4a3aba0b-14df-4933-97ae-4f70ec12d01d","ios":"levelo://app?vid=4a3aba0b-14df-4933-97ae-4f70ec12d01d"},"vehicle_type_id":"4","last_reported":1714068551,"current_range_meters":18800,"station_id":"ce4bh012rcd13ifvqcv0","pricing_plan_id":"cebpf4jnsgd1na2vs0mg"},{"bike_id":"819e07a1-be92-4a37-af82-ea814ad2e238","system_id":"levelo_inurba_marseille","lat":43.309038,"lon":5.396546,"is_reserved":false,"is_disabled":false,"rental_uris":{"android":"levelo://app?vid=819e07a1-be92-4a37-af82-ea814ad2e238","ios":"levelo://app?vid=819e07a1-be92-4a37-af82-ea814ad2e238"},"vehicle_type_id":"4","last_reported":1714068551,"current_range_meters":7600,"station_id":"ce4bh012rcd13ifvqcv0","pricing_plan_id":"cebpf4jnsgd1na2vs0mg"},{"bike_id":"f0d25ba3-dea4-4380-a99e-0c3c51590094","system_id":"levelo_inurba_marseille","lat":43.29537,"lon":5.38543,"is_reserved":false,"is_disabled":false,"rental_uris":{"android":"levelo://app?vid=f0d25ba3-dea4-4380-a99e-0c3c51590094","ios":"levelo://app?vid=f0d25ba3-dea4-4380-a99e-0c3c51590094"},"vehicle_type_id":"4","last_reported":1714068551,"current_range_meters":6800,"station_id":"ce4bgih2rcd13ifvqba0","pricing_plan_id":"cebpf4jnsgd1na2vs0mg"},{"bike_id":"a0b17e9f-0ce1-4f3e-8b08-df245ac9a3c3","system_id":"levelo_inurba_marseille","lat":43.29529,"lon":5.385581,"is_reserved":false,"is_disabled":false,"rental_uris":{"android":"levelo://app?vid=a0b17e9f-0ce1-4f3e-8b08-df245ac9a3c3","ios":"levelo://app?vid=a0b17e9f-0ce1-4f3e-8b08-df245ac9a3c3"},"vehicle_type_id":"4","last_reported":1714068551,"current_range_meters":31600,"station_id":"ce4bgih2rcd13ifvqba0","pricing_plan_id":"cebpf4jnsgd1na2vs0mg"},{"bike_id":"65e02d0b-64ac-4d66-8d2e-dc2d33c6e533","system_id":"levelo_inurba_marseille","lat":43.290779,"lon":5.371482,"is_reserved":false,"is_disabled":false,"rental_uris":{"android":"levelo://app?vid=65e02d0b-64ac-4d66-8d2e-dc2d33c6e533","ios":"levelo://app?vid=65e02d0b-64ac-4d66-8d2e-dc2d33c6e533"},