{"last_updated":1748682562,"ttl":60,"version":"2.2","data":{"bikes":[{"bike_id":"55d42eeb-6b71-4987-a0f2-3d758b10d43e","system_id":"levelo_inurba_marseille","lat":43.33771,"lon":5.37424,"is_reserved":false,"is_disabled":true,"rental_uris":{"android":"levelo://app?vid=55d42eeb-6b71-4987-a0f2-3d758b10d43e","ios":"levelo://app?vid=55d42eeb-6b71-4987-a0f2-3d758b10d43e"},"vehicle_type_id":"4","last_reported":1748682562,"current_range_meters":0,"station_id":"","pricing_plan_id":"cebpf4jnsgd1na2vs0mg"},{"bike_id":"b7fe4621-b706-42f0-9085-4811142f84e8","system_id":"levelo_inurba_marseille","lat":43.337499,"lon":5.374469,"is_reserved":false,"is_disabled":true,"rental_uris":{"android":"levelo://app?vid=b7fe4621-b706-42f0-9085-4811142f84e8","ios":"levelo://app?vid=b7fe4621-b706-42f0-9085-4811142f84e8"},"vehicle_type_id":"4","last_reported":1748682562,"current_range_meters":0,"station_id":"","pricing_plan_id":"cebpf4jnsgd1na2vs0mg"},{"bike_id":"ad402f0f-3192-410c-afac-8cf064a40c6d","system_id":"levelo_inurba_marseille","lat":43.337444,"lon":5.374475,"is_reserved":false,"is_disabled":true,"rental_uris":{"android":"levelo://app?vid=ad402f0f-3192-410c-afac-8cf064a40c6d","ios":"levelo://app?vid=ad402f0f-3192-410c-afac-8cf064a40c6d"},"vehicle_type_id":"4","last_reported":1748682562,"current_range_meters":0,"station_id":"","pricing_plan_id":"cebpf4jnsgd1na2vs0mg"},{"bike_id":"48316cb4-0fb2-480b-9e20-21011b0e178e","system_id":"levelo_inurba_marseille","lat":43.266774,"lon":5.382734,"is_reserved":false,"is_disabled":true,"rental_uris":{"android":"levelo://app?vid=48316cb4-0fb2-480b-9e20-21011b0e178e","ios":"levelo://app?vid=48316cb4-0fb2-480b-9e20-21011b0e178e"},"vehicle_type_id":"4","last_reported":1748682562,"current_range_meters":0,"station_id":"","pricing_plan_id":"cebpf4jnsgd1na2vs0mg"},{"bike_id":"e8d8ddad-17f0-4297-b743-7c17818146e6","system_id":"levelo_inurba_marseille","lat":43.28218,"lon":5.42974,"is_reserved":false,"is_disabled":true,"rental_uris":{"android":"levelo://app?vid=e8d8ddad-17f0-4297-b743-7c17818146e6","ios":"levelo://app?vid=e8d8ddad-17f0-4297-b743-7c17818146e6"},"vehicle_type_id":"4","last_reported":1748682562,"current_range_meters":0,"station_id":"","pricing_plan_id":"cebpf4jnsgd1na2vs0mg"},{"bike_id":"5066fbdb-00f8-44c8-912c-f3d62e14f5d8","system_id":"levelo_inurba_marseille","lat":43.30684,"lon":5.40608,"is_reserved":false,"is_disabled":true,"rental_uris":{"android":"levelo://app?vid=5066fbdb-00f8-44c8-912c-f3d62e14f5d8","ios":"levelo://app?vid=5066fbdb-00f8-44c8-912c-f3d62e14f5d8"},"vehicle_type_id":"4","last_reported":1748682562,"current_range_meters":0,"station_id":"","pricing_plan_id":"cebpf4jnsgd1na2vs0mg"},{"bike_id":"fb22c8fc-c3ab-4f2b-bb62-1d7a5dd38724","system_id":"levelo_inurba_marseille","lat":43.31133,"lon":5.37779,"is_reserved":false,"is_disabled":true,"rental_uris":{"android":"levelo://app?vid=fb22c8fc-c3ab-4f2b-bb62-1d7a5dd38724","ios":"levelo://app?vid=fb22c8fc-c3ab-4f2b-bb62-1d7a5dd38724"},"vehicle_type_id":"4","last_reported":1748682562,"current_range_meters":0,"station_id":"ce4bgt92rcd13ifvqcg0","pricing_plan_id":"cebpf4jnsgd1na2vs0mg"},{"bike_id":"02324e42-64a3-4cdd-b97e-96f9df5d5e1c","system_id":"levelo_inurba_marseille","lat":43.2849,"lon":5.38417,"is_reserved":false,"is_disabled":true,"rental_uris":{"android":"levelo://app?vid=02324e42-64a3-4cdd-b97e-96f9df5d5e1c","ios":"levelo://app?vid=02324e42-64a3-4cdd-b97e-96f9df5d5e1c"},"vehicle_type_id":"4","last_reported":1748682562,"current_range_meters":0,"station_id":"ce4bh512rcd13ifvqe3g","pricing_plan_id":"cebpf4jnsgd1na2vs0mg"},{"bike_id":"49a9d23d-0feb-42eb-9501-cd335ced4329","system_id":"levelo_inurba_marseille","lat":43.26556,"lon":5.37283,"is_reserved":false,"is_disabled":true,"rental_uris":{"android":"levelo://app?vid=49a9d23d-0feb-42eb-9501-cd335ced4329","ios":"levelo://app?vid=49a9d23d-0feb-42eb-9501-cd335ced4329"},"vehicle_type_id":"4","last_reported":1748682562,"current_range_meters":0,"station_id":"ce4bhg12rcd13ifvqf70","pricing_plan_id":"cebpf4jnsgd1na2vs0mg"},{"bike_id":"e20578b7-c232-41a2-b554-878b5d4aba03","system_id":"levelo_inurba_marseille","lat":43.265522,"lon":5.372854,"is_reserved":false,"is_disabled":true,"rental_uris":{"android":"levelo://app?vid=e20578b7-c232-41a2-b554-878b5d4aba03","ios":"levelo://app?vid=e20578b7-c232-41a2-b554-878b5d4aba03"},"vehicle_type_id":"4","last_reported":1748682562,"current_range_meters":0,"station_id":"ce4bhg12rcd13ifvqf70","pricing_plan_id":"cebpf4jnsgd1na2vs0mg"},{"bike_id":"ae36c36b-f9bb-479a-807c-fc4ce032b7f4","system_id":"levelo_inurba_marseille","lat":43.260279,"lon":5.375461,"is_reserved":false,"is_disabled":true,"rental_uris":{"android":"levelo://app?vid=ae36c36b-f9bb-479a-807c-fc4ce032b7f4","ios":"levelo://app?vid=ae36c36b-f9bb-479a-807c-fc4ce032b7f4"},"vehicle_type_id":"4","last_reported":1748682562,"current_range_meters":0,"station_id":"ce4bhgh2rcd13ifvqfa0","pricing_plan_id":"cebpf4jnsgd1na2vs0mg"},{"bike_id":"dd0821c7-dd47-4d0f-bba3-1a9e49bc6a26","system_id":"levelo_inurba_marseille","lat":43.29963,"lon":5.413323,"is_reserved":false,"is_disabled":true,"rental_uris":{"android":"levelo://app?vid=dd0821c7-dd47-4d0f-bba3-1a9e49bc6a26","ios":"levelo://app?vid=dd0821c7-dd47-4d0f-bba3-1a9e49bc6a26"},"vehicle_type_id":"4","last_reported":1748682562,"current_range_meters":0,"station_id":"ce4bhp12rcd13ifvqh9g","pricing_plan_id":"cebpf4jnsgd1na2vs0mg"},{"bike_id":"7efd1012-2815-43a2-acf7-e56b4769746c","system_id":"levelo_inurba_marseille","lat":43.26913,"lon":5.40268,"is_reserved":false,"is_disabled":true,"rental_uris":{"android":"levelo://app?vid=7efd1012-2815-43a2-acf7-e56b4769746c","ios":"levelo://app?vid=7efd1012-2815-43a2-acf7-e56b4769746c"},"vehicle_type_id":"4","last_reported":1748682562,"current_range_meters":0,"station_id":"cjm6bp8fraef2m0cb0m0","pricing_plan_id":"cebpf4jnsgd1na2vs0mg"},{"bike_id":"bca8997c-ca56-4d92-9c61-d7e9c3800782","system_id":"levelo_inurba_marseille","lat":43.217395,"lon":5.34598,"is_reserved":false,"is_disabled":true,"rental_uris":{"android":"levelo://app?vid=bca8997c-ca56-4d92-9c61-d7e9c3800782","ios":"levelo://app?vid=bca8997c-ca56-4d92-9c61-d7e9c3800782"},"vehicle_type_id":"4","last_reported":1748682562,"current_range_meters":0,"station_id":"st_cvj6r9ubvosntc0bgbag","pricing_plan_id":"cebpf4jnsgd1na2vs0mg"},{"bike_id":"773c1455-d022-4f8e-8c6e-cf957b22d221","system_id":"levelo_inurba_marseille","lat":43.21767,"lon":5.345743,"is_reserved":false,"is_disabled":true,"rental_uris":{"android":"levelo://app?vid=773c1455-d022-4f8e-8c6e-cf957b22d221","ios":"levelo://app?vid=773c1455-d022-4f8e-8c6e-cf957b22d221"},"vehicle_type_id":"4","last_reported":1748682562,"current_range_meters":0,"station_id":"st_cvj6r9ubvosntc0bgbag","pricing_plan_id":"cebpf4jnsgd1na2vs0mg"},{"bike_id":"ab9c9983-bf72-44ed-ad75-a96b382dad3c","system_id":"levelo_inurba_marseille","lat":43.217426,"lon":5.34608,"is_reserved":false,"is_disabled":true,"rental_uris":{"android":"levelo://app?vid=ab9c9983-bf72-44ed-ad75-a96b382dad3c","ios":"levelo://app?vid=ab9c9983-bf72-44ed-ad75-a96b382dad3c"},"vehicle_type_id":"4","last_reported":1748682562,"current_range_meters":0,"station_id":"st_cvj6r9ubvosntc0bgbag","pricing_plan_id":"cebpf4jnsgd1na2vs0mg"},{"bike_id":"db111e29-c7bc-419e-9b00-20231fbec330","system_id":"levelo_inurba_marseille","lat":43.21755,"lon":5.34595,"is_reserved":false,"is_disabled":true,"rental_uris":{"android":"levelo://app?vid=db111e29-c7bc-419e-9b00-20231fbec330","ios":"levelo://app?vid=db111e29-c7bc-419e-9b00-20231fbec330"},"vehicle_type_id":"4","last_reported":1748682562,"current_range_meters":0,"station_id":"st_cvj6r9ubvosntc0bgbag","pricing_plan_id":"cebpf4jnsgd1na2vs0mg"},{"bike_id":"c9a8ab5e-4f64-4e9c-8db2-4dbad5a71d1d","system_id":"levelo_inurba_marseille","lat":43.217535,"lon":5.345995,"is_reserved":false,"is_disabled":true,"rental_uris":{"android":"levelo://app?vid=c9a8ab5e-4f64-4e9c-8db2-4dbad5a71d1d","ios":"levelo://app?vid=c9a8ab5e-4f64-4e9c-8db2-4dbad5a71d1d"},"vehicle_type_id":"4","last_reported":1748682562,"current_range_meters":0,"station_id":"st_cvj6r9ubvosntc0bgbag","pricing_plan_id":"cebpf4jnsgd1na2vs0mg"},{"bike_id":"edcb0dfe-bdaa-4cf7-84cb-f40080951379","system_id":"levelo_inurba_marseille","lat":43.21747,"lon":5.3459,"is_reserved":false,"is_disabled":true,"rental_uris":{"android":"levelo://app?vid=edcb0dfe-bdaa-4cf7-84cb-f40080951379","ios":"levelo://app?vid=edcb0dfe-bdaa-4cf7-84cb-f40080951379"},"vehicle_type_id":"4","last_reported":1748682562,"current_range_meters":0,"station_id":"st_cvj6r9ubvosntc0bgbag","pricing_plan_id":"cebpf4jnsgd1na2vs0mg"},{"bike_id":"283d7c81-c1df-494e-adf0-e3890b678e56","system_id":"levelo_inurba_marseille","lat":43.29219,"lon":5.38493,"is_reserved":false,"is_disabled":true,"rental_uris":{"android":"levelo://app?vid=283d7c81-c1df-494e-adf0-e3890b678e56","ios":"levelo://app?vid=283d7c81-c1df-494e-adf0-e3890b678e56"},"vehicle_type_id":"4","last_reported":1748682562,"current_range_meters":400,"station_id":"ce4bh692rcd13ifvqea0","pricing_plan_id":"cebpf4jnsgd1na2vs0mg"},{"bike_id":"4b304543-d7a0-4433-9ca4-ae6eed2fa2a8","system_id":"levelo_inurba_marseille","lat":43.25497,"lon":5.37649,"is_reserved":false,"is_disabled":true,"rental_uris":{"android":"levelo://app?vid=4b304543-d7a0-4433-9ca4-ae6eed2fa2a8","ios":"levelo://app?vid=4b304543-d7a0-4433-9ca4-ae6eed2fa2a8"},"vehicle_type_id":"4","last_reported":1748682562,"current_range_meters":400,"station_id":"ce4bhh12rcd13ifvqff0","pricing_plan_id":"cebpf4jnsgd1na2vs0mg"},{"bike_id":"1930cc54-5d17-4fc1-bb92-83ffacb33718","system_id":"levelo_inurba_marseille","lat":43.27971,"lon":5.38763,"is_reserved":false,"is_disabled":true,"rental_uris":{"android":"levelo://app?vid=1930cc54-5d17-4fc1-bb92-83ffacb33718","ios":"levelo://app?vid=1930cc54-5d17-4fc1-bb92-83ffacb33718"},"vehicle_type_id":"4","last_reported":1748682562,"current_range_meters":800,"station_id":"ce4bhg12rcd13ifvqf80","pricing_plan_id":"cebpf4jnsgd1na2vs0mg"},{"bike_id":"64c6c319-2ced-4aae-8e71-50b09be45139","system_id":"levelo_inurba_marseille","lat":43.29416,"lon":5.38611,"is_reserved":false,"is_disabled":true,"rental_uris":{"android":"levelo://app?vid=64c6c319-2ced-4aae-8e71-50b09be45139","ios":"levelo://app?vid=64c6c319-2ced-4aae-8e71-50b09be45139"},"vehicle_type_id":"4","last_reported":1748682562,"current_range_meters":1200,"station_id":"ce4bh2h2rcd13ifvqdh0","pricing_plan_id":"cebpf4jnsgd1na2vs0mg"},{"bike_id":"8d78407a-0664-4d09-9adb-bde977925290","system_id":"levelo_inurba_marseille","lat":43.28342,"lon":5.38106,"is_reserved":false,"is_disabled":true,"rental_uris":{"android":"levelo://app?vid=8d78407a-0664-4d09-9adb-bde977925290","ios":"levelo://app?vid=8d78407a-0664-4d09-9adb-bde977925290"},"vehicle_type_id":"4","last_reported":1748682562,"current_range_meters":1600,"station_id":"ce4bh412rcd13ifvqdr0","pricing_plan_id":"cebpf4jnsgd1na2vs0mg"},{"bike_id":"d399f752-9c50-4cf9-8dff-d8bead4da374","system_id":"levelo_inurba_marseille","lat":43.26677,"lon":5.38265,"is_reserved":false,"is_disabled":true,"rental_uris":{"android":"levelo://app?vid=d399f752-9c50-4cf9-8dff-d8bead4da374","ios":"levelo://app?vid=d399f752-9c50-4cf9-8dff-d8bead4da374"},"vehicle_type_id":"4","last_reported":1748682562,"current_range_meters":1600,"station_id":"ce4bhg92rcd13ifvqf90","pricing_plan_id":"cebpf4jnsgd1na2vs0mg"},{"bike_id":"4606a288-c4b4-467c-bdcc-a9515d68faf4","system_id":"levelo_inurba_marseille","lat":43.27199,"lon":5.3901,"is_reserved":false,"is_disabled":false,"rental_uris":{"android":"levelo://app?vid=4606a288-c4b4-467c-bdcc-a9515d68faf4","ios":"levelo://app?vid=4606a288-c4b4-467c-bdcc-a9515d68faf4"},"vehicle_type_id":"4","last_reported":1748682562,"current_range_meters":2800,"station_id":"","pricing_plan_id":"cebpf4jnsgd1na2vs0mg"},{"bike_id":"dd1a9159-0ff7-4277-a519-aea5f88448d9","system_id":"levelo_inurba_marseille","lat":43.30152,"lon":5.37423,"is_reserved":false,"is_disabled":false,"rental_uris":{"android":"levelo://app?vid=dd1a9159-0ff7-4277-a519-aea5f88448d9","ios":"levelo://app?vid=dd1a9159-0ff7-4277-a519-aea5f88448d9"},"vehicle_type_id":"4","last_reported":1748682562,"current_range_meters":2800,"station_id":"ce4bgs92rcd13ifvqcc0","pricing_plan_id":"cebpf4jnsgd1na2vs0mg"},{"bike_id":"a24ed859-7ffe-447b-a280-957c836eb856","system_id":"levelo_inurba_marseille","lat":43.31358,"lon":5.37628,"is_reserved":false,"is_disabled":false,"rental_uris":{"android":"levelo://app?vid=a24ed859-7ffe-447b-a280-957c836eb856","ios":"levelo://app?vid=a24ed859-7ffe-447b-a280-957c836eb856"},"vehicle_type_id":"4","last_reported":1748682562,"current_range_meters":3200,"station_id":"","pricing_plan_id":"cebpf4jnsgd1na2vs0mg"},{"bike_id":"3b57ed87-b7ea-4d38-b2c1-110bf43e258a","system_id":"levelo_inurba_marseille","lat":43.26567,"lon":5.39014,"is_reserved":false,"is_disabled":false,"rental_uris":{"android":"levelo://app?vid=3b57ed87-b7ea-4d38-b2c1-110bf43e258a","ios":"levelo://app?vid=3b57ed87-b7ea-4d38-b2c1-110bf43e258a"},"vehicle_type_id":"4","last_reported":1748682562,"current_range_meters":3200,"station_id":"ce4bhe12rcd13ifvqf30","pricing_plan_id":"cebpf4jnsgd1na2vs0mg"},{"bike_id":"36240f0a-66a2-43ec-8330-1f3a9d08cc7e","system_id":"levelo_inurba_marseille","lat":43.238996,"lon":5.362603,"is_reserved":false,"is_disabled":false,"rental_uris":{"android":"levelo://app?vid=36240f0a-66a2-43ec-8330-1f3a9d08cc7e","ios":"levelo://app?vid=36240f0a-66a2-43ec-8330-1f3a9d08cc7e"},"vehicle_type_id":"4","last_reported":1748682562,"current_range_meters":3600,"station_id":"","pricing_plan_id":"cebpf4jnsgd1na2vs0mg"},{"bike_id":"c40b5fb1-fb87-4a87-bbd6-c1f33aaedd7f","system_id":"levelo_inurba_marseille","lat":43.30374,"lon":5.42483,"is_reserved":false,"is_disabled":false,"rental_uris":{"android":"levelo://app?vid=c40b5fb1-fb87-4a87-bbd6-c1f33aaedd7f","ios":"levelo://app?vid=c40b5fb1-fb87-4a87-bbd6-c1f33aaedd7f"},"vehicle_type_id":"4","last_reported":1748682562,"current_range_meters":3600,"station_id":"ce4bhoh2rcd13ifvqh6g","pricing_plan_id":"cebpf4jnsgd1na2vs0mg"},{"bike_id":"96b8c4e4-fe75-48b8-97dd-b487c8e7f5fa","system_id":"levelo_inurba_marseille","lat":43.23056,"lon":5.35489,"is_reserved":false,"is_disabled":false,"rental_uris":{"android":"levelo://app?vid=96b8c4e4-fe75-48b8-97dd-b487c8e7f5fa","ios":"levelo://app?vid=96b8c4e4-fe75-48b8-97dd-b487c8e7f5fa"},"vehicle_type_id":"4","last_reported":1748682562,"current_range_meters":3600,"station_id":"cpo3342slgdg3j2ifvpg","pricing_plan_id":"cebpf4jnsgd1na2vs0mg"},{"bike_id":"dbc1fae9-aa92-4304-b5db-06b147306114","system_id":"levelo_inurba_marseille","lat":43.295959,"lon":5.380945,"is_reserved":false,"is_disabled":false,"rental_uris":{"android":"levelo://app?vid=dbc1fae9-aa92-4304-b5db-06b147306114","ios":"levelo://app?vid=dbc1fae9-aa92-4304-b5db-06b147306114"},"vehicle_type_id":"4","last_reported":1748682562,"current_range_meters":4000,"station_id":"ce4bgl12rcd13ifvqbo0","pricing_plan_id":"cebpf4jnsgd1na2vs0mg"},{"bike_id":"26904eab-0040-4a23-9aec-04ac31ff2d99","system_id":"levelo_inurba_marseille","lat":43.24168,"lon":5.36402,"is_reserved":false,"is_disabled":false,"rental_uris":{"android":"levelo://app?vid=26904eab-0040-4a23-9aec-04ac31ff2d99","ios":"levelo://app?vid=26904eab-0040-4a23-9aec-04ac31ff2d99"},"vehicle_type_id":"4","last_reported":1748682562,"current_range_meters":4000,"station_id":"cpo36qri1sfpv3e86is0","pricing_plan_id":"cebpf4jnsgd1na2vs0mg"},{"bike_id":"4134fe01-5d14-4615-9d7b-0a524ae01da0","system_id":"levelo_inurba_marseille","lat":43.23149,"lon":5.4372,"is_reserved":false,"is_disabled":false,"rental_uris":{"android":"levelo://app?vid=4134fe01-5d14-4615-9d7b-0a524ae01da0","ios":"levelo://app?vid=4134fe01-5d14-4615-9d7b-0a524ae01da0"},"vehicle_type_id":"4","last_reported":1748682562,"current_range_meters":4400,"station_id":"ce4bhmp2rcd13ifvqgog","pricing_plan_id":"cebpf4jnsgd1na2vs0mg"},{"bike_id":"e5d113e9-a907-4483-a607-193e3c6f0534","system_id":"levelo_inurba_marseille","lat":43.24163,"lon":5.3638,"is_reserved":false,"is_disabled":false,"rental_uris":{"android":"levelo://app?vid=e5d113e9-a907-4483-a607-193e3c6f0534","ios":"levelo://app?vid=e5d113e9-a907-4483-a607-193e3c6f0534"},"vehicle_type_id":"4","last_reported":1748682562,"current_range_meters":4400,"station_id":"cpo36qri1sfpv3e86is0","pricing_plan_id":"cebpf4jnsgd1na2vs0mg"},{"bike_id":"10d75ef7-2da9-4b34-9988-e053cde9ff8e","system_id":"levelo_inurba_marseille","lat":43.26939,"lon":5.40252,"is_reserved":false,"is_disabled":false,"rental_uris":{"android":"levelo://app?vid=10d75ef7-2da9-4b34-9988-e053cde9ff8e","ios":"levelo://app?vid=10d75ef7-2da9-4b34-9988-e053cde9ff8e"},"vehicle_type_id":"4","last_reported":1748682562,"current_range_meters":4800,"station_id":"cjm6bp8fraef2m0cb0m0","pricing_plan_id":"cebpf4jnsgd1na2vs0mg"},{"bike_id":"56750d10-a4c5-49db-afe3-bd2c09499175","system_id":"levelo_inurba_marseille","lat":43.2827,"lon":5.35062,"is_reserved":false,"is_disabled":false,"rental_uris":{"android":"levelo://app?vid=56750d10-a4c5-49db-afe3-bd2c09499175","ios":"levelo://app?vid=56750d10-a4c5-49db-afe3-bd2c09499175"},"vehicle_type_id":"4","last_reported":1748682562,"current_range_meters":5600,"station_id":"ce4bhbp2rcd13ifvqerg","pricing_plan_id":"cebpf4jnsgd1na2vs0mg"},{"bike_id":"da5921cd-e75b-4ce7-b109-06c28f720590","system_id":"levelo_inurba_marseille","lat":43.287349,"lon":5.361705,"is_reserved":false,"is_disabled":false,"rental_uris":{"android":"levelo://app?vid=da5921cd-e75b-4ce7-b109-06c28f720590","ios":"levelo://app?vid=da5921cd-e75b-4ce7-b109-06c28f720590"},"vehicle_type_id":"4","last_reported":1748682562,"current_range_meters":6000,"station_id":"","pricing_plan_id":"cebpf4jnsgd1na2vs0mg"},{"bike_id":"8af5e327-fbf3-4fc0-8b8a-501df6d392b0","system_id":"levelo_inurba_marseille","lat":43.3092,"lon":5.40156,"is_reserved":false,"is_disabled":false,"rental_uris":{"android":"levelo://app?vid=8af5e327-fbf3-4fc0-8b8a-501df6d392b0","ios":"levelo://app?vid=8af5e327-fbf3-4fc0-8b8a-501df6d392b0"},"vehicle_type_id":"4","last_reported":1748682562,"current_range_meters":6000,"station_id":"ce4bgvp2rcd13ifvqct0","pricing_plan_id":"cebpf4jnsgd1na2vs0mg"},{"bike_id":"0c463a46-a510-4c5e-8ceb-69c661ee05c8","system_id":"levelo_inurba_marseille","lat":43.24178,"lon":5.39723,"is_reserved":false,"is_disabled":false,"rental_uris":{"android":"levelo://app?vid=0c463a46-a510-4c5e-8ceb-69c661ee05c8","ios":"levelo://app?vid=0c463a46-a510-4c5e-8ceb-69c661ee05c8"},"vehicle_type_id":"4","last_reported":1748682562,"current_range_meters":6000,"station_id":"ce4bhn12rcd13ifvqgpg","pricing_plan_id":"cebpf4jnsgd1na2vs0mg"},{"bike_id":"c40e5f1d-d9aa-4a4a-b63e-04e8dab3d041","system_id":"levelo_inurba_marseille","lat":43.29273,"lon":5.38432,"is_reserved":false,"is_disabled":false,"rental_uris":{"android":"levelo://app?vid=c40e5f1d-d9aa-4a4a-b63e-04e8dab3d041","ios":"levelo://app?vid=c40e5f1d-d9aa-4a4a-b63e-04e8dab3d041"},"vehicle_type_id":"4","last_reported":1748682562,"current_range_meters":6400,"station_id":"","pricing_plan_id":"cebpf4jnsgd1na2vs0mg"},{"bike_id":"dcb524bb-8a42-41e6-b0dd-c16a2d681e12","system_id":"levelo_inurba_marseille","lat":43.30476,"lon":5.37914,"is_reserved":false,"is_disabled":false,"rental_uris":{"android":"levelo://app?vid=dcb524bb-8a42-41e6-b0dd-c16a2d681e12","ios":"levelo://app?vid=dcb524bb-8a42-41e6-b0dd-c16a2d681e12"},"vehicle_type_id":"4","last_reported":1748682562,"current_range_meters":6400,"station_id":"ce4bgup2rcd13ifvqcn0","pricing_plan_id":"cebpf4jnsgd1na2vs0mg"},{"bike_id":"c86a3c51-f868-4f30-9d0c-a900ba1480ad","system_id":"levelo_inurba_marseille","lat":43.25112,"lon":5.40331,"is_reserved":false,"is_disabled":false,"rental_uris":{"android":"levelo://app?vid=c86a3c51-f868-4f30-9d0c-a900ba1480ad","ios":"levelo://app?vid=c86a3c51-f868-4f30-9d0c-a900ba1480ad"},"vehicle_type_id":"4","last_reported":1748682562,"current_range_meters":6400,"station_id":"ce4bhlh2rcd13ifvqgig","pricing_plan_id":"cebpf4jnsgd1na2vs0mg"},{"bike_id":"57d8ed8b-d4b7-4706-962c-cdb6058adf19","system_id":"levelo_inurba_marseille","lat":43.26221,"lon":5.40442,"is_reserved":false,"is_disabled":false,"rental_uris":{"android":"levelo://app?vid=57d8ed8b-d4b7-4706-962c-cdb6058adf19","ios":"levelo://app?vid=57d8ed8b-d4b7-4706-962c-cdb6058adf19"},"vehicle_type_id":"4","last_reported":1748682562,"current_range_meters":6400,"station_id":"ce4bhmh2rcd13ifvqgmg","pricing_plan_id":"cebpf4jnsgd1na2vs0mg"},{"bike_id":"5ac3febd-6c2a-411e-9a8f-db290e2abd46","system_id":"levelo_inurba_marseille","lat":43.24166,"lon":5.36396,"is_reserved":false,"is_disabled":false,"rental_uris":{"android":"levelo://app?vid=5ac3febd-6c2a-411e-9a8f-db290e2abd46","ios":"levelo://app?vid=5ac3febd-6c2a-411e-9a8f-db290e2abd46"},"vehicle_type_id":"4","last_reported":1748682562,"current_range_meters":6400,"station_id":"cpo36qri1sfpv3e86is0","pricing_plan_id":"cebpf4jnsgd1na2vs0mg"},{"bike_id":"990df701-79a7-41ec-b963-3693dc590a87","system_id":"levelo_inurba_marseille","lat":43.30144,"lon":5.37912,"is_reserved":false,"is_disabled":false,"rental_uris":{"android":"levelo://app?vid=990df701-79a7-41ec-b963-3693dc590a87","ios":"levelo://app?vid=990df701-79a7-41ec-b963-3693dc590a87"},"vehicle_type_id":"4","last_reported":1748682562,"current_range_meters":6800,"station_id":"","pricing_plan_id":"cebpf4jnsgd1na2vs0mg"},{"bike_id":"f34575d1-9c48-4a31-a2d8-bcc22be426f9","system_id":"levelo_inurba_marseille","lat":43.2962,"lon":5.37727,"is_reserved":false,"is_disabled":false,"rental_uris":{"android":"levelo://app?vid=f34575d1-9c48-4a31-a2d8-bcc22be426f9","ios":"levelo://app?vid=f34575d1-9c48-4a31-a2d8-bcc22be426f9"},"vehicle_type_id":"4","last_reported":1748682562,"current_range_meters":6800,"station_id":"ce4bgi92rcd13ifvqb90","pricing_plan_id":"cebpf4jnsgd1na2vs0mg"},{"bike_id":"2468629f-cd1e-4bed-a63a-e085a0e74019","system_id":"levelo_inurba_marseille","lat":43.29198,"lon":5.3931,"is_reserved":false,"is_disabled":false,"rental_uris":{"android":"levelo://app?vid=2468629f-cd1e-4bed-a63a-e085a0e74019","ios":"levelo://app?vid=2468629f-cd1e-4bed-a63a-e085a0e74019"},"vehicle_type_id":"4","last_reported":1748682562,"current_range_meters":6800,"station_id":"ce4bh192rcd13ifvqdd0","pricing_plan_id":"cebpf4jnsgd1na2vs0mg"},{"bike_id":"4a7fcb66-5a14-41b4-b9c1-88d3616e3b62","system_id":"levelo_inurba_marseille","lat":43.21192,"lon":5.35074,"is_reserved":false,"is_disabled":false,"rental_uris":{"android":"levelo://app?vid=4a7fcb66-5a14-41b4-b9c1-88d3616e3b62","ios":"levelo://app?vid=4a7fcb66-5a14-41b4-b9c1-88d3616e3b62"},"vehicle_type_id":"4","last_reported":1748682562,"current_range_meters":6800,"station_id":"st_cvj6sg6p6f1abm77japg","pricing_plan_id":"cebpf4jnsgd1na2vs0mg"},{"bike_id":"7eef1f8f-5d95-4320-a013-277c66264c38","system_id":"levelo_inurba_marseille","lat":43.30931,"lon":5.40162,"is_reserved":false,"is_disabled":false,"rental_uris":{"android":"levelo://app?vid=7eef1f8f-5d95-4320-a013-277c66264c38","ios":"levelo://app?vid=7eef1f8f-5d95-4320-a013-277c66264c38"},"vehicle_type_id":"4","last_reported":1748682562,"current_range_meters":7200,"station_id":"ce4bgvp2rcd13ifvqct0","pricing_plan_id":"cebpf4jnsgd1na2vs0mg"},{"bike_id":"fcd00689-0521-4d95-9393-dc7bc80a33e0","system_id":"levelo_inurba_marseille","lat":43.27378,"lon":5.36257,"is_reserved":false,"is_disabled":false,"rental_uris":{"android":"levelo://app?vid=fcd00689-0521-4d95-9393-dc7bc80a33e0","ios":"levelo://app?vid=fcd00689-0521-4d95-9393-dc7bc80a33e0"},"vehicle_type_id":"4","last_reported":1748682562,"current_range_meters":7200,"station_id":"ce4bhbh2rcd13ifvqeo0","pricing_plan_id":"cebpf4jnsgd1na2vs0mg"},{"bike_id":"f834d568-f3e2-4973-beb0-7959512c9902","system_id":"levelo_inurba_marseille","lat":43.23963,"lon":5.36633,"is_reserved":false,"is_disabled":false,"rental_uris":{"android":"levelo://app?vid=f834d568-f3e2-4973-beb0-7959512c9902","ios":"levelo://app?vid=f834d568-f3e2-4973-beb0-7959512c9902"},"vehicle_type_id":"4","last_reported":1748682562,"current_range_meters":7200,"station_id":"ce4bhi12rcd13ifvqfp0","pricing_plan_id":"cebpf4jnsgd1na2vs0mg"},{"bike_id":"87e0bf49-7ca0-4436-a1a9-9a6d33d485c5","system_id":"levelo_inurba_marseille","lat":43.25122,"lon":5.40317,"is_reserved":false,"is_disabled":false,"rental_uris":{"android":"levelo://app?vid=87e0bf49-7ca0-4436-a1a9-9a6d33d485c5","ios":"levelo://app?vid=87e0bf49-7ca0-4436-a1a9-9a6d33d485c5"},"vehicle_type_id":"4","last_reported":1748682562,"current_range_meters":7200,"station_id":"ce4bhlh2rcd13ifvqgig","pricing_plan_id":"cebpf4jnsgd1na2vs0mg"},{"bike_id":"e80c2554-a5fd-4f6a-80de-c3bb2b4cc78a","system_id":"levelo_inurba_marseille","lat":43.251212,"lon":5.403303,"is_reserved":false,"is_disabled":false,"rental_uris":{"android":"levelo://app?vid=e80c2554-a5fd-4f6a-80de-c3bb2b4cc78a","ios":"levelo://app?vid=e80c2554-a5fd-4f6a-80de-c3bb2b4cc78a"},"vehicle_type_id":"4","last_reported":1748682562,"current_range_meters":7200,"station_id":"ce4bhlh2rcd13ifvqgig","pricing_plan_id":"cebpf4jnsgd1na2vs0mg"},{"bike_id":"58677022-545c-4031-b8f3-6077e69a9de0","system_id":"levelo_inurba_marseille","lat":43.26223,"lon":5.40446,"is_reserved":false,"is_disabled":false,"rental_uris":{"android":"levelo://app?vid=58677022-545c-4031-b8f3-6077e69a9de0","ios":"levelo://app?vid=58677022-545c-4031-b8f3-6077e69a9de0"},"vehicle_type_id":"4","last_reported":1748682562,"current_range_meters":7200,"station_id":"ce4bhmh2rcd13ifvqgmg","pricing_plan_id":"cebpf4jnsgd1na2vs0mg"},{"bike_id":"df592167-149f-4674-b1cd-5af60dc56133","system_id":"levelo_inurba_marseille","lat":43.324762,"lon":5.365637,"is_reserved":false,"is_disabled":false,"rental_uris":{"android":"levelo://app?vid=df592167-149f-4674-b1cd-5af60dc56133","ios":"levelo://app?vid=df592167-149f-4674-b1cd-5af60dc56133"},"vehicle_type_id":"4","last_reported":1748682562,"current_range_meters":7200,"station_id":"ce4bhs12rcd13ifvqhvg","pricing_plan_id":"cebpf4jnsgd1na2vs0mg"},{"bike_id":"d451e630-8fd8-4701-9cd1-43ccfdcc67c9","system_id":"levelo_inurba_marseille","lat":43.31533,"lon":5.380335,"is_reserved":false,"is_disabled":false,"rental_uris":{"android":"levelo://app?vid=d451e630-8fd8-4701-9cd1-43ccfdcc67c9","ios":"levelo://app?vid=d451e630-8fd8-4701-9cd1-43ccfdcc67c9"},"vehicle_type_id":"4","last_reported":1748682562,"current_range_meters":7200,"station_id":"ce4bhsp2rcd13ifvqi50","pricing_plan_id":"cebpf4jnsgd1na2vs0mg"},{"bike_id":"fd83b61e-b87d-4f6d-bd75-fc58d611300c","system_id":"levelo_inurba_marseille","lat":43.29276,"lon":5.36846,"is_reserved":false,"is_disabled":false,"rental_uris":{"android":"levelo://app?vid=fd83b61e-b87d-4f6d-bd75-fc58d611300c","ios":"levelo://app?vid=fd83b61e-b87d-4f6d-bd75-fc58d611300c"},"vehicle_type_id":"4","last_reported":1748682562,"current_range_meters":8000,"station_id":"ce4bhbp2rcd13ifvqesg","pricing_plan_id":"cebpf4jnsgd1na2vs0mg"},{"bike_id":"3feffd94-b1f8-4904-a4cf-e5629abe4092","system_id":"levelo_inurba_marseille","lat":43.2593,"lon":5.40909,"is_reserved":false,"is_disabled":false,"rental_uris":{"android":"levelo://app?vid=3feffd94-b1f8-4904-a4cf-e5629abe4092","ios":"levelo://app?vid=3feffd94-b1f8-4904-a4cf-e5629abe4092"},"vehicle_type_id":"4","last_reported":1748682562,"current_range_meters":8000,"station_id":"ce4bhm92rcd13ifvqglg","pricing_plan_id":"cebpf4jnsgd1na2vs0mg"},{"bike_id":"a882f5db-172f-4f11-bf66-7e2c36364bb7","system_id":"levelo_inurba_marseille","lat":43.29546,"lon":5.42281,"is_reserved":false,"is_disabled":false,"rental_uris":{"android":"levelo://app?vid=a882f5db-172f-4f11-bf66-7e2c36364bb7","ios":"levelo://app?vid=a882f5db-172f-4f11-bf66-7e2c36364bb7"},"vehicle_type_id":"4","last_reported":1748682562,"current_range_meters":8000,"station_id":"ce4bhph2rcd13ifvqhdg","pricing_plan_id":"cebpf4jnsgd1na2vs0mg"},{"bike_id":"7243d7c8-02f5-4392-89cf-8c360e846d55","system_id":"levelo_inurba_marseille","lat":43.25283,"lon":5.37841,"is_reserved":false,"is_disabled":false,"rental_uris":{"android":"levelo://app?vid=7243d7c8-02f5-4392-89cf-8c360e846d55","ios":"levelo://app?vid=7243d7c8-02f5-4392-89cf-8c360e846d55"},"vehicle_type_id":"4","last_reported":1748682562,"current_range_meters":8400,"station_id":"","pricing_plan_id":"cebpf4jnsgd1na2vs0mg"},{"bike_id":"b2c6c8b1-9ee2-4033-8952-6159dd291b2d","system_id":"levelo_inurba_marseille","lat":43.2984,"lon":5.36278,"is_reserved":false,"is_disabled":false,"rental_uris":{"android":"levelo://app?vid=b2c6c8b1-9ee2-4033-8952-6159dd291b2d","ios":"levelo://app?vid=b2c6c8b1-9ee2-4033-8952-6159dd291b2d"},"vehicle_type_id":"4","last_reported":1748682562,"current_range_meters":8400,"station_id":"ce4bgpp2rcd13ifvqc3g","pricing_plan_id":"cebpf4jnsgd1na2vs0mg"},{"bike_id":"4dc07d80-e63c-43e9-9b6b-30ab182521fd","system_id":"levelo_inurba_marseille","lat":43.273097,"lon":5.391247,"is_reserved":false,"is_disabled":false,"rental_uris":{"android":"levelo://app?vid=4dc07d80-e63c-43e9-9b6b-30ab182521fd","ios":"levelo://app?vid=4dc07d80-e63c-43e9-9b6b-30ab182521fd"},"vehicle_type_id":"4","last_reported":1748682562,"current_range_meters":8400,"station_id":"ce4bhgp2rcd13ifvqfe0","pricing_plan_id":"cebpf4jnsgd1na2vs0mg"},{"bike_id":"d02ba7d2-914d-425a-8b2a-f1259e1c2fbf","system_id":"levelo_inurba_marseille","lat":43.26226,"lon":5.40448,"is_reserved":false,"is_disabled":false,"rental_uris":{"android":"levelo://app?vid=d02ba7d2-914d-425a-8b2a-f1259e1c2fbf","ios":"levelo://app?vid=d02ba7d2-914d-425a-8b2a-f1259e1c2fbf"},"vehicle_type_id":"4","last_reported":1748682562,"current_range_meters":8400,"station_id":"ce4bhmh2rcd13ifvqgmg","pricing_plan_id":"cebpf4jnsgd1na2vs0mg"},{"bike_id":"1f7ebc70-8e15-4aea-adb3-010beac9c8f2","system_id":"levelo_inurba_marseille","lat":43.28561,"lon":5.39499,"is_reserved":false,"is_disabled":false,"rental_uris":{"android":"levelo://app?vid=1f7ebc70-8e15-4aea-adb3-010beac9c8f2","ios":"levelo://app?vid=1f7ebc70-8e15-4aea-adb3-010beac9c8f2"},"vehicle_type_id":"4","last_reported":1748682562,"current_range_meters":8800,"station_id":"ce4bh292rcd13ifvqdg0","pricing_plan_id":"cebpf4jnsgd1na2vs0mg"},{"bike_id":"46e63f1d-f372-4f1d-a719-49b0ccbc7ba6","system_id":"levelo_inurba_marseille","lat":43.25111,"lon":5.40324,"is_reserved":false,"is_disabled":false,"rental_uris":{"android":"levelo://app?vid=46e63f1d-f372-4f1d-a719-49b0ccbc7ba6","ios":"levelo://app?vid=46e63f1d-f372-4f1d-a719-49b0ccbc7ba6"},"vehicle_type_id":"4","last_reported":1748682562,"current_range_meters":8800,"station_id":"ce4bhlh2rcd13ifvqgig","pricing_plan_id":"cebpf4jnsgd1na2vs0mg"},{"bike_id":"7286235e-ea26-4a48-ba7e-145044ed7259","system_id":"levelo_inurba_marseille","lat":43.25116,"lon":5.40314,"is_reserved":false,"is_disabled":false,"rental_uris":{"android":"levelo://app?vid=7286235e-ea26-4a48-ba7e-145044ed7259","ios":"levelo://app?vid=7286235e-ea26-4a48-ba7e-145044ed7259"},"vehicle_type_id":"4","last_reported":1748682562,"current_range_meters":8800,"station_id":"ce4bhlh2rcd13ifvqgig","pricing_plan_id":"cebpf4jnsgd1na2vs0mg"},{"bike_id":"d42b65af-38ed-48b1-9f62-d79f47c848dd","system_id":"levelo_inurba_marseille","lat":43.24066,"lon":5.37765,"is_reserved":false,"is_disabled":false,"rental_uris":{"android":"levelo://app?vid=d42b65af-38ed-48b1-9f62-d79f47c848dd","ios":"levelo://app?vid=d42b65af-38ed-48b1-9f62-d79f47c848dd"},"vehicle_type_id":"4","last_reported":1748682562,"current_range_meters":8800,"station_id":"ce4bhnp2rcd13ifvqgvg","pricing_plan_id":"cebpf4jnsgd1na2vs0mg"},{"bike_id":"e31a1e1f-1f99-4d47-9ad9-848f9f016670","system_id":"levelo_inurba_marseille","lat":43.29262,"lon":5.3761,"is_reserved":false,"is_disabled":false,"rental_uris":{"android":"levelo://app?vid=e31a1e1f-1f99-4d47-9ad9-848f9f016670","ios":"levelo://app?vid=e31a1e1f-1f99-4d47-9ad9-848f9f016670"},"vehicle_type_id":"4","last_reported":1748682562,"current_range_meters":9200,"station_id":"ce4bgi12rcd13ifvqb80","pricing_plan_id":"cebpf4jnsgd1na2vs0mg"},{"bike_id":"76749e45-957b-40bb-9b95-4da7298a2cca","system_id":"levelo_inurba_marseille","lat":43.30439,"lon":5.38896,"is_reserved":false,"is_disabled":false,"rental_uris":{"android":"levelo://app?vid=76749e45-957b-40bb-9b95-4da7298a2cca","ios":"levelo://app?vid=76749e45-957b-40bb-9b95-4da7298a2cca"},"vehicle_type_id":"4","last_reported":1748682562,"current_range_meters":9200,"station_id":"ce4bgk12rcd13ifvqbi0","pricing_plan_id":"cebpf4jnsgd1na2vs0mg"},{"bike_id":"64a3d9b3-30f8-4a8c-b831-0d99a9fae7a2","system_id":"levelo_inurba_marseille","lat":43.31707,"lon":5.40496,"is_reserved":false,"is_disabled":false,"rental_uris":{"android":"levelo://app?vid=64a3d9b3-30f8-4a8c-b831-0d99a9fae7a2","ios":"levelo://app?vid=64a3d9b3-30f8-4a8c-b831-0d99a9fae7a2"},"vehicle_type_id":"4","last_reported":1748682562,"current_range_meters":9200,"station_id":"ce4bh012rcd13ifvqd00","pricing_plan_id":"cebpf4jnsgd1na2vs0mg"},{"bike_id":"6cab2d10-7f2c-4dac-ba3d-4f103803cc6a","system_id":"levelo_inurba_marseille","lat":43.28916,"lon":5.38393,"is_reserved":false,"is_disabled":false,"rental_uris":{"android":"levelo://app?vid=6cab2d10-7f2c-4dac-ba3d-4f103803cc6a","ios":"levelo://app?vid=6cab2d10-7f2c-4dac-ba3d-4f103803cc6a"},"vehicle_type_id":"4","last_reported":1748682562,"current_range_meters":9200,"station_id":"ce4bh612rcd13ifvqe6g","pricing_plan_id":"cebpf4jnsgd1na2vs0mg"},{"bike_id":"3f009739-7b87-4913-91fd-13cec0d166e8","system_id":"levelo_inurba_marseille","lat":43.281112,"lon":5.378234,"is_reserved":false,"is_disabled":false,"rental_uris":{"android":"levelo://app?vid=3f009739-7b87-4913-91fd-13cec0d166e8","ios":"levelo://app?vid=3f009739-7b87-4913-91fd-13cec0d166e8"},"vehicle_type_id":"4","last_reported":1748682562,"current_range_meters":9200,"station_id":"ce4bha12rcd13ifvqee0","pricing_plan_id":"cebpf4jnsgd1na2vs0mg"},{"bike_id":"0f1c5a1c-17ea-4d28-89e7-8cd7993efa36","system_id":"levelo_inurba_marseille","lat":43.28939,"lon":5.36638,"is_reserved":false,"is_disabled":false,"rental_uris":{"android":"levelo://app?vid=0f1c5a1c-17ea-4d28-89e7-8cd7993efa36","ios":"levelo://app?vid=0f1c5a1c-17ea-4d28-89e7-8cd7993efa36"},"vehicle_type_id":"4","last_reported":1748682562,"current_range_meters":9200,"station_id":"ce4bhap2rcd13ifvqek0","pricing_plan_id":"cebpf4jnsgd1na2vs0mg"},{"bike_id":"662af0d9-b4f1-4513-bbd2-fd65be6229e5","system_id":"levelo_inurba_marseille","lat":43.25934,"lon":5.40893,"is_reserved":false,"is_disabled":false,"rental_uris":{"android":"levelo://app?vid=662af0d9-b4f1-4513-bbd2-fd65be6229e5","ios":"levelo://app?vid=662af0d9-b4f1-4513-bbd2-fd65be6229e5"},"vehicle_type_id":"4","last_reported":1748682562,"current_range_meters":9200,"station_id":"ce4bhm92rcd13ifvqglg","pricing_plan_id":"cebpf4jnsgd1na2vs0mg"},{"bike_id":"586d7e68-1782-4f9f-9be5-9a1640e83e42","system_id":"levelo_inurba_marseille","lat":43.23196,"lon":5.35557,"is_reserved":false,"is_disabled":false,"rental_uris":{"android":"levelo://app?vid=586d7e68-1782-4f9f-9be5-9a1640e83e42","ios":"levelo://app?vid=586d7e68-1782-4f9f-9be5-9a1640e83e42"},"vehicle_type_id":"4","last_reported":1748682562,"current_range_meters":9200,"station_id":"ce4bhu92rcd13ifvqi70","pricing_plan_id":"cebpf4jnsgd1na2vs0mg"},{"bike_id":"d16f5222-3d1e-4d65-a992-1bc93f719178","system_id":"levelo_inurba_marseille","lat":43.303,"lon":5.36583,"is_reserved":false,"is_disabled":false,"rental_uris":{"android":"levelo://app?vid=d16f5222-3d1e-4d65-a992-1bc93f719178","ios":"levelo://app?vid=d16f5222-3d1e-4d65-a992-1bc93f719178"},"vehicle_type_id":"4","last_reported":1748682562,"current_range_meters":9600,"station_id":"","pricing_plan_id":"cebpf4jnsgd1na2vs0mg"},{"bike_id":"c69836ab-41ea-42e1-9c83-d11f51512923","system_id":"levelo_inurba_marseille","lat":43.276109,"lon":5.361089,"is_reserved":false,"is_disabled":false,"rental_uris":{"android":"levelo://app?vid=c69836ab-41ea-42e1-9c83-d11f51512923","ios":"levelo://app?vid=c69836ab-41ea-42e1-9c83-d11f51512923"},"vehicle_type_id":"4","last_reported":1748682562,"current_range_meters":9600,"station_id":"ce4bgj92rcd13ifvqbe0","pricing_plan_id":"cebpf4jnsgd1na2vs0mg"},{"bike_id":"72731473-1e2d-48e8-950e-de442f10b6b5","system_id":"levelo_inurba_marseille","lat":43.27359,"lon":5.3624,"is_reserved":false,"is_disabled":false,"rental_uris":{"android":"levelo://app?vid=72731473-1e2d-48e8-950e-de442f10b6b5","ios":"levelo://app?vid=72731473-1e2d-48e8-950e-de442f10b6b5"},"vehicle_type_id":"4","last_reported":1748682562,"current_range_meters":9600,"station_id":"ce4bhbh2rcd13ifvqeo0","pricing_plan_id":"cebpf4jnsgd1na2vs0mg"},{"bike_id":"3d7becb0-1eb1-42e3-a876-7221addb0848","system_id":"levelo_inurba_marseille","lat":43.2737,"lon":5.36251,"is_reserved":false,"is_disabled":false,"rental_uris":{"android":"levelo://app?vid=3d7becb0-1eb1-42e3-a876-7221addb0848","ios":"levelo://app?vid=3d7becb0-1eb1-42e3-a876-7221addb0848"},"vehicle_type_id":"4","last_reported":1748682562,"current_range_meters":9600,"station_id":"ce4bhbh2rcd13ifvqeo0","pricing_plan_id":"cebpf4jnsgd1na2vs0mg"},{"bike_id":"e6c35bea-2264-4fb6-a0eb-3ec678e2c516","system_id":"levelo_inurba_marseille","lat":43.265566,"lon":5.372816,"is_reserved":false,"is_disabled":false,"rental_uris":{"android":"levelo://app?vid=e6c35bea-2264-4fb6-a0eb-3ec678e2c516","ios":"levelo://app?vid=e6c35bea-2264-4fb6-a0eb-3ec678e2c516"},"vehicle_type_id":"4","last_reported":1748682562,"current_range_meters":9600,"station_id":"ce4bhg12rcd13ifvqf70","pricing_plan_id":"cebpf4jnsgd1na2vs0mg"},{"bike_id":"008a8b5c-da32-426f-bdcf-6db4c9f404d8","system_id":"levelo_inurba_marseille","lat":43.22951,"lon":5.35371,"is_reserved":false,"is_disabled":false,"rental_uris":{"android":"levelo://app?vid=008a8b5c-da32-426f-bdcf-6db4c9f404d8","ios":"levelo://app?vid=008a8b5c-da32-426f-bdcf-6db4c9f404d8"},"vehicle_type_id":"4","last_reported":1748682562,"current_range_meters":9600,"station_id":"cpo3532slgdg3j2ikp40","pricing_plan_id":"cebpf4jnsgd1na2vs0mg"},{"bike_id":"a672e2ce-ff65-491a-baf8-b5fcce4f4059","system_id":"levelo_inurba_marseille","lat":43.31711,"lon":5.39027,"is_reserved":false,"is_disabled":false,"rental_uris":{"android":"levelo://app?vid=a672e2ce-ff65-491a-baf8-b5fcce4f4059","ios":"levelo://app?vid=a672e2ce-ff65-491a-baf8-b5fcce4f4059"},"vehicle_type_id":"4","last_reported":1748682562,"current_range_meters":10000,"station_id":"","pricing_plan_id":"cebpf4jnsgd1na2vs0mg"},{"bike_id":"d35279df-65fa-4a1d-a5be-df30ee6e8cd3","system_id":"levelo_inurba_marseille","lat":43.276215,"lon":5.361046,"is_reserved":false,"is_disabled":false,"rental_uris":{"android":"levelo://app?vid=d35279df-65fa-4a1d-a5be-df30ee6e8cd3","ios":"levelo://app?vid=d35279df-65fa-4a1d-a5be-df30ee6e8cd3"},"vehicle_type_id":"4","last_reported":1748682562,"current_range_meters":10000,"station_id":"","pricing_plan_id":"cebpf4jnsgd1na2vs0mg"},{"bike_id":"2c897d13-25ac-4b3b-aa93-d1f5241f5fe8","system_id":"levelo_inurba_marseille","lat":43.27175,"lon":5.40992,"is_reserved":false,"is_disabled":false,"rental_uris":{"android":"levelo://app?vid=2c897d13-25ac-4b3b-aa93-d1f5241f5fe8","ios":"levelo://app?vid=2c897d13-25ac-4b3b-aa93-d1f5241f5fe8"},"vehicle_type_id":"4","last_reported":1748682562,"current_range_meters":10000,"station_id":"ce4bhl12rcd13ifvqgf0","pricing_plan_id":"cebpf4jnsgd1na2vs0mg"},{"bike_id":"dfa43c4c-7c06-4ef3-bc0f-2418c1a843e8","system_id":"levelo_inurba_marseille","lat":43.24186,"lon":5.39703,"is_reserved":false,"is_disabled":false,"rental_uris":{"android":"levelo://app?vid=dfa43c4c-7c06-4ef3-bc0f-2418c1a843e8","ios":"levelo://app?vid=dfa43c4c-7c06-4ef3-bc0f-2418c1a843e8"},"vehicle_type_id":"4","last_reported":1748682562,"current_range_meters":10000,"station_id":"ce4bhn12rcd13ifvqgpg","pricing_plan_id":"cebpf4jnsgd1na2vs0mg"},{"bike_id":"8d48119e-760e-4c00-b401-59af0a322afa","system_id":"levelo_inurba_marseille","lat":43.25656,"lon":5.40854,"is_reserved":false,"is_disabled":false,"rental_uris":{"android":"levelo://app?vid=8d48119e-760e-4c00-b401-59af0a322afa","ios":"levelo://app?vid=8d48119e-760e-4c00-b401-59af0a322afa"},"vehicle_type_id":"4","last_reported":1748682562,"current_range_meters":10800,"station_id":"","pricing_plan_id":"cebpf4jnsgd1na2vs0mg"},{"bike_id":"b18036e4-cdbb-441f-a4f1-99c9cdbece34","system_id":"levelo_inurba_marseille","lat":43.294953,"lon":5.390788,"is_reserved":false,"is_disabled":false,"rental_uris":{"android":"levelo://app?vid=b18036e4-cdbb-441f-a4f1-99c9cdbece34","ios":"levelo://app?vid=b18036e4-cdbb-441f-a4f1-99c9cdbece34"},"vehicle_type_id":"4","last_reported":1748682562,"current_range_meters":10800,"station_id":"ce4bh3p2rcd13ifvqdp0","pricing_plan_id":"cebpf4jnsgd1na2vs0mg"},{"bike_id":"5291cf4b-2021-40c9-9a7c-11e51c847979","system_id":"levelo_inurba_marseille","lat":43.23163,"lon":5.43748,"is_reserved":false,"is_disabled":false,"rental_uris":{"android":"levelo://app?vid=5291cf4b-2021-40c9-9a7c-11e51c847979","ios":"levelo://app?vid=5291cf4b-2021-40c9-9a7c-11e51c847979"},"vehicle_type_id":"4","last_reported":1748682562,"current_range_meters":10800,"station_id":"ce4bhmp2rcd13ifvqgog","pricing_plan_id":"cebpf4jnsgd1na2vs0mg"},{"bike_id":"5d499ed8-eea6-4e38-8682-13a5cb3cec96","system_id":"levelo_inurba_marseille","lat":43.24171,"lon":5.39715,"is_reserved":false,"is_disabled":false,"rental_uris":{"android":"levelo://app?vid=5d499ed8-eea6-4e38-8682-13a5cb3cec96","ios":"levelo://app?vid=5d499ed8-eea6-4e38-8682-13a5cb3cec96"},"vehicle_type_id":"4","last_reported":1748682562,"current_range_meters":10800,"station_id":"ce4bhn12rcd13ifvqgpg","pricing_plan_id":"cebpf4jnsgd1na2vs0mg"},{"bike_id":"4cd7920c-3de7-424e-a239-9000b4b9557f","system_id":"levelo_inurba_marseille","lat":43.23186,"lon":5.39985,"is_reserved":false,"is_disabled":false,"rental_uris":{"android":"levelo://app?vid=4cd7920c-3de7-424e-a239-9000b4b9557f","ios":"levelo://app?vid=4cd7920c-3de7-424e-a239-9000b4b9557f"},"vehicle_type_id":"4","last_reported":1748682562,"current_range_meters":10800,"station_id":"ce4bhn12rcd13ifvqgqg","pricing_plan_id":"cebpf4jnsgd1na2vs0mg"},{"bike_id":"9535d247-00f5-4fc0-a9bc-060387d498c6","system_id":"levelo_inurba_marseille","lat":43.23186,"lon":5.40008,"is_reserved":false,"is_disabled":false,"rental_uris":{"android":"levelo://app?vid=9535d247-00f5-4fc0-a9bc-060387d498c6","ios":"levelo://app?vid=9535d247-00f5-4fc0-a9bc-060387d498c6"},"vehicle_type_id":"4","last_reported":1748682562,"current_range_meters":10800,"station_id":"ce4bhn12rcd13ifvqgqg","pricing_plan_id":"cebpf4jnsgd1na2vs0mg"},{"bike_id":"bf4a9ca4-5b5e-43b6-8638-ec2d10c5b88a","system_id":"levelo_inurba_marseille","lat":43.30789,"lon":5.38172,"is_reserved":false,"is_disabled":false,"rental_uris":{"android":"levelo://app?vid=bf4a9ca4-5b5e-43b6-8638-ec2d10c5b88a","ios":"levelo://app?vid=bf4a9ca4-5b5e-43b6-8638-ec2d10c5b88a"},"vehicle_type_id":"4","last_reported":1748682562,"current_range_meters":11200,"station_id":"ce4bgt12rcd13ifvqce0","pricing_plan_id":"cebpf4jnsgd1na2vs0mg"},{"bike_id":"f126dcda-e74c-488f-81af-0375ad917e89","system_id":"levelo_inurba_marseille","lat":43.272034,"lon":5.391862,"is_reserved":false,"is_disabled":false,"rental_uris":{"android":"levelo://app?vid=f126dcda-e74c-488f-81af-0375ad917e89","ios":"levelo://app?vid=f126dcda-e74c-488f-81af-0375ad917e89"},"vehicle_type_id":"4","last_reported":1748682562,"current_range_meters":11200,"station_id":"ce4bhhp2rcd13ifvqfm0","pricing_plan_id":"cebpf4jnsgd1na2vs0mg"},{"bike_id":"84c1e71b-c6ad-414e-9795-3675bda248d5","system_id":"levelo_inurba_marseille","lat":43.23153,"lon":5.43693,"is_reserved":false,"is_disabled":false,"rental_uris":{"android":"levelo://app?vid=84c1e71b-c6ad-414e-9795-3675bda248d5","ios":"levelo://app?vid=84c1e71b-c6ad-414e-9795-3675bda248d5"},"vehicle_type_id":"4","last_reported":1748682562,"current_range_meters":11200,"station_id":"ce4bhmp2rcd13ifvqgog","pricing_plan_id":"cebpf4jnsgd1na2vs0mg"},{"bike_id":"07cc432b-34ff-437e-9ff8-8475bd1fc1cd","system_id":"levelo_inurba_marseille","lat":43.2799,"lon":5.41653,"is_reserved":false,"is_disabled":false,"rental_uris":{"android":"levelo://app?vid=07cc432b-34ff-437e-9ff8-8475bd1fc1cd","ios":"levelo://app?vid=07cc432b-34ff-437e-9ff8-8475bd1fc1cd"},"vehicle_type_id":"4","last_reported":1748682562,"current_range_meters":11200,"station_id":"ce4bho12rcd13ifvqh1g","pricing_plan_id":"cebpf4jnsgd1na2vs0mg"},{"bike_id":"189adaee-dd37-463c-a8f2-b162d20a9983","system_id":"levelo_inurba_marseille","lat":43.231926,"lon":5.355545,"is_reserved":false,"is_disabled":false,"rental_uris":{"android":"levelo://app?vid=189adaee-dd37-463c-a8f2-b162d20a9983","ios":"levelo://app?vid=189adaee-dd37-463c-a8f2-b162d20a9983"},"vehicle_type_id":"4","last_reported":1748682562,"current_range_meters":11200,"station_id":"ce4bhr12rcd13ifvqhqg","pricing_plan_id":"cebpf4jnsgd1na2vs0mg"},{"bike_id":"471fccc4-e0a0-45c9-96ca-25361ad546a7","system_id":"levelo_inurba_marseille","lat":43.21751,"lon":5.34605,"is_reserved":false,"is_disabled":false,"rental_uris":{"android":"levelo://app?vid=471fccc4-e0a0-45c9-96ca-25361ad546a7","ios":"levelo://app?vid=471fccc4-e0a0-45c9-96ca-25361ad546a7"},"vehicle_type_id":"4","last_reported":1748682562,"current_range_meters":11600,"station_id":"","pricing_plan_id":"cebpf4jnsgd1na2vs0mg"},{"bike_id":"4fd7d3ab-64ae-4d6c-8a1a-1d40fbd07ae6","system_id":"levelo_inurba_marseille","lat":43.29622,"lon":5.3717,"is_reserved":false,"is_disabled":false,"rental_uris":{"android":"levelo://app?vid=4fd7d3ab-64ae-4d6c-8a1a-1d40fbd07ae6","ios":"levelo://app?vid=4fd7d3ab-64ae-4d6c-8a1a-1d40fbd07ae6"},"vehicle_type_id":"4","last_reported":1748682562,"current_range_meters":11600,"station_id":"ce4bgnh2rcd13ifvqc0g","pricing_plan_id":"cebpf4jnsgd1na2vs0mg"},{"bike_id":"f86183e6-3897-41a1-97fc-4d508dda07c1","system_id":"levelo_inurba_marseille","lat":43.31327,"lon":5.39696,"is_reserved":false,"is_disabled":false,"rental_uris":{"android":"levelo://app?vid=f86183e6-3897-41a1-97fc-4d508dda07c1","ios":"levelo://app?vid=f86183e6-3897-41a1-97fc-4d508dda07c1"},"vehicle_type_id":"4","last_reported":1748682562,"current_range_meters":11600,"station_id":"ce4bgvp2rcd13ifvqcu0","pricing_plan_id":"cebpf4jnsgd1na2vs0mg"},{"bike_id":"ee051c38-3949-4109-9d77-4a7745051d57","system_id":"levelo_inurba_marseille","lat":43.27364,"lon":5.36244,"is_reserved":false,"is_disabled":false,"rental_uris":{"android":"levelo://app?vid=ee051c38-3949-4109-9d77-4a7745051d57","ios":"levelo://app?vid=ee051c38-3949-4109-9d77-4a7745051d57"},"vehicle_type_id":"4","last_reported":1748682562,"current_range_meters":11600,"station_id":"ce4bhbh2rcd13ifvqeo0","pricing_plan_id":"cebpf4jnsgd1na2vs0mg"},{"bike_id":"b35fd950-24e0-465e-96d1-082254f22158","system_id":"levelo_inurba_marseille","lat":43.278341,"lon":5.391992,"is_reserved":false,"is_disabled":false,"rental_uris":{"android":"levelo://app?vid=b35fd950-24e0-465e-96d1-082254f22158","ios":"levelo://app?vid=b35fd950-24e0-465e-96d1-082254f22158"},"vehicle_type_id":"4","last_reported":1748682562,"current_range_meters":11600,"station_id":"ce4bhjp2rcd13ifvqga0","pricing_plan_id":"cebpf4jnsgd1na2vs0mg"},{"bike_id":"893cccc3-5573-41c4-a76f-851cbc7df082","system_id":"levelo_inurba_marseille","lat":43.309306,"lon":5.401571,"is_reserved":false,"is_disabled":false,"rental_uris":{"android":"levelo://app?vid=893cccc3-5573-41c4-a76f-851cbc7df082","ios":"levelo://app?vid=893cccc3-5573-41c4-a76f-851cbc7df082"},"vehicle_type_id":"4","last_reported":1748682562,"current_range_meters":12000,"station_id":"ce4bgvp2rcd13ifvqct0","pricing_plan_id":"cebpf4jnsgd1na2vs0mg"},{"bike_id":"1c97e8db-e304-4244-bb2d-5629af62c239","system_id":"levelo_inurba_marseille","lat":43.3066,"lon":5.40076,"is_reserved":false,"is_disabled":false,"rental_uris":{"android":"levelo://app?vid=1c97e8db-e304-4244-bb2d-5629af62c239","ios":"levelo://app?vid=1c97e8db-e304-4244-bb2d-5629af62c239"},"vehicle_type_id":"4","last_reported":1748682562,"current_range_meters":12000,"station_id":"ce4bh112rcd13ifvqda0","pricing_plan_id":"cebpf4jnsgd1na2vs0mg"},{"bike_id":"413fb428-b0b3-4bea-92b1-d0a1d3888a4f","system_id":"levelo_inurba_marseille","lat":43.23962,"lon":5.36624,"is_reserved":false,"is_disabled":false,"rental_uris":{"android":"levelo://app?vid=413fb428-b0b3-4bea-92b1-d0a1d3888a4f","ios":"levelo://app?vid=413fb428-b0b3-4bea-92b1-d0a1d3888a4f"},"vehicle_type_id":"4","last_reported":1748682562,"current_range_meters":12000,"station_id":"ce4bhi12rcd13ifvqfp0","pricing_plan_id":"cebpf4jnsgd1na2vs0mg"},{"bike_id":"4cbbe545-81c5-4625-9f9c-a2fcc66faec0","system_id":"levelo_inurba_marseille","lat":43.32342,"lon":5.40626,"is_reserved":false,"is_disabled":false,"rental_uris":{"android":"levelo://app?vid=4cbbe545-81c5-4625-9f9c-a2fcc66faec0","ios":"levelo://app?vid=4cbbe545-81c5-4625-9f9c-a2fcc66faec0"},"vehicle_type_id":"4","last_reported":1748682562,"current_range_meters":12000,"station_id":"ce4bhq92rcd13ifvqhjg","pricing_plan_id":"cebpf4jnsgd1na2vs0mg"},{"bike_id":"f5203c73-50f5-43c5-bd88-3e2f1ea3bb4a","system_id":"levelo_inurba_marseille","lat":43.27383,"lon":5.36252,"is_reserved":false,"is_disabled":false,"rental_uris":{"android":"levelo://app?vid=f5203c73-50f5-43c5-bd88-3e2f1ea3bb4a","ios":"levelo://app?vid=f5203c73-50f5-43c5-bd88-3e2f1ea3bb4a"},"vehicle_type_id":"4","last_reported":1748682562,"current_range_meters":12800,"station_id":"ce4bhbh2rcd13ifvqeo0","pricing_plan_id":"cebpf4jnsgd1na2vs0mg"},{"bike_id":"03c1751e-ef60-4175-a52f-4759bb9df88b","system_id":"levelo_inurba_marseille","lat":43.27956,"lon":5.38748,"is_reserved":false,"is_disabled":false,"rental_uris":{"android":"levelo://app?vid=03c1751e-ef60-4175-a52f-4759bb9df88b","ios":"levelo://app?vid=03c1751e-ef60-4175-a52f-4759bb9df88b"},"vehicle_type_id":"4","last_reported":1748682562,"current_range_meters":12800,"station_id":"ce4bhg12rcd13ifvqf80","pricing_plan_id":"cebpf4jnsgd1na2vs0mg"},{"bike_id":"67614841-9f24-4f1f-81f7-acf09b9bb6b8","system_id":"levelo_inurba_marseille","lat":43.2571,"lon":5.41117,"is_reserved":false,"is_disabled":false,"rental_uris":{"android":"levelo://app?vid=67614841-9f24-4f1f-81f7-acf09b9bb6b8","ios":"levelo://app?vid=67614841-9f24-4f1f-81f7-acf09b9bb6b8"},"vehicle_type_id":"4","last_reported":1748682562,"current_range_meters":12800,"station_id":"ce4bhkp2rcd13ifvqgd0","pricing_plan_id":"cebpf4jnsgd1na2vs0mg"},{"bike_id":"dd6e8805-eac8-49d7-886a-032a1aa66551","system_id":"levelo_inurba_marseille","lat":43.27172,"lon":5.40998,"is_reserved":false,"is_disabled":false,"rental_uris":{"android":"levelo://app?vid=dd6e8805-eac8-49d7-886a-032a1aa66551","ios":"levelo://app?vid=dd6e8805-eac8-49d7-886a-032a1aa66551"},"vehicle_type_id":"4","last_reported":1748682562,"current_range_meters":12800,"station_id":"ce4bhl12rcd13ifvqgf0","pricing_plan_id":"cebpf4jnsgd1na2vs0mg"},{"bike_id":"42060358-49d8-44c6-acbb-a8fdaec06f62","system_id":"levelo_inurba_marseille","lat":43.26216,"lon":5.40441,"is_reserved":false,"is_disabled":false,"rental_uris":{"android":"levelo://app?vid=42060358-49d8-44c6-acbb-a8fdaec06f62","ios":"levelo://app?vid=42060358-49d8-44c6-acbb-a8fdaec06f62"},"vehicle_type_id":"4","last_reported":1748682562,"current_range_meters":12800,"station_id":"ce4bhmh2rcd13ifvqgmg","pricing_plan_id":"cebpf4jnsgd1na2vs0mg"},{"bike_id":"934904aa-b6fe-443c-8d85-9d5ac099efe4","system_id":"levelo_inurba_marseille","lat":43.21752,"lon":5.34606,"is_reserved":false,"is_disabled":false,"rental_uris":{"android":"levelo://app?vid=934904aa-b6fe-443c-8d85-9d5ac099efe4","ios":"levelo://app?vid=934904aa-b6fe-443c-8d85-9d5ac099efe4"},"vehicle_type_id":"4","last_reported":1748682562,"current_range_meters":12800,"station_id":"st_cvj6r9ubvosntc0bgbag","pricing_plan_id":"cebpf4jnsgd1na2vs0mg"},{"bike_id":"d5d0bfbb-f2bc-4297-a453-115bac476736","system_id":"levelo_inurba_marseille","lat":43.29385,"lon":5.37507,"is_reserved":false,"is_disabled":false,"rental_uris":{"android":"levelo://app?vid=d5d0bfbb-f2bc-4297-a453-115bac476736","ios":"levelo://app?vid=d5d0bfbb-f2bc-4297-a453-115bac476736"},"vehicle_type_id":"4","last_reported":1748682562,"current_range_meters":13600,"station_id":"","pricing_plan_id":"cebpf4jnsgd1na2vs0mg"},{"bike_id":"316313e9-7a03-4d6d-816f-03c78452f2aa","system_id":"levelo_inurba_marseille","lat":43.29784,"lon":5.37095,"is_reserved":false,"is_disabled":false,"rental_uris":{"android":"levelo://app?vid=316313e9-7a03-4d6d-816f-03c78452f2aa","ios":"levelo://app?vid=316313e9-7a03-4d6d-816f-03c78452f2aa"},"vehicle_type_id":"4","last_reported":1748682562,"current_range_meters":13600,"station_id":"ce4bgop2rcd13ifvqc1g","pricing_plan_id":"cebpf4jnsgd1na2vs0mg"},{"bike_id":"56c0f828-2b4b-4da5-8056-c4ef6d26a633","system_id":"levelo_inurba_marseille","lat":43.30609,"lon":5.37239,"is_reserved":false,"is_disabled":false,"rental_uris":{"android":"levelo://app?vid=56c0f828-2b4b-4da5-8056-c4ef6d26a633","ios":"levelo://app?vid=56c0f828-2b4b-4da5-8056-c4ef6d26a633"},"vehicle_type_id":"4","last_reported":1748682562,"current_range_meters":13600,"station_id":"ce4bgqh2rcd13ifvqc4g","pricing_plan_id":"cebpf4jnsgd1na2vs0mg"},{"bike_id":"d8af0821-bc5d-459f-b24d-bbfca9521714","system_id":"levelo_inurba_marseille","lat":43.24172,"lon":5.39722,"is_reserved":false,"is_disabled":false,"rental_uris":{"android":"levelo://app?vid=d8af0821-bc5d-459f-b24d-bbfca9521714","ios":"levelo://app?vid=d8af0821-bc5d-459f-b24d-bbfca9521714"},"vehicle_type_id":"4","last_reported":1748682562,"current_range_meters":13600,"station_id":"ce4bhn12rcd13ifvqgpg","pricing_plan_id":"cebpf4jnsgd1na2vs0mg"},{"bike_id":"08344b0d-a469-4b7b-ae61-fcb40d180e64","system_id":"levelo_inurba_marseille","lat":43.26058,"lon":5.39398,"is_reserved":false,"is_disabled":false,"rental_uris":{"android":"levelo://app?vid=08344b0d-a469-4b7b-ae61-fcb40d180e64","ios":"levelo://app?vid=08344b0d-a469-4b7b-ae61-fcb40d180e64"},"vehicle_type_id":"4","last_reported":1748682562,"current_range_meters":14000,"station_id":"ce4bhh92rcd13ifvqfj0","pricing_plan_id":"cebpf4jnsgd1na2vs0mg"},{"bike_id":"a7bc0857-ba13-43fa-9be2-c26b232e5a26","system_id":"levelo_inurba_marseille","lat":43.25929,"lon":5.40908,"is_reserved":false,"is_disabled":false,"rental_uris":{"android":"levelo://app?vid=a7bc0857-ba13-43fa-9be2-c26b232e5a26","ios":"levelo://app?vid=a7bc0857-ba13-43fa-9be2-c26b232e5a26"},"vehicle_type_id":"4","last_reported":1748682562,"current_range_meters":14000,"station_id":"ce4bhm92rcd13ifvqglg","pricing_plan_id":"cebpf4jnsgd1na2vs0mg"},{"bike_id":"a1afee0d-636a-4145-8e38-9b2384426a66","system_id":"levelo_inurba_marseille","lat":43.32277,"lon":5.38267,"is_reserved":false,"is_disabled":false,"rental_uris":{"android":"levelo://app?vid=a1afee0d-636a-4145-8e38-9b2384426a66","ios":"levelo://app?vid=a1afee0d-636a-4145-8e38-9b2384426a66"},"vehicle_type_id":"4","last_reported":1748682562,"current_range_meters":14000,"station_id":"ce4bhr12rcd13ifvqhqg","pricing_plan_id":"cebpf4jnsgd1na2vs0mg"},{"bike_id":"14036455-f919-44f7-8d5e-0b2e84f48674","system_id":"levelo_inurba_marseille","lat":43.309206,"lon":5.40394,"is_reserved":false,"is_disabled":false,"rental_uris":{"android":"levelo://app?vid=14036455-f919-44f7-8d5e-0b2e84f48674","ios":"levelo://app?vid=14036455-f919-44f7-8d5e-0b2e84f48674"},"vehicle_type_id":"4","last_reported":1748682562,"current_range_meters":14400,"station_id":"","pricing_plan_id":"cebpf4jnsgd1na2vs0mg"},{"bike_id":"e6901d81-8f28-4d7d-9700-121d525d1548","system_id":"levelo_inurba_marseille","lat":43.21749,"lon":5.34605,"is_reserved":false,"is_disabled":false,"rental_uris":{"android":"levelo://app?vid=e6901d81-8f28-4d7d-9700-121d525d1548","ios":"levelo://app?vid=e6901d81-8f28-4d7d-9700-121d525d1548"},"vehicle_type_id":"4","last_reported":1748682562,"current_range_meters":14400,"station_id":"","pricing_plan_id":"cebpf4jnsgd1na2vs0mg"},{"bike_id":"fddfdbc6-8f25-484d-951a-69864df23d59","system_id":"levelo_inurba_marseille","lat":43.2972,"lon":5.37697,"is_reserved":false,"is_disabled":false,"rental_uris":{"android":"levelo://app?vid=fddfdbc6-8f25-484d-951a-69864df23d59","ios":"levelo://app?vid=fddfdbc6-8f25-484d-951a-69864df23d59"},"vehicle_type_id":"4","last_reported":1748682562,"current_range_meters":14400,"station_id":"ce4bgkh2rcd13ifvqbl0","pricing_plan_id":"cebpf4jnsgd1na2vs0mg"},{"bike_id":"937f9e3f-8b13-4a88-a638-6f5372018cc9","system_id":"levelo_inurba_marseille","lat":43.298485,"lon":5.36288,"is_reserved":false,"is_disabled":false,"rental_uris":{"android":"levelo://app?vid=937f9e3f-8b13-4a88-a638-6f5372018cc9","ios":"levelo://app?vid=937f9e3f-8b13-4a88-a638-6f5372018cc9"},"vehicle_type_id":"4","last_reported":1748682562,"current_range_meters":14400,"station_id":"ce4bgpp2rcd13ifvqc3g","pricing_plan_id":"cebpf4jnsgd1na2vs0mg"},{"bike_id":"fff4d7db-5327-445e-9b7a-2b05f8cdb62a","system_id":"levelo_inurba_marseille","lat":43.2844,"lon":5.383891,"is_reserved":false,"is_disabled":false,"rental_uris":{"android":"levelo://app?vid=fff4d7db-5327-445e-9b7a-2b05f8cdb62a","ios":"levelo://app?vid=fff4d7db-5327-445e-9b7a-2b05f8cdb62a"},"vehicle_type_id":"4","last_reported":1748682562,"current_range_meters":14400,"station_id":"ce4bh512rcd13ifvqe3g","pricing_plan_id":"cebpf4jnsgd1na2vs0mg"},{"bike_id":"fa24c62a-7a59-4d4b-9eec-79da840fcafc","system_id":"levelo_inurba_marseille","lat":43.337444,"lon":5.374475,"is_reserved":false,"is_disabled":false,"rental_uris":{"android":"levelo://app?vid=fa24c62a-7a59-4d4b-9eec-79da840fcafc","ios":"levelo://app?vid=fa24c62a-7a59-4d4b-9eec-79da840fcafc"},"vehicle_type_id":"4","last_reported":1748682562,"current_range_meters":14400,"station_id":"ce4bhmh2rcd13ifvqgmg","pricing_plan_id":"cebpf4jnsgd1na2vs0mg"},{"bike_id":"5dae0668-833e-4f25-993a-cb99cb88669d","system_id":"levelo_inurba_marseille","lat":43.217503,"lon":5.346031,"is_reserved":false,"is_disabled":false,"rental_uris":{"android":"levelo://app?vid=5dae0668-833e-4f25-993a-cb99cb88669d","ios":"levelo://app?vid=5dae0668-833e-4f25-993a-cb99cb88669d"},"vehicle_type_id":"4","last_reported":1748682562,"current_range_meters":14400,"station_id":"st_cvj6r9ubvosntc0bgbag","pricing_plan_id":"cebpf4jnsgd1na2vs0mg"},{"bike_id":"d94ad4e9-ef56-400a-81a8-14ac56c6093e","system_id":"levelo_inurba_marseille","lat":43.21747,"lon":5.34605,"is_reserved":false,"is_disabled":false,"rental_uris":{"android":"levelo://app?vid=d94ad4e9-ef56-400a-81a8-14ac56c6093e","ios":"levelo://app?vid=d94ad4e9-ef56-400a-81a8-14ac56c6093e"},"vehicle_type_id":"4","last_reported":1748682562,"current_range_meters":14400,"station_id":"st_cvj6r9ubvosntc0bgbag","pricing_plan_id":"cebpf4jnsgd1na2vs0mg"},{"bike_id":"b4a389d7-474d-4a9d-8dec-223a88612b5c","system_id":"levelo_inurba_marseille","lat":43.25003,"lon":5.37939,"is_reserved":false,"is_disabled":false,"rental_uris":{"android":"levelo://app?vid=b4a389d7-474d-4a9d-8dec-223a88612b5c","ios":"levelo://app?vid=b4a389d7-474d-4a9d-8dec-223a88612b5c"},"vehicle_type_id":"4","last_reported":1748682562,"current_range_meters":14800,"station_id":"","pricing_plan_id":"cebpf4jnsgd1na2vs0mg"},{"bike_id":"348ddc31-f232-46b0-bbef-5931b86212cf","system_id":"levelo_inurba_marseille","lat":43.241738,"lon":5.397337,"is_reserved":false,"is_disabled":false,"rental_uris":{"android":"levelo://app?vid=348ddc31-f232-46b0-bbef-5931b86212cf","ios":"levelo://app?vid=348ddc31-f232-46b0-bbef-5931b86212cf"},"vehicle_type_id":"4","last_reported":1748682562,"current_range_meters":14800,"station_id":"ce4bhn12rcd13ifvqgpg","pricing_plan_id":"cebpf4jnsgd1na2vs0mg"},{"bike_id":"9dd8b8cc-b2f3-445f-a172-5fd0cc0494af","system_id":"levelo_inurba_marseille","lat":43.28176,"lon":5.42629,"is_reserved":false,"is_disabled":false,"rental_uris":{"android":"levelo://app?vid=9dd8b8cc-b2f3-445f-a172-5fd0cc0494af","ios":"levelo://app?vid=9dd8b8cc-b2f3-445f-a172-5fd0cc0494af"},"vehicle_type_id":"4","last_reported":1748682562,"current_range_meters":14800,"station_id":"ce4bhnh2rcd13ifvqgug","pricing_plan_id":"cebpf4jnsgd1na2vs0mg"},{"bike_id":"861ed0cd-16f9-48ec-9f33-38d2bc2ba819","system_id":"levelo_inurba_marseille","lat":43.32288,"lon":5.38274,"is_reserved":false,"is_disabled":false,"rental_uris":{"android":"levelo://app?vid=861ed0cd-16f9-48ec-9f33-38d2bc2ba819","ios":"levelo://app?vid=861ed0cd-16f9-48ec-9f33-38d2bc2ba819"},"vehicle_type_id":"4","last_reported":1748682562,"current_range_meters":14800,"station_id":"ce4bhr12rcd13ifvqhqg","pricing_plan_id":"cebpf4jnsgd1na2vs0mg"},{"bike_id":"fdae6b8d-3da4-46bd-a71f-20e4c65f2114","system_id":"levelo_inurba_marseille","lat":43.30535,"lon":5.36716,"is_reserved":false,"is_disabled":false,"rental_uris":{"android":"levelo://app?vid=fdae6b8d-3da4-46bd-a71f-20e4c65f2114","ios":"levelo://app?vid=fdae6b8d-3da4-46bd-a71f-20e4c65f2114"},"vehicle_type_id":"4","last_reported":1748682562,"current_range_meters":15200,"station_id":"ce4bgrp2rcd13ifvqc9g","pricing_plan_id":"cebpf4jnsgd1na2vs0mg"},{"bike_id":"a17c2b98-706b-4dc3-9e4f-72bdcff0d008","system_id":"levelo_inurba_marseille","lat":43.292276,"lon":5.360631,"is_reserved":false,"is_disabled":false,"rental_uris":{"android":"levelo://app?vid=a17c2b98-706b-4dc3-9e4f-72bdcff0d008","ios":"levelo://app?vid=a17c2b98-706b-4dc3-9e4f-72bdcff0d008"},"vehicle_type_id":"4","last_reported":1748682562,"current_range_meters":15200,"station_id":"ce4bhbh2rcd13ifvqeqg","pricing_plan_id":"cebpf4jnsgd1na2vs0mg"},{"bike_id":"d124288c-6377-4881-ba37-55fc38f2f2c1","system_id":"levelo_inurba_marseille","lat":43.26946,"lon":5.3893,"is_reserved":false,"is_disabled":false,"rental_uris":{"android":"levelo://app?vid=d124288c-6377-4881-ba37-55fc38f2f2c1","ios":"levelo://app?vid=d124288c-6377-4881-ba37-55fc38f2f2c1"},"vehicle_type_id":"4","last_reported":1748682562,"current_range_meters":15200,"station_id":"ce4bhhh2rcd13ifvqfl0","pricing_plan_id":"cebpf4jnsgd1na2vs0mg"},{"bike_id":"45754ac1-53f3-4153-8b8d-8e4c362d497f","system_id":"levelo_inurba_marseille","lat":43.27819,"lon":5.39203,"is_reserved":false,"is_disabled":false,"rental_uris":{"android":"levelo://app?vid=45754ac1-53f3-4153-8b8d-8e4c362d497f","ios":"levelo://app?vid=45754ac1-53f3-4153-8b8d-8e4c362d497f"},"vehicle_type_id":"4","last_reported":1748682562,"current_range_meters":15200,"station_id":"ce4bhjp2rcd13ifvqga0","pricing_plan_id":"cebpf4jnsgd1na2vs0mg"},{"bike_id":"01068d98-bc4c-4871-892c-09d80678e799","system_id":"levelo_inurba_marseille","lat":43.29781,"lon":5.37105,"is_reserved":false,"is_disabled":false,"rental_uris":{"android":"levelo://app?vid=01068d98-bc4c-4871-892c-09d80678e799","ios":"levelo://app?vid=01068d98-bc4c-4871-892c-09d80678e799"},"vehicle_type_id":"4","last_reported":1748682562,"current_range_meters":16000,"station_id":"ce4bgop2rcd13ifvqc1g","pricing_plan_id":"cebpf4jnsgd1na2vs0mg"},{"bike_id":"480f043b-d440-4de0-ad40-c9601fac61aa","system_id":"levelo_inurba_marseille","lat":43.27913,"lon":5.395806,"is_reserved":false,"is_disabled":false,"rental_uris":{"android":"levelo://app?vid=480f043b-d440-4de0-ad40-c9601fac61aa","ios":"levelo://app?vid=480f043b-d440-4de0-ad40-c9601fac61aa"},"vehicle_type_id":"4","last_reported":1748682562,"current_range_meters":16000,"station_id":"ce4bhf92rcd13ifvqf40","pricing_plan_id":"cebpf4jnsgd1na2vs0mg"},{"bike_id":"c2319c95-523a-4385-a540-a2f6322d592b","system_id":"levelo_inurba_marseille","lat":43.27817,"lon":5.39216,"is_reserved":false,"is_disabled":false,"rental_uris":{"android":"levelo://app?vid=c2319c95-523a-4385-a540-a2f6322d592b","ios":"levelo://app?vid=c2319c95-523a-4385-a540-a2f6322d592b"},"vehicle_type_id":"4","last_reported":1748682562,"current_range_meters":16000,"station_id":"ce4bhjp2rcd13ifvqga0","pricing_plan_id":"cebpf4jnsgd1na2vs0mg"},{"bike_id":"093bbd9a-3376-4f5e-8a41-7cc8b8b4e4b7","system_id":"levelo_inurba_marseille","lat":43.251275,"lon":5.403286,"is_reserved":false,"is_disabled":false,"rental_uris":{"android":"levelo://app?vid=093bbd9a-3376-4f5e-8a41-7cc8b8b4e4b7","ios":"levelo://app?vid=093bbd9a-3376-4f5e-8a41-7cc8b8b4e4b7"},"vehicle_type_id":"4","last_reported":1748682562,"current_range_meters":16000,"station_id":"ce4bhlh2rcd13ifvqgig","pricing_plan_id":"cebpf4jnsgd1na2vs0mg"},{"bike_id":"9a724ef8-d819-47e7-a9f7-9a3986491294","system_id":"levelo_inurba_marseille","lat":43.29349,"lon":5.38823,"is_reserved":false,"is_disabled":false,"rental_uris":{"android":"levelo://app?vid=9a724ef8-d819-47e7-a9f7-9a3986491294","ios":"levelo://app?vid=9a724ef8-d819-47e7-a9f7-9a3986491294"},"vehicle_type_id":"4","last_reported":1748682562,"current_range_meters":16400,"station_id":"","pricing_plan_id":"cebpf4jnsgd1na2vs0mg"},{"bike_id":"acf16947-b203-4b81-91fe-aabb86c76086","system_id":"levelo_inurba_marseille","lat":43.25692,"lon":5.40978,"is_reserved":false,"is_disabled":false,"rental_uris":{"android":"levelo://app?vid=acf16947-b203-4b81-91fe-aabb86c76086","ios":"levelo://app?vid=acf16947-b203-4b81-91fe-aabb86c76086"},"vehicle_type_id":"4","last_reported":1748682562,"current_range_meters":16400,"station_id":"","pricing_plan_id":"cebpf4jnsgd1na2vs0mg"},{"bike_id":"fd58be44-efe0-4ddd-a4ac-a9782f7bce3c","system_id":"levelo_inurba_marseille","lat":43.2827,"lon":5.35077,"is_reserved":false,"is_disabled":false,"rental_uris":{"android":"levelo://app?vid=fd58be44-efe0-4ddd-a4ac-a9782f7bce3c","ios":"levelo://app?vid=fd58be44-efe0-4ddd-a4ac-a9782f7bce3c"},"vehicle_type_id":"4","last_reported":1748682562,"current_range_meters":16400,"station_id":"ce4bhbp2rcd13ifvqerg","pricing_plan_id":"cebpf4jnsgd1na2vs0mg"},{"bike_id":"e2ae118e-d72e-4689-8ce8-ded84aed50bd","system_id":"levelo_inurba_marseille","lat":43.278408,"lon":5.392074,"is_reserved":false,"is_disabled":false,"rental_uris":{"android":"levelo://app?vid=e2ae118e-d72e-4689-8ce8-ded84aed50bd","ios":"levelo://app?vid=e2ae118e-d72e-4689-8ce8-ded84aed50bd"},"vehicle_type_id":"4","last_reported":1748682562,"current_range_meters":16400,"station_id":"ce4bhjp2rcd13ifvqga0","pricing_plan_id":"cebpf4jnsgd1na2vs0mg"},{"bike_id":"1e3afdce-4772-41e6-b0a8-ad3714dc985c","system_id":"levelo_inurba_marseille","lat":43.2794,"lon":5.41043,"is_reserved":false,"is_disabled":false,"rental_uris":{"android":"levelo://app?vid=1e3afdce-4772-41e6-b0a8-ad3714dc985c","ios":"levelo://app?vid=1e3afdce-4772-41e6-b0a8-ad3714dc985c"},"vehicle_type_id":"4","last_reported":1748682562,"current_range_meters":16400,"station_id":"ce4bhnp2rcd13ifvqh0g","pricing_plan_id":"cebpf4jnsgd1na2vs0mg"},{"bike_id":"9a189ee8-27ed-444b-b171-f705371af28f","system_id":"levelo_inurba_marseille","lat":43.28258,"lon":5.34914,"is_reserved":false,"is_disabled":false,"rental_uris":{"android":"levelo://app?vid=9a189ee8-27ed-444b-b171-f705371af28f","ios":"levelo://app?vid=9a189ee8-27ed-444b-b171-f705371af28f"},"vehicle_type_id":"4","last_reported":1748682562,"current_range_meters":16800,"station_id":"","pricing_plan_id":"cebpf4jnsgd1na2vs0mg"},{"bike_id":"e210be7e-07b8-44d3-ae09-6702f28e2ae8","system_id":"levelo_inurba_marseille","lat":43.25124,"lon":5.39357,"is_reserved":false,"is_disabled":false,"rental_uris":{"android":"levelo://app?vid=e210be7e-07b8-44d3-ae09-6702f28e2ae8","ios":"levelo://app?vid=e210be7e-07b8-44d3-ae09-6702f28e2ae8"},"vehicle_type_id":"4","last_reported":1748682562,"current_range_meters":16800,"station_id":"","pricing_plan_id":"cebpf4jnsgd1na2vs0mg"},{"bike_id":"10cccf0e-5e24-4b75-8e4f-e089b2d3e656","system_id":"levelo_inurba_marseille","lat":43.23186,"lon":5.39995,"is_reserved":false,"is_disabled":false,"rental_uris":{"android":"levelo://app?vid=10cccf0e-5e24-4b75-8e4f-e089b2d3e656","ios":"levelo://app?vid=10cccf0e-5e24-4b75-8e4f-e089b2d3e656"},"vehicle_type_id":"4","last_reported":1748682562,"current_range_meters":16800,"station_id":"ce4bhn12rcd13ifvqgqg","pricing_plan_id":"cebpf4jnsgd1na2vs0mg"},{"bike_id":"59cc9f64-369b-40a4-aef4-571b231df862","system_id":"levelo_inurba_marseille","lat":43.28103,"lon":5.35202,"is_reserved":false,"is_disabled":false,"rental_uris":{"android":"levelo://app?vid=59cc9f64-369b-40a4-aef4-571b231df862","ios":"levelo://app?vid=59cc9f64-369b-40a4-aef4-571b231df862"},"vehicle_type_id":"4","last_reported":1748682562,"current_range_meters":17200,"station_id":"","pricing_plan_id":"cebpf4jnsgd1na2vs0mg"},{"bike_id":"b433c371-fa62-4ef0-9c6a-19d8581a9331","system_id":"levelo_inurba_marseille","lat":43.28141,"lon":5.38185,"is_reserved":false,"is_disabled":false,"rental_uris":{"android":"levelo://app?vid=b433c371-fa62-4ef0-9c6a-19d8581a9331","ios":"levelo://app?vid=b433c371-fa62-4ef0-9c6a-19d8581a9331"},"vehicle_type_id":"4","last_reported":1748682562,"current_range_meters":17200,"station_id":"","pricing_plan_id":"cebpf4jnsgd1na2vs0mg"},{"bike_id":"115a7cbb-dc32-4818-9864-6663d04378dd","system_id":"levelo_inurba_marseille","lat":43.3149,"lon":5.37309,"is_reserved":false,"is_disabled":false,"rental_uris":{"android":"levelo://app?vid=115a7cbb-dc32-4818-9864-6663d04378dd","ios":"levelo://app?vid=115a7cbb-dc32-4818-9864-6663d04378dd"},"vehicle_type_id":"4","last_reported":1748682562,"current_range_meters":17200,"station_id":"ce4bgt12rcd13ifvqcd0","pricing_plan_id":"cebpf4jnsgd1na2vs0mg"},{"bike_id":"08695775-cf69-4b6c-aab0-a674312327d6","system_id":"levelo_inurba_marseille","lat":43.28488,"lon":5.38418,"is_reserved":false,"is_disabled":false,"rental_uris":{"android":"levelo://app?vid=08695775-cf69-4b6c-aab0-a674312327d6","ios":"levelo://app?vid=08695775-cf69-4b6c-aab0-a674312327d6"},"vehicle_type_id":"4","last_reported":1748682562,"current_range_meters":17200,"station_id":"ce4bh512rcd13ifvqe3g","pricing_plan_id":"cebpf4jnsgd1na2vs0mg"},{"bike_id":"f5a90625-b7e8-48a8-90c6-777efe255a32","system_id":"levelo_inurba_marseille","lat":43.251,"lon":5.40972,"is_reserved":false,"is_disabled":false,"rental_uris":{"android":"levelo://app?vid=f5a90625-b7e8-48a8-90c6-777efe255a32","ios":"levelo://app?vid=f5a90625-b7e8-48a8-90c6-777efe255a32"},"vehicle_type_id":"4","last_reported":1748682562,"current_range_meters":17600,"station_id":"","pricing_plan_id":"cebpf4jnsgd1na2vs0mg"},{"bike_id":"76822090-0fbe-4211-9fe1-ed1a2826f849","system_id":"levelo_inurba_marseille","lat":43.26023,"lon":5.3755,"is_reserved":false,"is_disabled":false,"rental_uris":{"android":"levelo://app?vid=76822090-0fbe-4211-9fe1-ed1a2826f849","ios":"levelo://app?vid=76822090-0fbe-4211-9fe1-ed1a2826f849"},"vehicle_type_id":"4","last_reported":1748682562,"current_range_meters":17600,"station_id":"ce4bhgh2rcd13ifvqfa0","pricing_plan_id":"cebpf4jnsgd1na2vs0mg"},{"bike_id":"98ec307e-7ec1-4c12-8327-791809e3259d","system_id":"levelo_inurba_marseille","lat":43.27832,"lon":5.39215,"is_reserved":false,"is_disabled":false,"rental_uris":{"android":"levelo://app?vid=98ec307e-7ec1-4c12-8327-791809e3259d","ios":"levelo://app?vid=98ec307e-7ec1-4c12-8327-791809e3259d"},"vehicle_type_id":"4","last_reported":1748682562,"current_range_meters":17600,"station_id":"ce4bhjp2rcd13ifvqga0","pricing_plan_id":"cebpf4jnsgd1na2vs0mg"},{"bike_id":"9a87b717-f8e2-4016-bc78-03583a62a953","system_id":"levelo_inurba_marseille","lat":43.26561,"lon":5.40312,"is_reserved":false,"is_disabled":false,"rental_uris":{"android":"levelo://app?vid=9a87b717-f8e2-4016-bc78-03583a62a953","ios":"levelo://app?vid=9a87b717-f8e2-4016-bc78-03583a62a953"},"vehicle_type_id":"4","last_reported":1748682562,"current_range_meters":18000,"station_id":"","pricing_plan_id":"cebpf4jnsgd1na2vs0mg"},{"bike_id":"4e62b211-7b0d-4bca-8df1-cc52f3ff0e8d","system_id":"levelo_inurba_marseille","lat":43.2175,"lon":5.34602,"is_reserved":false,"is_disabled":false,"rental_uris":{"android":"levelo://app?vid=4e62b211-7b0d-4bca-8df1-cc52f3ff0e8d","ios":"levelo://app?vid=4e62b211-7b0d-4bca-8df1-cc52f3ff0e8d"},"vehicle_type_id":"4","last_reported":1748682562,"current_range_meters":18000,"station_id":"","pricing_plan_id":"cebpf4jnsgd1na2vs0mg"},{"bike_id":"77520d45-03bf-4b26-9f9b-8ac6c162ce6b","system_id":"levelo_inurba_marseille","lat":43.243584,"lon":5.41144,"is_reserved":false,"is_disabled":false,"rental_uris":{"android":"levelo://app?vid=77520d45-03bf-4b26-9f9b-8ac6c162ce6b","ios":"levelo://app?vid=77520d45-03bf-4b26-9f9b-8ac6c162ce6b"},"vehicle_type_id":"4","last_reported":1748682562,"current_range_meters":18000,"station_id":"","pricing_plan_id":"cebpf4jnsgd1na2vs0mg"},{"bike_id":"8d35a12d-cc92-41fb-826e-4c0d9ec10678","system_id":"levelo_inurba_marseille","lat":43.30184,"lon":5.36616,"is_reserved":false,"is_disabled":false,"rental_uris":{"android":"levelo://app?vid=8d35a12d-cc92-41fb-826e-4c0d9ec10678","ios":"levelo://app?vid=8d35a12d-cc92-41fb-826e-4c0d9ec10678"},"vehicle_type_id":"4","last_reported":1748682562,"current_range_meters":18000,"station_id":"ce4bgrh2rcd13ifvqc8g","pricing_plan_id":"cebpf4jnsgd1na2vs0mg"},{"bike_id":"1c818b9f-5d20-417e-a4ae-39e0d1dd38d6","system_id":"levelo_inurba_marseille","lat":43.31327,"lon":5.39694,"is_reserved":false,"is_disabled":false,"rental_uris":{"android":"levelo://app?vid=1c818b9f-5d20-417e-a4ae-39e0d1dd38d6","ios":"levelo://app?vid=1c818b9f-5d20-417e-a4ae-39e0d1dd38d6"},"vehicle_type_id":"4","last_reported":1748682562,"current_range_meters":18000,"station_id":"ce4bgvp2rcd13ifvqcu0","pricing_plan_id":"cebpf4jnsgd1na2vs0mg"},{"bike_id":"62b02994-5210-426a-980f-6cb47507004d","system_id":"levelo_inurba_marseille","lat":43.29219,"lon":5.36051,"is_reserved":false,"is_disabled":false,"rental_uris":{"android":"levelo://app?vid=62b02994-5210-426a-980f-6cb47507004d","ios":"levelo://app?vid=62b02994-5210-426a-980f-6cb47507004d"},"vehicle_type_id":"4","last_reported":1748682562,"current_range_meters":18000,"station_id":"ce4bhbh2rcd13ifvqeqg","pricing_plan_id":"cebpf4jnsgd1na2vs0mg"},{"bike_id":"56ed4761-a43c-4469-9ea6-f227f320ed7f","system_id":"levelo_inurba_marseille","lat":43.231472,"lon":5.437201,"is_reserved":false,"is_disabled":false,"rental_uris":{"android":"levelo://app?vid=56ed4761-a43c-4469-9ea6-f227f320ed7f","ios":"levelo://app?vid=56ed4761-a43c-4469-9ea6-f227f320ed7f"},"vehicle_type_id":"4","last_reported":1748682562,"current_range_meters":18000,"station_id":"ce4bhmp2rcd13ifvqgog","pricing_plan_id":"cebpf4jnsgd1na2vs0mg"},{"bike_id":"cf99540e-56c9-47fd-bb37-414f9e70e2e8","system_id":"levelo_inurba_marseille","lat":43.29849,"lon":5.36288,"is_reserved":false,"is_disabled":false,"rental_uris":{"android":"levelo://app?vid=cf99540e-56c9-47fd-bb37-414f9e70e2e8","ios":"levelo://app?vid=cf99540e-56c9-47fd-bb37-414f9e70e2e8"},"vehicle_type_id":"4","last_reported":1748682562,"current_range_meters":18800,"station_id":"ce4bgpp2rcd13ifvqc3g","pricing_plan_id":"cebpf4jnsgd1na2vs0mg"},{"bike_id":"52138315-f13b-4871-ab78-9e5155a1008c","system_id":"levelo_inurba_marseille","lat":43.322876,"lon":5.382636,"is_reserved":false,"is_disabled":false,"rental_uris":{"android":"levelo://app?vid=52138315-f13b-4871-ab78-9e5155a1008c","ios":"levelo://app?vid=52138315-f13b-4871-ab78-9e5155a1008c"},"vehicle_type_id":"4","last_reported":1748682562,"current_range_meters":18800,"station_id":"ce4bhr12rcd13ifvqhqg","pricing_plan_id":"cebpf4jnsgd1na2vs0mg"},{"bike_id":"77c8d843-097d-4a21-9eaf-ceba89e1d972","system_id":"levelo_inurba_marseille","lat":43.24163,"lon":5.36395,"is_reserved":false,"is_disabled":false,"rental_uris":{"android":"levelo://app?vid=77c8d843-097d-4a21-9eaf-ceba89e1d972","ios":"levelo://app?vid=77c8d843-097d-4a21-9eaf-ceba89e1d972"},"vehicle_type_id":"4","last_reported":1748682562,"current_range_meters":18800,"station_id":"cpo36qri1sfpv3e86is0","pricing_plan_id":"cebpf4jnsgd1na2vs0mg"},{"bike_id":"e35f13ce-a6c7-4a08-9fa1-ffa4b3601a0b","system_id":"levelo_inurba_marseille","lat":43.21746,"lon":5.34606,"is_reserved":false,"is_disabled":false,"rental_uris":{"android":"levelo://app?vid=e35f13ce-a6c7-4a08-9fa1-ffa4b3601a0b","ios":"levelo://app?vid=e35f13ce-a6c7-4a08-9fa1-ffa4b3601a0b"},"vehicle_type_id":"4","last_reported":1748682562,"current_range_meters":18800,"station_id":"st_cvj6r9ubvosntc0bgbag","pricing_plan_id":"cebpf4jnsgd1na2vs0mg"},{"bike_id":"68c15341-a902-470d-afa1-0b685041a347","system_id":"levelo_inurba_marseille","lat":43.29536,"lon":5.37502,"is_reserved":false,"is_disabled":false,"rental_uris":{"android":"levelo://app?vid=68c15341-a902-470d-afa1-0b685041a347","ios":"levelo://app?vid=68c15341-a902-470d-afa1-0b685041a347"},"vehicle_type_id":"4","last_reported":1748682562,"current_range_meters":19200,"station_id":"ce4bgkp2rcd13ifvqbmg","pricing_plan_id":"cebpf4jnsgd1na2vs0mg"},{"bike_id":"f15b9505-47d1-4a3f-9d7d-841ff37bfa73","system_id":"levelo_inurba_marseille","lat":43.25581,"lon":5.38241,"is_reserved":false,"is_disabled":false,"rental_uris":{"android":"levelo://app?vid=f15b9505-47d1-4a3f-9d7d-841ff37bfa73","ios":"levelo://app?vid=f15b9505-47d1-4a3f-9d7d-841ff37bfa73"},"vehicle_type_id":"4","last_reported":1748682562,"current_range_meters":19200,"station_id":"ce4bhih2rcd13ifvqfs0","pricing_plan_id":"cebpf4jnsgd1na2vs0mg"},{"bike_id":"e30757e1-f101-4442-b172-d191304e9b62","system_id":"levelo_inurba_marseille","lat":43.27824,"lon":5.39212,"is_reserved":false,"is_disabled":false,"rental_uris":{"android":"levelo://app?vid=e30757e1-f101-4442-b172-d191304e9b62","ios":"levelo://app?vid=e30757e1-f101-4442-b172-d191304e9b62"},"vehicle_type_id":"4","last_reported":1748682562,"current_range_meters":19200,"station_id":"ce4bhjp2rcd13ifvqga0","pricing_plan_id":"cebpf4jnsgd1na2vs0mg"},{"bike_id":"40ec5158-e937-46a3-9a06-884370ed5e3d","system_id":"levelo_inurba_marseille","lat":43.24173,"lon":5.39727,"is_reserved":false,"is_disabled":false,"rental_uris":{"android":"levelo://app?vid=40ec5158-e937-46a3-9a06-884370ed5e3d","ios":"levelo://app?vid=40ec5158-e937-46a3-9a06-884370ed5e3d"},"vehicle_type_id":"4","last_reported":1748682562,"current_range_meters":19200,"station_id":"ce4bhn12rcd13ifvqgpg","pricing_plan_id":"cebpf4jnsgd1na2vs0mg"},{"bike_id":"b535935b-0655-422f-aa9d-3c9dea0870e3","system_id":"levelo_inurba_marseille","lat":43.21748,"lon":5.34613,"is_reserved":false,"is_disabled":false,"rental_uris":{"android":"levelo://app?vid=b535935b-0655-422f-aa9d-3c9dea0870e3","ios":"levelo://app?vid=b535935b-0655-422f-aa9d-3c9dea0870e3"},"vehicle_type_id":"4","last_reported":1748682562,"current_range_meters":19200,"station_id":"st_cvj6r9ubvosntc0bgbag","pricing_plan_id":"cebpf4jnsgd1na2vs0mg"},{"bike_id":"0cd0f35a-8fb8-4853-b498-8b85d9daafee","system_id":"levelo_inurba_marseille","lat":43.21186,"lon":5.35072,"is_reserved":false,"is_disabled":false,"rental_uris":{"android":"levelo://app?vid=0cd0f35a-8fb8-4853-b498-8b85d9daafee","ios":"levelo://app?vid=0cd0f35a-8fb8-4853-b498-8b85d9daafee"},"vehicle_type_id":"4","last_reported":1748682562,"current_range_meters":19200,"station_id":"st_cvj6sg6p6f1abm77japg","pricing_plan_id":"cebpf4jnsgd1na2vs0mg"},{"bike_id":"1738cf63-dc00-48a1-9e99-8ebdb6d1b8d3","system_id":"levelo_inurba_marseille","lat":43.330708,"lon":5.393252,"is_reserved":false,"is_disabled":false,"rental_uris":{"android":"levelo://app?vid=1738cf63-dc00-48a1-9e99-8ebdb6d1b8d3","ios":"levelo://app?vid=1738cf63-dc00-48a1-9e99-8ebdb6d1b8d3"},"vehicle_type_id":"4","last_reported":1748682562,"current_range_meters":19600,"station_id":"","pricing_plan_id":"cebpf4jnsgd1na2vs0mg"},{"bike_id":"85e3e537-a177-48c7-bd3d-d597dfbeed60","system_id":"levelo_inurba_marseille","lat":43.252294,"lon":5.424984,"is_reserved":false,"is_disabled":false,"rental_uris":{"android":"levelo://app?vid=85e3e537-a177-48c7-bd3d-d597dfbeed60","ios":"levelo://app?vid=85e3e537-a177-48c7-bd3d-d597dfbeed60"},"vehicle_type_id":"4","last_reported":1748682562,"current_range_meters":19600,"station_id":"","pricing_plan_id":"cebpf4jnsgd1na2vs0mg"},{"bike_id":"2f650bb1-6027-4191-83d2-16315820a0a7","system_id":"levelo_inurba_marseille","lat":43.29975,"lon":5.37344,"is_reserved":false,"is_disabled":false,"rental_uris":{"android":"levelo://app?vid=2f650bb1-6027-4191-83d2-16315820a0a7","ios":"levelo://app?vid=2f650bb1-6027-4191-83d2-16315820a0a7"},"vehicle_type_id":"4","last_reported":1748682562,"current_range_meters":19600,"station_id":"","pricing_plan_id":"cebpf4jnsgd1na2vs0mg"},{"bike_id":"29336ef3-a2cd-49ba-9481-b3d395f42bd6","system_id":"levelo_inurba_marseille","lat":43.29188,"lon":5.35795,"is_reserved":false,"is_disabled":false,"rental_uris":{"android":"levelo://app?vid=29336ef3-a2cd-49ba-9481-b3d395f42bd6","ios":"levelo://app?vid=29336ef3-a2cd-49ba-9481-b3d395f42bd6"},"vehicle_type_id":"4","last_reported":1748682562,"current_range_meters":19600,"station_id":"ce4bhb12rcd13ifvqel0","pricing_plan_id":"cebpf4jnsgd1na2vs0mg"},{"bike_id":"37da63eb-922c-43a2-a033-1797e8a35c14","system_id":"levelo_inurba_marseille","lat":43.27919,"lon":5.39591,"is_reserved":false,"is_disabled":false,"rental_uris":{"android":"levelo://app?vid=37da63eb-922c-43a2-a033-1797e8a35c14","ios":"levelo://app?vid=37da63eb-922c-43a2-a033-1797e8a35c14"},"vehicle_type_id":"4","last_reported":1748682562,"current_range_meters":19600,"station_id":"ce4bhf92rcd13ifvqf40","pricing_plan_id":"cebpf4jnsgd1na2vs0mg"},{"bike_id":"2fe6278c-5afa-4ac6-8c9d-653e87261e2b","system_id":"levelo_inurba_marseille","lat":43.2318,"lon":5.39983,"is_reserved":false,"is_disabled":false,"rental_uris":{"android":"levelo://app?vid=2fe6278c-5afa-4ac6-8c9d-653e87261e2b","ios":"levelo://app?vid=2fe6278c-5afa-4ac6-8c9d-653e87261e2b"},"vehicle_type_id":"4","last_reported":1748682562,"current_range_meters":19600,"station_id":"ce4bhn12rcd13ifvqgqg","pricing_plan_id":"cebpf4jnsgd1na2vs0mg"},{"bike_id":"d881de02-981f-4668-ad10-935de74e01a3","system_id":"levelo_inurba_marseille","lat":43.21748,"lon":5.34602,"is_reserved":false,"is_disabled":false,"rental_uris":{"android":"levelo://app?vid=d881de02-981f-4668-ad10-935de74e01a3","ios":"levelo://app?vid=d881de02-981f-4668-ad10-935de74e01a3"},"vehicle_type_id":"4","last_reported":1748682562,"current_range_meters":19600,"station_id":"st_cvj6r9ubvosntc0bgbag","pricing_plan_id":"cebpf4jnsgd1na2vs0mg"},{"bike_id":"105ee74d-156a-41fa-804f-1228df350588","system_id":"levelo_inurba_marseille","lat":43.30537,"lon":5.36553,"is_reserved":false,"is_disabled":false,"rental_uris":{"android":"levelo://app?vid=105ee74d-156a-41fa-804f-1228df350588","ios":"levelo://app?vid=105ee74d-156a-41fa-804f-1228df350588"},"vehicle_type_id":"4","last_reported":1748682562,"current_range_meters":20000,"station_id":"ce4bgs12rcd13ifvqcag","pricing_plan_id":"cebpf4jnsgd1na2vs0mg"},{"bike_id":"3fdb0359-2ee5-4672-8fc6-b060460fdc13","system_id":"levelo_inurba_marseille","lat":43.27314,"lon":5.39107,"is_reserved":false,"is_disabled":false,"rental_uris":{"android":"levelo://app?vid=3fdb0359-2ee5-4672-8fc6-b060460fdc13","ios":"levelo://app?vid=3fdb0359-2ee5-4672-8fc6-b060460fdc13"},"vehicle_type_id":"4","last_reported":1748682562,"current_range_meters":20000,"station_id":"ce4bhgp2rcd13ifvqfe0","pricing_plan_id":"cebpf4jnsgd1na2vs0mg"},{"bike_id":"b8a13ef2-f75f-43cc-b6c5-56549b3ab028","system_id":"levelo_inurba_marseille","lat":43.231938,"lon":5.355515,"is_reserved":false,"is_disabled":false,"rental_uris":{"android":"levelo://app?vid=b8a13ef2-f75f-43cc-b6c5-56549b3ab028","ios":"levelo://app?vid=b8a13ef2-f75f-43cc-b6c5-56549b3ab028"},"vehicle_type_id":"4","last_reported":1748682562,"current_range_meters":20000,"station_id":"ce4bhu92rcd13ifvqi70","pricing_plan_id":"cebpf4jnsgd1na2vs0mg"},{"bike_id":"dbcc1f36-f72f-44cf-91f4-c6d3682861d2","system_id":"levelo_inurba_marseille","lat":43.217496,"lon":5.346009,"is_reserved":false,"is_disabled":false,"rental_uris":{"android":"levelo://app?vid=dbcc1f36-f72f-44cf-91f4-c6d3682861d2","ios":"levelo://app?vid=dbcc1f36-f72f-44cf-91f4-c6d3682861d2"},"vehicle_type_id":"4","last_reported":1748682562,"current_range_meters":20000,"station_id":"st_cvj6r9ubvosntc0bgbag","pricing_plan_id":"cebpf4jnsgd1na2vs0mg"},{"bike_id":"8d58868a-90c7-4354-bd95-c9b1424e7e94","system_id":"levelo_inurba_marseille","lat":43.308776,"lon":5.374198,"is_reserved":false,"is_disabled":false,"rental_uris":{"android":"levelo://app?vid=8d58868a-90c7-4354-bd95-c9b1424e7e94","ios":"levelo://app?vid=8d58868a-90c7-4354-bd95-c9b1424e7e94"},"vehicle_type_id":"4","last_reported":1748682562,"current_range_meters":20400,"station_id":"","pricing_plan_id":"cebpf4jnsgd1na2vs0mg"},{"bike_id":"01d51a3b-bd36-4bae-b70d-feca5edf1a87","system_id":"levelo_inurba_marseille","lat":43.28114,"lon":5.39867,"is_reserved":false,"is_disabled":false,"rental_uris":{"android":"levelo://app?vid=01d51a3b-bd36-4bae-b70d-feca5edf1a87","ios":"levelo://app?vid=01d51a3b-bd36-4bae-b70d-feca5edf1a87"},"vehicle_type_id":"4","last_reported":1748682562,"current_range_meters":20400,"station_id":"","pricing_plan_id":"cebpf4jnsgd1na2vs0mg"},{"bike_id":"c6bdf46a-4213-4c12-925c-e97a9a9f9d74","system_id":"levelo_inurba_marseille","lat":43.30458,"lon":5.37904,"is_reserved":false,"is_disabled":false,"rental_uris":{"android":"levelo://app?vid=c6bdf46a-4213-4c12-925c-e97a9a9f9d74","ios":"levelo://app?vid=c6bdf46a-4213-4c12-925c-e97a9a9f9d74"},"vehicle_type_id":"4","last_reported":1748682562,"current_range_meters":20400,"station_id":"ce4bgup2rcd13ifvqcn0","pricing_plan_id":"cebpf4jnsgd1na2vs0mg"},{"bike_id":"99d03dd5-73bd-4ce7-bf96-59a96e4c57b8","system_id":"levelo_inurba_marseille","lat":43.274273,"lon":5.394151,"is_reserved":false,"is_disabled":false,"rental_uris":{"android":"levelo://app?vid=99d03dd5-73bd-4ce7-bf96-59a96e4c57b8","ios":"levelo://app?vid=99d03dd5-73bd-4ce7-bf96-59a96e4c57b8"},"vehicle_type_id":"4","last_reported":1748682562,"current_range_meters":20400,"station_id":"ce4bhdp2rcd13ifvqf20","pricing_plan_id":"cebpf4jnsgd1na2vs0mg"},{"bike_id":"6d860704-2de3-4548-8e7e-57b52e0b972b","system_id":"levelo_inurba_marseille","lat":43.25501,"lon":5.37651,"is_reserved":false,"is_disabled":false,"rental_uris":{"android":"levelo://app?vid=6d860704-2de3-4548-8e7e-57b52e0b972b","ios":"levelo://app?vid=6d860704-2de3-4548-8e7e-57b52e0b972b"},"vehicle_type_id":"4","last_reported":1748682562,"current_range_meters":20400,"station_id":"ce4bhh12rcd13ifvqff0","pricing_plan_id":"cebpf4jnsgd1na2vs0mg"},{"bike_id":"0d35aaec-5254-460a-91b1-84afcbe1ac60","system_id":"levelo_inurba_marseille","lat":43.27207,"lon":5.39194,"is_reserved":false,"is_disabled":false,"rental_uris":{"android":"levelo://app?vid=0d35aaec-5254-460a-91b1-84afcbe1ac60","ios":"levelo://app?vid=0d35aaec-5254-460a-91b1-84afcbe1ac60"},"vehicle_type_id":"4","last_reported":1748682562,"current_range_meters":20400,"station_id":"ce4bhhp2rcd13ifvqfm0","pricing_plan_id":"cebpf4jnsgd1na2vs0mg"},{"bike_id":"4e06c97b-cef3-4984-a01b-946e60a79690","system_id":"levelo_inurba_marseille","lat":43.253266,"lon":5.393833,"is_reserved":false,"is_disabled":false,"rental_uris":{"android":"levelo://app?vid=4e06c97b-cef3-4984-a01b-946e60a79690","ios":"levelo://app?vid=4e06c97b-cef3-4984-a01b-946e60a79690"},"vehicle_type_id":"4","last_reported":1748682562,"current_range_meters":20800,"station_id":"","pricing_plan_id":"cebpf4jnsgd1na2vs0mg"},{"bike_id":"1510f774-29d1-4631-8ba7-4d9d44c0ef3e","system_id":"levelo_inurba_marseille","lat":43.287671,"lon":5.379219,"is_reserved":false,"is_disabled":false,"rental_uris":{"android":"levelo://app?vid=1510f774-29d1-4631-8ba7-4d9d44c0ef3e","ios":"levelo://app?vid=1510f774-29d1-4631-8ba7-4d9d44c0ef3e"},"vehicle_type_id":"4","last_reported":1748682562,"current_range_meters":20800,"station_id":"","pricing_plan_id":"cebpf4jnsgd1na2vs0mg"},{"bike_id":"b01a570e-2e2f-47f9-bc69-a5fa632d1647","system_id":"levelo_inurba_marseille","lat":43.293683,"lon":5.378467,"is_reserved":false,"is_disabled":false,"rental_uris":{"android":"levelo://app?vid=b01a570e-2e2f-47f9-bc69-a5fa632d1647","ios":"levelo://app?vid=b01a570e-2e2f-47f9-bc69-a5fa632d1647"},"vehicle_type_id":"4","last_reported":1748682562,"current_range_meters":20800,"station_id":"ce4bgjh2rcd13ifvqbf0","pricing_plan_id":"cebpf4jnsgd1na2vs0mg"},{"bike_id":"afc6daa1-0a5a-4e89-80d3-c14be38f1c7b","system_id":"levelo_inurba_marseille","lat":43.298453,"lon":5.362744,"is_reserved":false,"is_disabled":false,"rental_uris":{"android":"levelo://app?vid=afc6daa1-0a5a-4e89-80d3-c14be38f1c7b","ios":"levelo://app?vid=afc6daa1-0a5a-4e89-80d3-c14be38f1c7b"},"vehicle_type_id":"4","last_reported":1748682562,"current_range_meters":20800,"station_id":"ce4bgpp2rcd13ifvqc3g","pricing_plan_id":"cebpf4jnsgd1na2vs0mg"},{"bike_id":"e1a9480b-3a76-455e-8612-f8efbb6bbf3e","system_id":"levelo_inurba_marseille","lat":43.27915,"lon":5.395927,"is_reserved":false,"is_disabled":false,"rental_uris":{"android":"levelo://app?vid=e1a9480b-3a76-455e-8612-f8efbb6bbf3e","ios":"levelo://app?vid=e1a9480b-3a76-455e-8612-f8efbb6bbf3e"},"vehicle_type_id":"4","last_reported":1748682562,"current_range_meters":20800,"station_id":"ce4bhf92rcd13ifvqf40","pricing_plan_id":"cebpf4jnsgd1na2vs0mg"},{"bike_id":"094136cd-6e8a-44d4-9703-47aefbc28c5f","system_id":"levelo_inurba_marseille","lat":43.2792,"lon":5.39596,"is_reserved":false,"is_disabled":false,"rental_uris":{"android":"levelo://app?vid=094136cd-6e8a-44d4-9703-47aefbc28c5f","ios":"levelo://app?vid=094136cd-6e8a-44d4-9703-47aefbc28c5f"},"vehicle_type_id":"4","last_reported":1748682562,"current_range_meters":20800,"station_id":"ce4bhf92rcd13ifvqf40","pricing_plan_id":"cebpf4jnsgd1na2vs0mg"},{"bike_id":"167bef53-cc5f-4dc6-b4bd-475d4d2321f8","system_id":"levelo_inurba_marseille","lat":43.26216,"lon":5.37454,"is_reserved":false,"is_disabled":false,"rental_uris":{"android":"levelo://app?vid=167bef53-cc5f-4dc6-b4bd-475d4d2321f8","ios":"levelo://app?vid=167bef53-cc5f-4dc6-b4bd-475d4d2321f8"},"vehicle_type_id":"4","last_reported":1748682562,"current_range_meters":20800,"station_id":"ce4bhgp2rcd13ifvqfc0","pricing_plan_id":"cebpf4jnsgd1na2vs0mg"},{"bike_id":"dcfe4e48-ba4d-40ce-9013-f302bd4e819f","system_id":"levelo_inurba_marseille","lat":43.32042,"lon":5.41517,"is_reserved":false,"is_disabled":false,"rental_uris":{"android":"levelo://app?vid=dcfe4e48-ba4d-40ce-9013-f302bd4e819f","ios":"levelo://app?vid=dcfe4e48-ba4d-40ce-9013-f302bd4e819f"},"vehicle_type_id":"4","last_reported":1748682562,"current_range_meters":20800,"station_id":"ce4bhq92rcd13ifvqhkg","pricing_plan_id":"cebpf4jnsgd1na2vs0mg"},{"bike_id":"96ef4d2e-4ed7-4cf9-be1d-060f75c89057","system_id":"levelo_inurba_marseille","lat":43.21774,"lon":5.346,"is_reserved":false,"is_disabled":false,"rental_uris":{"android":"levelo://app?vid=96ef4d2e-4ed7-4cf9-be1d-060f75c89057","ios":"levelo://app?vid=96ef4d2e-4ed7-4cf9-be1d-060f75c89057"},"vehicle_type_id":"4","last_reported":1748682562,"current_range_meters":20800,"station_id":"st_cvj6r9ubvosntc0bgbag","pricing_plan_id":"cebpf4jnsgd1na2vs0mg"},{"bike_id":"2a2f6fd6-3e05-4938-9533-8ed06b58f5f4","system_id":"levelo_inurba_marseille","lat":43.29634,"lon":5.38949,"is_reserved":false,"is_disabled":false,"rental_uris":{"android":"levelo://app?vid=2a2f6fd6-3e05-4938-9533-8ed06b58f5f4","ios":"levelo://app?vid=2a2f6fd6-3e05-4938-9533-8ed06b58f5f4"},"vehicle_type_id":"4","last_reported":1748682562,"current_range_meters":21600,"station_id":"","pricing_plan_id":"cebpf4jnsgd1na2vs0mg"},{"bike_id":"eb9cc91c-b9ce-4672-867a-4d4e26e56835","system_id":"levelo_inurba_marseille","lat":43.28411,"lon":5.34989,"is_reserved":false,"is_disabled":false,"rental_uris":{"android":"levelo://app?vid=eb9cc91c-b9ce-4672-867a-4d4e26e56835","ios":"levelo://app?vid=eb9cc91c-b9ce-4672-867a-4d4e26e56835"},"vehicle_type_id":"4","last_reported":1748682562,"current_range_meters":21600,"station_id":"ce4bhbh2rcd13ifvqepg","pricing_plan_id":"cebpf4jnsgd1na2vs0mg"},{"bike_id":"30a21466-2869-47cf-b052-92602c5372b2","system_id":"levelo_inurba_marseille","lat":43.29272,"lon":5.3685,"is_reserved":false,"is_disabled":false,"rental_uris":{"android":"levelo://app?vid=30a21466-2869-47cf-b052-92602c5372b2","ios":"levelo://app?vid=30a21466-2869-47cf-b052-92602c5372b2"},"vehicle_type_id":"4","last_reported":1748682562,"current_range_meters":21600,"station_id":"ce4bhbp2rcd13ifvqesg","pricing_plan_id":"cebpf4jnsgd1na2vs0mg"},{"bike_id":"8562bcda-37c8-43f2-b944-6bd130ff7e35","system_id":"levelo_inurba_marseille","lat":43.27963,"lon":5.38737,"is_reserved":false,"is_disabled":false,"rental_uris":{"android":"levelo://app?vid=8562bcda-37c8-43f2-b944-6bd130ff7e35","ios":"levelo://app?vid=8562bcda-37c8-43f2-b944-6bd130ff7e35"},"vehicle_type_id":"4","last_reported":1748682562,"current_range_meters":21600,"station_id":"ce4bhg12rcd13ifvqf80","pricing_plan_id":"cebpf4jnsgd1na2vs0mg"},{"bike_id":"0489661d-b5b9-49dc-9463-2cdfff8b5db6","system_id":"levelo_inurba_marseille","lat":43.241722,"lon":5.397314,"is_reserved":false,"is_disabled":false,"rental_uris":{"android":"levelo://app?vid=0489661d-b5b9-49dc-9463-2cdfff8b5db6","ios":"levelo://app?vid=0489661d-b5b9-49dc-9463-2cdfff8b5db6"},"vehicle_type_id":"4","last_reported":1748682562,"current_range_meters":21600,"station_id":"ce4bhn12rcd13ifvqgpg","pricing_plan_id":"cebpf4jnsgd1na2vs0mg"},{"bike_id":"089e56f6-6830-4e81-a5d0-2f1506350941","system_id":"levelo_inurba_marseille","lat":43.32112,"lon":5.36771,"is_reserved":false,"is_disabled":false,"rental_uris":{"android":"levelo://app?vid=089e56f6-6830-4e81-a5d0-2f1506350941","ios":"levelo://app?vid=089e56f6-6830-4e81-a5d0-2f1506350941"},"vehicle_type_id":"4","last_reported":1748682562,"current_range_meters":21600,"station_id":"ce4bhrh2rcd13ifvqhug","pricing_plan_id":"cebpf4jnsgd1na2vs0mg"},{"bike_id":"e04e1f08-e48d-476d-8347-82bbb21211dd","system_id":"levelo_inurba_marseille","lat":43.26805,"lon":5.40271,"is_reserved":false,"is_disabled":false,"rental_uris":{"android":"levelo://app?vid=e04e1f08-e48d-476d-8347-82bbb21211dd","ios":"levelo://app?vid=e04e1f08-e48d-476d-8347-82bbb21211dd"},"vehicle_type_id":"4","last_reported":1748682562,"current_range_meters":21600,"station_id":"ce501612rcd8frsf0b60","pricing_plan_id":"cebpf4jnsgd1na2vs0mg"},{"bike_id":"7ab94cd2-b39d-4fc9-b9f5-ca04f27bf79a","system_id":"levelo_inurba_marseille","lat":43.3087,"lon":5.39794,"is_reserved":false,"is_disabled":false,"rental_uris":{"android":"levelo://app?vid=7ab94cd2-b39d-4fc9-b9f5-ca04f27bf79a","ios":"levelo://app?vid=7ab94cd2-b39d-4fc9-b9f5-ca04f27bf79a"},"vehicle_type_id":"4","last_reported":1748682562,"current_range_meters":22000,"station_id":"","pricing_plan_id":"cebpf4jnsgd1na2vs0mg"},{"bike_id":"db90286d-8b73-4b28-a6bb-cc464f02f4d6","system_id":"levelo_inurba_marseille","lat":43.2528,"lon":5.3935,"is_reserved":false,"is_disabled":false,"rental_uris":{"android":"levelo://app?vid=db90286d-8b73-4b28-a6bb-cc464f02f4d6","ios":"levelo://app?vid=db90286d-8b73-4b28-a6bb-cc464f02f4d6"},"vehicle_type_id":"4","last_reported":1748682562,"current_range_meters":22000,"station_id":"","pricing_plan_id":"cebpf4jnsgd1na2vs0mg"},{"bike_id":"903b0bf7-7626-4d30-a23e-4f4b503bf39f","system_id":"levelo_inurba_marseille","lat":43.30934,"lon":5.40158,"is_reserved":false,"is_disabled":false,"rental_uris":{"android":"levelo://app?vid=903b0bf7-7626-4d30-a23e-4f4b503bf39f","ios":"levelo://app?vid=903b0bf7-7626-4d30-a23e-4f4b503bf39f"},"vehicle_type_id":"4","last_reported":1748682562,"current_range_meters":22000,"station_id":"ce4bgvp2rcd13ifvqct0","pricing_plan_id":"cebpf4jnsgd1na2vs0mg"},{"bike_id":"7eddf3c8-9763-4ec5-b5b1-c54ce34a24b0","system_id":"levelo_inurba_marseille","lat":43.26217,"lon":5.4044,"is_reserved":false,"is_disabled":false,"rental_uris":{"android":"levelo://app?vid=7eddf3c8-9763-4ec5-b5b1-c54ce34a24b0","ios":"levelo://app?vid=7eddf3c8-9763-4ec5-b5b1-c54ce34a24b0"},"vehicle_type_id":"4","last_reported":1748682562,"current_range_meters":22000,"station_id":"ce4bhmh2rcd13ifvqgmg","pricing_plan_id":"cebpf4jnsgd1na2vs0mg"},{"bike_id":"0d867b07-7427-450f-8413-2be95a9d6969","system_id":"levelo_inurba_marseille","lat":43.33036,"lon":5.39033,"is_reserved":false,"is_disabled":false,"rental_uris":{"android":"levelo://app?vid=0d867b07-7427-450f-8413-2be95a9d6969","ios":"levelo://app?vid=0d867b07-7427-450f-8413-2be95a9d6969"},"vehicle_type_id":"4","last_reported":1748682562,"current_range_meters":22000,"station_id":"ce4bhr92rcd13ifvqhrg","pricing_plan_id":"cebpf4jnsgd1na2vs0mg"},{"bike_id":"51ddde33-46f9-42bc-a28d-335b58e06c25","system_id":"levelo_inurba_marseille","lat":43.30151,"lon":5.38574,"is_reserved":false,"is_disabled":false,"rental_uris":{"android":"levelo://app?vid=51ddde33-46f9-42bc-a28d-335b58e06c25","ios":"levelo://app?vid=51ddde33-46f9-42bc-a28d-335b58e06c25"},"vehicle_type_id":"4","last_reported":1748682562,"current_range_meters":22400,"station_id":"","pricing_plan_id":"cebpf4jnsgd1na2vs0mg"},{"bike_id":"da506d33-46ff-45bf-98ea-fd6f8d041d78","system_id":"levelo_inurba_marseille","lat":43.24173,"lon":5.39729,"is_reserved":false,"is_disabled":false,"rental_uris":{"android":"levelo://app?vid=da506d33-46ff-45bf-98ea-fd6f8d041d78","ios":"levelo://app?vid=da506d33-46ff-45bf-98ea-fd6f8d041d78"},"vehicle_type_id":"4","last_reported":1748682562,"current_range_meters":22400,"station_id":"ce4bhn12rcd13ifvqgpg","pricing_plan_id":"cebpf4jnsgd1na2vs0mg"},{"bike_id":"083771e3-be36-447d-8d6a-b09e64ae627a","system_id":"levelo_inurba_marseille","lat":43.21747,"lon":5.34613,"is_reserved":false,"is_disabled":false,"rental_uris":{"android":"levelo://app?vid=083771e3-be36-447d-8d6a-b09e64ae627a","ios":"levelo://app?vid=083771e3-be36-447d-8d6a-b09e64ae627a"},"vehicle_type_id":"4","last_reported":1748682562,"current_range_meters":22400,"station_id":"st_cvj6r9ubvosntc0bgbag","pricing_plan_id":"cebpf4jnsgd1na2vs0mg"},{"bike_id":"e1ea037a-60ee-4e9a-be2a-90dd014ef996","system_id":"levelo_inurba_marseille","lat":43.303461,"lon":5.389487,"is_reserved":false,"is_disabled":false,"rental_uris":{"android":"levelo://app?vid=e1ea037a-60ee-4e9a-be2a-90dd014ef996","ios":"levelo://app?vid=e1ea037a-60ee-4e9a-be2a-90dd014ef996"},"vehicle_type_id":"4","last_reported":1748682562,"current_range_meters":22800,"station_id":"","pricing_plan_id":"cebpf4jnsgd1na2vs0mg"},{"bike_id":"48792763-3554-49e8-a40c-ee5a7e830d47","system_id":"levelo_inurba_marseille","lat":43.26557,"lon":5.37282,"is_reserved":false,"is_disabled":false,"rental_uris":{"android":"levelo://app?vid=48792763-3554-49e8-a40c-ee5a7e830d47","ios":"levelo://app?vid=48792763-3554-49e8-a40c-ee5a7e830d47"},"vehicle_type_id":"4","last_reported":1748682562,"current_range_meters":22800,"station_id":"ce4bhg12rcd13ifvqf70","pricing_plan_id":"cebpf4jnsgd1na2vs0mg"},{"bike_id":"5c0c11f3-c387-4f30-a75a-ebdb7aa4cc93","system_id":"levelo_inurba_marseille","lat":43.23064,"lon":5.35492,"is_reserved":false,"is_disabled":false,"rental_uris":{"android":"levelo://app?vid=5c0c11f3-c387-4f30-a75a-ebdb7aa4cc93","ios":"levelo://app?vid=5c0c11f3-c387-4f30-a75a-ebdb7aa4cc93"},"vehicle_type_id":"4","last_reported":1748682562,"current_range_meters":22800,"station_id":"cpo3342slgdg3j2ifvpg","pricing_plan_id":"cebpf4jnsgd1na2vs0mg"},{"bike_id":"c3f4d029-e992-4b8c-99dd-a895dcde94db","system_id":"levelo_inurba_marseille","lat":43.22928,"lon":5.35374,"is_reserved":false,"is_disabled":false,"rental_uris":{"android":"levelo://app?vid=c3f4d029-e992-4b8c-99dd-a895dcde94db","ios":"levelo://app?vid=c3f4d029-e992-4b8c-99dd-a895dcde94db"},"vehicle_type_id":"4","last_reported":1748682562,"current_range_meters":22800,"station_id":"cpo3532slgdg3j2ikp40","pricing_plan_id":"cebpf4jnsgd1na2vs0mg"},{"bike_id":"68937f43-8f83-49ad-b461-3d50ec63d583","system_id":"levelo_inurba_marseille","lat":43.21191,"lon":5.35072,"is_reserved":false,"is_disabled":false,"rental_uris":{"android":"levelo://app?vid=68937f43-8f83-49ad-b461-3d50ec63d583","ios":"levelo://app?vid=68937f43-8f83-49ad-b461-3d50ec63d583"},"vehicle_type_id":"4","last_reported":1748682562,"current_range_meters":22800,"station_id":"st_cvj6sg6p6f1abm77japg","pricing_plan_id":"cebpf4jnsgd1na2vs0mg"},{"bike_id":"4176b28e-5fa0-45a4-b63f-995bdf8ff435","system_id":"levelo_inurba_marseille","lat":43.282133,"lon":5.39048,"is_reserved":false,"is_disabled":false,"rental_uris":{"android":"levelo://app?vid=4176b28e-5fa0-45a4-b63f-995bdf8ff435","ios":"levelo://app?vid=4176b28e-5fa0-45a4-b63f-995bdf8ff435"},"vehicle_type_id":"4","last_reported":1748682562,"current_range_meters":23200,"station_id":"","pricing_plan_id":"cebpf4jnsgd1na2vs0mg"},{"bike_id":"f8c457d8-de5a-45b1-8a87-e9af34a7dffb","system_id":"levelo_inurba_marseille","lat":43.30154,"lon":5.38072,"is_reserved":false,"is_disabled":false,"rental_uris":{"android":"levelo://app?vid=f8c457d8-de5a-45b1-8a87-e9af34a7dffb","ios":"levelo://app?vid=f8c457d8-de5a-45b1-8a87-e9af34a7dffb"},"vehicle_type_id":"4","last_reported":1748682562,"current_range_meters":23200,"station_id":"ce4bgjp2rcd13ifvqbh0","pricing_plan_id":"cebpf4jnsgd1na2vs0mg"},{"bike_id":"56cd3ff4-da03-43b1-b012-480b30bba191","system_id":"levelo_inurba_marseille","lat":43.26561,"lon":5.39017,"is_reserved":false,"is_disabled":false,"rental_uris":{"android":"levelo://app?vid=56cd3ff4-da03-43b1-b012-480b30bba191","ios":"levelo://app?vid=56cd3ff4-da03-43b1-b012-480b30bba191"},