{"last_updated":1700669351,"ttl":30,"version":"2.2","data":{"bikes":[{"bike_id":"a29125bf-2348-4167-bfec-ffb53a18c2b5","system_id":"levelo_inurba_marseille","lat":43.312239,"lon":5.368562,"is_reserved":false,"is_disabled":false,"rental_uris":{"android":"levelo://app?vid=a29125bf-2348-4167-bfec-ffb53a18c2b5","ios":"levelo://app?vid=a29125bf-2348-4167-bfec-ffb53a18c2b5"},"vehicle_type_id":"4","last_reported":1700669352,"current_range_meters":16800,"station_id":"ce4bgl92rcd13ifvqbq0","pricing_plan_id":"free"},{"bike_id":"eeef4dbc-7602-4f26-b2c1-c3771c9b5dae","system_id":"levelo_inurba_marseille","lat":43.31159,"lon":5.36883,"is_reserved":false,"is_disabled":false,"rental_uris":{"android":"levelo://app?vid=eeef4dbc-7602-4f26-b2c1-c3771c9b5dae","ios":"levelo://app?vid=eeef4dbc-7602-4f26-b2c1-c3771c9b5dae"},"vehicle_type_id":"4","last_reported":1700669352,"current_range_meters":0,"station_id":"","pricing_plan_id":"free"},{"bike_id":"e09d0bd4-96ac-44ba-96a7-8298f55b5927","system_id":"levelo_inurba_marseille","lat":43.31067,"lon":5.36863,"is_reserved":false,"is_disabled":false,"rental_uris":{"android":"levelo://app?vid=e09d0bd4-96ac-44ba-96a7-8298f55b5927","ios":"levelo://app?vid=e09d0bd4-96ac-44ba-96a7-8298f55b5927"},"vehicle_type_id":"4","last_reported":1700669352,"current_range_meters":15600,"station_id":"","pricing_plan_id":"free"},{"bike_id":"4fd26d9e-d79e-42bc-bc15-ae3800382844","system_id":"levelo_inurba_marseille","lat":43.31474,"lon":5.37311,"is_reserved":false,"is_disabled":false,"rental_uris":{"android":"levelo://app?vid=4fd26d9e-d79e-42bc-bc15-ae3800382844","ios":"levelo://app?vid=4fd26d9e-d79e-42bc-bc15-ae3800382844"},"vehicle_type_id":"4","last_reported":1700669352,"current_range_meters":24800,"station_id":"ce4bgt12rcd13ifvqcd0","pricing_plan_id":"free"},{"bike_id":"a62a3de0-1076-45a0-8138-8515c0563621","system_id":"levelo_inurba_marseille","lat":43.314811,"lon":5.373103,"is_reserved":false,"is_disabled":false,"rental_uris":{"android":"levelo://app?vid=a62a3de0-1076-45a0-8138-8515c0563621","ios":"levelo://app?vid=a62a3de0-1076-45a0-8138-8515c0563621"},"vehicle_type_id":"4","last_reported":1700669352,"current_range_meters":27200,"station_id":"ce4bgt12rcd13ifvqcd0","pricing_plan_id":"free"},{"bike_id":"5a6f59b9-7c1a-4fb8-adde-f19c4ceb97a9","system_id":"levelo_inurba_marseille","lat":43.309039,"lon":5.371797,"is_reserved":false,"is_disabled":false,"rental_uris":{"android":"levelo://app?vid=5a6f59b9-7c1a-4fb8-adde-f19c4ceb97a9","ios":"levelo://app?vid=5a6f59b9-7c1a-4fb8-adde-f19c4ceb97a9"},"vehicle_type_id":"4","last_reported":1700669352,"current_range_meters":25600,"station_id":"ce4bguh2rcd13ifvqckg","pricing_plan_id":"free"},{"bike_id":"2bc311dc-da0b-403e-8cae-84f8764bc67c","system_id":"levelo_inurba_marseille","lat":43.30679,"lon":5.3679,"is_reserved":false,"is_disabled":false,"rental_uris":{"android":"levelo://app?vid=2bc311dc-da0b-403e-8cae-84f8764bc67c","ios":"levelo://app?vid=2bc311dc-da0b-403e-8cae-84f8764bc67c"},"vehicle_type_id":"4","last_reported":1700669352,"current_range_meters":0,"station_id":"","pricing_plan_id":"free"},{"bike_id":"1f76b607-19ab-418e-a6d4-0add1ce8899c","system_id":"levelo_inurba_marseille","lat":43.30544,"lon":5.36722,"is_reserved":false,"is_disabled":false,"rental_uris":{"android":"levelo://app?vid=1f76b607-19ab-418e-a6d4-0add1ce8899c","ios":"levelo://app?vid=1f76b607-19ab-418e-a6d4-0add1ce8899c"},"vehicle_type_id":"4","last_reported":1700669352,"current_range_meters":17600,"station_id":"ce4bgrp2rcd13ifvqc9g","pricing_plan_id":"free"},{"bike_id":"95583d67-b9fc-4ff1-93fd-5e2fbf3996b7","system_id":"levelo_inurba_marseille","lat":43.31961,"lon":5.3706,"is_reserved":false,"is_disabled":false,"rental_uris":{"android":"levelo://app?vid=95583d67-b9fc-4ff1-93fd-5e2fbf3996b7","ios":"levelo://app?vid=95583d67-b9fc-4ff1-93fd-5e2fbf3996b7"},"vehicle_type_id":"4","last_reported":1700669352,"current_range_meters":0,"station_id":"","pricing_plan_id":"free"},{"bike_id":"e48551df-95df-40e1-a093-530ce1dbcd0c","system_id":"levelo_inurba_marseille","lat":43.305989,"lon":5.37225,"is_reserved":false,"is_disabled":false,"rental_uris":{"android":"levelo://app?vid=e48551df-95df-40e1-a093-530ce1dbcd0c","ios":"levelo://app?vid=e48551df-95df-40e1-a093-530ce1dbcd0c"},"vehicle_type_id":"4","last_reported":1700669352,"current_range_meters":0,"station_id":"ce4bgqh2rcd13ifvqc4g","pricing_plan_id":"free"},{"bike_id":"9c59ee1b-fa2b-4ae8-9396-45be4b184b8e","system_id":"levelo_inurba_marseille","lat":43.305989,"lon":5.37225,"is_reserved":false,"is_disabled":false,"rental_uris":{"android":"levelo://app?vid=9c59ee1b-fa2b-4ae8-9396-45be4b184b8e","ios":"levelo://app?vid=9c59ee1b-fa2b-4ae8-9396-45be4b184b8e"},"vehicle_type_id":"4","last_reported":1700669352,"current_range_meters":2000,"station_id":"ce4bgqh2rcd13ifvqc4g","pricing_plan_id":"free"},{"bike_id":"0a37742b-d1c1-482b-9ff7-9d11e616f54c","system_id":"levelo_inurba_marseille","lat":43.311131,"lon":5.377651,"is_reserved":false,"is_disabled":false,"rental_uris":{"android":"levelo://app?vid=0a37742b-d1c1-482b-9ff7-9d11e616f54c","ios":"levelo://app?vid=0a37742b-d1c1-482b-9ff7-9d11e616f54c"},"vehicle_type_id":"4","last_reported":1700669352,"current_range_meters":18400,"station_id":"ce4bgt92rcd13ifvqcg0","pricing_plan_id":"free"},{"bike_id":"0e1f396e-2494-4f4c-adae-ef63010a2d23","system_id":"levelo_inurba_marseille","lat":43.311722,"lon":5.387247,"is_reserved":false,"is_disabled":false,"rental_uris":{"android":"levelo://app?vid=0e1f396e-2494-4f4c-adae-ef63010a2d23","ios":"levelo://app?vid=0e1f396e-2494-4f4c-adae-ef63010a2d23"},"vehicle_type_id":"4","last_reported":1700669352,"current_range_meters":12800,"station_id":"ce4bgv12rcd13ifvqcp0","pricing_plan_id":"free"},{"bike_id":"a01947ce-d3f1-4178-a24b-0cddef23cdbe","system_id":"levelo_inurba_marseille","lat":43.303199,"lon":5.366189,"is_reserved":false,"is_disabled":false,"rental_uris":{"android":"levelo://app?vid=a01947ce-d3f1-4178-a24b-0cddef23cdbe","ios":"levelo://app?vid=a01947ce-d3f1-4178-a24b-0cddef23cdbe"},"vehicle_type_id":"4","last_reported":1700669352,"current_range_meters":0,"station_id":"","pricing_plan_id":"free"},{"bike_id":"a5400413-db9a-43cb-aeb0-e476734d171a","system_id":"levelo_inurba_marseille","lat":43.30318,"lon":5.36924,"is_reserved":false,"is_disabled":false,"rental_uris":{"android":"levelo://app?vid=a5400413-db9a-43cb-aeb0-e476734d171a","ios":"levelo://app?vid=a5400413-db9a-43cb-aeb0-e476734d171a"},"vehicle_type_id":"4","last_reported":1700669352,"current_range_meters":31200,"station_id":"ce4bgqh2rcd13ifvqc5g","pricing_plan_id":"free"},{"bike_id":"0327687b-f51e-4077-bf49-2ec73a6de092","system_id":"levelo_inurba_marseille","lat":43.32233,"lon":5.37561,"is_reserved":false,"is_disabled":false,"rental_uris":{"android":"levelo://app?vid=0327687b-f51e-4077-bf49-2ec73a6de092","ios":"levelo://app?vid=0327687b-f51e-4077-bf49-2ec73a6de092"},"vehicle_type_id":"4","last_reported":1700669352,"current_range_meters":15600,"station_id":"","pricing_plan_id":"free"},{"bike_id":"a037806c-504f-410e-8380-5102d23eea79","system_id":"levelo_inurba_marseille","lat":43.324771,"lon":5.36557,"is_reserved":false,"is_disabled":false,"rental_uris":{"android":"levelo://app?vid=a037806c-504f-410e-8380-5102d23eea79","ios":"levelo://app?vid=a037806c-504f-410e-8380-5102d23eea79"},"vehicle_type_id":"4","last_reported":1700669352,"current_range_meters":26400,"station_id":"ce4bhs12rcd13ifvqhvg","pricing_plan_id":"free"},{"bike_id":"afa921fc-ca50-4532-aeb1-1de14ee2fe50","system_id":"levelo_inurba_marseille","lat":43.324771,"lon":5.36557,"is_reserved":false,"is_disabled":false,"rental_uris":{"android":"levelo://app?vid=afa921fc-ca50-4532-aeb1-1de14ee2fe50","ios":"levelo://app?vid=afa921fc-ca50-4532-aeb1-1de14ee2fe50"},"vehicle_type_id":"4","last_reported":1700669352,"current_range_meters":20800,"station_id":"ce4bhs12rcd13ifvqhvg","pricing_plan_id":"free"},{"bike_id":"b85a677b-a395-4a00-96fb-2879f057fbc7","system_id":"levelo_inurba_marseille","lat":43.32481,"lon":5.36559,"is_reserved":false,"is_disabled":false,"rental_uris":{"android":"levelo://app?vid=b85a677b-a395-4a00-96fb-2879f057fbc7","ios":"levelo://app?vid=b85a677b-a395-4a00-96fb-2879f057fbc7"},"vehicle_type_id":"4","last_reported":1700669352,"current_range_meters":18000,"station_id":"ce4bhs12rcd13ifvqhvg","pricing_plan_id":"free"},{"bike_id":"81677248-71b0-43bd-b905-bc8b6394ea44","system_id":"levelo_inurba_marseille","lat":43.302784,"lon":5.377158,"is_reserved":false,"is_disabled":false,"rental_uris":{"android":"levelo://app?vid=81677248-71b0-43bd-b905-bc8b6394ea44","ios":"levelo://app?vid=81677248-71b0-43bd-b905-bc8b6394ea44"},"vehicle_type_id":"4","last_reported":1700669352,"current_range_meters":20800,"station_id":"ce4bguh2rcd13ifvqcj0","pricing_plan_id":"free"},{"bike_id":"4c1e0277-ce6e-4d4c-a4b0-c0645b9210da","system_id":"levelo_inurba_marseille","lat":43.310936,"lon":5.383802,"is_reserved":false,"is_disabled":false,"rental_uris":{"android":"levelo://app?vid=4c1e0277-ce6e-4d4c-a4b0-c0645b9210da","ios":"levelo://app?vid=4c1e0277-ce6e-4d4c-a4b0-c0645b9210da"},"vehicle_type_id":"4","last_reported":1700669352,"current_range_meters":0,"station_id":"","pricing_plan_id":"free"},{"bike_id":"c9a43a87-4d67-4fef-a7da-eab0efd6b916","system_id":"levelo_inurba_marseille","lat":43.32226,"lon":5.37924,"is_reserved":false,"is_disabled":false,"rental_uris":{"android":"levelo://app?vid=c9a43a87-4d67-4fef-a7da-eab0efd6b916","ios":"levelo://app?vid=c9a43a87-4d67-4fef-a7da-eab0efd6b916"},"vehicle_type_id":"4","last_reported":1700669352,"current_range_meters":6000,"station_id":"","pricing_plan_id":"free"},{"bike_id":"d0d27da0-4839-4524-8296-cd8fe0ba788f","system_id":"levelo_inurba_marseille","lat":43.313642,"lon":5.384941,"is_reserved":false,"is_disabled":false,"rental_uris":{"android":"levelo://app?vid=d0d27da0-4839-4524-8296-cd8fe0ba788f","ios":"levelo://app?vid=d0d27da0-4839-4524-8296-cd8fe0ba788f"},"vehicle_type_id":"4","last_reported":1700669352,"current_range_meters":20000,"station_id":"","pricing_plan_id":"free"},{"bike_id":"0721e1cd-e9a6-421b-ba18-3a82da34cdcd","system_id":"levelo_inurba_marseille","lat":43.313571,"lon":5.384829,"is_reserved":false,"is_disabled":false,"rental_uris":{"android":"levelo://app?vid=0721e1cd-e9a6-421b-ba18-3a82da34cdcd","ios":"levelo://app?vid=0721e1cd-e9a6-421b-ba18-3a82da34cdcd"},"vehicle_type_id":"4","last_reported":1700669352,"current_range_meters":29200,"station_id":"ce4bgt92rcd13ifvqcf0","pricing_plan_id":"free"},{"bike_id":"ecb9e206-b532-48a6-a31c-00a8fa9a7c13","system_id":"levelo_inurba_marseille","lat":43.313571,"lon":5.384829,"is_reserved":false,"is_disabled":false,"rental_uris":{"android":"levelo://app?vid=ecb9e206-b532-48a6-a31c-00a8fa9a7c13","ios":"levelo://app?vid=ecb9e206-b532-48a6-a31c-00a8fa9a7c13"},"vehicle_type_id":"4","last_reported":1700669352,"current_range_meters":17600,"station_id":"ce4bgt92rcd13ifvqcf0","pricing_plan_id":"free"},{"bike_id":"028d09a6-732d-40a1-bd3d-3fc5af7dd9ef","system_id":"levelo_inurba_marseille","lat":43.29938,"lon":5.36556,"is_reserved":false,"is_disabled":false,"rental_uris":{"android":"levelo://app?vid=028d09a6-732d-40a1-bd3d-3fc5af7dd9ef","ios":"levelo://app?vid=028d09a6-732d-40a1-bd3d-3fc5af7dd9ef"},"vehicle_type_id":"4","last_reported":1700669352,"current_range_meters":24800,"station_id":"","pricing_plan_id":"free"},{"bike_id":"7adf23c6-e709-4000-8df0-4b31b746ce4e","system_id":"levelo_inurba_marseille","lat":43.311722,"lon":5.387247,"is_reserved":false,"is_disabled":false,"rental_uris":{"android":"levelo://app?vid=7adf23c6-e709-4000-8df0-4b31b746ce4e","ios":"levelo://app?vid=7adf23c6-e709-4000-8df0-4b31b746ce4e"},"vehicle_type_id":"4","last_reported":1700669352,"current_range_meters":27200,"station_id":"ce4bgv12rcd13ifvqcp0","pricing_plan_id":"free"},{"bike_id":"45a71e8a-4fc7-4719-a2b4-46cde41e194b","system_id":"levelo_inurba_marseille","lat":43.311722,"lon":5.387247,"is_reserved":false,"is_disabled":false,"rental_uris":{"android":"levelo://app?vid=45a71e8a-4fc7-4719-a2b4-46cde41e194b","ios":"levelo://app?vid=45a71e8a-4fc7-4719-a2b4-46cde41e194b"},"vehicle_type_id":"4","last_reported":1700669352,"current_range_meters":800,"station_id":"ce4bgv12rcd13ifvqcp0","pricing_plan_id":"free"},{"bike_id":"0690334f-fe03-485d-9a06-e882fd43e104","system_id":"levelo_inurba_marseille","lat":43.297794,"lon":5.370888,"is_reserved":false,"is_disabled":false,"rental_uris":{"android":"levelo://app?vid=0690334f-fe03-485d-9a06-e882fd43e104","ios":"levelo://app?vid=0690334f-fe03-485d-9a06-e882fd43e104"},"vehicle_type_id":"4","last_reported":1700669352,"current_range_meters":16800,"station_id":"ce4bgop2rcd13ifvqc1g","pricing_plan_id":"free"},{"bike_id":"92e10922-a430-4783-af90-54913b915e80","system_id":"levelo_inurba_marseille","lat":43.322872,"lon":5.382756,"is_reserved":false,"is_disabled":false,"rental_uris":{"android":"levelo://app?vid=92e10922-a430-4783-af90-54913b915e80","ios":"levelo://app?vid=92e10922-a430-4783-af90-54913b915e80"},"vehicle_type_id":"4","last_reported":1700669352,"current_range_meters":28400,"station_id":"ce4bhr12rcd13ifvqhqg","pricing_plan_id":"free"},{"bike_id":"8f974b3e-81b1-4fd6-af00-794122b614f6","system_id":"levelo_inurba_marseille","lat":43.297163,"lon":5.365866,"is_reserved":false,"is_disabled":false,"rental_uris":{"android":"levelo://app?vid=8f974b3e-81b1-4fd6-af00-794122b614f6","ios":"levelo://app?vid=8f974b3e-81b1-4fd6-af00-794122b614f6"},"vehicle_type_id":"4","last_reported":1700669352,"current_range_meters":22000,"station_id":"ce4bgn12rcd13ifvqbt0","pricing_plan_id":"free"},{"bike_id":"4d7509f5-9559-42ca-a60d-bef9e80f0981","system_id":"levelo_inurba_marseille","lat":43.299594,"lon":5.379134,"is_reserved":false,"is_disabled":false,"rental_uris":{"android":"levelo://app?vid=4d7509f5-9559-42ca-a60d-bef9e80f0981","ios":"levelo://app?vid=4d7509f5-9559-42ca-a60d-bef9e80f0981"},"vehicle_type_id":"4","last_reported":1700669352,"current_range_meters":0,"station_id":"","pricing_plan_id":"free"},{"bike_id":"97542179-68cc-427b-a253-d386d88a1d61","system_id":"levelo_inurba_marseille","lat":43.29685,"lon":5.3688,"is_reserved":false,"is_disabled":false,"rental_uris":{"android":"levelo://app?vid=97542179-68cc-427b-a253-d386d88a1d61","ios":"levelo://app?vid=97542179-68cc-427b-a253-d386d88a1d61"},"vehicle_type_id":"4","last_reported":1700669352,"current_range_meters":3200,"station_id":"","pricing_plan_id":"free"},{"bike_id":"7f44dcbb-4e79-4851-84e0-1210e30606aa","system_id":"levelo_inurba_marseille","lat":43.2968,"lon":5.37291,"is_reserved":false,"is_disabled":false,"rental_uris":{"android":"levelo://app?vid=7f44dcbb-4e79-4851-84e0-1210e30606aa","ios":"levelo://app?vid=7f44dcbb-4e79-4851-84e0-1210e30606aa"},"vehicle_type_id":"4","last_reported":1700669352,"current_range_meters":0,"station_id":"ce4bgk12rcd13ifvqbj0","pricing_plan_id":"free"},{"bike_id":"f2e29894-d678-42aa-87e5-1b70dec5c0b1","system_id":"levelo_inurba_marseille","lat":43.295993,"lon":5.3614,"is_reserved":false,"is_disabled":false,"rental_uris":{"android":"levelo://app?vid=f2e29894-d678-42aa-87e5-1b70dec5c0b1","ios":"levelo://app?vid=f2e29894-d678-42aa-87e5-1b70dec5c0b1"},"vehicle_type_id":"4","last_reported":1700669352,"current_range_meters":2400,"station_id":"","pricing_plan_id":"free"},{"bike_id":"9fb402a7-7a41-4473-81d2-1fec663a6035","system_id":"levelo_inurba_marseille","lat":43.30558,"lon":5.38885,"is_reserved":false,"is_disabled":false,"rental_uris":{"android":"levelo://app?vid=9fb402a7-7a41-4473-81d2-1fec663a6035","ios":"levelo://app?vid=9fb402a7-7a41-4473-81d2-1fec663a6035"},"vehicle_type_id":"4","last_reported":1700669352,"current_range_meters":24400,"station_id":"","pricing_plan_id":"free"},{"bike_id":"306c510d-7603-4c4a-801a-6729796c7cbf","system_id":"levelo_inurba_marseille","lat":43.30422,"lon":5.38871,"is_reserved":false,"is_disabled":false,"rental_uris":{"android":"levelo://app?vid=306c510d-7603-4c4a-801a-6729796c7cbf","ios":"levelo://app?vid=306c510d-7603-4c4a-801a-6729796c7cbf"},"vehicle_type_id":"4","last_reported":1700669352,"current_range_meters":1200,"station_id":"","pricing_plan_id":"free"},{"bike_id":"ef87cc7f-76fa-4c3d-a9ad-99a95639cedc","system_id":"levelo_inurba_marseille","lat":43.298037,"lon":5.381066,"is_reserved":false,"is_disabled":false,"rental_uris":{"android":"levelo://app?vid=ef87cc7f-76fa-4c3d-a9ad-99a95639cedc","ios":"levelo://app?vid=ef87cc7f-76fa-4c3d-a9ad-99a95639cedc"},"vehicle_type_id":"4","last_reported":1700669352,"current_range_meters":3200,"station_id":"ce4bgip2rcd13ifvqbb0","pricing_plan_id":"free"},{"bike_id":"6bb649fa-5aaf-41be-bdab-f59c4618f91b","system_id":"levelo_inurba_marseille","lat":43.304274,"lon":5.388873,"is_reserved":false,"is_disabled":false,"rental_uris":{"android":"levelo://app?vid=6bb649fa-5aaf-41be-bdab-f59c4618f91b","ios":"levelo://app?vid=6bb649fa-5aaf-41be-bdab-f59c4618f91b"},"vehicle_type_id":"4","last_reported":1700669352,"current_range_meters":15600,"station_id":"ce4bgk12rcd13ifvqbi0","pricing_plan_id":"free"},{"bike_id":"f82109d1-39e0-4d2a-b907-7650ffd23a50","system_id":"levelo_inurba_marseille","lat":43.298037,"lon":5.381066,"is_reserved":false,"is_disabled":false,"rental_uris":{"android":"levelo://app?vid=f82109d1-39e0-4d2a-b907-7650ffd23a50","ios":"levelo://app?vid=f82109d1-39e0-4d2a-b907-7650ffd23a50"},"vehicle_type_id":"4","last_reported":1700669352,"current_range_meters":0,"station_id":"ce4bgip2rcd13ifvqbb0","pricing_plan_id":"free"},{"bike_id":"3833cc80-b760-4450-b700-2faef396d112","system_id":"levelo_inurba_marseille","lat":43.304278,"lon":5.388868,"is_reserved":false,"is_disabled":false,"rental_uris":{"android":"levelo://app?vid=3833cc80-b760-4450-b700-2faef396d112","ios":"levelo://app?vid=3833cc80-b760-4450-b700-2faef396d112"},"vehicle_type_id":"4","last_reported":1700669352,"current_range_meters":2400,"station_id":"ce4bgk12rcd13ifvqbi0","pricing_plan_id":"free"},{"bike_id":"3059d4c1-3d42-4321-a339-0fea9a03ef82","system_id":"levelo_inurba_marseille","lat":43.328154,"lon":5.380034,"is_reserved":false,"is_disabled":false,"rental_uris":{"android":"levelo://app?vid=3059d4c1-3d42-4321-a339-0fea9a03ef82","ios":"levelo://app?vid=3059d4c1-3d42-4321-a339-0fea9a03ef82"},"vehicle_type_id":"4","last_reported":1700669352,"current_range_meters":0,"station_id":"","pricing_plan_id":"free"},{"bike_id":"2bbd7f03-6e57-482e-895c-671659723a06","system_id":"levelo_inurba_marseille","lat":43.29974,"lon":5.38492,"is_reserved":false,"is_disabled":false,"rental_uris":{"android":"levelo://app?vid=2bbd7f03-6e57-482e-895c-671659723a06","ios":"levelo://app?vid=2bbd7f03-6e57-482e-895c-671659723a06"},"vehicle_type_id":"4","last_reported":1700669352,"current_range_meters":0,"station_id":"ce4bgj92rcd13ifvqbd0","pricing_plan_id":"free"},{"bike_id":"6b621983-5e9e-42f7-990d-ad5a093820d2","system_id":"levelo_inurba_marseille","lat":43.293801,"lon":5.363066,"is_reserved":false,"is_disabled":false,"rental_uris":{"android":"levelo://app?vid=6b621983-5e9e-42f7-990d-ad5a093820d2","ios":"levelo://app?vid=6b621983-5e9e-42f7-990d-ad5a093820d2"},"vehicle_type_id":"4","last_reported":1700669352,"current_range_meters":11600,"station_id":"","pricing_plan_id":"free"},{"bike_id":"8ba68f66-c2e1-41cc-8b65-6733f5acb34f","system_id":"levelo_inurba_marseille","lat":43.32366,"lon":5.38888,"is_reserved":false,"is_disabled":false,"rental_uris":{"android":"levelo://app?vid=8ba68f66-c2e1-41cc-8b65-6733f5acb34f","ios":"levelo://app?vid=8ba68f66-c2e1-41cc-8b65-6733f5acb34f"},"vehicle_type_id":"4","last_reported":1700669352,"current_range_meters":3600,"station_id":"ce4bhqp2rcd13ifvqhog","pricing_plan_id":"free"},{"bike_id":"a7516970-26f7-4025-8d4d-7f1fdc464015","system_id":"levelo_inurba_marseille","lat":43.29602,"lon":5.381084,"is_reserved":false,"is_disabled":false,"rental_uris":{"android":"levelo://app?vid=a7516970-26f7-4025-8d4d-7f1fdc464015","ios":"levelo://app?vid=a7516970-26f7-4025-8d4d-7f1fdc464015"},"vehicle_type_id":"4","last_reported":1700669352,"current_range_meters":27600,"station_id":"ce4bgl12rcd13ifvqbo0","pricing_plan_id":"free"},{"bike_id":"d08f04bf-d1cb-49fb-9aa7-04e7f7676b3c","system_id":"levelo_inurba_marseille","lat":43.323405,"lon":5.389588,"is_reserved":false,"is_disabled":false,"rental_uris":{"android":"levelo://app?vid=d08f04bf-d1cb-49fb-9aa7-04e7f7676b3c","ios":"levelo://app?vid=d08f04bf-d1cb-49fb-9aa7-04e7f7676b3c"},"vehicle_type_id":"4","last_reported":1700669352,"current_range_meters":0,"station_id":"","pricing_plan_id":"free"},{"bike_id":"3d008757-c083-4cc2-a691-87f4228c7584","system_id":"levelo_inurba_marseille","lat":43.302992,"lon":5.392136,"is_reserved":false,"is_disabled":false,"rental_uris":{"android":"levelo://app?vid=3d008757-c083-4cc2-a691-87f4228c7584","ios":"levelo://app?vid=3d008757-c083-4cc2-a691-87f4228c7584"},"vehicle_type_id":"4","last_reported":1700669352,"current_range_meters":1600,"station_id":"ce4bgkh2rcd13ifvqbk0","pricing_plan_id":"free"},{"bike_id":"b8dcc647-7b18-4162-a0e6-411d4f20d791","system_id":"levelo_inurba_marseille","lat":43.2936,"lon":5.37835,"is_reserved":false,"is_disabled":false,"rental_uris":{"android":"levelo://app?vid=b8dcc647-7b18-4162-a0e6-411d4f20d791","ios":"levelo://app?vid=b8dcc647-7b18-4162-a0e6-411d4f20d791"},"vehicle_type_id":"4","last_reported":1700669352,"current_range_meters":10400,"station_id":"ce4bgjh2rcd13ifvqbf0","pricing_plan_id":"free"},{"bike_id":"35bee0fb-0d01-48e8-bb56-818e7fdb49c4","system_id":"levelo_inurba_marseille","lat":43.292311,"lon":5.360731,"is_reserved":false,"is_disabled":false,"rental_uris":{"android":"levelo://app?vid=35bee0fb-0d01-48e8-bb56-818e7fdb49c4","ios":"levelo://app?vid=35bee0fb-0d01-48e8-bb56-818e7fdb49c4"},"vehicle_type_id":"4","last_reported":1700669352,"current_range_meters":23600,"station_id":"ce4bhbh2rcd13ifvqeqg","pricing_plan_id":"free"},{"bike_id":"6072158e-3622-445d-8b96-c7392b61870f","system_id":"levelo_inurba_marseille","lat":43.300852,"lon":5.390859,"is_reserved":false,"is_disabled":false,"rental_uris":{"android":"levelo://app?vid=6072158e-3622-445d-8b96-c7392b61870f","ios":"levelo://app?vid=6072158e-3622-445d-8b96-c7392b61870f"},"vehicle_type_id":"4","last_reported":1700669352,"current_range_meters":12800,"station_id":"ce4bh192rcd13ifvqdb0","pricing_plan_id":"free"},{"bike_id":"5edb5014-17a1-4c63-8cc3-fe44f2d4a29a","system_id":"levelo_inurba_marseille","lat":43.30085,"lon":5.390856,"is_reserved":false,"is_disabled":false,"rental_uris":{"android":"levelo://app?vid=5edb5014-17a1-4c63-8cc3-fe44f2d4a29a","ios":"levelo://app?vid=5edb5014-17a1-4c63-8cc3-fe44f2d4a29a"},"vehicle_type_id":"4","last_reported":1700669352,"current_range_meters":2800,"station_id":"ce4bh192rcd13ifvqdb0","pricing_plan_id":"free"},{"bike_id":"15fb7be1-37c2-4071-a07c-84adfcd40b17","system_id":"levelo_inurba_marseille","lat":43.299,"lon":5.38896,"is_reserved":false,"is_disabled":false,"rental_uris":{"android":"levelo://app?vid=15fb7be1-37c2-4071-a07c-84adfcd40b17","ios":"levelo://app?vid=15fb7be1-37c2-4071-a07c-84adfcd40b17"},"vehicle_type_id":"4","last_reported":1700669352,"current_range_meters":2000,"station_id":"","pricing_plan_id":"free"},{"bike_id":"6eba0384-d29f-43d0-bedb-4941aaddc507","system_id":"levelo_inurba_marseille","lat":43.298764,"lon":5.388973,"is_reserved":false,"is_disabled":false,"rental_uris":{"android":"levelo://app?vid=6eba0384-d29f-43d0-bedb-4941aaddc507","ios":"levelo://app?vid=6eba0384-d29f-43d0-bedb-4941aaddc507"},"vehicle_type_id":"4","last_reported":1700669352,"current_range_meters":24800,"station_id":"ce4bh392rcd13ifvqdl0","pricing_plan_id":"free"},{"bike_id":"8865d0a3-802f-4181-afbf-1f6f0e6b2e54","system_id":"levelo_inurba_marseille","lat":43.291938,"lon":5.357943,"is_reserved":false,"is_disabled":false,"rental_uris":{"android":"levelo://app?vid=8865d0a3-802f-4181-afbf-1f6f0e6b2e54","ios":"levelo://app?vid=8865d0a3-802f-4181-afbf-1f6f0e6b2e54"},"vehicle_type_id":"4","last_reported":1700669352,"current_range_meters":0,"station_id":"ce4bhb12rcd13ifvqel0","pricing_plan_id":"free"},{"bike_id":"0569a513-048c-41b3-b0cb-e30015b26cb2","system_id":"levelo_inurba_marseille","lat":43.291994,"lon":5.357886,"is_reserved":false,"is_disabled":false,"rental_uris":{"android":"levelo://app?vid=0569a513-048c-41b3-b0cb-e30015b26cb2","ios":"levelo://app?vid=0569a513-048c-41b3-b0cb-e30015b26cb2"},"vehicle_type_id":"4","last_reported":1700669352,"current_range_meters":0,"station_id":"ce4bhb12rcd13ifvqel0","pricing_plan_id":"free"},{"bike_id":"c2682f00-45bb-4969-930e-b99fbc9cb9fb","system_id":"levelo_inurba_marseille","lat":43.309038,"lon":5.396546,"is_reserved":false,"is_disabled":false,"rental_uris":{"android":"levelo://app?vid=c2682f00-45bb-4969-930e-b99fbc9cb9fb","ios":"levelo://app?vid=c2682f00-45bb-4969-930e-b99fbc9cb9fb"},"vehicle_type_id":"4","last_reported":1700669352,"current_range_meters":7600,"station_id":"ce4bh012rcd13ifvqcv0","pricing_plan_id":"free"},{"bike_id":"1d10a1b1-d55f-4279-928a-9c6858f32ca9","system_id":"levelo_inurba_marseille","lat":43.33211,"lon":5.38112,"is_reserved":false,"is_disabled":false,"rental_uris":{"android":"levelo://app?vid=1d10a1b1-d55f-4279-928a-9c6858f32ca9","ios":"levelo://app?vid=1d10a1b1-d55f-4279-928a-9c6858f32ca9"},"vehicle_type_id":"4","last_reported":1700669352,"current_range_meters":3200,"station_id":"","pricing_plan_id":"free"},{"bike_id":"ea470843-203c-4127-9ed2-9d2447df6321","system_id":"levelo_inurba_marseille","lat":43.290631,"lon":5.359244,"is_reserved":false,"is_disabled":false,"rental_uris":{"android":"levelo://app?vid=ea470843-203c-4127-9ed2-9d2447df6321","ios":"levelo://app?vid=ea470843-203c-4127-9ed2-9d2447df6321"},"vehicle_type_id":"4","last_reported":1700669352,"current_range_meters":19600,"station_id":"ce4bha92rcd13ifvqeg0","pricing_plan_id":"free"},{"bike_id":"6f198628-ed97-45aa-b4ea-58950eff12ba","system_id":"levelo_inurba_marseille","lat":43.290624,"lon":5.359245,"is_reserved":false,"is_disabled":false,"rental_uris":{"android":"levelo://app?vid=6f198628-ed97-45aa-b4ea-58950eff12ba","ios":"levelo://app?vid=6f198628-ed97-45aa-b4ea-58950eff12ba"},"vehicle_type_id":"4","last_reported":1700669352,"current_range_meters":22800,"station_id":"ce4bha92rcd13ifvqeg0","pricing_plan_id":"free"},{"bike_id":"9eaf58cf-0e08-4529-9d9e-505d632edb6f","system_id":"levelo_inurba_marseille","lat":43.294153,"lon":5.386305,"is_reserved":false,"is_disabled":false,"rental_uris":{"android":"levelo://app?vid=9eaf58cf-0e08-4529-9d9e-505d632edb6f","ios":"levelo://app?vid=9eaf58cf-0e08-4529-9d9e-505d632edb6f"},"vehicle_type_id":"4","last_reported":1700669352,"current_range_meters":5600,"station_id":"ce4bh2h2rcd13ifvqdh0","pricing_plan_id":"free"},{"bike_id":"4e9a6bca-5cd9-4f79-9bf7-7277d92ac3ff","system_id":"levelo_inurba_marseille","lat":43.294162,"lon":5.386292,"is_reserved":false,"is_disabled":false,"rental_uris":{"android":"levelo://app?vid=4e9a6bca-5cd9-4f79-9bf7-7277d92ac3ff","ios":"levelo://app?vid=4e9a6bca-5cd9-4f79-9bf7-7277d92ac3ff"},"vehicle_type_id":"4","last_reported":1700669352,"current_range_meters":0,"station_id":"ce4bh2h2rcd13ifvqdh0","pricing_plan_id":"free"},{"bike_id":"ee1e88d5-4e69-4047-9ff0-39c779d1fe44","system_id":"levelo_inurba_marseille","lat":43.28949,"lon":5.364,"is_reserved":false,"is_disabled":false,"rental_uris":{"android":"levelo://app?vid=ee1e88d5-4e69-4047-9ff0-39c779d1fe44","ios":"levelo://app?vid=ee1e88d5-4e69-4047-9ff0-39c779d1fe44"},"vehicle_type_id":"4","last_reported":1700669352,"current_range_meters":28400,"station_id":"ce4bhc92rcd13ifvqetg","pricing_plan_id":"free"},{"bike_id":"5dba79d2-c5b9-49b3-bb84-fdd90900d2d8","system_id":"levelo_inurba_marseille","lat":43.295169,"lon":5.390426,"is_reserved":false,"is_disabled":false,"rental_uris":{"android":"levelo://app?vid=5dba79d2-c5b9-49b3-bb84-fdd90900d2d8","ios":"levelo://app?vid=5dba79d2-c5b9-49b3-bb84-fdd90900d2d8"},"vehicle_type_id":"4","last_reported":1700669352,"current_range_meters":0,"station_id":"ce4bh3p2rcd13ifvqdp0","pricing_plan_id":"free"},{"bike_id":"97bd08fc-ad45-464e-90c4-80129076e94b","system_id":"levelo_inurba_marseille","lat":43.28856,"lon":5.358371,"is_reserved":false,"is_disabled":false,"rental_uris":{"android":"levelo://app?vid=97bd08fc-ad45-464e-90c4-80129076e94b","ios":"levelo://app?vid=97bd08fc-ad45-464e-90c4-80129076e94b"},"vehicle_type_id":"4","last_reported":1700669352,"current_range_meters":10000,"station_id":"ce4bhb12rcd13ifvqem0","pricing_plan_id":"free"},{"bike_id":"aad9a792-6976-4183-919a-aef819ff2e25","system_id":"levelo_inurba_marseille","lat":43.31251,"lon":5.40162,"is_reserved":false,"is_disabled":false,"rental_uris":{"android":"levelo://app?vid=aad9a792-6976-4183-919a-aef819ff2e25","ios":"levelo://app?vid=aad9a792-6976-4183-919a-aef819ff2e25"},"vehicle_type_id":"4","last_reported":1700669352,"current_range_meters":0,"station_id":"","pricing_plan_id":"free"},{"bike_id":"dacee673-c46e-467e-85ef-7df9d68b1cc6","system_id":"levelo_inurba_marseille","lat":43.312609,"lon":5.401662,"is_reserved":false,"is_disabled":false,"rental_uris":{"android":"levelo://app?vid=dacee673-c46e-467e-85ef-7df9d68b1cc6","ios":"levelo://app?vid=dacee673-c46e-467e-85ef-7df9d68b1cc6"},"vehicle_type_id":"4","last_reported":1700669352,"current_range_meters":4800,"station_id":"ce4bh092rcd13ifvqd30","pricing_plan_id":"free"},{"bike_id":"950e4fde-8e87-4eb1-9956-1d0987779329","system_id":"levelo_inurba_marseille","lat":43.338043,"lon":5.368083,"is_reserved":false,"is_disabled":false,"rental_uris":{"android":"levelo://app?vid=950e4fde-8e87-4eb1-9956-1d0987779329","ios":"levelo://app?vid=950e4fde-8e87-4eb1-9956-1d0987779329"},"vehicle_type_id":"4","last_reported":1700669352,"current_range_meters":0,"station_id":"","pricing_plan_id":"free"},{"bike_id":"f4ae8474-4b83-4376-b658-f065c0f1461e","system_id":"levelo_inurba_marseille","lat":43.312609,"lon":5.401662,"is_reserved":false,"is_disabled":false,"rental_uris":{"android":"levelo://app?vid=f4ae8474-4b83-4376-b658-f065c0f1461e","ios":"levelo://app?vid=f4ae8474-4b83-4376-b658-f065c0f1461e"},"vehicle_type_id":"4","last_reported":1700669352,"current_range_meters":400,"station_id":"ce4bh092rcd13ifvqd30","pricing_plan_id":"free"},{"bike_id":"a64e2e92-e9f4-47f5-a45e-85e68b98a86a","system_id":"levelo_inurba_marseille","lat":43.33748,"lon":5.37462,"is_reserved":false,"is_disabled":false,"rental_uris":{"android":"levelo://app?vid=a64e2e92-e9f4-47f5-a45e-85e68b98a86a","ios":"levelo://app?vid=a64e2e92-e9f4-47f5-a45e-85e68b98a86a"},"vehicle_type_id":"4","last_reported":1700669352,"current_range_meters":28800,"station_id":"","pricing_plan_id":"free"},{"bike_id":"5ca1769b-9d48-478e-b544-da316599e94d","system_id":"levelo_inurba_marseille","lat":43.33749,"lon":5.37456,"is_reserved":false,"is_disabled":false,"rental_uris":{"android":"levelo://app?vid=5ca1769b-9d48-478e-b544-da316599e94d","ios":"levelo://app?vid=5ca1769b-9d48-478e-b544-da316599e94d"},"vehicle_type_id":"4","last_reported":1700669352,"current_range_meters":23600,"station_id":"","pricing_plan_id":"free"},{"bike_id":"45c50b00-798d-4d73-a32e-8aa52fed9e79","system_id":"levelo_inurba_marseille","lat":43.337541,"lon":5.37447,"is_reserved":false,"is_disabled":false,"rental_uris":{"android":"levelo://app?vid=45c50b00-798d-4d73-a32e-8aa52fed9e79","ios":"levelo://app?vid=45c50b00-798d-4d73-a32e-8aa52fed9e79"},"vehicle_type_id":"4","last_reported":1700669352,"current_range_meters":30000,"station_id":"","pricing_plan_id":"free"},{"bike_id":"a5e23852-272e-4bf0-926f-90631096197d","system_id":"levelo_inurba_marseille","lat":43.33752,"lon":5.37473,"is_reserved":false,"is_disabled":false,"rental_uris":{"android":"levelo://app?vid=a5e23852-272e-4bf0-926f-90631096197d","ios":"levelo://app?vid=a5e23852-272e-4bf0-926f-90631096197d"},"vehicle_type_id":"4","last_reported":1700669352,"current_range_meters":21600,"station_id":"","pricing_plan_id":"free"},{"bike_id":"d42732ee-3d1a-47b1-9598-db3afd7b4663","system_id":"levelo_inurba_marseille","lat":43.33755,"lon":5.37466,"is_reserved":false,"is_disabled":false,"rental_uris":{"android":"levelo://app?vid=d42732ee-3d1a-47b1-9598-db3afd7b4663","ios":"levelo://app?vid=d42732ee-3d1a-47b1-9598-db3afd7b4663"},"vehicle_type_id":"4","last_reported":1700669352,"current_range_meters":26000,"station_id":"","pricing_plan_id":"free"},{"bike_id":"6b64ffb3-5882-4c04-ac6b-c6a9baa631c2","system_id":"levelo_inurba_marseille","lat":43.337631,"lon":5.374538,"is_reserved":false,"is_disabled":false,"rental_uris":{"android":"levelo://app?vid=6b64ffb3-5882-4c04-ac6b-c6a9baa631c2","ios":"levelo://app?vid=6b64ffb3-5882-4c04-ac6b-c6a9baa631c2"},"vehicle_type_id":"4","last_reported":1700669352,"current_range_meters":25200,"station_id":"","pricing_plan_id":"free"},{"bike_id":"25ee5b3a-cc3c-4fea-97c8-44c14f3b26e9","system_id":"levelo_inurba_marseille","lat":43.33759,"lon":5.37493,"is_reserved":false,"is_disabled":false,"rental_uris":{"android":"levelo://app?vid=25ee5b3a-cc3c-4fea-97c8-44c14f3b26e9","ios":"levelo://app?vid=25ee5b3a-cc3c-4fea-97c8-44c14f3b26e9"},"vehicle_type_id":"4","last_reported":1700669352,"current_range_meters":25200,"station_id":"","pricing_plan_id":"free"},{"bike_id":"c84e2d3a-7601-40f2-a0cf-fe119b406c09","system_id":"levelo_inurba_marseille","lat":43.309186,"lon":5.401679,"is_reserved":false,"is_disabled":false,"rental_uris":{"android":"levelo://app?vid=c84e2d3a-7601-40f2-a0cf-fe119b406c09","ios":"levelo://app?vid=c84e2d3a-7601-40f2-a0cf-fe119b406c09"},"vehicle_type_id":"4","last_reported":1700669352,"current_range_meters":18800,"station_id":"ce4bgvp2rcd13ifvqct0","pricing_plan_id":"free"},{"bike_id":"6cde13af-7737-4a32-80a6-ecd21ebe6ed9","system_id":"levelo_inurba_marseille","lat":43.306412,"lon":5.401035,"is_reserved":false,"is_disabled":false,"rental_uris":{"android":"levelo://app?vid=6cde13af-7737-4a32-80a6-ecd21ebe6ed9","ios":"levelo://app?vid=6cde13af-7737-4a32-80a6-ecd21ebe6ed9"},"vehicle_type_id":"4","last_reported":1700669352,"current_range_meters":17600,"station_id":"ce4bh112rcd13ifvqda0","pricing_plan_id":"free"},{"bike_id":"f8e478e1-0a28-4136-b665-41e178fefb4d","system_id":"levelo_inurba_marseille","lat":43.301117,"lon":5.398795,"is_reserved":false,"is_disabled":false,"rental_uris":{"android":"levelo://app?vid=f8e478e1-0a28-4136-b665-41e178fefb4d","ios":"levelo://app?vid=f8e478e1-0a28-4136-b665-41e178fefb4d"},"vehicle_type_id":"4","last_reported":1700669352,"current_range_meters":3600,"station_id":"ce4bh0h2rcd13ifvqd40","pricing_plan_id":"free"},{"bike_id":"ab389265-0bcc-4e18-9fc3-5e5e9bc6af28","system_id":"levelo_inurba_marseille","lat":43.301117,"lon":5.398795,"is_reserved":false,"is_disabled":false,"rental_uris":{"android":"levelo://app?vid=ab389265-0bcc-4e18-9fc3-5e5e9bc6af28","ios":"levelo://app?vid=ab389265-0bcc-4e18-9fc3-5e5e9bc6af28"},"vehicle_type_id":"4","last_reported":1700669352,"current_range_meters":20000,"station_id":"ce4bh0h2rcd13ifvqd40","pricing_plan_id":"free"},{"bike_id":"9e809117-35fb-4787-b300-79a3feb71e15","system_id":"levelo_inurba_marseille","lat":43.33783,"lon":5.37504,"is_reserved":false,"is_disabled":false,"rental_uris":{"android":"levelo://app?vid=9e809117-35fb-4787-b300-79a3feb71e15","ios":"levelo://app?vid=9e809117-35fb-4787-b300-79a3feb71e15"},"vehicle_type_id":"4","last_reported":1700669352,"current_range_meters":31200,"station_id":"","pricing_plan_id":"free"},{"bike_id":"e526628a-9d60-45d4-af65-bdf7f8e4f4a0","system_id":"levelo_inurba_marseille","lat":43.298681,"lon":5.397225,"is_reserved":false,"is_disabled":false,"rental_uris":{"android":"levelo://app?vid=e526628a-9d60-45d4-af65-bdf7f8e4f4a0","ios":"levelo://app?vid=e526628a-9d60-45d4-af65-bdf7f8e4f4a0"},"vehicle_type_id":"4","last_reported":1700669352,"current_range_meters":12000,"station_id":"ce4bh0h2rcd13ifvqd50","pricing_plan_id":"free"},{"bike_id":"cad162ef-b046-4635-8f2f-c67d6a069692","system_id":"levelo_inurba_marseille","lat":43.298681,"lon":5.397225,"is_reserved":false,"is_disabled":false,"rental_uris":{"android":"levelo://app?vid=cad162ef-b046-4635-8f2f-c67d6a069692","ios":"levelo://app?vid=cad162ef-b046-4635-8f2f-c67d6a069692"},"vehicle_type_id":"4","last_reported":1700669352,"current_range_meters":1200,"station_id":"ce4bh0h2rcd13ifvqd50","pricing_plan_id":"free"},{"bike_id":"14dff225-ef62-45bb-ac82-608e9f5cf245","system_id":"levelo_inurba_marseille","lat":43.286928,"lon":5.374019,"is_reserved":false,"is_disabled":false,"rental_uris":{"android":"levelo://app?vid=14dff225-ef62-45bb-ac82-608e9f5cf245","ios":"levelo://app?vid=14dff225-ef62-45bb-ac82-608e9f5cf245"},"vehicle_type_id":"4","last_reported":1700669352,"current_range_meters":25200,"station_id":"","pricing_plan_id":"free"},{"bike_id":"6f1374dc-e450-43e0-8967-c51b714ea34b","system_id":"levelo_inurba_marseille","lat":43.2951,"lon":5.3941,"is_reserved":false,"is_disabled":false,"rental_uris":{"android":"levelo://app?vid=6f1374dc-e450-43e0-8967-c51b714ea34b","ios":"levelo://app?vid=6f1374dc-e450-43e0-8967-c51b714ea34b"},"vehicle_type_id":"4","last_reported":1700669352,"current_range_meters":0,"station_id":"ce4bh292rcd13ifvqdf0","pricing_plan_id":"free"},{"bike_id":"69011fee-916a-40a7-a4bc-ee51fa612db7","system_id":"levelo_inurba_marseille","lat":43.29038,"lon":5.38649,"is_reserved":false,"is_disabled":false,"rental_uris":{"android":"levelo://app?vid=69011fee-916a-40a7-a4bc-ee51fa612db7","ios":"levelo://app?vid=69011fee-916a-40a7-a4bc-ee51fa612db7"},"vehicle_type_id":"4","last_reported":1700669352,"current_range_meters":17200,"station_id":"ce4bh4p2rcd13ifvqe0g","pricing_plan_id":"free"},{"bike_id":"493bb9d0-3a2c-4aad-bfb4-3d1c5b6f718b","system_id":"levelo_inurba_marseille","lat":43.29035,"lon":5.38655,"is_reserved":false,"is_disabled":false,"rental_uris":{"android":"levelo://app?vid=493bb9d0-3a2c-4aad-bfb4-3d1c5b6f718b","ios":"levelo://app?vid=493bb9d0-3a2c-4aad-bfb4-3d1c5b6f718b"},"vehicle_type_id":"4","last_reported":1700669352,"current_range_meters":0,"station_id":"","pricing_plan_id":"free"},{"bike_id":"88792959-7578-4862-8212-887842f7d409","system_id":"levelo_inurba_marseille","lat":43.29031,"lon":5.38656,"is_reserved":false,"is_disabled":false,"rental_uris":{"android":"levelo://app?vid=88792959-7578-4862-8212-887842f7d409","ios":"levelo://app?vid=88792959-7578-4862-8212-887842f7d409"},"vehicle_type_id":"4","last_reported":1700669352,"current_range_meters":1600,"station_id":"ce4bh4p2rcd13ifvqe0g","pricing_plan_id":"free"},{"bike_id":"0c1311c0-79bf-4da6-bcf5-18a6ff966232","system_id":"levelo_inurba_marseille","lat":43.28609,"lon":5.37072,"is_reserved":false,"is_disabled":false,"rental_uris":{"android":"levelo://app?vid=0c1311c0-79bf-4da6-bcf5-18a6ff966232","ios":"levelo://app?vid=0c1311c0-79bf-4da6-bcf5-18a6ff966232"},"vehicle_type_id":"4","last_reported":1700669352,"current_range_meters":6800,"station_id":"ce4bht12rcd13ifvqi60","pricing_plan_id":"free"},{"bike_id":"30c5a8f0-2d73-444d-be65-776ebd8122a8","system_id":"levelo_inurba_marseille","lat":43.31617,"lon":5.404135,"is_reserved":false,"is_disabled":false,"rental_uris":{"android":"levelo://app?vid=30c5a8f0-2d73-444d-be65-776ebd8122a8","ios":"levelo://app?vid=30c5a8f0-2d73-444d-be65-776ebd8122a8"},"vehicle_type_id":"4","last_reported":1700669352,"current_range_meters":6000,"station_id":"ce4bh012rcd13ifvqd00","pricing_plan_id":"free"},{"bike_id":"9042720b-249a-45b1-b337-62bd0dabbab6","system_id":"levelo_inurba_marseille","lat":43.291994,"lon":5.392907,"is_reserved":false,"is_disabled":false,"rental_uris":{"android":"levelo://app?vid=9042720b-249a-45b1-b337-62bd0dabbab6","ios":"levelo://app?vid=9042720b-249a-45b1-b337-62bd0dabbab6"},"vehicle_type_id":"4","last_reported":1700669352,"current_range_meters":14400,"station_id":"ce4bh192rcd13ifvqdd0","pricing_plan_id":"free"},{"bike_id":"8c4d2160-240a-47d3-928a-56e9092f08bd","system_id":"levelo_inurba_marseille","lat":43.28869,"lon":5.38781,"is_reserved":false,"is_disabled":false,"rental_uris":{"android":"levelo://app?vid=8c4d2160-240a-47d3-928a-56e9092f08bd","ios":"levelo://app?vid=8c4d2160-240a-47d3-928a-56e9092f08bd"},"vehicle_type_id":"4","last_reported":1700669352,"current_range_meters":0,"station_id":"","pricing_plan_id":"free"},{"bike_id":"521ed604-e543-4c6a-965a-686ce82c3389","system_id":"levelo_inurba_marseille","lat":43.28459,"lon":5.359,"is_reserved":false,"is_disabled":false,"rental_uris":{"android":"levelo://app?vid=521ed604-e543-4c6a-965a-686ce82c3389","ios":"levelo://app?vid=521ed604-e543-4c6a-965a-686ce82c3389"},"vehicle_type_id":"4","last_reported":1700669352,"current_range_meters":14400,"station_id":"ce4bhah2rcd13ifvqei0","pricing_plan_id":"free"},{"bike_id":"1ec1744d-a204-474a-b316-93265ace38b2","system_id":"levelo_inurba_marseille","lat":43.28618,"lon":5.3511,"is_reserved":false,"is_disabled":false,"rental_uris":{"android":"levelo://app?vid=1ec1744d-a204-474a-b316-93265ace38b2","ios":"levelo://app?vid=1ec1744d-a204-474a-b316-93265ace38b2"},"vehicle_type_id":"4","last_reported":1700669352,"current_range_meters":800,"station_id":"ce4bhch2rcd13ifvqeug","pricing_plan_id":"free"},{"bike_id":"40a862f3-1888-408d-9d5f-9a92323cdf0c","system_id":"levelo_inurba_marseille","lat":43.285848,"lon":5.350787,"is_reserved":false,"is_disabled":false,"rental_uris":{"android":"levelo://app?vid=40a862f3-1888-408d-9d5f-9a92323cdf0c","ios":"levelo://app?vid=40a862f3-1888-408d-9d5f-9a92323cdf0c"},"vehicle_type_id":"4","last_reported":1700669352,"current_range_meters":20400,"station_id":"ce4bhch2rcd13ifvqeug","pricing_plan_id":"free"},{"bike_id":"f9050f56-d05f-4131-9343-6960bf9b3c65","system_id":"levelo_inurba_marseille","lat":43.286146,"lon":5.351083,"is_reserved":false,"is_disabled":false,"rental_uris":{"android":"levelo://app?vid=f9050f56-d05f-4131-9343-6960bf9b3c65","ios":"levelo://app?vid=f9050f56-d05f-4131-9343-6960bf9b3c65"},"vehicle_type_id":"4","last_reported":1700669352,"current_range_meters":22400,"station_id":"ce4bhch2rcd13ifvqeug","pricing_plan_id":"free"},{"bike_id":"adbd441f-44c4-4168-877a-9278b4bd7ceb","system_id":"levelo_inurba_marseille","lat":43.33281,"lon":5.39813,"is_reserved":false,"is_disabled":false,"rental_uris":{"android":"levelo://app?vid=adbd441f-44c4-4168-877a-9278b4bd7ceb","ios":"levelo://app?vid=adbd441f-44c4-4168-877a-9278b4bd7ceb"},"vehicle_type_id":"4","last_reported":1700669352,"current_range_meters":18400,"station_id":"","pricing_plan_id":"free"},{"bike_id":"9425d283-134c-4623-a289-3ffb0ae9be39","system_id":"levelo_inurba_marseille","lat":43.28855,"lon":5.39277,"is_reserved":false,"is_disabled":false,"rental_uris":{"android":"levelo://app?vid=9425d283-134c-4623-a289-3ffb0ae9be39","ios":"levelo://app?vid=9425d283-134c-4623-a289-3ffb0ae9be39"},"vehicle_type_id":"4","last_reported":1700669352,"current_range_meters":26000,"station_id":"","pricing_plan_id":"free"},{"bike_id":"c071a19d-0a4d-4d59-b9fa-f2ef1a839042","system_id":"levelo_inurba_marseille","lat":43.297946,"lon":5.404063,"is_reserved":false,"is_disabled":false,"rental_uris":{"android":"levelo://app?vid=c071a19d-0a4d-4d59-b9fa-f2ef1a839042","ios":"levelo://app?vid=c071a19d-0a4d-4d59-b9fa-f2ef1a839042"},"vehicle_type_id":"4","last_reported":1700669352,"current_range_meters":2800,"station_id":"ce4bh112rcd13ifvqd90","pricing_plan_id":"free"},{"bike_id":"e2284003-4e46-4e0a-93e7-73d05c3666d9","system_id":"levelo_inurba_marseille","lat":43.333915,"lon":5.398045,"is_reserved":false,"is_disabled":false,"rental_uris":{"android":"levelo://app?vid=e2284003-4e46-4e0a-93e7-73d05c3666d9","ios":"levelo://app?vid=e2284003-4e46-4e0a-93e7-73d05c3666d9"},"vehicle_type_id":"4","last_reported":1700669352,"current_range_meters":26400,"station_id":"","pricing_plan_id":"free"},{"bike_id":"f205dbf3-b871-4e97-91bc-7783046cfeb8","system_id":"levelo_inurba_marseille","lat":43.283502,"lon":5.386471,"is_reserved":false,"is_disabled":false,"rental_uris":{"android":"levelo://app?vid=f205dbf3-b871-4e97-91bc-7783046cfeb8","ios":"levelo://app?vid=f205dbf3-b871-4e97-91bc-7783046cfeb8"},"vehicle_type_id":"4","last_reported":1700669352,"current_range_meters":1600,"station_id":"ce4bh492rcd13ifvqdvg","pricing_plan_id":"free"},{"bike_id":"d2ad6d1e-28cc-4899-951c-02a30486f240","system_id":"levelo_inurba_marseille","lat":43.282744,"lon":5.350533,"is_reserved":false,"is_disabled":false,"rental_uris":{"android":"levelo://app?vid=d2ad6d1e-28cc-4899-951c-02a30486f240","ios":"levelo://app?vid=d2ad6d1e-28cc-4899-951c-02a30486f240"},"vehicle_type_id":"4","last_reported":1700669352,"current_range_meters":26800,"station_id":"ce4bhbp2rcd13ifvqerg","pricing_plan_id":"free"},{"bike_id":"0b22caeb-a66b-4dbf-9f2c-961bf14da686","system_id":"levelo_inurba_marseille","lat":43.282754,"lon":5.350519,"is_reserved":false,"is_disabled":false,"rental_uris":{"android":"levelo://app?vid=0b22caeb-a66b-4dbf-9f2c-961bf14da686","ios":"levelo://app?vid=0b22caeb-a66b-4dbf-9f2c-961bf14da686"},"vehicle_type_id":"4","last_reported":1700669352,"current_range_meters":7200,"station_id":"ce4bhbp2rcd13ifvqerg","pricing_plan_id":"free"},{"bike_id":"75234b19-af1c-426b-9d60-816d2216be26","system_id":"levelo_inurba_marseille","lat":43.282744,"lon":5.350533,"is_reserved":false,"is_disabled":false,"rental_uris":{"android":"levelo://app?vid=75234b19-af1c-426b-9d60-816d2216be26","ios":"levelo://app?vid=75234b19-af1c-426b-9d60-816d2216be26"},"vehicle_type_id":"4","last_reported":1700669352,"current_range_meters":20800,"station_id":"ce4bhbp2rcd13ifvqerg","pricing_plan_id":"free"},{"bike_id":"acd5fa6d-fe59-4ae0-94dd-6a1db0ae22f7","system_id":"levelo_inurba_marseille","lat":43.280382,"lon":5.369291,"is_reserved":false,"is_disabled":false,"rental_uris":{"android":"levelo://app?vid=acd5fa6d-fe59-4ae0-94dd-6a1db0ae22f7","ios":"levelo://app?vid=acd5fa6d-fe59-4ae0-94dd-6a1db0ae22f7"},"vehicle_type_id":"4","last_reported":1700669352,"current_range_meters":17200,"station_id":"ce4bha12rcd13ifvqef0","pricing_plan_id":"free"},{"bike_id":"dba232d7-4c2f-46dd-a55b-388653afa457","system_id":"levelo_inurba_marseille","lat":43.290412,"lon":5.399633,"is_reserved":false,"is_disabled":false,"rental_uris":{"android":"levelo://app?vid=dba232d7-4c2f-46dd-a55b-388653afa457","ios":"levelo://app?vid=dba232d7-4c2f-46dd-a55b-388653afa457"},"vehicle_type_id":"4","last_reported":1700669352,"current_range_meters":10000,"station_id":"ce4bh392rcd13ifvqdm0","pricing_plan_id":"free"},{"bike_id":"e5270343-df73-4c00-9995-7f8548ec3304","system_id":"levelo_inurba_marseille","lat":43.281044,"lon":5.378308,"is_reserved":false,"is_disabled":false,"rental_uris":{"android":"levelo://app?vid=e5270343-df73-4c00-9995-7f8548ec3304","ios":"levelo://app?vid=e5270343-df73-4c00-9995-7f8548ec3304"},"vehicle_type_id":"4","last_reported":1700669352,"current_range_meters":3600,"station_id":"ce4bha12rcd13ifvqee0","pricing_plan_id":"free"},{"bike_id":"9572005b-8e49-45df-9193-c80dcc4e5616","system_id":"levelo_inurba_marseille","lat":43.281044,"lon":5.378308,"is_reserved":false,"is_disabled":false,"rental_uris":{"android":"levelo://app?vid=9572005b-8e49-45df-9193-c80dcc4e5616","ios":"levelo://app?vid=9572005b-8e49-45df-9193-c80dcc4e5616"},"vehicle_type_id":"4","last_reported":1700669352,"current_range_meters":22800,"station_id":"ce4bha12rcd13ifvqee0","pricing_plan_id":"free"},{"bike_id":"e986295b-9207-4fd6-9457-855a33463242","system_id":"levelo_inurba_marseille","lat":43.281044,"lon":5.378308,"is_reserved":false,"is_disabled":false,"rental_uris":{"android":"levelo://app?vid=e986295b-9207-4fd6-9457-855a33463242","ios":"levelo://app?vid=e986295b-9207-4fd6-9457-855a33463242"},"vehicle_type_id":"4","last_reported":1700669352,"current_range_meters":800,"station_id":"ce4bha12rcd13ifvqee0","pricing_plan_id":"free"},{"bike_id":"1d8f9ce6-07c0-422b-b1fb-6a80a2d441a7","system_id":"levelo_inurba_marseille","lat":43.281044,"lon":5.378308,"is_reserved":false,"is_disabled":false,"rental_uris":{"android":"levelo://app?vid=1d8f9ce6-07c0-422b-b1fb-6a80a2d441a7","ios":"levelo://app?vid=1d8f9ce6-07c0-422b-b1fb-6a80a2d441a7"},"vehicle_type_id":"4","last_reported":1700669352,"current_range_meters":13200,"station_id":"ce4bha12rcd13ifvqee0","pricing_plan_id":"free"},{"bike_id":"91b6ae54-d572-49bc-817b-67b1ad78193a","system_id":"levelo_inurba_marseille","lat":43.296263,"lon":5.40601,"is_reserved":false,"is_disabled":false,"rental_uris":{"android":"levelo://app?vid=91b6ae54-d572-49bc-817b-67b1ad78193a","ios":"levelo://app?vid=91b6ae54-d572-49bc-817b-67b1ad78193a"},"vehicle_type_id":"4","last_reported":1700669352,"current_range_meters":27600,"station_id":"ce4bh0h2rcd13ifvqd60","pricing_plan_id":"free"},{"bike_id":"96f1d2ec-eda0-486f-b177-754352435422","system_id":"levelo_inurba_marseille","lat":43.287154,"lon":5.399979,"is_reserved":false,"is_disabled":false,"rental_uris":{"android":"levelo://app?vid=96f1d2ec-eda0-486f-b177-754352435422","ios":"levelo://app?vid=96f1d2ec-eda0-486f-b177-754352435422"},"vehicle_type_id":"4","last_reported":1700669352,"current_range_meters":17200,"station_id":"ce4bho92rcd13ifvqh3g","pricing_plan_id":"free"},{"bike_id":"40549c21-40f1-495c-8f9c-03d9f5374b60","system_id":"levelo_inurba_marseille","lat":43.287154,"lon":5.399979,"is_reserved":false,"is_disabled":false,"rental_uris":{"android":"levelo://app?vid=40549c21-40f1-495c-8f9c-03d9f5374b60","ios":"levelo://app?vid=40549c21-40f1-495c-8f9c-03d9f5374b60"},"vehicle_type_id":"4","last_reported":1700669352,"current_range_meters":0,"station_id":"ce4bho92rcd13ifvqh3g","pricing_plan_id":"free"},{"bike_id":"f459950e-980a-4f63-b9d7-1b663ac19a47","system_id":"levelo_inurba_marseille","lat":43.287154,"lon":5.399979,"is_reserved":false,"is_disabled":false,"rental_uris":{"android":"levelo://app?vid=f459950e-980a-4f63-b9d7-1b663ac19a47","ios":"levelo://app?vid=f459950e-980a-4f63-b9d7-1b663ac19a47"},"vehicle_type_id":"4","last_reported":1700669352,"current_range_meters":27600,"station_id":"ce4bho92rcd13ifvqh3g","pricing_plan_id":"free"},{"bike_id":"6e2c2465-4e40-4aae-912b-ca1fbcdf1978","system_id":"levelo_inurba_marseille","lat":43.320045,"lon":5.415048,"is_reserved":false,"is_disabled":false,"rental_uris":{"android":"levelo://app?vid=6e2c2465-4e40-4aae-912b-ca1fbcdf1978","ios":"levelo://app?vid=6e2c2465-4e40-4aae-912b-ca1fbcdf1978"},"vehicle_type_id":"4","last_reported":1700669352,"current_range_meters":0,"station_id":"ce4bhq92rcd13ifvqhkg","pricing_plan_id":"free"},{"bike_id":"d5d14fbd-88d2-4a92-853b-1c62322bdb67","system_id":"levelo_inurba_marseille","lat":43.27952,"lon":5.3874,"is_reserved":false,"is_disabled":false,"rental_uris":{"android":"levelo://app?vid=d5d14fbd-88d2-4a92-853b-1c62322bdb67","ios":"levelo://app?vid=d5d14fbd-88d2-4a92-853b-1c62322bdb67"},"vehicle_type_id":"4","last_reported":1700669352,"current_range_meters":0,"station_id":"ce4bhg12rcd13ifvqf80","pricing_plan_id":"free"},{"bike_id":"cf7c6503-d761-4e4a-b826-f55f74848caf","system_id":"levelo_inurba_marseille","lat":43.34879,"lon":5.3751,"is_reserved":false,"is_disabled":false,"rental_uris":{"android":"levelo://app?vid=cf7c6503-d761-4e4a-b826-f55f74848caf","ios":"levelo://app?vid=cf7c6503-d761-4e4a-b826-f55f74848caf"},"vehicle_type_id":"4","last_reported":1700669352,"current_range_meters":5200,"station_id":"","pricing_plan_id":"free"},{"bike_id":"0e2263dc-6a1d-48b2-89fd-7fc6740e1cc2","system_id":"levelo_inurba_marseille","lat":43.292569,"lon":5.409107,"is_reserved":false,"is_disabled":false,"rental_uris":{"android":"levelo://app?vid=0e2263dc-6a1d-48b2-89fd-7fc6740e1cc2","ios":"levelo://app?vid=0e2263dc-6a1d-48b2-89fd-7fc6740e1cc2"},"vehicle_type_id":"4","last_reported":1700669352,"current_range_meters":6800,"station_id":"ce4bh192rcd13ifvqdc0","pricing_plan_id":"free"},{"bike_id":"9ce627c4-b700-4d24-baa6-d493b13479f9","system_id":"levelo_inurba_marseille","lat":43.292571,"lon":5.409107,"is_reserved":false,"is_disabled":false,"rental_uris":{"android":"levelo://app?vid=9ce627c4-b700-4d24-baa6-d493b13479f9","ios":"levelo://app?vid=9ce627c4-b700-4d24-baa6-d493b13479f9"},"vehicle_type_id":"4","last_reported":1700669352,"current_range_meters":5600,"station_id":"ce4bh192rcd13ifvqdc0","pricing_plan_id":"free"},{"bike_id":"99b7b3e2-fb47-4e03-b5b8-5bf5b8fd0d6c","system_id":"levelo_inurba_marseille","lat":43.293667,"lon":5.412679,"is_reserved":false,"is_disabled":false,"rental_uris":{"android":"levelo://app?vid=99b7b3e2-fb47-4e03-b5b8-5bf5b8fd0d6c","ios":"levelo://app?vid=99b7b3e2-fb47-4e03-b5b8-5bf5b8fd0d6c"},"vehicle_type_id":"4","last_reported":1700669352,"current_range_meters":0,"station_id":"","pricing_plan_id":"free"},{"bike_id":"89d59643-7cae-44c8-9039-d7c4b50cd626","system_id":"levelo_inurba_marseille","lat":43.275625,"lon":5.384392,"is_reserved":false,"is_disabled":false,"rental_uris":{"android":"levelo://app?vid=89d59643-7cae-44c8-9039-d7c4b50cd626","ios":"levelo://app?vid=89d59643-7cae-44c8-9039-d7c4b50cd626"},"vehicle_type_id":"4","last_reported":1700669352,"current_range_meters":14800,"station_id":"ce4bhh92rcd13ifvqfi0","pricing_plan_id":"free"},{"bike_id":"af05972d-1b78-482b-9e8d-e67c8c06f41b","system_id":"levelo_inurba_marseille","lat":43.275625,"lon":5.384392,"is_reserved":false,"is_disabled":false,"rental_uris":{"android":"levelo://app?vid=af05972d-1b78-482b-9e8d-e67c8c06f41b","ios":"levelo://app?vid=af05972d-1b78-482b-9e8d-e67c8c06f41b"},"vehicle_type_id":"4","last_reported":1700669352,"current_range_meters":28800,"station_id":"ce4bhh92rcd13ifvqfi0","pricing_plan_id":"free"},{"bike_id":"44b0fa31-0056-401c-963d-cdf4dcbada0f","system_id":"levelo_inurba_marseille","lat":43.27373,"lon":5.36256,"is_reserved":false,"is_disabled":false,"rental_uris":{"android":"levelo://app?vid=44b0fa31-0056-401c-963d-cdf4dcbada0f","ios":"levelo://app?vid=44b0fa31-0056-401c-963d-cdf4dcbada0f"},"vehicle_type_id":"4","last_reported":1700669352,"current_range_meters":0,"station_id":"ce4bhbh2rcd13ifvqeo0","pricing_plan_id":"free"},{"bike_id":"ed14850a-585d-47b9-8a42-a1db75f2fe2b","system_id":"levelo_inurba_marseille","lat":43.275625,"lon":5.384392,"is_reserved":false,"is_disabled":false,"rental_uris":{"android":"levelo://app?vid=ed14850a-585d-47b9-8a42-a1db75f2fe2b","ios":"levelo://app?vid=ed14850a-585d-47b9-8a42-a1db75f2fe2b"},"vehicle_type_id":"4","last_reported":1700669352,"current_range_meters":20800,"station_id":"ce4bhh92rcd13ifvqfi0","pricing_plan_id":"free"},{"bike_id":"7aa0b987-2515-47e9-ab94-c9c1ebf36079","system_id":"levelo_inurba_marseille","lat":43.276771,"lon":5.388799,"is_reserved":false,"is_disabled":false,"rental_uris":{"android":"levelo://app?vid=7aa0b987-2515-47e9-ab94-c9c1ebf36079","ios":"levelo://app?vid=7aa0b987-2515-47e9-ab94-c9c1ebf36079"},"vehicle_type_id":"4","last_reported":1700669352,"current_range_meters":0,"station_id":"ce4bhi12rcd13ifvqfo0","pricing_plan_id":"free"},{"bike_id":"f4624b76-3c1f-48e3-a8d0-d6b21a0dd975","system_id":"levelo_inurba_marseille","lat":43.317121,"lon":5.423936,"is_reserved":false,"is_disabled":false,"rental_uris":{"android":"levelo://app?vid=f4624b76-3c1f-48e3-a8d0-d6b21a0dd975","ios":"levelo://app?vid=f4624b76-3c1f-48e3-a8d0-d6b21a0dd975"},"vehicle_type_id":"4","last_reported":1700669352,"current_range_meters":23200,"station_id":"ce4bhp92rcd13ifvqhbg","pricing_plan_id":"free"},{"bike_id":"b0ccd6a8-8e66-40e0-8fe9-27aed4b15dd9","system_id":"levelo_inurba_marseille","lat":43.295511,"lon":5.422926,"is_reserved":false,"is_disabled":false,"rental_uris":{"android":"levelo://app?vid=b0ccd6a8-8e66-40e0-8fe9-27aed4b15dd9","ios":"levelo://app?vid=b0ccd6a8-8e66-40e0-8fe9-27aed4b15dd9"},"vehicle_type_id":"4","last_reported":1700669352,"current_range_meters":26800,"station_id":"ce4bhph2rcd13ifvqhdg","pricing_plan_id":"free"},{"bike_id":"d0bb53f7-f1b8-4609-a668-27efdac67f66","system_id":"levelo_inurba_marseille","lat":43.27195,"lon":5.39248,"is_reserved":false,"is_disabled":false,"rental_uris":{"android":"levelo://app?vid=d0bb53f7-f1b8-4609-a668-27efdac67f66","ios":"levelo://app?vid=d0bb53f7-f1b8-4609-a668-27efdac67f66"},"vehicle_type_id":"4","last_reported":1700669352,"current_range_meters":0,"station_id":"","pricing_plan_id":"free"},{"bike_id":"e069526a-5383-4fc6-bdb3-9ee6376daeb9","system_id":"levelo_inurba_marseille","lat":43.26997,"lon":5.38769,"is_reserved":false,"is_disabled":false,"rental_uris":{"android":"levelo://app?vid=e069526a-5383-4fc6-bdb3-9ee6376daeb9","ios":"levelo://app?vid=e069526a-5383-4fc6-bdb3-9ee6376daeb9"},"vehicle_type_id":"4","last_reported":1700669352,"current_range_meters":0,"station_id":"","pricing_plan_id":"free"},{"bike_id":"25d4384a-a08f-439c-bad8-2d84baf711b1","system_id":"levelo_inurba_marseille","lat":43.2655,"lon":5.37289,"is_reserved":false,"is_disabled":false,"rental_uris":{"android":"levelo://app?vid=25d4384a-a08f-439c-bad8-2d84baf711b1","ios":"levelo://app?vid=25d4384a-a08f-439c-bad8-2d84baf711b1"},"vehicle_type_id":"4","last_reported":1700669352,"current_range_meters":8400,"station_id":"ce4bhg12rcd13ifvqf70","pricing_plan_id":"free"},{"bike_id":"28e8ce00-6b21-4e06-9930-c7c4408cc650","system_id":"levelo_inurba_marseille","lat":43.326174,"lon":5.430584,"is_reserved":false,"is_disabled":false,"rental_uris":{"android":"levelo://app?vid=28e8ce00-6b21-4e06-9930-c7c4408cc650","ios":"levelo://app?vid=28e8ce00-6b21-4e06-9930-c7c4408cc650"},"vehicle_type_id":"4","last_reported":1700669352,"current_range_meters":6400,"station_id":"","pricing_plan_id":"free"},{"bike_id":"82709b43-5bfb-478b-a3c9-847b0f5fac72","system_id":"levelo_inurba_marseille","lat":43.27543,"lon":5.40913,"is_reserved":false,"is_disabled":false,"rental_uris":{"android":"levelo://app?vid=82709b43-5bfb-478b-a3c9-847b0f5fac72","ios":"levelo://app?vid=82709b43-5bfb-478b-a3c9-847b0f5fac72"},"vehicle_type_id":"4","last_reported":1700669352,"current_range_meters":0,"station_id":"","pricing_plan_id":"free"},{"bike_id":"2b5f0b27-ae58-4e9e-bd76-c585f78e8a73","system_id":"levelo_inurba_marseille","lat":43.26386,"lon":5.37454,"is_reserved":false,"is_disabled":false,"rental_uris":{"android":"levelo://app?vid=2b5f0b27-ae58-4e9e-bd76-c585f78e8a73","ios":"levelo://app?vid=2b5f0b27-ae58-4e9e-bd76-c585f78e8a73"},"vehicle_type_id":"4","last_reported":1700669352,"current_range_meters":22000,"station_id":"","pricing_plan_id":"free"},{"bike_id":"f7ab0159-e405-4776-b695-a35e301fafaa","system_id":"levelo_inurba_marseille","lat":43.308051,"lon":5.43527,"is_reserved":false,"is_disabled":false,"rental_uris":{"android":"levelo://app?vid=f7ab0159-e405-4776-b695-a35e301fafaa","ios":"levelo://app?vid=f7ab0159-e405-4776-b695-a35e301fafaa"},"vehicle_type_id":"4","last_reported":1700669352,"current_range_meters":28800,"station_id":"ce4bhph2rcd13ifvqheg","pricing_plan_id":"free"},{"bike_id":"79661c70-661c-4fa3-9d7c-dfbd3858b6f0","system_id":"levelo_inurba_marseille","lat":43.265585,"lon":5.39012,"is_reserved":false,"is_disabled":false,"rental_uris":{"android":"levelo://app?vid=79661c70-661c-4fa3-9d7c-dfbd3858b6f0","ios":"levelo://app?vid=79661c70-661c-4fa3-9d7c-dfbd3858b6f0"},"vehicle_type_id":"4","last_reported":1700669352,"current_range_meters":0,"station_id":"ce4bhe12rcd13ifvqf30","pricing_plan_id":"free"},{"bike_id":"64b738f5-9759-4308-a144-c51d2a1fdaf5","system_id":"levelo_inurba_marseille","lat":43.261782,"lon":5.374515,"is_reserved":false,"is_disabled":false,"rental_uris":{"android":"levelo://app?vid=64b738f5-9759-4308-a144-c51d2a1fdaf5","ios":"levelo://app?vid=64b738f5-9759-4308-a144-c51d2a1fdaf5"},"vehicle_type_id":"4","last_reported":1700669352,"current_range_meters":0,"station_id":"ce4bhgp2rcd13ifvqfc0","pricing_plan_id":"free"},{"bike_id":"e18d135a-abac-49c3-adaf-d41e53f36a48","system_id":"levelo_inurba_marseille","lat":43.261782,"lon":5.374515,"is_reserved":false,"is_disabled":false,"rental_uris":{"android":"levelo://app?vid=e18d135a-abac-49c3-adaf-d41e53f36a48","ios":"levelo://app?vid=e18d135a-abac-49c3-adaf-d41e53f36a48"},"vehicle_type_id":"4","last_reported":1700669352,"current_range_meters":7200,"station_id":"ce4bhgp2rcd13ifvqfc0","pricing_plan_id":"free"},{"bike_id":"1e505a9a-fd9d-48d4-88e5-e4d6e8949afc","system_id":"levelo_inurba_marseille","lat":43.261782,"lon":5.374515,"is_reserved":false,"is_disabled":false,"rental_uris":{"android":"levelo://app?vid=1e505a9a-fd9d-48d4-88e5-e4d6e8949afc","ios":"levelo://app?vid=1e505a9a-fd9d-48d4-88e5-e4d6e8949afc"},"vehicle_type_id":"4","last_reported":1700669352,"current_range_meters":18400,"station_id":"ce4bhgp2rcd13ifvqfc0","pricing_plan_id":"free"},{"bike_id":"9463f2b4-2fbf-4155-8397-ff75ab0a2996","system_id":"levelo_inurba_marseille","lat":43.261782,"lon":5.374515,"is_reserved":false,"is_disabled":false,"rental_uris":{"android":"levelo://app?vid=9463f2b4-2fbf-4155-8397-ff75ab0a2996","ios":"levelo://app?vid=9463f2b4-2fbf-4155-8397-ff75ab0a2996"},"vehicle_type_id":"4","last_reported":1700669352,"current_range_meters":19600,"station_id":"ce4bhgp2rcd13ifvqfc0","pricing_plan_id":"free"},{"bike_id":"3b82961a-435b-4567-824c-2750c81553dc","system_id":"levelo_inurba_marseille","lat":43.261782,"lon":5.374515,"is_reserved":false,"is_disabled":false,"rental_uris":{"android":"levelo://app?vid=3b82961a-435b-4567-824c-2750c81553dc","ios":"levelo://app?vid=3b82961a-435b-4567-824c-2750c81553dc"},"vehicle_type_id":"4","last_reported":1700669352,"current_range_meters":20000,"station_id":"ce4bhgp2rcd13ifvqfc0","pricing_plan_id":"free"},{"bike_id":"41e07355-b1f0-4b2b-b52d-506265196be4","system_id":"levelo_inurba_marseille","lat":43.317104,"lon":5.436818,"is_reserved":false,"is_disabled":false,"rental_uris":{"android":"levelo://app?vid=41e07355-b1f0-4b2b-b52d-506265196be4","ios":"levelo://app?vid=41e07355-b1f0-4b2b-b52d-506265196be4"},"vehicle_type_id":"4","last_reported":1700669352,"current_range_meters":10400,"station_id":"ce4bhp92rcd13ifvqhcg","pricing_plan_id":"free"},{"bike_id":"0a38ae67-2074-49af-b47a-63152d20c11f","system_id":"levelo_inurba_marseille","lat":43.317104,"lon":5.436818,"is_reserved":false,"is_disabled":false,"rental_uris":{"android":"levelo://app?vid=0a38ae67-2074-49af-b47a-63152d20c11f","ios":"levelo://app?vid=0a38ae67-2074-49af-b47a-63152d20c11f"},"vehicle_type_id":"4","last_reported":1700669352,"current_range_meters":31200,"station_id":"ce4bhp92rcd13ifvqhcg","pricing_plan_id":"free"},{"bike_id":"32932e1d-c0ab-444f-a10c-9c29cdce7e1d","system_id":"levelo_inurba_marseille","lat":43.262012,"lon":5.379307,"is_reserved":false,"is_disabled":false,"rental_uris":{"android":"levelo://app?vid=32932e1d-c0ab-444f-a10c-9c29cdce7e1d","ios":"levelo://app?vid=32932e1d-c0ab-444f-a10c-9c29cdce7e1d"},"vehicle_type_id":"4","last_reported":1700669352,"current_range_meters":26400,"station_id":"ce4bhjp2rcd13ifvqg90","pricing_plan_id":"free"},{"bike_id":"08036fd4-d266-4e49-9791-ecb6f50bff6f","system_id":"levelo_inurba_marseille","lat":43.271368,"lon":5.40928,"is_reserved":false,"is_disabled":false,"rental_uris":{"android":"levelo://app?vid=08036fd4-d266-4e49-9791-ecb6f50bff6f","ios":"levelo://app?vid=08036fd4-d266-4e49-9791-ecb6f50bff6f"},"vehicle_type_id":"4","last_reported":1700669352,"current_range_meters":5200,"station_id":"ce4bhl12rcd13ifvqgf0","pricing_plan_id":"free"},{"bike_id":"cb16d7ee-4d8d-44c4-bc7a-142b1234ab63","system_id":"levelo_inurba_marseille","lat":43.31725,"lon":5.43786,"is_reserved":false,"is_disabled":false,"rental_uris":{"android":"levelo://app?vid=cb16d7ee-4d8d-44c4-bc7a-142b1234ab63","ios":"levelo://app?vid=cb16d7ee-4d8d-44c4-bc7a-142b1234ab63"},"vehicle_type_id":"4","last_reported":1700669352,"current_range_meters":2800,"station_id":"","pricing_plan_id":"free"},{"bike_id":"cb70a0a7-a3ba-40be-8f5b-54253a525851","system_id":"levelo_inurba_marseille","lat":43.29901,"lon":5.436851,"is_reserved":false,"is_disabled":false,"rental_uris":{"android":"levelo://app?vid=cb70a0a7-a3ba-40be-8f5b-54253a525851","ios":"levelo://app?vid=cb70a0a7-a3ba-40be-8f5b-54253a525851"},"vehicle_type_id":"4","last_reported":1700669352,"current_range_meters":0,"station_id":"ce4bhpp2rcd13ifvqhfg","pricing_plan_id":"free"},{"bike_id":"5ef97ddd-93d4-47a4-a773-0a8c123cf72b","system_id":"levelo_inurba_marseille","lat":43.260225,"lon":5.375455,"is_reserved":false,"is_disabled":false,"rental_uris":{"android":"levelo://app?vid=5ef97ddd-93d4-47a4-a773-0a8c123cf72b","ios":"levelo://app?vid=5ef97ddd-93d4-47a4-a773-0a8c123cf72b"},"vehicle_type_id":"4","last_reported":1700669352,"current_range_meters":27200,"station_id":"ce4bhgh2rcd13ifvqfa0","pricing_plan_id":"free"},{"bike_id":"32c305fb-49cd-4def-8098-02867fc1ff4f","system_id":"levelo_inurba_marseille","lat":43.281548,"lon":5.42643,"is_reserved":false,"is_disabled":false,"rental_uris":{"android":"levelo://app?vid=32c305fb-49cd-4def-8098-02867fc1ff4f","ios":"levelo://app?vid=32c305fb-49cd-4def-8098-02867fc1ff4f"},"vehicle_type_id":"4","last_reported":1700669352,"current_range_meters":27600,"station_id":"ce4bhnh2rcd13ifvqgug","pricing_plan_id":"free"},{"bike_id":"f07244c2-1919-4962-820e-d682f5d72274","system_id":"levelo_inurba_marseille","lat":43.281548,"lon":5.42643,"is_reserved":false,"is_disabled":false,"rental_uris":{"android":"levelo://app?vid=f07244c2-1919-4962-820e-d682f5d72274","ios":"levelo://app?vid=f07244c2-1919-4962-820e-d682f5d72274"},"vehicle_type_id":"4","last_reported":1700669352,"current_range_meters":29200,"station_id":"ce4bhnh2rcd13ifvqgug","pricing_plan_id":"free"},{"bike_id":"56cfcdad-7deb-457c-aa73-c91fd9caf8e3","system_id":"levelo_inurba_marseille","lat":43.281548,"lon":5.42643,"is_reserved":false,"is_disabled":false,"rental_uris":{"android":"levelo://app?vid=56cfcdad-7deb-457c-aa73-c91fd9caf8e3","ios":"levelo://app?vid=56cfcdad-7deb-457c-aa73-c91fd9caf8e3"},"vehicle_type_id":"4","last_reported":1700669352,"current_range_meters":25600,"station_id":"ce4bhnh2rcd13ifvqgug","pricing_plan_id":"free"},{"bike_id":"33b2d5d0-f6d4-45ce-a562-87c3456cf3e0","system_id":"levelo_inurba_marseille","lat":43.2607,"lon":5.393983,"is_reserved":false,"is_disabled":false,"rental_uris":{"android":"levelo://app?vid=33b2d5d0-f6d4-45ce-a562-87c3456cf3e0","ios":"levelo://app?vid=33b2d5d0-f6d4-45ce-a562-87c3456cf3e0"},"vehicle_type_id":"4","last_reported":1700669352,"current_range_meters":8400,"station_id":"ce4bhh92rcd13ifvqfj0","pricing_plan_id":"free"},{"bike_id":"6b188708-9907-4cc6-a7fa-bcdecbd5a74b","system_id":"levelo_inurba_marseille","lat":43.27495,"lon":5.42454,"is_reserved":false,"is_disabled":false,"rental_uris":{"android":"levelo://app?vid=6b188708-9907-4cc6-a7fa-bcdecbd5a74b","ios":"levelo://app?vid=6b188708-9907-4cc6-a7fa-bcdecbd5a74b"},"vehicle_type_id":"4","last_reported":1700669352,"current_range_meters":1200,"station_id":"ce4bhn92rcd13ifvqgrg","pricing_plan_id":"free"},{"bike_id":"d80ade70-d274-422e-a88d-5babacce876d","system_id":"levelo_inurba_marseille","lat":43.25491,"lon":5.37651,"is_reserved":false,"is_disabled":false,"rental_uris":{"android":"levelo://app?vid=d80ade70-d274-422e-a88d-5babacce876d","ios":"levelo://app?vid=d80ade70-d274-422e-a88d-5babacce876d"},"vehicle_type_id":"4","last_reported":1700669352,"current_range_meters":3600,"station_id":"ce4bhh12rcd13ifvqff0","pricing_plan_id":"free"},{"bike_id":"50290bb8-efd3-482d-b021-7495607ee03f","system_id":"levelo_inurba_marseille","lat":43.258658,"lon":5.398935,"is_reserved":false,"is_disabled":false,"rental_uris":{"android":"levelo://app?vid=50290bb8-efd3-482d-b021-7495607ee03f","ios":"levelo://app?vid=50290bb8-efd3-482d-b021-7495607ee03f"},"vehicle_type_id":"4","last_reported":1700669352,"current_range_meters":0,"station_id":"ce4bhl92rcd13ifvqghg","pricing_plan_id":"free"},{"bike_id":"b98e9bbe-9a77-4a9b-bf71-36631379e410","system_id":"levelo_inurba_marseille","lat":43.259013,"lon":5.409301,"is_reserved":false,"is_disabled":false,"rental_uris":{"android":"levelo://app?vid=b98e9bbe-9a77-4a9b-bf71-36631379e410","ios":"levelo://app?vid=b98e9bbe-9a77-4a9b-bf71-36631379e410"},"vehicle_type_id":"4","last_reported":1700669352,"current_range_meters":30400,"station_id":"ce4bhm92rcd13ifvqglg","pricing_plan_id":"free"},{"bike_id":"0780890a-bd82-4ad0-bd67-080a2f503c60","system_id":"levelo_inurba_marseille","lat":43.257079,"lon":5.411051,"is_reserved":false,"is_disabled":false,"rental_uris":{"android":"levelo://app?vid=0780890a-bd82-4ad0-bd67-080a2f503c60","ios":"levelo://app?vid=0780890a-bd82-4ad0-bd67-080a2f503c60"},"vehicle_type_id":"4","last_reported":1700669352,"current_range_meters":16000,"station_id":"ce4bhkp2rcd13ifvqgd0","pricing_plan_id":"free"},{"bike_id":"eedf2e51-beb6-448c-9be8-f02e29717301","system_id":"levelo_inurba_marseille","lat":43.257079,"lon":5.411051,"is_reserved":false,"is_disabled":false,"rental_uris":{"android":"levelo://app?vid=eedf2e51-beb6-448c-9be8-f02e29717301","ios":"levelo://app?vid=eedf2e51-beb6-448c-9be8-f02e29717301"},"vehicle_type_id":"4","last_reported":1700669352,"current_range_meters":32000,"station_id":"ce4bhkp2rcd13ifvqgd0","pricing_plan_id":"free"},{"bike_id":"80b7ea5e-3bb4-4aba-855b-28a8ee236115","system_id":"levelo_inurba_marseille","lat":43.2479,"lon":5.374457,"is_reserved":false,"is_disabled":false,"rental_uris":{"android":"levelo://app?vid=80b7ea5e-3bb4-4aba-855b-28a8ee236115","ios":"levelo://app?vid=80b7ea5e-3bb4-4aba-855b-28a8ee236115"},"vehicle_type_id":"4","last_reported":1700669352,"current_range_meters":28400,"station_id":"ce4bhgh2rcd13ifvqfb0","pricing_plan_id":"free"},{"bike_id":"fda9b385-99f9-498d-a7cc-6df7d22605de","system_id":"levelo_inurba_marseille","lat":43.2479,"lon":5.374457,"is_reserved":false,"is_disabled":false,"rental_uris":{"android":"levelo://app?vid=fda9b385-99f9-498d-a7cc-6df7d22605de","ios":"levelo://app?vid=fda9b385-99f9-498d-a7cc-6df7d22605de"},"vehicle_type_id":"4","last_reported":1700669352,"current_range_meters":10800,"station_id":"ce4bhgh2rcd13ifvqfb0","pricing_plan_id":"free"},{"bike_id":"89a60c13-0767-4af0-88f6-c9d55037f563","system_id":"levelo_inurba_marseille","lat":43.2479,"lon":5.374457,"is_reserved":false,"is_disabled":false,"rental_uris":{"android":"levelo://app?vid=89a60c13-0767-4af0-88f6-c9d55037f563","ios":"levelo://app?vid=89a60c13-0767-4af0-88f6-c9d55037f563"},"vehicle_type_id":"4","last_reported":1700669352,"current_range_meters":800,"station_id":"ce4bhgh2rcd13ifvqfb0","pricing_plan_id":"free"},{"bike_id":"527e20d0-eebf-4d24-9b89-e172593055e2","system_id":"levelo_inurba_marseille","lat":43.24693,"lon":5.382096,"is_reserved":false,"is_disabled":false,"rental_uris":{"android":"levelo://app?vid=527e20d0-eebf-4d24-9b89-e172593055e2","ios":"levelo://app?vid=527e20d0-eebf-4d24-9b89-e172593055e2"},"vehicle_type_id":"4","last_reported":1700669352,"current_range_meters":13200,"station_id":"ce4bhih2rcd13ifvqfr0","pricing_plan_id":"free"},{"bike_id":"f662322c-8022-4c02-a72d-ebda8dd5f3f8","system_id":"levelo_inurba_marseille","lat":43.25102,"lon":5.403214,"is_reserved":false,"is_disabled":false,"rental_uris":{"android":"levelo://app?vid=f662322c-8022-4c02-a72d-ebda8dd5f3f8","ios":"levelo://app?vid=f662322c-8022-4c02-a72d-ebda8dd5f3f8"},"vehicle_type_id":"4","last_reported":1700669352,"current_range_meters":22400,"station_id":"ce4bhlh2rcd13ifvqgig","pricing_plan_id":"free"},{"bike_id":"de149e2c-f5dd-4ea6-b8d9-017c2cb027e0","system_id":"levelo_inurba_marseille","lat":43.25102,"lon":5.403214,"is_reserved":false,"is_disabled":false,"rental_uris":{"android":"levelo://app?vid=de149e2c-f5dd-4ea6-b8d9-017c2cb027e0","ios":"levelo://app?vid=de149e2c-f5dd-4ea6-b8d9-017c2cb027e0"},"vehicle_type_id":"4","last_reported":1700669352,"current_range_meters":10400,"station_id":"ce4bhlh2rcd13ifvqgig","pricing_plan_id":"free"},{"bike_id":"2b51b412-b54e-472f-9ddf-501d022a85ae","system_id":"levelo_inurba_marseille","lat":43.25102,"lon":5.403214,"is_reserved":false,"is_disabled":false,"rental_uris":{"android":"levelo://app?vid=2b51b412-b54e-472f-9ddf-501d022a85ae","ios":"levelo://app?vid=2b51b412-b54e-472f-9ddf-501d022a85ae"},"vehicle_type_id":"4","last_reported":1700669352,"current_range_meters":3600,"station_id":"ce4bhlh2rcd13ifvqgig","pricing_plan_id":"free"},{"bike_id":"6d2fd65a-c56c-4ccb-a740-8e843b31a8ab","system_id":"levelo_inurba_marseille","lat":43.25111,"lon":5.40325,"is_reserved":false,"is_disabled":false,"rental_uris":{"android":"levelo://app?vid=6d2fd65a-c56c-4ccb-a740-8e843b31a8ab","ios":"levelo://app?vid=6d2fd65a-c56c-4ccb-a740-8e843b31a8ab"},"vehicle_type_id":"4","last_reported":1700669352,"current_range_meters":15600,"station_id":"ce4bhlh2rcd13ifvqgig","pricing_plan_id":"free"},{"bike_id":"f6717fd3-1366-492a-a17f-3e22bebf85b7","system_id":"levelo_inurba_marseille","lat":43.25102,"lon":5.403214,"is_reserved":false,"is_disabled":false,"rental_uris":{"android":"levelo://app?vid=f6717fd3-1366-492a-a17f-3e22bebf85b7","ios":"levelo://app?vid=f6717fd3-1366-492a-a17f-3e22bebf85b7"},"vehicle_type_id":"4","last_reported":1700669352,"current_range_meters":5600,"station_id":"ce4bhlh2rcd13ifvqgig","pricing_plan_id":"free"},{"bike_id":"65854330-55cc-4a37-84a6-58749e8eb238","system_id":"levelo_inurba_marseille","lat":43.243884,"lon":5.370736,"is_reserved":false,"is_disabled":false,"rental_uris":{"android":"levelo://app?vid=65854330-55cc-4a37-84a6-58749e8eb238","ios":"levelo://app?vid=65854330-55cc-4a37-84a6-58749e8eb238"},"vehicle_type_id":"4","last_reported":1700669352,"current_range_meters":0,"station_id":"ce4bhhh2rcd13ifvqfk0","pricing_plan_id":"free"},{"bike_id":"5a1ba83b-8198-4f26-837c-2fad3ab381eb","system_id":"levelo_inurba_marseille","lat":43.252697,"lon":5.42278,"is_reserved":false,"is_disabled":false,"rental_uris":{"android":"levelo://app?vid=5a1ba83b-8198-4f26-837c-2fad3ab381eb","ios":"levelo://app?vid=5a1ba83b-8198-4f26-837c-2fad3ab381eb"},"vehicle_type_id":"4","last_reported":1700669352,"current_range_meters":5200,"station_id":"","pricing_plan_id":"free"},{"bike_id":"504147d7-658d-4076-b2a8-b584e693c519","system_id":"levelo_inurba_marseille","lat":43.2418,"lon":5.39732,"is_reserved":false,"is_disabled":false,"rental_uris":{"android":"levelo://app?vid=504147d7-658d-4076-b2a8-b584e693c519","ios":"levelo://app?vid=504147d7-658d-4076-b2a8-b584e693c519"},"vehicle_type_id":"4","last_reported":1700669352,"current_range_meters":400,"station_id":"ce4bhn12rcd13ifvqgpg","pricing_plan_id":"free"},{"bike_id":"a4848e8e-2f71-4e6c-ac3c-01fb65ff240d","system_id":"levelo_inurba_marseille","lat":43.231919,"lon":5.355532,"is_reserved":false,"is_disabled":false,"rental_uris":{"android":"levelo://app?vid=a4848e8e-2f71-4e6c-ac3c-01fb65ff240d","ios":"levelo://app?vid=a4848e8e-2f71-4e6c-ac3c-01fb65ff240d"},"vehicle_type_id":"4","last_reported":1700669352,"current_range_meters":0,"station_id":"ce4bhu92rcd13ifvqi70","pricing_plan_id":"free"},{"bike_id":"a2de7bbb-1b41-441f-a8d5-3f3e61ace3c7","system_id":"levelo_inurba_marseille","lat":43.231919,"lon":5.355532,"is_reserved":false,"is_disabled":false,"rental_uris":{"android":"levelo://app?vid=a2de7bbb-1b41-441f-a8d5-3f3e61ace3c7","ios":"levelo://app?vid=a2de7bbb-1b41-441f-a8d5-3f3e61ace3c7"},"vehicle_type_id":"4","last_reported":1700669352,"current_range_meters":13200,"station_id":"ce4bhu92rcd13ifvqi70","pricing_plan_id":"free"},{"bike_id":"2b87caff-d6ba-46d5-8155-97b616f2ab68","system_id":"levelo_inurba_marseille","lat":43.231919,"lon":5.355532,"is_reserved":false,"is_disabled":false,"rental_uris":{"android":"levelo://app?vid=2b87caff-d6ba-46d5-8155-97b616f2ab68","ios":"levelo://app?vid=2b87caff-d6ba-46d5-8155-97b616f2ab68"},"vehicle_type_id":"4","last_reported":1700669352,"current_range_meters":13200,"station_id":"ce4bhu92rcd13ifvqi70","pricing_plan_id":"free"},{"bike_id":"9a7b7e85-a793-4508-92be-696f872af28f","system_id":"levelo_inurba_marseille","lat":43.23194,"lon":5.35555,"is_reserved":false,"is_disabled":false,"rental_uris":{"android":"levelo://app?vid=9a7b7e85-a793-4508-92be-696f872af28f","ios":"levelo://app?vid=9a7b7e85-a793-4508-92be-696f872af28f"},"vehicle_type_id":"4","last_reported":1700669352,"current_range_meters":30400,"station_id":"ce4bhu92rcd13ifvqi70","pricing_plan_id":"free"},{"bike_id":"03510ac4-47fa-408f-8a51-bec4b93cac90","system_id":"levelo_inurba_marseille","lat":43.231923,"lon":5.355545,"is_reserved":false,"is_disabled":false,"rental_uris":{"android":"levelo://app?vid=03510ac4-47fa-408f-8a51-bec4b93cac90","ios":"levelo://app?vid=03510ac4-47fa-408f-8a51-bec4b93cac90"},"vehicle_type_id":"4","last_reported":1700669352,"current_range_meters":30000,"station_id":"ce4bhu92rcd13ifvqi70","pricing_plan_id":"free"},{"bike_id":"76f48143-0fd7-42d0-85b8-80e7fcf987a7","system_id":"levelo_inurba_marseille","lat":43.231919,"lon":5.355532,"is_reserved":false,"is_disabled":false,"rental_uris":{"android":"levelo://app?vid=76f48143-0fd7-42d0-85b8-80e7fcf987a7","ios":"levelo://app?vid=76f48143-0fd7-42d0-85b8-80e7fcf987a7"},"vehicle_type_id":"4","last_reported":1700669352,"current_range_meters":26400,"station_id":"ce4bhu92rcd13ifvqi70","pricing_plan_id":"free"},{"bike_id":"629cdd66-158d-4c28-849c-447b83f6ce32","system_id":"levelo_inurba_marseille","lat":43.231923,"lon":5.355545,"is_reserved":false,"is_disabled":false,"rental_uris":{"android":"levelo://app?vid=629cdd66-158d-4c28-849c-447b83f6ce32","ios":"levelo://app?vid=629cdd66-158d-4c28-849c-447b83f6ce32"},"vehicle_type_id":"4","last_reported":1700669352,"current_range_meters":31600,"station_id":"ce4bhu92rcd13ifvqi70","pricing_plan_id":"free"},{"bike_id":"50924bb7-91d9-4f8f-8978-2bc002a91b93","system_id":"levelo_inurba_marseille","lat":43.231919,"lon":5.355532,"is_reserved":false,"is_disabled":false,"rental_uris":{"android":"levelo://app?vid=50924bb7-91d9-4f8f-8978-2bc002a91b93","ios":"levelo://app?vid=50924bb7-91d9-4f8f-8978-2bc002a91b93"},"vehicle_type_id":"4","last_reported":1700669352,"current_range_meters":16400,"station_id":"ce4bhu92rcd13ifvqi70","pricing_plan_id":"free"},{"bike_id":"5ba30ed2-a488-4ec4-b826-6c3802a68950","system_id":"levelo_inurba_marseille","lat":43.23175,"lon":5.35551,"is_reserved":false,"is_disabled":false,"rental_uris":{"android":"levelo://app?vid=5ba30ed2-a488-4ec4-b826-6c3802a68950","ios":"levelo://app?vid=5ba30ed2-a488-4ec4-b826-6c3802a68950"},"vehicle_type_id":"4","last_reported":1700669352,"current_range_meters":22800,"station_id":"ce4bhu92rcd13ifvqi70","pricing_plan_id":"free"},{"bike_id":"71ee296d-dac4-42a1-b1a8-9035189bd274","system_id":"levelo_inurba_marseille","lat":43.231794,"lon":5.400052,"is_reserved":false,"is_disabled":false,"rental_uris":{"android":"levelo://app?vid=71ee296d-dac4-42a1-b1a8-9035189bd274","ios":"levelo://app?vid=71ee296d-dac4-42a1-b1a8-9035189bd274"},"vehicle_type_id":"4","last_reported":1700669352,"current_range_meters":27600,"station_id":"ce4bhn12rcd13ifvqgqg","pricing_plan_id":"free"},{"bike_id":"faa0ca6f-091a-44f2-aa9f-8113f3d96335","system_id":"levelo_inurba_marseille","lat":43.231793,"lon":5.400044,"is_reserved":false,"is_disabled":false,"rental_uris":{"android":"levelo://app?vid=faa0ca6f-091a-44f2-aa9f-8113f3d96335","ios":"levelo://app?vid=faa0ca6f-091a-44f2-aa9f-8113f3d96335"},"vehicle_type_id":"4","last_reported":1700669352,"current_range_meters":31200,"station_id":"ce4bhn12rcd13ifvqgqg","pricing_plan_id":"free"},{"bike_id":"071837c4-f80c-491c-97d6-e86cba736f07","system_id":"levelo_inurba_marseille","lat":43.231794,"lon":5.400052,"is_reserved":false,"is_disabled":false,"rental_uris":{"android":"levelo://app?vid=071837c4-f80c-491c-97d6-e86cba736f07","ios":"levelo://app?vid=071837c4-f80c-491c-97d6-e86cba736f07"},"vehicle_type_id":"4","last_reported":1700669352,"current_range_meters":28000,"station_id":"ce4bhn12rcd13ifvqgqg","pricing_plan_id":"free"}]}}