{"last_updated":1727708968,"ttl":60,"version":"2.2","data":{"bikes":[{"bike_id":"6d5440f5-599d-4249-8ca9-fd606c563247","system_id":"levelo_inurba_marseille","lat":43.29707,"lon":5.36613,"is_reserved":false,"is_disabled":false,"rental_uris":{"android":"levelo://app?vid=6d5440f5-599d-4249-8ca9-fd606c563247","ios":"levelo://app?vid=6d5440f5-599d-4249-8ca9-fd606c563247"},"vehicle_type_id":"4","last_reported":1727708968,"current_range_meters":10800,"station_id":"ce4bgn12rcd13ifvqbt0","pricing_plan_id":"cebpf4jnsgd1na2vs0mg"},{"bike_id":"9d32dcbc-8ead-4d60-b9de-9a6f184651e1","system_id":"levelo_inurba_marseille","lat":43.2781,"lon":5.40713,"is_reserved":false,"is_disabled":false,"rental_uris":{"android":"levelo://app?vid=9d32dcbc-8ead-4d60-b9de-9a6f184651e1","ios":"levelo://app?vid=9d32dcbc-8ead-4d60-b9de-9a6f184651e1"},"vehicle_type_id":"4","last_reported":1727708968,"current_range_meters":32400,"station_id":"ce4bhnh2rcd13ifvqgtg","pricing_plan_id":"cebpf4jnsgd1na2vs0mg"},{"bike_id":"acb12dbb-9af2-423f-b3a7-49ee6219c011","system_id":"levelo_inurba_marseille","lat":43.314148,"lon":5.384354,"is_reserved":false,"is_disabled":false,"rental_uris":{"android":"levelo://app?vid=acb12dbb-9af2-423f-b3a7-49ee6219c011","ios":"levelo://app?vid=acb12dbb-9af2-423f-b3a7-49ee6219c011"},"vehicle_type_id":"4","last_reported":1727708968,"current_range_meters":3600,"station_id":"ce4bgt92rcd13ifvqcf0","pricing_plan_id":"cebpf4jnsgd1na2vs0mg"},{"bike_id":"fe803ac1-b050-4b69-9446-3a325a0ae5af","system_id":"levelo_inurba_marseille","lat":43.30608,"lon":5.37229,"is_reserved":false,"is_disabled":false,"rental_uris":{"android":"levelo://app?vid=fe803ac1-b050-4b69-9446-3a325a0ae5af","ios":"levelo://app?vid=fe803ac1-b050-4b69-9446-3a325a0ae5af"},"vehicle_type_id":"4","last_reported":1727708968,"current_range_meters":26800,"station_id":"ce4bgqh2rcd13ifvqc4g","pricing_plan_id":"cebpf4jnsgd1na2vs0mg"},{"bike_id":"60e075bf-c6e2-43eb-80e1-04c72368ae33","system_id":"levelo_inurba_marseille","lat":43.3054,"lon":5.36519,"is_reserved":false,"is_disabled":false,"rental_uris":{"android":"levelo://app?vid=60e075bf-c6e2-43eb-80e1-04c72368ae33","ios":"levelo://app?vid=60e075bf-c6e2-43eb-80e1-04c72368ae33"},"vehicle_type_id":"4","last_reported":1727708968,"current_range_meters":24800,"station_id":"ce4bgs12rcd13ifvqcag","pricing_plan_id":"cebpf4jnsgd1na2vs0mg"},{"bike_id":"3ad168c0-f1fc-4900-bb75-ce190d3920b3","system_id":"levelo_inurba_marseille","lat":43.33755,"lon":5.37435,"is_reserved":false,"is_disabled":false,"rental_uris":{"android":"levelo://app?vid=3ad168c0-f1fc-4900-bb75-ce190d3920b3","ios":"levelo://app?vid=3ad168c0-f1fc-4900-bb75-ce190d3920b3"},"vehicle_type_id":"4","last_reported":1727708968,"current_range_meters":38000,"station_id":"","pricing_plan_id":"cebpf4jnsgd1na2vs0mg"},{"bike_id":"43defcf7-27fa-4722-b56f-e45a1dfc2de3","system_id":"levelo_inurba_marseille","lat":43.32405,"lon":5.38354,"is_reserved":false,"is_disabled":false,"rental_uris":{"android":"levelo://app?vid=43defcf7-27fa-4722-b56f-e45a1dfc2de3","ios":"levelo://app?vid=43defcf7-27fa-4722-b56f-e45a1dfc2de3"},"vehicle_type_id":"4","last_reported":1727708968,"current_range_meters":20400,"station_id":"","pricing_plan_id":"cebpf4jnsgd1na2vs0mg"},{"bike_id":"df2b664d-5bac-465f-88e7-ae06dcb5ed98","system_id":"levelo_inurba_marseille","lat":43.24171,"lon":5.36405,"is_reserved":false,"is_disabled":false,"rental_uris":{"android":"levelo://app?vid=df2b664d-5bac-465f-88e7-ae06dcb5ed98","ios":"levelo://app?vid=df2b664d-5bac-465f-88e7-ae06dcb5ed98"},"vehicle_type_id":"4","last_reported":1727708968,"current_range_meters":19600,"station_id":"cpo36qri1sfpv3e86is0","pricing_plan_id":"cebpf4jnsgd1na2vs0mg"},{"bike_id":"101c7ad3-d0cb-4d66-9754-dee94d136f90","system_id":"levelo_inurba_marseille","lat":43.273712,"lon":5.362611,"is_reserved":false,"is_disabled":false,"rental_uris":{"android":"levelo://app?vid=101c7ad3-d0cb-4d66-9754-dee94d136f90","ios":"levelo://app?vid=101c7ad3-d0cb-4d66-9754-dee94d136f90"},"vehicle_type_id":"4","last_reported":1727708968,"current_range_meters":33200,"station_id":"ce4bhbh2rcd13ifvqeo0","pricing_plan_id":"cebpf4jnsgd1na2vs0mg"},{"bike_id":"365dfba5-918f-44ac-8c71-9138dda11f13","system_id":"levelo_inurba_marseille","lat":43.28282,"lon":5.35068,"is_reserved":false,"is_disabled":false,"rental_uris":{"android":"levelo://app?vid=365dfba5-918f-44ac-8c71-9138dda11f13","ios":"levelo://app?vid=365dfba5-918f-44ac-8c71-9138dda11f13"},"vehicle_type_id":"4","last_reported":1727708968,"current_range_meters":17600,"station_id":"ce4bhbp2rcd13ifvqerg","pricing_plan_id":"cebpf4jnsgd1na2vs0mg"},{"bike_id":"8055f079-6e90-44df-9cfb-27a58383eeaa","system_id":"levelo_inurba_marseille","lat":43.30801,"lon":5.43516,"is_reserved":false,"is_disabled":false,"rental_uris":{"android":"levelo://app?vid=8055f079-6e90-44df-9cfb-27a58383eeaa","ios":"levelo://app?vid=8055f079-6e90-44df-9cfb-27a58383eeaa"},"vehicle_type_id":"4","last_reported":1727708968,"current_range_meters":14000,"station_id":"ce4bhph2rcd13ifvqheg","pricing_plan_id":"cebpf4jnsgd1na2vs0mg"},{"bike_id":"7d735b39-8122-4e2d-88aa-e55043d963e3","system_id":"levelo_inurba_marseille","lat":43.25084,"lon":5.39527,"is_reserved":false,"is_disabled":false,"rental_uris":{"android":"levelo://app?vid=7d735b39-8122-4e2d-88aa-e55043d963e3","ios":"levelo://app?vid=7d735b39-8122-4e2d-88aa-e55043d963e3"},"vehicle_type_id":"4","last_reported":1727708968,"current_range_meters":17200,"station_id":"ce4bhm12rcd13ifvqgkg","pricing_plan_id":"cebpf4jnsgd1na2vs0mg"},{"bike_id":"1d7a9d00-867a-4285-8645-ecc37e49cbb2","system_id":"levelo_inurba_marseille","lat":43.28696,"lon":5.37377,"is_reserved":false,"is_disabled":false,"rental_uris":{"android":"levelo://app?vid=1d7a9d00-867a-4285-8645-ecc37e49cbb2","ios":"levelo://app?vid=1d7a9d00-867a-4285-8645-ecc37e49cbb2"},"vehicle_type_id":"4","last_reported":1727708968,"current_range_meters":28000,"station_id":"ce4bh3p2rcd13ifvqdq0","pricing_plan_id":"cebpf4jnsgd1na2vs0mg"},{"bike_id":"57a80ae8-44a5-4b59-8305-8e5662314638","system_id":"levelo_inurba_marseille","lat":43.28229,"lon":5.38762,"is_reserved":false,"is_disabled":false,"rental_uris":{"android":"levelo://app?vid=57a80ae8-44a5-4b59-8305-8e5662314638","ios":"levelo://app?vid=57a80ae8-44a5-4b59-8305-8e5662314638"},"vehicle_type_id":"4","last_reported":1727708968,"current_range_meters":22000,"station_id":"","pricing_plan_id":"cebpf4jnsgd1na2vs0mg"},{"bike_id":"57698a50-0869-41af-afaa-a24559b00712","system_id":"levelo_inurba_marseille","lat":43.28456,"lon":5.35885,"is_reserved":false,"is_disabled":false,"rental_uris":{"android":"levelo://app?vid=57698a50-0869-41af-afaa-a24559b00712","ios":"levelo://app?vid=57698a50-0869-41af-afaa-a24559b00712"},"vehicle_type_id":"4","last_reported":1727708968,"current_range_meters":17200,"station_id":"ce4bhah2rcd13ifvqei0","pricing_plan_id":"cebpf4jnsgd1na2vs0mg"},{"bike_id":"380892d5-0c07-4382-989e-ba79e6cba25e","system_id":"levelo_inurba_marseille","lat":43.28017,"lon":5.36084,"is_reserved":false,"is_disabled":false,"rental_uris":{"android":"levelo://app?vid=380892d5-0c07-4382-989e-ba79e6cba25e","ios":"levelo://app?vid=380892d5-0c07-4382-989e-ba79e6cba25e"},"vehicle_type_id":"4","last_reported":1727708968,"current_range_meters":18000,"station_id":"","pricing_plan_id":"cebpf4jnsgd1na2vs0mg"},{"bike_id":"2781c9d5-86e8-43d9-a819-20df714453ba","system_id":"levelo_inurba_marseille","lat":43.25725,"lon":5.41109,"is_reserved":false,"is_disabled":false,"rental_uris":{"android":"levelo://app?vid=2781c9d5-86e8-43d9-a819-20df714453ba","ios":"levelo://app?vid=2781c9d5-86e8-43d9-a819-20df714453ba"},"vehicle_type_id":"4","last_reported":1727708968,"current_range_meters":34800,"station_id":"ce4bhkp2rcd13ifvqgd0","pricing_plan_id":"cebpf4jnsgd1na2vs0mg"},{"bike_id":"c2a87b1d-c503-4e83-94f3-d2d073385f24","system_id":"levelo_inurba_marseille","lat":43.28665,"lon":5.36346,"is_reserved":false,"is_disabled":false,"rental_uris":{"android":"levelo://app?vid=c2a87b1d-c503-4e83-94f3-d2d073385f24","ios":"levelo://app?vid=c2a87b1d-c503-4e83-94f3-d2d073385f24"},"vehicle_type_id":"4","last_reported":1727708968,"current_range_meters":30400,"station_id":"ce4bhah2rcd13ifvqej0","pricing_plan_id":"cebpf4jnsgd1na2vs0mg"},{"bike_id":"37daee57-810c-4d09-b94e-d5d2241434e6","system_id":"levelo_inurba_marseille","lat":43.33025,"lon":5.39036,"is_reserved":false,"is_disabled":false,"rental_uris":{"android":"levelo://app?vid=37daee57-810c-4d09-b94e-d5d2241434e6","ios":"levelo://app?vid=37daee57-810c-4d09-b94e-d5d2241434e6"},"vehicle_type_id":"4","last_reported":1727708968,"current_range_meters":32800,"station_id":"ce4bhr92rcd13ifvqhrg","pricing_plan_id":"cebpf4jnsgd1na2vs0mg"},{"bike_id":"eae1e0a2-659f-4783-a909-f486f6d72851","system_id":"levelo_inurba_marseille","lat":43.28278,"lon":5.35064,"is_reserved":false,"is_disabled":false,"rental_uris":{"android":"levelo://app?vid=eae1e0a2-659f-4783-a909-f486f6d72851","ios":"levelo://app?vid=eae1e0a2-659f-4783-a909-f486f6d72851"},"vehicle_type_id":"4","last_reported":1727708968,"current_range_meters":38400,"station_id":"ce4bhbp2rcd13ifvqerg","pricing_plan_id":"cebpf4jnsgd1na2vs0mg"},{"bike_id":"06c365e2-ada5-4784-b552-01f94928c737","system_id":"levelo_inurba_marseille","lat":43.337667,"lon":5.374383,"is_reserved":false,"is_disabled":false,"rental_uris":{"android":"levelo://app?vid=06c365e2-ada5-4784-b552-01f94928c737","ios":"levelo://app?vid=06c365e2-ada5-4784-b552-01f94928c737"},"vehicle_type_id":"4","last_reported":1727708968,"current_range_meters":11600,"station_id":"","pricing_plan_id":"cebpf4jnsgd1na2vs0mg"},{"bike_id":"f1edc2cc-5f72-4d3f-a579-cade23a963ca","system_id":"levelo_inurba_marseille","lat":43.30554,"lon":5.36532,"is_reserved":false,"is_disabled":false,"rental_uris":{"android":"levelo://app?vid=f1edc2cc-5f72-4d3f-a579-cade23a963ca","ios":"levelo://app?vid=f1edc2cc-5f72-4d3f-a579-cade23a963ca"},"vehicle_type_id":"4","last_reported":1727708968,"current_range_meters":38800,"station_id":"ce4bgs12rcd13ifvqcag","pricing_plan_id":"cebpf4jnsgd1na2vs0mg"},{"bike_id":"7f65494c-bb0c-463b-b3a3-c11c60597589","system_id":"levelo_inurba_marseille","lat":43.24386,"lon":5.37067,"is_reserved":false,"is_disabled":false,"rental_uris":{"android":"levelo://app?vid=7f65494c-bb0c-463b-b3a3-c11c60597589","ios":"levelo://app?vid=7f65494c-bb0c-463b-b3a3-c11c60597589"},"vehicle_type_id":"4","last_reported":1727708968,"current_range_meters":37600,"station_id":"ce4bhhh2rcd13ifvqfk0","pricing_plan_id":"cebpf4jnsgd1na2vs0mg"},{"bike_id":"59939d6d-fbb7-4d15-9c06-0d40b1a5e9c7","system_id":"levelo_inurba_marseille","lat":43.30602,"lon":5.3724,"is_reserved":false,"is_disabled":false,"rental_uris":{"android":"levelo://app?vid=59939d6d-fbb7-4d15-9c06-0d40b1a5e9c7","ios":"levelo://app?vid=59939d6d-fbb7-4d15-9c06-0d40b1a5e9c7"},"vehicle_type_id":"4","last_reported":1727708968,"current_range_meters":4000,"station_id":"ce4bgqh2rcd13ifvqc4g","pricing_plan_id":"cebpf4jnsgd1na2vs0mg"},{"bike_id":"918a76fa-3501-4977-94c9-aac2efae816d","system_id":"levelo_inurba_marseille","lat":43.32475,"lon":5.36556,"is_reserved":false,"is_disabled":false,"rental_uris":{"android":"levelo://app?vid=918a76fa-3501-4977-94c9-aac2efae816d","ios":"levelo://app?vid=918a76fa-3501-4977-94c9-aac2efae816d"},"vehicle_type_id":"4","last_reported":1727708968,"current_range_meters":38800,"station_id":"ce4bhs12rcd13ifvqhvg","pricing_plan_id":"cebpf4jnsgd1na2vs0mg"},{"bike_id":"3c423d2f-a6c6-4047-aeb4-33efbda204f0","system_id":"levelo_inurba_marseille","lat":43.26209,"lon":5.37442,"is_reserved":false,"is_disabled":false,"rental_uris":{"android":"levelo://app?vid=3c423d2f-a6c6-4047-aeb4-33efbda204f0","ios":"levelo://app?vid=3c423d2f-a6c6-4047-aeb4-33efbda204f0"},"vehicle_type_id":"4","last_reported":1727708968,"current_range_meters":6000,"station_id":"ce4bhgp2rcd13ifvqfc0","pricing_plan_id":"cebpf4jnsgd1na2vs0mg"},{"bike_id":"da248985-1128-4631-8b3f-98417dbb7211","system_id":"levelo_inurba_marseille","lat":43.29708,"lon":5.36612,"is_reserved":false,"is_disabled":false,"rental_uris":{"android":"levelo://app?vid=da248985-1128-4631-8b3f-98417dbb7211","ios":"levelo://app?vid=da248985-1128-4631-8b3f-98417dbb7211"},"vehicle_type_id":"4","last_reported":1727708968,"current_range_meters":22000,"station_id":"ce4bgn12rcd13ifvqbt0","pricing_plan_id":"cebpf4jnsgd1na2vs0mg"},{"bike_id":"9d854759-c521-4fb4-beae-dcd66a4a753b","system_id":"levelo_inurba_marseille","lat":43.26204,"lon":5.37938,"is_reserved":false,"is_disabled":false,"rental_uris":{"android":"levelo://app?vid=9d854759-c521-4fb4-beae-dcd66a4a753b","ios":"levelo://app?vid=9d854759-c521-4fb4-beae-dcd66a4a753b"},"vehicle_type_id":"4","last_reported":1727708968,"current_range_meters":4000,"station_id":"ce4bhjp2rcd13ifvqg90","pricing_plan_id":"cebpf4jnsgd1na2vs0mg"},{"bike_id":"8f3e9790-251e-4574-b223-204a165463ef","system_id":"levelo_inurba_marseille","lat":43.29894,"lon":5.38149,"is_reserved":false,"is_disabled":false,"rental_uris":{"android":"levelo://app?vid=8f3e9790-251e-4574-b223-204a165463ef","ios":"levelo://app?vid=8f3e9790-251e-4574-b223-204a165463ef"},"vehicle_type_id":"4","last_reported":1727708968,"current_range_meters":38800,"station_id":"ce4bgj12rcd13ifvqbc0","pricing_plan_id":"cebpf4jnsgd1na2vs0mg"},{"bike_id":"a5b0e3ae-fb8e-46c5-9274-e699c303c3f5","system_id":"levelo_inurba_marseille","lat":43.28458,"lon":5.35882,"is_reserved":false,"is_disabled":false,"rental_uris":{"android":"levelo://app?vid=a5b0e3ae-fb8e-46c5-9274-e699c303c3f5","ios":"levelo://app?vid=a5b0e3ae-fb8e-46c5-9274-e699c303c3f5"},"vehicle_type_id":"4","last_reported":1727708968,"current_range_meters":3200,"station_id":"ce4bhah2rcd13ifvqei0","pricing_plan_id":"cebpf4jnsgd1na2vs0mg"},{"bike_id":"95f864cd-3d33-4a22-9e76-46c0e49460f2","system_id":"levelo_inurba_marseille","lat":43.30534,"lon":5.36534,"is_reserved":false,"is_disabled":false,"rental_uris":{"android":"levelo://app?vid=95f864cd-3d33-4a22-9e76-46c0e49460f2","ios":"levelo://app?vid=95f864cd-3d33-4a22-9e76-46c0e49460f2"},"vehicle_type_id":"4","last_reported":1727708968,"current_range_meters":8000,"station_id":"ce4bgs12rcd13ifvqcag","pricing_plan_id":"cebpf4jnsgd1na2vs0mg"},{"bike_id":"65b81cad-d8c4-4688-a851-db55e68aac95","system_id":"levelo_inurba_marseille","lat":43.31358,"lon":5.36706,"is_reserved":false,"is_disabled":false,"rental_uris":{"android":"levelo://app?vid=65b81cad-d8c4-4688-a851-db55e68aac95","ios":"levelo://app?vid=65b81cad-d8c4-4688-a851-db55e68aac95"},"vehicle_type_id":"4","last_reported":1727708968,"current_range_meters":38800,"station_id":"ce4bgr92rcd13ifvqc6g","pricing_plan_id":"cebpf4jnsgd1na2vs0mg"},{"bike_id":"43c06965-23b9-4d30-b7e8-7a5ba49ffbec","system_id":"levelo_inurba_marseille","lat":43.32318,"lon":5.38295,"is_reserved":false,"is_disabled":false,"rental_uris":{"android":"levelo://app?vid=43c06965-23b9-4d30-b7e8-7a5ba49ffbec","ios":"levelo://app?vid=43c06965-23b9-4d30-b7e8-7a5ba49ffbec"},"vehicle_type_id":"4","last_reported":1727708968,"current_range_meters":32400,"station_id":"ce4bhr12rcd13ifvqhqg","pricing_plan_id":"cebpf4jnsgd1na2vs0mg"},{"bike_id":"5b800d39-ba23-48e7-941c-fd0fa9bc4b89","system_id":"levelo_inurba_marseille","lat":43.3123,"lon":5.36861,"is_reserved":false,"is_disabled":false,"rental_uris":{"android":"levelo://app?vid=5b800d39-ba23-48e7-941c-fd0fa9bc4b89","ios":"levelo://app?vid=5b800d39-ba23-48e7-941c-fd0fa9bc4b89"},"vehicle_type_id":"4","last_reported":1727708968,"current_range_meters":2800,"station_id":"ce4bgl92rcd13ifvqbq0","pricing_plan_id":"cebpf4jnsgd1na2vs0mg"},{"bike_id":"6d165c85-437f-48d3-b6d6-82357d99a12b","system_id":"levelo_inurba_marseille","lat":43.28435,"lon":5.39195,"is_reserved":false,"is_disabled":false,"rental_uris":{"android":"levelo://app?vid=6d165c85-437f-48d3-b6d6-82357d99a12b","ios":"levelo://app?vid=6d165c85-437f-48d3-b6d6-82357d99a12b"},"vehicle_type_id":"4","last_reported":1727708968,"current_range_meters":38800,"station_id":"ce4bhoh2rcd13ifvqh5g","pricing_plan_id":"cebpf4jnsgd1na2vs0mg"},{"bike_id":"4a72e0f8-7c23-420c-87a3-0fe348276f0a","system_id":"levelo_inurba_marseille","lat":43.275522,"lon":5.384303,"is_reserved":false,"is_disabled":false,"rental_uris":{"android":"levelo://app?vid=4a72e0f8-7c23-420c-87a3-0fe348276f0a","ios":"levelo://app?vid=4a72e0f8-7c23-420c-87a3-0fe348276f0a"},"vehicle_type_id":"4","last_reported":1727708968,"current_range_meters":15200,"station_id":"ce4bhh92rcd13ifvqfi0","pricing_plan_id":"cebpf4jnsgd1na2vs0mg"},{"bike_id":"e2a9cc6e-424f-4c5e-930f-00d6dc0c4774","system_id":"levelo_inurba_marseille","lat":43.27613,"lon":5.36115,"is_reserved":false,"is_disabled":false,"rental_uris":{"android":"levelo://app?vid=e2a9cc6e-424f-4c5e-930f-00d6dc0c4774","ios":"levelo://app?vid=e2a9cc6e-424f-4c5e-930f-00d6dc0c4774"},"vehicle_type_id":"4","last_reported":1727708968,"current_range_meters":14000,"station_id":"ce4bgj92rcd13ifvqbe0","pricing_plan_id":"cebpf4jnsgd1na2vs0mg"},{"bike_id":"daa1cf65-00c7-4433-9b4b-c23c9ed81bff","system_id":"levelo_inurba_marseille","lat":43.24805,"lon":5.37452,"is_reserved":false,"is_disabled":false,"rental_uris":{"android":"levelo://app?vid=daa1cf65-00c7-4433-9b4b-c23c9ed81bff","ios":"levelo://app?vid=daa1cf65-00c7-4433-9b4b-c23c9ed81bff"},"vehicle_type_id":"4","last_reported":1727708968,"current_range_meters":11200,"station_id":"ce4bhgh2rcd13ifvqfb0","pricing_plan_id":"cebpf4jnsgd1na2vs0mg"},{"bike_id":"4fe79afc-3295-4d2e-9ac0-984aec7f2fb8","system_id":"levelo_inurba_marseille","lat":43.29065,"lon":5.37169,"is_reserved":false,"is_disabled":false,"rental_uris":{"android":"levelo://app?vid=4fe79afc-3295-4d2e-9ac0-984aec7f2fb8","ios":"levelo://app?vid=4fe79afc-3295-4d2e-9ac0-984aec7f2fb8"},"vehicle_type_id":"4","last_reported":1727708968,"current_range_meters":38400,"station_id":"ce4bh5p2rcd13ifvqe4g","pricing_plan_id":"cebpf4jnsgd1na2vs0mg"},{"bike_id":"af8726ce-1f41-4136-ae0b-14a0449a0611","system_id":"levelo_inurba_marseille","lat":43.23963,"lon":5.36638,"is_reserved":false,"is_disabled":false,"rental_uris":{"android":"levelo://app?vid=af8726ce-1f41-4136-ae0b-14a0449a0611","ios":"levelo://app?vid=af8726ce-1f41-4136-ae0b-14a0449a0611"},"vehicle_type_id":"4","last_reported":1727708968,"current_range_meters":27600,"station_id":"ce4bhi12rcd13ifvqfp0","pricing_plan_id":"cebpf4jnsgd1na2vs0mg"},{"bike_id":"58303d09-2231-4d94-8ee6-9f07e0a1e318","system_id":"levelo_inurba_marseille","lat":43.29897,"lon":5.4366,"is_reserved":false,"is_disabled":false,"rental_uris":{"android":"levelo://app?vid=58303d09-2231-4d94-8ee6-9f07e0a1e318","ios":"levelo://app?vid=58303d09-2231-4d94-8ee6-9f07e0a1e318"},"vehicle_type_id":"4","last_reported":1727708968,"current_range_meters":38800,"station_id":"ce4bhpp2rcd13ifvqhfg","pricing_plan_id":"cebpf4jnsgd1na2vs0mg"},{"bike_id":"fc707330-418e-471e-b171-2c4dd9f1bc3f","system_id":"levelo_inurba_marseille","lat":43.26562,"lon":5.39008,"is_reserved":false,"is_disabled":false,"rental_uris":{"android":"levelo://app?vid=fc707330-418e-471e-b171-2c4dd9f1bc3f","ios":"levelo://app?vid=fc707330-418e-471e-b171-2c4dd9f1bc3f"},"vehicle_type_id":"4","last_reported":1727708968,"current_range_meters":6000,"station_id":"ce4bhe12rcd13ifvqf30","pricing_plan_id":"cebpf4jnsgd1na2vs0mg"},{"bike_id":"bcf3ed6c-4c2f-43f5-9b45-bc01e7f6cd6a","system_id":"levelo_inurba_marseille","lat":43.26038,"lon":5.37548,"is_reserved":false,"is_disabled":false,"rental_uris":{"android":"levelo://app?vid=bcf3ed6c-4c2f-43f5-9b45-bc01e7f6cd6a","ios":"levelo://app?vid=bcf3ed6c-4c2f-43f5-9b45-bc01e7f6cd6a"},"vehicle_type_id":"4","last_reported":1727708968,"current_range_meters":38800,"station_id":"ce4bhgh2rcd13ifvqfa0","pricing_plan_id":"cebpf4jnsgd1na2vs0mg"},{"bike_id":"662e9d7f-f4ca-45c1-ba98-1691a180f4cf","system_id":"levelo_inurba_marseille","lat":43.309052,"lon":5.368343,"is_reserved":false,"is_disabled":false,"rental_uris":{"android":"levelo://app?vid=662e9d7f-f4ca-45c1-ba98-1691a180f4cf","ios":"levelo://app?vid=662e9d7f-f4ca-45c1-ba98-1691a180f4cf"},"vehicle_type_id":"4","last_reported":1727708968,"current_range_meters":21600,"station_id":"ce4bgi12rcd13ifvqb70","pricing_plan_id":"cebpf4jnsgd1na2vs0mg"},{"bike_id":"d26f9383-4a53-4c5e-bb44-290ded97eddc","system_id":"levelo_inurba_marseille","lat":43.22931,"lon":5.35373,"is_reserved":false,"is_disabled":false,"rental_uris":{"android":"levelo://app?vid=d26f9383-4a53-4c5e-bb44-290ded97eddc","ios":"levelo://app?vid=d26f9383-4a53-4c5e-bb44-290ded97eddc"},"vehicle_type_id":"4","last_reported":1727708968,"current_range_meters":28800,"station_id":"cpo3532slgdg3j2ikp40","pricing_plan_id":"cebpf4jnsgd1na2vs0mg"},{"bike_id":"62110c18-ba6e-4a54-8b88-fbfbaf57e32e","system_id":"levelo_inurba_marseille","lat":43.32549,"lon":5.41419,"is_reserved":false,"is_disabled":false,"rental_uris":{"android":"levelo://app?vid=62110c18-ba6e-4a54-8b88-fbfbaf57e32e","ios":"levelo://app?vid=62110c18-ba6e-4a54-8b88-fbfbaf57e32e"},"vehicle_type_id":"4","last_reported":1727708968,"current_range_meters":38800,"station_id":"ce4bhq12rcd13ifvqhhg","pricing_plan_id":"cebpf4jnsgd1na2vs0mg"},{"bike_id":"b257cc2a-dd28-4747-98b6-473a2c80c625","system_id":"levelo_inurba_marseille","lat":43.26058,"lon":5.39399,"is_reserved":false,"is_disabled":false,"rental_uris":{"android":"levelo://app?vid=b257cc2a-dd28-4747-98b6-473a2c80c625","ios":"levelo://app?vid=b257cc2a-dd28-4747-98b6-473a2c80c625"},"vehicle_type_id":"4","last_reported":1727708968,"current_range_meters":22800,"station_id":"ce4bhh92rcd13ifvqfj0","pricing_plan_id":"cebpf4jnsgd1na2vs0mg"},{"bike_id":"046fd3c9-ba07-4e5a-b171-efa86f02f6b7","system_id":"levelo_inurba_marseille","lat":43.26491,"lon":5.3955,"is_reserved":false,"is_disabled":false,"rental_uris":{"android":"levelo://app?vid=046fd3c9-ba07-4e5a-b171-efa86f02f6b7","ios":"levelo://app?vid=046fd3c9-ba07-4e5a-b171-efa86f02f6b7"},"vehicle_type_id":"4","last_reported":1727708968,"current_range_meters":14800,"station_id":"ce4bhi12rcd13ifvqfq0","pricing_plan_id":"cebpf4jnsgd1na2vs0mg"},{"bike_id":"1b849dbf-f17a-4368-adf7-d5bf68f9ad10","system_id":"levelo_inurba_marseille","lat":43.28425,"lon":5.34985,"is_reserved":false,"is_disabled":false,"rental_uris":{"android":"levelo://app?vid=1b849dbf-f17a-4368-adf7-d5bf68f9ad10","ios":"levelo://app?vid=1b849dbf-f17a-4368-adf7-d5bf68f9ad10"},"vehicle_type_id":"4","last_reported":1727708968,"current_range_meters":16800,"station_id":"ce4bhbh2rcd13ifvqepg","pricing_plan_id":"cebpf4jnsgd1na2vs0mg"},{"bike_id":"27032e59-ac11-432d-afc2-d44964cc9639","system_id":"levelo_inurba_marseille","lat":43.3176,"lon":5.39012,"is_reserved":false,"is_disabled":false,"rental_uris":{"android":"levelo://app?vid=27032e59-ac11-432d-afc2-d44964cc9639","ios":"levelo://app?vid=27032e59-ac11-432d-afc2-d44964cc9639"},"vehicle_type_id":"4","last_reported":1727708968,"current_range_meters":8000,"station_id":"ce4bhqp2rcd13ifvqhng","pricing_plan_id":"cebpf4jnsgd1na2vs0mg"},{"bike_id":"ad206a69-0c93-4196-94a3-4d384525af68","system_id":"levelo_inurba_marseille","lat":43.301466,"lon":5.374276,"is_reserved":false,"is_disabled":false,"rental_uris":{"android":"levelo://app?vid=ad206a69-0c93-4196-94a3-4d384525af68","ios":"levelo://app?vid=ad206a69-0c93-4196-94a3-4d384525af68"},"vehicle_type_id":"4","last_reported":1727708968,"current_range_meters":8000,"station_id":"ce4bgop2rcd13ifvqc1g","pricing_plan_id":"cebpf4jnsgd1na2vs0mg"},{"bike_id":"d5a70197-bdd3-40f2-b252-d4e90221220b","system_id":"levelo_inurba_marseille","lat":43.306012,"lon":5.372138,"is_reserved":false,"is_disabled":false,"rental_uris":{"android":"levelo://app?vid=d5a70197-bdd3-40f2-b252-d4e90221220b","ios":"levelo://app?vid=d5a70197-bdd3-40f2-b252-d4e90221220b"},"vehicle_type_id":"4","last_reported":1727708968,"current_range_meters":7200,"station_id":"ce4bgqh2rcd13ifvqc4g","pricing_plan_id":"cebpf4jnsgd1na2vs0mg"},{"bike_id":"d0c4fe0e-9277-4486-a92c-9e53dfbc8aa0","system_id":"levelo_inurba_marseille","lat":43.27497,"lon":5.42452,"is_reserved":false,"is_disabled":false,"rental_uris":{"android":"levelo://app?vid=d0c4fe0e-9277-4486-a92c-9e53dfbc8aa0","ios":"levelo://app?vid=d0c4fe0e-9277-4486-a92c-9e53dfbc8aa0"},"vehicle_type_id":"4","last_reported":1727708968,"current_range_meters":26800,"station_id":"ce4bhn92rcd13ifvqgrg","pricing_plan_id":"cebpf4jnsgd1na2vs0mg"},{"bike_id":"18bd0101-baec-4df5-aea8-6b5390ae0786","system_id":"levelo_inurba_marseille","lat":43.2319,"lon":5.39994,"is_reserved":false,"is_disabled":false,"rental_uris":{"android":"levelo://app?vid=18bd0101-baec-4df5-aea8-6b5390ae0786","ios":"levelo://app?vid=18bd0101-baec-4df5-aea8-6b5390ae0786"},"vehicle_type_id":"4","last_reported":1727708968,"current_range_meters":21600,"station_id":"ce4bhn12rcd13ifvqgqg","pricing_plan_id":"cebpf4jnsgd1na2vs0mg"},{"bike_id":"2656493b-1bcd-4435-9007-d772561b622b","system_id":"levelo_inurba_marseille","lat":43.2885,"lon":5.39322,"is_reserved":false,"is_disabled":false,"rental_uris":{"android":"levelo://app?vid=2656493b-1bcd-4435-9007-d772561b622b","ios":"levelo://app?vid=2656493b-1bcd-4435-9007-d772561b622b"},"vehicle_type_id":"4","last_reported":1727708968,"current_range_meters":16000,"station_id":"ce4bh2p2rcd13ifvqdi0","pricing_plan_id":"cebpf4jnsgd1na2vs0mg"},{"bike_id":"560eec86-d20e-4632-be2b-0f04c3e3f7f0","system_id":"levelo_inurba_marseille","lat":43.27069,"lon":5.42277,"is_reserved":false,"is_disabled":false,"rental_uris":{"android":"levelo://app?vid=560eec86-d20e-4632-be2b-0f04c3e3f7f0","ios":"levelo://app?vid=560eec86-d20e-4632-be2b-0f04c3e3f7f0"},"vehicle_type_id":"4","last_reported":1727708968,"current_range_meters":28400,"station_id":"ce4bhk92rcd13ifvqgb0","pricing_plan_id":"cebpf4jnsgd1na2vs0mg"},{"bike_id":"791778cb-b9b1-46da-80e8-ce0940cdd61d","system_id":"levelo_inurba_marseille","lat":43.23188,"lon":5.35547,"is_reserved":false,"is_disabled":false,"rental_uris":{"android":"levelo://app?vid=791778cb-b9b1-46da-80e8-ce0940cdd61d","ios":"levelo://app?vid=791778cb-b9b1-46da-80e8-ce0940cdd61d"},"vehicle_type_id":"4","last_reported":1727708968,"current_range_meters":9600,"station_id":"ce4bhu92rcd13ifvqi70","pricing_plan_id":"cebpf4jnsgd1na2vs0mg"},{"bike_id":"c91b2253-767b-4237-82bc-49763653b489","system_id":"levelo_inurba_marseille","lat":43.3042,"lon":5.41282,"is_reserved":false,"is_disabled":false,"rental_uris":{"android":"levelo://app?vid=c91b2253-767b-4237-82bc-49763653b489","ios":"levelo://app?vid=c91b2253-767b-4237-82bc-49763653b489"},"vehicle_type_id":"4","last_reported":1727708968,"current_range_meters":40000,"station_id":"ce4bhop2rcd13ifvqh8g","pricing_plan_id":"cebpf4jnsgd1na2vs0mg"},{"bike_id":"0569ffd9-5d73-439a-979a-a1c88b9a1061","system_id":"levelo_inurba_marseille","lat":43.32914,"lon":5.39046,"is_reserved":false,"is_disabled":false,"rental_uris":{"android":"levelo://app?vid=0569ffd9-5d73-439a-979a-a1c88b9a1061","ios":"levelo://app?vid=0569ffd9-5d73-439a-979a-a1c88b9a1061"},"vehicle_type_id":"4","last_reported":1727708968,"current_range_meters":32400,"station_id":"","pricing_plan_id":"cebpf4jnsgd1na2vs0mg"},{"bike_id":"80e06d63-e4bc-451b-a7e9-c06cc1bc640e","system_id":"levelo_inurba_marseille","lat":43.27067,"lon":5.42273,"is_reserved":false,"is_disabled":false,"rental_uris":{"android":"levelo://app?vid=80e06d63-e4bc-451b-a7e9-c06cc1bc640e","ios":"levelo://app?vid=80e06d63-e4bc-451b-a7e9-c06cc1bc640e"},"vehicle_type_id":"4","last_reported":1727708968,"current_range_meters":18800,"station_id":"ce4bhk92rcd13ifvqgb0","pricing_plan_id":"cebpf4jnsgd1na2vs0mg"},{"bike_id":"f40c1199-7872-47ee-8026-44a1466c4d2e","system_id":"levelo_inurba_marseille","lat":43.3211,"lon":5.36761,"is_reserved":false,"is_disabled":false,"rental_uris":{"android":"levelo://app?vid=f40c1199-7872-47ee-8026-44a1466c4d2e","ios":"levelo://app?vid=f40c1199-7872-47ee-8026-44a1466c4d2e"},"vehicle_type_id":"4","last_reported":1727708968,"current_range_meters":38800,"station_id":"ce4bhrh2rcd13ifvqhug","pricing_plan_id":"cebpf4jnsgd1na2vs0mg"},{"bike_id":"66270a4b-d009-417d-807c-5bc170647e9b","system_id":"levelo_inurba_marseille","lat":43.33752,"lon":5.37443,"is_reserved":false,"is_disabled":false,"rental_uris":{"android":"levelo://app?vid=66270a4b-d009-417d-807c-5bc170647e9b","ios":"levelo://app?vid=66270a4b-d009-417d-807c-5bc170647e9b"},"vehicle_type_id":"4","last_reported":1727708968,"current_range_meters":38400,"station_id":"","pricing_plan_id":"cebpf4jnsgd1na2vs0mg"},{"bike_id":"bd86acbb-18ff-4457-8d99-e11793cb14a0","system_id":"levelo_inurba_marseille","lat":43.27077,"lon":5.42265,"is_reserved":false,"is_disabled":false,"rental_uris":{"android":"levelo://app?vid=bd86acbb-18ff-4457-8d99-e11793cb14a0","ios":"levelo://app?vid=bd86acbb-18ff-4457-8d99-e11793cb14a0"},"vehicle_type_id":"4","last_reported":1727708968,"current_range_meters":30800,"station_id":"ce4bhk92rcd13ifvqgb0","pricing_plan_id":"cebpf4jnsgd1na2vs0mg"},{"bike_id":"53b8b279-3e36-4185-b3b0-4688e1a414fb","system_id":"levelo_inurba_marseille","lat":43.28428,"lon":5.34977,"is_reserved":false,"is_disabled":false,"rental_uris":{"android":"levelo://app?vid=53b8b279-3e36-4185-b3b0-4688e1a414fb","ios":"levelo://app?vid=53b8b279-3e36-4185-b3b0-4688e1a414fb"},"vehicle_type_id":"4","last_reported":1727708968,"current_range_meters":35600,"station_id":"ce4bhbh2rcd13ifvqepg","pricing_plan_id":"cebpf4jnsgd1na2vs0mg"},{"bike_id":"7ebef0d5-ad33-4431-ac87-a11795f91fb2","system_id":"levelo_inurba_marseille","lat":43.31762,"lon":5.39013,"is_reserved":false,"is_disabled":false,"rental_uris":{"android":"levelo://app?vid=7ebef0d5-ad33-4431-ac87-a11795f91fb2","ios":"levelo://app?vid=7ebef0d5-ad33-4431-ac87-a11795f91fb2"},"vehicle_type_id":"4","last_reported":1727708968,"current_range_meters":18000,"station_id":"ce4bhqp2rcd13ifvqhng","pricing_plan_id":"cebpf4jnsgd1na2vs0mg"},{"bike_id":"b5287088-8145-4a2d-aba3-2d3c6aacbb87","system_id":"levelo_inurba_marseille","lat":43.23966,"lon":5.36639,"is_reserved":false,"is_disabled":false,"rental_uris":{"android":"levelo://app?vid=b5287088-8145-4a2d-aba3-2d3c6aacbb87","ios":"levelo://app?vid=b5287088-8145-4a2d-aba3-2d3c6aacbb87"},"vehicle_type_id":"4","last_reported":1727708968,"current_range_meters":38800,"station_id":"ce4bhi12rcd13ifvqfp0","pricing_plan_id":"cebpf4jnsgd1na2vs0mg"},{"bike_id":"e43e2f2a-2ca9-48f9-9b05-bb41329c7466","system_id":"levelo_inurba_marseille","lat":43.31108,"lon":5.37773,"is_reserved":false,"is_disabled":false,"rental_uris":{"android":"levelo://app?vid=e43e2f2a-2ca9-48f9-9b05-bb41329c7466","ios":"levelo://app?vid=e43e2f2a-2ca9-48f9-9b05-bb41329c7466"},"vehicle_type_id":"4","last_reported":1727708968,"current_range_meters":19600,"station_id":"ce4bgt92rcd13ifvqcg0","pricing_plan_id":"cebpf4jnsgd1na2vs0mg"},{"bike_id":"4b8c8b27-48ee-4f45-b57e-738460c2fbb7","system_id":"levelo_inurba_marseille","lat":43.33765,"lon":5.37427,"is_reserved":false,"is_disabled":false,"rental_uris":{"android":"levelo://app?vid=4b8c8b27-48ee-4f45-b57e-738460c2fbb7","ios":"levelo://app?vid=4b8c8b27-48ee-4f45-b57e-738460c2fbb7"},"vehicle_type_id":"4","last_reported":1727708968,"current_range_meters":37600,"station_id":"","pricing_plan_id":"cebpf4jnsgd1na2vs0mg"},{"bike_id":"b2cf4488-ba37-4426-ab84-d7b5609935df","system_id":"levelo_inurba_marseille","lat":43.28569,"lon":5.395,"is_reserved":false,"is_disabled":false,"rental_uris":{"android":"levelo://app?vid=b2cf4488-ba37-4426-ab84-d7b5609935df","ios":"levelo://app?vid=b2cf4488-ba37-4426-ab84-d7b5609935df"},"vehicle_type_id":"4","last_reported":1727708968,"current_range_meters":8000,"station_id":"ce4bh292rcd13ifvqdg0","pricing_plan_id":"cebpf4jnsgd1na2vs0mg"},{"bike_id":"3a1bb991-d927-4e42-83c7-80db4be539f3","system_id":"levelo_inurba_marseille","lat":43.31073,"lon":5.38355,"is_reserved":false,"is_disabled":false,"rental_uris":{"android":"levelo://app?vid=3a1bb991-d927-4e42-83c7-80db4be539f3","ios":"levelo://app?vid=3a1bb991-d927-4e42-83c7-80db4be539f3"},"vehicle_type_id":"4","last_reported":1727708968,"current_range_meters":10000,"station_id":"ce4bgv92rcd13ifvqcr0","pricing_plan_id":"cebpf4jnsgd1na2vs0mg"},{"bike_id":"c26a6d45-d516-4acf-9015-e48bc06ce568","system_id":"levelo_inurba_marseille","lat":43.279985,"lon":5.400127,"is_reserved":false,"is_disabled":false,"rental_uris":{"android":"levelo://app?vid=c26a6d45-d516-4acf-9015-e48bc06ce568","ios":"levelo://app?vid=c26a6d45-d516-4acf-9015-e48bc06ce568"},"vehicle_type_id":"4","last_reported":1727708968,"current_range_meters":17200,"station_id":"ce4bho92rcd13ifvqh4g","pricing_plan_id":"cebpf4jnsgd1na2vs0mg"},{"bike_id":"43feaae2-649d-47c0-bb78-8d60b1230864","system_id":"levelo_inurba_marseille","lat":43.31272,"lon":5.40163,"is_reserved":false,"is_disabled":false,"rental_uris":{"android":"levelo://app?vid=43feaae2-649d-47c0-bb78-8d60b1230864","ios":"levelo://app?vid=43feaae2-649d-47c0-bb78-8d60b1230864"},"vehicle_type_id":"4","last_reported":1727708968,"current_range_meters":31200,"station_id":"ce4bh092rcd13ifvqd30","pricing_plan_id":"cebpf4jnsgd1na2vs0mg"},{"bike_id":"f3f00dbf-323a-42a8-ace3-4a4195aa797c","system_id":"levelo_inurba_marseille","lat":43.27899,"lon":5.38004,"is_reserved":false,"is_disabled":false,"rental_uris":{"android":"levelo://app?vid=f3f00dbf-323a-42a8-ace3-4a4195aa797c","ios":"levelo://app?vid=f3f00dbf-323a-42a8-ace3-4a4195aa797c"},"vehicle_type_id":"4","last_reported":1727708968,"current_range_meters":38800,"station_id":"ce4bhf92rcd13ifvqf50","pricing_plan_id":"cebpf4jnsgd1na2vs0mg"},{"bike_id":"181ce08b-bb45-4aa5-8582-142b16261bb6","system_id":"levelo_inurba_marseille","lat":43.25725,"lon":5.41106,"is_reserved":false,"is_disabled":false,"rental_uris":{"android":"levelo://app?vid=181ce08b-bb45-4aa5-8582-142b16261bb6","ios":"levelo://app?vid=181ce08b-bb45-4aa5-8582-142b16261bb6"},"vehicle_type_id":"4","last_reported":1727708968,"current_range_meters":17200,"station_id":"ce4bhkp2rcd13ifvqgd0","pricing_plan_id":"cebpf4jnsgd1na2vs0mg"},{"bike_id":"8b6287e7-dab6-4802-bff8-30c18046dbb7","system_id":"levelo_inurba_marseille","lat":43.30325,"lon":5.40443,"is_reserved":false,"is_disabled":false,"rental_uris":{"android":"levelo://app?vid=8b6287e7-dab6-4802-bff8-30c18046dbb7","ios":"levelo://app?vid=8b6287e7-dab6-4802-bff8-30c18046dbb7"},"vehicle_type_id":"4","last_reported":1727708968,"current_range_meters":8000,"station_id":"ce4bh012rcd13ifvqd10","pricing_plan_id":"cebpf4jnsgd1na2vs0mg"},{"bike_id":"506065c9-a261-470c-8a02-26fb6f0ed83c","system_id":"levelo_inurba_marseille","lat":43.30787,"lon":5.37655,"is_reserved":false,"is_disabled":false,"rental_uris":{"android":"levelo://app?vid=506065c9-a261-470c-8a02-26fb6f0ed83c","ios":"levelo://app?vid=506065c9-a261-470c-8a02-26fb6f0ed83c"},"vehicle_type_id":"4","last_reported":1727708968,"current_range_meters":39200,"station_id":"ce4bgv92rcd13ifvqcq0","pricing_plan_id":"cebpf4jnsgd1na2vs0mg"},{"bike_id":"c2fba645-bdf1-46f5-a7f4-6a2f4c9202e2","system_id":"levelo_inurba_marseille","lat":43.29849,"lon":5.36282,"is_reserved":false,"is_disabled":false,"rental_uris":{"android":"levelo://app?vid=c2fba645-bdf1-46f5-a7f4-6a2f4c9202e2","ios":"levelo://app?vid=c2fba645-bdf1-46f5-a7f4-6a2f4c9202e2"},"vehicle_type_id":"4","last_reported":1727708968,"current_range_meters":28000,"station_id":"ce4bgpp2rcd13ifvqc3g","pricing_plan_id":"cebpf4jnsgd1na2vs0mg"},{"bike_id":"e528b4ff-4def-4dee-84e9-2bf97395ea16","system_id":"levelo_inurba_marseille","lat":43.31712,"lon":5.43702,"is_reserved":false,"is_disabled":false,"rental_uris":{"android":"levelo://app?vid=e528b4ff-4def-4dee-84e9-2bf97395ea16","ios":"levelo://app?vid=e528b4ff-4def-4dee-84e9-2bf97395ea16"},"vehicle_type_id":"4","last_reported":1727708968,"current_range_meters":34000,"station_id":"ce4bhp92rcd13ifvqhcg","pricing_plan_id":"cebpf4jnsgd1na2vs0mg"},{"bike_id":"082eaeb6-93e1-435c-800c-9beb0fc2409f","system_id":"levelo_inurba_marseille","lat":43.29871,"lon":5.39736,"is_reserved":false,"is_disabled":false,"rental_uris":{"android":"levelo://app?vid=082eaeb6-93e1-435c-800c-9beb0fc2409f","ios":"levelo://app?vid=082eaeb6-93e1-435c-800c-9beb0fc2409f"},"vehicle_type_id":"4","last_reported":1727708968,"current_range_meters":27600,"station_id":"ce4bh0h2rcd13ifvqd50","pricing_plan_id":"cebpf4jnsgd1na2vs0mg"},{"bike_id":"28852017-1b7b-47fa-93ea-9620ab3f2e28","system_id":"levelo_inurba_marseille","lat":43.30254,"lon":5.40056,"is_reserved":false,"is_disabled":false,"rental_uris":{"android":"levelo://app?vid=28852017-1b7b-47fa-93ea-9620ab3f2e28","ios":"levelo://app?vid=28852017-1b7b-47fa-93ea-9620ab3f2e28"},"vehicle_type_id":"4","last_reported":1727708968,"current_range_meters":6000,"station_id":"ce4bgvh2rcd13ifvqcs0","pricing_plan_id":"cebpf4jnsgd1na2vs0mg"},{"bike_id":"c401dba4-1723-41b5-8245-09382eea96a2","system_id":"levelo_inurba_marseille","lat":43.28613,"lon":5.35102,"is_reserved":false,"is_disabled":false,"rental_uris":{"android":"levelo://app?vid=c401dba4-1723-41b5-8245-09382eea96a2","ios":"levelo://app?vid=c401dba4-1723-41b5-8245-09382eea96a2"},"vehicle_type_id":"4","last_reported":1727708968,"current_range_meters":30000,"station_id":"ce4bhch2rcd13ifvqeug","pricing_plan_id":"cebpf4jnsgd1na2vs0mg"},{"bike_id":"b16a5a1a-3064-463c-94c0-2d0a52a61949","system_id":"levelo_inurba_marseille","lat":43.29685,"lon":5.37289,"is_reserved":false,"is_disabled":false,"rental_uris":{"android":"levelo://app?vid=b16a5a1a-3064-463c-94c0-2d0a52a61949","ios":"levelo://app?vid=b16a5a1a-3064-463c-94c0-2d0a52a61949"},"vehicle_type_id":"4","last_reported":1727708968,"current_range_meters":24800,"station_id":"ce4bgk12rcd13ifvqbj0","pricing_plan_id":"cebpf4jnsgd1na2vs0mg"},{"bike_id":"39259c1b-89f8-434f-8a0f-8d64cae949e7","system_id":"levelo_inurba_marseille","lat":43.298828,"lon":5.363966,"is_reserved":false,"is_disabled":false,"rental_uris":{"android":"levelo://app?vid=39259c1b-89f8-434f-8a0f-8d64cae949e7","ios":"levelo://app?vid=39259c1b-89f8-434f-8a0f-8d64cae949e7"},"vehicle_type_id":"4","last_reported":1727708968,"current_range_meters":23200,"station_id":"ce4bh192rcd13ifvqdd0","pricing_plan_id":"cebpf4jnsgd1na2vs0mg"},{"bike_id":"7977a9c9-5512-4fa7-9026-3e7c33952b44","system_id":"levelo_inurba_marseille","lat":43.26713,"lon":5.40133,"is_reserved":false,"is_disabled":false,"rental_uris":{"android":"levelo://app?vid=7977a9c9-5512-4fa7-9026-3e7c33952b44","ios":"levelo://app?vid=7977a9c9-5512-4fa7-9026-3e7c33952b44"},"vehicle_type_id":"4","last_reported":1727708968,"current_range_meters":18000,"station_id":"ce4bhm92rcd13ifvqglg","pricing_plan_id":"cebpf4jnsgd1na2vs0mg"},{"bike_id":"dde6c21b-b4bc-45c7-b2bd-6bf7940fde87","system_id":"levelo_inurba_marseille","lat":43.2512,"lon":5.40318,"is_reserved":false,"is_disabled":false,"rental_uris":{"android":"levelo://app?vid=dde6c21b-b4bc-45c7-b2bd-6bf7940fde87","ios":"levelo://app?vid=dde6c21b-b4bc-45c7-b2bd-6bf7940fde87"},"vehicle_type_id":"4","last_reported":1727708968,"current_range_meters":38000,"station_id":"ce4bhlh2rcd13ifvqgig","pricing_plan_id":"cebpf4jnsgd1na2vs0mg"},{"bike_id":"c71238f9-2ef0-49ca-9ab9-2be29d8549d8","system_id":"levelo_inurba_marseille","lat":43.31369,"lon":5.38493,"is_reserved":false,"is_disabled":false,"rental_uris":{"android":"levelo://app?vid=c71238f9-2ef0-49ca-9ab9-2be29d8549d8","ios":"levelo://app?vid=c71238f9-2ef0-49ca-9ab9-2be29d8549d8"},"vehicle_type_id":"4","last_reported":1727708968,"current_range_meters":35600,"station_id":"ce4bgt92rcd13ifvqcf0","pricing_plan_id":"cebpf4jnsgd1na2vs0mg"},{"bike_id":"0bd4ab55-0e23-4876-9ec6-6e39f581828f","system_id":"levelo_inurba_marseille","lat":43.284,"lon":5.37509,"is_reserved":false,"is_disabled":false,"rental_uris":{"android":"levelo://app?vid=0bd4ab55-0e23-4876-9ec6-6e39f581828f","ios":"levelo://app?vid=0bd4ab55-0e23-4876-9ec6-6e39f581828f"},"vehicle_type_id":"4","last_reported":1727708968,"current_range_meters":4000,"station_id":"ce4bh412rcd13ifvqds0","pricing_plan_id":"cebpf4jnsgd1na2vs0mg"},{"bike_id":"198c6525-69f6-4d89-bcbd-1175e992d462","system_id":"levelo_inurba_marseille","lat":43.33761,"lon":5.3744,"is_reserved":false,"is_disabled":false,"rental_uris":{"android":"levelo://app?vid=198c6525-69f6-4d89-bcbd-1175e992d462","ios":"levelo://app?vid=198c6525-69f6-4d89-bcbd-1175e992d462"},"vehicle_type_id":"4","last_reported":1727708968,"current_range_meters":36000,"station_id":"","pricing_plan_id":"cebpf4jnsgd1na2vs0mg"},{"bike_id":"62014f89-a7d5-4402-ba0b-05b47bff9252","system_id":"levelo_inurba_marseille","lat":43.26682,"lon":5.38264,"is_reserved":false,"is_disabled":false,"rental_uris":{"android":"levelo://app?vid=62014f89-a7d5-4402-ba0b-05b47bff9252","ios":"levelo://app?vid=62014f89-a7d5-4402-ba0b-05b47bff9252"},"vehicle_type_id":"4","last_reported":1727708968,"current_range_meters":16800,"station_id":"ce4bhg92rcd13ifvqf90","pricing_plan_id":"cebpf4jnsgd1na2vs0mg"},{"bike_id":"e333d9dd-0090-46f9-a1a4-1c15628fa9d1","system_id":"levelo_inurba_marseille","lat":43.33761,"lon":5.37444,"is_reserved":false,"is_disabled":false,"rental_uris":{"android":"levelo://app?vid=e333d9dd-0090-46f9-a1a4-1c15628fa9d1","ios":"levelo://app?vid=e333d9dd-0090-46f9-a1a4-1c15628fa9d1"},"vehicle_type_id":"4","last_reported":1727708968,"current_range_meters":28400,"station_id":"","pricing_plan_id":"cebpf4jnsgd1na2vs0mg"},{"bike_id":"2ecc3cfe-8426-473e-8998-8e2c244511c8","system_id":"levelo_inurba_marseille","lat":43.2784,"lon":5.39209,"is_reserved":false,"is_disabled":false,"rental_uris":{"android":"levelo://app?vid=2ecc3cfe-8426-473e-8998-8e2c244511c8","ios":"levelo://app?vid=2ecc3cfe-8426-473e-8998-8e2c244511c8"},"vehicle_type_id":"4","last_reported":1727708968,"current_range_meters":14800,"station_id":"ce4bhjp2rcd13ifvqga0","pricing_plan_id":"cebpf4jnsgd1na2vs0mg"},{"bike_id":"88356ddd-2fcb-4a0b-b8ea-c94bc3075b12","system_id":"levelo_inurba_marseille","lat":43.28449,"lon":5.392,"is_reserved":false,"is_disabled":false,"rental_uris":{"android":"levelo://app?vid=88356ddd-2fcb-4a0b-b8ea-c94bc3075b12","ios":"levelo://app?vid=88356ddd-2fcb-4a0b-b8ea-c94bc3075b12"},"vehicle_type_id":"4","last_reported":1727708968,"current_range_meters":11600,"station_id":"ce4bhoh2rcd13ifvqh5g","pricing_plan_id":"cebpf4jnsgd1na2vs0mg"},{"bike_id":"74479432-8491-41df-b67e-3d5fce6ca1e0","system_id":"levelo_inurba_marseille","lat":43.33738,"lon":5.37457,"is_reserved":false,"is_disabled":false,"rental_uris":{"android":"levelo://app?vid=74479432-8491-41df-b67e-3d5fce6ca1e0","ios":"levelo://app?vid=74479432-8491-41df-b67e-3d5fce6ca1e0"},"vehicle_type_id":"4","last_reported":1727708968,"current_range_meters":33200,"station_id":"","pricing_plan_id":"cebpf4jnsgd1na2vs0mg"},{"bike_id":"0afe2cd9-cc41-4246-8d85-185e9180fbb1","system_id":"levelo_inurba_marseille","lat":43.2319,"lon":5.39994,"is_reserved":false,"is_disabled":false,"rental_uris":{"android":"levelo://app?vid=0afe2cd9-cc41-4246-8d85-185e9180fbb1","ios":"levelo://app?vid=0afe2cd9-cc41-4246-8d85-185e9180fbb1"},"vehicle_type_id":"4","last_reported":1727708968,"current_range_meters":6400,"station_id":"ce4bhn12rcd13ifvqgqg","pricing_plan_id":"cebpf4jnsgd1na2vs0mg"},{"bike_id":"87dec603-f582-4cdd-bcb5-d6c85b8852bf","system_id":"levelo_inurba_marseille","lat":43.24658,"lon":5.38161,"is_reserved":false,"is_disabled":false,"rental_uris":{"android":"levelo://app?vid=87dec603-f582-4cdd-bcb5-d6c85b8852bf","ios":"levelo://app?vid=87dec603-f582-4cdd-bcb5-d6c85b8852bf"},"vehicle_type_id":"4","last_reported":1727708968,"current_range_meters":28000,"station_id":"ce4bhih2rcd13ifvqfr0","pricing_plan_id":"cebpf4jnsgd1na2vs0mg"},{"bike_id":"6c15b6fe-f957-44b9-9482-3e1638347433","system_id":"levelo_inurba_marseille","lat":43.2931,"lon":5.37186,"is_reserved":false,"is_disabled":false,"rental_uris":{"android":"levelo://app?vid=6c15b6fe-f957-44b9-9482-3e1638347433","ios":"levelo://app?vid=6c15b6fe-f957-44b9-9482-3e1638347433"},"vehicle_type_id":"4","last_reported":1727708968,"current_range_meters":21600,"station_id":"ce4bgh92rcd13ifvqb40","pricing_plan_id":"cebpf4jnsgd1na2vs0mg"},{"bike_id":"5f5feaf6-953c-4ab3-b1b9-502fc5ee8b0f","system_id":"levelo_inurba_marseille","lat":43.23194,"lon":5.35556,"is_reserved":false,"is_disabled":false,"rental_uris":{"android":"levelo://app?vid=5f5feaf6-953c-4ab3-b1b9-502fc5ee8b0f","ios":"levelo://app?vid=5f5feaf6-953c-4ab3-b1b9-502fc5ee8b0f"},"vehicle_type_id":"4","last_reported":1727708968,"current_range_meters":18000,"station_id":"ce4bhu92rcd13ifvqi70","pricing_plan_id":"cebpf4jnsgd1na2vs0mg"},{"bike_id":"9703608d-ee52-479c-92f2-8e4c45832973","system_id":"levelo_inurba_marseille","lat":43.25869,"lon":5.39892,"is_reserved":false,"is_disabled":false,"rental_uris":{"android":"levelo://app?vid=9703608d-ee52-479c-92f2-8e4c45832973","ios":"levelo://app?vid=9703608d-ee52-479c-92f2-8e4c45832973"},"vehicle_type_id":"4","last_reported":1727708968,"current_range_meters":30800,"station_id":"ce4bhl92rcd13ifvqghg","pricing_plan_id":"cebpf4jnsgd1na2vs0mg"},{"bike_id":"f081a7d2-35ec-423c-9dff-1867662c1cb6","system_id":"levelo_inurba_marseille","lat":43.26998,"lon":5.40275,"is_reserved":false,"is_disabled":false,"rental_uris":{"android":"levelo://app?vid=f081a7d2-35ec-423c-9dff-1867662c1cb6","ios":"levelo://app?vid=f081a7d2-35ec-423c-9dff-1867662c1cb6"},"vehicle_type_id":"4","last_reported":1727708968,"current_range_meters":23200,"station_id":"ce501612rcd8frsf0b60","pricing_plan_id":"cebpf4jnsgd1na2vs0mg"},{"bike_id":"9a9255b7-9bc9-4532-8853-cab5e20c70d6","system_id":"levelo_inurba_marseille","lat":43.25826,"lon":5.39436,"is_reserved":false,"is_disabled":false,"rental_uris":{"android":"levelo://app?vid=9a9255b7-9bc9-4532-8853-cab5e20c70d6","ios":"levelo://app?vid=9a9255b7-9bc9-4532-8853-cab5e20c70d6"},"vehicle_type_id":"4","last_reported":1727708968,"current_range_meters":31200,"station_id":"ce4bhip2rcd13ifvqft0","pricing_plan_id":"cebpf4jnsgd1na2vs0mg"},{"bike_id":"a7403c16-88a6-4f7e-a4d8-6dcffc9f100f","system_id":"levelo_inurba_marseille","lat":43.25719,"lon":5.41108,"is_reserved":false,"is_disabled":false,"rental_uris":{"android":"levelo://app?vid=a7403c16-88a6-4f7e-a4d8-6dcffc9f100f","ios":"levelo://app?vid=a7403c16-88a6-4f7e-a4d8-6dcffc9f100f"},"vehicle_type_id":"4","last_reported":1727708968,"current_range_meters":16400,"station_id":"ce4bhkp2rcd13ifvqgd0","pricing_plan_id":"cebpf4jnsgd1na2vs0mg"},{"bike_id":"cca31004-19ce-4e6e-b4c1-3ee676597893","system_id":"levelo_inurba_marseille","lat":43.24655,"lon":5.38894,"is_reserved":false,"is_disabled":false,"rental_uris":{"android":"levelo://app?vid=cca31004-19ce-4e6e-b4c1-3ee676597893","ios":"levelo://app?vid=cca31004-19ce-4e6e-b4c1-3ee676597893"},"vehicle_type_id":"4","last_reported":1727708968,"current_range_meters":17600,"station_id":"ce4bhg12rcd13ifvqf60","pricing_plan_id":"cebpf4jnsgd1na2vs0mg"},{"bike_id":"cf33b555-cac1-43f8-89f7-e84b64897cfd","system_id":"levelo_inurba_marseille","lat":43.28381,"lon":5.3729,"is_reserved":false,"is_disabled":false,"rental_uris":{"android":"levelo://app?vid=cf33b555-cac1-43f8-89f7-e84b64897cfd","ios":"levelo://app?vid=cf33b555-cac1-43f8-89f7-e84b64897cfd"},"vehicle_type_id":"4","last_reported":1727708968,"current_range_meters":4400,"station_id":"","pricing_plan_id":"cebpf4jnsgd1na2vs0mg"},{"bike_id":"f41e6ac7-d39b-432c-a205-b5e52984b1b4","system_id":"levelo_inurba_marseille","lat":43.33029,"lon":5.39373,"is_reserved":false,"is_disabled":false,"rental_uris":{"android":"levelo://app?vid=f41e6ac7-d39b-432c-a205-b5e52984b1b4","ios":"levelo://app?vid=f41e6ac7-d39b-432c-a205-b5e52984b1b4"},"vehicle_type_id":"4","last_reported":1727708968,"current_range_meters":36000,"station_id":"","pricing_plan_id":"cebpf4jnsgd1na2vs0mg"},{"bike_id":"bd4818fc-c3a3-49ae-88f0-5543b2bac4d1","system_id":"levelo_inurba_marseille","lat":43.2396,"lon":5.36633,"is_reserved":false,"is_disabled":false,"rental_uris":{"android":"levelo://app?vid=bd4818fc-c3a3-49ae-88f0-5543b2bac4d1","ios":"levelo://app?vid=bd4818fc-c3a3-49ae-88f0-5543b2bac4d1"},"vehicle_type_id":"4","last_reported":1727708968,"current_range_meters":39200,"station_id":"ce4bhi12rcd13ifvqfp0","pricing_plan_id":"cebpf4jnsgd1na2vs0mg"},{"bike_id":"6d7493e7-f380-466e-9fbe-98b1d4d05e10","system_id":"levelo_inurba_marseille","lat":43.24167,"lon":5.36392,"is_reserved":false,"is_disabled":false,"rental_uris":{"android":"levelo://app?vid=6d7493e7-f380-466e-9fbe-98b1d4d05e10","ios":"levelo://app?vid=6d7493e7-f380-466e-9fbe-98b1d4d05e10"},"vehicle_type_id":"4","last_reported":1727708968,"current_range_meters":26800,"station_id":"cpo36qri1sfpv3e86is0","pricing_plan_id":"cebpf4jnsgd1na2vs0mg"},{"bike_id":"7d996439-52f6-48cf-957e-21ca5029a74a","system_id":"levelo_inurba_marseille","lat":43.25825,"lon":5.39428,"is_reserved":false,"is_disabled":false,"rental_uris":{"android":"levelo://app?vid=7d996439-52f6-48cf-957e-21ca5029a74a","ios":"levelo://app?vid=7d996439-52f6-48cf-957e-21ca5029a74a"},"vehicle_type_id":"4","last_reported":1727708968,"current_range_meters":10000,"station_id":"ce4bhip2rcd13ifvqft0","pricing_plan_id":"cebpf4jnsgd1na2vs0mg"},{"bike_id":"6b8929d5-ad92-409d-a69a-a9e49ae36445","system_id":"levelo_inurba_marseille","lat":43.24168,"lon":5.36395,"is_reserved":false,"is_disabled":false,"rental_uris":{"android":"levelo://app?vid=6b8929d5-ad92-409d-a69a-a9e49ae36445","ios":"levelo://app?vid=6b8929d5-ad92-409d-a69a-a9e49ae36445"},"vehicle_type_id":"4","last_reported":1727708968,"current_range_meters":8400,"station_id":"cpo36qri1sfpv3e86is0","pricing_plan_id":"cebpf4jnsgd1na2vs0mg"},{"bike_id":"ebd40b11-b560-462d-bffc-cbc425e7f464","system_id":"levelo_inurba_marseille","lat":43.264966,"lon":5.395746,"is_reserved":false,"is_disabled":false,"rental_uris":{"android":"levelo://app?vid=ebd40b11-b560-462d-bffc-cbc425e7f464","ios":"levelo://app?vid=ebd40b11-b560-462d-bffc-cbc425e7f464"},"vehicle_type_id":"4","last_reported":1727708968,"current_range_meters":32800,"station_id":"ce4bh692rcd13ifvqea0","pricing_plan_id":"cebpf4jnsgd1na2vs0mg"},{"bike_id":"198d31e1-3143-41bf-8d59-f6931549c545","system_id":"levelo_inurba_marseille","lat":43.2846,"lon":5.35886,"is_reserved":false,"is_disabled":false,"rental_uris":{"android":"levelo://app?vid=198d31e1-3143-41bf-8d59-f6931549c545","ios":"levelo://app?vid=198d31e1-3143-41bf-8d59-f6931549c545"},"vehicle_type_id":"4","last_reported":1727708968,"current_range_meters":8800,"station_id":"ce4bhah2rcd13ifvqei0","pricing_plan_id":"cebpf4jnsgd1na2vs0mg"},{"bike_id":"e09982ef-5f8c-44e8-9e06-536620a680b2","system_id":"levelo_inurba_marseille","lat":43.309476,"lon":5.390089,"is_reserved":false,"is_disabled":false,"rental_uris":{"android":"levelo://app?vid=e09982ef-5f8c-44e8-9e06-536620a680b2","ios":"levelo://app?vid=e09982ef-5f8c-44e8-9e06-536620a680b2"},"vehicle_type_id":"4","last_reported":1727708968,"current_range_meters":38000,"station_id":"ce4bh0h2rcd13ifvqd40","pricing_plan_id":"cebpf4jnsgd1na2vs0mg"},{"bike_id":"ab951687-7386-44bb-ac5c-eca7ab41a7c3","system_id":"levelo_inurba_marseille","lat":43.2885,"lon":5.35846,"is_reserved":false,"is_disabled":false,"rental_uris":{"android":"levelo://app?vid=ab951687-7386-44bb-ac5c-eca7ab41a7c3","ios":"levelo://app?vid=ab951687-7386-44bb-ac5c-eca7ab41a7c3"},"vehicle_type_id":"4","last_reported":1727708968,"current_range_meters":24800,"station_id":"ce4bhb12rcd13ifvqem0","pricing_plan_id":"cebpf4jnsgd1na2vs0mg"},{"bike_id":"f71b7f63-17f8-4803-ba81-e0aaab220a33","system_id":"levelo_inurba_marseille","lat":43.30538,"lon":5.36529,"is_reserved":false,"is_disabled":false,"rental_uris":{"android":"levelo://app?vid=f71b7f63-17f8-4803-ba81-e0aaab220a33","ios":"levelo://app?vid=f71b7f63-17f8-4803-ba81-e0aaab220a33"},"vehicle_type_id":"4","last_reported":1727708968,"current_range_meters":38800,"station_id":"ce4bgs12rcd13ifvqcag","pricing_plan_id":"cebpf4jnsgd1na2vs0mg"},{"bike_id":"92a377c1-c83e-4ce0-8033-a37f64060b32","system_id":"levelo_inurba_marseille","lat":43.29891,"lon":5.43656,"is_reserved":false,"is_disabled":false,"rental_uris":{"android":"levelo://app?vid=92a377c1-c83e-4ce0-8033-a37f64060b32","ios":"levelo://app?vid=92a377c1-c83e-4ce0-8033-a37f64060b32"},"vehicle_type_id":"4","last_reported":1727708968,"current_range_meters":22400,"station_id":"ce4bhpp2rcd13ifvqhfg","pricing_plan_id":"cebpf4jnsgd1na2vs0mg"},{"bike_id":"645793a8-2bc1-49b2-9636-ec55eadef8aa","system_id":"levelo_inurba_marseille","lat":43.30558,"lon":5.36549,"is_reserved":false,"is_disabled":false,"rental_uris":{"android":"levelo://app?vid=645793a8-2bc1-49b2-9636-ec55eadef8aa","ios":"levelo://app?vid=645793a8-2bc1-49b2-9636-ec55eadef8aa"},"vehicle_type_id":"4","last_reported":1727708968,"current_range_meters":14400,"station_id":"ce4bgs12rcd13ifvqcag","pricing_plan_id":"cebpf4jnsgd1na2vs0mg"},{"bike_id":"78239d91-2e69-4a7a-a500-73b057ae6e02","system_id":"levelo_inurba_marseille","lat":43.30145,"lon":5.38063,"is_reserved":false,"is_disabled":false,"rental_uris":{"android":"levelo://app?vid=78239d91-2e69-4a7a-a500-73b057ae6e02","ios":"levelo://app?vid=78239d91-2e69-4a7a-a500-73b057ae6e02"},"vehicle_type_id":"4","last_reported":1727708968,"current_range_meters":16000,"station_id":"ce4bgjp2rcd13ifvqbh0","pricing_plan_id":"cebpf4jnsgd1na2vs0mg"},{"bike_id":"ea88f175-1253-4005-ab4b-521849ff489d","system_id":"levelo_inurba_marseille","lat":43.32366,"lon":5.38887,"is_reserved":false,"is_disabled":false,"rental_uris":{"android":"levelo://app?vid=ea88f175-1253-4005-ab4b-521849ff489d","ios":"levelo://app?vid=ea88f175-1253-4005-ab4b-521849ff489d"},"vehicle_type_id":"4","last_reported":1727708968,"current_range_meters":28000,"station_id":"ce4bhqp2rcd13ifvqhog","pricing_plan_id":"cebpf4jnsgd1na2vs0mg"},{"bike_id":"11c05e8e-af4e-454e-8ab1-f5d0c73710c6","system_id":"levelo_inurba_marseille","lat":43.28668,"lon":5.38659,"is_reserved":false,"is_disabled":false,"rental_uris":{"android":"levelo://app?vid=11c05e8e-af4e-454e-8ab1-f5d0c73710c6","ios":"levelo://app?vid=11c05e8e-af4e-454e-8ab1-f5d0c73710c6"},"vehicle_type_id":"4","last_reported":1727708968,"current_range_meters":2000,"station_id":"ce4bh492rcd13ifvqdug","pricing_plan_id":"cebpf4jnsgd1na2vs0mg"},{"bike_id":"6dc7b44d-9d0d-42f9-bc6f-4dff416c688a","system_id":"levelo_inurba_marseille","lat":43.31354,"lon":5.36704,"is_reserved":false,"is_disabled":false,"rental_uris":{"android":"levelo://app?vid=6dc7b44d-9d0d-42f9-bc6f-4dff416c688a","ios":"levelo://app?vid=6dc7b44d-9d0d-42f9-bc6f-4dff416c688a"},"vehicle_type_id":"4","last_reported":1727708968,"current_range_meters":16800,"station_id":"ce4bgr92rcd13ifvqc6g","pricing_plan_id":"cebpf4jnsgd1na2vs0mg"},{"bike_id":"31f89c08-66db-40cc-ab41-9fc83559f379","system_id":"levelo_inurba_marseille","lat":43.2319,"lon":5.35552,"is_reserved":false,"is_disabled":false,"rental_uris":{"android":"levelo://app?vid=31f89c08-66db-40cc-ab41-9fc83559f379","ios":"levelo://app?vid=31f89c08-66db-40cc-ab41-9fc83559f379"},"vehicle_type_id":"4","last_reported":1727708968,"current_range_meters":27600,"station_id":"ce4bhu92rcd13ifvqi70","pricing_plan_id":"cebpf4jnsgd1na2vs0mg"},{"bike_id":"52910524-c69a-4122-a09d-5b16836251ce","system_id":"levelo_inurba_marseille","lat":43.28352,"lon":5.38104,"is_reserved":false,"is_disabled":false,"rental_uris":{"android":"levelo://app?vid=52910524-c69a-4122-a09d-5b16836251ce","ios":"levelo://app?vid=52910524-c69a-4122-a09d-5b16836251ce"},"vehicle_type_id":"4","last_reported":1727708968,"current_range_meters":6000,"station_id":"ce4bh412rcd13ifvqdr0","pricing_plan_id":"cebpf4jnsgd1na2vs0mg"},{"bike_id":"3658bbe6-1d83-49e9-ae55-529ae3b5ea81","system_id":"levelo_inurba_marseille","lat":43.30548,"lon":5.36521,"is_reserved":false,"is_disabled":false,"rental_uris":{"android":"levelo://app?vid=3658bbe6-1d83-49e9-ae55-529ae3b5ea81","ios":"levelo://app?vid=3658bbe6-1d83-49e9-ae55-529ae3b5ea81"},"vehicle_type_id":"4","last_reported":1727708968,"current_range_meters":20400,"station_id":"ce4bgs12rcd13ifvqcag","pricing_plan_id":"cebpf4jnsgd1na2vs0mg"},{"bike_id":"1b33b430-6ea7-41ad-aeed-0feed0d45c81","system_id":"levelo_inurba_marseille","lat":43.31535,"lon":5.38026,"is_reserved":false,"is_disabled":false,"rental_uris":{"android":"levelo://app?vid=1b33b430-6ea7-41ad-aeed-0feed0d45c81","ios":"levelo://app?vid=1b33b430-6ea7-41ad-aeed-0feed0d45c81"},"vehicle_type_id":"4","last_reported":1727708968,"current_range_meters":20400,"station_id":"ce4bhsp2rcd13ifvqi50","pricing_plan_id":"cebpf4jnsgd1na2vs0mg"},{"bike_id":"d8bccc7c-dff4-4d8f-abe0-7595e0d9a3c8","system_id":"levelo_inurba_marseille","lat":43.29269,"lon":5.40119,"is_reserved":false,"is_disabled":false,"rental_uris":{"android":"levelo://app?vid=d8bccc7c-dff4-4d8f-abe0-7595e0d9a3c8","ios":"levelo://app?vid=d8bccc7c-dff4-4d8f-abe0-7595e0d9a3c8"},"vehicle_type_id":"4","last_reported":1727708968,"current_range_meters":38400,"station_id":"ce4bh312rcd13ifvqdk0","pricing_plan_id":"cebpf4jnsgd1na2vs0mg"},{"bike_id":"a661bdf3-f239-4d6b-a7a0-6bb80bfec1ab","system_id":"levelo_inurba_marseille","lat":43.31486,"lon":5.37309,"is_reserved":false,"is_disabled":false,"rental_uris":{"android":"levelo://app?vid=a661bdf3-f239-4d6b-a7a0-6bb80bfec1ab","ios":"levelo://app?vid=a661bdf3-f239-4d6b-a7a0-6bb80bfec1ab"},"vehicle_type_id":"4","last_reported":1727708968,"current_range_meters":32800,"station_id":"ce4bgt12rcd13ifvqcd0","pricing_plan_id":"cebpf4jnsgd1na2vs0mg"},{"bike_id":"8490e44e-0aff-4d7e-8a96-481d57cd3987","system_id":"levelo_inurba_marseille","lat":43.28511,"lon":5.39132,"is_reserved":false,"is_disabled":false,"rental_uris":{"android":"levelo://app?vid=8490e44e-0aff-4d7e-8a96-481d57cd3987","ios":"levelo://app?vid=8490e44e-0aff-4d7e-8a96-481d57cd3987"},"vehicle_type_id":"4","last_reported":1727708968,"current_range_meters":23200,"station_id":"ce4bh3p2rcd13ifvqdp0","pricing_plan_id":"cebpf4jnsgd1na2vs0mg"},{"bike_id":"fc89c2b8-f540-434b-9331-dc8175b5cda5","system_id":"levelo_inurba_marseille","lat":43.28617,"lon":5.37039,"is_reserved":false,"is_disabled":false,"rental_uris":{"android":"levelo://app?vid=fc89c2b8-f540-434b-9331-dc8175b5cda5","ios":"levelo://app?vid=fc89c2b8-f540-434b-9331-dc8175b5cda5"},"vehicle_type_id":"4","last_reported":1727708968,"current_range_meters":6400,"station_id":"ce4bht12rcd13ifvqi60","pricing_plan_id":"cebpf4jnsgd1na2vs0mg"},{"bike_id":"65dcc76e-9790-4f4b-a2c2-030038a59057","system_id":"levelo_inurba_marseille","lat":43.28715,"lon":5.37355,"is_reserved":false,"is_disabled":false,"rental_uris":{"android":"levelo://app?vid=65dcc76e-9790-4f4b-a2c2-030038a59057","ios":"levelo://app?vid=65dcc76e-9790-4f4b-a2c2-030038a59057"},"vehicle_type_id":"4","last_reported":1727708968,"current_range_meters":38800,"station_id":"ce4bh3p2rcd13ifvqdq0","pricing_plan_id":"cebpf4jnsgd1na2vs0mg"},{"bike_id":"5f71d534-508b-44aa-ab48-4ceb1dc17092","system_id":"levelo_inurba_marseille","lat":43.26193,"lon":5.37451,"is_reserved":false,"is_disabled":false,"rental_uris":{"android":"levelo://app?vid=5f71d534-508b-44aa-ab48-4ceb1dc17092","ios":"levelo://app?vid=5f71d534-508b-44aa-ab48-4ceb1dc17092"},"vehicle_type_id":"4","last_reported":1727708968,"current_range_meters":16000,"station_id":"ce4bhgp2rcd13ifvqfc0","pricing_plan_id":"cebpf4jnsgd1na2vs0mg"},{"bike_id":"a86cbb1e-bd3e-43d7-bd05-f664c72a8de6","system_id":"levelo_inurba_marseille","lat":43.31735,"lon":5.3766,"is_reserved":false,"is_disabled":false,"rental_uris":{"android":"levelo://app?vid=a86cbb1e-bd3e-43d7-bd05-f664c72a8de6","ios":"levelo://app?vid=a86cbb1e-bd3e-43d7-bd05-f664c72a8de6"},"vehicle_type_id":"4","last_reported":1727708968,"current_range_meters":14800,"station_id":"ce4bhr12rcd13ifvqhqg","pricing_plan_id":"cebpf4jnsgd1na2vs0mg"},{"bike_id":"b3c4511b-701e-4315-be66-9e562ef7ef8c","system_id":"levelo_inurba_marseille","lat":43.3014,"lon":5.39891,"is_reserved":false,"is_disabled":false,"rental_uris":{"android":"levelo://app?vid=b3c4511b-701e-4315-be66-9e562ef7ef8c","ios":"levelo://app?vid=b3c4511b-701e-4315-be66-9e562ef7ef8c"},"vehicle_type_id":"4","last_reported":1727708968,"current_range_meters":37600,"station_id":"ce4bh0h2rcd13ifvqd40","pricing_plan_id":"cebpf4jnsgd1na2vs0mg"},{"bike_id":"f54334eb-2195-4db5-889a-3481da52f9df","system_id":"levelo_inurba_marseille","lat":43.32289,"lon":5.38266,"is_reserved":false,"is_disabled":false,"rental_uris":{"android":"levelo://app?vid=f54334eb-2195-4db5-889a-3481da52f9df","ios":"levelo://app?vid=f54334eb-2195-4db5-889a-3481da52f9df"},"vehicle_type_id":"4","last_reported":1727708968,"current_range_meters":39200,"station_id":"ce4bhr12rcd13ifvqhqg","pricing_plan_id":"cebpf4jnsgd1na2vs0mg"},{"bike_id":"a89a94c1-9869-42fd-918c-ff30ce69253e","system_id":"levelo_inurba_marseille","lat":43.29578,"lon":5.39965,"is_reserved":false,"is_disabled":false,"rental_uris":{"android":"levelo://app?vid=a89a94c1-9869-42fd-918c-ff30ce69253e","ios":"levelo://app?vid=a89a94c1-9869-42fd-918c-ff30ce69253e"},"vehicle_type_id":"4","last_reported":1727708968,"current_range_meters":27200,"station_id":"ce4bh312rcd13ifvqdj0","pricing_plan_id":"cebpf4jnsgd1na2vs0mg"},{"bike_id":"3ab288df-cbb0-4000-8d7b-4c7ac38161da","system_id":"levelo_inurba_marseille","lat":43.2656,"lon":5.3728,"is_reserved":false,"is_disabled":false,"rental_uris":{"android":"levelo://app?vid=3ab288df-cbb0-4000-8d7b-4c7ac38161da","ios":"levelo://app?vid=3ab288df-cbb0-4000-8d7b-4c7ac38161da"},"vehicle_type_id":"4","last_reported":1727708968,"current_range_meters":37600,"station_id":"ce4bhg12rcd13ifvqf70","pricing_plan_id":"cebpf4jnsgd1na2vs0mg"},{"bike_id":"1767e2e3-53e2-422a-a88d-75bb08d58186","system_id":"levelo_inurba_marseille","lat":43.31332,"lon":5.3969,"is_reserved":false,"is_disabled":false,"rental_uris":{"android":"levelo://app?vid=1767e2e3-53e2-422a-a88d-75bb08d58186","ios":"levelo://app?vid=1767e2e3-53e2-422a-a88d-75bb08d58186"},"vehicle_type_id":"4","last_reported":1727708968,"current_range_meters":13600,"station_id":"ce4bgvp2rcd13ifvqcu0","pricing_plan_id":"cebpf4jnsgd1na2vs0mg"},{"bike_id":"9b93bd3b-e443-4251-85fc-8948d846abdf","system_id":"levelo_inurba_marseille","lat":43.28266,"lon":5.35063,"is_reserved":false,"is_disabled":false,"rental_uris":{"android":"levelo://app?vid=9b93bd3b-e443-4251-85fc-8948d846abdf","ios":"levelo://app?vid=9b93bd3b-e443-4251-85fc-8948d846abdf"},"vehicle_type_id":"4","last_reported":1727708968,"current_range_meters":16000,"station_id":"ce4bhbp2rcd13ifvqerg","pricing_plan_id":"cebpf4jnsgd1na2vs0mg"},{"bike_id":"09e8c015-e104-4af8-8db3-d34b69dbc865","system_id":"levelo_inurba_marseille","lat":43.27072,"lon":5.42278,"is_reserved":false,"is_disabled":false,"rental_uris":{"android":"levelo://app?vid=09e8c015-e104-4af8-8db3-d34b69dbc865","ios":"levelo://app?vid=09e8c015-e104-4af8-8db3-d34b69dbc865"},"vehicle_type_id":"4","last_reported":1727708968,"current_range_meters":20000,"station_id":"ce4bhk92rcd13ifvqgb0","pricing_plan_id":"cebpf4jnsgd1na2vs0mg"},{"bike_id":"5dfd9658-fa7f-46fc-b68f-ea8f76487a17","system_id":"levelo_inurba_marseille","lat":43.337444,"lon":5.374475,"is_reserved":false,"is_disabled":false,"rental_uris":{"android":"levelo://app?vid=5dfd9658-fa7f-46fc-b68f-ea8f76487a17","ios":"levelo://app?vid=5dfd9658-fa7f-46fc-b68f-ea8f76487a17"},"vehicle_type_id":"4","last_reported":1727708968,"current_range_meters":20800,"station_id":"","pricing_plan_id":"cebpf4jnsgd1na2vs0mg"},{"bike_id":"eab30390-0c07-449c-a891-cba8bee1096b","system_id":"levelo_inurba_marseille","lat":43.32313,"lon":5.38284,"is_reserved":false,"is_disabled":false,"rental_uris":{"android":"levelo://app?vid=eab30390-0c07-449c-a891-cba8bee1096b","ios":"levelo://app?vid=eab30390-0c07-449c-a891-cba8bee1096b"},"vehicle_type_id":"4","last_reported":1727708968,"current_range_meters":36400,"station_id":"ce4bhr12rcd13ifvqhqg","pricing_plan_id":"cebpf4jnsgd1na2vs0mg"},{"bike_id":"fdef7ae9-ba96-44b0-b95b-7baf90afc649","system_id":"levelo_inurba_marseille","lat":43.23958,"lon":5.36625,"is_reserved":false,"is_disabled":false,"rental_uris":{"android":"levelo://app?vid=fdef7ae9-ba96-44b0-b95b-7baf90afc649","ios":"levelo://app?vid=fdef7ae9-ba96-44b0-b95b-7baf90afc649"},"vehicle_type_id":"4","last_reported":1727708968,"current_range_meters":24000,"station_id":"ce4bhi12rcd13ifvqfp0","pricing_plan_id":"cebpf4jnsgd1na2vs0mg"},{"bike_id":"f42cbcd5-2a74-472e-9b8e-95e2c7c39a6a","system_id":"levelo_inurba_marseille","lat":43.30807,"lon":5.43522,"is_reserved":false,"is_disabled":false,"rental_uris":{"android":"levelo://app?vid=f42cbcd5-2a74-472e-9b8e-95e2c7c39a6a","ios":"levelo://app?vid=f42cbcd5-2a74-472e-9b8e-95e2c7c39a6a"},"vehicle_type_id":"4","last_reported":1727708968,"current_range_meters":30400,"station_id":"ce4bhph2rcd13ifvqheg","pricing_plan_id":"cebpf4jnsgd1na2vs0mg"},{"bike_id":"bbdab2db-7eb7-419f-a4a4-6a61184f3a1f","system_id":"levelo_inurba_marseille","lat":43.33024,"lon":5.39038,"is_reserved":false,"is_disabled":false,"rental_uris":{"android":"levelo://app?vid=bbdab2db-7eb7-419f-a4a4-6a61184f3a1f","ios":"levelo://app?vid=bbdab2db-7eb7-419f-a4a4-6a61184f3a1f"},"vehicle_type_id":"4","last_reported":1727708968,"current_range_meters":38800,"station_id":"ce4bhr92rcd13ifvqhrg","pricing_plan_id":"cebpf4jnsgd1na2vs0mg"},{"bike_id":"cf252e86-32bb-41fa-993e-5d2184461476","system_id":"levelo_inurba_marseille","lat":43.31119,"lon":5.37746,"is_reserved":false,"is_disabled":false,"rental_uris":{"android":"levelo://app?vid=cf252e86-32bb-41fa-993e-5d2184461476","ios":"levelo://app?vid=cf252e86-32bb-41fa-993e-5d2184461476"},"vehicle_type_id":"4","last_reported":1727708968,"current_range_meters":28400,"station_id":"ce4bgt92rcd13ifvqcg0","pricing_plan_id":"cebpf4jnsgd1na2vs0mg"},{"bike_id":"c3f2a65a-02dd-42bb-b71f-4cf0cba6cd40","system_id":"levelo_inurba_marseille","lat":43.28848,"lon":5.35855,"is_reserved":false,"is_disabled":false,"rental_uris":{"android":"levelo://app?vid=c3f2a65a-02dd-42bb-b71f-4cf0cba6cd40","ios":"levelo://app?vid=c3f2a65a-02dd-42bb-b71f-4cf0cba6cd40"},"vehicle_type_id":"4","last_reported":1727708968,"current_range_meters":24800,"station_id":"ce4bhb12rcd13ifvqem0","pricing_plan_id":"cebpf4jnsgd1na2vs0mg"},{"bike_id":"0c0eca9b-af18-47de-80b8-0c664f2962aa","system_id":"levelo_inurba_marseille","lat":43.27426,"lon":5.39417,"is_reserved":false,"is_disabled":false,"rental_uris":{"android":"levelo://app?vid=0c0eca9b-af18-47de-80b8-0c664f2962aa","ios":"levelo://app?vid=0c0eca9b-af18-47de-80b8-0c664f2962aa"},"vehicle_type_id":"4","last_reported":1727708968,"current_range_meters":24800,"station_id":"ce4bhdp2rcd13ifvqf20","pricing_plan_id":"cebpf4jnsgd1na2vs0mg"},{"bike_id":"a9d94fc0-5899-49ba-a07e-e9ffffddb5c4","system_id":"levelo_inurba_marseille","lat":43.23068,"lon":5.35495,"is_reserved":false,"is_disabled":false,"rental_uris":{"android":"levelo://app?vid=a9d94fc0-5899-49ba-a07e-e9ffffddb5c4","ios":"levelo://app?vid=a9d94fc0-5899-49ba-a07e-e9ffffddb5c4"},"vehicle_type_id":"4","last_reported":1727708968,"current_range_meters":24400,"station_id":"cpo3342slgdg3j2ifvpg","pricing_plan_id":"cebpf4jnsgd1na2vs0mg"},{"bike_id":"6683e156-9700-4498-976b-a4de43274a8e","system_id":"levelo_inurba_marseille","lat":43.26785,"lon":5.39416,"is_reserved":false,"is_disabled":false,"rental_uris":{"android":"levelo://app?vid=6683e156-9700-4498-976b-a4de43274a8e","ios":"levelo://app?vid=6683e156-9700-4498-976b-a4de43274a8e"},"vehicle_type_id":"4","last_reported":1727708968,"current_range_meters":17600,"station_id":"ce4bhh12rcd13ifvqfg0","pricing_plan_id":"cebpf4jnsgd1na2vs0mg"},{"bike_id":"ce0a6298-7234-4702-b5b4-87c097f2e621","system_id":"levelo_inurba_marseille","lat":43.22931,"lon":5.35384,"is_reserved":false,"is_disabled":false,"rental_uris":{"android":"levelo://app?vid=ce0a6298-7234-4702-b5b4-87c097f2e621","ios":"levelo://app?vid=ce0a6298-7234-4702-b5b4-87c097f2e621"},"vehicle_type_id":"4","last_reported":1727708968,"current_range_meters":12000,"station_id":"cpo3532slgdg3j2ikp40","pricing_plan_id":"cebpf4jnsgd1na2vs0mg"},{"bike_id":"d9f7433d-6a2d-4c61-a60e-e1dfe382af8b","system_id":"levelo_inurba_marseille","lat":43.31914,"lon":5.41033,"is_reserved":false,"is_disabled":false,"rental_uris":{"android":"levelo://app?vid=d9f7433d-6a2d-4c61-a60e-e1dfe382af8b","ios":"levelo://app?vid=d9f7433d-6a2d-4c61-a60e-e1dfe382af8b"},"vehicle_type_id":"4","last_reported":1727708968,"current_range_meters":9200,"station_id":"","pricing_plan_id":"cebpf4jnsgd1na2vs0mg"},{"bike_id":"2b5078ec-5301-46b5-b525-024541f2e31d","system_id":"levelo_inurba_marseille","lat":43.27811,"lon":5.40711,"is_reserved":false,"is_disabled":false,"rental_uris":{"android":"levelo://app?vid=2b5078ec-5301-46b5-b525-024541f2e31d","ios":"levelo://app?vid=2b5078ec-5301-46b5-b525-024541f2e31d"},"vehicle_type_id":"4","last_reported":1727708968,"current_range_meters":30000,"station_id":"ce4bhnh2rcd13ifvqgtg","pricing_plan_id":"cebpf4jnsgd1na2vs0mg"},{"bike_id":"3cf82551-3e85-49a2-a28d-ba3fee510b6a","system_id":"levelo_inurba_marseille","lat":43.294,"lon":5.37342,"is_reserved":false,"is_disabled":false,"rental_uris":{"android":"levelo://app?vid=3cf82551-3e85-49a2-a28d-ba3fee510b6a","ios":"levelo://app?vid=3cf82551-3e85-49a2-a28d-ba3fee510b6a"},"vehicle_type_id":"4","last_reported":1727708968,"current_range_meters":11600,"station_id":"ce4bhbp2rcd13ifvqerg","pricing_plan_id":"cebpf4jnsgd1na2vs0mg"},{"bike_id":"b54a9626-109e-4d4b-bfb3-41424061170c","system_id":"levelo_inurba_marseille","lat":43.2749,"lon":5.4246,"is_reserved":false,"is_disabled":false,"rental_uris":{"android":"levelo://app?vid=b54a9626-109e-4d4b-bfb3-41424061170c","ios":"levelo://app?vid=b54a9626-109e-4d4b-bfb3-41424061170c"},"vehicle_type_id":"4","last_reported":1727708968,"current_range_meters":27200,"station_id":"ce4bhn92rcd13ifvqgrg","pricing_plan_id":"cebpf4jnsgd1na2vs0mg"},{"bike_id":"4e8b7109-29dd-4dab-8609-d168c70df700","system_id":"levelo_inurba_marseille","lat":43.30604,"lon":5.3722,"is_reserved":false,"is_disabled":false,"rental_uris":{"android":"levelo://app?vid=4e8b7109-29dd-4dab-8609-d168c70df700","ios":"levelo://app?vid=4e8b7109-29dd-4dab-8609-d168c70df700"},"vehicle_type_id":"4","last_reported":1727708968,"current_range_meters":30000,"station_id":"ce4bgqh2rcd13ifvqc4g","pricing_plan_id":"cebpf4jnsgd1na2vs0mg"},{"bike_id":"c88fbe7b-2e3e-4b66-a3a2-32af75b635ce","system_id":"levelo_inurba_marseille","lat":43.28038,"lon":5.36944,"is_reserved":false,"is_disabled":false,"rental_uris":{"android":"levelo://app?vid=c88fbe7b-2e3e-4b66-a3a2-32af75b635ce","ios":"levelo://app?vid=c88fbe7b-2e3e-4b66-a3a2-32af75b635ce"},"vehicle_type_id":"4","last_reported":1727708968,"current_range_meters":8000,"station_id":"ce4bha12rcd13ifvqef0","pricing_plan_id":"cebpf4jnsgd1na2vs0mg"},{"bike_id":"e53fed06-90ca-43f4-900b-19d888c5ef60","system_id":"levelo_inurba_marseille","lat":43.28707,"lon":5.37377,"is_reserved":false,"is_disabled":false,"rental_uris":{"android":"levelo://app?vid=e53fed06-90ca-43f4-900b-19d888c5ef60","ios":"levelo://app?vid=e53fed06-90ca-43f4-900b-19d888c5ef60"},"vehicle_type_id":"4","last_reported":1727708968,"current_range_meters":31200,"station_id":"ce4bh3p2rcd13ifvqdq0","pricing_plan_id":"cebpf4jnsgd1na2vs0mg"},{"bike_id":"6fe26f72-66ab-4a48-9d27-c47734be7f29","system_id":"levelo_inurba_marseille","lat":43.2962,"lon":5.37725,"is_reserved":false,"is_disabled":false,"rental_uris":{"android":"levelo://app?vid=6fe26f72-66ab-4a48-9d27-c47734be7f29","ios":"levelo://app?vid=6fe26f72-66ab-4a48-9d27-c47734be7f29"},"vehicle_type_id":"4","last_reported":1727708968,"current_range_meters":36000,"station_id":"ce4bgi92rcd13ifvqb90","pricing_plan_id":"cebpf4jnsgd1na2vs0mg"},{"bike_id":"064fbc96-87b4-421e-af03-f3f5f0c253eb","system_id":"levelo_inurba_marseille","lat":43.32111,"lon":5.36778,"is_reserved":false,"is_disabled":false,"rental_uris":{"android":"levelo://app?vid=064fbc96-87b4-421e-af03-f3f5f0c253eb","ios":"levelo://app?vid=064fbc96-87b4-421e-af03-f3f5f0c253eb"},"vehicle_type_id":"4","last_reported":1727708968,"current_range_meters":26000,"station_id":"ce4bhrh2rcd13ifvqhug","pricing_plan_id":"cebpf4jnsgd1na2vs0mg"},{"bike_id":"48937c76-95b4-4ca9-914e-46f79abaa4bd","system_id":"levelo_inurba_marseille","lat":43.31711,"lon":5.37749,"is_reserved":false,"is_disabled":false,"rental_uris":{"android":"levelo://app?vid=48937c76-95b4-4ca9-914e-46f79abaa4bd","ios":"levelo://app?vid=48937c76-95b4-4ca9-914e-46f79abaa4bd"},"vehicle_type_id":"4","last_reported":1727708968,"current_range_meters":19600,"station_id":"ce4bgth2rcd13ifvqch0","pricing_plan_id":"cebpf4jnsgd1na2vs0mg"},{"bike_id":"dcca5eb1-337d-4677-b150-3612f0c83882","system_id":"levelo_inurba_marseille","lat":43.31359,"lon":5.36705,"is_reserved":false,"is_disabled":false,"rental_uris":{"android":"levelo://app?vid=dcca5eb1-337d-4677-b150-3612f0c83882","ios":"levelo://app?vid=dcca5eb1-337d-4677-b150-3612f0c83882"},"vehicle_type_id":"4","last_reported":1727708968,"current_range_meters":29600,"station_id":"ce4bgr92rcd13ifvqc6g","pricing_plan_id":"cebpf4jnsgd1na2vs0mg"},{"bike_id":"5eeea372-2711-4d21-8d24-8440bc9ab4b3","system_id":"levelo_inurba_marseille","lat":43.32478,"lon":5.36556,"is_reserved":false,"is_disabled":false,"rental_uris":{"android":"levelo://app?vid=5eeea372-2711-4d21-8d24-8440bc9ab4b3","ios":"levelo://app?vid=5eeea372-2711-4d21-8d24-8440bc9ab4b3"},"vehicle_type_id":"4","last_reported":1727708968,"current_range_meters":11600,"station_id":"ce4bhs12rcd13ifvqhvg","pricing_plan_id":"cebpf4jnsgd1na2vs0mg"},{"bike_id":"245b9bf3-a805-45aa-b6e9-4d57e2017da5","system_id":"levelo_inurba_marseille","lat":43.31349,"lon":5.36712,"is_reserved":false,"is_disabled":false,"rental_uris":{"android":"levelo://app?vid=245b9bf3-a805-45aa-b6e9-4d57e2017da5","ios":"levelo://app?vid=245b9bf3-a805-45aa-b6e9-4d57e2017da5"},"vehicle_type_id":"4","last_reported":1727708968,"current_range_meters":4800,"station_id":"ce4bgr92rcd13ifvqc6g","pricing_plan_id":"cebpf4jnsgd1na2vs0mg"},{"bike_id":"419c12fb-943f-4feb-9591-9233ec0d652c","system_id":"levelo_inurba_marseille","lat":43.30352,"lon":5.41872,"is_reserved":false,"is_disabled":false,"rental_uris":{"android":"levelo://app?vid=419c12fb-943f-4feb-9591-9233ec0d652c","ios":"levelo://app?vid=419c12fb-943f-4feb-9591-9233ec0d652c"},"vehicle_type_id":"4","last_reported":1727708968,"current_range_meters":9200,"station_id":"ce4bhop2rcd13ifvqh7g","pricing_plan_id":"cebpf4jnsgd1na2vs0mg"},{"bike_id":"d2510458-9021-47e9-a5f4-1eb3ebe0c080","system_id":"levelo_inurba_marseille","lat":43.31759,"lon":5.39017,"is_reserved":false,"is_disabled":false,"rental_uris":{"android":"levelo://app?vid=d2510458-9021-47e9-a5f4-1eb3ebe0c080","ios":"levelo://app?vid=d2510458-9021-47e9-a5f4-1eb3ebe0c080"},"vehicle_type_id":"4","last_reported":1727708968,"current_range_meters":39200,"station_id":"ce4bhqp2rcd13ifvqhng","pricing_plan_id":"cebpf4jnsgd1na2vs0mg"},{"bike_id":"f6a17653-60fe-4905-8fcc-171ea7153dd8","system_id":"levelo_inurba_marseille","lat":43.337444,"lon":5.374475,"is_reserved":false,"is_disabled":false,"rental_uris":{"android":"levelo://app?vid=f6a17653-60fe-4905-8fcc-171ea7153dd8","ios":"levelo://app?vid=f6a17653-60fe-4905-8fcc-171ea7153dd8"},"vehicle_type_id":"4","last_reported":1727708968,"current_range_meters":35600,"station_id":"","pricing_plan_id":"cebpf4jnsgd1na2vs0mg"},{"bike_id":"79e3b807-678c-4e9f-bcb7-05c9cb3c6740","system_id":"levelo_inurba_marseille","lat":43.32266,"lon":5.38284,"is_reserved":false,"is_disabled":false,"rental_uris":{"android":"levelo://app?vid=79e3b807-678c-4e9f-bcb7-05c9cb3c6740","ios":"levelo://app?vid=79e3b807-678c-4e9f-bcb7-05c9cb3c6740"},"vehicle_type_id":"4","last_reported":1727708968,"current_range_meters":6400,"station_id":"ce4bhr12rcd13ifvqhqg","pricing_plan_id":"cebpf4jnsgd1na2vs0mg"},{"bike_id":"37ee78ef-1fa9-40e4-bc02-684f7ec5cde5","system_id":"levelo_inurba_marseille","lat":43.2955,"lon":5.42272,"is_reserved":false,"is_disabled":false,"rental_uris":{"android":"levelo://app?vid=37ee78ef-1fa9-40e4-bc02-684f7ec5cde5","ios":"levelo://app?vid=37ee78ef-1fa9-40e4-bc02-684f7ec5cde5"},"vehicle_type_id":"4","last_reported":1727708968,"current_range_meters":23200,"station_id":"ce4bhph2rcd13ifvqhdg","pricing_plan_id":"cebpf4jnsgd1na2vs0mg"},{"bike_id":"28e23b31-a1de-43a5-aa85-c15becbae179","system_id":"levelo_inurba_marseille","lat":43.3229,"lon":5.3827,"is_reserved":false,"is_disabled":false,"rental_uris":{"android":"levelo://app?vid=28e23b31-a1de-43a5-aa85-c15becbae179","ios":"levelo://app?vid=28e23b31-a1de-43a5-aa85-c15becbae179"},"vehicle_type_id":"4","last_reported":1727708968,"current_range_meters":16400,"station_id":"ce4bhr12rcd13ifvqhqg","pricing_plan_id":"cebpf4jnsgd1na2vs0mg"},{"bike_id":"c0c4947a-0932-4b01-a3dd-72e336731210","system_id":"levelo_inurba_marseille","lat":43.30925,"lon":5.40142,"is_reserved":false,"is_disabled":false,"rental_uris":{"android":"levelo://app?vid=c0c4947a-0932-4b01-a3dd-72e336731210","ios":"levelo://app?vid=c0c4947a-0932-4b01-a3dd-72e336731210"},"vehicle_type_id":"4","last_reported":1727708968,"current_range_meters":8400,"station_id":"ce4bgvp2rcd13ifvqct0","pricing_plan_id":"cebpf4jnsgd1na2vs0mg"},{"bike_id":"c7f31a33-ff11-442e-9e3e-629312cbd95b","system_id":"levelo_inurba_marseille","lat":43.31372,"lon":5.38493,"is_reserved":false,"is_disabled":false,"rental_uris":{"android":"levelo://app?vid=c7f31a33-ff11-442e-9e3e-629312cbd95b","ios":"levelo://app?vid=c7f31a33-ff11-442e-9e3e-629312cbd95b"},"vehicle_type_id":"4","last_reported":1727708968,"current_range_meters":5600,"station_id":"ce4bgt92rcd13ifvqcf0","pricing_plan_id":"cebpf4jnsgd1na2vs0mg"},{"bike_id":"cbc67d15-c803-473b-939f-bd11666f6da2","system_id":"levelo_inurba_marseille","lat":43.25867,"lon":5.39895,"is_reserved":false,"is_disabled":false,"rental_uris":{"android":"levelo://app?vid=cbc67d15-c803-473b-939f-bd11666f6da2","ios":"levelo://app?vid=cbc67d15-c803-473b-939f-bd11666f6da2"},"vehicle_type_id":"4","last_reported":1727708968,"current_range_meters":33600,"station_id":"ce4bhl92rcd13ifvqghg","pricing_plan_id":"cebpf4jnsgd1na2vs0mg"},{"bike_id":"f628060b-fd41-4ed6-96b5-306aa97e199b","system_id":"levelo_inurba_marseille","lat":43.24663,"lon":5.38165,"is_reserved":false,"is_disabled":false,"rental_uris":{"android":"levelo://app?vid=f628060b-fd41-4ed6-96b5-306aa97e199b","ios":"levelo://app?vid=f628060b-fd41-4ed6-96b5-306aa97e199b"},"vehicle_type_id":"4","last_reported":1727708968,"current_range_meters":33600,"station_id":"ce4bhih2rcd13ifvqfr0","pricing_plan_id":"cebpf4jnsgd1na2vs0mg"},{"bike_id":"428bb2d1-bc14-4dc3-8004-854d643616d6","system_id":"levelo_inurba_marseille","lat":43.3169,"lon":5.4048,"is_reserved":false,"is_disabled":false,"rental_uris":{"android":"levelo://app?vid=428bb2d1-bc14-4dc3-8004-854d643616d6","ios":"levelo://app?vid=428bb2d1-bc14-4dc3-8004-854d643616d6"},"vehicle_type_id":"4","last_reported":1727708968,"current_range_meters":22400,"station_id":"ce4bh012rcd13ifvqd00","pricing_plan_id":"cebpf4jnsgd1na2vs0mg"},{"bike_id":"4cdcb3b3-cde6-43a6-9cc5-4bcc2b325753","system_id":"levelo_inurba_marseille","lat":43.309534,"lon":5.390171,"is_reserved":false,"is_disabled":false,"rental_uris":{"android":"levelo://app?vid=4cdcb3b3-cde6-43a6-9cc5-4bcc2b325753","ios":"levelo://app?vid=4cdcb3b3-cde6-43a6-9cc5-4bcc2b325753"},"vehicle_type_id":"4","last_reported":1727708968,"current_range_meters":33600,"station_id":"ce4bgup2rcd13ifvqco0","pricing_plan_id":"cebpf4jnsgd1na2vs0mg"},{"bike_id":"bbb23734-6aed-4ea8-8851-f38712ae567b","system_id":"levelo_inurba_marseille","lat":43.323576,"lon":5.389649,"is_reserved":false,"is_disabled":false,"rental_uris":{"android":"levelo://app?vid=bbb23734-6aed-4ea8-8851-f38712ae567b","ios":"levelo://app?vid=bbb23734-6aed-4ea8-8851-f38712ae567b"},"vehicle_type_id":"4","last_reported":1727708968,"current_range_meters":24800,"station_id":"","pricing_plan_id":"cebpf4jnsgd1na2vs0mg"},{"bike_id":"68ee7c6a-9557-4ff4-890d-5a501ce717cc","system_id":"levelo_inurba_marseille","lat":43.33765,"lon":5.37447,"is_reserved":false,"is_disabled":false,"rental_uris":{"android":"levelo://app?vid=68ee7c6a-9557-4ff4-890d-5a501ce717cc","ios":"levelo://app?vid=68ee7c6a-9557-4ff4-890d-5a501ce717cc"},"vehicle_type_id":"4","last_reported":1727708968,"current_range_meters":35200,"station_id":"","pricing_plan_id":"cebpf4jnsgd1na2vs0mg"},{"bike_id":"62dc438d-8cf3-43d3-a1e6-592fc47aa293","system_id":"levelo_inurba_marseille","lat":43.30433,"lon":5.38887,"is_reserved":false,"is_disabled":false,"rental_uris":{"android":"levelo://app?vid=62dc438d-8cf3-43d3-a1e6-592fc47aa293","ios":"levelo://app?vid=62dc438d-8cf3-43d3-a1e6-592fc47aa293"},"vehicle_type_id":"4","last_reported":1727708968,"current_range_meters":33600,"station_id":"ce4bgk12rcd13ifvqbi0","pricing_plan_id":"cebpf4jnsgd1na2vs0mg"},{"bike_id":"38b0e8bc-f43d-4f44-ab64-857979bac498","system_id":"levelo_inurba_marseille","lat":43.3019,"lon":5.36615,"is_reserved":false,"is_disabled":false,"rental_uris":{"android":"levelo://app?vid=38b0e8bc-f43d-4f44-ab64-857979bac498","ios":"levelo://app?vid=38b0e8bc-f43d-4f44-ab64-857979bac498"},"vehicle_type_id":"4","last_reported":1727708968,"current_range_meters":32000,"station_id":"ce4bgrh2rcd13ifvqc8g","pricing_plan_id":"cebpf4jnsgd1na2vs0mg"},{"bike_id":"c64da153-a562-4f86-9f35-286156edb213","system_id":"levelo_inurba_marseille","lat":43.30803,"lon":5.37685,"is_reserved":false,"is_disabled":false,"rental_uris":{"android":"levelo://app?vid=c64da153-a562-4f86-9f35-286156edb213","ios":"levelo://app?vid=c64da153-a562-4f86-9f35-286156edb213"},"vehicle_type_id":"4","last_reported":1727708968,"current_range_meters":16000,"station_id":"ce4bgv92rcd13ifvqcq0","pricing_plan_id":"cebpf4jnsgd1na2vs0mg"},{"bike_id":"784cd273-ab8d-4322-871e-c16aa3802b6c","system_id":"levelo_inurba_marseille","lat":43.29571,"lon":5.39975,"is_reserved":false,"is_disabled":false,"rental_uris":{"android":"levelo://app?vid=784cd273-ab8d-4322-871e-c16aa3802b6c","ios":"levelo://app?vid=784cd273-ab8d-4322-871e-c16aa3802b6c"},"vehicle_type_id":"4","last_reported":1727708968,"current_range_meters":6400,"station_id":"ce4bh312rcd13ifvqdj0","pricing_plan_id":"cebpf4jnsgd1na2vs0mg"},{"bike_id":"28ebc904-6b51-4499-aef9-35eaf2153b24","system_id":"levelo_inurba_marseille","lat":43.28286,"lon":5.35075,"is_reserved":false,"is_disabled":false,"rental_uris":{"android":"levelo://app?vid=28ebc904-6b51-4499-aef9-35eaf2153b24","ios":"levelo://app?vid=28ebc904-6b51-4499-aef9-35eaf2153b24"},"vehicle_type_id":"4","last_reported":1727708968,"current_range_meters":33200,"station_id":"ce4bhbp2rcd13ifvqerg","pricing_plan_id":"cebpf4jnsgd1na2vs0mg"},{"bike_id":"e011c22e-7abb-4949-8863-3cc36ae2c641","system_id":"levelo_inurba_marseille","lat":43.31216,"lon":5.36849,"is_reserved":false,"is_disabled":false,"rental_uris":{"android":"levelo://app?vid=e011c22e-7abb-4949-8863-3cc36ae2c641","ios":"levelo://app?vid=e011c22e-7abb-4949-8863-3cc36ae2c641"},"vehicle_type_id":"4","last_reported":1727708968,"current_range_meters":38000,"station_id":"ce4bgl92rcd13ifvqbq0","pricing_plan_id":"cebpf4jnsgd1na2vs0mg"},{"bike_id":"209b3ab4-4b23-4ad6-8de8-97ae20a2ca21","system_id":"levelo_inurba_marseille","lat":43.30415,"lon":5.41286,"is_reserved":false,"is_disabled":false,"rental_uris":{"android":"levelo://app?vid=209b3ab4-4b23-4ad6-8de8-97ae20a2ca21","ios":"levelo://app?vid=209b3ab4-4b23-4ad6-8de8-97ae20a2ca21"},"vehicle_type_id":"4","last_reported":1727708968,"current_range_meters":33600,"station_id":"ce4bhop2rcd13ifvqh8g","pricing_plan_id":"cebpf4jnsgd1na2vs0mg"},{"bike_id":"ace64846-f4f3-4bda-a656-130bc647b3b5","system_id":"levelo_inurba_marseille","lat":43.304203,"lon":5.39745,"is_reserved":false,"is_disabled":false,"rental_uris":{"android":"levelo://app?vid=ace64846-f4f3-4bda-a656-130bc647b3b5","ios":"levelo://app?vid=ace64846-f4f3-4bda-a656-130bc647b3b5"},"vehicle_type_id":"4","last_reported":1727708968,"current_range_meters":16000,"station_id":"ce4bh092rcd13ifvqd20","pricing_plan_id":"cebpf4jnsgd1na2vs0mg"},{"bike_id":"2304e454-6361-46d5-9e36-6fff91af479a","system_id":"levelo_inurba_marseille","lat":43.30152,"lon":5.38077,"is_reserved":false,"is_disabled":false,"rental_uris":{"android":"levelo://app?vid=2304e454-6361-46d5-9e36-6fff91af479a","ios":"levelo://app?vid=2304e454-6361-46d5-9e36-6fff91af479a"},"vehicle_type_id":"4","last_reported":1727708968,"current_range_meters":7200,"station_id":"ce4bgjp2rcd13ifvqbh0","pricing_plan_id":"cebpf4jnsgd1na2vs0mg"},{"bike_id":"d2e3fc56-890a-437f-8f70-70e29224505d","system_id":"levelo_inurba_marseille","lat":43.25865,"lon":5.39899,"is_reserved":false,"is_disabled":false,"rental_uris":{"android":"levelo://app?vid=d2e3fc56-890a-437f-8f70-70e29224505d","ios":"levelo://app?vid=d2e3fc56-890a-437f-8f70-70e29224505d"},"vehicle_type_id":"4","last_reported":1727708968,"current_range_meters":9600,"station_id":"ce4bhl92rcd13ifvqghg","pricing_plan_id":"cebpf4jnsgd1na2vs0mg"},{"bike_id":"a375e2bb-8815-4325-949a-a984a73fa268","system_id":"levelo_inurba_marseille","lat":43.270578,"lon":5.40255,"is_reserved":false,"is_disabled":false,"rental_uris":{"android":"levelo://app?vid=a375e2bb-8815-4325-949a-a984a73fa268","ios":"levelo://app?vid=a375e2bb-8815-4325-949a-a984a73fa268"},"vehicle_type_id":"4","last_reported":1727708968,"current_range_meters":8800,"station_id":"ce4bhk92rcd13ifvqgc0","pricing_plan_id":"cebpf4jnsgd1na2vs0mg"},{"bike_id":"8869a5de-4a8e-4f3e-a3de-9a467656147c","system_id":"levelo_inurba_marseille","lat":43.283989,"lon":5.375127,"is_reserved":false,"is_disabled":false,"rental_uris":{"android":"levelo://app?vid=8869a5de-4a8e-4f3e-a3de-9a467656147c","ios":"levelo://app?vid=8869a5de-4a8e-4f3e-a3de-9a467656147c"},"vehicle_type_id":"4","last_reported":1727708968,"current_range_meters":30000,"station_id":"ce4bh412rcd13ifvqds0","pricing_plan_id":"cebpf4jnsgd1na2vs0mg"},{"bike_id":"1d2c4ce2-81f4-456b-aab4-6635eb6eb0cd","system_id":"levelo_inurba_marseille","lat":43.24806,"lon":5.37456,"is_reserved":false,"is_disabled":false,"rental_uris":{"android":"levelo://app?vid=1d2c4ce2-81f4-456b-aab4-6635eb6eb0cd","ios":"levelo://app?vid=1d2c4ce2-81f4-456b-aab4-6635eb6eb0cd"},"vehicle_type_id":"4","last_reported":1727708968,"current_range_meters":8800,"station_id":"ce4bhgh2rcd13ifvqfb0","pricing_plan_id":"cebpf4jnsgd1na2vs0mg"},{"bike_id":"a3fb2098-a3d1-439d-95b9-6e4364eb59ec","system_id":"levelo_inurba_marseille","lat":43.24485,"lon":5.37832,"is_reserved":false,"is_disabled":false,"rental_uris":{"android":"levelo://app?vid=a3fb2098-a3d1-439d-95b9-6e4364eb59ec","ios":"levelo://app?vid=a3fb2098-a3d1-439d-95b9-6e4364eb59ec"},"vehicle_type_id":"4","last_reported":1727708968,"current_range_meters":16000,"station_id":"","pricing_plan_id":"cebpf4jnsgd1na2vs0mg"},{"bike_id":"201621f6-5724-4477-886e-23d690a7ff59","system_id":"levelo_inurba_marseille","lat":43.23191,"lon":5.35538,"is_reserved":false,"is_disabled":false,"rental_uris":{"android":"levelo://app?vid=201621f6-5724-4477-886e-23d690a7ff59","ios":"levelo://app?vid=201621f6-5724-4477-886e-23d690a7ff59"},"vehicle_type_id":"4","last_reported":1727708968,"current_range_meters":37600,"station_id":"ce4bhu92rcd13ifvqi70","pricing_plan_id":"cebpf4jnsgd1na2vs0mg"},{"bike_id":"c4a9b464-4926-4b7c-b8ad-3831bdfb6cc5","system_id":"levelo_inurba_marseille","lat":43.32288,"lon":5.38267,"is_reserved":false,"is_disabled":false,"rental_uris":{"android":"levelo://app?vid=c4a9b464-4926-4b7c-b8ad-3831bdfb6cc5","ios":"levelo://app?vid=c4a9b464-4926-4b7c-b8ad-3831bdfb6cc5"},"vehicle_type_id":"4","last_reported":1727708968,"current_range_meters":22000,"station_id":"ce4bhr12rcd13ifvqhqg","pricing_plan_id":"cebpf4jnsgd1na2vs0mg"},{"bike_id":"d6b8d43c-2c9b-4207-a13b-9aca5d35203a","system_id":"levelo_inurba_marseille","lat":43.32285,"lon":5.38259,"is_reserved":false,"is_disabled":false,"rental_uris":{"android":"levelo://app?vid=d6b8d43c-2c9b-4207-a13b-9aca5d35203a","ios":"levelo://app?vid=d6b8d43c-2c9b-4207-a13b-9aca5d35203a"},"vehicle_type_id":"4","last_reported":1727708968,"current_range_meters":27600,"station_id":"ce4bhr12rcd13ifvqhqg","pricing_plan_id":"cebpf4jnsgd1na2vs0mg"},{"bike_id":"88dfdf46-f889-4138-adef-afcd305df916","system_id":"levelo_inurba_marseille","lat":43.2658,"lon":5.39011,"is_reserved":false,"is_disabled":false,"rental_uris":{"android":"levelo://app?vid=88dfdf46-f889-4138-adef-afcd305df916","ios":"levelo://app?vid=88dfdf46-f889-4138-adef-afcd305df916"},"vehicle_type_id":"4","last_reported":1727708968,"current_range_meters":33600,"station_id":"ce4bhe12rcd13ifvqf30","pricing_plan_id":"cebpf4jnsgd1na2vs0mg"},{"bike_id":"23ae8e0b-85b9-4e45-9948-a0f5b8116df8","system_id":"levelo_inurba_marseille","lat":43.32368,"lon":5.38883,"is_reserved":false,"is_disabled":false,"rental_uris":{"android":"levelo://app?vid=23ae8e0b-85b9-4e45-9948-a0f5b8116df8","ios":"levelo://app?vid=23ae8e0b-85b9-4e45-9948-a0f5b8116df8"},"vehicle_type_id":"4","last_reported":1727708968,"current_range_meters":32000,"station_id":"ce4bhqp2rcd13ifvqhog","pricing_plan_id":"cebpf4jnsgd1na2vs0mg"},{"bike_id":"4d361027-7af6-4e4e-9d17-603517b09f59","system_id":"levelo_inurba_marseille","lat":43.27056,"lon":5.40259,"is_reserved":false,"is_disabled":false,"rental_uris":{"android":"levelo://app?vid=4d361027-7af6-4e4e-9d17-603517b09f59","ios":"levelo://app?vid=4d361027-7af6-4e4e-9d17-603517b09f59"},"vehicle_type_id":"4","last_reported":1727708968,"current_range_meters":10000,"station_id":"ce4bhk92rcd13ifvqgc0","pricing_plan_id":"cebpf4jnsgd1na2vs0mg"},{"bike_id":"9627f3f8-2020-4663-9321-54392ba3f0e6","system_id":"levelo_inurba_marseille","lat":43.28419,"lon":5.34977,"is_reserved":false,"is_disabled":false,"rental_uris":{"android":"levelo://app?vid=9627f3f8-2020-4663-9321-54392ba3f0e6","ios":"levelo://app?vid=9627f3f8-2020-4663-9321-54392ba3f0e6"},"vehicle_type_id":"4","last_reported":1727708968,"current_range_meters":9200,"station_id":"ce4bhbh2rcd13ifvqepg","pricing_plan_id":"cebpf4jnsgd1na2vs0mg"},{"bike_id":"f420f168-6515-49a8-96ea-9077a6be5a59","system_id":"levelo_inurba_marseille","lat":43.26569,"lon":5.39005,"is_reserved":false,"is_disabled":false,"rental_uris":{"android":"levelo://app?vid=f420f168-6515-49a8-96ea-9077a6be5a59","ios":"levelo://app?vid=f420f168-6515-49a8-96ea-9077a6be5a59"},"vehicle_type_id":"4","last_reported":1727708968,"current_range_meters":4400,"station_id":"ce4bhe12rcd13ifvqf30","pricing_plan_id":"cebpf4jnsgd1na2vs0mg"},{"bike_id":"7f1e4147-1ca5-4d13-a5ec-e1bd45f58e55","system_id":"levelo_inurba_marseille","lat":43.23189,"lon":5.35546,"is_reserved":false,"is_disabled":false,"rental_uris":{"android":"levelo://app?vid=7f1e4147-1ca5-4d13-a5ec-e1bd45f58e55","ios":"levelo://app?vid=7f1e4147-1ca5-4d13-a5ec-e1bd45f58e55"},"vehicle_type_id":"4","last_reported":1727708968,"current_range_meters":22000,"station_id":"ce4bhu92rcd13ifvqi70","pricing_plan_id":"cebpf4jnsgd1na2vs0mg"},{"bike_id":"810ec411-8fcb-49d5-85db-1020d67c9d57","system_id":"levelo_inurba_marseille","lat":43.25865,"lon":5.399,"is_reserved":false,"is_disabled":false,"rental_uris":{"android":"levelo://app?vid=810ec411-8fcb-49d5-85db-1020d67c9d57","ios":"levelo://app?vid=810ec411-8fcb-49d5-85db-1020d67c9d57"},"vehicle_type_id":"4","last_reported":1727708968,"current_range_meters":6000,"station_id":"ce4bhl92rcd13ifvqghg","pricing_plan_id":"cebpf4jnsgd1na2vs0mg"},{"bike_id":"2e794c23-6593-4494-aa43-c17b5e667ca0","system_id":"levelo_inurba_marseille","lat":43.29956,"lon":5.37333,"is_reserved":false,"is_disabled":false,"rental_uris":{"android":"levelo://app?vid=2e794c23-6593-4494-aa43-c17b5e667ca0","ios":"levelo://app?vid=2e794c23-6593-4494-aa43-c17b5e667ca0"},"vehicle_type_id":"4","last_reported":1727708968,"current_range_meters":30800,"station_id":"","pricing_plan_id":"cebpf4jnsgd1na2vs0mg"},{"bike_id":"145041c7-adbf-40f3-9343-a07a350baa17","system_id":"levelo_inurba_marseille","lat":43.30804,"lon":5.37311,"is_reserved":false,"is_disabled":false,"rental_uris":{"android":"levelo://app?vid=145041c7-adbf-40f3-9343-a07a350baa17","ios":"levelo://app?vid=145041c7-adbf-40f3-9343-a07a350baa17"},"vehicle_type_id":"4","last_reported":1727708968,"current_range_meters":39200,"station_id":"ce4bguh2rcd13ifvqckg","pricing_plan_id":"cebpf4jnsgd1na2vs0mg"},{"bike_id":"1cb77295-03ef-4906-846d-3ae57b8dcf53","system_id":"levelo_inurba_marseille","lat":43.29557,"lon":5.42291,"is_reserved":false,"is_disabled":false,"rental_uris":{"android":"levelo://app?vid=1cb77295-03ef-4906-846d-3ae57b8dcf53","ios":"levelo://app?vid=1cb77295-03ef-4906-846d-3ae57b8dcf53"},"vehicle_type_id":"4","last_reported":1727708968,"current_range_meters":17200,"station_id":"ce4bhph2rcd13ifvqhdg","pricing_plan_id":"cebpf4jnsgd1na2vs0mg"},{"bike_id":"ddc4bd7e-b5ce-426e-ba83-e50713999967","system_id":"levelo_inurba_marseille","lat":43.31712,"lon":5.43706,"is_reserved":false,"is_disabled":false,"rental_uris":{"android":"levelo://app?vid=ddc4bd7e-b5ce-426e-ba83-e50713999967","ios":"levelo://app?vid=ddc4bd7e-b5ce-426e-ba83-e50713999967"},"vehicle_type_id":"4","last_reported":1727708968,"current_range_meters":36000,"station_id":"ce4bhp92rcd13ifvqhcg","pricing_plan_id":"cebpf4jnsgd1na2vs0mg"},{"bike_id":"257d281c-d0eb-4a02-9a2c-1fd2223b8264","system_id":"levelo_inurba_marseille","lat":43.28155,"lon":5.42642,"is_reserved":false,"is_disabled":false,"rental_uris":{"android":"levelo://app?vid=257d281c-d0eb-4a02-9a2c-1fd2223b8264","ios":"levelo://app?vid=257d281c-d0eb-4a02-9a2c-1fd2223b8264"},"vehicle_type_id":"4","last_reported":1727708968,"current_range_meters":18800,"station_id":"ce4bhnh2rcd13ifvqgug","pricing_plan_id":"cebpf4jnsgd1na2vs0mg"},{"bike_id":"ab716559-3b48-4e83-8058-2a8842503111","system_id":"levelo_inurba_marseille","lat":43.30951,"lon":5.39034,"is_reserved":false,"is_disabled":false,"rental_uris":{"android":"levelo://app?vid=ab716559-3b48-4e83-8058-2a8842503111","ios":"levelo://app?vid=ab716559-3b48-4e83-8058-2a8842503111"},"vehicle_type_id":"4","last_reported":1727708968,"current_range_meters":2000,"station_id":"ce4bgup2rcd13ifvqco0","pricing_plan_id":"cebpf4jnsgd1na2vs0mg"},{"bike_id":"5f4d0eaf-7096-4e0d-a600-56b16c14cf0a","system_id":"levelo_inurba_marseille","lat":43.28152,"lon":5.42648,"is_reserved":false,"is_disabled":false,"rental_uris":{"android":"levelo://app?vid=5f4d0eaf-7096-4e0d-a600-56b16c14cf0a","ios":"levelo://app?vid=5f4d0eaf-7096-4e0d-a600-56b16c14cf0a"},"vehicle_type_id":"4","last_reported":1727708968,"current_range_meters":25200,"station_id":"ce4bhnh2rcd13ifvqgug","pricing_plan_id":"cebpf4jnsgd1na2vs0mg"},{"bike_id":"19a4396d-7ebf-442e-a09c-9db96577f8cd","system_id":"levelo_inurba_marseille","lat":43.30547,"lon":5.36705,"is_reserved":false,"is_disabled":false,"rental_uris":{"android":"levelo://app?vid=19a4396d-7ebf-442e-a09c-9db96577f8cd","ios":"levelo://app?vid=19a4396d-7ebf-442e-a09c-9db96577f8cd"},"vehicle_type_id":"4","last_reported":1727708968,"current_range_meters":32400,"station_id":"ce4bgrp2rcd13ifvqc9g","pricing_plan_id":"cebpf4jnsgd1na2vs0mg"},{"bike_id":"c847709c-d28c-4e0f-b338-83d15fafc96e","system_id":"levelo_inurba_marseille","lat":43.29312,"lon":5.3747,"is_reserved":false,"is_disabled":false,"rental_uris":{"android":"levelo://app?vid=c847709c-d28c-4e0f-b338-83d15fafc96e","ios":"levelo://app?vid=c847709c-d28c-4e0f-b338-83d15fafc96e"},"vehicle_type_id":"4","last_reported":1727708968,"current_range_meters":18000,"station_id":"ce4bgi12rcd13ifvqb70","pricing_plan_id":"cebpf4jnsgd1na2vs0mg"},{"bike_id":"464d97a4-9185-44d1-a6ac-86b73bd26941","system_id":"levelo_inurba_marseille","lat":43.30314,"lon":5.36907,"is_reserved":false,"is_disabled":false,"rental_uris":{"android":"levelo://app?vid=464d97a4-9185-44d1-a6ac-86b73bd26941","ios":"levelo://app?vid=464d97a4-9185-44d1-a6ac-86b73bd26941"},"vehicle_type_id":"4","last_reported":1727708968,"current_range_meters":38800,"station_id":"ce4bgqh2rcd13ifvqc5g","pricing_plan_id":"cebpf4jnsgd1na2vs0mg"},{"bike_id":"f1467ff3-be24-448e-85a8-d8d7862609dd","system_id":"levelo_inurba_marseille","lat":43.32366,"lon":5.38884,"is_reserved":false,"is_disabled":false,"rental_uris":{"android":"levelo://app?vid=f1467ff3-be24-448e-85a8-d8d7862609dd","ios":"levelo://app?vid=f1467ff3-be24-448e-85a8-d8d7862609dd"},"vehicle_type_id":"4","last_reported":1727708968,"current_range_meters":4000,"station_id":"ce4bhqp2rcd13ifvqhog","pricing_plan_id":"cebpf4jnsgd1na2vs0mg"},{"bike_id":"32c12621-d165-4b6f-9d0b-1c40a00cb40e","system_id":"levelo_inurba_marseille","lat":43.30429,"lon":5.39734,"is_reserved":false,"is_disabled":false,"rental_uris":{"android":"levelo://app?vid=32c12621-d165-4b6f-9d0b-1c40a00cb40e","ios":"levelo://app?vid=32c12621-d165-4b6f-9d0b-1c40a00cb40e"},"vehicle_type_id":"4","last_reported":1727708968,"current_range_meters":33200,"station_id":"ce4bh092rcd13ifvqd20","pricing_plan_id":"cebpf4jnsgd1na2vs0mg"},{"bike_id":"8e5e4e8d-007e-4a2d-8eae-e79374ce979d","system_id":"levelo_inurba_marseille","lat":43.28432,"lon":5.34986,"is_reserved":false,"is_disabled":false,"rental_uris":{"android":"levelo://app?vid=8e5e4e8d-007e-4a2d-8eae-e79374ce979d","ios":"levelo://app?vid=8e5e4e8d-007e-4a2d-8eae-e79374ce979d"},"vehicle_type_id":"4","last_reported":1727708968,"current_range_meters":38800,"station_id":"ce4bhbh2rcd13ifvqepg","pricing_plan_id":"cebpf4jnsgd1na2vs0mg"},{"bike_id":"6d88143b-354f-460b-b587-be4e6b6cb984","system_id":"levelo_inurba_marseille","lat":43.30619,"lon":5.38448,"is_reserved":false,"is_disabled":false,"rental_uris":{"android":"levelo://app?vid=6d88143b-354f-460b-b587-be4e6b6cb984","ios":"levelo://app?vid=6d88143b-354f-460b-b587-be4e6b6cb984"},"vehicle_type_id":"4","last_reported":1727708968,"current_range_meters":30800,"station_id":"ce4bgg92rcd13ifvqb30","pricing_plan_id":"cebpf4jnsgd1na2vs0mg"},{"bike_id":"6213fdae-2eb6-45d2-aa33-0865621efe29","system_id":"levelo_inurba_marseille","lat":43.28372,"lon":5.38632,"is_reserved":false,"is_disabled":false,"rental_uris":{"android":"levelo://app?vid=6213fdae-2eb6-45d2-aa33-0865621efe29","ios":"levelo://app?vid=6213fdae-2eb6-45d2-aa33-0865621efe29"},"vehicle_type_id":"4","last_reported":1727708968,"current_range_meters":17600,"station_id":"ce4bh492rcd13ifvqdvg","pricing_plan_id":"cebpf4jnsgd1na2vs0mg"},{"bike_id":"dab426eb-9126-4cd3-95b0-6a0564ba1843","system_id":"levelo_inurba_marseille","lat":43.28716,"lon":5.37942,"is_reserved":false,"is_disabled":false,"rental_uris":{"android":"levelo://app?vid=dab426eb-9126-4cd3-95b0-6a0564ba1843","ios":"levelo://app?vid=dab426eb-9126-4cd3-95b0-6a0564ba1843"},"vehicle_type_id":"4","last_reported":1727708968,"current_range_meters":24400,"station_id":"ce4bh9p2rcd13ifvqec0","pricing_plan_id":"cebpf4jnsgd1na2vs0mg"},{"bike_id":"fc1a5422-5366-481d-b1de-fa9b2bbfd3df","system_id":"levelo_inurba_marseille","lat":43.322873,"lon":5.382746,"is_reserved":false,"is_disabled":false,"rental_uris":{"android":"levelo://app?vid=fc1a5422-5366-481d-b1de-fa9b2bbfd3df","ios":"levelo://app?vid=fc1a5422-5366-481d-b1de-fa9b2bbfd3df"},"vehicle_type_id":"4","last_reported":1727708968,"current_range_meters":28400,"station_id":"ce4bhr12rcd13ifvqhqg","pricing_plan_id":"cebpf4jnsgd1na2vs0mg"},{"bike_id":"af39fd33-e0a9-479d-85b6-b76e3b496cda","system_id":"levelo_inurba_marseille","lat":43.28939,"lon":5.36376,"is_reserved":false,"is_disabled":false,"rental_uris":{"android":"levelo://app?vid=af39fd33-e0a9-479d-85b6-b76e3b496cda","ios":"levelo://app?vid=af39fd33-e0a9-479d-85b6-b76e3b496cda"},"vehicle_type_id":"4","last_reported":1727708968,"current_range_meters":4800,"station_id":"ce4bhc92rcd13ifvqetg","pricing_plan_id":"cebpf4jnsgd1na2vs0mg"},{"bike_id":"0bd70456-dcc3-4181-8525-f8a012d2b4a1","system_id":"levelo_inurba_marseille","lat":43.25939,"lon":5.40899,"is_reserved":false,"is_disabled":false,"rental_uris":{"android":"levelo://app?vid=0bd70456-dcc3-4181-8525-f8a012d2b4a1","ios":"levelo://app?vid=0bd70456-dcc3-4181-8525-f8a012d2b4a1"},"vehicle_type_id":"4","last_reported":1727708968,"current_range_meters":36400,"station_id":"ce4bhm92rcd13ifvqglg","pricing_plan_id":"cebpf4jnsgd1na2vs0mg"},{"bike_id":"4d905f8e-29a6-4864-864a-c9640a43ec8a","system_id":"levelo_inurba_marseille","lat":43.26777,"lon":5.39416,"is_reserved":false,"is_disabled":false,"rental_uris":{"android":"levelo://app?vid=4d905f8e-29a6-4864-864a-c9640a43ec8a","ios":"levelo://app?vid=4d905f8e-29a6-4864-864a-c9640a43ec8a"},"vehicle_type_id":"4","last_reported":1727708968,"current_range_meters":20400,"station_id":"ce4bhh12rcd13ifvqfg0","pricing_plan_id":"cebpf4jnsgd1na2vs0mg"},{"bike_id":"06709833-6fb6-4f4c-a51f-fecb9485b8d2","system_id":"levelo_inurba_marseille","lat":43.29304,"lon":5.3718,"is_reserved":false,"is_disabled":false,"rental_uris":{"android":"levelo://app?vid=06709833-6fb6-4f4c-a51f-fecb9485b8d2","ios":"levelo://app?vid=06709833-6fb6-4f4c-a51f-fecb9485b8d2"},