{"last_updated":1745847252,"ttl":60,"version":"2.2","data":{"bikes":[{"bike_id":"1a689e22-7eb7-4b13-94a3-e15884d7c661","system_id":"levelo_inurba_marseille","lat":43.26208,"lon":5.37435,"is_reserved":false,"is_disabled":false,"rental_uris":{"android":"levelo://app?vid=1a689e22-7eb7-4b13-94a3-e15884d7c661","ios":"levelo://app?vid=1a689e22-7eb7-4b13-94a3-e15884d7c661"},"vehicle_type_id":"4","last_reported":1745847252,"current_range_meters":2800,"station_id":"ce4bhgp2rcd13ifvqfc0","pricing_plan_id":"cebpf4jnsgd1na2vs0mg"},{"bike_id":"8ae79fb7-0582-444e-8dab-1d22e31e0f2e","system_id":"levelo_inurba_marseille","lat":43.23968,"lon":5.36619,"is_reserved":false,"is_disabled":false,"rental_uris":{"android":"levelo://app?vid=8ae79fb7-0582-444e-8dab-1d22e31e0f2e","ios":"levelo://app?vid=8ae79fb7-0582-444e-8dab-1d22e31e0f2e"},"vehicle_type_id":"4","last_reported":1745847252,"current_range_meters":3200,"station_id":"ce4bhi12rcd13ifvqfp0","pricing_plan_id":"cebpf4jnsgd1na2vs0mg"},{"bike_id":"f7a94721-f51e-474f-878d-ba44d72027dc","system_id":"levelo_inurba_marseille","lat":43.22932,"lon":5.35381,"is_reserved":false,"is_disabled":false,"rental_uris":{"android":"levelo://app?vid=f7a94721-f51e-474f-878d-ba44d72027dc","ios":"levelo://app?vid=f7a94721-f51e-474f-878d-ba44d72027dc"},"vehicle_type_id":"4","last_reported":1745847252,"current_range_meters":3200,"station_id":"cpo3532slgdg3j2ikp40","pricing_plan_id":"cebpf4jnsgd1na2vs0mg"},{"bike_id":"14b4c073-5c7c-41e1-acca-1effa1c3ba26","system_id":"levelo_inurba_marseille","lat":43.27808,"lon":5.40709,"is_reserved":false,"is_disabled":false,"rental_uris":{"android":"levelo://app?vid=14b4c073-5c7c-41e1-acca-1effa1c3ba26","ios":"levelo://app?vid=14b4c073-5c7c-41e1-acca-1effa1c3ba26"},"vehicle_type_id":"4","last_reported":1745847252,"current_range_meters":3200,"station_id":"ce4bhnh2rcd13ifvqgtg","pricing_plan_id":"cebpf4jnsgd1na2vs0mg"},{"bike_id":"07f8cc29-b86f-4696-ac39-20f0f7e0a392","system_id":"levelo_inurba_marseille","lat":43.233651,"lon":5.360415,"is_reserved":false,"is_disabled":false,"rental_uris":{"android":"levelo://app?vid=07f8cc29-b86f-4696-ac39-20f0f7e0a392","ios":"levelo://app?vid=07f8cc29-b86f-4696-ac39-20f0f7e0a392"},"vehicle_type_id":"4","last_reported":1745847252,"current_range_meters":3200,"station_id":"","pricing_plan_id":"cebpf4jnsgd1na2vs0mg"},{"bike_id":"f9e49179-ce27-4f3c-a5a2-0d694d67f414","system_id":"levelo_inurba_marseille","lat":43.29605,"lon":5.38101,"is_reserved":false,"is_disabled":false,"rental_uris":{"android":"levelo://app?vid=f9e49179-ce27-4f3c-a5a2-0d694d67f414","ios":"levelo://app?vid=f9e49179-ce27-4f3c-a5a2-0d694d67f414"},"vehicle_type_id":"4","last_reported":1745847252,"current_range_meters":3600,"station_id":"ce4bgl12rcd13ifvqbo0","pricing_plan_id":"cebpf4jnsgd1na2vs0mg"},{"bike_id":"cb4774af-8e1f-43b9-8239-315bbf1eab3c","system_id":"levelo_inurba_marseille","lat":43.24165,"lon":5.36388,"is_reserved":false,"is_disabled":false,"rental_uris":{"android":"levelo://app?vid=cb4774af-8e1f-43b9-8239-315bbf1eab3c","ios":"levelo://app?vid=cb4774af-8e1f-43b9-8239-315bbf1eab3c"},"vehicle_type_id":"4","last_reported":1745847252,"current_range_meters":3600,"station_id":"cpo36qri1sfpv3e86is0","pricing_plan_id":"cebpf4jnsgd1na2vs0mg"},{"bike_id":"a013a361-5d6d-4d99-b636-806e1c86ba48","system_id":"levelo_inurba_marseille","lat":43.22937,"lon":5.35371,"is_reserved":false,"is_disabled":false,"rental_uris":{"android":"levelo://app?vid=a013a361-5d6d-4d99-b636-806e1c86ba48","ios":"levelo://app?vid=a013a361-5d6d-4d99-b636-806e1c86ba48"},"vehicle_type_id":"4","last_reported":1745847252,"current_range_meters":4400,"station_id":"cpo3532slgdg3j2ikp40","pricing_plan_id":"cebpf4jnsgd1na2vs0mg"},{"bike_id":"ac4eedd0-b2b7-4f35-86c6-75d3effae127","system_id":"levelo_inurba_marseille","lat":43.28463,"lon":5.35875,"is_reserved":false,"is_disabled":false,"rental_uris":{"android":"levelo://app?vid=ac4eedd0-b2b7-4f35-86c6-75d3effae127","ios":"levelo://app?vid=ac4eedd0-b2b7-4f35-86c6-75d3effae127"},"vehicle_type_id":"4","last_reported":1745847252,"current_range_meters":4400,"station_id":"ce4bhah2rcd13ifvqei0","pricing_plan_id":"cebpf4jnsgd1na2vs0mg"},{"bike_id":"9698920a-1bf7-43c9-8e2f-77f28055a742","system_id":"levelo_inurba_marseille","lat":43.23151,"lon":5.43714,"is_reserved":false,"is_disabled":false,"rental_uris":{"android":"levelo://app?vid=9698920a-1bf7-43c9-8e2f-77f28055a742","ios":"levelo://app?vid=9698920a-1bf7-43c9-8e2f-77f28055a742"},"vehicle_type_id":"4","last_reported":1745847252,"current_range_meters":4800,"station_id":"ce4bhmp2rcd13ifvqgog","pricing_plan_id":"cebpf4jnsgd1na2vs0mg"},{"bike_id":"8d6426dd-5fcf-42bc-ae8a-366dc918d617","system_id":"levelo_inurba_marseille","lat":43.28101,"lon":5.37836,"is_reserved":false,"is_disabled":false,"rental_uris":{"android":"levelo://app?vid=8d6426dd-5fcf-42bc-ae8a-366dc918d617","ios":"levelo://app?vid=8d6426dd-5fcf-42bc-ae8a-366dc918d617"},"vehicle_type_id":"4","last_reported":1745847252,"current_range_meters":4800,"station_id":"ce4bha12rcd13ifvqee0","pricing_plan_id":"cebpf4jnsgd1na2vs0mg"},{"bike_id":"74677f28-3596-4c5b-98de-ba4120a70f9d","system_id":"levelo_inurba_marseille","lat":43.256159,"lon":5.41197,"is_reserved":false,"is_disabled":false,"rental_uris":{"android":"levelo://app?vid=74677f28-3596-4c5b-98de-ba4120a70f9d","ios":"levelo://app?vid=74677f28-3596-4c5b-98de-ba4120a70f9d"},"vehicle_type_id":"4","last_reported":1745847252,"current_range_meters":4800,"station_id":"","pricing_plan_id":"cebpf4jnsgd1na2vs0mg"},{"bike_id":"cfe04bd7-ea22-48a7-b9f8-778005f9f3bb","system_id":"levelo_inurba_marseille","lat":43.299,"lon":5.43672,"is_reserved":false,"is_disabled":false,"rental_uris":{"android":"levelo://app?vid=cfe04bd7-ea22-48a7-b9f8-778005f9f3bb","ios":"levelo://app?vid=cfe04bd7-ea22-48a7-b9f8-778005f9f3bb"},"vehicle_type_id":"4","last_reported":1745847252,"current_range_meters":6000,"station_id":"ce4bhpp2rcd13ifvqhfg","pricing_plan_id":"cebpf4jnsgd1na2vs0mg"},{"bike_id":"87f123c4-0adc-4ba8-8649-74e2c508ef05","system_id":"levelo_inurba_marseille","lat":43.26553,"lon":5.37288,"is_reserved":false,"is_disabled":false,"rental_uris":{"android":"levelo://app?vid=87f123c4-0adc-4ba8-8649-74e2c508ef05","ios":"levelo://app?vid=87f123c4-0adc-4ba8-8649-74e2c508ef05"},"vehicle_type_id":"4","last_reported":1745847252,"current_range_meters":6000,"station_id":"ce4bhg12rcd13ifvqf70","pricing_plan_id":"cebpf4jnsgd1na2vs0mg"},{"bike_id":"1bd880bc-0b9d-4357-8991-ce787668c5d6","system_id":"levelo_inurba_marseille","lat":43.278181,"lon":5.407056,"is_reserved":false,"is_disabled":false,"rental_uris":{"android":"levelo://app?vid=1bd880bc-0b9d-4357-8991-ce787668c5d6","ios":"levelo://app?vid=1bd880bc-0b9d-4357-8991-ce787668c5d6"},"vehicle_type_id":"4","last_reported":1745847252,"current_range_meters":6000,"station_id":"ce4bhnh2rcd13ifvqgtg","pricing_plan_id":"cebpf4jnsgd1na2vs0mg"},{"bike_id":"0eabb3df-0bf6-4b44-b71a-abf73c070d66","system_id":"levelo_inurba_marseille","lat":43.30245,"lon":5.40064,"is_reserved":false,"is_disabled":false,"rental_uris":{"android":"levelo://app?vid=0eabb3df-0bf6-4b44-b71a-abf73c070d66","ios":"levelo://app?vid=0eabb3df-0bf6-4b44-b71a-abf73c070d66"},"vehicle_type_id":"4","last_reported":1745847252,"current_range_meters":6000,"station_id":"ce4bgvh2rcd13ifvqcs0","pricing_plan_id":"cebpf4jnsgd1na2vs0mg"},{"bike_id":"147927d8-4a83-41d3-a345-eb2767075aab","system_id":"levelo_inurba_marseille","lat":43.29543,"lon":5.37515,"is_reserved":false,"is_disabled":false,"rental_uris":{"android":"levelo://app?vid=147927d8-4a83-41d3-a345-eb2767075aab","ios":"levelo://app?vid=147927d8-4a83-41d3-a345-eb2767075aab"},"vehicle_type_id":"4","last_reported":1745847252,"current_range_meters":6400,"station_id":"ce4bgkp2rcd13ifvqbmg","pricing_plan_id":"cebpf4jnsgd1na2vs0mg"},{"bike_id":"188f7c39-5eb9-4c33-a3cd-feb3a01ba5ae","system_id":"levelo_inurba_marseille","lat":43.28266,"lon":5.35056,"is_reserved":false,"is_disabled":false,"rental_uris":{"android":"levelo://app?vid=188f7c39-5eb9-4c33-a3cd-feb3a01ba5ae","ios":"levelo://app?vid=188f7c39-5eb9-4c33-a3cd-feb3a01ba5ae"},"vehicle_type_id":"4","last_reported":1745847252,"current_range_meters":6400,"station_id":"ce4bhbp2rcd13ifvqerg","pricing_plan_id":"cebpf4jnsgd1na2vs0mg"},{"bike_id":"78b9bb88-3a00-4760-8a43-e68743ab22f2","system_id":"levelo_inurba_marseille","lat":43.30294,"lon":5.36765,"is_reserved":false,"is_disabled":false,"rental_uris":{"android":"levelo://app?vid=78b9bb88-3a00-4760-8a43-e68743ab22f2","ios":"levelo://app?vid=78b9bb88-3a00-4760-8a43-e68743ab22f2"},"vehicle_type_id":"4","last_reported":1745847252,"current_range_meters":6400,"station_id":"","pricing_plan_id":"cebpf4jnsgd1na2vs0mg"},{"bike_id":"767c4060-e31e-4a9e-ae44-d90bce771300","system_id":"levelo_inurba_marseille","lat":43.30946,"lon":5.39023,"is_reserved":false,"is_disabled":false,"rental_uris":{"android":"levelo://app?vid=767c4060-e31e-4a9e-ae44-d90bce771300","ios":"levelo://app?vid=767c4060-e31e-4a9e-ae44-d90bce771300"},"vehicle_type_id":"4","last_reported":1745847252,"current_range_meters":6400,"station_id":"ce4bgup2rcd13ifvqco0","pricing_plan_id":"cebpf4jnsgd1na2vs0mg"},{"bike_id":"4c9a73de-c6b0-4b55-bed7-3a315915449f","system_id":"levelo_inurba_marseille","lat":43.24073,"lon":5.37727,"is_reserved":false,"is_disabled":false,"rental_uris":{"android":"levelo://app?vid=4c9a73de-c6b0-4b55-bed7-3a315915449f","ios":"levelo://app?vid=4c9a73de-c6b0-4b55-bed7-3a315915449f"},"vehicle_type_id":"4","last_reported":1745847252,"current_range_meters":6400,"station_id":"ce4bhnp2rcd13ifvqgvg","pricing_plan_id":"cebpf4jnsgd1na2vs0mg"},{"bike_id":"ef5a622e-aa0a-4359-b3fd-ef466748c455","system_id":"levelo_inurba_marseille","lat":43.23189,"lon":5.35549,"is_reserved":false,"is_disabled":false,"rental_uris":{"android":"levelo://app?vid=ef5a622e-aa0a-4359-b3fd-ef466748c455","ios":"levelo://app?vid=ef5a622e-aa0a-4359-b3fd-ef466748c455"},"vehicle_type_id":"4","last_reported":1745847252,"current_range_meters":6400,"station_id":"ce4bhu92rcd13ifvqi70","pricing_plan_id":"cebpf4jnsgd1na2vs0mg"},{"bike_id":"d054f0ca-cbd1-43cb-b926-8ff95ffcd31c","system_id":"levelo_inurba_marseille","lat":43.27401,"lon":5.42381,"is_reserved":false,"is_disabled":false,"rental_uris":{"android":"levelo://app?vid=d054f0ca-cbd1-43cb-b926-8ff95ffcd31c","ios":"levelo://app?vid=d054f0ca-cbd1-43cb-b926-8ff95ffcd31c"},"vehicle_type_id":"4","last_reported":1745847252,"current_range_meters":6800,"station_id":"","pricing_plan_id":"cebpf4jnsgd1na2vs0mg"},{"bike_id":"dbe238e1-41f2-49a7-9d5a-40c6ae634fa6","system_id":"levelo_inurba_marseille","lat":43.29632,"lon":5.40593,"is_reserved":false,"is_disabled":false,"rental_uris":{"android":"levelo://app?vid=dbe238e1-41f2-49a7-9d5a-40c6ae634fa6","ios":"levelo://app?vid=dbe238e1-41f2-49a7-9d5a-40c6ae634fa6"},"vehicle_type_id":"4","last_reported":1745847252,"current_range_meters":6800,"station_id":"ce4bh0h2rcd13ifvqd60","pricing_plan_id":"cebpf4jnsgd1na2vs0mg"},{"bike_id":"bf6dabca-186c-4217-be5e-b495c260d0d2","system_id":"levelo_inurba_marseille","lat":43.25111,"lon":5.40323,"is_reserved":false,"is_disabled":false,"rental_uris":{"android":"levelo://app?vid=bf6dabca-186c-4217-be5e-b495c260d0d2","ios":"levelo://app?vid=bf6dabca-186c-4217-be5e-b495c260d0d2"},"vehicle_type_id":"4","last_reported":1745847252,"current_range_meters":7200,"station_id":"ce4bhlh2rcd13ifvqgig","pricing_plan_id":"cebpf4jnsgd1na2vs0mg"},{"bike_id":"fd4a7f12-2e10-4cc0-9c14-7d8d2f69a974","system_id":"levelo_inurba_marseille","lat":43.28421,"lon":5.3918,"is_reserved":false,"is_disabled":false,"rental_uris":{"android":"levelo://app?vid=fd4a7f12-2e10-4cc0-9c14-7d8d2f69a974","ios":"levelo://app?vid=fd4a7f12-2e10-4cc0-9c14-7d8d2f69a974"},"vehicle_type_id":"4","last_reported":1745847252,"current_range_meters":7200,"station_id":"ce4bhoh2rcd13ifvqh5g","pricing_plan_id":"cebpf4jnsgd1na2vs0mg"},{"bike_id":"5036d8c1-6202-466b-bcef-252a808644c9","system_id":"levelo_inurba_marseille","lat":43.32532,"lon":5.4142,"is_reserved":false,"is_disabled":false,"rental_uris":{"android":"levelo://app?vid=5036d8c1-6202-466b-bcef-252a808644c9","ios":"levelo://app?vid=5036d8c1-6202-466b-bcef-252a808644c9"},"vehicle_type_id":"4","last_reported":1745847252,"current_range_meters":7200,"station_id":"ce4bhq12rcd13ifvqhhg","pricing_plan_id":"cebpf4jnsgd1na2vs0mg"},{"bike_id":"c5684b63-b382-4edd-98be-447333a263d2","system_id":"levelo_inurba_marseille","lat":43.30907,"lon":5.36842,"is_reserved":false,"is_disabled":false,"rental_uris":{"android":"levelo://app?vid=c5684b63-b382-4edd-98be-447333a263d2","ios":"levelo://app?vid=c5684b63-b382-4edd-98be-447333a263d2"},"vehicle_type_id":"4","last_reported":1745847252,"current_range_meters":7200,"station_id":"ce4bgn92rcd13ifvqbvg","pricing_plan_id":"cebpf4jnsgd1na2vs0mg"},{"bike_id":"650d7a9e-2a85-4346-862d-6eec5b96e7b5","system_id":"levelo_inurba_marseille","lat":43.250203,"lon":5.389122,"is_reserved":false,"is_disabled":false,"rental_uris":{"android":"levelo://app?vid=650d7a9e-2a85-4346-862d-6eec5b96e7b5","ios":"levelo://app?vid=650d7a9e-2a85-4346-862d-6eec5b96e7b5"},"vehicle_type_id":"4","last_reported":1745847252,"current_range_meters":7200,"station_id":"ce4bhgp2rcd13ifvqfd0","pricing_plan_id":"cebpf4jnsgd1na2vs0mg"},{"bike_id":"86348c1e-409d-472b-8082-b8fceaf330f5","system_id":"levelo_inurba_marseille","lat":43.30934,"lon":5.40144,"is_reserved":false,"is_disabled":false,"rental_uris":{"android":"levelo://app?vid=86348c1e-409d-472b-8082-b8fceaf330f5","ios":"levelo://app?vid=86348c1e-409d-472b-8082-b8fceaf330f5"},"vehicle_type_id":"4","last_reported":1745847252,"current_range_meters":8000,"station_id":"ce4bgvp2rcd13ifvqct0","pricing_plan_id":"cebpf4jnsgd1na2vs0mg"},{"bike_id":"d7b18acc-47fd-4103-b333-b9a03281c597","system_id":"levelo_inurba_marseille","lat":43.29283,"lon":5.40121,"is_reserved":false,"is_disabled":false,"rental_uris":{"android":"levelo://app?vid=d7b18acc-47fd-4103-b333-b9a03281c597","ios":"levelo://app?vid=d7b18acc-47fd-4103-b333-b9a03281c597"},"vehicle_type_id":"4","last_reported":1745847252,"current_range_meters":8000,"station_id":"ce4bh312rcd13ifvqdk0","pricing_plan_id":"cebpf4jnsgd1na2vs0mg"},{"bike_id":"e8dc1b7f-294b-43b0-b5ba-740b17f8afa8","system_id":"levelo_inurba_marseille","lat":43.24632,"lon":5.38941,"is_reserved":false,"is_disabled":false,"rental_uris":{"android":"levelo://app?vid=e8dc1b7f-294b-43b0-b5ba-740b17f8afa8","ios":"levelo://app?vid=e8dc1b7f-294b-43b0-b5ba-740b17f8afa8"},"vehicle_type_id":"4","last_reported":1745847252,"current_range_meters":8400,"station_id":"ce4bhg12rcd13ifvqf60","pricing_plan_id":"cebpf4jnsgd1na2vs0mg"},{"bike_id":"a4c8a335-745b-4d95-97e0-7bac3cb18549","system_id":"levelo_inurba_marseille","lat":43.2817,"lon":5.39812,"is_reserved":false,"is_disabled":false,"rental_uris":{"android":"levelo://app?vid=a4c8a335-745b-4d95-97e0-7bac3cb18549","ios":"levelo://app?vid=a4c8a335-745b-4d95-97e0-7bac3cb18549"},"vehicle_type_id":"4","last_reported":1745847252,"current_range_meters":8400,"station_id":"","pricing_plan_id":"cebpf4jnsgd1na2vs0mg"},{"bike_id":"1db14274-463d-4180-bece-00dba6656848","system_id":"levelo_inurba_marseille","lat":43.23964,"lon":5.3663,"is_reserved":false,"is_disabled":false,"rental_uris":{"android":"levelo://app?vid=1db14274-463d-4180-bece-00dba6656848","ios":"levelo://app?vid=1db14274-463d-4180-bece-00dba6656848"},"vehicle_type_id":"4","last_reported":1745847252,"current_range_meters":8400,"station_id":"ce4bhi12rcd13ifvqfp0","pricing_plan_id":"cebpf4jnsgd1na2vs0mg"},{"bike_id":"51c1adc9-7cd7-4ffb-971e-7b36309eb47d","system_id":"levelo_inurba_marseille","lat":43.31025,"lon":5.36684,"is_reserved":false,"is_disabled":false,"rental_uris":{"android":"levelo://app?vid=51c1adc9-7cd7-4ffb-971e-7b36309eb47d","ios":"levelo://app?vid=51c1adc9-7cd7-4ffb-971e-7b36309eb47d"},"vehicle_type_id":"4","last_reported":1745847252,"current_range_meters":8400,"station_id":"","pricing_plan_id":"cebpf4jnsgd1na2vs0mg"},{"bike_id":"b0596750-02b0-48dc-8cca-0987f130ca38","system_id":"levelo_inurba_marseille","lat":43.28154,"lon":5.4264,"is_reserved":false,"is_disabled":false,"rental_uris":{"android":"levelo://app?vid=b0596750-02b0-48dc-8cca-0987f130ca38","ios":"levelo://app?vid=b0596750-02b0-48dc-8cca-0987f130ca38"},"vehicle_type_id":"4","last_reported":1745847252,"current_range_meters":8800,"station_id":"ce4bhnh2rcd13ifvqgug","pricing_plan_id":"cebpf4jnsgd1na2vs0mg"},{"bike_id":"8f9f79a6-771d-4450-ad0d-2d12bfde4d02","system_id":"levelo_inurba_marseille","lat":43.29793,"lon":5.40408,"is_reserved":false,"is_disabled":false,"rental_uris":{"android":"levelo://app?vid=8f9f79a6-771d-4450-ad0d-2d12bfde4d02","ios":"levelo://app?vid=8f9f79a6-771d-4450-ad0d-2d12bfde4d02"},"vehicle_type_id":"4","last_reported":1745847252,"current_range_meters":8800,"station_id":"ce4bh112rcd13ifvqd90","pricing_plan_id":"cebpf4jnsgd1na2vs0mg"},{"bike_id":"67416da0-c257-4407-bcbd-c1d5eae3620d","system_id":"levelo_inurba_marseille","lat":43.25935,"lon":5.40912,"is_reserved":false,"is_disabled":false,"rental_uris":{"android":"levelo://app?vid=67416da0-c257-4407-bcbd-c1d5eae3620d","ios":"levelo://app?vid=67416da0-c257-4407-bcbd-c1d5eae3620d"},"vehicle_type_id":"4","last_reported":1745847252,"current_range_meters":8800,"station_id":"ce4bhm92rcd13ifvqglg","pricing_plan_id":"cebpf4jnsgd1na2vs0mg"},{"bike_id":"f0959fbc-f883-4947-ae6a-456aa0408243","system_id":"levelo_inurba_marseille","lat":43.29612,"lon":5.38105,"is_reserved":false,"is_disabled":false,"rental_uris":{"android":"levelo://app?vid=f0959fbc-f883-4947-ae6a-456aa0408243","ios":"levelo://app?vid=f0959fbc-f883-4947-ae6a-456aa0408243"},"vehicle_type_id":"4","last_reported":1745847252,"current_range_meters":8800,"station_id":"ce4bgl12rcd13ifvqbo0","pricing_plan_id":"cebpf4jnsgd1na2vs0mg"},{"bike_id":"7f863785-f72f-48cf-8cae-74f557391806","system_id":"levelo_inurba_marseille","lat":43.24645,"lon":5.38908,"is_reserved":false,"is_disabled":false,"rental_uris":{"android":"levelo://app?vid=7f863785-f72f-48cf-8cae-74f557391806","ios":"levelo://app?vid=7f863785-f72f-48cf-8cae-74f557391806"},"vehicle_type_id":"4","last_reported":1745847252,"current_range_meters":8800,"station_id":"ce4bhg12rcd13ifvqf60","pricing_plan_id":"cebpf4jnsgd1na2vs0mg"},{"bike_id":"972d32b9-6c6c-4ac8-8a90-fe6d9bfafb01","system_id":"levelo_inurba_marseille","lat":43.320465,"lon":5.415495,"is_reserved":false,"is_disabled":false,"rental_uris":{"android":"levelo://app?vid=972d32b9-6c6c-4ac8-8a90-fe6d9bfafb01","ios":"levelo://app?vid=972d32b9-6c6c-4ac8-8a90-fe6d9bfafb01"},"vehicle_type_id":"4","last_reported":1745847252,"current_range_meters":8400,"station_id":"ce4bhq92rcd13ifvqhkg","pricing_plan_id":"cebpf4jnsgd1na2vs0mg"},{"bike_id":"ab1a3356-5be9-405a-9924-da7c313b5d85","system_id":"levelo_inurba_marseille","lat":43.265506,"lon":5.372833,"is_reserved":false,"is_disabled":false,"rental_uris":{"android":"levelo://app?vid=ab1a3356-5be9-405a-9924-da7c313b5d85","ios":"levelo://app?vid=ab1a3356-5be9-405a-9924-da7c313b5d85"},"vehicle_type_id":"4","last_reported":1745847252,"current_range_meters":9200,"station_id":"ce4bhg12rcd13ifvqf70","pricing_plan_id":"cebpf4jnsgd1na2vs0mg"},{"bike_id":"31ea98a7-63f7-49a6-9bd4-7db35f9aef7a","system_id":"levelo_inurba_marseille","lat":43.30415,"lon":5.41258,"is_reserved":false,"is_disabled":false,"rental_uris":{"android":"levelo://app?vid=31ea98a7-63f7-49a6-9bd4-7db35f9aef7a","ios":"levelo://app?vid=31ea98a7-63f7-49a6-9bd4-7db35f9aef7a"},"vehicle_type_id":"4","last_reported":1745847252,"current_range_meters":16400,"station_id":"ce4bhop2rcd13ifvqh8g","pricing_plan_id":"cebpf4jnsgd1na2vs0mg"},{"bike_id":"df0e0892-8a84-4b99-a9ba-ed65cbc123d4","system_id":"levelo_inurba_marseille","lat":43.24548,"lon":5.39521,"is_reserved":false,"is_disabled":false,"rental_uris":{"android":"levelo://app?vid=df0e0892-8a84-4b99-a9ba-ed65cbc123d4","ios":"levelo://app?vid=df0e0892-8a84-4b99-a9ba-ed65cbc123d4"},"vehicle_type_id":"4","last_reported":1745847252,"current_range_meters":9200,"station_id":"ce4bhlp2rcd13ifvqgjg","pricing_plan_id":"cebpf4jnsgd1na2vs0mg"},{"bike_id":"af4f0c69-e62d-4155-b1d1-a67b45271ae1","system_id":"levelo_inurba_marseille","lat":43.24726,"lon":5.41167,"is_reserved":false,"is_disabled":false,"rental_uris":{"android":"levelo://app?vid=af4f0c69-e62d-4155-b1d1-a67b45271ae1","ios":"levelo://app?vid=af4f0c69-e62d-4155-b1d1-a67b45271ae1"},"vehicle_type_id":"4","last_reported":1745847252,"current_range_meters":9600,"station_id":"","pricing_plan_id":"cebpf4jnsgd1na2vs0mg"},{"bike_id":"a6c80b0c-536c-4a45-884f-2e1d125500ab","system_id":"levelo_inurba_marseille","lat":43.22502,"lon":5.34783,"is_reserved":false,"is_disabled":false,"rental_uris":{"android":"levelo://app?vid=a6c80b0c-536c-4a45-884f-2e1d125500ab","ios":"levelo://app?vid=a6c80b0c-536c-4a45-884f-2e1d125500ab"},"vehicle_type_id":"4","last_reported":1745847252,"current_range_meters":9600,"station_id":"st_cvj5dfep6f1abm77gieg","pricing_plan_id":"cebpf4jnsgd1na2vs0mg"},{"bike_id":"9185bf5d-3137-4011-be8c-51c251217b63","system_id":"levelo_inurba_marseille","lat":43.28439,"lon":5.39194,"is_reserved":false,"is_disabled":false,"rental_uris":{"android":"levelo://app?vid=9185bf5d-3137-4011-be8c-51c251217b63","ios":"levelo://app?vid=9185bf5d-3137-4011-be8c-51c251217b63"},"vehicle_type_id":"4","last_reported":1745847252,"current_range_meters":9600,"station_id":"ce4bhoh2rcd13ifvqh5g","pricing_plan_id":"cebpf4jnsgd1na2vs0mg"},{"bike_id":"679a1104-bb2f-4313-81ae-490e909d7dd6","system_id":"levelo_inurba_marseille","lat":43.296019,"lon":5.377024,"is_reserved":false,"is_disabled":true,"rental_uris":{"android":"levelo://app?vid=679a1104-bb2f-4313-81ae-490e909d7dd6","ios":"levelo://app?vid=679a1104-bb2f-4313-81ae-490e909d7dd6"},"vehicle_type_id":"4","last_reported":1745847252,"current_range_meters":9600,"station_id":"ce4bgi92rcd13ifvqb90","pricing_plan_id":"cebpf4jnsgd1na2vs0mg"},{"bike_id":"57a41005-dba4-4995-a65d-3cc07a95ba9a","system_id":"levelo_inurba_marseille","lat":43.30208,"lon":5.39458,"is_reserved":false,"is_disabled":true,"rental_uris":{"android":"levelo://app?vid=57a41005-dba4-4995-a65d-3cc07a95ba9a","ios":"levelo://app?vid=57a41005-dba4-4995-a65d-3cc07a95ba9a"},"vehicle_type_id":"4","last_reported":1745847252,"current_range_meters":9600,"station_id":"ce4bh0p2rcd13ifvqd70","pricing_plan_id":"cebpf4jnsgd1na2vs0mg"},{"bike_id":"b049c043-3aed-477a-a225-afc1bfd6911c","system_id":"levelo_inurba_marseille","lat":43.25581,"lon":5.38225,"is_reserved":false,"is_disabled":false,"rental_uris":{"android":"levelo://app?vid=b049c043-3aed-477a-a225-afc1bfd6911c","ios":"levelo://app?vid=b049c043-3aed-477a-a225-afc1bfd6911c"},"vehicle_type_id":"4","last_reported":1745847252,"current_range_meters":9600,"station_id":"ce4bhih2rcd13ifvqfs0","pricing_plan_id":"cebpf4jnsgd1na2vs0mg"},{"bike_id":"e65c0672-8495-4766-b03e-69e9280e53ec","system_id":"levelo_inurba_marseille","lat":43.27837,"lon":5.39215,"is_reserved":false,"is_disabled":false,"rental_uris":{"android":"levelo://app?vid=e65c0672-8495-4766-b03e-69e9280e53ec","ios":"levelo://app?vid=e65c0672-8495-4766-b03e-69e9280e53ec"},"vehicle_type_id":"4","last_reported":1745847252,"current_range_meters":10000,"station_id":"ce4bhjp2rcd13ifvqga0","pricing_plan_id":"cebpf4jnsgd1na2vs0mg"},{"bike_id":"fa86fc64-ba81-43c2-aeaa-8c6cb44c5f92","system_id":"levelo_inurba_marseille","lat":43.29529,"lon":5.38539,"is_reserved":false,"is_disabled":false,"rental_uris":{"android":"levelo://app?vid=fa86fc64-ba81-43c2-aeaa-8c6cb44c5f92","ios":"levelo://app?vid=fa86fc64-ba81-43c2-aeaa-8c6cb44c5f92"},"vehicle_type_id":"4","last_reported":1745847252,"current_range_meters":12000,"station_id":"ce4bgih2rcd13ifvqba0","pricing_plan_id":"cebpf4jnsgd1na2vs0mg"},{"bike_id":"9dbd364e-a0b2-4d9f-8ae7-e46f0edbfe5c","system_id":"levelo_inurba_marseille","lat":43.21191,"lon":5.35069,"is_reserved":false,"is_disabled":false,"rental_uris":{"android":"levelo://app?vid=9dbd364e-a0b2-4d9f-8ae7-e46f0edbfe5c","ios":"levelo://app?vid=9dbd364e-a0b2-4d9f-8ae7-e46f0edbfe5c"},"vehicle_type_id":"4","last_reported":1745847252,"current_range_meters":10000,"station_id":"st_cvj6sg6p6f1abm77japg","pricing_plan_id":"cebpf4jnsgd1na2vs0mg"},{"bike_id":"3d726cd6-0e55-43e3-a946-07c18601d793","system_id":"levelo_inurba_marseille","lat":43.26201,"lon":5.37928,"is_reserved":false,"is_disabled":false,"rental_uris":{"android":"levelo://app?vid=3d726cd6-0e55-43e3-a946-07c18601d793","ios":"levelo://app?vid=3d726cd6-0e55-43e3-a946-07c18601d793"},"vehicle_type_id":"4","last_reported":1745847252,"current_range_meters":10000,"station_id":"ce4bhjp2rcd13ifvqg90","pricing_plan_id":"cebpf4jnsgd1na2vs0mg"},{"bike_id":"6d371176-aac3-483a-95b7-727a7fab27c1","system_id":"levelo_inurba_marseille","lat":43.30915,"lon":5.36844,"is_reserved":false,"is_disabled":false,"rental_uris":{"android":"levelo://app?vid=6d371176-aac3-483a-95b7-727a7fab27c1","ios":"levelo://app?vid=6d371176-aac3-483a-95b7-727a7fab27c1"},"vehicle_type_id":"4","last_reported":1745847252,"current_range_meters":10800,"station_id":"ce4bgn92rcd13ifvqbvg","pricing_plan_id":"cebpf4jnsgd1na2vs0mg"},{"bike_id":"f58e7d68-5ba2-4ff6-8fac-5b8a0a8ddd2c","system_id":"levelo_inurba_marseille","lat":43.22503,"lon":5.347798,"is_reserved":false,"is_disabled":true,"rental_uris":{"android":"levelo://app?vid=f58e7d68-5ba2-4ff6-8fac-5b8a0a8ddd2c","ios":"levelo://app?vid=f58e7d68-5ba2-4ff6-8fac-5b8a0a8ddd2c"},"vehicle_type_id":"4","last_reported":1745847252,"current_range_meters":10800,"station_id":"","pricing_plan_id":"cebpf4jnsgd1na2vs0mg"},{"bike_id":"4ed5222a-dcf9-4ee8-9034-66d4515f631e","system_id":"levelo_inurba_marseille","lat":43.225035,"lon":5.347789,"is_reserved":false,"is_disabled":false,"rental_uris":{"android":"levelo://app?vid=4ed5222a-dcf9-4ee8-9034-66d4515f631e","ios":"levelo://app?vid=4ed5222a-dcf9-4ee8-9034-66d4515f631e"},"vehicle_type_id":"4","last_reported":1745847252,"current_range_meters":10800,"station_id":"st_cvj5dfep6f1abm77gieg","pricing_plan_id":"cebpf4jnsgd1na2vs0mg"},{"bike_id":"a7628684-e8b1-409f-b110-38600379b75e","system_id":"levelo_inurba_marseille","lat":43.31708,"lon":5.40443,"is_reserved":false,"is_disabled":false,"rental_uris":{"android":"levelo://app?vid=a7628684-e8b1-409f-b110-38600379b75e","ios":"levelo://app?vid=a7628684-e8b1-409f-b110-38600379b75e"},"vehicle_type_id":"4","last_reported":1745847252,"current_range_meters":10800,"station_id":"ce4bh012rcd13ifvqd00","pricing_plan_id":"cebpf4jnsgd1na2vs0mg"},{"bike_id":"d99beb95-24da-48b9-8811-7efc1c0bc981","system_id":"levelo_inurba_marseille","lat":43.225057,"lon":5.347787,"is_reserved":false,"is_disabled":false,"rental_uris":{"android":"levelo://app?vid=d99beb95-24da-48b9-8811-7efc1c0bc981","ios":"levelo://app?vid=d99beb95-24da-48b9-8811-7efc1c0bc981"},"vehicle_type_id":"4","last_reported":1745847252,"current_range_meters":10800,"station_id":"","pricing_plan_id":"cebpf4jnsgd1na2vs0mg"},{"bike_id":"a7a56339-930a-4dec-bf7b-e2aa5c53a05d","system_id":"levelo_inurba_marseille","lat":43.31362,"lon":5.36663,"is_reserved":false,"is_disabled":false,"rental_uris":{"android":"levelo://app?vid=a7a56339-930a-4dec-bf7b-e2aa5c53a05d","ios":"levelo://app?vid=a7a56339-930a-4dec-bf7b-e2aa5c53a05d"},"vehicle_type_id":"4","last_reported":1745847252,"current_range_meters":11200,"station_id":"ce4bgr92rcd13ifvqc6g","pricing_plan_id":"cebpf4jnsgd1na2vs0mg"},{"bike_id":"748dc265-2824-4c8a-9092-d9224448fe6d","system_id":"levelo_inurba_marseille","lat":43.31388,"lon":5.36682,"is_reserved":false,"is_disabled":false,"rental_uris":{"android":"levelo://app?vid=748dc265-2824-4c8a-9092-d9224448fe6d","ios":"levelo://app?vid=748dc265-2824-4c8a-9092-d9224448fe6d"},"vehicle_type_id":"4","last_reported":1745847252,"current_range_meters":11200,"station_id":"ce4bgr92rcd13ifvqc6g","pricing_plan_id":"cebpf4jnsgd1na2vs0mg"},{"bike_id":"59e86153-c7ad-4267-b516-97c755fb1829","system_id":"levelo_inurba_marseille","lat":43.27971,"lon":5.3874,"is_reserved":false,"is_disabled":false,"rental_uris":{"android":"levelo://app?vid=59e86153-c7ad-4267-b516-97c755fb1829","ios":"levelo://app?vid=59e86153-c7ad-4267-b516-97c755fb1829"},"vehicle_type_id":"4","last_reported":1745847252,"current_range_meters":11200,"station_id":"ce4bhg12rcd13ifvqf80","pricing_plan_id":"cebpf4jnsgd1na2vs0mg"},{"bike_id":"05145c84-b9e3-47c2-91f6-efba0dd3a65c","system_id":"levelo_inurba_marseille","lat":43.25007,"lon":5.3891,"is_reserved":false,"is_disabled":true,"rental_uris":{"android":"levelo://app?vid=05145c84-b9e3-47c2-91f6-efba0dd3a65c","ios":"levelo://app?vid=05145c84-b9e3-47c2-91f6-efba0dd3a65c"},"vehicle_type_id":"4","last_reported":1745847252,"current_range_meters":11200,"station_id":"ce4bhgp2rcd13ifvqfd0","pricing_plan_id":"cebpf4jnsgd1na2vs0mg"},{"bike_id":"2aa23f20-1a1d-4566-85b2-71f806f8c784","system_id":"levelo_inurba_marseille","lat":43.270586,"lon":5.402548,"is_reserved":false,"is_disabled":false,"rental_uris":{"android":"levelo://app?vid=2aa23f20-1a1d-4566-85b2-71f806f8c784","ios":"levelo://app?vid=2aa23f20-1a1d-4566-85b2-71f806f8c784"},"vehicle_type_id":"4","last_reported":1745847252,"current_range_meters":11600,"station_id":"ce4bhk92rcd13ifvqgc0","pricing_plan_id":"cebpf4jnsgd1na2vs0mg"},{"bike_id":"2406a6f8-68ba-4312-84f6-48aaadd5034b","system_id":"levelo_inurba_marseille","lat":43.22509,"lon":5.34779,"is_reserved":false,"is_disabled":false,"rental_uris":{"android":"levelo://app?vid=2406a6f8-68ba-4312-84f6-48aaadd5034b","ios":"levelo://app?vid=2406a6f8-68ba-4312-84f6-48aaadd5034b"},"vehicle_type_id":"4","last_reported":1745847252,"current_range_meters":12000,"station_id":"","pricing_plan_id":"cebpf4jnsgd1na2vs0mg"},{"bike_id":"f4b14c2d-e306-49de-9d30-ca8fcac2e70e","system_id":"levelo_inurba_marseille","lat":43.29843,"lon":5.3627,"is_reserved":false,"is_disabled":false,"rental_uris":{"android":"levelo://app?vid=f4b14c2d-e306-49de-9d30-ca8fcac2e70e","ios":"levelo://app?vid=f4b14c2d-e306-49de-9d30-ca8fcac2e70e"},"vehicle_type_id":"4","last_reported":1745847252,"current_range_meters":12000,"station_id":"","pricing_plan_id":"cebpf4jnsgd1na2vs0mg"},{"bike_id":"29a529f8-42d2-4af5-9f68-5632920aa58d","system_id":"levelo_inurba_marseille","lat":43.3016,"lon":5.380675,"is_reserved":false,"is_disabled":true,"rental_uris":{"android":"levelo://app?vid=29a529f8-42d2-4af5-9f68-5632920aa58d","ios":"levelo://app?vid=29a529f8-42d2-4af5-9f68-5632920aa58d"},"vehicle_type_id":"4","last_reported":1745847252,"current_range_meters":12000,"station_id":"ce4bgjp2rcd13ifvqbh0","pricing_plan_id":"cebpf4jnsgd1na2vs0mg"},{"bike_id":"b6cb37ef-e7d8-4f5e-a295-6d3f19ac45eb","system_id":"levelo_inurba_marseille","lat":43.28925,"lon":5.38397,"is_reserved":false,"is_disabled":false,"rental_uris":{"android":"levelo://app?vid=b6cb37ef-e7d8-4f5e-a295-6d3f19ac45eb","ios":"levelo://app?vid=b6cb37ef-e7d8-4f5e-a295-6d3f19ac45eb"},"vehicle_type_id":"4","last_reported":1745847252,"current_range_meters":12000,"station_id":"ce4bh612rcd13ifvqe6g","pricing_plan_id":"cebpf4jnsgd1na2vs0mg"},{"bike_id":"78b6f39c-ca69-4346-8e5a-5304cefdfb81","system_id":"levelo_inurba_marseille","lat":43.2866,"lon":5.39981,"is_reserved":false,"is_disabled":false,"rental_uris":{"android":"levelo://app?vid=78b6f39c-ca69-4346-8e5a-5304cefdfb81","ios":"levelo://app?vid=78b6f39c-ca69-4346-8e5a-5304cefdfb81"},"vehicle_type_id":"4","last_reported":1745847252,"current_range_meters":12400,"station_id":"ce4bho92rcd13ifvqh3g","pricing_plan_id":"cebpf4jnsgd1na2vs0mg"},{"bike_id":"0f41dbe6-9ef4-4153-90ca-923a363cd5be","system_id":"levelo_inurba_marseille","lat":43.2315,"lon":5.43712,"is_reserved":false,"is_disabled":false,"rental_uris":{"android":"levelo://app?vid=0f41dbe6-9ef4-4153-90ca-923a363cd5be","ios":"levelo://app?vid=0f41dbe6-9ef4-4153-90ca-923a363cd5be"},"vehicle_type_id":"4","last_reported":1745847252,"current_range_meters":12400,"station_id":"ce4bhmp2rcd13ifvqgog","pricing_plan_id":"cebpf4jnsgd1na2vs0mg"},{"bike_id":"e5b4b90d-e268-4de2-98f4-f6d0513f8801","system_id":"levelo_inurba_marseille","lat":43.2657,"lon":5.42181,"is_reserved":false,"is_disabled":false,"rental_uris":{"android":"levelo://app?vid=e5b4b90d-e268-4de2-98f4-f6d0513f8801","ios":"levelo://app?vid=e5b4b90d-e268-4de2-98f4-f6d0513f8801"},"vehicle_type_id":"4","last_reported":1745847252,"current_range_meters":12400,"station_id":"","pricing_plan_id":"cebpf4jnsgd1na2vs0mg"},{"bike_id":"919979c3-c161-45d1-b12e-2b8d017c8261","system_id":"levelo_inurba_marseille","lat":43.28569,"lon":5.39488,"is_reserved":false,"is_disabled":false,"rental_uris":{"android":"levelo://app?vid=919979c3-c161-45d1-b12e-2b8d017c8261","ios":"levelo://app?vid=919979c3-c161-45d1-b12e-2b8d017c8261"},"vehicle_type_id":"4","last_reported":1745847252,"current_range_meters":14400,"station_id":"ce4bh292rcd13ifvqdg0","pricing_plan_id":"cebpf4jnsgd1na2vs0mg"},{"bike_id":"1c9ef566-1aea-49e7-bcec-4f4a90f793b7","system_id":"levelo_inurba_marseille","lat":43.239626,"lon":5.366545,"is_reserved":false,"is_disabled":false,"rental_uris":{"android":"levelo://app?vid=1c9ef566-1aea-49e7-bcec-4f4a90f793b7","ios":"levelo://app?vid=1c9ef566-1aea-49e7-bcec-4f4a90f793b7"},"vehicle_type_id":"4","last_reported":1745847252,"current_range_meters":12800,"station_id":"ce4bhi12rcd13ifvqfp0","pricing_plan_id":"cebpf4jnsgd1na2vs0mg"},{"bike_id":"b3588376-8b49-49e7-8680-d477103cb913","system_id":"levelo_inurba_marseille","lat":43.31166,"lon":5.38722,"is_reserved":false,"is_disabled":false,"rental_uris":{"android":"levelo://app?vid=b3588376-8b49-49e7-8680-d477103cb913","ios":"levelo://app?vid=b3588376-8b49-49e7-8680-d477103cb913"},"vehicle_type_id":"4","last_reported":1745847252,"current_range_meters":14800,"station_id":"ce4bgv12rcd13ifvqcp0","pricing_plan_id":"cebpf4jnsgd1na2vs0mg"},{"bike_id":"09927ac6-f7ff-4653-b090-b50f0349ce95","system_id":"levelo_inurba_marseille","lat":43.247884,"lon":5.375194,"is_reserved":false,"is_disabled":false,"rental_uris":{"android":"levelo://app?vid=09927ac6-f7ff-4653-b090-b50f0349ce95","ios":"levelo://app?vid=09927ac6-f7ff-4653-b090-b50f0349ce95"},"vehicle_type_id":"4","last_reported":1745847252,"current_range_meters":12800,"station_id":"ce4bhgh2rcd13ifvqfb0","pricing_plan_id":"cebpf4jnsgd1na2vs0mg"},{"bike_id":"c7052240-ccf5-48ce-a971-1ba4c505e27e","system_id":"levelo_inurba_marseille","lat":43.28932,"lon":5.39627,"is_reserved":false,"is_disabled":false,"rental_uris":{"android":"levelo://app?vid=c7052240-ccf5-48ce-a971-1ba4c505e27e","ios":"levelo://app?vid=c7052240-ccf5-48ce-a971-1ba4c505e27e"},"vehicle_type_id":"4","last_reported":1745847252,"current_range_meters":12800,"station_id":"ce4bh3h2rcd13ifvqdn0","pricing_plan_id":"cebpf4jnsgd1na2vs0mg"},{"bike_id":"86c0598b-4818-471f-9a8b-081ecdc96572","system_id":"levelo_inurba_marseille","lat":43.25599,"lon":5.3822,"is_reserved":false,"is_disabled":false,"rental_uris":{"android":"levelo://app?vid=86c0598b-4818-471f-9a8b-081ecdc96572","ios":"levelo://app?vid=86c0598b-4818-471f-9a8b-081ecdc96572"},"vehicle_type_id":"4","last_reported":1745847252,"current_range_meters":13600,"station_id":"ce4bhih2rcd13ifvqfs0","pricing_plan_id":"cebpf4jnsgd1na2vs0mg"},{"bike_id":"ab4612c3-85f5-4cb4-9ce2-46373d9c1c69","system_id":"levelo_inurba_marseille","lat":43.25798,"lon":5.386,"is_reserved":false,"is_disabled":false,"rental_uris":{"android":"levelo://app?vid=ab4612c3-85f5-4cb4-9ce2-46373d9c1c69","ios":"levelo://app?vid=ab4612c3-85f5-4cb4-9ce2-46373d9c1c69"},"vehicle_type_id":"4","last_reported":1745847252,"current_range_meters":13600,"station_id":"","pricing_plan_id":"cebpf4jnsgd1na2vs0mg"},{"bike_id":"b5767cca-0e93-4afc-aae1-18c8669860ad","system_id":"levelo_inurba_marseille","lat":43.2175,"lon":5.34607,"is_reserved":false,"is_disabled":false,"rental_uris":{"android":"levelo://app?vid=b5767cca-0e93-4afc-aae1-18c8669860ad","ios":"levelo://app?vid=b5767cca-0e93-4afc-aae1-18c8669860ad"},"vehicle_type_id":"4","last_reported":1745847252,"current_range_meters":13600,"station_id":"st_cvj6r9ubvosntc0bgbag","pricing_plan_id":"cebpf4jnsgd1na2vs0mg"},{"bike_id":"f8527f98-9dba-4767-9c49-2ee5632fd2af","system_id":"levelo_inurba_marseille","lat":43.2786,"lon":5.40748,"is_reserved":false,"is_disabled":true,"rental_uris":{"android":"levelo://app?vid=f8527f98-9dba-4767-9c49-2ee5632fd2af","ios":"levelo://app?vid=f8527f98-9dba-4767-9c49-2ee5632fd2af"},"vehicle_type_id":"4","last_reported":1745847252,"current_range_meters":13600,"station_id":"","pricing_plan_id":"cebpf4jnsgd1na2vs0mg"},{"bike_id":"ea5b7376-7a68-46b7-a647-4025a3572227","system_id":"levelo_inurba_marseille","lat":43.26546,"lon":5.37281,"is_reserved":false,"is_disabled":false,"rental_uris":{"android":"levelo://app?vid=ea5b7376-7a68-46b7-a647-4025a3572227","ios":"levelo://app?vid=ea5b7376-7a68-46b7-a647-4025a3572227"},"vehicle_type_id":"4","last_reported":1745847252,"current_range_meters":13600,"station_id":"ce4bhg12rcd13ifvqf70","pricing_plan_id":"cebpf4jnsgd1na2vs0mg"},{"bike_id":"5025e2e7-4b40-4be0-8828-579dc02656d9","system_id":"levelo_inurba_marseille","lat":43.28274,"lon":5.35072,"is_reserved":false,"is_disabled":false,"rental_uris":{"android":"levelo://app?vid=5025e2e7-4b40-4be0-8828-579dc02656d9","ios":"levelo://app?vid=5025e2e7-4b40-4be0-8828-579dc02656d9"},"vehicle_type_id":"4","last_reported":1745847252,"current_range_meters":13600,"station_id":"ce4bhbp2rcd13ifvqerg","pricing_plan_id":"cebpf4jnsgd1na2vs0mg"},{"bike_id":"f4e7471c-d017-42f8-96d8-46fefacb6311","system_id":"levelo_inurba_marseille","lat":43.270608,"lon":5.40255,"is_reserved":false,"is_disabled":false,"rental_uris":{"android":"levelo://app?vid=f4e7471c-d017-42f8-96d8-46fefacb6311","ios":"levelo://app?vid=f4e7471c-d017-42f8-96d8-46fefacb6311"},"vehicle_type_id":"4","last_reported":1745847252,"current_range_meters":14000,"station_id":"ce4bhk92rcd13ifvqgc0","pricing_plan_id":"cebpf4jnsgd1na2vs0mg"},{"bike_id":"bc7e4f7e-7a6d-45e1-8d13-50c3fa265a5f","system_id":"levelo_inurba_marseille","lat":43.217536,"lon":5.345957,"is_reserved":false,"is_disabled":false,"rental_uris":{"android":"levelo://app?vid=bc7e4f7e-7a6d-45e1-8d13-50c3fa265a5f","ios":"levelo://app?vid=bc7e4f7e-7a6d-45e1-8d13-50c3fa265a5f"},"vehicle_type_id":"4","last_reported":1745847252,"current_range_meters":14000,"station_id":"st_cvj6r9ubvosntc0bgbag","pricing_plan_id":"cebpf4jnsgd1na2vs0mg"},{"bike_id":"f3e6f7ea-0b61-4cf3-825e-ef2178c4a995","system_id":"levelo_inurba_marseille","lat":43.32104,"lon":5.36766,"is_reserved":false,"is_disabled":false,"rental_uris":{"android":"levelo://app?vid=f3e6f7ea-0b61-4cf3-825e-ef2178c4a995","ios":"levelo://app?vid=f3e6f7ea-0b61-4cf3-825e-ef2178c4a995"},"vehicle_type_id":"4","last_reported":1745847252,"current_range_meters":14400,"station_id":"ce4bhrh2rcd13ifvqhug","pricing_plan_id":"cebpf4jnsgd1na2vs0mg"},{"bike_id":"cf4c7683-6fb1-4da2-9d41-48013878dd28","system_id":"levelo_inurba_marseille","lat":43.28279,"lon":5.35056,"is_reserved":false,"is_disabled":false,"rental_uris":{"android":"levelo://app?vid=cf4c7683-6fb1-4da2-9d41-48013878dd28","ios":"levelo://app?vid=cf4c7683-6fb1-4da2-9d41-48013878dd28"},"vehicle_type_id":"4","last_reported":1745847252,"current_range_meters":14800,"station_id":"ce4bhbp2rcd13ifvqerg","pricing_plan_id":"cebpf4jnsgd1na2vs0mg"},{"bike_id":"5e731308-b640-4f73-b83e-ff4e98fbbd13","system_id":"levelo_inurba_marseille","lat":43.29269,"lon":5.40135,"is_reserved":false,"is_disabled":false,"rental_uris":{"android":"levelo://app?vid=5e731308-b640-4f73-b83e-ff4e98fbbd13","ios":"levelo://app?vid=5e731308-b640-4f73-b83e-ff4e98fbbd13"},"vehicle_type_id":"4","last_reported":1745847252,"current_range_meters":14800,"station_id":"ce4bh312rcd13ifvqdk0","pricing_plan_id":"cebpf4jnsgd1na2vs0mg"},{"bike_id":"226818af-d3e2-4408-98a7-51e6181a6afa","system_id":"levelo_inurba_marseille","lat":43.3046,"lon":5.37905,"is_reserved":false,"is_disabled":false,"rental_uris":{"android":"levelo://app?vid=226818af-d3e2-4408-98a7-51e6181a6afa","ios":"levelo://app?vid=226818af-d3e2-4408-98a7-51e6181a6afa"},"vehicle_type_id":"4","last_reported":1745847252,"current_range_meters":14400,"station_id":"ce4bgup2rcd13ifvqcn0","pricing_plan_id":"cebpf4jnsgd1na2vs0mg"},{"bike_id":"ad7b43b5-dd01-4cee-a543-ecc2b62e20eb","system_id":"levelo_inurba_marseille","lat":43.29896,"lon":5.43668,"is_reserved":false,"is_disabled":false,"rental_uris":{"android":"levelo://app?vid=ad7b43b5-dd01-4cee-a543-ecc2b62e20eb","ios":"levelo://app?vid=ad7b43b5-dd01-4cee-a543-ecc2b62e20eb"},"vehicle_type_id":"4","last_reported":1745847252,"current_range_meters":14800,"station_id":"ce4bhpp2rcd13ifvqhfg","pricing_plan_id":"cebpf4jnsgd1na2vs0mg"},{"bike_id":"0af3789b-c6b8-4fb0-ba19-0e4ac11b7160","system_id":"levelo_inurba_marseille","lat":43.31501,"lon":5.372914,"is_reserved":false,"is_disabled":false,"rental_uris":{"android":"levelo://app?vid=0af3789b-c6b8-4fb0-ba19-0e4ac11b7160","ios":"levelo://app?vid=0af3789b-c6b8-4fb0-ba19-0e4ac11b7160"},"vehicle_type_id":"4","last_reported":1745847252,"current_range_meters":14800,"station_id":"ce4bgt12rcd13ifvqcd0","pricing_plan_id":"cebpf4jnsgd1na2vs0mg"},{"bike_id":"bb10215f-ef4f-4480-bc47-7a58d94b5431","system_id":"levelo_inurba_marseille","lat":43.25576,"lon":5.38247,"is_reserved":false,"is_disabled":false,"rental_uris":{"android":"levelo://app?vid=bb10215f-ef4f-4480-bc47-7a58d94b5431","ios":"levelo://app?vid=bb10215f-ef4f-4480-bc47-7a58d94b5431"},"vehicle_type_id":"4","last_reported":1745847252,"current_range_meters":14800,"station_id":"ce4bhih2rcd13ifvqfs0","pricing_plan_id":"cebpf4jnsgd1na2vs0mg"},{"bike_id":"2e301011-885b-4cd7-89c6-b074eaf40bae","system_id":"levelo_inurba_marseille","lat":43.314967,"lon":5.373052,"is_reserved":false,"is_disabled":false,"rental_uris":{"android":"levelo://app?vid=2e301011-885b-4cd7-89c6-b074eaf40bae","ios":"levelo://app?vid=2e301011-885b-4cd7-89c6-b074eaf40bae"},"vehicle_type_id":"4","last_reported":1745847252,"current_range_meters":15200,"station_id":"ce4bgt12rcd13ifvqcd0","pricing_plan_id":"cebpf4jnsgd1na2vs0mg"},{"bike_id":"2023d72a-95be-4909-997c-568b220f8d1e","system_id":"levelo_inurba_marseille","lat":43.2465,"lon":5.38891,"is_reserved":false,"is_disabled":false,"rental_uris":{"android":"levelo://app?vid=2023d72a-95be-4909-997c-568b220f8d1e","ios":"levelo://app?vid=2023d72a-95be-4909-997c-568b220f8d1e"},"vehicle_type_id":"4","last_reported":1745847252,"current_range_meters":14800,"station_id":"ce4bhg12rcd13ifvqf60","pricing_plan_id":"cebpf4jnsgd1na2vs0mg"},{"bike_id":"9429f2ab-c2e7-4b6c-a793-b6eef7bb6698","system_id":"levelo_inurba_marseille","lat":43.295276,"lon":5.385385,"is_reserved":false,"is_disabled":false,"rental_uris":{"android":"levelo://app?vid=9429f2ab-c2e7-4b6c-a793-b6eef7bb6698","ios":"levelo://app?vid=9429f2ab-c2e7-4b6c-a793-b6eef7bb6698"},"vehicle_type_id":"4","last_reported":1745847252,"current_range_meters":14800,"station_id":"ce4bgih2rcd13ifvqba0","pricing_plan_id":"cebpf4jnsgd1na2vs0mg"},{"bike_id":"a640b5aa-9396-4827-8f57-dd7ffd2f1a84","system_id":"levelo_inurba_marseille","lat":43.298248,"lon":5.381422,"is_reserved":false,"is_disabled":true,"rental_uris":{"android":"levelo://app?vid=a640b5aa-9396-4827-8f57-dd7ffd2f1a84","ios":"levelo://app?vid=a640b5aa-9396-4827-8f57-dd7ffd2f1a84"},"vehicle_type_id":"4","last_reported":1745847252,"current_range_meters":16000,"station_id":"ce4bgip2rcd13ifvqbb0","pricing_plan_id":"cebpf4jnsgd1na2vs0mg"},{"bike_id":"6b88ae52-4470-4609-9540-2ec7e9358c2c","system_id":"levelo_inurba_marseille","lat":43.23967,"lon":5.36624,"is_reserved":false,"is_disabled":false,"rental_uris":{"android":"levelo://app?vid=6b88ae52-4470-4609-9540-2ec7e9358c2c","ios":"levelo://app?vid=6b88ae52-4470-4609-9540-2ec7e9358c2c"},"vehicle_type_id":"4","last_reported":1745847252,"current_range_meters":16000,"station_id":"ce4bhi12rcd13ifvqfp0","pricing_plan_id":"cebpf4jnsgd1na2vs0mg"},{"bike_id":"045db907-8281-46fc-8ded-f9793ddf3b93","system_id":"levelo_inurba_marseille","lat":43.2927,"lon":5.37619,"is_reserved":false,"is_disabled":false,"rental_uris":{"android":"levelo://app?vid=045db907-8281-46fc-8ded-f9793ddf3b93","ios":"levelo://app?vid=045db907-8281-46fc-8ded-f9793ddf3b93"},"vehicle_type_id":"4","last_reported":1745847252,"current_range_meters":16000,"station_id":"ce4bgi12rcd13ifvqb80","pricing_plan_id":"cebpf4jnsgd1na2vs0mg"},{"bike_id":"aec68e48-1826-4845-812c-b555a289adc5","system_id":"levelo_inurba_marseille","lat":43.23151,"lon":5.43717,"is_reserved":false,"is_disabled":false,"rental_uris":{"android":"levelo://app?vid=aec68e48-1826-4845-812c-b555a289adc5","ios":"levelo://app?vid=aec68e48-1826-4845-812c-b555a289adc5"},"vehicle_type_id":"4","last_reported":1745847252,"current_range_meters":16000,"station_id":"ce4bhmp2rcd13ifvqgog","pricing_plan_id":"cebpf4jnsgd1na2vs0mg"},{"bike_id":"85805f00-d01b-4d24-872a-b0c6b4f523d8","system_id":"levelo_inurba_marseille","lat":43.3125,"lon":5.36854,"is_reserved":false,"is_disabled":false,"rental_uris":{"android":"levelo://app?vid=85805f00-d01b-4d24-872a-b0c6b4f523d8","ios":"levelo://app?vid=85805f00-d01b-4d24-872a-b0c6b4f523d8"},"vehicle_type_id":"4","last_reported":1745847252,"current_range_meters":16400,"station_id":"ce4bgl92rcd13ifvqbq0","pricing_plan_id":"cebpf4jnsgd1na2vs0mg"},{"bike_id":"207f63e7-11d7-4a65-aa75-420bd8ea73d3","system_id":"levelo_inurba_marseille","lat":43.26554,"lon":5.37282,"is_reserved":false,"is_disabled":false,"rental_uris":{"android":"levelo://app?vid=207f63e7-11d7-4a65-aa75-420bd8ea73d3","ios":"levelo://app?vid=207f63e7-11d7-4a65-aa75-420bd8ea73d3"},"vehicle_type_id":"4","last_reported":1745847252,"current_range_meters":16400,"station_id":"ce4bhg12rcd13ifvqf70","pricing_plan_id":"cebpf4jnsgd1na2vs0mg"},{"bike_id":"28894e81-ede6-4351-84e3-e6b48081a345","system_id":"levelo_inurba_marseille","lat":43.33426,"lon":5.40023,"is_reserved":false,"is_disabled":false,"rental_uris":{"android":"levelo://app?vid=28894e81-ede6-4351-84e3-e6b48081a345","ios":"levelo://app?vid=28894e81-ede6-4351-84e3-e6b48081a345"},"vehicle_type_id":"4","last_reported":1745847252,"current_range_meters":16400,"station_id":"","pricing_plan_id":"cebpf4jnsgd1na2vs0mg"},{"bike_id":"64b4a0f6-eb4e-4a58-a49c-c2fdffc72cda","system_id":"levelo_inurba_marseille","lat":43.27566,"lon":5.38427,"is_reserved":false,"is_disabled":true,"rental_uris":{"android":"levelo://app?vid=64b4a0f6-eb4e-4a58-a49c-c2fdffc72cda","ios":"levelo://app?vid=64b4a0f6-eb4e-4a58-a49c-c2fdffc72cda"},"vehicle_type_id":"4","last_reported":1745847252,"current_range_meters":16400,"station_id":"ce4bhh92rcd13ifvqfi0","pricing_plan_id":"cebpf4jnsgd1na2vs0mg"},{"bike_id":"8d974aa3-d576-40d0-90e3-7c92c411a7d3","system_id":"levelo_inurba_marseille","lat":43.32368,"lon":5.38882,"is_reserved":false,"is_disabled":false,"rental_uris":{"android":"levelo://app?vid=8d974aa3-d576-40d0-90e3-7c92c411a7d3","ios":"levelo://app?vid=8d974aa3-d576-40d0-90e3-7c92c411a7d3"},"vehicle_type_id":"4","last_reported":1745847252,"current_range_meters":16400,"station_id":"ce4bhqp2rcd13ifvqhog","pricing_plan_id":"cebpf4jnsgd1na2vs0mg"},{"bike_id":"29cc6b36-65a2-4157-a9c9-013bddb90a4e","system_id":"levelo_inurba_marseille","lat":43.3136,"lon":5.3672,"is_reserved":false,"is_disabled":false,"rental_uris":{"android":"levelo://app?vid=29cc6b36-65a2-4157-a9c9-013bddb90a4e","ios":"levelo://app?vid=29cc6b36-65a2-4157-a9c9-013bddb90a4e"},"vehicle_type_id":"4","last_reported":1745847252,"current_range_meters":16400,"station_id":"ce4bgr92rcd13ifvqc6g","pricing_plan_id":"cebpf4jnsgd1na2vs0mg"},{"bike_id":"6e333ce8-ce5e-4c79-8428-269542536272","system_id":"levelo_inurba_marseille","lat":43.29598,"lon":5.38091,"is_reserved":false,"is_disabled":false,"rental_uris":{"android":"levelo://app?vid=6e333ce8-ce5e-4c79-8428-269542536272","ios":"levelo://app?vid=6e333ce8-ce5e-4c79-8428-269542536272"},"vehicle_type_id":"4","last_reported":1745847252,"current_range_meters":18800,"station_id":"ce4bgl12rcd13ifvqbo0","pricing_plan_id":"cebpf4jnsgd1na2vs0mg"},{"bike_id":"b81b96bf-57a4-4db3-8f31-ae4dd78c3ff0","system_id":"levelo_inurba_marseille","lat":43.28273,"lon":5.35067,"is_reserved":false,"is_disabled":false,"rental_uris":{"android":"levelo://app?vid=b81b96bf-57a4-4db3-8f31-ae4dd78c3ff0","ios":"levelo://app?vid=b81b96bf-57a4-4db3-8f31-ae4dd78c3ff0"},"vehicle_type_id":"4","last_reported":1745847252,"current_range_meters":16800,"station_id":"ce4bhbp2rcd13ifvqerg","pricing_plan_id":"cebpf4jnsgd1na2vs0mg"},{"bike_id":"3ae31555-2663-48a5-819c-113770450bd0","system_id":"levelo_inurba_marseille","lat":43.29103,"lon":5.38132,"is_reserved":false,"is_disabled":false,"rental_uris":{"android":"levelo://app?vid=3ae31555-2663-48a5-819c-113770450bd0","ios":"levelo://app?vid=3ae31555-2663-48a5-819c-113770450bd0"},"vehicle_type_id":"4","last_reported":1745847252,"current_range_meters":17200,"station_id":"ce4bh512rcd13ifvqe2g","pricing_plan_id":"cebpf4jnsgd1na2vs0mg"},{"bike_id":"13f55ac6-5df2-4dc3-80e5-d366cf055bc2","system_id":"levelo_inurba_marseille","lat":43.2418,"lon":5.39729,"is_reserved":false,"is_disabled":false,"rental_uris":{"android":"levelo://app?vid=13f55ac6-5df2-4dc3-80e5-d366cf055bc2","ios":"levelo://app?vid=13f55ac6-5df2-4dc3-80e5-d366cf055bc2"},"vehicle_type_id":"4","last_reported":1745847252,"current_range_meters":16800,"station_id":"ce4bhn12rcd13ifvqgpg","pricing_plan_id":"cebpf4jnsgd1na2vs0mg"},{"bike_id":"5e627a7c-ca84-48d9-a146-ec8980912f7a","system_id":"levelo_inurba_marseille","lat":43.25813,"lon":5.39435,"is_reserved":false,"is_disabled":false,"rental_uris":{"android":"levelo://app?vid=5e627a7c-ca84-48d9-a146-ec8980912f7a","ios":"levelo://app?vid=5e627a7c-ca84-48d9-a146-ec8980912f7a"},"vehicle_type_id":"4","last_reported":1745847252,"current_range_meters":16800,"station_id":"ce4bhip2rcd13ifvqft0","pricing_plan_id":"cebpf4jnsgd1na2vs0mg"},{"bike_id":"1c71dd62-5c1a-42e0-8da7-81eceebfb73e","system_id":"levelo_inurba_marseille","lat":43.21188,"lon":5.35068,"is_reserved":false,"is_disabled":false,"rental_uris":{"android":"levelo://app?vid=1c71dd62-5c1a-42e0-8da7-81eceebfb73e","ios":"levelo://app?vid=1c71dd62-5c1a-42e0-8da7-81eceebfb73e"},"vehicle_type_id":"4","last_reported":1745847252,"current_range_meters":16800,"station_id":"st_cvj6sg6p6f1abm77japg","pricing_plan_id":"cebpf4jnsgd1na2vs0mg"},{"bike_id":"1e42911a-72f5-4b08-add3-3b186839463c","system_id":"levelo_inurba_marseille","lat":43.31902,"lon":5.4073,"is_reserved":false,"is_disabled":false,"rental_uris":{"android":"levelo://app?vid=1e42911a-72f5-4b08-add3-3b186839463c","ios":"levelo://app?vid=1e42911a-72f5-4b08-add3-3b186839463c"},"vehicle_type_id":"4","last_reported":1745847252,"current_range_meters":16800,"station_id":"ce4bhq12rcd13ifvqhig","pricing_plan_id":"cebpf4jnsgd1na2vs0mg"},{"bike_id":"923f8501-7d40-44db-85bf-a51b2ea797ac","system_id":"levelo_inurba_marseille","lat":43.26958,"lon":5.40268,"is_reserved":false,"is_disabled":true,"rental_uris":{"android":"levelo://app?vid=923f8501-7d40-44db-85bf-a51b2ea797ac","ios":"levelo://app?vid=923f8501-7d40-44db-85bf-a51b2ea797ac"},"vehicle_type_id":"4","last_reported":1745847252,"current_range_meters":16800,"station_id":"cjm6bp8fraef2m0cb0m0","pricing_plan_id":"cebpf4jnsgd1na2vs0mg"},{"bike_id":"9a39a13a-80db-46b6-b5b5-45c35c7e5dc6","system_id":"levelo_inurba_marseille","lat":43.24806,"lon":5.37454,"is_reserved":false,"is_disabled":false,"rental_uris":{"android":"levelo://app?vid=9a39a13a-80db-46b6-b5b5-45c35c7e5dc6","ios":"levelo://app?vid=9a39a13a-80db-46b6-b5b5-45c35c7e5dc6"},"vehicle_type_id":"4","last_reported":1745847252,"current_range_meters":16800,"station_id":"ce4bhgh2rcd13ifvqfb0","pricing_plan_id":"cebpf4jnsgd1na2vs0mg"},{"bike_id":"b8390791-02ea-47cc-bfda-3bd1ffc50030","system_id":"levelo_inurba_marseille","lat":43.25901,"lon":5.40905,"is_reserved":false,"is_disabled":false,"rental_uris":{"android":"levelo://app?vid=b8390791-02ea-47cc-bfda-3bd1ffc50030","ios":"levelo://app?vid=b8390791-02ea-47cc-bfda-3bd1ffc50030"},"vehicle_type_id":"4","last_reported":1745847252,"current_range_meters":16800,"station_id":"ce4bhm92rcd13ifvqglg","pricing_plan_id":"cebpf4jnsgd1na2vs0mg"},{"bike_id":"3394a198-809c-43b2-a9bb-295ee110157d","system_id":"levelo_inurba_marseille","lat":43.2958,"lon":5.3625,"is_reserved":false,"is_disabled":false,"rental_uris":{"android":"levelo://app?vid=3394a198-809c-43b2-a9bb-295ee110157d","ios":"levelo://app?vid=3394a198-809c-43b2-a9bb-295ee110157d"},"vehicle_type_id":"4","last_reported":1745847252,"current_range_meters":17200,"station_id":"","pricing_plan_id":"cebpf4jnsgd1na2vs0mg"},{"bike_id":"8ae2b389-0a6c-4fec-8e56-275d8da47ff7","system_id":"levelo_inurba_marseille","lat":43.24182,"lon":5.39725,"is_reserved":false,"is_disabled":false,"rental_uris":{"android":"levelo://app?vid=8ae2b389-0a6c-4fec-8e56-275d8da47ff7","ios":"levelo://app?vid=8ae2b389-0a6c-4fec-8e56-275d8da47ff7"},"vehicle_type_id":"4","last_reported":1745847252,"current_range_meters":16800,"station_id":"ce4bhn12rcd13ifvqgpg","pricing_plan_id":"cebpf4jnsgd1na2vs0mg"},{"bike_id":"9f6a75f5-b970-4a7f-b19c-5a22d1d8d28c","system_id":"levelo_inurba_marseille","lat":43.32537,"lon":5.41468,"is_reserved":false,"is_disabled":false,"rental_uris":{"android":"levelo://app?vid=9f6a75f5-b970-4a7f-b19c-5a22d1d8d28c","ios":"levelo://app?vid=9f6a75f5-b970-4a7f-b19c-5a22d1d8d28c"},"vehicle_type_id":"4","last_reported":1745847252,"current_range_meters":16800,"station_id":"ce4bhq12rcd13ifvqhhg","pricing_plan_id":"cebpf4jnsgd1na2vs0mg"},{"bike_id":"a834a79b-269b-4bde-ab24-91531761647f","system_id":"levelo_inurba_marseille","lat":43.29957,"lon":5.41328,"is_reserved":false,"is_disabled":false,"rental_uris":{"android":"levelo://app?vid=a834a79b-269b-4bde-ab24-91531761647f","ios":"levelo://app?vid=a834a79b-269b-4bde-ab24-91531761647f"},"vehicle_type_id":"4","last_reported":1745847252,"current_range_meters":16800,"station_id":"ce4bhp12rcd13ifvqh9g","pricing_plan_id":"cebpf4jnsgd1na2vs0mg"},{"bike_id":"6ce64750-e619-44e4-9b8b-a53f343f6528","system_id":"levelo_inurba_marseille","lat":43.287901,"lon":5.352269,"is_reserved":false,"is_disabled":false,"rental_uris":{"android":"levelo://app?vid=6ce64750-e619-44e4-9b8b-a53f343f6528","ios":"levelo://app?vid=6ce64750-e619-44e4-9b8b-a53f343f6528"},"vehicle_type_id":"4","last_reported":1745847252,"current_range_meters":17200,"station_id":"ce4bhbp2rcd13ifvqerg","pricing_plan_id":"cebpf4jnsgd1na2vs0mg"},{"bike_id":"e7fe20cf-ed3e-4bca-b687-5f438558eb4f","system_id":"levelo_inurba_marseille","lat":43.27379,"lon":5.36261,"is_reserved":false,"is_disabled":false,"rental_uris":{"android":"levelo://app?vid=e7fe20cf-ed3e-4bca-b687-5f438558eb4f","ios":"levelo://app?vid=e7fe20cf-ed3e-4bca-b687-5f438558eb4f"},"vehicle_type_id":"4","last_reported":1745847252,"current_range_meters":16800,"station_id":"ce4bhbh2rcd13ifvqeo0","pricing_plan_id":"cebpf4jnsgd1na2vs0mg"},{"bike_id":"5d12ee4a-52f1-4f1a-af38-ad7a19a5a489","system_id":"levelo_inurba_marseille","lat":43.30596,"lon":5.36562,"is_reserved":false,"is_disabled":true,"rental_uris":{"android":"levelo://app?vid=5d12ee4a-52f1-4f1a-af38-ad7a19a5a489","ios":"levelo://app?vid=5d12ee4a-52f1-4f1a-af38-ad7a19a5a489"},"vehicle_type_id":"4","last_reported":1745847252,"current_range_meters":17200,"station_id":"ce4bgs12rcd13ifvqcag","pricing_plan_id":"cebpf4jnsgd1na2vs0mg"},{"bike_id":"bcaed3dc-e514-4d8a-b128-7371968d3c77","system_id":"levelo_inurba_marseille","lat":43.29573,"lon":5.39969,"is_reserved":false,"is_disabled":false,"rental_uris":{"android":"levelo://app?vid=bcaed3dc-e514-4d8a-b128-7371968d3c77","ios":"levelo://app?vid=bcaed3dc-e514-4d8a-b128-7371968d3c77"},"vehicle_type_id":"4","last_reported":1745847252,"current_range_meters":17600,"station_id":"ce4bh312rcd13ifvqdj0","pricing_plan_id":"cebpf4jnsgd1na2vs0mg"},{"bike_id":"9691f481-2e04-4dbd-8eeb-62e0fa37616c","system_id":"levelo_inurba_marseille","lat":43.25926,"lon":5.40888,"is_reserved":false,"is_disabled":false,"rental_uris":{"android":"levelo://app?vid=9691f481-2e04-4dbd-8eeb-62e0fa37616c","ios":"levelo://app?vid=9691f481-2e04-4dbd-8eeb-62e0fa37616c"},"vehicle_type_id":"4","last_reported":1745847252,"current_range_meters":17200,"station_id":"ce4bhm92rcd13ifvqglg","pricing_plan_id":"cebpf4jnsgd1na2vs0mg"},{"bike_id":"bd4dab1c-8291-4d65-9231-6b3450f4eeb7","system_id":"levelo_inurba_marseille","lat":43.29592,"lon":5.36734,"is_reserved":false,"is_disabled":false,"rental_uris":{"android":"levelo://app?vid=bd4dab1c-8291-4d65-9231-6b3450f4eeb7","ios":"levelo://app?vid=bd4dab1c-8291-4d65-9231-6b3450f4eeb7"},"vehicle_type_id":"4","last_reported":1745847252,"current_range_meters":17200,"station_id":"ce4bgph2rcd13ifvqc2g","pricing_plan_id":"cebpf4jnsgd1na2vs0mg"},{"bike_id":"10989bb7-fb1d-49cf-bf9f-e0a726945845","system_id":"levelo_inurba_marseille","lat":43.30958,"lon":5.3904,"is_reserved":false,"is_disabled":false,"rental_uris":{"android":"levelo://app?vid=10989bb7-fb1d-49cf-bf9f-e0a726945845","ios":"levelo://app?vid=10989bb7-fb1d-49cf-bf9f-e0a726945845"},"vehicle_type_id":"4","last_reported":1745847252,"current_range_meters":17600,"station_id":"ce4bgup2rcd13ifvqco0","pricing_plan_id":"cebpf4jnsgd1na2vs0mg"},{"bike_id":"0990f078-628c-483e-922f-f573c3e34746","system_id":"levelo_inurba_marseille","lat":43.295292,"lon":5.385338,"is_reserved":false,"is_disabled":false,"rental_uris":{"android":"levelo://app?vid=0990f078-628c-483e-922f-f573c3e34746","ios":"levelo://app?vid=0990f078-628c-483e-922f-f573c3e34746"},"vehicle_type_id":"4","last_reported":1745847252,"current_range_meters":17600,"station_id":"ce4bgih2rcd13ifvqba0","pricing_plan_id":"cebpf4jnsgd1na2vs0mg"},{"bike_id":"199f37c9-a0cb-44ca-885c-0a9eb308e4ce","system_id":"levelo_inurba_marseille","lat":43.29611,"lon":5.38087,"is_reserved":false,"is_disabled":false,"rental_uris":{"android":"levelo://app?vid=199f37c9-a0cb-44ca-885c-0a9eb308e4ce","ios":"levelo://app?vid=199f37c9-a0cb-44ca-885c-0a9eb308e4ce"},"vehicle_type_id":"4","last_reported":1745847252,"current_range_meters":17600,"station_id":"ce4bgl12rcd13ifvqbo0","pricing_plan_id":"cebpf4jnsgd1na2vs0mg"},{"bike_id":"60b96ab5-8471-40cc-b854-7593675f1e6a","system_id":"levelo_inurba_marseille","lat":43.25937,"lon":5.40895,"is_reserved":false,"is_disabled":false,"rental_uris":{"android":"levelo://app?vid=60b96ab5-8471-40cc-b854-7593675f1e6a","ios":"levelo://app?vid=60b96ab5-8471-40cc-b854-7593675f1e6a"},"vehicle_type_id":"4","last_reported":1745847252,"current_range_meters":17600,"station_id":"ce4bhm92rcd13ifvqglg","pricing_plan_id":"cebpf4jnsgd1na2vs0mg"},{"bike_id":"888538ce-4dc3-4f2e-8404-8ea4d633e1aa","system_id":"levelo_inurba_marseille","lat":43.26173,"lon":5.37458,"is_reserved":false,"is_disabled":true,"rental_uris":{"android":"levelo://app?vid=888538ce-4dc3-4f2e-8404-8ea4d633e1aa","ios":"levelo://app?vid=888538ce-4dc3-4f2e-8404-8ea4d633e1aa"},"vehicle_type_id":"4","last_reported":1745847252,"current_range_meters":17600,"station_id":"ce4bhgp2rcd13ifvqfc0","pricing_plan_id":"cebpf4jnsgd1na2vs0mg"},{"bike_id":"bf9e1390-c081-4182-b4a0-95ee125720e7","system_id":"levelo_inurba_marseille","lat":43.31505,"lon":5.37283,"is_reserved":false,"is_disabled":false,"rental_uris":{"android":"levelo://app?vid=bf9e1390-c081-4182-b4a0-95ee125720e7","ios":"levelo://app?vid=bf9e1390-c081-4182-b4a0-95ee125720e7"},"vehicle_type_id":"4","last_reported":1745847252,"current_range_meters":17600,"station_id":"ce4bgt12rcd13ifvqcd0","pricing_plan_id":"cebpf4jnsgd1na2vs0mg"},{"bike_id":"b3d16239-8841-4ab6-9846-2a9d8d4cec90","system_id":"levelo_inurba_marseille","lat":43.32354,"lon":5.389491,"is_reserved":false,"is_disabled":false,"rental_uris":{"android":"levelo://app?vid=b3d16239-8841-4ab6-9846-2a9d8d4cec90","ios":"levelo://app?vid=b3d16239-8841-4ab6-9846-2a9d8d4cec90"},"vehicle_type_id":"4","last_reported":1745847252,"current_range_meters":17600,"station_id":"ce4bhqp2rcd13ifvqhog","pricing_plan_id":"cebpf4jnsgd1na2vs0mg"},{"bike_id":"489415b8-9254-45c1-b00c-e7554d56755c","system_id":"levelo_inurba_marseille","lat":43.245224,"lon":5.412138,"is_reserved":false,"is_disabled":false,"rental_uris":{"android":"levelo://app?vid=489415b8-9254-45c1-b00c-e7554d56755c","ios":"levelo://app?vid=489415b8-9254-45c1-b00c-e7554d56755c"},"vehicle_type_id":"4","last_reported":1745847252,"current_range_meters":18000,"station_id":"","pricing_plan_id":"cebpf4jnsgd1na2vs0mg"},{"bike_id":"a6755157-72bf-4abb-bea6-8df4fa5ff2a7","system_id":"levelo_inurba_marseille","lat":43.26508,"lon":5.39533,"is_reserved":false,"is_disabled":false,"rental_uris":{"android":"levelo://app?vid=a6755157-72bf-4abb-bea6-8df4fa5ff2a7","ios":"levelo://app?vid=a6755157-72bf-4abb-bea6-8df4fa5ff2a7"},"vehicle_type_id":"4","last_reported":1745847252,"current_range_meters":18000,"station_id":"ce4bhi12rcd13ifvqfq0","pricing_plan_id":"cebpf4jnsgd1na2vs0mg"},{"bike_id":"0b824f63-ca49-429d-aeba-29c8eb5b0254","system_id":"levelo_inurba_marseille","lat":43.2842,"lon":5.34975,"is_reserved":false,"is_disabled":false,"rental_uris":{"android":"levelo://app?vid=0b824f63-ca49-429d-aeba-29c8eb5b0254","ios":"levelo://app?vid=0b824f63-ca49-429d-aeba-29c8eb5b0254"},"vehicle_type_id":"4","last_reported":1745847252,"current_range_meters":18000,"station_id":"ce4bhbh2rcd13ifvqepg","pricing_plan_id":"cebpf4jnsgd1na2vs0mg"},{"bike_id":"e03aa7d0-45db-42e6-811a-92a069b87ce5","system_id":"levelo_inurba_marseille","lat":43.28269,"lon":5.35077,"is_reserved":false,"is_disabled":false,"rental_uris":{"android":"levelo://app?vid=e03aa7d0-45db-42e6-811a-92a069b87ce5","ios":"levelo://app?vid=e03aa7d0-45db-42e6-811a-92a069b87ce5"},"vehicle_type_id":"4","last_reported":1745847252,"current_range_meters":18000,"station_id":"ce4bhbp2rcd13ifvqerg","pricing_plan_id":"cebpf4jnsgd1na2vs0mg"},{"bike_id":"b79ad8b3-c47d-4ab9-bd7d-ce8dba96fd7a","system_id":"levelo_inurba_marseille","lat":43.23966,"lon":5.36637,"is_reserved":false,"is_disabled":false,"rental_uris":{"android":"levelo://app?vid=b79ad8b3-c47d-4ab9-bd7d-ce8dba96fd7a","ios":"levelo://app?vid=b79ad8b3-c47d-4ab9-bd7d-ce8dba96fd7a"},"vehicle_type_id":"4","last_reported":1745847252,"current_range_meters":18000,"station_id":"ce4bhi12rcd13ifvqfp0","pricing_plan_id":"cebpf4jnsgd1na2vs0mg"},{"bike_id":"518493f9-fddf-4022-94a1-0f16c4390faf","system_id":"levelo_inurba_marseille","lat":43.30894,"lon":5.37197,"is_reserved":false,"is_disabled":false,"rental_uris":{"android":"levelo://app?vid=518493f9-fddf-4022-94a1-0f16c4390faf","ios":"levelo://app?vid=518493f9-fddf-4022-94a1-0f16c4390faf"},"vehicle_type_id":"4","last_reported":1745847252,"current_range_meters":18000,"station_id":"ce4bguh2rcd13ifvqckg","pricing_plan_id":"cebpf4jnsgd1na2vs0mg"},{"bike_id":"889fab24-eabf-4017-9eab-f4f25d687331","system_id":"levelo_inurba_marseille","lat":43.33765,"lon":5.37432,"is_reserved":false,"is_disabled":false,"rental_uris":{"android":"levelo://app?vid=889fab24-eabf-4017-9eab-f4f25d687331","ios":"levelo://app?vid=889fab24-eabf-4017-9eab-f4f25d687331"},"vehicle_type_id":"4","last_reported":1745847252,"current_range_meters":18000,"station_id":"","pricing_plan_id":"cebpf4jnsgd1na2vs0mg"},{"bike_id":"e1e29ea1-23fe-4e3c-8a76-99dfe6c93038","system_id":"levelo_inurba_marseille","lat":43.28277,"lon":5.35058,"is_reserved":false,"is_disabled":false,"rental_uris":{"android":"levelo://app?vid=e1e29ea1-23fe-4e3c-8a76-99dfe6c93038","ios":"levelo://app?vid=e1e29ea1-23fe-4e3c-8a76-99dfe6c93038"},"vehicle_type_id":"4","last_reported":1745847252,"current_range_meters":18800,"station_id":"ce4bhbp2rcd13ifvqerg","pricing_plan_id":"cebpf4jnsgd1na2vs0mg"},{"bike_id":"99f7a8b8-cde2-4960-9c60-756a6bcbd042","system_id":"levelo_inurba_marseille","lat":43.28273,"lon":5.3507,"is_reserved":false,"is_disabled":false,"rental_uris":{"android":"levelo://app?vid=99f7a8b8-cde2-4960-9c60-756a6bcbd042","ios":"levelo://app?vid=99f7a8b8-cde2-4960-9c60-756a6bcbd042"},"vehicle_type_id":"4","last_reported":1745847252,"current_range_meters":18800,"station_id":"ce4bhbp2rcd13ifvqerg","pricing_plan_id":"cebpf4jnsgd1na2vs0mg"},{"bike_id":"7a606858-c276-4eeb-b2b1-6db27b5668c7","system_id":"levelo_inurba_marseille","lat":43.29265,"lon":5.37611,"is_reserved":false,"is_disabled":false,"rental_uris":{"android":"levelo://app?vid=7a606858-c276-4eeb-b2b1-6db27b5668c7","ios":"levelo://app?vid=7a606858-c276-4eeb-b2b1-6db27b5668c7"},"vehicle_type_id":"4","last_reported":1745847252,"current_range_meters":19200,"station_id":"ce4bgi12rcd13ifvqb80","pricing_plan_id":"cebpf4jnsgd1na2vs0mg"},{"bike_id":"44afe254-24a0-4947-ab61-a02d9d9cc881","system_id":"levelo_inurba_marseille","lat":43.2963,"lon":5.40594,"is_reserved":false,"is_disabled":false,"rental_uris":{"android":"levelo://app?vid=44afe254-24a0-4947-ab61-a02d9d9cc881","ios":"levelo://app?vid=44afe254-24a0-4947-ab61-a02d9d9cc881"},"vehicle_type_id":"4","last_reported":1745847252,"current_range_meters":19200,"station_id":"ce4bh0h2rcd13ifvqd60","pricing_plan_id":"cebpf4jnsgd1na2vs0mg"},{"bike_id":"1797b1df-9f19-412b-a9a0-9423e4a29f85","system_id":"levelo_inurba_marseille","lat":43.29609,"lon":5.381,"is_reserved":false,"is_disabled":false,"rental_uris":{"android":"levelo://app?vid=1797b1df-9f19-412b-a9a0-9423e4a29f85","ios":"levelo://app?vid=1797b1df-9f19-412b-a9a0-9423e4a29f85"},"vehicle_type_id":"4","last_reported":1745847252,"current_range_meters":19200,"station_id":"ce4bgl12rcd13ifvqbo0","pricing_plan_id":"cebpf4jnsgd1na2vs0mg"},{"bike_id":"74d52950-90b7-4538-a55c-92d2e4be88ac","system_id":"levelo_inurba_marseille","lat":43.29535,"lon":5.38538,"is_reserved":false,"is_disabled":false,"rental_uris":{"android":"levelo://app?vid=74d52950-90b7-4538-a55c-92d2e4be88ac","ios":"levelo://app?vid=74d52950-90b7-4538-a55c-92d2e4be88ac"},"vehicle_type_id":"4","last_reported":1745847252,"current_range_meters":20000,"station_id":"ce4bgih2rcd13ifvqba0","pricing_plan_id":"cebpf4jnsgd1na2vs0mg"},{"bike_id":"a990f424-b727-4c59-a50a-2df309014924","system_id":"levelo_inurba_marseille","lat":43.321131,"lon":5.367774,"is_reserved":false,"is_disabled":false,"rental_uris":{"android":"levelo://app?vid=a990f424-b727-4c59-a50a-2df309014924","ios":"levelo://app?vid=a990f424-b727-4c59-a50a-2df309014924"},"vehicle_type_id":"4","last_reported":1745847252,"current_range_meters":19200,"station_id":"ce4bhrh2rcd13ifvqhug","pricing_plan_id":"cebpf4jnsgd1na2vs0mg"},{"bike_id":"ab566342-f92c-435a-a238-04939b89345b","system_id":"levelo_inurba_marseille","lat":43.296,"lon":5.380943,"is_reserved":false,"is_disabled":false,"rental_uris":{"android":"levelo://app?vid=ab566342-f92c-435a-a238-04939b89345b","ios":"levelo://app?vid=ab566342-f92c-435a-a238-04939b89345b"},"vehicle_type_id":"4","last_reported":1745847252,"current_range_meters":19200,"station_id":"ce4bgl12rcd13ifvqbo0","pricing_plan_id":"cebpf4jnsgd1na2vs0mg"},{"bike_id":"4fbdfb61-97f3-4bd2-b888-b66744bc6e97","system_id":"levelo_inurba_marseille","lat":43.30521,"lon":5.36711,"is_reserved":false,"is_disabled":false,"rental_uris":{"android":"levelo://app?vid=4fbdfb61-97f3-4bd2-b888-b66744bc6e97","ios":"levelo://app?vid=4fbdfb61-97f3-4bd2-b888-b66744bc6e97"},"vehicle_type_id":"4","last_reported":1745847252,"current_range_meters":19600,"station_id":"ce4bgrp2rcd13ifvqc9g","pricing_plan_id":"cebpf4jnsgd1na2vs0mg"},{"bike_id":"f464b6ed-d70c-40df-939b-591c2f9e6d6f","system_id":"levelo_inurba_marseille","lat":43.30569,"lon":5.36507,"is_reserved":false,"is_disabled":true,"rental_uris":{"android":"levelo://app?vid=f464b6ed-d70c-40df-939b-591c2f9e6d6f","ios":"levelo://app?vid=f464b6ed-d70c-40df-939b-591c2f9e6d6f"},"vehicle_type_id":"4","last_reported":1745847252,"current_range_meters":19600,"station_id":"ce4bgs12rcd13ifvqcag","pricing_plan_id":"cebpf4jnsgd1na2vs0mg"},{"bike_id":"b6446dae-aa9d-4123-b1da-3bf3f340505f","system_id":"levelo_inurba_marseille","lat":43.30375,"lon":5.42491,"is_reserved":false,"is_disabled":false,"rental_uris":{"android":"levelo://app?vid=b6446dae-aa9d-4123-b1da-3bf3f340505f","ios":"levelo://app?vid=b6446dae-aa9d-4123-b1da-3bf3f340505f"},"vehicle_type_id":"4","last_reported":1745847252,"current_range_meters":19600,"station_id":"ce4bhoh2rcd13ifvqh6g","pricing_plan_id":"cebpf4jnsgd1na2vs0mg"},{"bike_id":"c26fea33-9023-4156-8716-07f44ebece5c","system_id":"levelo_inurba_marseille","lat":43.29917,"lon":5.43656,"is_reserved":false,"is_disabled":false,"rental_uris":{"android":"levelo://app?vid=c26fea33-9023-4156-8716-07f44ebece5c","ios":"levelo://app?vid=c26fea33-9023-4156-8716-07f44ebece5c"},"vehicle_type_id":"4","last_reported":1745847252,"current_range_meters":19600,"station_id":"ce4bhpp2rcd13ifvqhfg","pricing_plan_id":"cebpf4jnsgd1na2vs0mg"},{"bike_id":"e27ddf1b-85e2-4d37-9066-b19e813164d0","system_id":"levelo_inurba_marseille","lat":43.30928,"lon":5.40144,"is_reserved":false,"is_disabled":false,"rental_uris":{"android":"levelo://app?vid=e27ddf1b-85e2-4d37-9066-b19e813164d0","ios":"levelo://app?vid=e27ddf1b-85e2-4d37-9066-b19e813164d0"},"vehicle_type_id":"4","last_reported":1745847252,"current_range_meters":19600,"station_id":"ce4bgvp2rcd13ifvqct0","pricing_plan_id":"cebpf4jnsgd1na2vs0mg"},{"bike_id":"22a650e2-af69-41e5-9501-328ced12ea90","system_id":"levelo_inurba_marseille","lat":43.27637,"lon":5.4221,"is_reserved":false,"is_disabled":false,"rental_uris":{"android":"levelo://app?vid=22a650e2-af69-41e5-9501-328ced12ea90","ios":"levelo://app?vid=22a650e2-af69-41e5-9501-328ced12ea90"},"vehicle_type_id":"4","last_reported":1745847252,"current_range_meters":19600,"station_id":"","pricing_plan_id":"cebpf4jnsgd1na2vs0mg"},{"bike_id":"77f02365-3c16-480e-9d34-f6d36ea0f482","system_id":"levelo_inurba_marseille","lat":43.31503,"lon":5.37271,"is_reserved":false,"is_disabled":false,"rental_uris":{"android":"levelo://app?vid=77f02365-3c16-480e-9d34-f6d36ea0f482","ios":"levelo://app?vid=77f02365-3c16-480e-9d34-f6d36ea0f482"},"vehicle_type_id":"4","last_reported":1745847252,"current_range_meters":19600,"station_id":"ce4bgt12rcd13ifvqcd0","pricing_plan_id":"cebpf4jnsgd1na2vs0mg"},{"bike_id":"dac3093a-ccc5-4cdc-8a9e-f3b347e4330a","system_id":"levelo_inurba_marseille","lat":43.28938,"lon":5.36632,"is_reserved":false,"is_disabled":false,"rental_uris":{"android":"levelo://app?vid=dac3093a-ccc5-4cdc-8a9e-f3b347e4330a","ios":"levelo://app?vid=dac3093a-ccc5-4cdc-8a9e-f3b347e4330a"},"vehicle_type_id":"4","last_reported":1745847252,"current_range_meters":19600,"station_id":"ce4bhap2rcd13ifvqek0","pricing_plan_id":"cebpf4jnsgd1na2vs0mg"},{"bike_id":"d2d10d97-de08-40a4-a70b-570330c178b4","system_id":"levelo_inurba_marseille","lat":43.31219,"lon":5.36826,"is_reserved":false,"is_disabled":false,"rental_uris":{"android":"levelo://app?vid=d2d10d97-de08-40a4-a70b-570330c178b4","ios":"levelo://app?vid=d2d10d97-de08-40a4-a70b-570330c178b4"},"vehicle_type_id":"4","last_reported":1745847252,"current_range_meters":19600,"station_id":"ce4bgl92rcd13ifvqbq0","pricing_plan_id":"cebpf4jnsgd1na2vs0mg"},{"bike_id":"6fc7fed3-c7a6-45dd-b896-679f1c983029","system_id":"levelo_inurba_marseille","lat":43.298449,"lon":5.362759,"is_reserved":false,"is_disabled":false,"rental_uris":{"android":"levelo://app?vid=6fc7fed3-c7a6-45dd-b896-679f1c983029","ios":"levelo://app?vid=6fc7fed3-c7a6-45dd-b896-679f1c983029"},"vehicle_type_id":"4","last_reported":1745847252,"current_range_meters":20000,"station_id":"ce4bgpp2rcd13ifvqc3g","pricing_plan_id":"cebpf4jnsgd1na2vs0mg"},{"bike_id":"0db149f5-8d4e-49c6-8a12-9bd71162e708","system_id":"levelo_inurba_marseille","lat":43.29957,"lon":5.41317,"is_reserved":false,"is_disabled":false,"rental_uris":{"android":"levelo://app?vid=0db149f5-8d4e-49c6-8a12-9bd71162e708","ios":"levelo://app?vid=0db149f5-8d4e-49c6-8a12-9bd71162e708"},"vehicle_type_id":"4","last_reported":1745847252,"current_range_meters":19600,"station_id":"ce4bhp12rcd13ifvqh9g","pricing_plan_id":"cebpf4jnsgd1na2vs0mg"},{"bike_id":"a27e4e3b-eb0f-4e07-a0e6-b233f85d3850","system_id":"levelo_inurba_marseille","lat":43.283752,"lon":5.386595,"is_reserved":false,"is_disabled":false,"rental_uris":{"android":"levelo://app?vid=a27e4e3b-eb0f-4e07-a0e6-b233f85d3850","ios":"levelo://app?vid=a27e4e3b-eb0f-4e07-a0e6-b233f85d3850"},"vehicle_type_id":"4","last_reported":1745847252,"current_range_meters":20000,"station_id":"ce4bh492rcd13ifvqdvg","pricing_plan_id":"cebpf4jnsgd1na2vs0mg"},{"bike_id":"869d9eb0-5ef3-4e3a-9647-5238f03c26fc","system_id":"levelo_inurba_marseille","lat":43.270535,"lon":5.402599,"is_reserved":false,"is_disabled":false,"rental_uris":{"android":"levelo://app?vid=869d9eb0-5ef3-4e3a-9647-5238f03c26fc","ios":"levelo://app?vid=869d9eb0-5ef3-4e3a-9647-5238f03c26fc"},"vehicle_type_id":"4","last_reported":1745847252,"current_range_meters":20000,"station_id":"ce4bhk92rcd13ifvqgc0","pricing_plan_id":"cebpf4jnsgd1na2vs0mg"},{"bike_id":"6f1ca1f5-7806-451b-858f-2972453d741a","system_id":"levelo_inurba_marseille","lat":43.289086,"lon":5.395661,"is_reserved":false,"is_disabled":false,"rental_uris":{"android":"levelo://app?vid=6f1ca1f5-7806-451b-858f-2972453d741a","ios":"levelo://app?vid=6f1ca1f5-7806-451b-858f-2972453d741a"},"vehicle_type_id":"4","last_reported":1745847252,"current_range_meters":20400,"station_id":"ce4bh512rcd13ifvqe3g","pricing_plan_id":"cebpf4jnsgd1na2vs0mg"},{"bike_id":"4af51217-75a6-4c5f-a87f-075edc6510b0","system_id":"levelo_inurba_marseille","lat":43.24179,"lon":5.39719,"is_reserved":false,"is_disabled":false,"rental_uris":{"android":"levelo://app?vid=4af51217-75a6-4c5f-a87f-075edc6510b0","ios":"levelo://app?vid=4af51217-75a6-4c5f-a87f-075edc6510b0"},"vehicle_type_id":"4","last_reported":1745847252,"current_range_meters":20400,"station_id":"ce4bhn12rcd13ifvqgpg","pricing_plan_id":"cebpf4jnsgd1na2vs0mg"},{"bike_id":"fe91386c-5c8b-4e97-8441-1312e6455598","system_id":"levelo_inurba_marseille","lat":43.27367,"lon":5.36248,"is_reserved":false,"is_disabled":false,"rental_uris":{"android":"levelo://app?vid=fe91386c-5c8b-4e97-8441-1312e6455598","ios":"levelo://app?vid=fe91386c-5c8b-4e97-8441-1312e6455598"},"vehicle_type_id":"4","last_reported":1745847252,"current_range_meters":20400,"station_id":"ce4bhbh2rcd13ifvqeo0","pricing_plan_id":"cebpf4jnsgd1na2vs0mg"},{"bike_id":"cf2e4c02-2dd7-4458-8955-6e2ded9fe3ca","system_id":"levelo_inurba_marseille","lat":43.2961,"lon":5.38105,"is_reserved":false,"is_disabled":false,"rental_uris":{"android":"levelo://app?vid=cf2e4c02-2dd7-4458-8955-6e2ded9fe3ca","ios":"levelo://app?vid=cf2e4c02-2dd7-4458-8955-6e2ded9fe3ca"},"vehicle_type_id":"4","last_reported":1745847252,"current_range_meters":20800,"station_id":"ce4bgl12rcd13ifvqbo0","pricing_plan_id":"cebpf4jnsgd1na2vs0mg"},{"bike_id":"494d4033-b3fc-4f58-8ea6-89dc9073175b","system_id":"levelo_inurba_marseille","lat":43.29163,"lon":5.37155,"is_reserved":false,"is_disabled":false,"rental_uris":{"android":"levelo://app?vid=494d4033-b3fc-4f58-8ea6-89dc9073175b","ios":"levelo://app?vid=494d4033-b3fc-4f58-8ea6-89dc9073175b"},"vehicle_type_id":"4","last_reported":1745847252,"current_range_meters":20800,"station_id":"ce4bha92rcd13ifvqeh0","pricing_plan_id":"cebpf4jnsgd1na2vs0mg"},{"bike_id":"f81a1d8d-4778-4af4-8721-3fb6e8d2d69f","system_id":"levelo_inurba_marseille","lat":43.29582,"lon":5.36735,"is_reserved":false,"is_disabled":false,"rental_uris":{"android":"levelo://app?vid=f81a1d8d-4778-4af4-8721-3fb6e8d2d69f","ios":"levelo://app?vid=f81a1d8d-4778-4af4-8721-3fb6e8d2d69f"},"vehicle_type_id":"4","last_reported":1745847252,"current_range_meters":20000,"station_id":"ce4bgph2rcd13ifvqc2g","pricing_plan_id":"cebpf4jnsgd1na2vs0mg"},{"bike_id":"310bb477-a970-4673-afeb-91763474ba72","system_id":"levelo_inurba_marseille","lat":43.30916,"lon":5.36854,"is_reserved":false,"is_disabled":false,"rental_uris":{"android":"levelo://app?vid=310bb477-a970-4673-afeb-91763474ba72","ios":"levelo://app?vid=310bb477-a970-4673-afeb-91763474ba72"},"vehicle_type_id":"4","last_reported":1745847252,"current_range_meters":20800,"station_id":"ce4bgn92rcd13ifvqbvg","pricing_plan_id":"cebpf4jnsgd1na2vs0mg"},{"bike_id":"2c33b952-bafd-49ba-bfe0-7ba2b91c3193","system_id":"levelo_inurba_marseille","lat":43.28105,"lon":5.37849,"is_reserved":false,"is_disabled":false,"rental_uris":{"android":"levelo://app?vid=2c33b952-bafd-49ba-bfe0-7ba2b91c3193","ios":"levelo://app?vid=2c33b952-bafd-49ba-bfe0-7ba2b91c3193"},"vehicle_type_id":"4","last_reported":1745847252,"current_range_meters":20800,"station_id":"ce4bha12rcd13ifvqee0","pricing_plan_id":"cebpf4jnsgd1na2vs0mg"},{"bike_id":"9048a988-1cb8-4aa3-ab23-aeb571c1efe3","system_id":"levelo_inurba_marseille","lat":43.24168,"lon":5.36394,"is_reserved":false,"is_disabled":false,"rental_uris":{"android":"levelo://app?vid=9048a988-1cb8-4aa3-ab23-aeb571c1efe3","ios":"levelo://app?vid=9048a988-1cb8-4aa3-ab23-aeb571c1efe3"},"vehicle_type_id":"4","last_reported":1745847252,"current_range_meters":20800,"station_id":"cpo36qri1sfpv3e86is0","pricing_plan_id":"cebpf4jnsgd1na2vs0mg"},{"bike_id":"2c20e806-b004-43c2-9464-2059ba6162de","system_id":"levelo_inurba_marseille","lat":43.30797,"lon":5.38161,"is_reserved":false,"is_disabled":false,"rental_uris":{"android":"levelo://app?vid=2c20e806-b004-43c2-9464-2059ba6162de","ios":"levelo://app?vid=2c20e806-b004-43c2-9464-2059ba6162de"},"vehicle_type_id":"4","last_reported":1745847252,"current_range_meters":20400,"station_id":"ce4bgt12rcd13ifvqce0","pricing_plan_id":"cebpf4jnsgd1na2vs0mg"},{"bike_id":"6c8c0f59-3657-44d6-9a11-262e5b681108","system_id":"levelo_inurba_marseille","lat":43.28099,"lon":5.37831,"is_reserved":false,"is_disabled":false,"rental_uris":{"android":"levelo://app?vid=6c8c0f59-3657-44d6-9a11-262e5b681108","ios":"levelo://app?vid=6c8c0f59-3657-44d6-9a11-262e5b681108"},"vehicle_type_id":"4","last_reported":1745847252,"current_range_meters":20400,"station_id":"ce4bha12rcd13ifvqee0","pricing_plan_id":"cebpf4jnsgd1na2vs0mg"},{"bike_id":"5741880a-6536-46de-a04e-0855b82bbf6c","system_id":"levelo_inurba_marseille","lat":43.2811,"lon":5.37869,"is_reserved":false,"is_disabled":false,"rental_uris":{"android":"levelo://app?vid=5741880a-6536-46de-a04e-0855b82bbf6c","ios":"levelo://app?vid=5741880a-6536-46de-a04e-0855b82bbf6c"},"vehicle_type_id":"4","last_reported":1745847252,"current_range_meters":21600,"station_id":"ce4bha12rcd13ifvqee0","pricing_plan_id":"cebpf4jnsgd1na2vs0mg"},{"bike_id":"8e355826-ca3a-4b0e-aa2d-5fe453d6de33","system_id":"levelo_inurba_marseille","lat":43.2844,"lon":5.39193,"is_reserved":false,"is_disabled":false,"rental_uris":{"android":"levelo://app?vid=8e355826-ca3a-4b0e-aa2d-5fe453d6de33","ios":"levelo://app?vid=8e355826-ca3a-4b0e-aa2d-5fe453d6de33"},"vehicle_type_id":"4","last_reported":1745847252,"current_range_meters":21600,"station_id":"ce4bhoh2rcd13ifvqh5g","pricing_plan_id":"cebpf4jnsgd1na2vs0mg"},{"bike_id":"ca62150f-141a-4516-be27-b77e237dcacc","system_id":"levelo_inurba_marseille","lat":43.31732,"lon":5.40431,"is_reserved":false,"is_disabled":false,"rental_uris":{"android":"levelo://app?vid=ca62150f-141a-4516-be27-b77e237dcacc","ios":"levelo://app?vid=ca62150f-141a-4516-be27-b77e237dcacc"},"vehicle_type_id":"4","last_reported":1745847252,"current_range_meters":21600,"station_id":"ce4bh012rcd13ifvqd00","pricing_plan_id":"cebpf4jnsgd1na2vs0mg"},{"bike_id":"c85f9705-7531-4420-95a8-1720b8420468","system_id":"levelo_inurba_marseille","lat":43.29707,"lon":5.37694,"is_reserved":false,"is_disabled":false,"rental_uris":{"android":"levelo://app?vid=c85f9705-7531-4420-95a8-1720b8420468","ios":"levelo://app?vid=c85f9705-7531-4420-95a8-1720b8420468"},"vehicle_type_id":"4","last_reported":1745847252,"current_range_meters":21600,"station_id":"ce4bgkh2rcd13ifvqbl0","pricing_plan_id":"cebpf4jnsgd1na2vs0mg"},{"bike_id":"4c723f6f-4666-45bd-abc0-a7616ebe2e03","system_id":"levelo_inurba_marseille","lat":43.33026,"lon":5.39042,"is_reserved":false,"is_disabled":false,"rental_uris":{"android":"levelo://app?vid=4c723f6f-4666-45bd-abc0-a7616ebe2e03","ios":"levelo://app?vid=4c723f6f-4666-45bd-abc0-a7616ebe2e03"},"vehicle_type_id":"4","last_reported":1745847252,"current_range_meters":21600,"station_id":"ce4bhr92rcd13ifvqhrg","pricing_plan_id":"cebpf4jnsgd1na2vs0mg"},{"bike_id":"2b2b0fcd-3948-41e0-a239-3cb95fec6b75","system_id":"levelo_inurba_marseille","lat":43.30944,"lon":5.40142,"is_reserved":false,"is_disabled":false,"rental_uris":{"android":"levelo://app?vid=2b2b0fcd-3948-41e0-a239-3cb95fec6b75","ios":"levelo://app?vid=2b2b0fcd-3948-41e0-a239-3cb95fec6b75"},"vehicle_type_id":"4","last_reported":1745847252,"current_range_meters":21600,"station_id":"ce4bgvp2rcd13ifvqct0","pricing_plan_id":"cebpf4jnsgd1na2vs0mg"},{"bike_id":"614acf72-bf4e-446f-b324-8fb5cce61214","system_id":"levelo_inurba_marseille","lat":43.259255,"lon":5.409026,"is_reserved":false,"is_disabled":false,"rental_uris":{"android":"levelo://app?vid=614acf72-bf4e-446f-b324-8fb5cce61214","ios":"levelo://app?vid=614acf72-bf4e-446f-b324-8fb5cce61214"},"vehicle_type_id":"4","last_reported":1745847252,"current_range_meters":22000,"station_id":"ce4bhm92rcd13ifvqglg","pricing_plan_id":"cebpf4jnsgd1na2vs0mg"},{"bike_id":"3ea922b3-990b-48c6-8eef-81931d0c21ee","system_id":"levelo_inurba_marseille","lat":43.3271,"lon":5.39236,"is_reserved":false,"is_disabled":false,"rental_uris":{"android":"levelo://app?vid=3ea922b3-990b-48c6-8eef-81931d0c21ee","ios":"levelo://app?vid=3ea922b3-990b-48c6-8eef-81931d0c21ee"},"vehicle_type_id":"4","last_reported":1745847252,"current_range_meters":22000,"station_id":"","pricing_plan_id":"cebpf4jnsgd1na2vs0mg"},{"bike_id":"aa6ce84e-c6b8-497b-b314-941890a68eb6","system_id":"levelo_inurba_marseille","lat":43.297053,"lon":5.400254,"is_reserved":false,"is_disabled":false,"rental_uris":{"android":"levelo://app?vid=aa6ce84e-c6b8-497b-b314-941890a68eb6","ios":"levelo://app?vid=aa6ce84e-c6b8-497b-b314-941890a68eb6"},"vehicle_type_id":"4","last_reported":1745847252,"current_range_meters":22000,"station_id":"ce4bh0p2rcd13ifvqd80","pricing_plan_id":"cebpf4jnsgd1na2vs0mg"},{"bike_id":"98e24c0f-12fe-4f82-8843-4b6b7751893e","system_id":"levelo_inurba_marseille","lat":43.30888,"lon":5.37189,"is_reserved":false,"is_disabled":false,"rental_uris":{"android":"levelo://app?vid=98e24c0f-12fe-4f82-8843-4b6b7751893e","ios":"levelo://app?vid=98e24c0f-12fe-4f82-8843-4b6b7751893e"},"vehicle_type_id":"4","last_reported":1745847252,"current_range_meters":22000,"station_id":"ce4bguh2rcd13ifvqckg","pricing_plan_id":"cebpf4jnsgd1na2vs0mg"},{"bike_id":"cf01bc3d-0b69-40c4-a709-f7d14a740670","system_id":"levelo_inurba_marseille","lat":43.27054,"lon":5.402587,"is_reserved":false,"is_disabled":false,"rental_uris":{"android":"levelo://app?vid=cf01bc3d-0b69-40c4-a709-f7d14a740670","ios":"levelo://app?vid=cf01bc3d-0b69-40c4-a709-f7d14a740670"},"vehicle_type_id":"4","last_reported":1745847252,"current_range_meters":22000,"station_id":"ce4bhk92rcd13ifvqgc0","pricing_plan_id":"cebpf4jnsgd1na2vs0mg"},{"bike_id":"e8cbc332-ecfd-48f0-b807-9f20e83c56c9","system_id":"levelo_inurba_marseille","lat":43.28098,"lon":5.37836,"is_reserved":false,"is_disabled":false,"rental_uris":{"android":"levelo://app?vid=e8cbc332-ecfd-48f0-b807-9f20e83c56c9","ios":"levelo://app?vid=e8cbc332-ecfd-48f0-b807-9f20e83c56c9"},"vehicle_type_id":"4","last_reported":1745847252,"current_range_meters":22000,"station_id":"ce4bha12rcd13ifvqee0","pricing_plan_id":"cebpf4jnsgd1na2vs0mg"},{"bike_id":"782e13c2-8494-4560-b374-9ffe48994948","system_id":"levelo_inurba_marseille","lat":43.30332,"lon":5.4043,"is_reserved":false,"is_disabled":false,"rental_uris":{"android":"levelo://app?vid=782e13c2-8494-4560-b374-9ffe48994948","ios":"levelo://app?vid=782e13c2-8494-4560-b374-9ffe48994948"},"vehicle_type_id":"4","last_reported":1745847252,"current_range_meters":22400,"station_id":"ce4bh012rcd13ifvqd10","pricing_plan_id":"cebpf4jnsgd1na2vs0mg"},{"bike_id":"9678b5ee-82bb-4d91-b939-ee2b048b5ee3","system_id":"levelo_inurba_marseille","lat":43.29517,"lon":5.39404,"is_reserved":false,"is_disabled":false,"rental_uris":{"android":"levelo://app?vid=9678b5ee-82bb-4d91-b939-ee2b048b5ee3","ios":"levelo://app?vid=9678b5ee-82bb-4d91-b939-ee2b048b5ee3"},"vehicle_type_id":"4","last_reported":1745847252,"current_range_meters":22400,"station_id":"ce4bh292rcd13ifvqdf0","pricing_plan_id":"cebpf4jnsgd1na2vs0mg"},{"bike_id":"f024310e-91c7-4e56-97a4-069e18947f40","system_id":"levelo_inurba_marseille","lat":43.31377,"lon":5.36722,"is_reserved":false,"is_disabled":false,"rental_uris":{"android":"levelo://app?vid=f024310e-91c7-4e56-97a4-069e18947f40","ios":"levelo://app?vid=f024310e-91c7-4e56-97a4-069e18947f40"},"vehicle_type_id":"4","last_reported":1745847252,"current_range_meters":22400,"station_id":"ce4bgr92rcd13ifvqc6g","pricing_plan_id":"cebpf4jnsgd1na2vs0mg"},{"bike_id":"25f3686d-9d37-46a2-b216-f056a78d5d73","system_id":"levelo_inurba_marseille","lat":43.3042,"lon":5.41277,"is_reserved":false,"is_disabled":false,"rental_uris":{"android":"levelo://app?vid=25f3686d-9d37-46a2-b216-f056a78d5d73","ios":"levelo://app?vid=25f3686d-9d37-46a2-b216-f056a78d5d73"},"vehicle_type_id":"4","last_reported":1745847252,"current_range_meters":22800,"station_id":"ce4bhop2rcd13ifvqh8g","pricing_plan_id":"cebpf4jnsgd1na2vs0mg"},{"bike_id":"9ffea266-d9a2-4d33-bcf5-d8c35a677afd","system_id":"levelo_inurba_marseille","lat":43.30642,"lon":5.40098,"is_reserved":false,"is_disabled":false,"rental_uris":{"android":"levelo://app?vid=9ffea266-d9a2-4d33-bcf5-d8c35a677afd","ios":"levelo://app?vid=9ffea266-d9a2-4d33-bcf5-d8c35a677afd"},"vehicle_type_id":"4","last_reported":1745847252,"current_range_meters":22800,"station_id":"ce4bh112rcd13ifvqda0","pricing_plan_id":"cebpf4jnsgd1na2vs0mg"},{"bike_id":"2407d6f2-666d-4493-a19d-a30650054fb4","system_id":"levelo_inurba_marseille","lat":43.32546,"lon":5.41448,"is_reserved":false,"is_disabled":false,"rental_uris":{"android":"levelo://app?vid=2407d6f2-666d-4493-a19d-a30650054fb4","ios":"levelo://app?vid=2407d6f2-666d-4493-a19d-a30650054fb4"},"vehicle_type_id":"4","last_reported":1745847252,"current_range_meters":22800,"station_id":"ce4bhq12rcd13ifvqhhg","pricing_plan_id":"cebpf4jnsgd1na2vs0mg"},{"bike_id":"edb0c06e-e56c-420f-9662-4e8bd78f6250","system_id":"levelo_inurba_marseille","lat":43.30542,"lon":5.3842,"is_reserved":false,"is_disabled":false,"rental_uris":{"android":"levelo://app?vid=edb0c06e-e56c-420f-9662-4e8bd78f6250","ios":"levelo://app?vid=edb0c06e-e56c-420f-9662-4e8bd78f6250"},"vehicle_type_id":"4","last_reported":1745847252,"current_range_meters":22400,"station_id":"ce4bgg92rcd13ifvqb30","pricing_plan_id":"cebpf4jnsgd1na2vs0mg"},{"bike_id":"940b7320-b328-4afe-85a6-d4d069ced16a","system_id":"levelo_inurba_marseille","lat":43.30913,"lon":5.40141,"is_reserved":false,"is_disabled":true,"rental_uris":{"android":"levelo://app?vid=940b7320-b328-4afe-85a6-d4d069ced16a","ios":"levelo://app?vid=940b7320-b328-4afe-85a6-d4d069ced16a"},"vehicle_type_id":"4","last_reported":1745847252,"current_range_meters":23200,"station_id":"ce4bgvp2rcd13ifvqct0","pricing_plan_id":"cebpf4jnsgd1na2vs0mg"},{"bike_id":"c2abe4c3-8495-491c-b683-5d21bdba58ed","system_id":"levelo_inurba_marseille","lat":43.28028,"lon":5.36941,"is_reserved":false,"is_disabled":false,"rental_uris":{"android":"levelo://app?vid=c2abe4c3-8495-491c-b683-5d21bdba58ed","ios":"levelo://app?vid=c2abe4c3-8495-491c-b683-5d21bdba58ed"},"vehicle_type_id":"4","last_reported":1745847252,"current_range_meters":22800,"station_id":"ce4bha12rcd13ifvqef0","pricing_plan_id":"cebpf4jnsgd1na2vs0mg"},{"bike_id":"61ed47ea-c7df-4b18-9d0e-28d73c4be864","system_id":"levelo_inurba_marseille","lat":43.24173,"lon":5.39729,"is_reserved":false,"is_disabled":false,"rental_uris":{"android":"levelo://app?vid=61ed47ea-c7df-4b18-9d0e-28d73c4be864","ios":"levelo://app?vid=61ed47ea-c7df-4b18-9d0e-28d73c4be864"},"vehicle_type_id":"4","last_reported":1745847252,"current_range_meters":23200,"station_id":"ce4bhn12rcd13ifvqgpg","pricing_plan_id":"cebpf4jnsgd1na2vs0mg"},{"bike_id":"035cdc5a-c646-4c28-82dc-a8991c21d159","system_id":"levelo_inurba_marseille","lat":43.31496,"lon":5.37289,"is_reserved":false,"is_disabled":false,"rental_uris":{"android":"levelo://app?vid=035cdc5a-c646-4c28-82dc-a8991c21d159","ios":"levelo://app?vid=035cdc5a-c646-4c28-82dc-a8991c21d159"},"vehicle_type_id":"4","last_reported":1745847252,"current_range_meters":23200,"station_id":"ce4bgt12rcd13ifvqcd0","pricing_plan_id":"cebpf4jnsgd1na2vs0mg"},{"bike_id":"ab2991e5-d6fa-4dca-b99e-dda42da60ef6","system_id":"levelo_inurba_marseille","lat":43.27496,"lon":5.42456,"is_reserved":false,"is_disabled":false,"rental_uris":{"android":"levelo://app?vid=ab2991e5-d6fa-4dca-b99e-dda42da60ef6","ios":"levelo://app?vid=ab2991e5-d6fa-4dca-b99e-dda42da60ef6"},"vehicle_type_id":"4","last_reported":1745847252,"current_range_meters":23200,"station_id":"ce4bhn92rcd13ifvqgrg","pricing_plan_id":"cebpf4jnsgd1na2vs0mg"},{"bike_id":"ad944261-9b90-4e3d-ad7d-2872977c637e","system_id":"levelo_inurba_marseille","lat":43.30641,"lon":5.40099,"is_reserved":false,"is_disabled":false,"rental_uris":{"android":"levelo://app?vid=ad944261-9b90-4e3d-ad7d-2872977c637e","ios":"levelo://app?vid=ad944261-9b90-4e3d-ad7d-2872977c637e"},"vehicle_type_id":"4","last_reported":1745847252,"current_range_meters":23200,"station_id":"ce4bh112rcd13ifvqda0","pricing_plan_id":"cebpf4jnsgd1na2vs0mg"},{"bike_id":"537381da-ce11-4bd0-ac92-c70c6230f520","system_id":"levelo_inurba_marseille","lat":43.27828,"lon":5.40703,"is_reserved":false,"is_disabled":false,"rental_uris":{"android":"levelo://app?vid=537381da-ce11-4bd0-ac92-c70c6230f520","ios":"levelo://app?vid=537381da-ce11-4bd0-ac92-c70c6230f520"},"vehicle_type_id":"4","last_reported":1745847252,"current_range_meters":23200,"station_id":"ce4bhnh2rcd13ifvqgtg","pricing_plan_id":"cebpf4jnsgd1na2vs0mg"},{"bike_id":"b26a0b33-650f-4f7b-8536-58a942167ba4","system_id":"levelo_inurba_marseille","lat":43.23194,"lon":5.3555,"is_reserved":false,"is_disabled":false,"rental_uris":{"android":"levelo://app?vid=b26a0b33-650f-4f7b-8536-58a942167ba4","ios":"levelo://app?vid=b26a0b33-650f-4f7b-8536-58a942167ba4"},"vehicle_type_id":"4","last_reported":1745847252,"current_range_meters":24000,"station_id":"ce4bhu92rcd13ifvqi70","pricing_plan_id":"cebpf4jnsgd1na2vs0mg"},{"bike_id":"25df4861-1b01-4321-8abd-bfba039d57db","system_id":"levelo_inurba_marseille","lat":43.29552,"lon":5.42294,"is_reserved":false,"is_disabled":false,"rental_uris":{"android":"levelo://app?vid=25df4861-1b01-4321-8abd-bfba039d57db","ios":"levelo://app?vid=25df4861-1b01-4321-8abd-bfba039d57db"},"vehicle_type_id":"4","last_reported":1745847252,"current_range_meters":24000,"station_id":"ce4bhph2rcd13ifvqhdg","pricing_plan_id":"cebpf4jnsgd1na2vs0mg"},{"bike_id":"254a82b3-1bfa-44d0-bb2c-211fbec80e17","system_id":"levelo_inurba_marseille","lat":43.27966,"lon":5.38756,"is_reserved":false,"is_disabled":false,"rental_uris":{"android":"levelo://app?vid=254a82b3-1bfa-44d0-bb2c-211fbec80e17","ios":"levelo://app?vid=254a82b3-1bfa-44d0-bb2c-211fbec80e17"},"vehicle_type_id":"4","last_reported":1745847252,"current_range_meters":24000,"station_id":"ce4bhg12rcd13ifvqf80","pricing_plan_id":"cebpf4jnsgd1na2vs0mg"},{"bike_id":"fce2c520-92d3-4d18-810b-8d643fc15a1a","system_id":"levelo_inurba_marseille","lat":43.2306,"lon":5.35492,"is_reserved":false,"is_disabled":false,"rental_uris":{"android":"levelo://app?vid=fce2c520-92d3-4d18-810b-8d643fc15a1a","ios":"levelo://app?vid=fce2c520-92d3-4d18-810b-8d643fc15a1a"},"vehicle_type_id":"4","last_reported":1745847252,"current_range_meters":24000,"station_id":"cpo3342slgdg3j2ifvpg","pricing_plan_id":"cebpf4jnsgd1na2vs0mg"},{"bike_id":"a0a1e889-4772-4851-9037-0c56176394e3","system_id":"levelo_inurba_marseille","lat":43.3152,"lon":5.37303,"is_reserved":false,"is_disabled":false,"rental_uris":{"android":"levelo://app?vid=a0a1e889-4772-4851-9037-0c56176394e3","ios":"levelo://app?vid=a0a1e889-4772-4851-9037-0c56176394e3"},"vehicle_type_id":"4","last_reported":1745847252,"current_range_meters":24000,"station_id":"ce4bgt12rcd13ifvqcd0","pricing_plan_id":"cebpf4jnsgd1na2vs0mg"},{"bike_id":"6f07a4c6-c9d8-4425-9447-8676203a33a0","system_id":"levelo_inurba_marseille","lat":43.241745,"lon":5.3639,"is_reserved":false,"is_disabled":false,"rental_uris":{"android":"levelo://app?vid=6f07a4c6-c9d8-4425-9447-8676203a33a0","ios":"levelo://app?vid=6f07a4c6-c9d8-4425-9447-8676203a33a0"},"vehicle_type_id":"4","last_reported":1745847252,"current_range_meters":24000,"station_id":"cpo36qri1sfpv3e86is0","pricing_plan_id":"cebpf4jnsgd1na2vs0mg"},{"bike_id":"88f6416c-a8cf-48b6-bb44-3988c8b89e2f","system_id":"levelo_inurba_marseille","lat":43.24167,"lon":5.36394,"is_reserved":false,"is_disabled":false,"rental_uris":{"android":"levelo://app?vid=88f6416c-a8cf-48b6-bb44-3988c8b89e2f","ios":"levelo://app?vid=88f6416c-a8cf-48b6-bb44-3988c8b89e2f"},"vehicle_type_id":"4","last_reported":1745847252,"current_range_meters":24400,"station_id":"cpo36qri1sfpv3e86is0","pricing_plan_id":"cebpf4jnsgd1na2vs0mg"},{"bike_id":"48ef84b3-c102-49f7-a656-4d161fc55ef8","system_id":"levelo_inurba_marseille","lat":43.27829,"lon":5.39208,"is_reserved":false,"is_disabled":false,"rental_uris":{"android":"levelo://app?vid=48ef84b3-c102-49f7-a656-4d161fc55ef8","ios":"levelo://app?vid=48ef84b3-c102-49f7-a656-4d161fc55ef8"},"vehicle_type_id":"4","last_reported":1745847252,"current_range_meters":24400,"station_id":"ce4bhjp2rcd13ifvqga0","pricing_plan_id":"cebpf4jnsgd1na2vs0mg"},{"bike_id":"9eb85a53-c55c-460b-93df-91d80e7bfcef","system_id":"levelo_inurba_marseille","lat":43.3248,"lon":5.36563,"is_reserved":false,"is_disabled":false,"rental_uris":{"android":"levelo://app?vid=9eb85a53-c55c-460b-93df-91d80e7bfcef","ios":"levelo://app?vid=9eb85a53-c55c-460b-93df-91d80e7bfcef"},"vehicle_type_id":"4","last_reported":1745847252,"current_range_meters":24400,"station_id":"ce4bhs12rcd13ifvqhvg","pricing_plan_id":"cebpf4jnsgd1na2vs0mg"},{"bike_id":"50194e84-b348-4c7f-884f-81648311d7f1","system_id":"levelo_inurba_marseille","lat":43.31354,"lon":5.36711,"is_reserved":false,"is_disabled":false,"rental_uris":{"android":"levelo://app?vid=50194e84-b348-4c7f-884f-81648311d7f1","ios":"levelo://app?vid=50194e84-b348-4c7f-884f-81648311d7f1"},"vehicle_type_id":"4","last_reported":1745847252,"current_range_meters":24000,"station_id":"ce4bgr92rcd13ifvqc6g","pricing_plan_id":"cebpf4jnsgd1na2vs0mg"},{"bike_id":"8fcce59d-bba5-4c8a-bf6e-ed63c6a2630b","system_id":"levelo_inurba_marseille","lat":43.24169,"lon":5.36393,"is_reserved":false,"is_disabled":false,"rental_uris":{"android":"levelo://app?vid=8fcce59d-bba5-4c8a-bf6e-ed63c6a2630b","ios":"levelo://app?vid=8fcce59d-bba5-4c8a-bf6e-ed63c6a2630b"},"vehicle_type_id":"4","last_reported":1745847252,"current_range_meters":24400,"station_id":"cpo36qri1sfpv3e86is0","pricing_plan_id":"cebpf4jnsgd1na2vs0mg"},{"bike_id":"dc28fc6e-d680-4477-bbc1-f4611ff292f9","system_id":"levelo_inurba_marseille","lat":43.24663,"lon":5.38175,"is_reserved":false,"is_disabled":false,"rental_uris":{"android":"levelo://app?vid=dc28fc6e-d680-4477-bbc1-f4611ff292f9","ios":"levelo://app?vid=dc28fc6e-d680-4477-bbc1-f4611ff292f9"},"vehicle_type_id":"4","last_reported":1745847252,"current_range_meters":24400,"station_id":"ce4bhih2rcd13ifvqfr0","pricing_plan_id":"cebpf4jnsgd1na2vs0mg"},{"bike_id":"9ecb3349-22d4-4f42-80a8-5d2b5cf3aacd","system_id":"levelo_inurba_marseille","lat":43.28404,"lon":5.37521,"is_reserved":false,"is_disabled":false,"rental_uris":{"android":"levelo://app?vid=9ecb3349-22d4-4f42-80a8-5d2b5cf3aacd","ios":"levelo://app?vid=9ecb3349-22d4-4f42-80a8-5d2b5cf3aacd"},"vehicle_type_id":"4","last_reported":1745847252,"current_range_meters":24400,"station_id":"ce4bh412rcd13ifvqds0","pricing_plan_id":"cebpf4jnsgd1na2vs0mg"},{"bike_id":"90ba42c0-3df3-4ede-ad71-97c50d51f22c","system_id":"levelo_inurba_marseille","lat":43.279431,"lon":5.410331,"is_reserved":false,"is_disabled":false,"rental_uris":{"android":"levelo://app?vid=90ba42c0-3df3-4ede-ad71-97c50d51f22c","ios":"levelo://app?vid=90ba42c0-3df3-4ede-ad71-97c50d51f22c"},"vehicle_type_id":"4","last_reported":1745847252,"current_range_meters":24400,"station_id":"ce4bhnp2rcd13ifvqh0g","pricing_plan_id":"cebpf4jnsgd1na2vs0mg"},{"bike_id":"652e0055-e0a1-45e4-84cd-3248924974b8","system_id":"levelo_inurba_marseille","lat":43.26568,"lon":5.37279,"is_reserved":false,"is_disabled":false,"rental_uris":{"android":"levelo://app?vid=652e0055-e0a1-45e4-84cd-3248924974b8","ios":"levelo://app?vid=652e0055-e0a1-45e4-84cd-3248924974b8"},"vehicle_type_id":"4","last_reported":1745847252,"current_range_meters":24400,"station_id":"ce4bhg12rcd13ifvqf70","pricing_plan_id":"cebpf4jnsgd1na2vs0mg"},{"bike_id":"558882fb-0240-49cb-85aa-7d5f7f90168a","system_id":"levelo_inurba_marseille","lat":43.22937,"lon":5.35382,"is_reserved":false,"is_disabled":false,"rental_uris":{"android":"levelo://app?vid=558882fb-0240-49cb-85aa-7d5f7f90168a","ios":"levelo://app?vid=558882fb-0240-49cb-85aa-7d5f7f90168a"},"vehicle_type_id":"4","last_reported":1745847252,"current_range_meters":24400,"station_id":"cpo3532slgdg3j2ikp40","pricing_plan_id":"cebpf4jnsgd1na2vs0mg"},{"bike_id":"255da1fb-f550-40da-bb9f-3b38bad99a9c","system_id":"levelo_inurba_marseille","lat":43.29913,"lon":5.43652,"is_reserved":false,"is_disabled":false,"rental_uris":{"android":"levelo://app?vid=255da1fb-f550-40da-bb9f-3b38bad99a9c","ios":"levelo://app?vid=255da1fb-f550-40da-bb9f-3b38bad99a9c"},"vehicle_type_id":"4","last_reported":1745847252,"current_range_meters":24400,"station_id":"ce4bhpp2rcd13ifvqhfg","pricing_plan_id":"cebpf4jnsgd1na2vs0mg"},{"bike_id":"5ab314fd-9cc2-4919-af55-d9e7d339e51f","system_id":"levelo_inurba_marseille","lat":43.25909,"lon":5.40895,"is_reserved":false,"is_disabled":false,"rental_uris":{"android":"levelo://app?vid=5ab314fd-9cc2-4919-af55-d9e7d339e51f","ios":"levelo://app?vid=5ab314fd-9cc2-4919-af55-d9e7d339e51f"},"vehicle_type_id":"4","last_reported":1745847252,"current_range_meters":24400,"station_id":"ce4bhm92rcd13ifvqglg","pricing_plan_id":"cebpf4jnsgd1na2vs0mg"},{"bike_id":"f8fa94ff-cb37-4850-9def-37e89cee1b08","system_id":"levelo_inurba_marseille","lat":43.279077,"lon":5.380207,"is_reserved":false,"is_disabled":false,"rental_uris":{"android":"levelo://app?vid=f8fa94ff-cb37-4850-9def-37e89cee1b08","ios":"levelo://app?vid=f8fa94ff-cb37-4850-9def-37e89cee1b08"},"vehicle_type_id":"4","last_reported":1745847252,"current_range_meters":24400,"station_id":"ce4bhf92rcd13ifvqf50","pricing_plan_id":"cebpf4jnsgd1na2vs0mg"},{"bike_id":"dc3bfe24-618e-4330-b66d-06fbc162994a","system_id":"levelo_inurba_marseille","lat":43.26806,"lon":5.40265,"is_reserved":false,"is_disabled":false,"rental_uris":{"android":"levelo://app?vid=dc3bfe24-618e-4330-b66d-06fbc162994a","ios":"levelo://app?vid=dc3bfe24-618e-4330-b66d-06fbc162994a"},"vehicle_type_id":"4","last_reported":1745847252,"current_range_meters":24400,"station_id":"ce501612rcd8frsf0b60","pricing_plan_id":"cebpf4jnsgd1na2vs0mg"},{"bike_id":"19fd71bc-551c-43d5-aa71-28b20c159283","system_id":"levelo_inurba_marseille","lat":43.29384,"lon":5.37852,"is_reserved":false,"is_disabled":false,"rental_uris":{"android":"levelo://app?vid=19fd71bc-551c-43d5-aa71-28b20c159283","ios":"levelo://app?vid=19fd71bc-551c-43d5-aa71-28b20c159283"},"vehicle_type_id":"4","last_reported":1745847252,"current_range_meters":24400,"station_id":"ce4bgjh2rcd13ifvqbf0","pricing_plan_id":"cebpf4jnsgd1na2vs0mg"},{"bike_id":"36589065-9777-4275-9498-24a04bf80734","system_id":"levelo_inurba_marseille","lat":43.22933,"lon":5.35386,"is_reserved":false,"is_disabled":false,"rental_uris":{"android":"levelo://app?vid=36589065-9777-4275-9498-24a04bf80734","ios":"levelo://app?vid=36589065-9777-4275-9498-24a04bf80734"},"vehicle_type_id":"4","last_reported":1745847252,"current_range_meters":24800,"station_id":"cpo3532slgdg3j2ikp40","pricing_plan_id":"cebpf4jnsgd1na2vs0mg"},{"bike_id":"f720310e-7642-4e42-a53e-a775b123213c","system_id":"levelo_inurba_marseille","lat":43.25582,"lon":5.38251,"is_reserved":false,"is_disabled":false,"rental_uris":{"android":"levelo://app?vid=f720310e-7642-4e42-a53e-a775b123213c","ios":"levelo://app?vid=f720310e-7642-4e42-a53e-a775b123213c"},"vehicle_type_id":"4","last_reported":1745847252,"current_range_meters":24800,"station_id":"ce4bhih2rcd13ifvqfs0","pricing_plan_id":"cebpf4jnsgd1na2vs0mg"},