{"last_updated":1746367672,"ttl":60,"version":"2.2","data":{"bikes":[{"bike_id":"1421944e-4f97-4f2a-93f6-bdd57cdf8ad0","system_id":"levelo_inurba_marseille","lat":43.31366,"lon":5.38492,"is_reserved":false,"is_disabled":false,"rental_uris":{"android":"levelo://app?vid=1421944e-4f97-4f2a-93f6-bdd57cdf8ad0","ios":"levelo://app?vid=1421944e-4f97-4f2a-93f6-bdd57cdf8ad0"},"vehicle_type_id":"4","last_reported":1746367673,"current_range_meters":2800,"station_id":"ce4bgt92rcd13ifvqcf0","pricing_plan_id":"cebpf4jnsgd1na2vs0mg"},{"bike_id":"11ce4ea4-6eff-4dde-a90b-f30ac8098a57","system_id":"levelo_inurba_marseille","lat":43.28361,"lon":5.38098,"is_reserved":false,"is_disabled":false,"rental_uris":{"android":"levelo://app?vid=11ce4ea4-6eff-4dde-a90b-f30ac8098a57","ios":"levelo://app?vid=11ce4ea4-6eff-4dde-a90b-f30ac8098a57"},"vehicle_type_id":"4","last_reported":1746367673,"current_range_meters":2800,"station_id":"ce4bh412rcd13ifvqdr0","pricing_plan_id":"cebpf4jnsgd1na2vs0mg"},{"bike_id":"ee431cbb-877d-4c13-8c16-79999e3facb4","system_id":"levelo_inurba_marseille","lat":43.33147,"lon":5.43111,"is_reserved":false,"is_disabled":false,"rental_uris":{"android":"levelo://app?vid=ee431cbb-877d-4c13-8c16-79999e3facb4","ios":"levelo://app?vid=ee431cbb-877d-4c13-8c16-79999e3facb4"},"vehicle_type_id":"4","last_reported":1746367673,"current_range_meters":3200,"station_id":"","pricing_plan_id":"cebpf4jnsgd1na2vs0mg"},{"bike_id":"bf88bafa-b42e-42b3-8dee-3fb64dee491d","system_id":"levelo_inurba_marseille","lat":43.23966,"lon":5.36629,"is_reserved":false,"is_disabled":false,"rental_uris":{"android":"levelo://app?vid=bf88bafa-b42e-42b3-8dee-3fb64dee491d","ios":"levelo://app?vid=bf88bafa-b42e-42b3-8dee-3fb64dee491d"},"vehicle_type_id":"4","last_reported":1746367673,"current_range_meters":3200,"station_id":"ce4bhi12rcd13ifvqfp0","pricing_plan_id":"cebpf4jnsgd1na2vs0mg"},{"bike_id":"16f2ebf2-bd78-43f9-8bfb-00a8c5c308ad","system_id":"levelo_inurba_marseille","lat":43.284596,"lon":5.358925,"is_reserved":false,"is_disabled":false,"rental_uris":{"android":"levelo://app?vid=16f2ebf2-bd78-43f9-8bfb-00a8c5c308ad","ios":"levelo://app?vid=16f2ebf2-bd78-43f9-8bfb-00a8c5c308ad"},"vehicle_type_id":"4","last_reported":1746367673,"current_range_meters":3200,"station_id":"ce4bhah2rcd13ifvqei0","pricing_plan_id":"cebpf4jnsgd1na2vs0mg"},{"bike_id":"4ce0e95a-8df4-406b-91bc-e358d5c4c763","system_id":"levelo_inurba_marseille","lat":43.29538,"lon":5.38545,"is_reserved":false,"is_disabled":false,"rental_uris":{"android":"levelo://app?vid=4ce0e95a-8df4-406b-91bc-e358d5c4c763","ios":"levelo://app?vid=4ce0e95a-8df4-406b-91bc-e358d5c4c763"},"vehicle_type_id":"4","last_reported":1746367673,"current_range_meters":3200,"station_id":"ce4bgih2rcd13ifvqba0","pricing_plan_id":"cebpf4jnsgd1na2vs0mg"},{"bike_id":"dffe801c-54a4-4856-aa3d-e70caa285be4","system_id":"levelo_inurba_marseille","lat":43.29241,"lon":5.36147,"is_reserved":false,"is_disabled":true,"rental_uris":{"android":"levelo://app?vid=dffe801c-54a4-4856-aa3d-e70caa285be4","ios":"levelo://app?vid=dffe801c-54a4-4856-aa3d-e70caa285be4"},"vehicle_type_id":"4","last_reported":1746367673,"current_range_meters":3600,"station_id":"","pricing_plan_id":"cebpf4jnsgd1na2vs0mg"},{"bike_id":"75c35565-89f3-4f92-b3b3-af9134ea6aba","system_id":"levelo_inurba_marseille","lat":43.30742,"lon":5.42438,"is_reserved":false,"is_disabled":false,"rental_uris":{"android":"levelo://app?vid=75c35565-89f3-4f92-b3b3-af9134ea6aba","ios":"levelo://app?vid=75c35565-89f3-4f92-b3b3-af9134ea6aba"},"vehicle_type_id":"4","last_reported":1746367673,"current_range_meters":3600,"station_id":"st_cvj6ca6bvosntc0bfgr0","pricing_plan_id":"cebpf4jnsgd1na2vs0mg"},{"bike_id":"a9e81389-04bf-4a2a-ad52-b64e50e776c4","system_id":"levelo_inurba_marseille","lat":43.25118,"lon":5.40315,"is_reserved":false,"is_disabled":false,"rental_uris":{"android":"levelo://app?vid=a9e81389-04bf-4a2a-ad52-b64e50e776c4","ios":"levelo://app?vid=a9e81389-04bf-4a2a-ad52-b64e50e776c4"},"vehicle_type_id":"4","last_reported":1746367673,"current_range_meters":3600,"station_id":"ce4bhlh2rcd13ifvqgig","pricing_plan_id":"cebpf4jnsgd1na2vs0mg"},{"bike_id":"bb7de9c9-c1b6-420d-8956-643d9ead5056","system_id":"levelo_inurba_marseille","lat":43.30746,"lon":5.42446,"is_reserved":false,"is_disabled":false,"rental_uris":{"android":"levelo://app?vid=bb7de9c9-c1b6-420d-8956-643d9ead5056","ios":"levelo://app?vid=bb7de9c9-c1b6-420d-8956-643d9ead5056"},"vehicle_type_id":"4","last_reported":1746367673,"current_range_meters":4000,"station_id":"st_cvj6ca6bvosntc0bfgr0","pricing_plan_id":"cebpf4jnsgd1na2vs0mg"},{"bike_id":"5270c636-bfdb-423d-9a97-66adc64b9307","system_id":"levelo_inurba_marseille","lat":43.31356,"lon":5.3846,"is_reserved":false,"is_disabled":false,"rental_uris":{"android":"levelo://app?vid=5270c636-bfdb-423d-9a97-66adc64b9307","ios":"levelo://app?vid=5270c636-bfdb-423d-9a97-66adc64b9307"},"vehicle_type_id":"4","last_reported":1746367673,"current_range_meters":4000,"station_id":"ce4bgt92rcd13ifvqcf0","pricing_plan_id":"cebpf4jnsgd1na2vs0mg"},{"bike_id":"815ae356-95e6-4b6f-b6a8-7cd10c33c137","system_id":"levelo_inurba_marseille","lat":43.29911,"lon":5.38141,"is_reserved":false,"is_disabled":false,"rental_uris":{"android":"levelo://app?vid=815ae356-95e6-4b6f-b6a8-7cd10c33c137","ios":"levelo://app?vid=815ae356-95e6-4b6f-b6a8-7cd10c33c137"},"vehicle_type_id":"4","last_reported":1746367673,"current_range_meters":4000,"station_id":"ce4bgj12rcd13ifvqbc0","pricing_plan_id":"cebpf4jnsgd1na2vs0mg"},{"bike_id":"441771cd-0001-4237-b26e-f2e1502d0768","system_id":"levelo_inurba_marseille","lat":43.23635,"lon":5.36598,"is_reserved":false,"is_disabled":false,"rental_uris":{"android":"levelo://app?vid=441771cd-0001-4237-b26e-f2e1502d0768","ios":"levelo://app?vid=441771cd-0001-4237-b26e-f2e1502d0768"},"vehicle_type_id":"4","last_reported":1746367673,"current_range_meters":4000,"station_id":"","pricing_plan_id":"cebpf4jnsgd1na2vs0mg"},{"bike_id":"570b486c-50df-4f1f-97df-caa86c0d419e","system_id":"levelo_inurba_marseille","lat":43.33689,"lon":5.35578,"is_reserved":false,"is_disabled":false,"rental_uris":{"android":"levelo://app?vid=570b486c-50df-4f1f-97df-caa86c0d419e","ios":"levelo://app?vid=570b486c-50df-4f1f-97df-caa86c0d419e"},"vehicle_type_id":"4","last_reported":1746367673,"current_range_meters":4400,"station_id":"","pricing_plan_id":"cebpf4jnsgd1na2vs0mg"},{"bike_id":"39d83911-e17e-4776-b8f2-6450602c8696","system_id":"levelo_inurba_marseille","lat":43.299041,"lon":5.436586,"is_reserved":false,"is_disabled":false,"rental_uris":{"android":"levelo://app?vid=39d83911-e17e-4776-b8f2-6450602c8696","ios":"levelo://app?vid=39d83911-e17e-4776-b8f2-6450602c8696"},"vehicle_type_id":"4","last_reported":1746367673,"current_range_meters":4800,"station_id":"ce4bhpp2rcd13ifvqhfg","pricing_plan_id":"cebpf4jnsgd1na2vs0mg"},{"bike_id":"c34bb776-fde6-48e3-ada0-bf8e36286670","system_id":"levelo_inurba_marseille","lat":43.26218,"lon":5.37439,"is_reserved":false,"is_disabled":false,"rental_uris":{"android":"levelo://app?vid=c34bb776-fde6-48e3-ada0-bf8e36286670","ios":"levelo://app?vid=c34bb776-fde6-48e3-ada0-bf8e36286670"},"vehicle_type_id":"4","last_reported":1746367673,"current_range_meters":4800,"station_id":"ce4bhgp2rcd13ifvqfc0","pricing_plan_id":"cebpf4jnsgd1na2vs0mg"},{"bike_id":"c12ef081-c3b0-47b0-8bc8-2aa31d3df1dd","system_id":"levelo_inurba_marseille","lat":43.23064,"lon":5.35489,"is_reserved":false,"is_disabled":false,"rental_uris":{"android":"levelo://app?vid=c12ef081-c3b0-47b0-8bc8-2aa31d3df1dd","ios":"levelo://app?vid=c12ef081-c3b0-47b0-8bc8-2aa31d3df1dd"},"vehicle_type_id":"4","last_reported":1746367673,"current_range_meters":4800,"station_id":"cpo3342slgdg3j2ifvpg","pricing_plan_id":"cebpf4jnsgd1na2vs0mg"},{"bike_id":"35145cef-b32c-4327-8f54-2c039278b0f6","system_id":"levelo_inurba_marseille","lat":43.21743,"lon":5.34599,"is_reserved":false,"is_disabled":true,"rental_uris":{"android":"levelo://app?vid=35145cef-b32c-4327-8f54-2c039278b0f6","ios":"levelo://app?vid=35145cef-b32c-4327-8f54-2c039278b0f6"},"vehicle_type_id":"4","last_reported":1746367673,"current_range_meters":4800,"station_id":"st_cvj6r9ubvosntc0bgbag","pricing_plan_id":"cebpf4jnsgd1na2vs0mg"},{"bike_id":"909825d5-7ad2-409e-b0de-cec7d5b4fa06","system_id":"levelo_inurba_marseille","lat":43.24223,"lon":5.36729,"is_reserved":false,"is_disabled":false,"rental_uris":{"android":"levelo://app?vid=909825d5-7ad2-409e-b0de-cec7d5b4fa06","ios":"levelo://app?vid=909825d5-7ad2-409e-b0de-cec7d5b4fa06"},"vehicle_type_id":"4","last_reported":1746367673,"current_range_meters":4800,"station_id":"","pricing_plan_id":"cebpf4jnsgd1na2vs0mg"},{"bike_id":"2b2bb921-9896-45b2-9e2f-e5dbfbfbf8c7","system_id":"levelo_inurba_marseille","lat":43.28269,"lon":5.35058,"is_reserved":false,"is_disabled":false,"rental_uris":{"android":"levelo://app?vid=2b2bb921-9896-45b2-9e2f-e5dbfbfbf8c7","ios":"levelo://app?vid=2b2bb921-9896-45b2-9e2f-e5dbfbfbf8c7"},"vehicle_type_id":"4","last_reported":1746367673,"current_range_meters":4800,"station_id":"ce4bhbp2rcd13ifvqerg","pricing_plan_id":"cebpf4jnsgd1na2vs0mg"},{"bike_id":"f7914ffb-d4be-4074-b441-9601bea40840","system_id":"levelo_inurba_marseille","lat":43.29377,"lon":5.37831,"is_reserved":false,"is_disabled":false,"rental_uris":{"android":"levelo://app?vid=f7914ffb-d4be-4074-b441-9601bea40840","ios":"levelo://app?vid=f7914ffb-d4be-4074-b441-9601bea40840"},"vehicle_type_id":"4","last_reported":1746367673,"current_range_meters":4800,"station_id":"ce4bgjh2rcd13ifvqbf0","pricing_plan_id":"cebpf4jnsgd1na2vs0mg"},{"bike_id":"ce8aa028-3e5d-4fdd-9fc9-cf4024351828","system_id":"levelo_inurba_marseille","lat":43.27378,"lon":5.36253,"is_reserved":false,"is_disabled":false,"rental_uris":{"android":"levelo://app?vid=ce8aa028-3e5d-4fdd-9fc9-cf4024351828","ios":"levelo://app?vid=ce8aa028-3e5d-4fdd-9fc9-cf4024351828"},"vehicle_type_id":"4","last_reported":1746367673,"current_range_meters":5600,"station_id":"ce4bhbh2rcd13ifvqeo0","pricing_plan_id":"cebpf4jnsgd1na2vs0mg"},{"bike_id":"23bc6a44-c34c-40ed-acbc-c3e71f8e23e5","system_id":"levelo_inurba_marseille","lat":43.27953,"lon":5.38698,"is_reserved":false,"is_disabled":false,"rental_uris":{"android":"levelo://app?vid=23bc6a44-c34c-40ed-acbc-c3e71f8e23e5","ios":"levelo://app?vid=23bc6a44-c34c-40ed-acbc-c3e71f8e23e5"},"vehicle_type_id":"4","last_reported":1746367673,"current_range_meters":5600,"station_id":"ce4bhg12rcd13ifvqf80","pricing_plan_id":"cebpf4jnsgd1na2vs0mg"},{"bike_id":"c7e47698-0020-47cf-94a4-404079760935","system_id":"levelo_inurba_marseille","lat":43.28405,"lon":5.37524,"is_reserved":false,"is_disabled":true,"rental_uris":{"android":"levelo://app?vid=c7e47698-0020-47cf-94a4-404079760935","ios":"levelo://app?vid=c7e47698-0020-47cf-94a4-404079760935"},"vehicle_type_id":"4","last_reported":1746367673,"current_range_meters":5600,"station_id":"ce4bh412rcd13ifvqds0","pricing_plan_id":"cebpf4jnsgd1na2vs0mg"},{"bike_id":"6012e73f-a97d-4080-8451-31be47c04cb3","system_id":"levelo_inurba_marseille","lat":43.241861,"lon":5.397186,"is_reserved":false,"is_disabled":false,"rental_uris":{"android":"levelo://app?vid=6012e73f-a97d-4080-8451-31be47c04cb3","ios":"levelo://app?vid=6012e73f-a97d-4080-8451-31be47c04cb3"},"vehicle_type_id":"4","last_reported":1746367673,"current_range_meters":5600,"station_id":"ce4bhn12rcd13ifvqgpg","pricing_plan_id":"cebpf4jnsgd1na2vs0mg"},{"bike_id":"b7351ae1-b7b6-4733-8649-24bbbdfba4ca","system_id":"levelo_inurba_marseille","lat":43.21753,"lon":5.346,"is_reserved":false,"is_disabled":false,"rental_uris":{"android":"levelo://app?vid=b7351ae1-b7b6-4733-8649-24bbbdfba4ca","ios":"levelo://app?vid=b7351ae1-b7b6-4733-8649-24bbbdfba4ca"},"vehicle_type_id":"4","last_reported":1746367673,"current_range_meters":5600,"station_id":"st_cvj6r9ubvosntc0bgbag","pricing_plan_id":"cebpf4jnsgd1na2vs0mg"},{"bike_id":"f9759920-99a4-431c-bfd6-2336544c23fc","system_id":"levelo_inurba_marseille","lat":43.23965,"lon":5.36633,"is_reserved":false,"is_disabled":false,"rental_uris":{"android":"levelo://app?vid=f9759920-99a4-431c-bfd6-2336544c23fc","ios":"levelo://app?vid=f9759920-99a4-431c-bfd6-2336544c23fc"},"vehicle_type_id":"4","last_reported":1746367673,"current_range_meters":6000,"station_id":"ce4bhi12rcd13ifvqfp0","pricing_plan_id":"cebpf4jnsgd1na2vs0mg"},{"bike_id":"825a60ed-97b1-4e90-a4b6-052fb842dff6","system_id":"levelo_inurba_marseille","lat":43.29294,"lon":5.37151,"is_reserved":false,"is_disabled":false,"rental_uris":{"android":"levelo://app?vid=825a60ed-97b1-4e90-a4b6-052fb842dff6","ios":"levelo://app?vid=825a60ed-97b1-4e90-a4b6-052fb842dff6"},"vehicle_type_id":"4","last_reported":1746367673,"current_range_meters":6400,"station_id":"ce4bgh92rcd13ifvqb40","pricing_plan_id":"cebpf4jnsgd1na2vs0mg"},{"bike_id":"7ebc7a5e-4d69-430e-86ad-3fa5d77f03d0","system_id":"levelo_inurba_marseille","lat":43.273733,"lon":5.362649,"is_reserved":false,"is_disabled":false,"rental_uris":{"android":"levelo://app?vid=7ebc7a5e-4d69-430e-86ad-3fa5d77f03d0","ios":"levelo://app?vid=7ebc7a5e-4d69-430e-86ad-3fa5d77f03d0"},"vehicle_type_id":"4","last_reported":1746367673,"current_range_meters":6000,"station_id":"","pricing_plan_id":"cebpf4jnsgd1na2vs0mg"},{"bike_id":"cce70d7e-4a9e-49ae-aad9-3e5a65d57ffc","system_id":"levelo_inurba_marseille","lat":43.30211,"lon":5.39446,"is_reserved":false,"is_disabled":false,"rental_uris":{"android":"levelo://app?vid=cce70d7e-4a9e-49ae-aad9-3e5a65d57ffc","ios":"levelo://app?vid=cce70d7e-4a9e-49ae-aad9-3e5a65d57ffc"},"vehicle_type_id":"4","last_reported":1746367673,"current_range_meters":6000,"station_id":"ce4bh0p2rcd13ifvqd70","pricing_plan_id":"cebpf4jnsgd1na2vs0mg"},{"bike_id":"5836c399-8fed-4dac-9b13-34520d8fc1e1","system_id":"levelo_inurba_marseille","lat":43.26569,"lon":5.39005,"is_reserved":false,"is_disabled":false,"rental_uris":{"android":"levelo://app?vid=5836c399-8fed-4dac-9b13-34520d8fc1e1","ios":"levelo://app?vid=5836c399-8fed-4dac-9b13-34520d8fc1e1"},"vehicle_type_id":"4","last_reported":1746367673,"current_range_meters":6000,"station_id":"ce4bhe12rcd13ifvqf30","pricing_plan_id":"cebpf4jnsgd1na2vs0mg"},{"bike_id":"33d984bb-57d7-4933-bc68-507510f5f8a6","system_id":"levelo_inurba_marseille","lat":43.24175,"lon":5.39724,"is_reserved":false,"is_disabled":false,"rental_uris":{"android":"levelo://app?vid=33d984bb-57d7-4933-bc68-507510f5f8a6","ios":"levelo://app?vid=33d984bb-57d7-4933-bc68-507510f5f8a6"},"vehicle_type_id":"4","last_reported":1746367673,"current_range_meters":6000,"station_id":"ce4bhn12rcd13ifvqgpg","pricing_plan_id":"cebpf4jnsgd1na2vs0mg"},{"bike_id":"dfb3396e-96f5-457c-af11-f6f27dad33e9","system_id":"levelo_inurba_marseille","lat":43.27213,"lon":5.36494,"is_reserved":false,"is_disabled":false,"rental_uris":{"android":"levelo://app?vid=dfb3396e-96f5-457c-af11-f6f27dad33e9","ios":"levelo://app?vid=dfb3396e-96f5-457c-af11-f6f27dad33e9"},"vehicle_type_id":"4","last_reported":1746367673,"current_range_meters":6400,"station_id":"","pricing_plan_id":"cebpf4jnsgd1na2vs0mg"},{"bike_id":"8df37787-a611-4ce6-9e65-032cb168f59b","system_id":"levelo_inurba_marseille","lat":43.21221,"lon":5.35078,"is_reserved":false,"is_disabled":false,"rental_uris":{"android":"levelo://app?vid=8df37787-a611-4ce6-9e65-032cb168f59b","ios":"levelo://app?vid=8df37787-a611-4ce6-9e65-032cb168f59b"},"vehicle_type_id":"4","last_reported":1746367673,"current_range_meters":6400,"station_id":"st_cvj6sg6p6f1abm77japg","pricing_plan_id":"cebpf4jnsgd1na2vs0mg"},{"bike_id":"be9042c4-716a-416e-af52-c92d47776467","system_id":"levelo_inurba_marseille","lat":43.30921,"lon":5.40102,"is_reserved":false,"is_disabled":true,"rental_uris":{"android":"levelo://app?vid=be9042c4-716a-416e-af52-c92d47776467","ios":"levelo://app?vid=be9042c4-716a-416e-af52-c92d47776467"},"vehicle_type_id":"4","last_reported":1746367673,"current_range_meters":6800,"station_id":"ce4bgvp2rcd13ifvqct0","pricing_plan_id":"cebpf4jnsgd1na2vs0mg"},{"bike_id":"2f400e75-7c89-400b-9aaa-091bebe7c15c","system_id":"levelo_inurba_marseille","lat":43.31057,"lon":5.38346,"is_reserved":false,"is_disabled":true,"rental_uris":{"android":"levelo://app?vid=2f400e75-7c89-400b-9aaa-091bebe7c15c","ios":"levelo://app?vid=2f400e75-7c89-400b-9aaa-091bebe7c15c"},"vehicle_type_id":"4","last_reported":1746367673,"current_range_meters":6800,"station_id":"ce4bgv92rcd13ifvqcr0","pricing_plan_id":"cebpf4jnsgd1na2vs0mg"},{"bike_id":"ada8ab0f-1b01-4903-a3dc-5bc2eb40022b","system_id":"levelo_inurba_marseille","lat":43.27353,"lon":5.36229,"is_reserved":false,"is_disabled":false,"rental_uris":{"android":"levelo://app?vid=ada8ab0f-1b01-4903-a3dc-5bc2eb40022b","ios":"levelo://app?vid=ada8ab0f-1b01-4903-a3dc-5bc2eb40022b"},"vehicle_type_id":"4","last_reported":1746367673,"current_range_meters":6800,"station_id":"ce4bhbh2rcd13ifvqeo0","pricing_plan_id":"cebpf4jnsgd1na2vs0mg"},{"bike_id":"3ef55cc5-11a0-42cd-9c72-711403dffcfb","system_id":"levelo_inurba_marseille","lat":43.2293,"lon":5.35383,"is_reserved":false,"is_disabled":false,"rental_uris":{"android":"levelo://app?vid=3ef55cc5-11a0-42cd-9c72-711403dffcfb","ios":"levelo://app?vid=3ef55cc5-11a0-42cd-9c72-711403dffcfb"},"vehicle_type_id":"4","last_reported":1746367673,"current_range_meters":6800,"station_id":"cpo3532slgdg3j2ikp40","pricing_plan_id":"cebpf4jnsgd1na2vs0mg"},{"bike_id":"5bf9c3d1-663d-42b9-9bbc-b3915ca46ad8","system_id":"levelo_inurba_marseille","lat":43.2997,"lon":5.37167,"is_reserved":false,"is_disabled":false,"rental_uris":{"android":"levelo://app?vid=5bf9c3d1-663d-42b9-9bbc-b3915ca46ad8","ios":"levelo://app?vid=5bf9c3d1-663d-42b9-9bbc-b3915ca46ad8"},"vehicle_type_id":"4","last_reported":1746367673,"current_range_meters":6800,"station_id":"ce4bgr92rcd13ifvqc7g","pricing_plan_id":"cebpf4jnsgd1na2vs0mg"},{"bike_id":"8df6e310-0880-40a9-a691-cd475dfa3928","system_id":"levelo_inurba_marseille","lat":43.285833,"lon":5.442467,"is_reserved":false,"is_disabled":false,"rental_uris":{"android":"levelo://app?vid=8df6e310-0880-40a9-a691-cd475dfa3928","ios":"levelo://app?vid=8df6e310-0880-40a9-a691-cd475dfa3928"},"vehicle_type_id":"4","last_reported":1746367673,"current_range_meters":6800,"station_id":"","pricing_plan_id":"cebpf4jnsgd1na2vs0mg"},{"bike_id":"fefd08ec-5881-4aed-9781-2a8173dd5fb9","system_id":"levelo_inurba_marseille","lat":43.29427,"lon":5.38236,"is_reserved":false,"is_disabled":false,"rental_uris":{"android":"levelo://app?vid=fefd08ec-5881-4aed-9781-2a8173dd5fb9","ios":"levelo://app?vid=fefd08ec-5881-4aed-9781-2a8173dd5fb9"},"vehicle_type_id":"4","last_reported":1746367673,"current_range_meters":6800,"station_id":"","pricing_plan_id":"cebpf4jnsgd1na2vs0mg"},{"bike_id":"6ae9068b-8534-47e2-832a-cb0e5255371d","system_id":"levelo_inurba_marseille","lat":43.337444,"lon":5.374475,"is_reserved":false,"is_disabled":false,"rental_uris":{"android":"levelo://app?vid=6ae9068b-8534-47e2-832a-cb0e5255371d","ios":"levelo://app?vid=6ae9068b-8534-47e2-832a-cb0e5255371d"},"vehicle_type_id":"4","last_reported":1746367673,"current_range_meters":7200,"station_id":"ce4bgvp2rcd13ifvqct0","pricing_plan_id":"cebpf4jnsgd1na2vs0mg"},{"bike_id":"d9b344ab-f419-4e77-aee3-5bfb4901e40b","system_id":"levelo_inurba_marseille","lat":43.27679,"lon":5.38867,"is_reserved":false,"is_disabled":false,"rental_uris":{"android":"levelo://app?vid=d9b344ab-f419-4e77-aee3-5bfb4901e40b","ios":"levelo://app?vid=d9b344ab-f419-4e77-aee3-5bfb4901e40b"},"vehicle_type_id":"4","last_reported":1746367673,"current_range_meters":7200,"station_id":"ce4bhi12rcd13ifvqfo0","pricing_plan_id":"cebpf4jnsgd1na2vs0mg"},{"bike_id":"0e0be7bc-20e5-424a-89ff-1b6d292738ac","system_id":"levelo_inurba_marseille","lat":43.217555,"lon":5.345908,"is_reserved":false,"is_disabled":false,"rental_uris":{"android":"levelo://app?vid=0e0be7bc-20e5-424a-89ff-1b6d292738ac","ios":"levelo://app?vid=0e0be7bc-20e5-424a-89ff-1b6d292738ac"},"vehicle_type_id":"4","last_reported":1746367673,"current_range_meters":7200,"station_id":"st_cvj6r9ubvosntc0bgbag","pricing_plan_id":"cebpf4jnsgd1na2vs0mg"},{"bike_id":"3ab3c86e-8d2f-4e36-8bad-85bca3eb2e34","system_id":"levelo_inurba_marseille","lat":43.21751,"lon":5.34602,"is_reserved":false,"is_disabled":true,"rental_uris":{"android":"levelo://app?vid=3ab3c86e-8d2f-4e36-8bad-85bca3eb2e34","ios":"levelo://app?vid=3ab3c86e-8d2f-4e36-8bad-85bca3eb2e34"},"vehicle_type_id":"4","last_reported":1746367673,"current_range_meters":7200,"station_id":"","pricing_plan_id":"cebpf4jnsgd1na2vs0mg"},{"bike_id":"7a7cc1a7-1f19-4fe9-92b7-af6741b88a86","system_id":"levelo_inurba_marseille","lat":43.27817,"lon":5.40709,"is_reserved":false,"is_disabled":false,"rental_uris":{"android":"levelo://app?vid=7a7cc1a7-1f19-4fe9-92b7-af6741b88a86","ios":"levelo://app?vid=7a7cc1a7-1f19-4fe9-92b7-af6741b88a86"},"vehicle_type_id":"4","last_reported":1746367673,"current_range_meters":7200,"station_id":"ce4bhnh2rcd13ifvqgtg","pricing_plan_id":"cebpf4jnsgd1na2vs0mg"},{"bike_id":"17cd42e0-f3d6-4b5d-a7a7-aae4daea5f81","system_id":"levelo_inurba_marseille","lat":43.21195,"lon":5.35065,"is_reserved":false,"is_disabled":false,"rental_uris":{"android":"levelo://app?vid=17cd42e0-f3d6-4b5d-a7a7-aae4daea5f81","ios":"levelo://app?vid=17cd42e0-f3d6-4b5d-a7a7-aae4daea5f81"},"vehicle_type_id":"4","last_reported":1746367673,"current_range_meters":7200,"station_id":"","pricing_plan_id":"cebpf4jnsgd1na2vs0mg"},{"bike_id":"9f4674d4-7cdb-4958-9049-02d5f3b52e20","system_id":"levelo_inurba_marseille","lat":43.29896,"lon":5.43638,"is_reserved":false,"is_disabled":false,"rental_uris":{"android":"levelo://app?vid=9f4674d4-7cdb-4958-9049-02d5f3b52e20","ios":"levelo://app?vid=9f4674d4-7cdb-4958-9049-02d5f3b52e20"},"vehicle_type_id":"4","last_reported":1746367673,"current_range_meters":7200,"station_id":"ce4bhpp2rcd13ifvqhfg","pricing_plan_id":"cebpf4jnsgd1na2vs0mg"},{"bike_id":"1374a2b8-8e6c-4118-891e-b7ee0fbc4b19","system_id":"levelo_inurba_marseille","lat":43.32666,"lon":5.40992,"is_reserved":false,"is_disabled":false,"rental_uris":{"android":"levelo://app?vid=1374a2b8-8e6c-4118-891e-b7ee0fbc4b19","ios":"levelo://app?vid=1374a2b8-8e6c-4118-891e-b7ee0fbc4b19"},"vehicle_type_id":"4","last_reported":1746367673,"current_range_meters":8000,"station_id":"ce4bhpp2rcd13ifvqhgg","pricing_plan_id":"cebpf4jnsgd1na2vs0mg"},{"bike_id":"08da7b66-a286-4ac6-98a2-057f3b99d771","system_id":"levelo_inurba_marseille","lat":43.26493,"lon":5.39537,"is_reserved":false,"is_disabled":false,"rental_uris":{"android":"levelo://app?vid=08da7b66-a286-4ac6-98a2-057f3b99d771","ios":"levelo://app?vid=08da7b66-a286-4ac6-98a2-057f3b99d771"},"vehicle_type_id":"4","last_reported":1746367673,"current_range_meters":8000,"station_id":"ce4bhi12rcd13ifvqfq0","pricing_plan_id":"cebpf4jnsgd1na2vs0mg"},{"bike_id":"62014959-218f-4fd1-ad68-abff07e8cdd0","system_id":"levelo_inurba_marseille","lat":43.28615,"lon":5.351,"is_reserved":false,"is_disabled":false,"rental_uris":{"android":"levelo://app?vid=62014959-218f-4fd1-ad68-abff07e8cdd0","ios":"levelo://app?vid=62014959-218f-4fd1-ad68-abff07e8cdd0"},"vehicle_type_id":"4","last_reported":1746367673,"current_range_meters":8000,"station_id":"ce4bhch2rcd13ifvqeug","pricing_plan_id":"cebpf4jnsgd1na2vs0mg"},{"bike_id":"89e30706-e087-4745-aebe-3e9d79c9e07c","system_id":"levelo_inurba_marseille","lat":43.28471,"lon":5.38524,"is_reserved":false,"is_disabled":false,"rental_uris":{"android":"levelo://app?vid=89e30706-e087-4745-aebe-3e9d79c9e07c","ios":"levelo://app?vid=89e30706-e087-4745-aebe-3e9d79c9e07c"},"vehicle_type_id":"4","last_reported":1746367673,"current_range_meters":7200,"station_id":"ce4bh8p2rcd13ifvqeb0","pricing_plan_id":"cebpf4jnsgd1na2vs0mg"},{"bike_id":"0e34a68a-1e7e-4217-99de-5fd03012d1b6","system_id":"levelo_inurba_marseille","lat":43.23966,"lon":5.36629,"is_reserved":false,"is_disabled":false,"rental_uris":{"android":"levelo://app?vid=0e34a68a-1e7e-4217-99de-5fd03012d1b6","ios":"levelo://app?vid=0e34a68a-1e7e-4217-99de-5fd03012d1b6"},"vehicle_type_id":"4","last_reported":1746367673,"current_range_meters":8000,"station_id":"ce4bhi12rcd13ifvqfp0","pricing_plan_id":"cebpf4jnsgd1na2vs0mg"},{"bike_id":"79e87880-d7b6-422a-a0d9-b8fafe80eaae","system_id":"levelo_inurba_marseille","lat":43.31249,"lon":5.38477,"is_reserved":false,"is_disabled":false,"rental_uris":{"android":"levelo://app?vid=79e87880-d7b6-422a-a0d9-b8fafe80eaae","ios":"levelo://app?vid=79e87880-d7b6-422a-a0d9-b8fafe80eaae"},"vehicle_type_id":"4","last_reported":1746367673,"current_range_meters":8000,"station_id":"","pricing_plan_id":"cebpf4jnsgd1na2vs0mg"},{"bike_id":"f0259f55-382d-4317-a5a3-c63365a0d76b","system_id":"levelo_inurba_marseille","lat":43.25533,"lon":5.417962,"is_reserved":false,"is_disabled":false,"rental_uris":{"android":"levelo://app?vid=f0259f55-382d-4317-a5a3-c63365a0d76b","ios":"levelo://app?vid=f0259f55-382d-4317-a5a3-c63365a0d76b"},"vehicle_type_id":"4","last_reported":1746367673,"current_range_meters":8400,"station_id":"","pricing_plan_id":"cebpf4jnsgd1na2vs0mg"},{"bike_id":"fb582505-15b6-40c6-97cc-2feebea7d568","system_id":"levelo_inurba_marseille","lat":43.30416,"lon":5.39757,"is_reserved":false,"is_disabled":true,"rental_uris":{"android":"levelo://app?vid=fb582505-15b6-40c6-97cc-2feebea7d568","ios":"levelo://app?vid=fb582505-15b6-40c6-97cc-2feebea7d568"},"vehicle_type_id":"4","last_reported":1746367673,"current_range_meters":8400,"station_id":"ce4bh092rcd13ifvqd20","pricing_plan_id":"cebpf4jnsgd1na2vs0mg"},{"bike_id":"75fa9943-cbe0-4940-a9be-f80f8dede2da","system_id":"levelo_inurba_marseille","lat":43.22497,"lon":5.34772,"is_reserved":false,"is_disabled":true,"rental_uris":{"android":"levelo://app?vid=75fa9943-cbe0-4940-a9be-f80f8dede2da","ios":"levelo://app?vid=75fa9943-cbe0-4940-a9be-f80f8dede2da"},"vehicle_type_id":"4","last_reported":1746367673,"current_range_meters":8400,"station_id":"st_cvj5dfep6f1abm77gieg","pricing_plan_id":"cebpf4jnsgd1na2vs0mg"},{"bike_id":"59c05668-9a78-4683-b670-a7794c85b3b0","system_id":"levelo_inurba_marseille","lat":43.29364,"lon":5.37854,"is_reserved":false,"is_disabled":true,"rental_uris":{"android":"levelo://app?vid=59c05668-9a78-4683-b670-a7794c85b3b0","ios":"levelo://app?vid=59c05668-9a78-4683-b670-a7794c85b3b0"},"vehicle_type_id":"4","last_reported":1746367673,"current_range_meters":8400,"station_id":"ce4bgjh2rcd13ifvqbf0","pricing_plan_id":"cebpf4jnsgd1na2vs0mg"},{"bike_id":"e9c24f3d-2135-45ef-8f3e-49aaf01d2847","system_id":"levelo_inurba_marseille","lat":43.26221,"lon":5.37521,"is_reserved":false,"is_disabled":true,"rental_uris":{"android":"levelo://app?vid=e9c24f3d-2135-45ef-8f3e-49aaf01d2847","ios":"levelo://app?vid=e9c24f3d-2135-45ef-8f3e-49aaf01d2847"},"vehicle_type_id":"4","last_reported":1746367673,"current_range_meters":8400,"station_id":"","pricing_plan_id":"cebpf4jnsgd1na2vs0mg"},{"bike_id":"4d9c785a-6a14-4f60-8bcb-eb74d56c9262","system_id":"levelo_inurba_marseille","lat":43.27072,"lon":5.4226,"is_reserved":false,"is_disabled":false,"rental_uris":{"android":"levelo://app?vid=4d9c785a-6a14-4f60-8bcb-eb74d56c9262","ios":"levelo://app?vid=4d9c785a-6a14-4f60-8bcb-eb74d56c9262"},"vehicle_type_id":"4","last_reported":1746367673,"current_range_meters":8400,"station_id":"ce4bhk92rcd13ifvqgb0","pricing_plan_id":"cebpf4jnsgd1na2vs0mg"},{"bike_id":"f8689307-63df-4c53-88b7-9c417d292c13","system_id":"levelo_inurba_marseille","lat":43.3266,"lon":5.40979,"is_reserved":false,"is_disabled":false,"rental_uris":{"android":"levelo://app?vid=f8689307-63df-4c53-88b7-9c417d292c13","ios":"levelo://app?vid=f8689307-63df-4c53-88b7-9c417d292c13"},"vehicle_type_id":"4","last_reported":1746367673,"current_range_meters":8400,"station_id":"ce4bhpp2rcd13ifvqhgg","pricing_plan_id":"cebpf4jnsgd1na2vs0mg"},{"bike_id":"16060ec8-b3d6-49af-949c-bf0ebef12e51","system_id":"levelo_inurba_marseille","lat":43.24654,"lon":5.38891,"is_reserved":false,"is_disabled":false,"rental_uris":{"android":"levelo://app?vid=16060ec8-b3d6-49af-949c-bf0ebef12e51","ios":"levelo://app?vid=16060ec8-b3d6-49af-949c-bf0ebef12e51"},"vehicle_type_id":"4","last_reported":1746367673,"current_range_meters":8400,"station_id":"ce4bhg12rcd13ifvqf60","pricing_plan_id":"cebpf4jnsgd1na2vs0mg"},{"bike_id":"0ecfd02f-f853-4362-9dcd-e959b1ad8321","system_id":"levelo_inurba_marseille","lat":43.24177,"lon":5.39733,"is_reserved":false,"is_disabled":false,"rental_uris":{"android":"levelo://app?vid=0ecfd02f-f853-4362-9dcd-e959b1ad8321","ios":"levelo://app?vid=0ecfd02f-f853-4362-9dcd-e959b1ad8321"},"vehicle_type_id":"4","last_reported":1746367673,"current_range_meters":8400,"station_id":"ce4bhn12rcd13ifvqgpg","pricing_plan_id":"cebpf4jnsgd1na2vs0mg"},{"bike_id":"f06c4667-9ef9-4dc2-8fda-8d26a990386f","system_id":"levelo_inurba_marseille","lat":43.28159,"lon":5.42641,"is_reserved":false,"is_disabled":false,"rental_uris":{"android":"levelo://app?vid=f06c4667-9ef9-4dc2-8fda-8d26a990386f","ios":"levelo://app?vid=f06c4667-9ef9-4dc2-8fda-8d26a990386f"},"vehicle_type_id":"4","last_reported":1746367673,"current_range_meters":8400,"station_id":"ce4bhnh2rcd13ifvqgug","pricing_plan_id":"cebpf4jnsgd1na2vs0mg"},{"bike_id":"ec9ebc34-7304-43ff-91bc-57805d8df761","system_id":"levelo_inurba_marseille","lat":43.23965,"lon":5.36626,"is_reserved":false,"is_disabled":false,"rental_uris":{"android":"levelo://app?vid=ec9ebc34-7304-43ff-91bc-57805d8df761","ios":"levelo://app?vid=ec9ebc34-7304-43ff-91bc-57805d8df761"},"vehicle_type_id":"4","last_reported":1746367673,"current_range_meters":8800,"station_id":"ce4bhi12rcd13ifvqfp0","pricing_plan_id":"cebpf4jnsgd1na2vs0mg"},{"bike_id":"6f8dd7c8-5eff-4509-9853-53af8780b6d6","system_id":"levelo_inurba_marseille","lat":43.24552,"lon":5.39521,"is_reserved":false,"is_disabled":false,"rental_uris":{"android":"levelo://app?vid=6f8dd7c8-5eff-4509-9853-53af8780b6d6","ios":"levelo://app?vid=6f8dd7c8-5eff-4509-9853-53af8780b6d6"},"vehicle_type_id":"4","last_reported":1746367673,"current_range_meters":8800,"station_id":"ce4bhlp2rcd13ifvqgjg","pricing_plan_id":"cebpf4jnsgd1na2vs0mg"},{"bike_id":"98fb3f4a-cd09-4ffe-baa3-19fa03216b90","system_id":"levelo_inurba_marseille","lat":43.29584,"lon":5.36738,"is_reserved":false,"is_disabled":false,"rental_uris":{"android":"levelo://app?vid=98fb3f4a-cd09-4ffe-baa3-19fa03216b90","ios":"levelo://app?vid=98fb3f4a-cd09-4ffe-baa3-19fa03216b90"},"vehicle_type_id":"4","last_reported":1746367673,"current_range_meters":8800,"station_id":"ce4bgph2rcd13ifvqc2g","pricing_plan_id":"cebpf4jnsgd1na2vs0mg"},{"bike_id":"7c9f302f-84ec-4062-ae0c-5788a6786ad9","system_id":"levelo_inurba_marseille","lat":43.21748,"lon":5.345929,"is_reserved":false,"is_disabled":false,"rental_uris":{"android":"levelo://app?vid=7c9f302f-84ec-4062-ae0c-5788a6786ad9","ios":"levelo://app?vid=7c9f302f-84ec-4062-ae0c-5788a6786ad9"},"vehicle_type_id":"4","last_reported":1746367673,"current_range_meters":9200,"station_id":"st_cvj6r9ubvosntc0bgbag","pricing_plan_id":"cebpf4jnsgd1na2vs0mg"},{"bike_id":"f031078c-db97-4115-b947-fe22c00121a7","system_id":"levelo_inurba_marseille","lat":43.28338,"lon":5.38104,"is_reserved":false,"is_disabled":false,"rental_uris":{"android":"levelo://app?vid=f031078c-db97-4115-b947-fe22c00121a7","ios":"levelo://app?vid=f031078c-db97-4115-b947-fe22c00121a7"},"vehicle_type_id":"4","last_reported":1746367673,"current_range_meters":9200,"station_id":"ce4bh412rcd13ifvqdr0","pricing_plan_id":"cebpf4jnsgd1na2vs0mg"},{"bike_id":"e4856e11-0139-477e-a022-4b979369719b","system_id":"levelo_inurba_marseille","lat":43.23961,"lon":5.36617,"is_reserved":false,"is_disabled":false,"rental_uris":{"android":"levelo://app?vid=e4856e11-0139-477e-a022-4b979369719b","ios":"levelo://app?vid=e4856e11-0139-477e-a022-4b979369719b"},"vehicle_type_id":"4","last_reported":1746367673,"current_range_meters":9200,"station_id":"ce4bhi12rcd13ifvqfp0","pricing_plan_id":"cebpf4jnsgd1na2vs0mg"},{"bike_id":"149c95b4-f578-461b-97eb-b1c79b5173cd","system_id":"levelo_inurba_marseille","lat":43.29897,"lon":5.3814,"is_reserved":false,"is_disabled":true,"rental_uris":{"android":"levelo://app?vid=149c95b4-f578-461b-97eb-b1c79b5173cd","ios":"levelo://app?vid=149c95b4-f578-461b-97eb-b1c79b5173cd"},"vehicle_type_id":"4","last_reported":1746367673,"current_range_meters":9200,"station_id":"ce4bgj12rcd13ifvqbc0","pricing_plan_id":"cebpf4jnsgd1na2vs0mg"},{"bike_id":"318690bf-8ced-4020-9848-9fa6073e787c","system_id":"levelo_inurba_marseille","lat":43.23186,"lon":5.39987,"is_reserved":false,"is_disabled":false,"rental_uris":{"android":"levelo://app?vid=318690bf-8ced-4020-9848-9fa6073e787c","ios":"levelo://app?vid=318690bf-8ced-4020-9848-9fa6073e787c"},"vehicle_type_id":"4","last_reported":1746367673,"current_range_meters":9200,"station_id":"ce4bhn12rcd13ifvqgqg","pricing_plan_id":"cebpf4jnsgd1na2vs0mg"},{"bike_id":"cd9e986b-5b1d-4861-9c90-b95323103bab","system_id":"levelo_inurba_marseille","lat":43.24808,"lon":5.37457,"is_reserved":false,"is_disabled":false,"rental_uris":{"android":"levelo://app?vid=cd9e986b-5b1d-4861-9c90-b95323103bab","ios":"levelo://app?vid=cd9e986b-5b1d-4861-9c90-b95323103bab"},"vehicle_type_id":"4","last_reported":1746367673,"current_range_meters":9200,"station_id":"ce4bhgh2rcd13ifvqfb0","pricing_plan_id":"cebpf4jnsgd1na2vs0mg"},{"bike_id":"89c5a075-7c7e-4ffe-b42c-f3bda787ff75","system_id":"levelo_inurba_marseille","lat":43.32275,"lon":5.37495,"is_reserved":false,"is_disabled":false,"rental_uris":{"android":"levelo://app?vid=89c5a075-7c7e-4ffe-b42c-f3bda787ff75","ios":"levelo://app?vid=89c5a075-7c7e-4ffe-b42c-f3bda787ff75"},"vehicle_type_id":"4","last_reported":1746367673,"current_range_meters":9200,"station_id":"","pricing_plan_id":"cebpf4jnsgd1na2vs0mg"},{"bike_id":"c7f4afc9-b362-4fd1-922d-bd12cc090763","system_id":"levelo_inurba_marseille","lat":43.24177,"lon":5.39724,"is_reserved":false,"is_disabled":false,"rental_uris":{"android":"levelo://app?vid=c7f4afc9-b362-4fd1-922d-bd12cc090763","ios":"levelo://app?vid=c7f4afc9-b362-4fd1-922d-bd12cc090763"},"vehicle_type_id":"4","last_reported":1746367673,"current_range_meters":9200,"station_id":"ce4bhn12rcd13ifvqgpg","pricing_plan_id":"cebpf4jnsgd1na2vs0mg"},{"bike_id":"fd2c3c67-23a6-4380-b7ca-8f23c8f78921","system_id":"levelo_inurba_marseille","lat":43.323627,"lon":5.367431,"is_reserved":false,"is_disabled":false,"rental_uris":{"android":"levelo://app?vid=fd2c3c67-23a6-4380-b7ca-8f23c8f78921","ios":"levelo://app?vid=fd2c3c67-23a6-4380-b7ca-8f23c8f78921"},"vehicle_type_id":"4","last_reported":1746367673,"current_range_meters":9200,"station_id":"ce4bhsh2rcd13ifvqi2g","pricing_plan_id":"cebpf4jnsgd1na2vs0mg"},{"bike_id":"d55c8237-2304-4efd-993e-dc727f0f1b6a","system_id":"levelo_inurba_marseille","lat":43.225016,"lon":5.347838,"is_reserved":false,"is_disabled":false,"rental_uris":{"android":"levelo://app?vid=d55c8237-2304-4efd-993e-dc727f0f1b6a","ios":"levelo://app?vid=d55c8237-2304-4efd-993e-dc727f0f1b6a"},"vehicle_type_id":"4","last_reported":1746367673,"current_range_meters":9600,"station_id":"st_cvj5dfep6f1abm77gieg","pricing_plan_id":"cebpf4jnsgd1na2vs0mg"},{"bike_id":"1c53114f-12ea-4131-9a1b-7fbb80d9df57","system_id":"levelo_inurba_marseille","lat":43.27065,"lon":5.42271,"is_reserved":false,"is_disabled":false,"rental_uris":{"android":"levelo://app?vid=1c53114f-12ea-4131-9a1b-7fbb80d9df57","ios":"levelo://app?vid=1c53114f-12ea-4131-9a1b-7fbb80d9df57"},"vehicle_type_id":"4","last_reported":1746367673,"current_range_meters":9600,"station_id":"ce4bhk92rcd13ifvqgb0","pricing_plan_id":"cebpf4jnsgd1na2vs0mg"},{"bike_id":"1d59b5c9-cca4-43f9-a7f4-1bb7ebcfb8ae","system_id":"levelo_inurba_marseille","lat":43.27373,"lon":5.362545,"is_reserved":false,"is_disabled":true,"rental_uris":{"android":"levelo://app?vid=1d59b5c9-cca4-43f9-a7f4-1bb7ebcfb8ae","ios":"levelo://app?vid=1d59b5c9-cca4-43f9-a7f4-1bb7ebcfb8ae"},"vehicle_type_id":"4","last_reported":1746367673,"current_range_meters":9600,"station_id":"","pricing_plan_id":"cebpf4jnsgd1na2vs0mg"},{"bike_id":"274ad913-cb5d-44ea-8484-26eae07424ea","system_id":"levelo_inurba_marseille","lat":43.25861,"lon":5.39906,"is_reserved":false,"is_disabled":true,"rental_uris":{"android":"levelo://app?vid=274ad913-cb5d-44ea-8484-26eae07424ea","ios":"levelo://app?vid=274ad913-cb5d-44ea-8484-26eae07424ea"},"vehicle_type_id":"4","last_reported":1746367673,"current_range_meters":9600,"station_id":"ce4bhl92rcd13ifvqghg","pricing_plan_id":"cebpf4jnsgd1na2vs0mg"},{"bike_id":"fc62c047-4c84-42c1-a8a2-be1ad546a053","system_id":"levelo_inurba_marseille","lat":43.2656,"lon":5.37293,"is_reserved":false,"is_disabled":false,"rental_uris":{"android":"levelo://app?vid=fc62c047-4c84-42c1-a8a2-be1ad546a053","ios":"levelo://app?vid=fc62c047-4c84-42c1-a8a2-be1ad546a053"},"vehicle_type_id":"4","last_reported":1746367673,"current_range_meters":9600,"station_id":"ce4bhg12rcd13ifvqf70","pricing_plan_id":"cebpf4jnsgd1na2vs0mg"},{"bike_id":"8dc922b3-66db-43ed-a2c3-47d2d19b7c22","system_id":"levelo_inurba_marseille","lat":43.26943,"lon":5.40239,"is_reserved":false,"is_disabled":false,"rental_uris":{"android":"levelo://app?vid=8dc922b3-66db-43ed-a2c3-47d2d19b7c22","ios":"levelo://app?vid=8dc922b3-66db-43ed-a2c3-47d2d19b7c22"},"vehicle_type_id":"4","last_reported":1746367673,"current_range_meters":9600,"station_id":"cjm6bp8fraef2m0cb0m0","pricing_plan_id":"cebpf4jnsgd1na2vs0mg"},{"bike_id":"6338e318-2f80-4349-ae11-615c887b4fb9","system_id":"levelo_inurba_marseille","lat":43.25938,"lon":5.409,"is_reserved":false,"is_disabled":false,"rental_uris":{"android":"levelo://app?vid=6338e318-2f80-4349-ae11-615c887b4fb9","ios":"levelo://app?vid=6338e318-2f80-4349-ae11-615c887b4fb9"},"vehicle_type_id":"4","last_reported":1746367673,"current_range_meters":9600,"station_id":"ce4bhm92rcd13ifvqglg","pricing_plan_id":"cebpf4jnsgd1na2vs0mg"},{"bike_id":"aedf206f-89f3-4f30-9da6-56fb7ff8915b","system_id":"levelo_inurba_marseille","lat":43.281174,"lon":5.403971,"is_reserved":false,"is_disabled":false,"rental_uris":{"android":"levelo://app?vid=aedf206f-89f3-4f30-9da6-56fb7ff8915b","ios":"levelo://app?vid=aedf206f-89f3-4f30-9da6-56fb7ff8915b"},"vehicle_type_id":"4","last_reported":1746367673,"current_range_meters":10000,"station_id":"","pricing_plan_id":"cebpf4jnsgd1na2vs0mg"},{"bike_id":"4badb9b6-3851-4c8c-a36e-7c02f91ea1d9","system_id":"levelo_inurba_marseille","lat":43.21193,"lon":5.35073,"is_reserved":false,"is_disabled":false,"rental_uris":{"android":"levelo://app?vid=4badb9b6-3851-4c8c-a36e-7c02f91ea1d9","ios":"levelo://app?vid=4badb9b6-3851-4c8c-a36e-7c02f91ea1d9"},"vehicle_type_id":"4","last_reported":1746367673,"current_range_meters":10000,"station_id":"st_cvj6sg6p6f1abm77japg","pricing_plan_id":"cebpf4jnsgd1na2vs0mg"},{"bike_id":"9e91f244-0c92-485e-83f1-f88d6f24b3b6","system_id":"levelo_inurba_marseille","lat":43.324778,"lon":5.365504,"is_reserved":false,"is_disabled":false,"rental_uris":{"android":"levelo://app?vid=9e91f244-0c92-485e-83f1-f88d6f24b3b6","ios":"levelo://app?vid=9e91f244-0c92-485e-83f1-f88d6f24b3b6"},"vehicle_type_id":"4","last_reported":1746367673,"current_range_meters":10000,"station_id":"ce4bhs12rcd13ifvqhvg","pricing_plan_id":"cebpf4jnsgd1na2vs0mg"},{"bike_id":"0397570e-b83d-4017-8742-c3d74b4e8593","system_id":"levelo_inurba_marseille","lat":43.288093,"lon":5.38819,"is_reserved":false,"is_disabled":true,"rental_uris":{"android":"levelo://app?vid=0397570e-b83d-4017-8742-c3d74b4e8593","ios":"levelo://app?vid=0397570e-b83d-4017-8742-c3d74b4e8593"},"vehicle_type_id":"4","last_reported":1746367673,"current_range_meters":10000,"station_id":"","pricing_plan_id":"cebpf4jnsgd1na2vs0mg"},{"bike_id":"a6483b50-8824-440c-82e4-3d40e9e0d7c9","system_id":"levelo_inurba_marseille","lat":43.27376,"lon":5.3625,"is_reserved":false,"is_disabled":false,"rental_uris":{"android":"levelo://app?vid=a6483b50-8824-440c-82e4-3d40e9e0d7c9","ios":"levelo://app?vid=a6483b50-8824-440c-82e4-3d40e9e0d7c9"},"vehicle_type_id":"4","last_reported":1746367673,"current_range_meters":10000,"station_id":"ce4bhbh2rcd13ifvqeo0","pricing_plan_id":"cebpf4jnsgd1na2vs0mg"},{"bike_id":"df2f5817-0f0c-4afd-a55f-019220475156","system_id":"levelo_inurba_marseille","lat":43.23192,"lon":5.3998,"is_reserved":false,"is_disabled":false,"rental_uris":{"android":"levelo://app?vid=df2f5817-0f0c-4afd-a55f-019220475156","ios":"levelo://app?vid=df2f5817-0f0c-4afd-a55f-019220475156"},"vehicle_type_id":"4","last_reported":1746367673,"current_range_meters":10800,"station_id":"ce4bhn12rcd13ifvqgqg","pricing_plan_id":"cebpf4jnsgd1na2vs0mg"},{"bike_id":"c59dd5c1-a195-4870-b3d7-afb523598e23","system_id":"levelo_inurba_marseille","lat":43.308,"lon":5.43524,"is_reserved":false,"is_disabled":false,"rental_uris":{"android":"levelo://app?vid=c59dd5c1-a195-4870-b3d7-afb523598e23","ios":"levelo://app?vid=c59dd5c1-a195-4870-b3d7-afb523598e23"},"vehicle_type_id":"4","last_reported":1746367673,"current_range_meters":10800,"station_id":"ce4bhph2rcd13ifvqheg","pricing_plan_id":"cebpf4jnsgd1na2vs0mg"},{"bike_id":"49f2e8ef-3e8a-4844-b0f1-9077a212950a","system_id":"levelo_inurba_marseille","lat":43.3134,"lon":5.37133,"is_reserved":false,"is_disabled":false,"rental_uris":{"android":"levelo://app?vid=49f2e8ef-3e8a-4844-b0f1-9077a212950a","ios":"levelo://app?vid=49f2e8ef-3e8a-4844-b0f1-9077a212950a"},"vehicle_type_id":"4","last_reported":1746367673,"current_range_meters":11200,"station_id":"","pricing_plan_id":"cebpf4jnsgd1na2vs0mg"},{"bike_id":"b10901bc-afb6-4657-8344-f1f4848ffd7a","system_id":"levelo_inurba_marseille","lat":43.31886,"lon":5.40735,"is_reserved":false,"is_disabled":false,"rental_uris":{"android":"levelo://app?vid=b10901bc-afb6-4657-8344-f1f4848ffd7a","ios":"levelo://app?vid=b10901bc-afb6-4657-8344-f1f4848ffd7a"},"vehicle_type_id":"4","last_reported":1746367673,"current_range_meters":10800,"station_id":"ce4bhq12rcd13ifvqhig","pricing_plan_id":"cebpf4jnsgd1na2vs0mg"},{"bike_id":"d85baee2-56e2-4eac-a606-1f2e4fcd404a","system_id":"levelo_inurba_marseille","lat":43.29535,"lon":5.38536,"is_reserved":false,"is_disabled":false,"rental_uris":{"android":"levelo://app?vid=d85baee2-56e2-4eac-a606-1f2e4fcd404a","ios":"levelo://app?vid=d85baee2-56e2-4eac-a606-1f2e4fcd404a"},"vehicle_type_id":"4","last_reported":1746367673,"current_range_meters":10800,"station_id":"ce4bgih2rcd13ifvqba0","pricing_plan_id":"cebpf4jnsgd1na2vs0mg"},{"bike_id":"77e5fc0c-8247-4eae-976e-b65c5c479c47","system_id":"levelo_inurba_marseille","lat":43.24373,"lon":5.3709,"is_reserved":false,"is_disabled":false,"rental_uris":{"android":"levelo://app?vid=77e5fc0c-8247-4eae-976e-b65c5c479c47","ios":"levelo://app?vid=77e5fc0c-8247-4eae-976e-b65c5c479c47"},"vehicle_type_id":"4","last_reported":1746367673,"current_range_meters":10800,"station_id":"ce4bhhh2rcd13ifvqfk0","pricing_plan_id":"cebpf4jnsgd1na2vs0mg"},{"bike_id":"67581e18-04b6-4896-80f8-3350fcb149c5","system_id":"levelo_inurba_marseille","lat":43.231455,"lon":5.437123,"is_reserved":false,"is_disabled":false,"rental_uris":{"android":"levelo://app?vid=67581e18-04b6-4896-80f8-3350fcb149c5","ios":"levelo://app?vid=67581e18-04b6-4896-80f8-3350fcb149c5"},"vehicle_type_id":"4","last_reported":1746367673,"current_range_meters":10800,"station_id":"ce4bhmp2rcd13ifvqgog","pricing_plan_id":"cebpf4jnsgd1na2vs0mg"},{"bike_id":"2ca7e5d2-f4a6-48bc-8c06-76ef7156ed2e","system_id":"levelo_inurba_marseille","lat":43.24176,"lon":5.39731,"is_reserved":false,"is_disabled":false,"rental_uris":{"android":"levelo://app?vid=2ca7e5d2-f4a6-48bc-8c06-76ef7156ed2e","ios":"levelo://app?vid=2ca7e5d2-f4a6-48bc-8c06-76ef7156ed2e"},"vehicle_type_id":"4","last_reported":1746367673,"current_range_meters":11200,"station_id":"ce4bhn12rcd13ifvqgpg","pricing_plan_id":"cebpf4jnsgd1na2vs0mg"},{"bike_id":"05b2a6ca-2e23-4a43-bcaa-c7d1566843ca","system_id":"levelo_inurba_marseille","lat":43.28857,"lon":5.35869,"is_reserved":false,"is_disabled":false,"rental_uris":{"android":"levelo://app?vid=05b2a6ca-2e23-4a43-bcaa-c7d1566843ca","ios":"levelo://app?vid=05b2a6ca-2e23-4a43-bcaa-c7d1566843ca"},"vehicle_type_id":"4","last_reported":1746367673,"current_range_meters":10800,"station_id":"ce4bhb12rcd13ifvqem0","pricing_plan_id":"cebpf4jnsgd1na2vs0mg"},{"bike_id":"8d1238eb-d8aa-4484-ad81-049553be8deb","system_id":"levelo_inurba_marseille","lat":43.29533,"lon":5.38546,"is_reserved":false,"is_disabled":false,"rental_uris":{"android":"levelo://app?vid=8d1238eb-d8aa-4484-ad81-049553be8deb","ios":"levelo://app?vid=8d1238eb-d8aa-4484-ad81-049553be8deb"},"vehicle_type_id":"4","last_reported":1746367673,"current_range_meters":11200,"station_id":"ce4bgih2rcd13ifvqba0","pricing_plan_id":"cebpf4jnsgd1na2vs0mg"},{"bike_id":"6fd06cc5-ce7d-4c83-8ddd-2f642519ff05","system_id":"levelo_inurba_marseille","lat":43.31485,"lon":5.37302,"is_reserved":false,"is_disabled":false,"rental_uris":{"android":"levelo://app?vid=6fd06cc5-ce7d-4c83-8ddd-2f642519ff05","ios":"levelo://app?vid=6fd06cc5-ce7d-4c83-8ddd-2f642519ff05"},"vehicle_type_id":"4","last_reported":1746367673,"current_range_meters":11200,"station_id":"ce4bgt12rcd13ifvqcd0","pricing_plan_id":"cebpf4jnsgd1na2vs0mg"},{"bike_id":"420047dd-603e-4409-8222-146e83355b6f","system_id":"levelo_inurba_marseille","lat":43.29533,"lon":5.38551,"is_reserved":false,"is_disabled":false,"rental_uris":{"android":"levelo://app?vid=420047dd-603e-4409-8222-146e83355b6f","ios":"levelo://app?vid=420047dd-603e-4409-8222-146e83355b6f"},"vehicle_type_id":"4","last_reported":1746367673,"current_range_meters":11200,"station_id":"ce4bgih2rcd13ifvqba0","pricing_plan_id":"cebpf4jnsgd1na2vs0mg"},{"bike_id":"c041e647-a532-4271-ab4c-b8d07e0d410f","system_id":"levelo_inurba_marseille","lat":43.24546,"lon":5.39521,"is_reserved":false,"is_disabled":false,"rental_uris":{"android":"levelo://app?vid=c041e647-a532-4271-ab4c-b8d07e0d410f","ios":"levelo://app?vid=c041e647-a532-4271-ab4c-b8d07e0d410f"},"vehicle_type_id":"4","last_reported":1746367673,"current_range_meters":11600,"station_id":"ce4bhlp2rcd13ifvqgjg","pricing_plan_id":"cebpf4jnsgd1na2vs0mg"},{"bike_id":"2ec474b7-88fb-4700-88a8-f8774e7299a9","system_id":"levelo_inurba_marseille","lat":43.30155,"lon":5.38082,"is_reserved":false,"is_disabled":false,"rental_uris":{"android":"levelo://app?vid=2ec474b7-88fb-4700-88a8-f8774e7299a9","ios":"levelo://app?vid=2ec474b7-88fb-4700-88a8-f8774e7299a9"},"vehicle_type_id":"4","last_reported":1746367673,"current_range_meters":11600,"station_id":"ce4bgjp2rcd13ifvqbh0","pricing_plan_id":"cebpf4jnsgd1na2vs0mg"},{"bike_id":"714e98d9-fda7-4090-9bc5-f4942e7b5c43","system_id":"levelo_inurba_marseille","lat":43.28365,"lon":5.38098,"is_reserved":false,"is_disabled":false,"rental_uris":{"android":"levelo://app?vid=714e98d9-fda7-4090-9bc5-f4942e7b5c43","ios":"levelo://app?vid=714e98d9-fda7-4090-9bc5-f4942e7b5c43"},"vehicle_type_id":"4","last_reported":1746367673,"current_range_meters":12000,"station_id":"ce4bh412rcd13ifvqdr0","pricing_plan_id":"cebpf4jnsgd1na2vs0mg"},{"bike_id":"9193a959-2f4e-47ad-99c5-4cf817f26ef5","system_id":"levelo_inurba_marseille","lat":43.284327,"lon":5.357156,"is_reserved":false,"is_disabled":false,"rental_uris":{"android":"levelo://app?vid=9193a959-2f4e-47ad-99c5-4cf817f26ef5","ios":"levelo://app?vid=9193a959-2f4e-47ad-99c5-4cf817f26ef5"},"vehicle_type_id":"4","last_reported":1746367673,"current_range_meters":12000,"station_id":"ce4bhah2rcd13ifvqei0","pricing_plan_id":"cebpf4jnsgd1na2vs0mg"},{"bike_id":"b51e8583-0fb2-49ca-9c11-9dbce28dfa5d","system_id":"levelo_inurba_marseille","lat":43.23192,"lon":5.3555,"is_reserved":false,"is_disabled":false,"rental_uris":{"android":"levelo://app?vid=b51e8583-0fb2-49ca-9c11-9dbce28dfa5d","ios":"levelo://app?vid=b51e8583-0fb2-49ca-9c11-9dbce28dfa5d"},"vehicle_type_id":"4","last_reported":1746367673,"current_range_meters":12000,"station_id":"ce4bhu92rcd13ifvqi70","pricing_plan_id":"cebpf4jnsgd1na2vs0mg"},{"bike_id":"20524970-0893-427f-acc3-713762ea747e","system_id":"levelo_inurba_marseille","lat":43.309487,"lon":5.390316,"is_reserved":false,"is_disabled":false,"rental_uris":{"android":"levelo://app?vid=20524970-0893-427f-acc3-713762ea747e","ios":"levelo://app?vid=20524970-0893-427f-acc3-713762ea747e"},"vehicle_type_id":"4","last_reported":1746367673,"current_range_meters":12000,"station_id":"ce4bhs12rcd13ifvqhvg","pricing_plan_id":"cebpf4jnsgd1na2vs0mg"},{"bike_id":"aafdb1b0-0003-4d37-8806-51070b05306d","system_id":"levelo_inurba_marseille","lat":43.2579,"lon":5.41127,"is_reserved":false,"is_disabled":false,"rental_uris":{"android":"levelo://app?vid=aafdb1b0-0003-4d37-8806-51070b05306d","ios":"levelo://app?vid=aafdb1b0-0003-4d37-8806-51070b05306d"},"vehicle_type_id":"4","last_reported":1746367673,"current_range_meters":12000,"station_id":"ce4bhkp2rcd13ifvqgd0","pricing_plan_id":"cebpf4jnsgd1na2vs0mg"},{"bike_id":"f28f6892-6b8e-4bb4-bd97-24bcbf7f6f01","system_id":"levelo_inurba_marseille","lat":43.23189,"lon":5.3999,"is_reserved":false,"is_disabled":false,"rental_uris":{"android":"levelo://app?vid=f28f6892-6b8e-4bb4-bd97-24bcbf7f6f01","ios":"levelo://app?vid=f28f6892-6b8e-4bb4-bd97-24bcbf7f6f01"},"vehicle_type_id":"4","last_reported":1746367673,"current_range_meters":12400,"station_id":"ce4bhn12rcd13ifvqgqg","pricing_plan_id":"cebpf4jnsgd1na2vs0mg"},{"bike_id":"95771af0-084f-4372-8f5d-96d735aead6f","system_id":"levelo_inurba_marseille","lat":43.23181,"lon":5.39996,"is_reserved":false,"is_disabled":false,"rental_uris":{"android":"levelo://app?vid=95771af0-084f-4372-8f5d-96d735aead6f","ios":"levelo://app?vid=95771af0-084f-4372-8f5d-96d735aead6f"},"vehicle_type_id":"4","last_reported":1746367673,"current_range_meters":12400,"station_id":"ce4bhn12rcd13ifvqgqg","pricing_plan_id":"cebpf4jnsgd1na2vs0mg"},{"bike_id":"d0538729-fc08-4541-9ecd-c2853cca5675","system_id":"levelo_inurba_marseille","lat":43.312897,"lon":5.401747,"is_reserved":false,"is_disabled":false,"rental_uris":{"android":"levelo://app?vid=d0538729-fc08-4541-9ecd-c2853cca5675","ios":"levelo://app?vid=d0538729-fc08-4541-9ecd-c2853cca5675"},"vehicle_type_id":"4","last_reported":1746367673,"current_range_meters":12400,"station_id":"ce4bh092rcd13ifvqd30","pricing_plan_id":"cebpf4jnsgd1na2vs0mg"},{"bike_id":"2baabb6d-cf39-4dc3-92fb-ec10701f4074","system_id":"levelo_inurba_marseille","lat":43.29367,"lon":5.37836,"is_reserved":false,"is_disabled":false,"rental_uris":{"android":"levelo://app?vid=2baabb6d-cf39-4dc3-92fb-ec10701f4074","ios":"levelo://app?vid=2baabb6d-cf39-4dc3-92fb-ec10701f4074"},"vehicle_type_id":"4","last_reported":1746367673,"current_range_meters":12800,"station_id":"ce4bgjh2rcd13ifvqbf0","pricing_plan_id":"cebpf4jnsgd1na2vs0mg"},{"bike_id":"3d23eb4f-bfd9-431a-a64b-c0d9b178bf50","system_id":"levelo_inurba_marseille","lat":43.28617,"lon":5.35104,"is_reserved":false,"is_disabled":false,"rental_uris":{"android":"levelo://app?vid=3d23eb4f-bfd9-431a-a64b-c0d9b178bf50","ios":"levelo://app?vid=3d23eb4f-bfd9-431a-a64b-c0d9b178bf50"},"vehicle_type_id":"4","last_reported":1746367673,"current_range_meters":13600,"station_id":"ce4bhch2rcd13ifvqeug","pricing_plan_id":"cebpf4jnsgd1na2vs0mg"},{"bike_id":"9fe9bd0f-cc82-4638-977c-304b3c515735","system_id":"levelo_inurba_marseille","lat":43.26683,"lon":5.38266,"is_reserved":false,"is_disabled":false,"rental_uris":{"android":"levelo://app?vid=9fe9bd0f-cc82-4638-977c-304b3c515735","ios":"levelo://app?vid=9fe9bd0f-cc82-4638-977c-304b3c515735"},"vehicle_type_id":"4","last_reported":1746367673,"current_range_meters":13600,"station_id":"ce4bhg92rcd13ifvqf90","pricing_plan_id":"cebpf4jnsgd1na2vs0mg"},{"bike_id":"28e611f2-6a6b-4b91-b50d-de03e92a87cc","system_id":"levelo_inurba_marseille","lat":43.28416,"lon":5.349927,"is_reserved":false,"is_disabled":false,"rental_uris":{"android":"levelo://app?vid=28e611f2-6a6b-4b91-b50d-de03e92a87cc","ios":"levelo://app?vid=28e611f2-6a6b-4b91-b50d-de03e92a87cc"},"vehicle_type_id":"4","last_reported":1746367673,"current_range_meters":13600,"station_id":"ce4bhbh2rcd13ifvqepg","pricing_plan_id":"cebpf4jnsgd1na2vs0mg"},{"bike_id":"8f1c4960-3b0a-4000-b9c6-b81e6accc839","system_id":"levelo_inurba_marseille","lat":43.28466,"lon":5.35885,"is_reserved":false,"is_disabled":false,"rental_uris":{"android":"levelo://app?vid=8f1c4960-3b0a-4000-b9c6-b81e6accc839","ios":"levelo://app?vid=8f1c4960-3b0a-4000-b9c6-b81e6accc839"},"vehicle_type_id":"4","last_reported":1746367673,"current_range_meters":13600,"station_id":"ce4bhah2rcd13ifvqei0","pricing_plan_id":"cebpf4jnsgd1na2vs0mg"},{"bike_id":"125ca05d-5a4c-4327-ae64-e200198cedf3","system_id":"levelo_inurba_marseille","lat":43.29555,"lon":5.42292,"is_reserved":false,"is_disabled":false,"rental_uris":{"android":"levelo://app?vid=125ca05d-5a4c-4327-ae64-e200198cedf3","ios":"levelo://app?vid=125ca05d-5a4c-4327-ae64-e200198cedf3"},"vehicle_type_id":"4","last_reported":1746367673,"current_range_meters":14000,"station_id":"ce4bhph2rcd13ifvqhdg","pricing_plan_id":"cebpf4jnsgd1na2vs0mg"},{"bike_id":"e27ce41e-d31e-4411-a762-387f29d91877","system_id":"levelo_inurba_marseille","lat":43.29553,"lon":5.42274,"is_reserved":false,"is_disabled":false,"rental_uris":{"android":"levelo://app?vid=e27ce41e-d31e-4411-a762-387f29d91877","ios":"levelo://app?vid=e27ce41e-d31e-4411-a762-387f29d91877"},"vehicle_type_id":"4","last_reported":1746367673,"current_range_meters":14000,"station_id":"ce4bhph2rcd13ifvqhdg","pricing_plan_id":"cebpf4jnsgd1na2vs0mg"},{"bike_id":"10efd719-cccf-4adf-b1ef-369dc516a6da","system_id":"levelo_inurba_marseille","lat":43.23186,"lon":5.39984,"is_reserved":false,"is_disabled":false,"rental_uris":{"android":"levelo://app?vid=10efd719-cccf-4adf-b1ef-369dc516a6da","ios":"levelo://app?vid=10efd719-cccf-4adf-b1ef-369dc516a6da"},"vehicle_type_id":"4","last_reported":1746367673,"current_range_meters":13600,"station_id":"ce4bhn12rcd13ifvqgqg","pricing_plan_id":"cebpf4jnsgd1na2vs0mg"},{"bike_id":"fb80c1da-d845-467b-9c3b-2f591f4d56ae","system_id":"levelo_inurba_marseille","lat":43.323406,"lon":5.37422,"is_reserved":false,"is_disabled":false,"rental_uris":{"android":"levelo://app?vid=fb80c1da-d845-467b-9c3b-2f591f4d56ae","ios":"levelo://app?vid=fb80c1da-d845-467b-9c3b-2f591f4d56ae"},"vehicle_type_id":"4","last_reported":1746367673,"current_range_meters":14400,"station_id":"","pricing_plan_id":"cebpf4jnsgd1na2vs0mg"},{"bike_id":"ffc9295a-c8de-4abf-a419-3f95ebf3b246","system_id":"levelo_inurba_marseille","lat":43.31768,"lon":5.39012,"is_reserved":false,"is_disabled":false,"rental_uris":{"android":"levelo://app?vid=ffc9295a-c8de-4abf-a419-3f95ebf3b246","ios":"levelo://app?vid=ffc9295a-c8de-4abf-a419-3f95ebf3b246"},"vehicle_type_id":"4","last_reported":1746367673,"current_range_meters":14400,"station_id":"ce4bhqp2rcd13ifvqhng","pricing_plan_id":"cebpf4jnsgd1na2vs0mg"},{"bike_id":"e84eee43-7ebe-4b56-a08b-27d6e58561fd","system_id":"levelo_inurba_marseille","lat":43.241767,"lon":5.397224,"is_reserved":false,"is_disabled":false,"rental_uris":{"android":"levelo://app?vid=e84eee43-7ebe-4b56-a08b-27d6e58561fd","ios":"levelo://app?vid=e84eee43-7ebe-4b56-a08b-27d6e58561fd"},"vehicle_type_id":"4","last_reported":1746367673,"current_range_meters":14400,"station_id":"ce4bhn12rcd13ifvqgpg","pricing_plan_id":"cebpf4jnsgd1na2vs0mg"},{"bike_id":"fdef9e55-be0f-41e0-8526-8e8fa7260880","system_id":"levelo_inurba_marseille","lat":43.31278,"lon":5.37411,"is_reserved":false,"is_disabled":false,"rental_uris":{"android":"levelo://app?vid=fdef9e55-be0f-41e0-8526-8e8fa7260880","ios":"levelo://app?vid=fdef9e55-be0f-41e0-8526-8e8fa7260880"},"vehicle_type_id":"4","last_reported":1746367673,"current_range_meters":14800,"station_id":"","pricing_plan_id":"cebpf4jnsgd1na2vs0mg"},{"bike_id":"2fe87682-0508-478f-81b5-46cd5aa3a7b8","system_id":"levelo_inurba_marseille","lat":43.26571,"lon":5.39038,"is_reserved":false,"is_disabled":false,"rental_uris":{"android":"levelo://app?vid=2fe87682-0508-478f-81b5-46cd5aa3a7b8","ios":"levelo://app?vid=2fe87682-0508-478f-81b5-46cd5aa3a7b8"},"vehicle_type_id":"4","last_reported":1746367673,"current_range_meters":14800,"station_id":"ce4bhe12rcd13ifvqf30","pricing_plan_id":"cebpf4jnsgd1na2vs0mg"},{"bike_id":"9ebef22b-5dc5-41f4-b80e-25f01b74505b","system_id":"levelo_inurba_marseille","lat":43.30374,"lon":5.424793,"is_reserved":false,"is_disabled":false,"rental_uris":{"android":"levelo://app?vid=9ebef22b-5dc5-41f4-b80e-25f01b74505b","ios":"levelo://app?vid=9ebef22b-5dc5-41f4-b80e-25f01b74505b"},"vehicle_type_id":"4","last_reported":1746367673,"current_range_meters":14800,"station_id":"ce4bhoh2rcd13ifvqh6g","pricing_plan_id":"cebpf4jnsgd1na2vs0mg"},{"bike_id":"43f220ab-0408-46b3-abe5-60437ce3bc1e","system_id":"levelo_inurba_marseille","lat":43.231879,"lon":5.355601,"is_reserved":false,"is_disabled":false,"rental_uris":{"android":"levelo://app?vid=43f220ab-0408-46b3-abe5-60437ce3bc1e","ios":"levelo://app?vid=43f220ab-0408-46b3-abe5-60437ce3bc1e"},"vehicle_type_id":"4","last_reported":1746367673,"current_range_meters":15200,"station_id":"ce4bhu92rcd13ifvqi70","pricing_plan_id":"cebpf4jnsgd1na2vs0mg"},{"bike_id":"fa08ded7-bdc6-4467-9e95-4e711b489ed8","system_id":"levelo_inurba_marseille","lat":43.29372,"lon":5.37834,"is_reserved":false,"is_disabled":false,"rental_uris":{"android":"levelo://app?vid=fa08ded7-bdc6-4467-9e95-4e711b489ed8","ios":"levelo://app?vid=fa08ded7-bdc6-4467-9e95-4e711b489ed8"},"vehicle_type_id":"4","last_reported":1746367673,"current_range_meters":15200,"station_id":"ce4bgjh2rcd13ifvqbf0","pricing_plan_id":"cebpf4jnsgd1na2vs0mg"},{"bike_id":"64d6bf21-2f84-4f32-aecd-a463b5259e3e","system_id":"levelo_inurba_marseille","lat":43.21742,"lon":5.34601,"is_reserved":false,"is_disabled":false,"rental_uris":{"android":"levelo://app?vid=64d6bf21-2f84-4f32-aecd-a463b5259e3e","ios":"levelo://app?vid=64d6bf21-2f84-4f32-aecd-a463b5259e3e"},"vehicle_type_id":"4","last_reported":1746367673,"current_range_meters":16000,"station_id":"st_cvj6r9ubvosntc0bgbag","pricing_plan_id":"cebpf4jnsgd1na2vs0mg"},{"bike_id":"9c9a7491-1b73-44f8-bd52-1e33e6355303","system_id":"levelo_inurba_marseille","lat":43.265267,"lon":5.39543,"is_reserved":false,"is_disabled":false,"rental_uris":{"android":"levelo://app?vid=9c9a7491-1b73-44f8-bd52-1e33e6355303","ios":"levelo://app?vid=9c9a7491-1b73-44f8-bd52-1e33e6355303"},"vehicle_type_id":"4","last_reported":1746367673,"current_range_meters":15200,"station_id":"ce4bhi12rcd13ifvqfq0","pricing_plan_id":"cebpf4jnsgd1na2vs0mg"},{"bike_id":"9fb5b261-9f67-4c82-8ebf-4a121db87662","system_id":"levelo_inurba_marseille","lat":43.25865,"lon":5.39901,"is_reserved":false,"is_disabled":false,"rental_uris":{"android":"levelo://app?vid=9fb5b261-9f67-4c82-8ebf-4a121db87662","ios":"levelo://app?vid=9fb5b261-9f67-4c82-8ebf-4a121db87662"},"vehicle_type_id":"4","last_reported":1746367673,"current_range_meters":16000,"station_id":"ce4bhl92rcd13ifvqghg","pricing_plan_id":"cebpf4jnsgd1na2vs0mg"},{"bike_id":"d94ace2f-a694-4d2b-9fa0-6d215239b455","system_id":"levelo_inurba_marseille","lat":43.243874,"lon":5.370722,"is_reserved":false,"is_disabled":false,"rental_uris":{"android":"levelo://app?vid=d94ace2f-a694-4d2b-9fa0-6d215239b455","ios":"levelo://app?vid=d94ace2f-a694-4d2b-9fa0-6d215239b455"},"vehicle_type_id":"4","last_reported":1746367673,"current_range_meters":16000,"station_id":"ce4bhhh2rcd13ifvqfk0","pricing_plan_id":"cebpf4jnsgd1na2vs0mg"},{"bike_id":"f07cfc50-1350-4568-9581-0845ede0b590","system_id":"levelo_inurba_marseille","lat":43.27059,"lon":5.42272,"is_reserved":false,"is_disabled":false,"rental_uris":{"android":"levelo://app?vid=f07cfc50-1350-4568-9581-0845ede0b590","ios":"levelo://app?vid=f07cfc50-1350-4568-9581-0845ede0b590"},"vehicle_type_id":"4","last_reported":1746367673,"current_range_meters":16000,"station_id":"ce4bhk92rcd13ifvqgb0","pricing_plan_id":"cebpf4jnsgd1na2vs0mg"},{"bike_id":"870e4371-b534-4d0f-a944-61025bb96ed4","system_id":"levelo_inurba_marseille","lat":43.29215,"lon":5.36067,"is_reserved":false,"is_disabled":false,"rental_uris":{"android":"levelo://app?vid=870e4371-b534-4d0f-a944-61025bb96ed4","ios":"levelo://app?vid=870e4371-b534-4d0f-a944-61025bb96ed4"},"vehicle_type_id":"4","last_reported":1746367673,"current_range_meters":16400,"station_id":"ce4bhbh2rcd13ifvqeqg","pricing_plan_id":"cebpf4jnsgd1na2vs0mg"},{"bike_id":"150de57d-b375-4979-bc4e-8e850e6e9426","system_id":"levelo_inurba_marseille","lat":43.25037,"lon":5.38932,"is_reserved":false,"is_disabled":false,"rental_uris":{"android":"levelo://app?vid=150de57d-b375-4979-bc4e-8e850e6e9426","ios":"levelo://app?vid=150de57d-b375-4979-bc4e-8e850e6e9426"},"vehicle_type_id":"4","last_reported":1746367673,"current_range_meters":16000,"station_id":"ce4bhgp2rcd13ifvqfd0","pricing_plan_id":"cebpf4jnsgd1na2vs0mg"},{"bike_id":"4f86003a-4bda-480f-becc-b4f53e6e3826","system_id":"levelo_inurba_marseille","lat":43.24543,"lon":5.39517,"is_reserved":false,"is_disabled":false,"rental_uris":{"android":"levelo://app?vid=4f86003a-4bda-480f-becc-b4f53e6e3826","ios":"levelo://app?vid=4f86003a-4bda-480f-becc-b4f53e6e3826"},"vehicle_type_id":"4","last_reported":1746367673,"current_range_meters":16400,"station_id":"ce4bhlp2rcd13ifvqgjg","pricing_plan_id":"cebpf4jnsgd1na2vs0mg"},{"bike_id":"578732df-51ae-47a2-8d9a-a3a489ba150f","system_id":"levelo_inurba_marseille","lat":43.29552,"lon":5.4228,"is_reserved":false,"is_disabled":true,"rental_uris":{"android":"levelo://app?vid=578732df-51ae-47a2-8d9a-a3a489ba150f","ios":"levelo://app?vid=578732df-51ae-47a2-8d9a-a3a489ba150f"},"vehicle_type_id":"4","last_reported":1746367673,"current_range_meters":16400,"station_id":"ce4bhph2rcd13ifvqhdg","pricing_plan_id":"cebpf4jnsgd1na2vs0mg"},{"bike_id":"c934a038-999c-4097-b244-e68883d621e3","system_id":"levelo_inurba_marseille","lat":43.3055,"lon":5.36545,"is_reserved":false,"is_disabled":true,"rental_uris":{"android":"levelo://app?vid=c934a038-999c-4097-b244-e68883d621e3","ios":"levelo://app?vid=c934a038-999c-4097-b244-e68883d621e3"},"vehicle_type_id":"4","last_reported":1746367673,"current_range_meters":16400,"station_id":"ce4bgs12rcd13ifvqcag","pricing_plan_id":"cebpf4jnsgd1na2vs0mg"},{"bike_id":"eff38ccf-5e16-4eb4-9043-c351cf58a0b0","system_id":"levelo_inurba_marseille","lat":43.26064,"lon":5.39394,"is_reserved":false,"is_disabled":false,"rental_uris":{"android":"levelo://app?vid=eff38ccf-5e16-4eb4-9043-c351cf58a0b0","ios":"levelo://app?vid=eff38ccf-5e16-4eb4-9043-c351cf58a0b0"},"vehicle_type_id":"4","last_reported":1746367673,"current_range_meters":16400,"station_id":"ce4bhh92rcd13ifvqfj0","pricing_plan_id":"cebpf4jnsgd1na2vs0mg"},{"bike_id":"a2d2ad2a-a30c-401a-82e6-519c3d59db74","system_id":"levelo_inurba_marseille","lat":43.27379,"lon":5.36257,"is_reserved":false,"is_disabled":false,"rental_uris":{"android":"levelo://app?vid=a2d2ad2a-a30c-401a-82e6-519c3d59db74","ios":"levelo://app?vid=a2d2ad2a-a30c-401a-82e6-519c3d59db74"},"vehicle_type_id":"4","last_reported":1746367673,"current_range_meters":16800,"station_id":"ce4bhbh2rcd13ifvqeo0","pricing_plan_id":"cebpf4jnsgd1na2vs0mg"},{"bike_id":"0abe7365-362a-4c2d-949a-e32faf9d4099","system_id":"levelo_inurba_marseille","lat":43.21223,"lon":5.35076,"is_reserved":false,"is_disabled":false,"rental_uris":{"android":"levelo://app?vid=0abe7365-362a-4c2d-949a-e32faf9d4099","ios":"levelo://app?vid=0abe7365-362a-4c2d-949a-e32faf9d4099"},"vehicle_type_id":"4","last_reported":1746367673,"current_range_meters":16800,"station_id":"st_cvj6sg6p6f1abm77japg","pricing_plan_id":"cebpf4jnsgd1na2vs0mg"},{"bike_id":"6456d0d0-24b9-4723-b8ff-64d9ce1dbccd","system_id":"levelo_inurba_marseille","lat":43.24545,"lon":5.39521,"is_reserved":false,"is_disabled":false,"rental_uris":{"android":"levelo://app?vid=6456d0d0-24b9-4723-b8ff-64d9ce1dbccd","ios":"levelo://app?vid=6456d0d0-24b9-4723-b8ff-64d9ce1dbccd"},"vehicle_type_id":"4","last_reported":1746367673,"current_range_meters":16800,"station_id":"ce4bhlp2rcd13ifvqgjg","pricing_plan_id":"cebpf4jnsgd1na2vs0mg"},{"bike_id":"e88d1269-b4a9-4cee-9830-e3c81b8f69d5","system_id":"levelo_inurba_marseille","lat":43.28451,"lon":5.39203,"is_reserved":false,"is_disabled":false,"rental_uris":{"android":"levelo://app?vid=e88d1269-b4a9-4cee-9830-e3c81b8f69d5","ios":"levelo://app?vid=e88d1269-b4a9-4cee-9830-e3c81b8f69d5"},"vehicle_type_id":"4","last_reported":1746367673,"current_range_meters":17200,"station_id":"ce4bhoh2rcd13ifvqh5g","pricing_plan_id":"cebpf4jnsgd1na2vs0mg"},{"bike_id":"ce8e560e-1e4b-4351-82ce-88820496d36a","system_id":"levelo_inurba_marseille","lat":43.26561,"lon":5.39011,"is_reserved":false,"is_disabled":false,"rental_uris":{"android":"levelo://app?vid=ce8e560e-1e4b-4351-82ce-88820496d36a","ios":"levelo://app?vid=ce8e560e-1e4b-4351-82ce-88820496d36a"},"vehicle_type_id":"4","last_reported":1746367673,"current_range_meters":17200,"station_id":"ce4bhe12rcd13ifvqf30","pricing_plan_id":"cebpf4jnsgd1na2vs0mg"},{"bike_id":"422cf72a-b94e-4299-95f8-0897502daa93","system_id":"levelo_inurba_marseille","lat":43.31288,"lon":5.40165,"is_reserved":false,"is_disabled":false,"rental_uris":{"android":"levelo://app?vid=422cf72a-b94e-4299-95f8-0897502daa93","ios":"levelo://app?vid=422cf72a-b94e-4299-95f8-0897502daa93"},"vehicle_type_id":"4","last_reported":1746367673,"current_range_meters":16800,"station_id":"ce4bh092rcd13ifvqd30","pricing_plan_id":"cebpf4jnsgd1na2vs0mg"},{"bike_id":"e92fce78-c3e5-4ede-a030-8b47fd93206e","system_id":"levelo_inurba_marseille","lat":43.28416,"lon":5.34985,"is_reserved":false,"is_disabled":false,"rental_uris":{"android":"levelo://app?vid=e92fce78-c3e5-4ede-a030-8b47fd93206e","ios":"levelo://app?vid=e92fce78-c3e5-4ede-a030-8b47fd93206e"},"vehicle_type_id":"4","last_reported":1746367673,"current_range_meters":17200,"station_id":"ce4bhbh2rcd13ifvqepg","pricing_plan_id":"cebpf4jnsgd1na2vs0mg"},{"bike_id":"ca11cd51-d2cd-4069-888b-894bb0ced97e","system_id":"levelo_inurba_marseille","lat":43.2955,"lon":5.42271,"is_reserved":false,"is_disabled":false,"rental_uris":{"android":"levelo://app?vid=ca11cd51-d2cd-4069-888b-894bb0ced97e","ios":"levelo://app?vid=ca11cd51-d2cd-4069-888b-894bb0ced97e"},"vehicle_type_id":"4","last_reported":1746367673,"current_range_meters":17200,"station_id":"ce4bhph2rcd13ifvqhdg","pricing_plan_id":"cebpf4jnsgd1na2vs0mg"},{"bike_id":"cb0a7ff5-b4ff-4d3e-8306-c149ade4bdfb","system_id":"levelo_inurba_marseille","lat":43.27211,"lon":5.39188,"is_reserved":false,"is_disabled":true,"rental_uris":{"android":"levelo://app?vid=cb0a7ff5-b4ff-4d3e-8306-c149ade4bdfb","ios":"levelo://app?vid=cb0a7ff5-b4ff-4d3e-8306-c149ade4bdfb"},"vehicle_type_id":"4","last_reported":1746367673,"current_range_meters":17200,"station_id":"ce4bhhp2rcd13ifvqfm0","pricing_plan_id":"cebpf4jnsgd1na2vs0mg"},{"bike_id":"0a0ece37-539d-4aa3-b235-deb8a4daf593","system_id":"levelo_inurba_marseille","lat":43.33076,"lon":5.40822,"is_reserved":false,"is_disabled":false,"rental_uris":{"android":"levelo://app?vid=0a0ece37-539d-4aa3-b235-deb8a4daf593","ios":"levelo://app?vid=0a0ece37-539d-4aa3-b235-deb8a4daf593"},"vehicle_type_id":"4","last_reported":1746367673,"current_range_meters":17200,"station_id":"","pricing_plan_id":"cebpf4jnsgd1na2vs0mg"},{"bike_id":"1885e4e4-787e-4399-a182-13afb5671e8f","system_id":"levelo_inurba_marseille","lat":43.31763,"lon":5.38994,"is_reserved":false,"is_disabled":false,"rental_uris":{"android":"levelo://app?vid=1885e4e4-787e-4399-a182-13afb5671e8f","ios":"levelo://app?vid=1885e4e4-787e-4399-a182-13afb5671e8f"},"vehicle_type_id":"4","last_reported":1746367673,"current_range_meters":17600,"station_id":"ce4bhqp2rcd13ifvqhng","pricing_plan_id":"cebpf4jnsgd1na2vs0mg"},{"bike_id":"650813ea-0355-473f-94cc-07481d4f314d","system_id":"levelo_inurba_marseille","lat":43.28726,"lon":5.37934,"is_reserved":false,"is_disabled":false,"rental_uris":{"android":"levelo://app?vid=650813ea-0355-473f-94cc-07481d4f314d","ios":"levelo://app?vid=650813ea-0355-473f-94cc-07481d4f314d"},"vehicle_type_id":"4","last_reported":1746367673,"current_range_meters":17600,"station_id":"ce4bh9p2rcd13ifvqec0","pricing_plan_id":"cebpf4jnsgd1na2vs0mg"},{"bike_id":"b3cbb21e-793f-478c-9965-8205d52774c6","system_id":"levelo_inurba_marseille","lat":43.307597,"lon":5.424313,"is_reserved":false,"is_disabled":false,"rental_uris":{"android":"levelo://app?vid=b3cbb21e-793f-478c-9965-8205d52774c6","ios":"levelo://app?vid=b3cbb21e-793f-478c-9965-8205d52774c6"},"vehicle_type_id":"4","last_reported":1746367673,"current_range_meters":17600,"station_id":"st_cvj6ca6bvosntc0bfgr0","pricing_plan_id":"cebpf4jnsgd1na2vs0mg"},{"bike_id":"5eeb0684-ea3a-47c4-8009-bbf996bb9838","system_id":"levelo_inurba_marseille","lat":43.27383,"lon":5.36249,"is_reserved":false,"is_disabled":false,"rental_uris":{"android":"levelo://app?vid=5eeb0684-ea3a-47c4-8009-bbf996bb9838","ios":"levelo://app?vid=5eeb0684-ea3a-47c4-8009-bbf996bb9838"},"vehicle_type_id":"4","last_reported":1746367673,"current_range_meters":17600,"station_id":"ce4bhbh2rcd13ifvqeo0","pricing_plan_id":"cebpf4jnsgd1na2vs0mg"},{"bike_id":"8536704e-961e-4868-ad07-81df77fc76eb","system_id":"levelo_inurba_marseille","lat":43.290057,"lon":5.356137,"is_reserved":false,"is_disabled":true,"rental_uris":{"android":"levelo://app?vid=8536704e-961e-4868-ad07-81df77fc76eb","ios":"levelo://app?vid=8536704e-961e-4868-ad07-81df77fc76eb"},"vehicle_type_id":"4","last_reported":1746367673,"current_range_meters":18000,"station_id":"ce4bhb92rcd13ifvqen0","pricing_plan_id":"cebpf4jnsgd1na2vs0mg"},{"bike_id":"dbc76889-c356-4afd-8eda-e838c90c97fb","system_id":"levelo_inurba_marseille","lat":43.26226,"lon":5.40452,"is_reserved":false,"is_disabled":false,"rental_uris":{"android":"levelo://app?vid=dbc76889-c356-4afd-8eda-e838c90c97fb","ios":"levelo://app?vid=dbc76889-c356-4afd-8eda-e838c90c97fb"},"vehicle_type_id":"4","last_reported":1746367673,"current_range_meters":18000,"station_id":"ce4bhmh2rcd13ifvqgmg","pricing_plan_id":"cebpf4jnsgd1na2vs0mg"},{"bike_id":"727e434d-81e0-4103-a737-7548a4453cb9","system_id":"levelo_inurba_marseille","lat":43.26786,"lon":5.3941,"is_reserved":false,"is_disabled":false,"rental_uris":{"android":"levelo://app?vid=727e434d-81e0-4103-a737-7548a4453cb9","ios":"levelo://app?vid=727e434d-81e0-4103-a737-7548a4453cb9"},"vehicle_type_id":"4","last_reported":1746367673,"current_range_meters":18000,"station_id":"ce4bhh12rcd13ifvqfg0","pricing_plan_id":"cebpf4jnsgd1na2vs0mg"},{"bike_id":"ad39358b-0742-4348-9c06-d5f937c6994a","system_id":"levelo_inurba_marseille","lat":43.28271,"lon":5.35053,"is_reserved":false,"is_disabled":false,"rental_uris":{"android":"levelo://app?vid=ad39358b-0742-4348-9c06-d5f937c6994a","ios":"levelo://app?vid=ad39358b-0742-4348-9c06-d5f937c6994a"},"vehicle_type_id":"4","last_reported":1746367673,"current_range_meters":18000,"station_id":"ce4bhbp2rcd13ifvqerg","pricing_plan_id":"cebpf4jnsgd1na2vs0mg"},{"bike_id":"086126b2-412a-4875-9dbb-85dc061d4895","system_id":"levelo_inurba_marseille","lat":43.3123,"lon":5.36855,"is_reserved":false,"is_disabled":false,"rental_uris":{"android":"levelo://app?vid=086126b2-412a-4875-9dbb-85dc061d4895","ios":"levelo://app?vid=086126b2-412a-4875-9dbb-85dc061d4895"},"vehicle_type_id":"4","last_reported":1746367673,"current_range_meters":18000,"station_id":"ce4bgl92rcd13ifvqbq0","pricing_plan_id":"cebpf4jnsgd1na2vs0mg"},{"bike_id":"b54eb496-fc58-4d57-8f85-5e33f698c7a4","system_id":"levelo_inurba_marseille","lat":43.23067,"lon":5.35493,"is_reserved":false,"is_disabled":false,"rental_uris":{"android":"levelo://app?vid=b54eb496-fc58-4d57-8f85-5e33f698c7a4","ios":"levelo://app?vid=b54eb496-fc58-4d57-8f85-5e33f698c7a4"},"vehicle_type_id":"4","last_reported":1746367673,"current_range_meters":18000,"station_id":"cpo3342slgdg3j2ifvpg","pricing_plan_id":"cebpf4jnsgd1na2vs0mg"},{"bike_id":"e40c6458-de4d-498a-8d1d-173a0da5f5e8","system_id":"levelo_inurba_marseille","lat":43.30506,"lon":5.36701,"is_reserved":false,"is_disabled":false,"rental_uris":{"android":"levelo://app?vid=e40c6458-de4d-498a-8d1d-173a0da5f5e8","ios":"levelo://app?vid=e40c6458-de4d-498a-8d1d-173a0da5f5e8"},"vehicle_type_id":"4","last_reported":1746367673,"current_range_meters":18000,"station_id":"ce4bgrp2rcd13ifvqc9g","pricing_plan_id":"cebpf4jnsgd1na2vs0mg"},{"bike_id":"89c1c22e-4deb-4a12-b25d-9d0f09a1f79b","system_id":"levelo_inurba_marseille","lat":43.21746,"lon":5.34601,"is_reserved":false,"is_disabled":false,"rental_uris":{"android":"levelo://app?vid=89c1c22e-4deb-4a12-b25d-9d0f09a1f79b","ios":"levelo://app?vid=89c1c22e-4deb-4a12-b25d-9d0f09a1f79b"},"vehicle_type_id":"4","last_reported":1746367673,"current_range_meters":18000,"station_id":"st_cvj6r9ubvosntc0bgbag","pricing_plan_id":"cebpf4jnsgd1na2vs0mg"},{"bike_id":"3ff1331f-d2b9-4db6-9af0-17b5a04341a5","system_id":"levelo_inurba_marseille","lat":43.24341,"lon":5.37991,"is_reserved":false,"is_disabled":false,"rental_uris":{"android":"levelo://app?vid=3ff1331f-d2b9-4db6-9af0-17b5a04341a5","ios":"levelo://app?vid=3ff1331f-d2b9-4db6-9af0-17b5a04341a5"},"vehicle_type_id":"4","last_reported":1746367673,"current_range_meters":18000,"station_id":"","pricing_plan_id":"cebpf4jnsgd1na2vs0mg"},{"bike_id":"0a0a6079-47ca-4582-8ee5-7da92c23e6f7","system_id":"levelo_inurba_marseille","lat":43.23182,"lon":5.39988,"is_reserved":false,"is_disabled":false,"rental_uris":{"android":"levelo://app?vid=0a0a6079-47ca-4582-8ee5-7da92c23e6f7","ios":"levelo://app?vid=0a0a6079-47ca-4582-8ee5-7da92c23e6f7"},"vehicle_type_id":"4","last_reported":1746367673,"current_range_meters":18000,"station_id":"ce4bhn12rcd13ifvqgqg","pricing_plan_id":"cebpf4jnsgd1na2vs0mg"},{"bike_id":"082ac56b-3d9f-4f13-bc0f-c2060386c881","system_id":"levelo_inurba_marseille","lat":43.28999,"lon":5.35605,"is_reserved":false,"is_disabled":true,"rental_uris":{"android":"levelo://app?vid=082ac56b-3d9f-4f13-bc0f-c2060386c881","ios":"levelo://app?vid=082ac56b-3d9f-4f13-bc0f-c2060386c881"},"vehicle_type_id":"4","last_reported":1746367673,"current_range_meters":18000,"station_id":"ce4bhb92rcd13ifvqen0","pricing_plan_id":"cebpf4jnsgd1na2vs0mg"},{"bike_id":"239fb9f4-0ac0-4071-bd95-c4a2432f5a0b","system_id":"levelo_inurba_marseille","lat":43.26955,"lon":5.38627,"is_reserved":false,"is_disabled":false,"rental_uris":{"android":"levelo://app?vid=239fb9f4-0ac0-4071-bd95-c4a2432f5a0b","ios":"levelo://app?vid=239fb9f4-0ac0-4071-bd95-c4a2432f5a0b"},"vehicle_type_id":"4","last_reported":1746367673,"current_range_meters":18000,"station_id":"ce4bhh92rcd13ifvqfh0","pricing_plan_id":"cebpf4jnsgd1na2vs0mg"},{"bike_id":"33f2ca2a-7215-4909-8a5f-08f068322881","system_id":"levelo_inurba_marseille","lat":43.31487,"lon":5.37309,"is_reserved":false,"is_disabled":false,"rental_uris":{"android":"levelo://app?vid=33f2ca2a-7215-4909-8a5f-08f068322881","ios":"levelo://app?vid=33f2ca2a-7215-4909-8a5f-08f068322881"},"vehicle_type_id":"4","last_reported":1746367673,"current_range_meters":18800,"station_id":"ce4bgt12rcd13ifvqcd0","pricing_plan_id":"cebpf4jnsgd1na2vs0mg"},{"bike_id":"8a73e997-ba4b-4f53-829d-5c09c809cf6f","system_id":"levelo_inurba_marseille","lat":43.29433,"lon":5.39746,"is_reserved":false,"is_disabled":false,"rental_uris":{"android":"levelo://app?vid=8a73e997-ba4b-4f53-829d-5c09c809cf6f","ios":"levelo://app?vid=8a73e997-ba4b-4f53-829d-5c09c809cf6f"},"vehicle_type_id":"4","last_reported":1746367673,"current_range_meters":18800,"station_id":"ce4bh3h2rcd13ifvqdo0","pricing_plan_id":"cebpf4jnsgd1na2vs0mg"},{"bike_id":"7ad04c1b-fc26-4c94-a72f-89c6e3ca5c32","system_id":"levelo_inurba_marseille","lat":43.3119,"lon":5.40762,"is_reserved":false,"is_disabled":false,"rental_uris":{"android":"levelo://app?vid=7ad04c1b-fc26-4c94-a72f-89c6e3ca5c32","ios":"levelo://app?vid=7ad04c1b-fc26-4c94-a72f-89c6e3ca5c32"},"vehicle_type_id":"4","last_reported":1746367673,"current_range_meters":18800,"station_id":"","pricing_plan_id":"cebpf4jnsgd1na2vs0mg"},{"bike_id":"a7393548-1ca4-426f-bec8-e094325f844e","system_id":"levelo_inurba_marseille","lat":43.263053,"lon":5.374247,"is_reserved":false,"is_disabled":false,"rental_uris":{"android":"levelo://app?vid=a7393548-1ca4-426f-bec8-e094325f844e","ios":"levelo://app?vid=a7393548-1ca4-426f-bec8-e094325f844e"},"vehicle_type_id":"4","last_reported":1746367673,"current_range_meters":18800,"station_id":"","pricing_plan_id":"cebpf4jnsgd1na2vs0mg"},{"bike_id":"d252a272-7b85-44ee-b117-a17b072d1a91","system_id":"levelo_inurba_marseille","lat":43.21737,"lon":5.34616,"is_reserved":false,"is_disabled":false,"rental_uris":{"android":"levelo://app?vid=d252a272-7b85-44ee-b117-a17b072d1a91","ios":"levelo://app?vid=d252a272-7b85-44ee-b117-a17b072d1a91"},"vehicle_type_id":"4","last_reported":1746367673,"current_range_meters":18800,"station_id":"st_cvj6r9ubvosntc0bgbag","pricing_plan_id":"cebpf4jnsgd1na2vs0mg"},{"bike_id":"8e69649f-d5a0-4ead-b212-c5b5612beda7","system_id":"levelo_inurba_marseille","lat":43.25491,"lon":5.37649,"is_reserved":false,"is_disabled":true,"rental_uris":{"android":"levelo://app?vid=8e69649f-d5a0-4ead-b212-c5b5612beda7","ios":"levelo://app?vid=8e69649f-d5a0-4ead-b212-c5b5612beda7"},"vehicle_type_id":"4","last_reported":1746367673,"current_range_meters":18800,"station_id":"ce4bhh12rcd13ifvqff0","pricing_plan_id":"cebpf4jnsgd1na2vs0mg"},{"bike_id":"f589fc42-057a-43b9-81ad-55c2a575aecf","system_id":"levelo_inurba_marseille","lat":43.31082,"lon":5.38347,"is_reserved":false,"is_disabled":true,"rental_uris":{"android":"levelo://app?vid=f589fc42-057a-43b9-81ad-55c2a575aecf","ios":"levelo://app?vid=f589fc42-057a-43b9-81ad-55c2a575aecf"},"vehicle_type_id":"4","last_reported":1746367673,"current_range_meters":19200,"station_id":"ce4bgv92rcd13ifvqcr0","pricing_plan_id":"cebpf4jnsgd1na2vs0mg"},{"bike_id":"a8a5d03d-9153-4179-835f-415d347401e8","system_id":"levelo_inurba_marseille","lat":43.29555,"lon":5.42287,"is_reserved":false,"is_disabled":false,"rental_uris":{"android":"levelo://app?vid=a8a5d03d-9153-4179-835f-415d347401e8","ios":"levelo://app?vid=a8a5d03d-9153-4179-835f-415d347401e8"},"vehicle_type_id":"4","last_reported":1746367673,"current_range_meters":19200,"station_id":"ce4bhph2rcd13ifvqhdg","pricing_plan_id":"cebpf4jnsgd1na2vs0mg"},{"bike_id":"f1ffd2b9-91e9-4bf5-a319-6e95940b0de6","system_id":"levelo_inurba_marseille","lat":43.29562,"lon":5.42275,"is_reserved":false,"is_disabled":false,"rental_uris":{"android":"levelo://app?vid=f1ffd2b9-91e9-4bf5-a319-6e95940b0de6","ios":"levelo://app?vid=f1ffd2b9-91e9-4bf5-a319-6e95940b0de6"},"vehicle_type_id":"4","last_reported":1746367673,"current_range_meters":19200,"station_id":"ce4bhph2rcd13ifvqhdg","pricing_plan_id":"cebpf4jnsgd1na2vs0mg"},{"bike_id":"d62eceed-23eb-4f3d-a6fe-a61cd2ad4365","system_id":"levelo_inurba_marseille","lat":43.28406,"lon":5.35611,"is_reserved":false,"is_disabled":false,"rental_uris":{"android":"levelo://app?vid=d62eceed-23eb-4f3d-a6fe-a61cd2ad4365","ios":"levelo://app?vid=d62eceed-23eb-4f3d-a6fe-a61cd2ad4365"},"vehicle_type_id":"4","last_reported":1746367673,"current_range_meters":19200,"station_id":"","pricing_plan_id":"cebpf4jnsgd1na2vs0mg"},{"bike_id":"177264e5-def2-436d-af1f-03abb26d5f5c","system_id":"levelo_inurba_marseille","lat":43.32042,"lon":5.41559,"is_reserved":false,"is_disabled":false,"rental_uris":{"android":"levelo://app?vid=177264e5-def2-436d-af1f-03abb26d5f5c","ios":"levelo://app?vid=177264e5-def2-436d-af1f-03abb26d5f5c"},"vehicle_type_id":"4","last_reported":1746367673,"current_range_meters":19200,"station_id":"ce4bhq92rcd13ifvqhkg","pricing_plan_id":"cebpf4jnsgd1na2vs0mg"},{"bike_id":"7e1e01b6-6e57-4850-b2f0-aacfecbd9a61","system_id":"levelo_inurba_marseille","lat":43.28276,"lon":5.35067,"is_reserved":false,"is_disabled":false,"rental_uris":{"android":"levelo://app?vid=7e1e01b6-6e57-4850-b2f0-aacfecbd9a61","ios":"levelo://app?vid=7e1e01b6-6e57-4850-b2f0-aacfecbd9a61"},"vehicle_type_id":"4","last_reported":1746367673,"current_range_meters":19200,"station_id":"ce4bhbp2rcd13ifvqerg","pricing_plan_id":"cebpf4jnsgd1na2vs0mg"},{"bike_id":"bbba4a42-41f1-4d4c-a0ec-15062e1d6496","system_id":"levelo_inurba_marseille","lat":43.30788,"lon":5.4352,"is_reserved":false,"is_disabled":false,"rental_uris":{"android":"levelo://app?vid=bbba4a42-41f1-4d4c-a0ec-15062e1d6496","ios":"levelo://app?vid=bbba4a42-41f1-4d4c-a0ec-15062e1d6496"},"vehicle_type_id":"4","last_reported":1746367673,"current_range_meters":19600,"station_id":"ce4bhph2rcd13ifvqheg","pricing_plan_id":"cebpf4jnsgd1na2vs0mg"},{"bike_id":"db0e0ddb-0230-4f44-ba3e-6dcb98b952cd","system_id":"levelo_inurba_marseille","lat":43.23193,"lon":5.35562,"is_reserved":false,"is_disabled":true,"rental_uris":{"android":"levelo://app?vid=db0e0ddb-0230-4f44-ba3e-6dcb98b952cd","ios":"levelo://app?vid=db0e0ddb-0230-4f44-ba3e-6dcb98b952cd"},"vehicle_type_id":"4","last_reported":1746367673,"current_range_meters":19600,"station_id":"ce4bhu92rcd13ifvqi70","pricing_plan_id":"cebpf4jnsgd1na2vs0mg"},{"bike_id":"03fb7a31-0c24-4868-8c4f-6cb58811910e","system_id":"levelo_inurba_marseille","lat":43.303162,"lon":5.368946,"is_reserved":false,"is_disabled":false,"rental_uris":{"android":"levelo://app?vid=03fb7a31-0c24-4868-8c4f-6cb58811910e","ios":"levelo://app?vid=03fb7a31-0c24-4868-8c4f-6cb58811910e"},"vehicle_type_id":"4","last_reported":1746367673,"current_range_meters":19600,"station_id":"ce4bgqh2rcd13ifvqc5g","pricing_plan_id":"cebpf4jnsgd1na2vs0mg"},{"bike_id":"ec342b76-763a-415e-9382-11fa3dc11521","system_id":"levelo_inurba_marseille","lat":43.28861,"lon":5.35859,"is_reserved":false,"is_disabled":false,"rental_uris":{"android":"levelo://app?vid=ec342b76-763a-415e-9382-11fa3dc11521","ios":"levelo://app?vid=ec342b76-763a-415e-9382-11fa3dc11521"},"vehicle_type_id":"4","last_reported":1746367673,"current_range_meters":19600,"station_id":"ce4bhb12rcd13ifvqem0","pricing_plan_id":"cebpf4jnsgd1na2vs0mg"},{"bike_id":"f3c2f482-0841-4146-93ad-a763309c68ea","system_id":"levelo_inurba_marseille","lat":43.28261,"lon":5.35066,"is_reserved":false,"is_disabled":false,"rental_uris":{"android":"levelo://app?vid=f3c2f482-0841-4146-93ad-a763309c68ea","ios":"levelo://app?vid=f3c2f482-0841-4146-93ad-a763309c68ea"},"vehicle_type_id":"4","last_reported":1746367673,"current_range_meters":19600,"station_id":"ce4bhbp2rcd13ifvqerg","pricing_plan_id":"cebpf4jnsgd1na2vs0mg"},{"bike_id":"8ab46f99-9644-474c-9745-b78357bd9ec9","system_id":"levelo_inurba_marseille","lat":43.36016,"lon":5.44247,"is_reserved":false,"is_disabled":false,"rental_uris":{"android":"levelo://app?vid=8ab46f99-9644-474c-9745-b78357bd9ec9","ios":"levelo://app?vid=8ab46f99-9644-474c-9745-b78357bd9ec9"},"vehicle_type_id":"4","last_reported":1746367673,"current_range_meters":20400,"station_id":"","pricing_plan_id":"cebpf4jnsgd1na2vs0mg"},{"bike_id":"88f64703-e845-4dd4-92d0-bc3e9f57b6e4","system_id":"levelo_inurba_marseille","lat":43.30888,"lon":5.37193,"is_reserved":false,"is_disabled":false,"rental_uris":{"android":"levelo://app?vid=88f64703-e845-4dd4-92d0-bc3e9f57b6e4","ios":"levelo://app?vid=88f64703-e845-4dd4-92d0-bc3e9f57b6e4"},"vehicle_type_id":"4","last_reported":1746367673,"current_range_meters":19600,"station_id":"ce4bguh2rcd13ifvqckg","pricing_plan_id":"cebpf4jnsgd1na2vs0mg"},{"bike_id":"6808712c-211a-48eb-b77e-22e68b1e9b69","system_id":"levelo_inurba_marseille","lat":43.30604,"lon":5.37203,"is_reserved":false,"is_disabled":false,"rental_uris":{"android":"levelo://app?vid=6808712c-211a-48eb-b77e-22e68b1e9b69","ios":"levelo://app?vid=6808712c-211a-48eb-b77e-22e68b1e9b69"},"vehicle_type_id":"4","last_reported":1746367673,"current_range_meters":19200,"station_id":"ce4bgqh2rcd13ifvqc4g","pricing_plan_id":"cebpf4jnsgd1na2vs0mg"},{"bike_id":"3bf96f6c-1138-425e-99d5-253ba6181d5e","system_id":"levelo_inurba_marseille","lat":43.30447,"lon":5.39813,"is_reserved":false,"is_disabled":true,"rental_uris":{"android":"levelo://app?vid=3bf96f6c-1138-425e-99d5-253ba6181d5e","ios":"levelo://app?vid=3bf96f6c-1138-425e-99d5-253ba6181d5e"},"vehicle_type_id":"4","last_reported":1746367673,"current_range_meters":20000,"station_id":"","pricing_plan_id":"cebpf4jnsgd1na2vs0mg"},{"bike_id":"ef7522cc-8014-40bc-9598-b978ef8d62ed","system_id":"levelo_inurba_marseille","lat":43.30238,"lon":5.40007,"is_reserved":false,"is_disabled":true,"rental_uris":{"android":"levelo://app?vid=ef7522cc-8014-40bc-9598-b978ef8d62ed","ios":"levelo://app?vid=ef7522cc-8014-40bc-9598-b978ef8d62ed"},"vehicle_type_id":"4","last_reported":1746367673,"current_range_meters":20000,"station_id":"ce4bgvh2rcd13ifvqcs0","pricing_plan_id":"cebpf4jnsgd1na2vs0mg"},{"bike_id":"1bc89dec-24f6-4cf3-9a07-0634e2bc1366","system_id":"levelo_inurba_marseille","lat":43.23187,"lon":5.39988,"is_reserved":false,"is_disabled":false,"rental_uris":{"android":"levelo://app?vid=1bc89dec-24f6-4cf3-9a07-0634e2bc1366","ios":"levelo://app?vid=1bc89dec-24f6-4cf3-9a07-0634e2bc1366"},"vehicle_type_id":"4","last_reported":1746367673,"current_range_meters":20000,"station_id":"ce4bhn12rcd13ifvqgqg","pricing_plan_id":"cebpf4jnsgd1na2vs0mg"},{"bike_id":"9e174534-0b7f-41f7-9bb7-f68172cda9ce","system_id":"levelo_inurba_marseille","lat":43.21191,"lon":5.35074,"is_reserved":false,"is_disabled":false,"rental_uris":{"android":"levelo://app?vid=9e174534-0b7f-41f7-9bb7-f68172cda9ce","ios":"levelo://app?vid=9e174534-0b7f-41f7-9bb7-f68172cda9ce"},"vehicle_type_id":"4","last_reported":1746367673,"current_range_meters":20000,"station_id":"st_cvj6sg6p6f1abm77japg","pricing_plan_id":"cebpf4jnsgd1na2vs0mg"},{"bike_id":"a3eccdb9-63c9-4af7-a546-62ce7eea30d4","system_id":"levelo_inurba_marseille","lat":43.290726,"lon":5.371555,"is_reserved":false,"is_disabled":true,"rental_uris":{"android":"levelo://app?vid=a3eccdb9-63c9-4af7-a546-62ce7eea30d4","ios":"levelo://app?vid=a3eccdb9-63c9-4af7-a546-62ce7eea30d4"},"vehicle_type_id":"4","last_reported":1746367673,"current_range_meters":20000,"station_id":"ce4bh5p2rcd13ifvqe4g","pricing_plan_id":"cebpf4jnsgd1na2vs0mg"},{"bike_id":"be08d0c5-8233-46ce-a16a-10ba0e6ee589","system_id":"levelo_inurba_marseille","lat":43.26955,"lon":5.38641,"is_reserved":false,"is_disabled":true,"rental_uris":{"android":"levelo://app?vid=be08d0c5-8233-46ce-a16a-10ba0e6ee589","ios":"levelo://app?vid=be08d0c5-8233-46ce-a16a-10ba0e6ee589"},"vehicle_type_id":"4","last_reported":1746367673,"current_range_meters":20400,"station_id":"ce4bhh92rcd13ifvqfh0","pricing_plan_id":"cebpf4jnsgd1na2vs0mg"},{"bike_id":"396ffc1b-6e13-4100-ad63-3f483e363511","system_id":"levelo_inurba_marseille","lat":43.26508,"lon":5.39553,"is_reserved":false,"is_disabled":false,"rental_uris":{"android":"levelo://app?vid=396ffc1b-6e13-4100-ad63-3f483e363511","ios":"levelo://app?vid=396ffc1b-6e13-4100-ad63-3f483e363511"},"vehicle_type_id":"4","last_reported":1746367673,"current_range_meters":20000,"station_id":"ce4bhi12rcd13ifvqfq0","pricing_plan_id":"cebpf4jnsgd1na2vs0mg"},{"bike_id":"b212db87-e197-43f7-9b5a-58b33a4d1cb9","system_id":"levelo_inurba_marseille","lat":43.32008,"lon":5.38136,"is_reserved":false,"is_disabled":true,"rental_uris":{"android":"levelo://app?vid=b212db87-e197-43f7-9b5a-58b33a4d1cb9","ios":"levelo://app?vid=b212db87-e197-43f7-9b5a-58b33a4d1cb9"},"vehicle_type_id":"4","last_reported":1746367673,"current_range_meters":20400,"station_id":"ce4bhr12rcd13ifvqhpg","pricing_plan_id":"cebpf4jnsgd1na2vs0mg"},{"bike_id":"5e558887-0deb-4b53-8fc6-04f34417149b","system_id":"levelo_inurba_marseille","lat":43.25501,"lon":5.37648,"is_reserved":false,"is_disabled":false,"rental_uris":{"android":"levelo://app?vid=5e558887-0deb-4b53-8fc6-04f34417149b","ios":"levelo://app?vid=5e558887-0deb-4b53-8fc6-04f34417149b"},"vehicle_type_id":"4","last_reported":1746367673,"current_range_meters":20000,"station_id":"ce4bhh12rcd13ifvqff0","pricing_plan_id":"cebpf4jnsgd1na2vs0mg"},{"bike_id":"c8dd0741-d802-4cae-94ca-433f088b9d8d","system_id":"levelo_inurba_marseille","lat":43.28408,"lon":5.34981,"is_reserved":false,"is_disabled":false,"rental_uris":{"android":"levelo://app?vid=c8dd0741-d802-4cae-94ca-433f088b9d8d","ios":"levelo://app?vid=c8dd0741-d802-4cae-94ca-433f088b9d8d"},"vehicle_type_id":"4","last_reported":1746367673,"current_range_meters":20400,"station_id":"ce4bhbh2rcd13ifvqepg","pricing_plan_id":"cebpf4jnsgd1na2vs0mg"},{"bike_id":"70e7d91b-cc37-4bfe-9f8e-873ad81e7b07","system_id":"levelo_inurba_marseille","lat":43.30425,"lon":5.39754,"is_reserved":false,"is_disabled":false,"rental_uris":{"android":"levelo://app?vid=70e7d91b-cc37-4bfe-9f8e-873ad81e7b07","ios":"levelo://app?vid=70e7d91b-cc37-4bfe-9f8e-873ad81e7b07"},"vehicle_type_id":"4","last_reported":1746367673,"current_range_meters":20000,"station_id":"ce4bh092rcd13ifvqd20","pricing_plan_id":"cebpf4jnsgd1na2vs0mg"},{"bike_id":"d447b317-7fe8-4b25-a86f-02fbc65ddcfa","system_id":"levelo_inurba_marseille","lat":43.23153,"lon":5.43728,"is_reserved":false,"is_disabled":false,"rental_uris":{"android":"levelo://app?vid=d447b317-7fe8-4b25-a86f-02fbc65ddcfa","ios":"levelo://app?vid=d447b317-7fe8-4b25-a86f-02fbc65ddcfa"},"vehicle_type_id":"4","last_reported":1746367673,"current_range_meters":20400,"station_id":"ce4bhmp2rcd13ifvqgog","pricing_plan_id":"cebpf4jnsgd1na2vs0mg"},{"bike_id":"4210a781-9922-4b8c-8449-7424b7d5d740","system_id":"levelo_inurba_marseille","lat":43.25728,"lon":5.41108,"is_reserved":false,"is_disabled":false,"rental_uris":{"android":"levelo://app?vid=4210a781-9922-4b8c-8449-7424b7d5d740","ios":"levelo://app?vid=4210a781-9922-4b8c-8449-7424b7d5d740"},"vehicle_type_id":"4","last_reported":1746367673,"current_range_meters":20800,"station_id":"ce4bhkp2rcd13ifvqgd0","pricing_plan_id":"cebpf4jnsgd1na2vs0mg"},{"bike_id":"706fadaf-611e-4f16-9753-7dde4c5de9e9","system_id":"levelo_inurba_marseille","lat":43.24391,"lon":5.3706,"is_reserved":false,"is_disabled":false,"rental_uris":{"android":"levelo://app?vid=706fadaf-611e-4f16-9753-7dde4c5de9e9","ios":"levelo://app?vid=706fadaf-611e-4f16-9753-7dde4c5de9e9"},"vehicle_type_id":"4","last_reported":1746367673,"current_range_meters":20800,"station_id":"ce4bhhh2rcd13ifvqfk0","pricing_plan_id":"cebpf4jnsgd1na2vs0mg"},{"bike_id":"e234c9c4-65cf-42bc-b2d9-38acc77199c3","system_id":"levelo_inurba_marseille","lat":43.36101,"lon":5.44344,"is_reserved":false,"is_disabled":false,"rental_uris":{"android":"levelo://app?vid=e234c9c4-65cf-42bc-b2d9-38acc77199c3","ios":"levelo://app?vid=e234c9c4-65cf-42bc-b2d9-38acc77199c3"},"vehicle_type_id":"4","last_reported":1746367673,"current_range_meters":21600,"station_id":"","pricing_plan_id":"cebpf4jnsgd1na2vs0mg"},{"bike_id":"2dce38cf-a8d4-49cd-9fcf-ef494d90a125","system_id":"levelo_inurba_marseille","lat":43.27141,"lon":5.3636,"is_reserved":false,"is_disabled":false,"rental_uris":{"android":"levelo://app?vid=2dce38cf-a8d4-49cd-9fcf-ef494d90a125","ios":"levelo://app?vid=2dce38cf-a8d4-49cd-9fcf-ef494d90a125"},"vehicle_type_id":"4","last_reported":1746367673,"current_range_meters":20800,"station_id":"","pricing_plan_id":"cebpf4jnsgd1na2vs0mg"},{"bike_id":"e85009fe-0e6e-4a3a-8d08-88461aa5b2d0","system_id":"levelo_inurba_marseille","lat":43.28676,"lon":5.3635,"is_reserved":false,"is_disabled":false,"rental_uris":{"android":"levelo://app?vid=e85009fe-0e6e-4a3a-8d08-88461aa5b2d0","ios":"levelo://app?vid=e85009fe-0e6e-4a3a-8d08-88461aa5b2d0"},"vehicle_type_id":"4","last_reported":1746367673,"current_range_meters":20800,"station_id":"ce4bhah2rcd13ifvqej0","pricing_plan_id":"cebpf4jnsgd1na2vs0mg"},{"bike_id":"bcdc0033-282e-4006-acda-7c1e0fdfff9e","system_id":"levelo_inurba_marseille","lat":43.31726,"lon":5.42391,"is_reserved":false,"is_disabled":false,"rental_uris":{"android":"levelo://app?vid=bcdc0033-282e-4006-acda-7c1e0fdfff9e","ios":"levelo://app?vid=bcdc0033-282e-4006-acda-7c1e0fdfff9e"},"vehicle_type_id":"4","last_reported":1746367673,"current_range_meters":20800,"station_id":"ce4bhp92rcd13ifvqhbg","pricing_plan_id":"cebpf4jnsgd1na2vs0mg"},{"bike_id":"1ce5faab-c057-44d0-b6f7-996b2962169c","system_id":"levelo_inurba_marseille","lat":43.32368,"lon":5.36751,"is_reserved":false,"is_disabled":false,"rental_uris":{"android":"levelo://app?vid=1ce5faab-c057-44d0-b6f7-996b2962169c","ios":"levelo://app?vid=1ce5faab-c057-44d0-b6f7-996b2962169c"},"vehicle_type_id":"4","last_reported":1746367673,"current_range_meters":21600,"station_id":"ce4bhsh2rcd13ifvqi2g","pricing_plan_id":"cebpf4jnsgd1na2vs0mg"},{"bike_id":"b4d2fdc2-5140-4e14-b8a1-27b66fb70047","system_id":"levelo_inurba_marseille","lat":43.23065,"lon":5.355,"is_reserved":false,"is_disabled":false,"rental_uris":{"android":"levelo://app?vid=b4d2fdc2-5140-4e14-b8a1-27b66fb70047","ios":"levelo://app?vid=b4d2fdc2-5140-4e14-b8a1-27b66fb70047"},"vehicle_type_id":"4","last_reported":1746367673,"current_range_meters":21600,"station_id":"cpo3342slgdg3j2ifvpg","pricing_plan_id":"cebpf4jnsgd1na2vs0mg"},{"bike_id":"0eac4398-c29b-4b89-a51c-f84c3bbb4d23","system_id":"levelo_inurba_marseille","lat":43.25001,"lon":5.38925,"is_reserved":false,"is_disabled":false,"rental_uris":{"android":"levelo://app?vid=0eac4398-c29b-4b89-a51c-f84c3bbb4d23","ios":"levelo://app?vid=0eac4398-c29b-4b89-a51c-f84c3bbb4d23"},"vehicle_type_id":"4","last_reported":1746367673,"current_range_meters":21600,"station_id":"ce4bhgp2rcd13ifvqfd0","pricing_plan_id":"cebpf4jnsgd1na2vs0mg"},{"bike_id":"df017969-5ed4-4173-b38d-7260d3e4cc8e","system_id":"levelo_inurba_marseille","lat":43.262277,"lon":5.404503,"is_reserved":false,"is_disabled":false,"rental_uris":{"android":"levelo://app?vid=df017969-5ed4-4173-b38d-7260d3e4cc8e","ios":"levelo://app?vid=df017969-5ed4-4173-b38d-7260d3e4cc8e"},"vehicle_type_id":"4","last_reported":1746367673,"current_range_meters":21600,"station_id":"ce4bhmh2rcd13ifvqgmg","pricing_plan_id":"cebpf4jnsgd1na2vs0mg"},{"bike_id":"d24dafc0-ac3e-477c-b646-db3526d6cb4d","system_id":"levelo_inurba_marseille","lat":43.28607,"lon":5.37061,"is_reserved":false,"is_disabled":false,"rental_uris":{"android":"levelo://app?vid=d24dafc0-ac3e-477c-b646-db3526d6cb4d","ios":"levelo://app?vid=d24dafc0-ac3e-477c-b646-db3526d6cb4d"},"vehicle_type_id":"4","last_reported":1746367673,"current_range_meters":21600,"station_id":"ce4bht12rcd13ifvqi60","pricing_plan_id":"cebpf4jnsgd1na2vs0mg"},{"bike_id":"55e2365c-b270-4dfe-a830-699a54b79cdb","system_id":"levelo_inurba_marseille","lat":43.255794,"lon":5.421006,"is_reserved":false,"is_disabled":false,"rental_uris":{"android":"levelo://app?vid=55e2365c-b270-4dfe-a830-699a54b79cdb","ios":"levelo://app?vid=55e2365c-b270-4dfe-a830-699a54b79cdb"},"vehicle_type_id":"4","last_reported":1746367673,"current_range_meters":22000,"station_id":"","pricing_plan_id":"cebpf4jnsgd1na2vs0mg"},{"bike_id":"27a41872-6aef-4f0f-90ef-56478ec27c6c","system_id":"levelo_inurba_marseille","lat":43.29228,"lon":5.36073,"is_reserved":false,"is_disabled":false,"rental_uris":{"android":"levelo://app?vid=27a41872-6aef-4f0f-90ef-56478ec27c6c","ios":"levelo://app?vid=27a41872-6aef-4f0f-90ef-56478ec27c6c"},"vehicle_type_id":"4","last_reported":1746367673,"current_range_meters":22000,"station_id":"ce4bhbh2rcd13ifvqeqg","pricing_plan_id":"cebpf4jnsgd1na2vs0mg"},{"bike_id":"ed64f40a-c5c8-4d07-9305-1460c70f95f0","system_id":"levelo_inurba_marseille","lat":43.23156,"lon":5.4371,"is_reserved":false,"is_disabled":false,"rental_uris":{"android":"levelo://app?vid=ed64f40a-c5c8-4d07-9305-1460c70f95f0","ios":"levelo://app?vid=ed64f40a-c5c8-4d07-9305-1460c70f95f0"},"vehicle_type_id":"4","last_reported":1746367673,"current_range_meters":22000,"station_id":"ce4bhmp2rcd13ifvqgog","pricing_plan_id":"cebpf4jnsgd1na2vs0mg"},{"bike_id":"de3f76b1-58ea-42d0-99f1-347daf91f0b4","system_id":"levelo_inurba_marseille","lat":43.21215,"lon":5.35084,"is_reserved":false,"is_disabled":false,"rental_uris":{"android":"levelo://app?vid=de3f76b1-58ea-42d0-99f1-347daf91f0b4","ios":"levelo://app?vid=de3f76b1-58ea-42d0-99f1-347daf91f0b4"},"vehicle_type_id":"4","last_reported":1746367673,"current_range_meters":22000,"station_id":"st_cvj6sg6p6f1abm77japg","pricing_plan_id":"cebpf4jnsgd1na2vs0mg"},{"bike_id":"3f9fddb3-4d57-4ad0-8fd2-61341dad0fd3","system_id":"levelo_inurba_marseille","lat":43.296034,"lon":5.380976,"is_reserved":false,"is_disabled":true,"rental_uris":{"android":"levelo://app?vid=3f9fddb3-4d57-4ad0-8fd2-61341dad0fd3","ios":"levelo://app?vid=3f9fddb3-4d57-4ad0-8fd2-61341dad0fd3"},"vehicle_type_id":"4","last_reported":1746367673,"current_range_meters":22000,"station_id":"ce4bgl12rcd13ifvqbo0","pricing_plan_id":"cebpf4jnsgd1na2vs0mg"},{"bike_id":"4917c1c6-814b-444d-9021-8a540daabb3a","system_id":"levelo_inurba_marseille","lat":43.2827,"lon":5.35053,"is_reserved":false,"is_disabled":false,"rental_uris":{"android":"levelo://app?vid=4917c1c6-814b-444d-9021-8a540daabb3a","ios":"levelo://app?vid=4917c1c6-814b-444d-9021-8a540daabb3a"},"vehicle_type_id":"4","last_reported":1746367673,"current_range_meters":22000,"station_id":"ce4bhbp2rcd13ifvqerg","pricing_plan_id":"cebpf4jnsgd1na2vs0mg"},{"bike_id":"e02dd004-549e-4245-8590-bc3a3bd0ad0b","system_id":"levelo_inurba_marseille","lat":43.32004,"lon":5.38157,"is_reserved":false,"is_disabled":false,"rental_uris":{"android":"levelo://app?vid=e02dd004-549e-4245-8590-bc3a3bd0ad0b","ios":"levelo://app?vid=e02dd004-549e-4245-8590-bc3a3bd0ad0b"},"vehicle_type_id":"4","last_reported":1746367673,"current_range_meters":22400,"station_id":"ce4bhr12rcd13ifvqhpg","pricing_plan_id":"cebpf4jnsgd1na2vs0mg"},{"bike_id":"6311c214-b8c0-4681-9e24-2c05fcf5ad4f","system_id":"levelo_inurba_marseille","lat":43.29202,"lon":5.39318,"is_reserved":false,"is_disabled":false,"rental_uris":{"android":"levelo://app?vid=6311c214-b8c0-4681-9e24-2c05fcf5ad4f","ios":"levelo://app?vid=6311c214-b8c0-4681-9e24-2c05fcf5ad4f"},"vehicle_type_id":"4","last_reported":1746367673,"current_range_meters":22000,"station_id":"ce4bh192rcd13ifvqdd0","pricing_plan_id":"cebpf4jnsgd1na2vs0mg"},{"bike_id":"35079b58-18d4-4d07-a1fa-77e333f77380","system_id":"levelo_inurba_marseille","lat":43.27996,"lon":5.40006,"is_reserved":false,"is_disabled":false,"rental_uris":{"android":"levelo://app?vid=35079b58-18d4-4d07-a1fa-77e333f77380","ios":"levelo://app?vid=35079b58-18d4-4d07-a1fa-77e333f77380"},"vehicle_type_id":"4","last_reported":1746367673,"current_range_meters":22400,"station_id":"ce4bho92rcd13ifvqh4g","pricing_plan_id":"cebpf4jnsgd1na2vs0mg"},{"bike_id":"cb18f575-9c1e-4e54-ba38-fab988ce4b38","system_id":"levelo_inurba_marseille","lat":43.29255,"lon":5.40913,"is_reserved":false,"is_disabled":false,"rental_uris":{"android":"levelo://app?vid=cb18f575-9c1e-4e54-ba38-fab988ce4b38","ios":"levelo://app?vid=cb18f575-9c1e-4e54-ba38-fab988ce4b38"},"vehicle_type_id":"4","last_reported":1746367673,"current_range_meters":22400,"station_id":"ce4bh192rcd13ifvqdc0","pricing_plan_id":"cebpf4jnsgd1na2vs0mg"},{"bike_id":"99caa5c9-73c6-4674-850e-ae7cd663deab","system_id":"levelo_inurba_marseille","lat":43.21198,"lon":5.35073,"is_reserved":false,"is_disabled":false,"rental_uris":{"android":"levelo://app?vid=99caa5c9-73c6-4674-850e-ae7cd663deab","ios":"levelo://app?vid=99caa5c9-73c6-4674-850e-ae7cd663deab"},"vehicle_type_id":"4","last_reported":1746367673,"current_range_meters":22400,"station_id":"st_cvj6sg6p6f1abm77japg","pricing_plan_id":"cebpf4jnsgd1na2vs0mg"},{"bike_id":"d1ec814b-7128-4cb1-a05f-d59b2ec94248","system_id":"levelo_inurba_marseille","lat":43.22673,"lon":5.3481,"is_reserved":false,"is_disabled":false,"rental_uris":{"android":"levelo://app?vid=d1ec814b-7128-4cb1-a05f-d59b2ec94248","ios":"levelo://app?vid=d1ec814b-7128-4cb1-a05f-d59b2ec94248"},"vehicle_type_id":"4","last_reported":1746367673,"current_range_meters":22800,"station_id":"","pricing_plan_id":"cebpf4jnsgd1na2vs0mg"},{"bike_id":"8d89c73d-8db6-4d7c-8cd3-185d7b8af262","system_id":"levelo_inurba_marseille","lat":43.29774,"lon":5.3709,"is_reserved":false,"is_disabled":false,"rental_uris":{"android":"levelo://app?vid=8d89c73d-8db6-4d7c-8cd3-185d7b8af262","ios":"levelo://app?vid=8d89c73d-8db6-4d7c-8cd3-185d7b8af262"},"vehicle_type_id":"4","last_reported":1746367673,"current_range_meters":22400,"station_id":"ce4bgop2rcd13ifvqc1g","pricing_plan_id":"cebpf4jnsgd1na2vs0mg"},{"bike_id":"52006158-43f9-435e-85e4-e0f8cad72980","system_id":"levelo_inurba_marseille","lat":43.27915,"lon":5.39576,"is_reserved":false,"is_disabled":false,"rental_uris":{"android":"levelo://app?vid=52006158-43f9-435e-85e4-e0f8cad72980","ios":"levelo://app?vid=52006158-43f9-435e-85e4-e0f8cad72980"},"vehicle_type_id":"4","last_reported":1746367673,"current_range_meters":22800,"station_id":"ce4bhf92rcd13ifvqf40","pricing_plan_id":"cebpf4jnsgd1na2vs0mg"},