{"last_updated":1690654044,"ttl":30,"version":"2.2","data":{"bikes":[{"bike_id":"6919b2c8-2aaa-4cc0-a7fd-1815057bf249","system_id":"levelo_inurba_marseille","lat":43.31341,"lon":5.367098,"is_reserved":false,"is_disabled":false,"rental_uris":{"android":"levelo://app?vid=6919b2c8-2aaa-4cc0-a7fd-1815057bf249","ios":"levelo://app?vid=6919b2c8-2aaa-4cc0-a7fd-1815057bf249"},"vehicle_type_id":"4","last_reported":1690654045,"current_range_meters":30000,"station_id":"ce4bgr92rcd13ifvqc6g","pricing_plan_id":"free"},{"bike_id":"cfb186af-3014-4ad7-b593-797b1a3ee359","system_id":"levelo_inurba_marseille","lat":43.313391,"lon":5.36706,"is_reserved":false,"is_disabled":false,"rental_uris":{"android":"levelo://app?vid=cfb186af-3014-4ad7-b593-797b1a3ee359","ios":"levelo://app?vid=cfb186af-3014-4ad7-b593-797b1a3ee359"},"vehicle_type_id":"4","last_reported":1690654045,"current_range_meters":31200,"station_id":"ce4bgr92rcd13ifvqc6g","pricing_plan_id":"free"},{"bike_id":"e526d4e2-849c-44ae-a0d7-5572a62df909","system_id":"levelo_inurba_marseille","lat":43.312239,"lon":5.368562,"is_reserved":false,"is_disabled":false,"rental_uris":{"android":"levelo://app?vid=e526d4e2-849c-44ae-a0d7-5572a62df909","ios":"levelo://app?vid=e526d4e2-849c-44ae-a0d7-5572a62df909"},"vehicle_type_id":"4","last_reported":1690654045,"current_range_meters":27600,"station_id":"ce4bgl92rcd13ifvqbq0","pricing_plan_id":"free"},{"bike_id":"9ecda08a-fe11-4b18-8f6e-e1b0dc6dd965","system_id":"levelo_inurba_marseille","lat":43.309076,"lon":5.368465,"is_reserved":false,"is_disabled":false,"rental_uris":{"android":"levelo://app?vid=9ecda08a-fe11-4b18-8f6e-e1b0dc6dd965","ios":"levelo://app?vid=9ecda08a-fe11-4b18-8f6e-e1b0dc6dd965"},"vehicle_type_id":"4","last_reported":1690654045,"current_range_meters":25200,"station_id":"ce4bgn92rcd13ifvqbvg","pricing_plan_id":"free"},{"bike_id":"bb0269c8-3c5f-4eb7-b56b-512ae5006395","system_id":"levelo_inurba_marseille","lat":43.309076,"lon":5.368465,"is_reserved":false,"is_disabled":false,"rental_uris":{"android":"levelo://app?vid=bb0269c8-3c5f-4eb7-b56b-512ae5006395","ios":"levelo://app?vid=bb0269c8-3c5f-4eb7-b56b-512ae5006395"},"vehicle_type_id":"4","last_reported":1690654045,"current_range_meters":13600,"station_id":"ce4bgn92rcd13ifvqbvg","pricing_plan_id":"free"},{"bike_id":"e8106915-e6ff-4cb2-9779-92d6e9390aed","system_id":"levelo_inurba_marseille","lat":43.31487,"lon":5.37301,"is_reserved":false,"is_disabled":false,"rental_uris":{"android":"levelo://app?vid=e8106915-e6ff-4cb2-9779-92d6e9390aed","ios":"levelo://app?vid=e8106915-e6ff-4cb2-9779-92d6e9390aed"},"vehicle_type_id":"4","last_reported":1690654045,"current_range_meters":8000,"station_id":"ce4bgt12rcd13ifvqcd0","pricing_plan_id":"free"},{"bike_id":"a474ad3f-1c02-4bd4-8cef-0ae48efcfa15","system_id":"levelo_inurba_marseille","lat":43.31487,"lon":5.37304,"is_reserved":false,"is_disabled":false,"rental_uris":{"android":"levelo://app?vid=a474ad3f-1c02-4bd4-8cef-0ae48efcfa15","ios":"levelo://app?vid=a474ad3f-1c02-4bd4-8cef-0ae48efcfa15"},"vehicle_type_id":"4","last_reported":1690654045,"current_range_meters":31200,"station_id":"ce4bgt12rcd13ifvqcd0","pricing_plan_id":"free"},{"bike_id":"a8cbc0d5-ebda-4daf-8fee-3b9c1babdbbd","system_id":"levelo_inurba_marseille","lat":43.314811,"lon":5.373103,"is_reserved":false,"is_disabled":false,"rental_uris":{"android":"levelo://app?vid=a8cbc0d5-ebda-4daf-8fee-3b9c1babdbbd","ios":"levelo://app?vid=a8cbc0d5-ebda-4daf-8fee-3b9c1babdbbd"},"vehicle_type_id":"4","last_reported":1690654045,"current_range_meters":25600,"station_id":"ce4bgt12rcd13ifvqcd0","pricing_plan_id":"free"},{"bike_id":"5cf8e82b-5121-4436-b59c-fbea86df3a57","system_id":"levelo_inurba_marseille","lat":43.3157,"lon":5.37287,"is_reserved":false,"is_disabled":false,"rental_uris":{"android":"levelo://app?vid=5cf8e82b-5121-4436-b59c-fbea86df3a57","ios":"levelo://app?vid=5cf8e82b-5121-4436-b59c-fbea86df3a57"},"vehicle_type_id":"4","last_reported":1690654045,"current_range_meters":20400,"station_id":"","pricing_plan_id":"free"},{"bike_id":"b11b973e-8d66-42c3-956a-9a85d5cb071a","system_id":"levelo_inurba_marseille","lat":43.305714,"lon":5.365633,"is_reserved":false,"is_disabled":false,"rental_uris":{"android":"levelo://app?vid=b11b973e-8d66-42c3-956a-9a85d5cb071a","ios":"levelo://app?vid=b11b973e-8d66-42c3-956a-9a85d5cb071a"},"vehicle_type_id":"4","last_reported":1690654045,"current_range_meters":18400,"station_id":"ce4bgs12rcd13ifvqcag","pricing_plan_id":"free"},{"bike_id":"26b3d0e2-8ca9-4cb2-99a1-75121d950adb","system_id":"levelo_inurba_marseille","lat":43.30528,"lon":5.36703,"is_reserved":false,"is_disabled":false,"rental_uris":{"android":"levelo://app?vid=26b3d0e2-8ca9-4cb2-99a1-75121d950adb","ios":"levelo://app?vid=26b3d0e2-8ca9-4cb2-99a1-75121d950adb"},"vehicle_type_id":"4","last_reported":1690654045,"current_range_meters":19200,"station_id":"ce4bgrp2rcd13ifvqc9g","pricing_plan_id":"free"},{"bike_id":"21c0a513-a6d3-4f32-931d-51bf8a924601","system_id":"levelo_inurba_marseille","lat":43.305989,"lon":5.37225,"is_reserved":false,"is_disabled":false,"rental_uris":{"android":"levelo://app?vid=21c0a513-a6d3-4f32-931d-51bf8a924601","ios":"levelo://app?vid=21c0a513-a6d3-4f32-931d-51bf8a924601"},"vehicle_type_id":"4","last_reported":1690654045,"current_range_meters":4800,"station_id":"ce4bgqh2rcd13ifvqc4g","pricing_plan_id":"free"},{"bike_id":"f20ea888-8740-440b-bfeb-8eb2a7c1f652","system_id":"levelo_inurba_marseille","lat":43.30599,"lon":5.37233,"is_reserved":false,"is_disabled":false,"rental_uris":{"android":"levelo://app?vid=f20ea888-8740-440b-bfeb-8eb2a7c1f652","ios":"levelo://app?vid=f20ea888-8740-440b-bfeb-8eb2a7c1f652"},"vehicle_type_id":"4","last_reported":1690654045,"current_range_meters":28800,"station_id":"ce4bgqh2rcd13ifvqc4g","pricing_plan_id":"free"},{"bike_id":"11bdb3b4-e1c0-46fa-ac05-12bdb2dc0ffb","system_id":"levelo_inurba_marseille","lat":43.311131,"lon":5.377651,"is_reserved":false,"is_disabled":false,"rental_uris":{"android":"levelo://app?vid=11bdb3b4-e1c0-46fa-ac05-12bdb2dc0ffb","ios":"levelo://app?vid=11bdb3b4-e1c0-46fa-ac05-12bdb2dc0ffb"},"vehicle_type_id":"4","last_reported":1690654045,"current_range_meters":22000,"station_id":"ce4bgt92rcd13ifvqcg0","pricing_plan_id":"free"},{"bike_id":"ec94505f-3139-4373-8e0d-97b9df42b605","system_id":"levelo_inurba_marseille","lat":43.30795,"lon":5.37641,"is_reserved":false,"is_disabled":false,"rental_uris":{"android":"levelo://app?vid=ec94505f-3139-4373-8e0d-97b9df42b605","ios":"levelo://app?vid=ec94505f-3139-4373-8e0d-97b9df42b605"},"vehicle_type_id":"4","last_reported":1690654045,"current_range_meters":15600,"station_id":"ce4bgv92rcd13ifvqcq0","pricing_plan_id":"free"},{"bike_id":"1c403c27-9d53-4e72-89db-549e5ff196fd","system_id":"levelo_inurba_marseille","lat":43.30796,"lon":5.3765,"is_reserved":false,"is_disabled":false,"rental_uris":{"android":"levelo://app?vid=1c403c27-9d53-4e72-89db-549e5ff196fd","ios":"levelo://app?vid=1c403c27-9d53-4e72-89db-549e5ff196fd"},"vehicle_type_id":"4","last_reported":1690654045,"current_range_meters":18400,"station_id":"ce4bgv92rcd13ifvqcq0","pricing_plan_id":"free"},{"bike_id":"7276f5fd-8d35-4d4c-9efc-8d2ffe25c9bd","system_id":"levelo_inurba_marseille","lat":43.31083,"lon":5.37843,"is_reserved":false,"is_disabled":false,"rental_uris":{"android":"levelo://app?vid=7276f5fd-8d35-4d4c-9efc-8d2ffe25c9bd","ios":"levelo://app?vid=7276f5fd-8d35-4d4c-9efc-8d2ffe25c9bd"},"vehicle_type_id":"4","last_reported":1690654045,"current_range_meters":3200,"station_id":"","pricing_plan_id":"free"},{"bike_id":"d8ac299b-7b85-4e93-8aa7-2e6be63e5689","system_id":"levelo_inurba_marseille","lat":43.317075,"lon":5.377367,"is_reserved":false,"is_disabled":false,"rental_uris":{"android":"levelo://app?vid=d8ac299b-7b85-4e93-8aa7-2e6be63e5689","ios":"levelo://app?vid=d8ac299b-7b85-4e93-8aa7-2e6be63e5689"},"vehicle_type_id":"4","last_reported":1690654045,"current_range_meters":31600,"station_id":"ce4bgth2rcd13ifvqch0","pricing_plan_id":"free"},{"bike_id":"54e8bbd0-88aa-4ddb-a483-d897b5ef40d7","system_id":"levelo_inurba_marseille","lat":43.317075,"lon":5.377367,"is_reserved":false,"is_disabled":false,"rental_uris":{"android":"levelo://app?vid=54e8bbd0-88aa-4ddb-a483-d897b5ef40d7","ios":"levelo://app?vid=54e8bbd0-88aa-4ddb-a483-d897b5ef40d7"},"vehicle_type_id":"4","last_reported":1690654045,"current_range_meters":25600,"station_id":"ce4bgth2rcd13ifvqch0","pricing_plan_id":"free"},{"bike_id":"4e9ce199-97b7-4738-8ca8-7d142b671092","system_id":"levelo_inurba_marseille","lat":43.317075,"lon":5.377367,"is_reserved":false,"is_disabled":false,"rental_uris":{"android":"levelo://app?vid=4e9ce199-97b7-4738-8ca8-7d142b671092","ios":"levelo://app?vid=4e9ce199-97b7-4738-8ca8-7d142b671092"},"vehicle_type_id":"4","last_reported":1690654045,"current_range_meters":23600,"station_id":"ce4bgth2rcd13ifvqch0","pricing_plan_id":"free"},{"bike_id":"3b69d8cb-a3e6-4b29-b50f-b8548dcc2195","system_id":"levelo_inurba_marseille","lat":43.317075,"lon":5.377367,"is_reserved":false,"is_disabled":false,"rental_uris":{"android":"levelo://app?vid=3b69d8cb-a3e6-4b29-b50f-b8548dcc2195","ios":"levelo://app?vid=3b69d8cb-a3e6-4b29-b50f-b8548dcc2195"},"vehicle_type_id":"4","last_reported":1690654045,"current_range_meters":16800,"station_id":"ce4bgth2rcd13ifvqch0","pricing_plan_id":"free"},{"bike_id":"2aa6be64-bf3e-4b13-b0cb-6a0c4ef23979","system_id":"levelo_inurba_marseille","lat":43.317075,"lon":5.377367,"is_reserved":false,"is_disabled":false,"rental_uris":{"android":"levelo://app?vid=2aa6be64-bf3e-4b13-b0cb-6a0c4ef23979","ios":"levelo://app?vid=2aa6be64-bf3e-4b13-b0cb-6a0c4ef23979"},"vehicle_type_id":"4","last_reported":1690654045,"current_range_meters":31200,"station_id":"ce4bgth2rcd13ifvqch0","pricing_plan_id":"free"},{"bike_id":"f2f804a2-cd8f-4ead-82dc-29a77c1e036f","system_id":"levelo_inurba_marseille","lat":43.317075,"lon":5.377367,"is_reserved":false,"is_disabled":false,"rental_uris":{"android":"levelo://app?vid=f2f804a2-cd8f-4ead-82dc-29a77c1e036f","ios":"levelo://app?vid=f2f804a2-cd8f-4ead-82dc-29a77c1e036f"},"vehicle_type_id":"4","last_reported":1690654045,"current_range_meters":12800,"station_id":"ce4bgth2rcd13ifvqch0","pricing_plan_id":"free"},{"bike_id":"016ba993-6d4c-4c46-a960-2dcbd4ea472c","system_id":"levelo_inurba_marseille","lat":43.315293,"lon":5.380349,"is_reserved":false,"is_disabled":false,"rental_uris":{"android":"levelo://app?vid=016ba993-6d4c-4c46-a960-2dcbd4ea472c","ios":"levelo://app?vid=016ba993-6d4c-4c46-a960-2dcbd4ea472c"},"vehicle_type_id":"4","last_reported":1690654045,"current_range_meters":6800,"station_id":"ce4bhsp2rcd13ifvqi50","pricing_plan_id":"free"},{"bike_id":"c53df0bc-8e9c-4042-8274-c10725e7ca1f","system_id":"levelo_inurba_marseille","lat":43.315293,"lon":5.380349,"is_reserved":false,"is_disabled":false,"rental_uris":{"android":"levelo://app?vid=c53df0bc-8e9c-4042-8274-c10725e7ca1f","ios":"levelo://app?vid=c53df0bc-8e9c-4042-8274-c10725e7ca1f"},"vehicle_type_id":"4","last_reported":1690654045,"current_range_meters":15600,"station_id":"ce4bhsp2rcd13ifvqi50","pricing_plan_id":"free"},{"bike_id":"02065c08-a6e3-4111-b545-1118ba5f54e1","system_id":"levelo_inurba_marseille","lat":43.301939,"lon":5.366286,"is_reserved":false,"is_disabled":false,"rental_uris":{"android":"levelo://app?vid=02065c08-a6e3-4111-b545-1118ba5f54e1","ios":"levelo://app?vid=02065c08-a6e3-4111-b545-1118ba5f54e1"},"vehicle_type_id":"4","last_reported":1690654045,"current_range_meters":21600,"station_id":"ce4bgrh2rcd13ifvqc8g","pricing_plan_id":"free"},{"bike_id":"b97b76f9-e7fa-4b92-b25f-51b4809a34ad","system_id":"levelo_inurba_marseille","lat":43.304606,"lon":5.379026,"is_reserved":false,"is_disabled":false,"rental_uris":{"android":"levelo://app?vid=b97b76f9-e7fa-4b92-b25f-51b4809a34ad","ios":"levelo://app?vid=b97b76f9-e7fa-4b92-b25f-51b4809a34ad"},"vehicle_type_id":"4","last_reported":1690654045,"current_range_meters":29200,"station_id":"ce4bgup2rcd13ifvqcn0","pricing_plan_id":"free"},{"bike_id":"2edd8615-84c2-4f05-8912-87709b99dba2","system_id":"levelo_inurba_marseille","lat":43.304606,"lon":5.379026,"is_reserved":false,"is_disabled":false,"rental_uris":{"android":"levelo://app?vid=2edd8615-84c2-4f05-8912-87709b99dba2","ios":"levelo://app?vid=2edd8615-84c2-4f05-8912-87709b99dba2"},"vehicle_type_id":"4","last_reported":1690654045,"current_range_meters":10400,"station_id":"ce4bgup2rcd13ifvqcn0","pricing_plan_id":"free"},{"bike_id":"d4014827-e604-4dea-a2a8-1c01d3491eae","system_id":"levelo_inurba_marseille","lat":43.304606,"lon":5.379026,"is_reserved":false,"is_disabled":false,"rental_uris":{"android":"levelo://app?vid=d4014827-e604-4dea-a2a8-1c01d3491eae","ios":"levelo://app?vid=d4014827-e604-4dea-a2a8-1c01d3491eae"},"vehicle_type_id":"4","last_reported":1690654045,"current_range_meters":16400,"station_id":"ce4bgup2rcd13ifvqcn0","pricing_plan_id":"free"},{"bike_id":"03575812-0a64-4ba4-8422-f2e96d9d180c","system_id":"levelo_inurba_marseille","lat":43.304606,"lon":5.379026,"is_reserved":false,"is_disabled":false,"rental_uris":{"android":"levelo://app?vid=03575812-0a64-4ba4-8422-f2e96d9d180c","ios":"levelo://app?vid=03575812-0a64-4ba4-8422-f2e96d9d180c"},"vehicle_type_id":"4","last_reported":1690654045,"current_range_meters":10800,"station_id":"ce4bgup2rcd13ifvqcn0","pricing_plan_id":"free"},{"bike_id":"44450f25-105c-42dc-b5a8-bb93672c2f61","system_id":"levelo_inurba_marseille","lat":43.304606,"lon":5.379026,"is_reserved":false,"is_disabled":false,"rental_uris":{"android":"levelo://app?vid=44450f25-105c-42dc-b5a8-bb93672c2f61","ios":"levelo://app?vid=44450f25-105c-42dc-b5a8-bb93672c2f61"},"vehicle_type_id":"4","last_reported":1690654045,"current_range_meters":11200,"station_id":"ce4bgup2rcd13ifvqcn0","pricing_plan_id":"free"},{"bike_id":"690228a2-fbda-4557-b4bb-77a0f70cc043","system_id":"levelo_inurba_marseille","lat":43.304606,"lon":5.379026,"is_reserved":false,"is_disabled":false,"rental_uris":{"android":"levelo://app?vid=690228a2-fbda-4557-b4bb-77a0f70cc043","ios":"levelo://app?vid=690228a2-fbda-4557-b4bb-77a0f70cc043"},"vehicle_type_id":"4","last_reported":1690654045,"current_range_meters":18400,"station_id":"ce4bgup2rcd13ifvqcn0","pricing_plan_id":"free"},{"bike_id":"774b550d-08c1-4c75-836f-a097fec41428","system_id":"levelo_inurba_marseille","lat":43.302784,"lon":5.377158,"is_reserved":false,"is_disabled":false,"rental_uris":{"android":"levelo://app?vid=774b550d-08c1-4c75-836f-a097fec41428","ios":"levelo://app?vid=774b550d-08c1-4c75-836f-a097fec41428"},"vehicle_type_id":"4","last_reported":1690654045,"current_range_meters":14800,"station_id":"ce4bguh2rcd13ifvqcj0","pricing_plan_id":"free"},{"bike_id":"b8a9e4b7-5265-4d5e-bf97-a9db69f26e48","system_id":"levelo_inurba_marseille","lat":43.302784,"lon":5.377158,"is_reserved":false,"is_disabled":false,"rental_uris":{"android":"levelo://app?vid=b8a9e4b7-5265-4d5e-bf97-a9db69f26e48","ios":"levelo://app?vid=b8a9e4b7-5265-4d5e-bf97-a9db69f26e48"},"vehicle_type_id":"4","last_reported":1690654045,"current_range_meters":1600,"station_id":"ce4bguh2rcd13ifvqcj0","pricing_plan_id":"free"},{"bike_id":"db6c626d-b293-4858-a455-021d7009beb7","system_id":"levelo_inurba_marseille","lat":43.30142,"lon":5.37407,"is_reserved":false,"is_disabled":false,"rental_uris":{"android":"levelo://app?vid=db6c626d-b293-4858-a455-021d7009beb7","ios":"levelo://app?vid=db6c626d-b293-4858-a455-021d7009beb7"},"vehicle_type_id":"4","last_reported":1690654045,"current_range_meters":0,"station_id":"ce4bgs92rcd13ifvqcc0","pricing_plan_id":"free"},{"bike_id":"b4ab33b2-c1ec-4c02-a701-e3629913f687","system_id":"levelo_inurba_marseille","lat":43.30144,"lon":5.37414,"is_reserved":false,"is_disabled":false,"rental_uris":{"android":"levelo://app?vid=b4ab33b2-c1ec-4c02-a701-e3629913f687","ios":"levelo://app?vid=b4ab33b2-c1ec-4c02-a701-e3629913f687"},"vehicle_type_id":"4","last_reported":1690654045,"current_range_meters":18000,"station_id":"ce4bgs92rcd13ifvqcc0","pricing_plan_id":"free"},{"bike_id":"8710437d-1e66-4343-96e5-4614552132bf","system_id":"levelo_inurba_marseille","lat":43.302784,"lon":5.377158,"is_reserved":false,"is_disabled":false,"rental_uris":{"android":"levelo://app?vid=8710437d-1e66-4343-96e5-4614552132bf","ios":"levelo://app?vid=8710437d-1e66-4343-96e5-4614552132bf"},"vehicle_type_id":"4","last_reported":1690654045,"current_range_meters":4800,"station_id":"ce4bguh2rcd13ifvqcj0","pricing_plan_id":"free"},{"bike_id":"c0f28f3e-c2ef-4ccc-9e77-32b75d1cc879","system_id":"levelo_inurba_marseille","lat":43.30143,"lon":5.37412,"is_reserved":false,"is_disabled":false,"rental_uris":{"android":"levelo://app?vid=c0f28f3e-c2ef-4ccc-9e77-32b75d1cc879","ios":"levelo://app?vid=c0f28f3e-c2ef-4ccc-9e77-32b75d1cc879"},"vehicle_type_id":"4","last_reported":1690654045,"current_range_meters":17600,"station_id":"ce4bgs92rcd13ifvqcc0","pricing_plan_id":"free"},{"bike_id":"9b60089e-bb80-4500-a611-1a4c3ee390b8","system_id":"levelo_inurba_marseille","lat":43.30144,"lon":5.37416,"is_reserved":false,"is_disabled":false,"rental_uris":{"android":"levelo://app?vid=9b60089e-bb80-4500-a611-1a4c3ee390b8","ios":"levelo://app?vid=9b60089e-bb80-4500-a611-1a4c3ee390b8"},"vehicle_type_id":"4","last_reported":1690654045,"current_range_meters":15600,"station_id":"ce4bgs92rcd13ifvqcc0","pricing_plan_id":"free"},{"bike_id":"93c022b9-2133-4d82-b7e2-4b6c11a8e8e9","system_id":"levelo_inurba_marseille","lat":43.301427,"lon":5.374163,"is_reserved":false,"is_disabled":false,"rental_uris":{"android":"levelo://app?vid=93c022b9-2133-4d82-b7e2-4b6c11a8e8e9","ios":"levelo://app?vid=93c022b9-2133-4d82-b7e2-4b6c11a8e8e9"},"vehicle_type_id":"4","last_reported":1690654045,"current_range_meters":21600,"station_id":"ce4bgs92rcd13ifvqcc0","pricing_plan_id":"free"},{"bike_id":"e5995db1-4b35-4df2-9c27-6439b4b39af2","system_id":"levelo_inurba_marseille","lat":43.30142,"lon":5.37417,"is_reserved":false,"is_disabled":false,"rental_uris":{"android":"levelo://app?vid=e5995db1-4b35-4df2-9c27-6439b4b39af2","ios":"levelo://app?vid=e5995db1-4b35-4df2-9c27-6439b4b39af2"},"vehicle_type_id":"4","last_reported":1690654045,"current_range_meters":16400,"station_id":"ce4bgs92rcd13ifvqcc0","pricing_plan_id":"free"},{"bike_id":"226303c6-1707-46e6-8270-e158adfc291e","system_id":"levelo_inurba_marseille","lat":43.304606,"lon":5.379026,"is_reserved":false,"is_disabled":false,"rental_uris":{"android":"levelo://app?vid=226303c6-1707-46e6-8270-e158adfc291e","ios":"levelo://app?vid=226303c6-1707-46e6-8270-e158adfc291e"},"vehicle_type_id":"4","last_reported":1690654045,"current_range_meters":6400,"station_id":"ce4bgup2rcd13ifvqcn0","pricing_plan_id":"free"},{"bike_id":"c43e2b2d-251a-42cd-9de8-d3e6cca1744d","system_id":"levelo_inurba_marseille","lat":43.313571,"lon":5.384829,"is_reserved":false,"is_disabled":false,"rental_uris":{"android":"levelo://app?vid=c43e2b2d-251a-42cd-9de8-d3e6cca1744d","ios":"levelo://app?vid=c43e2b2d-251a-42cd-9de8-d3e6cca1744d"},"vehicle_type_id":"4","last_reported":1690654045,"current_range_meters":8800,"station_id":"ce4bgt92rcd13ifvqcf0","pricing_plan_id":"free"},{"bike_id":"ed8f5f13-1833-46dd-a1d8-c731e369dd4e","system_id":"levelo_inurba_marseille","lat":43.313571,"lon":5.384829,"is_reserved":false,"is_disabled":false,"rental_uris":{"android":"levelo://app?vid=ed8f5f13-1833-46dd-a1d8-c731e369dd4e","ios":"levelo://app?vid=ed8f5f13-1833-46dd-a1d8-c731e369dd4e"},"vehicle_type_id":"4","last_reported":1690654045,"current_range_meters":0,"station_id":"ce4bgt92rcd13ifvqcf0","pricing_plan_id":"free"},{"bike_id":"3780c1ec-69e9-4c55-a2ce-333af1609ca0","system_id":"levelo_inurba_marseille","lat":43.313571,"lon":5.384829,"is_reserved":false,"is_disabled":false,"rental_uris":{"android":"levelo://app?vid=3780c1ec-69e9-4c55-a2ce-333af1609ca0","ios":"levelo://app?vid=3780c1ec-69e9-4c55-a2ce-333af1609ca0"},"vehicle_type_id":"4","last_reported":1690654045,"current_range_meters":6800,"station_id":"ce4bgt92rcd13ifvqcf0","pricing_plan_id":"free"},{"bike_id":"8f8f6f2d-436d-44bf-98dc-7430ffba6ed1","system_id":"levelo_inurba_marseille","lat":43.29944,"lon":5.36524,"is_reserved":false,"is_disabled":false,"rental_uris":{"android":"levelo://app?vid=8f8f6f2d-436d-44bf-98dc-7430ffba6ed1","ios":"levelo://app?vid=8f8f6f2d-436d-44bf-98dc-7430ffba6ed1"},"vehicle_type_id":"4","last_reported":1690654045,"current_range_meters":26000,"station_id":"ce4bgm92rcd13ifvqbr0","pricing_plan_id":"free"},{"bike_id":"4235dbb4-f8ee-423f-b983-a6fcdc492e4d","system_id":"levelo_inurba_marseille","lat":43.299214,"lon":5.365506,"is_reserved":false,"is_disabled":false,"rental_uris":{"android":"levelo://app?vid=4235dbb4-f8ee-423f-b983-a6fcdc492e4d","ios":"levelo://app?vid=4235dbb4-f8ee-423f-b983-a6fcdc492e4d"},"vehicle_type_id":"4","last_reported":1690654045,"current_range_meters":28400,"station_id":"","pricing_plan_id":"free"},{"bike_id":"1697b6c3-5d55-4500-9af2-8c9263c0c644","system_id":"levelo_inurba_marseille","lat":43.298433,"lon":5.362774,"is_reserved":false,"is_disabled":false,"rental_uris":{"android":"levelo://app?vid=1697b6c3-5d55-4500-9af2-8c9263c0c644","ios":"levelo://app?vid=1697b6c3-5d55-4500-9af2-8c9263c0c644"},"vehicle_type_id":"4","last_reported":1690654045,"current_range_meters":5200,"station_id":"ce4bgpp2rcd13ifvqc3g","pricing_plan_id":"free"},{"bike_id":"fb2c6dfa-1239-4ca6-9772-fac5a61fd4eb","system_id":"levelo_inurba_marseille","lat":43.298433,"lon":5.362774,"is_reserved":false,"is_disabled":false,"rental_uris":{"android":"levelo://app?vid=fb2c6dfa-1239-4ca6-9772-fac5a61fd4eb","ios":"levelo://app?vid=fb2c6dfa-1239-4ca6-9772-fac5a61fd4eb"},"vehicle_type_id":"4","last_reported":1690654045,"current_range_meters":22400,"station_id":"ce4bgpp2rcd13ifvqc3g","pricing_plan_id":"free"},{"bike_id":"f207de09-4102-4d73-98cf-30b509a648b2","system_id":"levelo_inurba_marseille","lat":43.298433,"lon":5.362774,"is_reserved":false,"is_disabled":false,"rental_uris":{"android":"levelo://app?vid=f207de09-4102-4d73-98cf-30b509a648b2","ios":"levelo://app?vid=f207de09-4102-4d73-98cf-30b509a648b2"},"vehicle_type_id":"4","last_reported":1690654045,"current_range_meters":31200,"station_id":"ce4bgpp2rcd13ifvqc3g","pricing_plan_id":"free"},{"bike_id":"27f75cbe-a9ed-461f-9651-ec70eb861b91","system_id":"levelo_inurba_marseille","lat":43.298433,"lon":5.362774,"is_reserved":false,"is_disabled":false,"rental_uris":{"android":"levelo://app?vid=27f75cbe-a9ed-461f-9651-ec70eb861b91","ios":"levelo://app?vid=27f75cbe-a9ed-461f-9651-ec70eb861b91"},"vehicle_type_id":"4","last_reported":1690654045,"current_range_meters":22400,"station_id":"ce4bgpp2rcd13ifvqc3g","pricing_plan_id":"free"},{"bike_id":"3245b154-8834-4ab3-8568-edc1c7807e2a","system_id":"levelo_inurba_marseille","lat":43.298433,"lon":5.362774,"is_reserved":false,"is_disabled":false,"rental_uris":{"android":"levelo://app?vid=3245b154-8834-4ab3-8568-edc1c7807e2a","ios":"levelo://app?vid=3245b154-8834-4ab3-8568-edc1c7807e2a"},"vehicle_type_id":"4","last_reported":1690654045,"current_range_meters":16800,"station_id":"ce4bgpp2rcd13ifvqc3g","pricing_plan_id":"free"},{"bike_id":"798c62e4-5cf4-49fc-a257-d8a40bff3b6a","system_id":"levelo_inurba_marseille","lat":43.298433,"lon":5.362774,"is_reserved":false,"is_disabled":false,"rental_uris":{"android":"levelo://app?vid=798c62e4-5cf4-49fc-a257-d8a40bff3b6a","ios":"levelo://app?vid=798c62e4-5cf4-49fc-a257-d8a40bff3b6a"},"vehicle_type_id":"4","last_reported":1690654045,"current_range_meters":10000,"station_id":"ce4bgpp2rcd13ifvqc3g","pricing_plan_id":"free"},{"bike_id":"30537d43-af02-4a10-b928-7b9b8cf633d2","system_id":"levelo_inurba_marseille","lat":43.30535,"lon":5.38427,"is_reserved":false,"is_disabled":false,"rental_uris":{"android":"levelo://app?vid=30537d43-af02-4a10-b928-7b9b8cf633d2","ios":"levelo://app?vid=30537d43-af02-4a10-b928-7b9b8cf633d2"},"vehicle_type_id":"4","last_reported":1690654045,"current_range_meters":30800,"station_id":"ce4bgg92rcd13ifvqb30","pricing_plan_id":"free"},{"bike_id":"35451bd8-5b5d-4469-9b9b-85226abebe79","system_id":"levelo_inurba_marseille","lat":43.298433,"lon":5.362774,"is_reserved":false,"is_disabled":false,"rental_uris":{"android":"levelo://app?vid=35451bd8-5b5d-4469-9b9b-85226abebe79","ios":"levelo://app?vid=35451bd8-5b5d-4469-9b9b-85226abebe79"},"vehicle_type_id":"4","last_reported":1690654045,"current_range_meters":5600,"station_id":"ce4bgpp2rcd13ifvqc3g","pricing_plan_id":"free"},{"bike_id":"f3647de1-8a36-4d9b-8b9d-1de679f7ec27","system_id":"levelo_inurba_marseille","lat":43.298433,"lon":5.362774,"is_reserved":false,"is_disabled":false,"rental_uris":{"android":"levelo://app?vid=f3647de1-8a36-4d9b-8b9d-1de679f7ec27","ios":"levelo://app?vid=f3647de1-8a36-4d9b-8b9d-1de679f7ec27"},"vehicle_type_id":"4","last_reported":1690654045,"current_range_meters":14400,"station_id":"ce4bgpp2rcd13ifvqc3g","pricing_plan_id":"free"},{"bike_id":"2d45ceb0-9d75-4371-bcc5-e59715596bf0","system_id":"levelo_inurba_marseille","lat":43.311722,"lon":5.387247,"is_reserved":false,"is_disabled":false,"rental_uris":{"android":"levelo://app?vid=2d45ceb0-9d75-4371-bcc5-e59715596bf0","ios":"levelo://app?vid=2d45ceb0-9d75-4371-bcc5-e59715596bf0"},"vehicle_type_id":"4","last_reported":1690654045,"current_range_meters":7200,"station_id":"ce4bgv12rcd13ifvqcp0","pricing_plan_id":"free"},{"bike_id":"05452fe6-0f72-4ed5-a098-641614111cf0","system_id":"levelo_inurba_marseille","lat":43.299243,"lon":5.37481,"is_reserved":false,"is_disabled":false,"rental_uris":{"android":"levelo://app?vid=05452fe6-0f72-4ed5-a098-641614111cf0","ios":"levelo://app?vid=05452fe6-0f72-4ed5-a098-641614111cf0"},"vehicle_type_id":"4","last_reported":1690654045,"current_range_meters":29600,"station_id":"ce4bgjh2rcd13ifvqbg0","pricing_plan_id":"free"},{"bike_id":"913dd71f-5890-44b5-83a6-30cea735ee4e","system_id":"levelo_inurba_marseille","lat":43.299243,"lon":5.37481,"is_reserved":false,"is_disabled":false,"rental_uris":{"android":"levelo://app?vid=913dd71f-5890-44b5-83a6-30cea735ee4e","ios":"levelo://app?vid=913dd71f-5890-44b5-83a6-30cea735ee4e"},"vehicle_type_id":"4","last_reported":1690654045,"current_range_meters":0,"station_id":"ce4bgjh2rcd13ifvqbg0","pricing_plan_id":"free"},{"bike_id":"3742f4db-9d2b-48d0-a3b1-7c1a58b25a06","system_id":"levelo_inurba_marseille","lat":43.299243,"lon":5.37481,"is_reserved":false,"is_disabled":false,"rental_uris":{"android":"levelo://app?vid=3742f4db-9d2b-48d0-a3b1-7c1a58b25a06","ios":"levelo://app?vid=3742f4db-9d2b-48d0-a3b1-7c1a58b25a06"},"vehicle_type_id":"4","last_reported":1690654045,"current_range_meters":3200,"station_id":"ce4bgjh2rcd13ifvqbg0","pricing_plan_id":"free"},{"bike_id":"79d23c5b-e4fa-40b1-9056-d903efe6d903","system_id":"levelo_inurba_marseille","lat":43.298433,"lon":5.362774,"is_reserved":false,"is_disabled":false,"rental_uris":{"android":"levelo://app?vid=79d23c5b-e4fa-40b1-9056-d903efe6d903","ios":"levelo://app?vid=79d23c5b-e4fa-40b1-9056-d903efe6d903"},"vehicle_type_id":"4","last_reported":1690654045,"current_range_meters":6000,"station_id":"ce4bgpp2rcd13ifvqc3g","pricing_plan_id":"free"},{"bike_id":"72d61bca-57ec-48bd-ba21-e552476b9494","system_id":"levelo_inurba_marseille","lat":43.311722,"lon":5.387247,"is_reserved":false,"is_disabled":false,"rental_uris":{"android":"levelo://app?vid=72d61bca-57ec-48bd-ba21-e552476b9494","ios":"levelo://app?vid=72d61bca-57ec-48bd-ba21-e552476b9494"},"vehicle_type_id":"4","last_reported":1690654045,"current_range_meters":17600,"station_id":"ce4bgv12rcd13ifvqcp0","pricing_plan_id":"free"},{"bike_id":"fead3f1e-e9e6-4830-9da4-e98cba309113","system_id":"levelo_inurba_marseille","lat":43.322872,"lon":5.382756,"is_reserved":false,"is_disabled":false,"rental_uris":{"android":"levelo://app?vid=fead3f1e-e9e6-4830-9da4-e98cba309113","ios":"levelo://app?vid=fead3f1e-e9e6-4830-9da4-e98cba309113"},"vehicle_type_id":"4","last_reported":1690654045,"current_range_meters":15600,"station_id":"ce4bhr12rcd13ifvqhqg","pricing_plan_id":"free"},{"bike_id":"3641a761-0636-4e0b-b047-72e86565129d","system_id":"levelo_inurba_marseille","lat":43.32288,"lon":5.38259,"is_reserved":false,"is_disabled":false,"rental_uris":{"android":"levelo://app?vid=3641a761-0636-4e0b-b047-72e86565129d","ios":"levelo://app?vid=3641a761-0636-4e0b-b047-72e86565129d"},"vehicle_type_id":"4","last_reported":1690654045,"current_range_meters":27200,"station_id":"ce4bhr12rcd13ifvqhqg","pricing_plan_id":"free"},{"bike_id":"79bf6da4-5f08-488b-96b1-6e23f74ec5ec","system_id":"levelo_inurba_marseille","lat":43.322872,"lon":5.382756,"is_reserved":false,"is_disabled":false,"rental_uris":{"android":"levelo://app?vid=79bf6da4-5f08-488b-96b1-6e23f74ec5ec","ios":"levelo://app?vid=79bf6da4-5f08-488b-96b1-6e23f74ec5ec"},"vehicle_type_id":"4","last_reported":1690654045,"current_range_meters":15200,"station_id":"ce4bhr12rcd13ifvqhqg","pricing_plan_id":"free"},{"bike_id":"01768fa1-df85-472a-bce4-e98c4f1a7eed","system_id":"levelo_inurba_marseille","lat":43.322872,"lon":5.382756,"is_reserved":false,"is_disabled":false,"rental_uris":{"android":"levelo://app?vid=01768fa1-df85-472a-bce4-e98c4f1a7eed","ios":"levelo://app?vid=01768fa1-df85-472a-bce4-e98c4f1a7eed"},"vehicle_type_id":"4","last_reported":1690654045,"current_range_meters":16000,"station_id":"ce4bhr12rcd13ifvqhqg","pricing_plan_id":"free"},{"bike_id":"a196dbb0-0ca2-44b0-8b03-b7d3a734d20c","system_id":"levelo_inurba_marseille","lat":43.322872,"lon":5.382756,"is_reserved":false,"is_disabled":false,"rental_uris":{"android":"levelo://app?vid=a196dbb0-0ca2-44b0-8b03-b7d3a734d20c","ios":"levelo://app?vid=a196dbb0-0ca2-44b0-8b03-b7d3a734d20c"},"vehicle_type_id":"4","last_reported":1690654045,"current_range_meters":28800,"station_id":"ce4bhr12rcd13ifvqhqg","pricing_plan_id":"free"},{"bike_id":"82f1e03d-e4c3-4aac-b6f0-c9fc3950fe62","system_id":"levelo_inurba_marseille","lat":43.322948,"lon":5.3827,"is_reserved":false,"is_disabled":false,"rental_uris":{"android":"levelo://app?vid=82f1e03d-e4c3-4aac-b6f0-c9fc3950fe62","ios":"levelo://app?vid=82f1e03d-e4c3-4aac-b6f0-c9fc3950fe62"},"vehicle_type_id":"4","last_reported":1690654045,"current_range_meters":24000,"station_id":"","pricing_plan_id":"free"},{"bike_id":"8eb5f9ac-518f-4bed-99f3-82c2a609496e","system_id":"levelo_inurba_marseille","lat":43.297774,"lon":5.370875,"is_reserved":false,"is_disabled":false,"rental_uris":{"android":"levelo://app?vid=8eb5f9ac-518f-4bed-99f3-82c2a609496e","ios":"levelo://app?vid=8eb5f9ac-518f-4bed-99f3-82c2a609496e"},"vehicle_type_id":"4","last_reported":1690654045,"current_range_meters":12800,"station_id":"ce4bgop2rcd13ifvqc1g","pricing_plan_id":"free"},{"bike_id":"69e6e336-3b68-498d-96d3-e09d5c464444","system_id":"levelo_inurba_marseille","lat":43.32823,"lon":5.36672,"is_reserved":false,"is_disabled":false,"rental_uris":{"android":"levelo://app?vid=69e6e336-3b68-498d-96d3-e09d5c464444","ios":"levelo://app?vid=69e6e336-3b68-498d-96d3-e09d5c464444"},"vehicle_type_id":"4","last_reported":1690654045,"current_range_meters":23600,"station_id":"ce4bhs92rcd13ifvqi0g","pricing_plan_id":"free"},{"bike_id":"5b4ea449-8884-4c80-80f7-38ae4af1bc0a","system_id":"levelo_inurba_marseille","lat":43.328371,"lon":5.366909,"is_reserved":false,"is_disabled":false,"rental_uris":{"android":"levelo://app?vid=5b4ea449-8884-4c80-80f7-38ae4af1bc0a","ios":"levelo://app?vid=5b4ea449-8884-4c80-80f7-38ae4af1bc0a"},"vehicle_type_id":"4","last_reported":1690654045,"current_range_meters":30000,"station_id":"ce4bhs92rcd13ifvqi0g","pricing_plan_id":"free"},{"bike_id":"c72ce1d8-c1fd-419a-9fc0-9ddeb92b3914","system_id":"levelo_inurba_marseille","lat":43.32826,"lon":5.36675,"is_reserved":false,"is_disabled":false,"rental_uris":{"android":"levelo://app?vid=c72ce1d8-c1fd-419a-9fc0-9ddeb92b3914","ios":"levelo://app?vid=c72ce1d8-c1fd-419a-9fc0-9ddeb92b3914"},"vehicle_type_id":"4","last_reported":1690654045,"current_range_meters":18400,"station_id":"ce4bhs92rcd13ifvqi0g","pricing_plan_id":"free"},{"bike_id":"3f56ab11-c8db-4856-8929-e236d19fea1e","system_id":"levelo_inurba_marseille","lat":43.328371,"lon":5.366909,"is_reserved":false,"is_disabled":false,"rental_uris":{"android":"levelo://app?vid=3f56ab11-c8db-4856-8929-e236d19fea1e","ios":"levelo://app?vid=3f56ab11-c8db-4856-8929-e236d19fea1e"},"vehicle_type_id":"4","last_reported":1690654045,"current_range_meters":4400,"station_id":"ce4bhs92rcd13ifvqi0g","pricing_plan_id":"free"},{"bike_id":"dd789220-e7b5-42c1-b9dc-dc4243148021","system_id":"levelo_inurba_marseille","lat":43.297163,"lon":5.365866,"is_reserved":false,"is_disabled":false,"rental_uris":{"android":"levelo://app?vid=dd789220-e7b5-42c1-b9dc-dc4243148021","ios":"levelo://app?vid=dd789220-e7b5-42c1-b9dc-dc4243148021"},"vehicle_type_id":"4","last_reported":1690654045,"current_range_meters":32000,"station_id":"ce4bgn12rcd13ifvqbt0","pricing_plan_id":"free"},{"bike_id":"8e93a98e-a630-49ad-92ce-2a315dedee63","system_id":"levelo_inurba_marseille","lat":43.29711,"lon":5.36602,"is_reserved":false,"is_disabled":false,"rental_uris":{"android":"levelo://app?vid=8e93a98e-a630-49ad-92ce-2a315dedee63","ios":"levelo://app?vid=8e93a98e-a630-49ad-92ce-2a315dedee63"},"vehicle_type_id":"4","last_reported":1690654045,"current_range_meters":13200,"station_id":"ce4bgn12rcd13ifvqbt0","pricing_plan_id":"free"},{"bike_id":"77ab2e5b-16e4-4c8c-aa82-ef78999746ee","system_id":"levelo_inurba_marseille","lat":43.29709,"lon":5.36609,"is_reserved":false,"is_disabled":false,"rental_uris":{"android":"levelo://app?vid=77ab2e5b-16e4-4c8c-aa82-ef78999746ee","ios":"levelo://app?vid=77ab2e5b-16e4-4c8c-aa82-ef78999746ee"},"vehicle_type_id":"4","last_reported":1690654045,"current_range_meters":10400,"station_id":"ce4bgn12rcd13ifvqbt0","pricing_plan_id":"free"},{"bike_id":"b2d4b195-99c8-49c0-a3d6-06814fe9b58a","system_id":"levelo_inurba_marseille","lat":43.297087,"lon":5.366057,"is_reserved":false,"is_disabled":false,"rental_uris":{"android":"levelo://app?vid=b2d4b195-99c8-49c0-a3d6-06814fe9b58a","ios":"levelo://app?vid=b2d4b195-99c8-49c0-a3d6-06814fe9b58a"},"vehicle_type_id":"4","last_reported":1690654045,"current_range_meters":6800,"station_id":"ce4bgn12rcd13ifvqbt0","pricing_plan_id":"free"},{"bike_id":"74f6cd0d-8de1-45ff-8afc-c1c88291d3b7","system_id":"levelo_inurba_marseille","lat":43.297163,"lon":5.365866,"is_reserved":false,"is_disabled":false,"rental_uris":{"android":"levelo://app?vid=74f6cd0d-8de1-45ff-8afc-c1c88291d3b7","ios":"levelo://app?vid=74f6cd0d-8de1-45ff-8afc-c1c88291d3b7"},"vehicle_type_id":"4","last_reported":1690654045,"current_range_meters":19200,"station_id":"ce4bgn12rcd13ifvqbt0","pricing_plan_id":"free"},{"bike_id":"52807885-45dd-4b4a-8931-5196a94d9d31","system_id":"levelo_inurba_marseille","lat":43.297163,"lon":5.365866,"is_reserved":false,"is_disabled":false,"rental_uris":{"android":"levelo://app?vid=52807885-45dd-4b4a-8931-5196a94d9d31","ios":"levelo://app?vid=52807885-45dd-4b4a-8931-5196a94d9d31"},"vehicle_type_id":"4","last_reported":1690654045,"current_range_meters":21200,"station_id":"ce4bgn12rcd13ifvqbt0","pricing_plan_id":"free"},{"bike_id":"fb8c8321-bd69-4a43-989c-6e6874af39c8","system_id":"levelo_inurba_marseille","lat":43.29705,"lon":5.36592,"is_reserved":false,"is_disabled":false,"rental_uris":{"android":"levelo://app?vid=fb8c8321-bd69-4a43-989c-6e6874af39c8","ios":"levelo://app?vid=fb8c8321-bd69-4a43-989c-6e6874af39c8"},"vehicle_type_id":"4","last_reported":1690654045,"current_range_meters":800,"station_id":"ce4bgn12rcd13ifvqbt0","pricing_plan_id":"free"},{"bike_id":"c4c75bda-0cfe-4c78-802a-2a0a34d451c9","system_id":"levelo_inurba_marseille","lat":43.29744,"lon":5.36039,"is_reserved":false,"is_disabled":false,"rental_uris":{"android":"levelo://app?vid=c4c75bda-0cfe-4c78-802a-2a0a34d451c9","ios":"levelo://app?vid=c4c75bda-0cfe-4c78-802a-2a0a34d451c9"},"vehicle_type_id":"4","last_reported":1690654045,"current_range_meters":24800,"station_id":"","pricing_plan_id":"free"},{"bike_id":"cf7370c1-273e-49e0-a620-296691215e33","system_id":"levelo_inurba_marseille","lat":43.29685,"lon":5.3729,"is_reserved":false,"is_disabled":false,"rental_uris":{"android":"levelo://app?vid=cf7370c1-273e-49e0-a620-296691215e33","ios":"levelo://app?vid=cf7370c1-273e-49e0-a620-296691215e33"},"vehicle_type_id":"4","last_reported":1690654045,"current_range_meters":0,"station_id":"ce4bgk12rcd13ifvqbj0","pricing_plan_id":"free"},{"bike_id":"3bb7b719-1393-4260-a9df-ef77e6db5d92","system_id":"levelo_inurba_marseille","lat":43.296131,"lon":5.370791,"is_reserved":false,"is_disabled":false,"rental_uris":{"android":"levelo://app?vid=3bb7b719-1393-4260-a9df-ef77e6db5d92","ios":"levelo://app?vid=3bb7b719-1393-4260-a9df-ef77e6db5d92"},"vehicle_type_id":"4","last_reported":1690654045,"current_range_meters":2400,"station_id":"ce4bgnh2rcd13ifvqc0g","pricing_plan_id":"free"},{"bike_id":"9fdafda9-6cc9-4857-9f1f-a55413c86fec","system_id":"levelo_inurba_marseille","lat":43.29596,"lon":5.36729,"is_reserved":false,"is_disabled":false,"rental_uris":{"android":"levelo://app?vid=9fdafda9-6cc9-4857-9f1f-a55413c86fec","ios":"levelo://app?vid=9fdafda9-6cc9-4857-9f1f-a55413c86fec"},"vehicle_type_id":"4","last_reported":1690654045,"current_range_meters":11200,"station_id":"ce4bgph2rcd13ifvqc2g","pricing_plan_id":"free"},{"bike_id":"cd949b16-16c8-4981-967f-38475610d4b8","system_id":"levelo_inurba_marseille","lat":43.29573,"lon":5.367355,"is_reserved":false,"is_disabled":false,"rental_uris":{"android":"levelo://app?vid=cd949b16-16c8-4981-967f-38475610d4b8","ios":"levelo://app?vid=cd949b16-16c8-4981-967f-38475610d4b8"},"vehicle_type_id":"4","last_reported":1690654045,"current_range_meters":24400,"station_id":"ce4bgph2rcd13ifvqc2g","pricing_plan_id":"free"},{"bike_id":"c0fd0a5c-080b-42ef-a21a-f16c07ebb8c3","system_id":"levelo_inurba_marseille","lat":43.296131,"lon":5.370791,"is_reserved":false,"is_disabled":false,"rental_uris":{"android":"levelo://app?vid=c0fd0a5c-080b-42ef-a21a-f16c07ebb8c3","ios":"levelo://app?vid=c0fd0a5c-080b-42ef-a21a-f16c07ebb8c3"},"vehicle_type_id":"4","last_reported":1690654045,"current_range_meters":13200,"station_id":"ce4bgnh2rcd13ifvqc0g","pricing_plan_id":"free"},{"bike_id":"145056d2-bb39-4365-91bc-3f2630b881c0","system_id":"levelo_inurba_marseille","lat":43.29573,"lon":5.367355,"is_reserved":false,"is_disabled":false,"rental_uris":{"android":"levelo://app?vid=145056d2-bb39-4365-91bc-3f2630b881c0","ios":"levelo://app?vid=145056d2-bb39-4365-91bc-3f2630b881c0"},"vehicle_type_id":"4","last_reported":1690654045,"current_range_meters":24000,"station_id":"ce4bgph2rcd13ifvqc2g","pricing_plan_id":"free"},{"bike_id":"faf480b4-3c59-4327-a07f-391a84d880f4","system_id":"levelo_inurba_marseille","lat":43.309589,"lon":5.390258,"is_reserved":false,"is_disabled":false,"rental_uris":{"android":"levelo://app?vid=faf480b4-3c59-4327-a07f-391a84d880f4","ios":"levelo://app?vid=faf480b4-3c59-4327-a07f-391a84d880f4"},"vehicle_type_id":"4","last_reported":1690654045,"current_range_meters":1600,"station_id":"ce4bgup2rcd13ifvqco0","pricing_plan_id":"free"},{"bike_id":"55cf15a0-eb3b-454f-bb3f-bb188a81c2a7","system_id":"levelo_inurba_marseille","lat":43.309589,"lon":5.390258,"is_reserved":false,"is_disabled":false,"rental_uris":{"android":"levelo://app?vid=55cf15a0-eb3b-454f-bb3f-bb188a81c2a7","ios":"levelo://app?vid=55cf15a0-eb3b-454f-bb3f-bb188a81c2a7"},"vehicle_type_id":"4","last_reported":1690654045,"current_range_meters":4800,"station_id":"ce4bgup2rcd13ifvqco0","pricing_plan_id":"free"},{"bike_id":"c47298de-e907-4fbb-91c9-6358eeb26097","system_id":"levelo_inurba_marseille","lat":43.296935,"lon":5.376544,"is_reserved":false,"is_disabled":false,"rental_uris":{"android":"levelo://app?vid=c47298de-e907-4fbb-91c9-6358eeb26097","ios":"levelo://app?vid=c47298de-e907-4fbb-91c9-6358eeb26097"},"vehicle_type_id":"4","last_reported":1690654045,"current_range_meters":2800,"station_id":"ce4bgkh2rcd13ifvqbl0","pricing_plan_id":"free"},{"bike_id":"abd0fb9e-e621-4f55-8823-7b5d64a807fb","system_id":"levelo_inurba_marseille","lat":43.299028,"lon":5.381509,"is_reserved":false,"is_disabled":false,"rental_uris":{"android":"levelo://app?vid=abd0fb9e-e621-4f55-8823-7b5d64a807fb","ios":"levelo://app?vid=abd0fb9e-e621-4f55-8823-7b5d64a807fb"},"vehicle_type_id":"4","last_reported":1690654045,"current_range_meters":13600,"station_id":"ce4bgj12rcd13ifvqbc0","pricing_plan_id":"free"},{"bike_id":"9ff2ed42-01e2-4041-819e-3a287b0d9f80","system_id":"levelo_inurba_marseille","lat":43.309589,"lon":5.390258,"is_reserved":false,"is_disabled":false,"rental_uris":{"android":"levelo://app?vid=9ff2ed42-01e2-4041-819e-3a287b0d9f80","ios":"levelo://app?vid=9ff2ed42-01e2-4041-819e-3a287b0d9f80"},"vehicle_type_id":"4","last_reported":1690654045,"current_range_meters":24400,"station_id":"ce4bgup2rcd13ifvqco0","pricing_plan_id":"free"},{"bike_id":"51a7526d-5ef0-4d39-b57f-348ee970ea55","system_id":"levelo_inurba_marseille","lat":43.309589,"lon":5.390258,"is_reserved":false,"is_disabled":false,"rental_uris":{"android":"levelo://app?vid=51a7526d-5ef0-4d39-b57f-348ee970ea55","ios":"levelo://app?vid=51a7526d-5ef0-4d39-b57f-348ee970ea55"},"vehicle_type_id":"4","last_reported":1690654045,"current_range_meters":7600,"station_id":"ce4bgup2rcd13ifvqco0","pricing_plan_id":"free"},{"bike_id":"617d60d3-0e12-4acd-acb0-8e7d8ac755b1","system_id":"levelo_inurba_marseille","lat":43.309589,"lon":5.390258,"is_reserved":false,"is_disabled":false,"rental_uris":{"android":"levelo://app?vid=617d60d3-0e12-4acd-acb0-8e7d8ac755b1","ios":"levelo://app?vid=617d60d3-0e12-4acd-acb0-8e7d8ac755b1"},"vehicle_type_id":"4","last_reported":1690654045,"current_range_meters":11600,"station_id":"ce4bgup2rcd13ifvqco0","pricing_plan_id":"free"},{"bike_id":"95a5df37-f5d9-4d57-b06d-0937c8a7e11f","system_id":"levelo_inurba_marseille","lat":43.309589,"lon":5.390258,"is_reserved":false,"is_disabled":false,"rental_uris":{"android":"levelo://app?vid=95a5df37-f5d9-4d57-b06d-0937c8a7e11f","ios":"levelo://app?vid=95a5df37-f5d9-4d57-b06d-0937c8a7e11f"},"vehicle_type_id":"4","last_reported":1690654045,"current_range_meters":24000,"station_id":"ce4bgup2rcd13ifvqco0","pricing_plan_id":"free"},{"bike_id":"490bb365-f6db-43bd-925c-c6806127b84b","system_id":"levelo_inurba_marseille","lat":43.309589,"lon":5.390258,"is_reserved":false,"is_disabled":false,"rental_uris":{"android":"levelo://app?vid=490bb365-f6db-43bd-925c-c6806127b84b","ios":"levelo://app?vid=490bb365-f6db-43bd-925c-c6806127b84b"},"vehicle_type_id":"4","last_reported":1690654045,"current_range_meters":6800,"station_id":"ce4bgup2rcd13ifvqco0","pricing_plan_id":"free"},{"bike_id":"37f6d0bd-1f7f-4ca1-ade7-b3c40b8ec444","system_id":"levelo_inurba_marseille","lat":43.309589,"lon":5.390258,"is_reserved":false,"is_disabled":false,"rental_uris":{"android":"levelo://app?vid=37f6d0bd-1f7f-4ca1-ade7-b3c40b8ec444","ios":"levelo://app?vid=37f6d0bd-1f7f-4ca1-ade7-b3c40b8ec444"},"vehicle_type_id":"4","last_reported":1690654045,"current_range_meters":12800,"station_id":"ce4bgup2rcd13ifvqco0","pricing_plan_id":"free"},{"bike_id":"3d2d5cad-ffe1-426d-bb38-45d2bb1301ca","system_id":"levelo_inurba_marseille","lat":43.309589,"lon":5.390258,"is_reserved":false,"is_disabled":false,"rental_uris":{"android":"levelo://app?vid=3d2d5cad-ffe1-426d-bb38-45d2bb1301ca","ios":"levelo://app?vid=3d2d5cad-ffe1-426d-bb38-45d2bb1301ca"},"vehicle_type_id":"4","last_reported":1690654045,"current_range_meters":18800,"station_id":"ce4bgup2rcd13ifvqco0","pricing_plan_id":"free"},{"bike_id":"0f27b11b-bacb-4802-ba4a-a1421f44a6f3","system_id":"levelo_inurba_marseille","lat":43.296921,"lon":5.376579,"is_reserved":false,"is_disabled":false,"rental_uris":{"android":"levelo://app?vid=0f27b11b-bacb-4802-ba4a-a1421f44a6f3","ios":"levelo://app?vid=0f27b11b-bacb-4802-ba4a-a1421f44a6f3"},"vehicle_type_id":"4","last_reported":1690654045,"current_range_meters":29200,"station_id":"ce4bgkh2rcd13ifvqbl0","pricing_plan_id":"free"},{"bike_id":"4b520fd2-1522-4644-826a-8f2318b54ef6","system_id":"levelo_inurba_marseille","lat":43.309589,"lon":5.390258,"is_reserved":false,"is_disabled":false,"rental_uris":{"android":"levelo://app?vid=4b520fd2-1522-4644-826a-8f2318b54ef6","ios":"levelo://app?vid=4b520fd2-1522-4644-826a-8f2318b54ef6"},"vehicle_type_id":"4","last_reported":1690654045,"current_range_meters":14400,"station_id":"ce4bgup2rcd13ifvqco0","pricing_plan_id":"free"},{"bike_id":"ae96f226-2b6d-496b-a500-f2bda6937d94","system_id":"levelo_inurba_marseille","lat":43.309589,"lon":5.390258,"is_reserved":false,"is_disabled":false,"rental_uris":{"android":"levelo://app?vid=ae96f226-2b6d-496b-a500-f2bda6937d94","ios":"levelo://app?vid=ae96f226-2b6d-496b-a500-f2bda6937d94"},"vehicle_type_id":"4","last_reported":1690654045,"current_range_meters":13200,"station_id":"ce4bgup2rcd13ifvqco0","pricing_plan_id":"free"},{"bike_id":"aeb38d1f-e4cf-464a-95cb-25529b49648b","system_id":"levelo_inurba_marseille","lat":43.309589,"lon":5.390258,"is_reserved":false,"is_disabled":false,"rental_uris":{"android":"levelo://app?vid=aeb38d1f-e4cf-464a-95cb-25529b49648b","ios":"levelo://app?vid=aeb38d1f-e4cf-464a-95cb-25529b49648b"},"vehicle_type_id":"4","last_reported":1690654045,"current_range_meters":8800,"station_id":"ce4bgup2rcd13ifvqco0","pricing_plan_id":"free"},{"bike_id":"35285045-86b9-4a84-b608-db5429b91c80","system_id":"levelo_inurba_marseille","lat":43.30948,"lon":5.39029,"is_reserved":false,"is_disabled":false,"rental_uris":{"android":"levelo://app?vid=35285045-86b9-4a84-b608-db5429b91c80","ios":"levelo://app?vid=35285045-86b9-4a84-b608-db5429b91c80"},"vehicle_type_id":"4","last_reported":1690654045,"current_range_meters":21200,"station_id":"ce4bgup2rcd13ifvqco0","pricing_plan_id":"free"},{"bike_id":"069368e5-790a-4859-b2ed-d65abdf756e7","system_id":"levelo_inurba_marseille","lat":43.309589,"lon":5.390258,"is_reserved":false,"is_disabled":false,"rental_uris":{"android":"levelo://app?vid=069368e5-790a-4859-b2ed-d65abdf756e7","ios":"levelo://app?vid=069368e5-790a-4859-b2ed-d65abdf756e7"},"vehicle_type_id":"4","last_reported":1690654045,"current_range_meters":12800,"station_id":"ce4bgup2rcd13ifvqco0","pricing_plan_id":"free"},{"bike_id":"b30cf5bd-4db4-4dea-a7a1-05a72195a442","system_id":"levelo_inurba_marseille","lat":43.309589,"lon":5.390258,"is_reserved":false,"is_disabled":false,"rental_uris":{"android":"levelo://app?vid=b30cf5bd-4db4-4dea-a7a1-05a72195a442","ios":"levelo://app?vid=b30cf5bd-4db4-4dea-a7a1-05a72195a442"},"vehicle_type_id":"4","last_reported":1690654045,"current_range_meters":19200,"station_id":"ce4bgup2rcd13ifvqco0","pricing_plan_id":"free"},{"bike_id":"ce004035-2933-434a-b8b4-6d2e79a8371a","system_id":"levelo_inurba_marseille","lat":43.309589,"lon":5.390258,"is_reserved":false,"is_disabled":false,"rental_uris":{"android":"levelo://app?vid=ce004035-2933-434a-b8b4-6d2e79a8371a","ios":"levelo://app?vid=ce004035-2933-434a-b8b4-6d2e79a8371a"},"vehicle_type_id":"4","last_reported":1690654045,"current_range_meters":10800,"station_id":"ce4bgup2rcd13ifvqco0","pricing_plan_id":"free"},{"bike_id":"f0b1921d-8fc5-42f6-8214-26455e772ce5","system_id":"levelo_inurba_marseille","lat":43.309589,"lon":5.390258,"is_reserved":false,"is_disabled":false,"rental_uris":{"android":"levelo://app?vid=f0b1921d-8fc5-42f6-8214-26455e772ce5","ios":"levelo://app?vid=f0b1921d-8fc5-42f6-8214-26455e772ce5"},"vehicle_type_id":"4","last_reported":1690654045,"current_range_meters":28400,"station_id":"ce4bgup2rcd13ifvqco0","pricing_plan_id":"free"},{"bike_id":"80996baf-8597-4552-b66a-a0139bedf903","system_id":"levelo_inurba_marseille","lat":43.309502,"lon":5.390365,"is_reserved":false,"is_disabled":false,"rental_uris":{"android":"levelo://app?vid=80996baf-8597-4552-b66a-a0139bedf903","ios":"levelo://app?vid=80996baf-8597-4552-b66a-a0139bedf903"},"vehicle_type_id":"4","last_reported":1690654045,"current_range_meters":1600,"station_id":"","pricing_plan_id":"free"},{"bike_id":"e007c265-04c6-4b7a-aa81-884fca1d5f17","system_id":"levelo_inurba_marseille","lat":43.309589,"lon":5.390258,"is_reserved":false,"is_disabled":false,"rental_uris":{"android":"levelo://app?vid=e007c265-04c6-4b7a-aa81-884fca1d5f17","ios":"levelo://app?vid=e007c265-04c6-4b7a-aa81-884fca1d5f17"},"vehicle_type_id":"4","last_reported":1690654045,"current_range_meters":3600,"station_id":"ce4bgup2rcd13ifvqco0","pricing_plan_id":"free"},{"bike_id":"0fb50f29-0925-4774-a0fc-8f8a253f7cad","system_id":"levelo_inurba_marseille","lat":43.309589,"lon":5.390258,"is_reserved":false,"is_disabled":false,"rental_uris":{"android":"levelo://app?vid=0fb50f29-0925-4774-a0fc-8f8a253f7cad","ios":"levelo://app?vid=0fb50f29-0925-4774-a0fc-8f8a253f7cad"},"vehicle_type_id":"4","last_reported":1690654045,"current_range_meters":17200,"station_id":"ce4bgup2rcd13ifvqco0","pricing_plan_id":"free"},{"bike_id":"c3f391a0-dd11-44ce-be54-91d009b5eef0","system_id":"levelo_inurba_marseille","lat":43.309589,"lon":5.390258,"is_reserved":false,"is_disabled":false,"rental_uris":{"android":"levelo://app?vid=c3f391a0-dd11-44ce-be54-91d009b5eef0","ios":"levelo://app?vid=c3f391a0-dd11-44ce-be54-91d009b5eef0"},"vehicle_type_id":"4","last_reported":1690654045,"current_range_meters":18000,"station_id":"ce4bgup2rcd13ifvqco0","pricing_plan_id":"free"},{"bike_id":"7cd06668-7dfe-4aec-bfbe-8a9020f6e254","system_id":"levelo_inurba_marseille","lat":43.309589,"lon":5.390258,"is_reserved":false,"is_disabled":false,"rental_uris":{"android":"levelo://app?vid=7cd06668-7dfe-4aec-bfbe-8a9020f6e254","ios":"levelo://app?vid=7cd06668-7dfe-4aec-bfbe-8a9020f6e254"},"vehicle_type_id":"4","last_reported":1690654045,"current_range_meters":20000,"station_id":"ce4bgup2rcd13ifvqco0","pricing_plan_id":"free"},{"bike_id":"23439822-5d7f-471f-b966-9aac829f44ee","system_id":"levelo_inurba_marseille","lat":43.295748,"lon":5.37522,"is_reserved":false,"is_disabled":false,"rental_uris":{"android":"levelo://app?vid=23439822-5d7f-471f-b966-9aac829f44ee","ios":"levelo://app?vid=23439822-5d7f-471f-b966-9aac829f44ee"},"vehicle_type_id":"4","last_reported":1690654045,"current_range_meters":30000,"station_id":"ce4bgh92rcd13ifvqb50","pricing_plan_id":"free"},{"bike_id":"04fb2949-05cd-4c35-935a-53013e629c87","system_id":"levelo_inurba_marseille","lat":43.299707,"lon":5.384859,"is_reserved":false,"is_disabled":false,"rental_uris":{"android":"levelo://app?vid=04fb2949-05cd-4c35-935a-53013e629c87","ios":"levelo://app?vid=04fb2949-05cd-4c35-935a-53013e629c87"},"vehicle_type_id":"4","last_reported":1690654045,"current_range_meters":14800,"station_id":"ce4bgj92rcd13ifvqbd0","pricing_plan_id":"free"},{"bike_id":"9d5b768f-410e-4149-87d3-dd56fee6c261","system_id":"levelo_inurba_marseille","lat":43.32365,"lon":5.38876,"is_reserved":false,"is_disabled":false,"rental_uris":{"android":"levelo://app?vid=9d5b768f-410e-4149-87d3-dd56fee6c261","ios":"levelo://app?vid=9d5b768f-410e-4149-87d3-dd56fee6c261"},"vehicle_type_id":"4","last_reported":1690654045,"current_range_meters":19600,"station_id":"ce4bhqp2rcd13ifvqhog","pricing_plan_id":"free"},{"bike_id":"80b95fb3-c398-4200-9197-c07b7e0f4e3a","system_id":"levelo_inurba_marseille","lat":43.32367,"lon":5.388836,"is_reserved":false,"is_disabled":false,"rental_uris":{"android":"levelo://app?vid=80b95fb3-c398-4200-9197-c07b7e0f4e3a","ios":"levelo://app?vid=80b95fb3-c398-4200-9197-c07b7e0f4e3a"},"vehicle_type_id":"4","last_reported":1690654045,"current_range_meters":25200,"station_id":"ce4bhqp2rcd13ifvqhog","pricing_plan_id":"free"},{"bike_id":"07626e31-d767-4fb5-9f3e-0ff447d974e5","system_id":"levelo_inurba_marseille","lat":43.32364,"lon":5.38881,"is_reserved":false,"is_disabled":false,"rental_uris":{"android":"levelo://app?vid=07626e31-d767-4fb5-9f3e-0ff447d974e5","ios":"levelo://app?vid=07626e31-d767-4fb5-9f3e-0ff447d974e5"},"vehicle_type_id":"4","last_reported":1690654045,"current_range_meters":12000,"station_id":"ce4bhqp2rcd13ifvqhog","pricing_plan_id":"free"},{"bike_id":"bed242b5-0d00-4bd4-b1a6-8056715969fd","system_id":"levelo_inurba_marseille","lat":43.3237,"lon":5.38876,"is_reserved":false,"is_disabled":false,"rental_uris":{"android":"levelo://app?vid=bed242b5-0d00-4bd4-b1a6-8056715969fd","ios":"levelo://app?vid=bed242b5-0d00-4bd4-b1a6-8056715969fd"},"vehicle_type_id":"4","last_reported":1690654045,"current_range_meters":26400,"station_id":"ce4bhqp2rcd13ifvqhog","pricing_plan_id":"free"},{"bike_id":"823fa69f-5395-4e23-8f2a-c4fb89608510","system_id":"levelo_inurba_marseille","lat":43.32367,"lon":5.38879,"is_reserved":false,"is_disabled":false,"rental_uris":{"android":"levelo://app?vid=823fa69f-5395-4e23-8f2a-c4fb89608510","ios":"levelo://app?vid=823fa69f-5395-4e23-8f2a-c4fb89608510"},"vehicle_type_id":"4","last_reported":1690654045,"current_range_meters":16000,"station_id":"ce4bhqp2rcd13ifvqhog","pricing_plan_id":"free"},{"bike_id":"b0634691-ee98-446f-800c-3ecba2e77fe2","system_id":"levelo_inurba_marseille","lat":43.2931,"lon":5.37175,"is_reserved":false,"is_disabled":false,"rental_uris":{"android":"levelo://app?vid=b0634691-ee98-446f-800c-3ecba2e77fe2","ios":"levelo://app?vid=b0634691-ee98-446f-800c-3ecba2e77fe2"},"vehicle_type_id":"4","last_reported":1690654045,"current_range_meters":24400,"station_id":"ce4bgh92rcd13ifvqb40","pricing_plan_id":"free"},{"bike_id":"5682c21c-2b1b-4a18-98a6-27cac2bc1b5d","system_id":"levelo_inurba_marseille","lat":43.293249,"lon":5.371578,"is_reserved":false,"is_disabled":false,"rental_uris":{"android":"levelo://app?vid=5682c21c-2b1b-4a18-98a6-27cac2bc1b5d","ios":"levelo://app?vid=5682c21c-2b1b-4a18-98a6-27cac2bc1b5d"},"vehicle_type_id":"4","last_reported":1690654045,"current_range_meters":1600,"station_id":"ce4bgh92rcd13ifvqb40","pricing_plan_id":"free"},{"bike_id":"984cc399-4820-4b7c-870e-9ca30b2e62d9","system_id":"levelo_inurba_marseille","lat":43.305994,"lon":5.393687,"is_reserved":false,"is_disabled":false,"rental_uris":{"android":"levelo://app?vid=984cc399-4820-4b7c-870e-9ca30b2e62d9","ios":"levelo://app?vid=984cc399-4820-4b7c-870e-9ca30b2e62d9"},"vehicle_type_id":"4","last_reported":1690654045,"current_range_meters":31600,"station_id":"ce4bh0p2rcd13ifvqd80","pricing_plan_id":"free"},{"bike_id":"da9880fb-094d-481b-905c-10eeb888082b","system_id":"levelo_inurba_marseille","lat":43.305994,"lon":5.393687,"is_reserved":false,"is_disabled":false,"rental_uris":{"android":"levelo://app?vid=da9880fb-094d-481b-905c-10eeb888082b","ios":"levelo://app?vid=da9880fb-094d-481b-905c-10eeb888082b"},"vehicle_type_id":"4","last_reported":1690654045,"current_range_meters":30000,"station_id":"ce4bh0p2rcd13ifvqd80","pricing_plan_id":"free"},{"bike_id":"1b7e085a-bc46-4380-bb16-eaf3a59a666f","system_id":"levelo_inurba_marseille","lat":43.293009,"lon":5.374584,"is_reserved":false,"is_disabled":false,"rental_uris":{"android":"levelo://app?vid=1b7e085a-bc46-4380-bb16-eaf3a59a666f","ios":"levelo://app?vid=1b7e085a-bc46-4380-bb16-eaf3a59a666f"},"vehicle_type_id":"4","last_reported":1690654045,"current_range_meters":17200,"station_id":"ce4bgi12rcd13ifvqb70","pricing_plan_id":"free"},{"bike_id":"f85fbfea-3d36-4750-8e92-83ea442b6029","system_id":"levelo_inurba_marseille","lat":43.305994,"lon":5.393687,"is_reserved":false,"is_disabled":false,"rental_uris":{"android":"levelo://app?vid=f85fbfea-3d36-4750-8e92-83ea442b6029","ios":"levelo://app?vid=f85fbfea-3d36-4750-8e92-83ea442b6029"},"vehicle_type_id":"4","last_reported":1690654045,"current_range_meters":6000,"station_id":"ce4bh0p2rcd13ifvqd80","pricing_plan_id":"free"},{"bike_id":"4aa39dcd-e9f7-493f-a3ce-adea44ea04cc","system_id":"levelo_inurba_marseille","lat":43.293009,"lon":5.374584,"is_reserved":false,"is_disabled":false,"rental_uris":{"android":"levelo://app?vid=4aa39dcd-e9f7-493f-a3ce-adea44ea04cc","ios":"levelo://app?vid=4aa39dcd-e9f7-493f-a3ce-adea44ea04cc"},"vehicle_type_id":"4","last_reported":1690654045,"current_range_meters":6000,"station_id":"ce4bgi12rcd13ifvqb70","pricing_plan_id":"free"},{"bike_id":"3f5089e2-1b9f-4827-b2d6-a638fb21fabd","system_id":"levelo_inurba_marseille","lat":43.292311,"lon":5.360731,"is_reserved":false,"is_disabled":false,"rental_uris":{"android":"levelo://app?vid=3f5089e2-1b9f-4827-b2d6-a638fb21fabd","ios":"levelo://app?vid=3f5089e2-1b9f-4827-b2d6-a638fb21fabd"},"vehicle_type_id":"4","last_reported":1690654045,"current_range_meters":17200,"station_id":"ce4bhbh2rcd13ifvqeqg","pricing_plan_id":"free"},{"bike_id":"7a85bd03-a086-451c-b071-928c9b67dcf8","system_id":"levelo_inurba_marseille","lat":43.29266,"lon":5.37618,"is_reserved":false,"is_disabled":false,"rental_uris":{"android":"levelo://app?vid=7a85bd03-a086-451c-b071-928c9b67dcf8","ios":"levelo://app?vid=7a85bd03-a086-451c-b071-928c9b67dcf8"},"vehicle_type_id":"4","last_reported":1690654045,"current_range_meters":19600,"station_id":"ce4bgi12rcd13ifvqb80","pricing_plan_id":"free"},{"bike_id":"cfb7a3a2-dfdb-435f-9a0b-1c84586d261a","system_id":"levelo_inurba_marseille","lat":43.29205,"lon":5.35794,"is_reserved":false,"is_disabled":false,"rental_uris":{"android":"levelo://app?vid=cfb7a3a2-dfdb-435f-9a0b-1c84586d261a","ios":"levelo://app?vid=cfb7a3a2-dfdb-435f-9a0b-1c84586d261a"},"vehicle_type_id":"4","last_reported":1690654045,"current_range_meters":4800,"station_id":"ce4bhb12rcd13ifvqel0","pricing_plan_id":"free"},{"bike_id":"56ab4b26-35f1-4fcd-ae85-941ec5c63397","system_id":"levelo_inurba_marseille","lat":43.29117,"lon":5.36334,"is_reserved":false,"is_disabled":false,"rental_uris":{"android":"levelo://app?vid=56ab4b26-35f1-4fcd-ae85-941ec5c63397","ios":"levelo://app?vid=56ab4b26-35f1-4fcd-ae85-941ec5c63397"},"vehicle_type_id":"4","last_reported":1690654045,"current_range_meters":15600,"station_id":"","pricing_plan_id":"free"},{"bike_id":"4654eb2e-9ab9-40ab-a2d8-b9ff209f7e6f","system_id":"levelo_inurba_marseille","lat":43.29202,"lon":5.3579,"is_reserved":false,"is_disabled":false,"rental_uris":{"android":"levelo://app?vid=4654eb2e-9ab9-40ab-a2d8-b9ff209f7e6f","ios":"levelo://app?vid=4654eb2e-9ab9-40ab-a2d8-b9ff209f7e6f"},"vehicle_type_id":"4","last_reported":1690654045,"current_range_meters":16800,"station_id":"ce4bhb12rcd13ifvqel0","pricing_plan_id":"free"},{"bike_id":"c8d7e938-fe15-4ab9-87dd-fc9358bd929b","system_id":"levelo_inurba_marseille","lat":43.292,"lon":5.35796,"is_reserved":false,"is_disabled":false,"rental_uris":{"android":"levelo://app?vid=c8d7e938-fe15-4ab9-87dd-fc9358bd929b","ios":"levelo://app?vid=c8d7e938-fe15-4ab9-87dd-fc9358bd929b"},"vehicle_type_id":"4","last_reported":1690654045,"current_range_meters":13200,"station_id":"ce4bhb12rcd13ifvqel0","pricing_plan_id":"free"},{"bike_id":"a94fedeb-d5fa-42b5-a74e-a5425a66813b","system_id":"levelo_inurba_marseille","lat":43.313291,"lon":5.396838,"is_reserved":false,"is_disabled":false,"rental_uris":{"android":"levelo://app?vid=a94fedeb-d5fa-42b5-a74e-a5425a66813b","ios":"levelo://app?vid=a94fedeb-d5fa-42b5-a74e-a5425a66813b"},"vehicle_type_id":"4","last_reported":1690654045,"current_range_meters":10400,"station_id":"ce4bgvp2rcd13ifvqcu0","pricing_plan_id":"free"},{"bike_id":"70cab65e-53ee-4f44-af01-bdfaa0507831","system_id":"levelo_inurba_marseille","lat":43.29194,"lon":5.357961,"is_reserved":false,"is_disabled":false,"rental_uris":{"android":"levelo://app?vid=70cab65e-53ee-4f44-af01-bdfaa0507831","ios":"levelo://app?vid=70cab65e-53ee-4f44-af01-bdfaa0507831"},"vehicle_type_id":"4","last_reported":1690654045,"current_range_meters":26400,"station_id":"ce4bhb12rcd13ifvqel0","pricing_plan_id":"free"},{"bike_id":"5e9d4d0e-1e58-42ad-9d37-6bca6300c034","system_id":"levelo_inurba_marseille","lat":43.29529,"lon":5.385581,"is_reserved":false,"is_disabled":false,"rental_uris":{"android":"levelo://app?vid=5e9d4d0e-1e58-42ad-9d37-6bca6300c034","ios":"levelo://app?vid=5e9d4d0e-1e58-42ad-9d37-6bca6300c034"},"vehicle_type_id":"4","last_reported":1690654045,"current_range_meters":7600,"station_id":"ce4bgih2rcd13ifvqba0","pricing_plan_id":"free"},{"bike_id":"78b02d3d-2677-492a-92e3-b821a64926a3","system_id":"levelo_inurba_marseille","lat":43.29727,"lon":5.38871,"is_reserved":false,"is_disabled":false,"rental_uris":{"android":"levelo://app?vid=78b02d3d-2677-492a-92e3-b821a64926a3","ios":"levelo://app?vid=78b02d3d-2677-492a-92e3-b821a64926a3"},"vehicle_type_id":"4","last_reported":1690654045,"current_range_meters":15600,"station_id":"","pricing_plan_id":"free"},{"bike_id":"de186e69-ca99-429c-b460-c60faae8c9ed","system_id":"levelo_inurba_marseille","lat":43.290779,"lon":5.371482,"is_reserved":false,"is_disabled":false,"rental_uris":{"android":"levelo://app?vid=de186e69-ca99-429c-b460-c60faae8c9ed","ios":"levelo://app?vid=de186e69-ca99-429c-b460-c60faae8c9ed"},"vehicle_type_id":"4","last_reported":1690654045,"current_range_meters":4800,"station_id":"ce4bh5p2rcd13ifvqe4g","pricing_plan_id":"free"},{"bike_id":"09c903ca-c619-4f87-8296-c60469513726","system_id":"levelo_inurba_marseille","lat":43.302008,"lon":5.394694,"is_reserved":false,"is_disabled":false,"rental_uris":{"android":"levelo://app?vid=09c903ca-c619-4f87-8296-c60469513726","ios":"levelo://app?vid=09c903ca-c619-4f87-8296-c60469513726"},"vehicle_type_id":"4","last_reported":1690654045,"current_range_meters":7200,"station_id":"ce4bh0p2rcd13ifvqd70","pricing_plan_id":"free"},{"bike_id":"e2afec4f-0402-4ba1-8c87-03204b9dcc3d","system_id":"levelo_inurba_marseille","lat":43.294153,"lon":5.386305,"is_reserved":false,"is_disabled":false,"rental_uris":{"android":"levelo://app?vid=e2afec4f-0402-4ba1-8c87-03204b9dcc3d","ios":"levelo://app?vid=e2afec4f-0402-4ba1-8c87-03204b9dcc3d"},"vehicle_type_id":"4","last_reported":1690654045,"current_range_meters":9200,"station_id":"ce4bh2h2rcd13ifvqdh0","pricing_plan_id":"free"},{"bike_id":"b1f871c3-7df7-4373-8312-5d26b91f8daf","system_id":"levelo_inurba_marseille","lat":43.29419,"lon":5.38618,"is_reserved":false,"is_disabled":false,"rental_uris":{"android":"levelo://app?vid=b1f871c3-7df7-4373-8312-5d26b91f8daf","ios":"levelo://app?vid=b1f871c3-7df7-4373-8312-5d26b91f8daf"},"vehicle_type_id":"4","last_reported":1690654045,"current_range_meters":25600,"station_id":"ce4bh2h2rcd13ifvqdh0","pricing_plan_id":"free"},{"bike_id":"b0132e04-d74c-422b-b675-71658c3b74bf","system_id":"levelo_inurba_marseille","lat":43.294153,"lon":5.386305,"is_reserved":false,"is_disabled":false,"rental_uris":{"android":"levelo://app?vid=b0132e04-d74c-422b-b675-71658c3b74bf","ios":"levelo://app?vid=b0132e04-d74c-422b-b675-71658c3b74bf"},"vehicle_type_id":"4","last_reported":1690654045,"current_range_meters":13200,"station_id":"ce4bh2h2rcd13ifvqdh0","pricing_plan_id":"free"},{"bike_id":"cadf4a08-5eb9-4def-a070-d9d43f58add4","system_id":"levelo_inurba_marseille","lat":43.294153,"lon":5.386305,"is_reserved":false,"is_disabled":false,"rental_uris":{"android":"levelo://app?vid=cadf4a08-5eb9-4def-a070-d9d43f58add4","ios":"levelo://app?vid=cadf4a08-5eb9-4def-a070-d9d43f58add4"},"vehicle_type_id":"4","last_reported":1690654045,"current_range_meters":17200,"station_id":"ce4bh2h2rcd13ifvqdh0","pricing_plan_id":"free"},{"bike_id":"c0ebed07-ee2d-47fa-8399-4c558a477965","system_id":"levelo_inurba_marseille","lat":43.29418,"lon":5.38632,"is_reserved":false,"is_disabled":false,"rental_uris":{"android":"levelo://app?vid=c0ebed07-ee2d-47fa-8399-4c558a477965","ios":"levelo://app?vid=c0ebed07-ee2d-47fa-8399-4c558a477965"},"vehicle_type_id":"4","last_reported":1690654045,"current_range_meters":26400,"station_id":"ce4bh2h2rcd13ifvqdh0","pricing_plan_id":"free"},{"bike_id":"4286bed9-8efe-4ac4-8177-a82f7f2d5ca2","system_id":"levelo_inurba_marseille","lat":43.29412,"lon":5.38622,"is_reserved":false,"is_disabled":false,"rental_uris":{"android":"levelo://app?vid=4286bed9-8efe-4ac4-8177-a82f7f2d5ca2","ios":"levelo://app?vid=4286bed9-8efe-4ac4-8177-a82f7f2d5ca2"},"vehicle_type_id":"4","last_reported":1690654045,"current_range_meters":12000,"station_id":"ce4bh2h2rcd13ifvqdh0","pricing_plan_id":"free"},{"bike_id":"b0fec925-638d-42ec-9f52-37e8bdb69dff","system_id":"levelo_inurba_marseille","lat":43.289184,"lon":5.366408,"is_reserved":false,"is_disabled":false,"rental_uris":{"android":"levelo://app?vid=b0fec925-638d-42ec-9f52-37e8bdb69dff","ios":"levelo://app?vid=b0fec925-638d-42ec-9f52-37e8bdb69dff"},"vehicle_type_id":"4","last_reported":1690654045,"current_range_meters":4800,"station_id":"ce4bhap2rcd13ifvqek0","pricing_plan_id":"free"},{"bike_id":"0c5c884a-8eb3-4177-81ba-2d05c2c9e6d9","system_id":"levelo_inurba_marseille","lat":43.29416,"lon":5.38635,"is_reserved":false,"is_disabled":false,"rental_uris":{"android":"levelo://app?vid=0c5c884a-8eb3-4177-81ba-2d05c2c9e6d9","ios":"levelo://app?vid=0c5c884a-8eb3-4177-81ba-2d05c2c9e6d9"},"vehicle_type_id":"4","last_reported":1690654045,"current_range_meters":21200,"station_id":"ce4bh2h2rcd13ifvqdh0","pricing_plan_id":"free"},{"bike_id":"407d73eb-98c4-4acf-9f74-039a6c0ef1d2","system_id":"levelo_inurba_marseille","lat":43.309038,"lon":5.396546,"is_reserved":false,"is_disabled":false,"rental_uris":{"android":"levelo://app?vid=407d73eb-98c4-4acf-9f74-039a6c0ef1d2","ios":"levelo://app?vid=407d73eb-98c4-4acf-9f74-039a6c0ef1d2"},"vehicle_type_id":"4","last_reported":1690654045,"current_range_meters":0,"station_id":"ce4bh012rcd13ifvqcv0","pricing_plan_id":"free"},{"bike_id":"c2e2591f-b249-47bf-961b-27fc5a13c673","system_id":"levelo_inurba_marseille","lat":43.289468,"lon":5.363719,"is_reserved":false,"is_disabled":false,"rental_uris":{"android":"levelo://app?vid=c2e2591f-b249-47bf-961b-27fc5a13c673","ios":"levelo://app?vid=c2e2591f-b249-47bf-961b-27fc5a13c673"},"vehicle_type_id":"4","last_reported":1690654045,"current_range_meters":4400,"station_id":"ce4bhc92rcd13ifvqetg","pricing_plan_id":"free"},{"bike_id":"9557f777-a53d-4a10-b0dd-a0fe870653cf","system_id":"levelo_inurba_marseille","lat":43.292644,"lon":5.384257,"is_reserved":false,"is_disabled":false,"rental_uris":{"android":"levelo://app?vid=9557f777-a53d-4a10-b0dd-a0fe870653cf","ios":"levelo://app?vid=9557f777-a53d-4a10-b0dd-a0fe870653cf"},"vehicle_type_id":"4","last_reported":1690654045,"current_range_meters":24000,"station_id":"ce4bh692rcd13ifvqea0","pricing_plan_id":"free"},{"bike_id":"2473f2f8-0842-4aeb-a137-e053357c0365","system_id":"levelo_inurba_marseille","lat":43.292644,"lon":5.384257,"is_reserved":false,"is_disabled":false,"rental_uris":{"android":"levelo://app?vid=2473f2f8-0842-4aeb-a137-e053357c0365","ios":"levelo://app?vid=2473f2f8-0842-4aeb-a137-e053357c0365"},"vehicle_type_id":"4","last_reported":1690654045,"current_range_meters":12800,"station_id":"ce4bh692rcd13ifvqea0","pricing_plan_id":"free"},{"bike_id":"903c0c41-25ff-4469-9412-f9406c75dbe5","system_id":"levelo_inurba_marseille","lat":43.292644,"lon":5.384257,"is_reserved":false,"is_disabled":false,"rental_uris":{"android":"levelo://app?vid=903c0c41-25ff-4469-9412-f9406c75dbe5","ios":"levelo://app?vid=903c0c41-25ff-4469-9412-f9406c75dbe5"},"vehicle_type_id":"4","last_reported":1690654045,"current_range_meters":26800,"station_id":"ce4bh692rcd13ifvqea0","pricing_plan_id":"free"},{"bike_id":"57873507-5b4c-4ed8-b1bb-a0b13fe5f5c3","system_id":"levelo_inurba_marseille","lat":43.29268,"lon":5.38435,"is_reserved":false,"is_disabled":false,"rental_uris":{"android":"levelo://app?vid=57873507-5b4c-4ed8-b1bb-a0b13fe5f5c3","ios":"levelo://app?vid=57873507-5b4c-4ed8-b1bb-a0b13fe5f5c3"},"vehicle_type_id":"4","last_reported":1690654045,"current_range_meters":5200,"station_id":"ce4bh692rcd13ifvqea0","pricing_plan_id":"free"},{"bike_id":"39590c7a-d5fa-4763-b835-63b9f519d8fa","system_id":"levelo_inurba_marseille","lat":43.292644,"lon":5.384257,"is_reserved":false,"is_disabled":false,"rental_uris":{"android":"levelo://app?vid=39590c7a-d5fa-4763-b835-63b9f519d8fa","ios":"levelo://app?vid=39590c7a-d5fa-4763-b835-63b9f519d8fa"},"vehicle_type_id":"4","last_reported":1690654045,"current_range_meters":17600,"station_id":"ce4bh692rcd13ifvqea0","pricing_plan_id":"free"},{"bike_id":"4616bd3f-a5aa-4ef0-8870-74e3b146b988","system_id":"levelo_inurba_marseille","lat":43.292644,"lon":5.384257,"is_reserved":false,"is_disabled":false,"rental_uris":{"android":"levelo://app?vid=4616bd3f-a5aa-4ef0-8870-74e3b146b988","ios":"levelo://app?vid=4616bd3f-a5aa-4ef0-8870-74e3b146b988"},"vehicle_type_id":"4","last_reported":1690654045,"current_range_meters":5600,"station_id":"ce4bh692rcd13ifvqea0","pricing_plan_id":"free"},{"bike_id":"51626a26-b574-43b9-92a4-7b345d3fce3b","system_id":"levelo_inurba_marseille","lat":43.292644,"lon":5.384257,"is_reserved":false,"is_disabled":false,"rental_uris":{"android":"levelo://app?vid=51626a26-b574-43b9-92a4-7b345d3fce3b","ios":"levelo://app?vid=51626a26-b574-43b9-92a4-7b345d3fce3b"},"vehicle_type_id":"4","last_reported":1690654045,"current_range_meters":22800,"station_id":"ce4bh692rcd13ifvqea0","pricing_plan_id":"free"},{"bike_id":"102537be-889a-43d9-9bea-0a47641a5b4d","system_id":"levelo_inurba_marseille","lat":43.292644,"lon":5.384257,"is_reserved":false,"is_disabled":false,"rental_uris":{"android":"levelo://app?vid=102537be-889a-43d9-9bea-0a47641a5b4d","ios":"levelo://app?vid=102537be-889a-43d9-9bea-0a47641a5b4d"},"vehicle_type_id":"4","last_reported":1690654045,"current_range_meters":12400,"station_id":"ce4bh692rcd13ifvqea0","pricing_plan_id":"free"},{"bike_id":"32208b63-6086-49dc-a584-bee4ad769a1c","system_id":"levelo_inurba_marseille","lat":43.292644,"lon":5.384257,"is_reserved":false,"is_disabled":false,"rental_uris":{"android":"levelo://app?vid=32208b63-6086-49dc-a584-bee4ad769a1c","ios":"levelo://app?vid=32208b63-6086-49dc-a584-bee4ad769a1c"},"vehicle_type_id":"4","last_reported":1690654045,"current_range_meters":6000,"station_id":"ce4bh692rcd13ifvqea0","pricing_plan_id":"free"},{"bike_id":"f6d4d8bb-179f-419d-8c5d-93535d7cd966","system_id":"levelo_inurba_marseille","lat":43.292644,"lon":5.384257,"is_reserved":false,"is_disabled":false,"rental_uris":{"android":"levelo://app?vid=f6d4d8bb-179f-419d-8c5d-93535d7cd966","ios":"levelo://app?vid=f6d4d8bb-179f-419d-8c5d-93535d7cd966"},"vehicle_type_id":"4","last_reported":1690654045,"current_range_meters":20800,"station_id":"ce4bh692rcd13ifvqea0","pricing_plan_id":"free"},{"bike_id":"c924c598-c515-4f50-afd4-981651c7deb4","system_id":"levelo_inurba_marseille","lat":43.292644,"lon":5.384257,"is_reserved":false,"is_disabled":false,"rental_uris":{"android":"levelo://app?vid=c924c598-c515-4f50-afd4-981651c7deb4","ios":"levelo://app?vid=c924c598-c515-4f50-afd4-981651c7deb4"},"vehicle_type_id":"4","last_reported":1690654045,"current_range_meters":7600,"station_id":"ce4bh692rcd13ifvqea0","pricing_plan_id":"free"},{"bike_id":"6e450259-0aaf-4a4a-9645-92fdaa0273f5","system_id":"levelo_inurba_marseille","lat":43.292644,"lon":5.384257,"is_reserved":false,"is_disabled":false,"rental_uris":{"android":"levelo://app?vid=6e450259-0aaf-4a4a-9645-92fdaa0273f5","ios":"levelo://app?vid=6e450259-0aaf-4a4a-9645-92fdaa0273f5"},"vehicle_type_id":"4","last_reported":1690654045,"current_range_meters":31600,"station_id":"ce4bh692rcd13ifvqea0","pricing_plan_id":"free"},{"bike_id":"a636eec4-b719-4e6f-b179-4c8cadeba60e","system_id":"levelo_inurba_marseille","lat":43.33039,"lon":5.389,"is_reserved":false,"is_disabled":false,"rental_uris":{"android":"levelo://app?vid=a636eec4-b719-4e6f-b179-4c8cadeba60e","ios":"levelo://app?vid=a636eec4-b719-4e6f-b179-4c8cadeba60e"},"vehicle_type_id":"4","last_reported":1690654045,"current_range_meters":22000,"station_id":"ce4bhr92rcd13ifvqhrg","pricing_plan_id":"free"},{"bike_id":"29b7cc61-0571-451b-8223-a2e28816ebb7","system_id":"levelo_inurba_marseille","lat":43.292644,"lon":5.384257,"is_reserved":false,"is_disabled":false,"rental_uris":{"android":"levelo://app?vid=29b7cc61-0571-451b-8223-a2e28816ebb7","ios":"levelo://app?vid=29b7cc61-0571-451b-8223-a2e28816ebb7"},"vehicle_type_id":"4","last_reported":1690654045,"current_range_meters":18400,"station_id":"ce4bh692rcd13ifvqea0","pricing_plan_id":"free"},{"bike_id":"4031e07c-3812-4dd4-9840-651d80dc70e1","system_id":"levelo_inurba_marseille","lat":43.33044,"lon":5.38915,"is_reserved":false,"is_disabled":false,"rental_uris":{"android":"levelo://app?vid=4031e07c-3812-4dd4-9840-651d80dc70e1","ios":"levelo://app?vid=4031e07c-3812-4dd4-9840-651d80dc70e1"},"vehicle_type_id":"4","last_reported":1690654045,"current_range_meters":11600,"station_id":"ce4bhr92rcd13ifvqhrg","pricing_plan_id":"free"},{"bike_id":"d8132d11-7d1d-4eb1-907e-a79177a55510","system_id":"levelo_inurba_marseille","lat":43.330464,"lon":5.389125,"is_reserved":false,"is_disabled":false,"rental_uris":{"android":"levelo://app?vid=d8132d11-7d1d-4eb1-907e-a79177a55510","ios":"levelo://app?vid=d8132d11-7d1d-4eb1-907e-a79177a55510"},"vehicle_type_id":"4","last_reported":1690654045,"current_range_meters":15200,"station_id":"ce4bhr92rcd13ifvqhrg","pricing_plan_id":"free"},{"bike_id":"9e62e635-3ba1-4491-b5e4-9ed5f3656f44","system_id":"levelo_inurba_marseille","lat":43.33042,"lon":5.3892,"is_reserved":false,"is_disabled":false,"rental_uris":{"android":"levelo://app?vid=9e62e635-3ba1-4491-b5e4-9ed5f3656f44","ios":"levelo://app?vid=9e62e635-3ba1-4491-b5e4-9ed5f3656f44"},"vehicle_type_id":"4","last_reported":1690654045,"current_range_meters":23600,"station_id":"ce4bhr92rcd13ifvqhrg","pricing_plan_id":"free"},{"bike_id":"8db9e0e9-c54d-498b-85a9-be4b69950c9c","system_id":"levelo_inurba_marseille","lat":43.33046,"lon":5.38915,"is_reserved":false,"is_disabled":false,"rental_uris":{"android":"levelo://app?vid=8db9e0e9-c54d-498b-85a9-be4b69950c9c","ios":"levelo://app?vid=8db9e0e9-c54d-498b-85a9-be4b69950c9c"},"vehicle_type_id":"4","last_reported":1690654045,"current_range_meters":0,"station_id":"ce4bhr92rcd13ifvqhrg","pricing_plan_id":"free"},{"bike_id":"95efe035-f1ee-4904-b5d5-88f29d014ea7","system_id":"levelo_inurba_marseille","lat":43.33048,"lon":5.38914,"is_reserved":false,"is_disabled":false,"rental_uris":{"android":"levelo://app?vid=95efe035-f1ee-4904-b5d5-88f29d014ea7","ios":"levelo://app?vid=95efe035-f1ee-4904-b5d5-88f29d014ea7"},"vehicle_type_id":"4","last_reported":1690654045,"current_range_meters":23600,"station_id":"ce4bhr92rcd13ifvqhrg","pricing_plan_id":"free"},{"bike_id":"b0f1f893-e938-458c-a34f-e53a0ca824fc","system_id":"levelo_inurba_marseille","lat":43.3305,"lon":5.38913,"is_reserved":false,"is_disabled":false,"rental_uris":{"android":"levelo://app?vid=b0f1f893-e938-458c-a34f-e53a0ca824fc","ios":"levelo://app?vid=b0f1f893-e938-458c-a34f-e53a0ca824fc"},"vehicle_type_id":"4","last_reported":1690654045,"current_range_meters":1600,"station_id":"ce4bhr92rcd13ifvqhrg","pricing_plan_id":"free"},{"bike_id":"134ef223-0af9-48f2-bbd1-4d84dd8cb35c","system_id":"levelo_inurba_marseille","lat":43.290104,"lon":5.356111,"is_reserved":false,"is_disabled":false,"rental_uris":{"android":"levelo://app?vid=134ef223-0af9-48f2-bbd1-4d84dd8cb35c","ios":"levelo://app?vid=134ef223-0af9-48f2-bbd1-4d84dd8cb35c"},"vehicle_type_id":"4","last_reported":1690654045,"current_range_meters":31200,"station_id":"ce4bhb92rcd13ifvqen0","pricing_plan_id":"free"},{"bike_id":"8ce2eb91-3190-42f2-9129-1ca28f4fad21","system_id":"levelo_inurba_marseille","lat":43.33048,"lon":5.38919,"is_reserved":false,"is_disabled":false,"rental_uris":{"android":"levelo://app?vid=8ce2eb91-3190-42f2-9129-1ca28f4fad21","ios":"levelo://app?vid=8ce2eb91-3190-42f2-9129-1ca28f4fad21"},"vehicle_type_id":"4","last_reported":1690654045,"current_range_meters":8000,"station_id":"ce4bhr92rcd13ifvqhrg","pricing_plan_id":"free"},{"bike_id":"05bf2cc0-c80b-4d3b-9303-5cea93148e89","system_id":"levelo_inurba_marseille","lat":43.290995,"lon":5.381361,"is_reserved":false,"is_disabled":false,"rental_uris":{"android":"levelo://app?vid=05bf2cc0-c80b-4d3b-9303-5cea93148e89","ios":"levelo://app?vid=05bf2cc0-c80b-4d3b-9303-5cea93148e89"},"vehicle_type_id":"4","last_reported":1690654045,"current_range_meters":29600,"station_id":"ce4bh512rcd13ifvqe2g","pricing_plan_id":"free"},{"bike_id":"20e0f7e6-e9f6-4975-950d-55d8721a4a39","system_id":"levelo_inurba_marseille","lat":43.290995,"lon":5.381361,"is_reserved":false,"is_disabled":false,"rental_uris":{"android":"levelo://app?vid=20e0f7e6-e9f6-4975-950d-55d8721a4a39","ios":"levelo://app?vid=20e0f7e6-e9f6-4975-950d-55d8721a4a39"},"vehicle_type_id":"4","last_reported":1690654045,"current_range_meters":21200,"station_id":"ce4bh512rcd13ifvqe2g","pricing_plan_id":"free"},{"bike_id":"5ade109e-285f-447c-92df-2b59e7b069d0","system_id":"levelo_inurba_marseille","lat":43.289743,"lon":5.378304,"is_reserved":false,"is_disabled":false,"rental_uris":{"android":"levelo://app?vid=5ade109e-285f-447c-92df-2b59e7b069d0","ios":"levelo://app?vid=5ade109e-285f-447c-92df-2b59e7b069d0"},"vehicle_type_id":"4","last_reported":1690654045,"current_range_meters":4400,"station_id":"ce4bh9p2rcd13ifvqed0","pricing_plan_id":"free"},{"bike_id":"9c2502d2-fe9d-4bfa-8071-16a00cf0b3e1","system_id":"levelo_inurba_marseille","lat":43.289743,"lon":5.378304,"is_reserved":false,"is_disabled":false,"rental_uris":{"android":"levelo://app?vid=9c2502d2-fe9d-4bfa-8071-16a00cf0b3e1","ios":"levelo://app?vid=9c2502d2-fe9d-4bfa-8071-16a00cf0b3e1"},"vehicle_type_id":"4","last_reported":1690654045,"current_range_meters":10400,"station_id":"ce4bh9p2rcd13ifvqed0","pricing_plan_id":"free"},{"bike_id":"bee57cc0-387d-4639-bf82-c7d5525ce599","system_id":"levelo_inurba_marseille","lat":43.29786,"lon":5.39336,"is_reserved":false,"is_disabled":false,"rental_uris":{"android":"levelo://app?vid=bee57cc0-387d-4639-bf82-c7d5525ce599","ios":"levelo://app?vid=bee57cc0-387d-4639-bf82-c7d5525ce599"},"vehicle_type_id":"4","last_reported":1690654045,"current_range_meters":1600,"station_id":"chh1huq6cuj3fo74tm60","pricing_plan_id":"free"},{"bike_id":"7361637e-7e89-41d5-9586-43427fdffc93","system_id":"levelo_inurba_marseille","lat":43.28983,"lon":5.37832,"is_reserved":false,"is_disabled":false,"rental_uris":{"android":"levelo://app?vid=7361637e-7e89-41d5-9586-43427fdffc93","ios":"levelo://app?vid=7361637e-7e89-41d5-9586-43427fdffc93"},"vehicle_type_id":"4","last_reported":1690654045,"current_range_meters":6800,"station_id":"ce4bh9p2rcd13ifvqed0","pricing_plan_id":"free"},{"bike_id":"5a6fd70d-1373-4cca-9ca2-f73c3de965dd","system_id":"levelo_inurba_marseille","lat":43.28972,"lon":5.37816,"is_reserved":false,"is_disabled":false,"rental_uris":{"android":"levelo://app?vid=5a6fd70d-1373-4cca-9ca2-f73c3de965dd","ios":"levelo://app?vid=5a6fd70d-1373-4cca-9ca2-f73c3de965dd"},"vehicle_type_id":"4","last_reported":1690654045,"current_range_meters":16400,"station_id":"ce4bh9p2rcd13ifvqed0","pricing_plan_id":"free"},{"bike_id":"fbb10725-f080-4575-b2f0-31f132a40a79","system_id":"levelo_inurba_marseille","lat":43.28862,"lon":5.3591,"is_reserved":false,"is_disabled":false,"rental_uris":{"android":"levelo://app?vid=fbb10725-f080-4575-b2f0-31f132a40a79","ios":"levelo://app?vid=fbb10725-f080-4575-b2f0-31f132a40a79"},"vehicle_type_id":"4","last_reported":1690654045,"current_range_meters":31600,"station_id":"","pricing_plan_id":"free"},{"bike_id":"1e03a6f5-d87b-48a5-a3d2-3b0500cb8b6e","system_id":"levelo_inurba_marseille","lat":43.33583,"lon":5.35419,"is_reserved":false,"is_disabled":false,"rental_uris":{"android":"levelo://app?vid=1e03a6f5-d87b-48a5-a3d2-3b0500cb8b6e","ios":"levelo://app?vid=1e03a6f5-d87b-48a5-a3d2-3b0500cb8b6e"},"vehicle_type_id":"4","last_reported":1690654045,"current_range_meters":20400,"station_id":"","pricing_plan_id":"free"},{"bike_id":"05dd1e53-1f03-43d7-8cf0-315088d55fd6","system_id":"levelo_inurba_marseille","lat":43.31278,"lon":5.40166,"is_reserved":false,"is_disabled":false,"rental_uris":{"android":"levelo://app?vid=05dd1e53-1f03-43d7-8cf0-315088d55fd6","ios":"levelo://app?vid=05dd1e53-1f03-43d7-8cf0-315088d55fd6"},"vehicle_type_id":"4","last_reported":1690654045,"current_range_meters":2400,"station_id":"ce4bh092rcd13ifvqd30","pricing_plan_id":"free"},{"bike_id":"c117a150-2664-403a-a4d8-52928c6213c3","system_id":"levelo_inurba_marseille","lat":43.31277,"lon":5.40172,"is_reserved":false,"is_disabled":false,"rental_uris":{"android":"levelo://app?vid=c117a150-2664-403a-a4d8-52928c6213c3","ios":"levelo://app?vid=c117a150-2664-403a-a4d8-52928c6213c3"},"vehicle_type_id":"4","last_reported":1690654045,"current_range_meters":0,"station_id":"ce4bh092rcd13ifvqd30","pricing_plan_id":"free"},{"bike_id":"641548aa-6c3e-4f43-96c6-e208166dd1a3","system_id":"levelo_inurba_marseille","lat":43.312756,"lon":5.40172,"is_reserved":false,"is_disabled":false,"rental_uris":{"android":"levelo://app?vid=641548aa-6c3e-4f43-96c6-e208166dd1a3","ios":"levelo://app?vid=641548aa-6c3e-4f43-96c6-e208166dd1a3"},"vehicle_type_id":"4","last_reported":1690654045,"current_range_meters":5200,"station_id":"ce4bgvp2rcd13ifvqcu0","pricing_plan_id":"free"},{"bike_id":"5339795f-3a20-48f5-aa16-92a6c75a1831","system_id":"levelo_inurba_marseille","lat":43.33753,"lon":5.37445,"is_reserved":false,"is_disabled":false,"rental_uris":{"android":"levelo://app?vid=5339795f-3a20-48f5-aa16-92a6c75a1831","ios":"levelo://app?vid=5339795f-3a20-48f5-aa16-92a6c75a1831"},"vehicle_type_id":"4","last_reported":1690654045,"current_range_meters":22400,"station_id":"","pricing_plan_id":"free"},{"bike_id":"0f1caced-3364-4917-bb6c-de3650586359","system_id":"levelo_inurba_marseille","lat":43.306387,"lon":5.400723,"is_reserved":false,"is_disabled":false,"rental_uris":{"android":"levelo://app?vid=0f1caced-3364-4917-bb6c-de3650586359","ios":"levelo://app?vid=0f1caced-3364-4917-bb6c-de3650586359"},"vehicle_type_id":"4","last_reported":1690654045,"current_range_meters":18000,"station_id":"ce4bhqp2rcd13ifvqhng","pricing_plan_id":"free"},{"bike_id":"093ce13e-bc1d-469d-898c-010a263ffed4","system_id":"levelo_inurba_marseille","lat":43.33757,"lon":5.37451,"is_reserved":false,"is_disabled":false,"rental_uris":{"android":"levelo://app?vid=093ce13e-bc1d-469d-898c-010a263ffed4","ios":"levelo://app?vid=093ce13e-bc1d-469d-898c-010a263ffed4"},"vehicle_type_id":"4","last_reported":1690654045,"current_range_meters":30800,"station_id":"","pricing_plan_id":"free"},{"bike_id":"3e64bf2b-6033-47e2-b446-66918df9f1b2","system_id":"levelo_inurba_marseille","lat":43.33753,"lon":5.37476,"is_reserved":false,"is_disabled":false,"rental_uris":{"android":"levelo://app?vid=3e64bf2b-6033-47e2-b446-66918df9f1b2","ios":"levelo://app?vid=3e64bf2b-6033-47e2-b446-66918df9f1b2"},"vehicle_type_id":"4","last_reported":1690654045,"current_range_meters":32000,"station_id":"","pricing_plan_id":"free"},{"bike_id":"59976df7-227f-4714-9cb2-afaf722434f6","system_id":"levelo_inurba_marseille","lat":43.33752,"lon":5.37484,"is_reserved":false,"is_disabled":false,"rental_uris":{"android":"levelo://app?vid=59976df7-227f-4714-9cb2-afaf722434f6","ios":"levelo://app?vid=59976df7-227f-4714-9cb2-afaf722434f6"},"vehicle_type_id":"4","last_reported":1690654045,"current_range_meters":7200,"station_id":"","pricing_plan_id":"free"},{"bike_id":"7c6665a5-fd8c-485b-815c-b62406b3514e","system_id":"levelo_inurba_marseille","lat":43.33759,"lon":5.37445,"is_reserved":false,"is_disabled":false,"rental_uris":{"android":"levelo://app?vid=7c6665a5-fd8c-485b-815c-b62406b3514e","ios":"levelo://app?vid=7c6665a5-fd8c-485b-815c-b62406b3514e"},"vehicle_type_id":"4","last_reported":1690654045,"current_range_meters":25200,"station_id":"","pricing_plan_id":"free"},{"bike_id":"7bd35dfc-701d-4a94-84b9-312701e00f76","system_id":"levelo_inurba_marseille","lat":43.33753,"lon":5.37484,"is_reserved":false,"is_disabled":false,"rental_uris":{"android":"levelo://app?vid=7bd35dfc-701d-4a94-84b9-312701e00f76","ios":"levelo://app?vid=7bd35dfc-701d-4a94-84b9-312701e00f76"},"vehicle_type_id":"4","last_reported":1690654045,"current_range_meters":19600,"station_id":"","pricing_plan_id":"free"},{"bike_id":"abdc95c7-512f-40d0-a7cb-b7dd95637591","system_id":"levelo_inurba_marseille","lat":43.33751,"lon":5.37496,"is_reserved":false,"is_disabled":false,"rental_uris":{"android":"levelo://app?vid=abdc95c7-512f-40d0-a7cb-b7dd95637591","ios":"levelo://app?vid=abdc95c7-512f-40d0-a7cb-b7dd95637591"},"vehicle_type_id":"4","last_reported":1690654045,"current_range_meters":3200,"station_id":"","pricing_plan_id":"free"},{"bike_id":"7783bfcf-afd0-4281-b6ef-6783658541be","system_id":"levelo_inurba_marseille","lat":43.33758,"lon":5.37478,"is_reserved":false,"is_disabled":false,"rental_uris":{"android":"levelo://app?vid=7783bfcf-afd0-4281-b6ef-6783658541be","ios":"levelo://app?vid=7783bfcf-afd0-4281-b6ef-6783658541be"},"vehicle_type_id":"4","last_reported":1690654045,"current_range_meters":31200,"station_id":"","pricing_plan_id":"free"},{"bike_id":"b6505676-dc3c-4bee-8128-08147495c518","system_id":"levelo_inurba_marseille","lat":43.30642,"lon":5.401031,"is_reserved":false,"is_disabled":false,"rental_uris":{"android":"levelo://app?vid=b6505676-dc3c-4bee-8128-08147495c518","ios":"levelo://app?vid=b6505676-dc3c-4bee-8128-08147495c518"},"vehicle_type_id":"4","last_reported":1690654045,"current_range_meters":15600,"station_id":"ce4bh112rcd13ifvqda0","pricing_plan_id":"free"},{"bike_id":"4803be54-b4a8-447c-b1b7-1a11da4abeec","system_id":"levelo_inurba_marseille","lat":43.33774,"lon":5.37424,"is_reserved":false,"is_disabled":false,"rental_uris":{"android":"levelo://app?vid=4803be54-b4a8-447c-b1b7-1a11da4abeec","ios":"levelo://app?vid=4803be54-b4a8-447c-b1b7-1a11da4abeec"},"vehicle_type_id":"4","last_reported":1690654045,"current_range_meters":28800,"station_id":"","pricing_plan_id":"free"},{"bike_id":"14dcde86-4773-43aa-826b-b04e1e4638b9","system_id":"levelo_inurba_marseille","lat":43.286039,"lon":5.370679,"is_reserved":false,"is_disabled":false,"rental_uris":{"android":"levelo://app?vid=14dcde86-4773-43aa-826b-b04e1e4638b9","ios":"levelo://app?vid=14dcde86-4773-43aa-826b-b04e1e4638b9"},"vehicle_type_id":"4","last_reported":1690654045,"current_range_meters":10800,"station_id":"ce4bht12rcd13ifvqi60","pricing_plan_id":"free"},{"bike_id":"c996a0ba-022d-4b4a-9d92-6e2be65d5402","system_id":"levelo_inurba_marseille","lat":43.286961,"lon":5.373785,"is_reserved":false,"is_disabled":false,"rental_uris":{"android":"levelo://app?vid=c996a0ba-022d-4b4a-9d92-6e2be65d5402","ios":"levelo://app?vid=c996a0ba-022d-4b4a-9d92-6e2be65d5402"},"vehicle_type_id":"4","last_reported":1690654045,"current_range_meters":13600,"station_id":"ce4bh3p2rcd13ifvqdq0","pricing_plan_id":"free"},{"bike_id":"395681f9-0334-41d9-8727-096a91343576","system_id":"levelo_inurba_marseille","lat":43.286591,"lon":5.363346,"is_reserved":false,"is_disabled":false,"rental_uris":{"android":"levelo://app?vid=395681f9-0334-41d9-8727-096a91343576","ios":"levelo://app?vid=395681f9-0334-41d9-8727-096a91343576"},"vehicle_type_id":"4","last_reported":1690654045,"current_range_meters":22800,"station_id":"ce4bhah2rcd13ifvqej0","pricing_plan_id":"free"},{"bike_id":"61a289f8-b19b-48f4-b921-d83066f42b39","system_id":"levelo_inurba_marseille","lat":43.286961,"lon":5.373785,"is_reserved":false,"is_disabled":false,"rental_uris":{"android":"levelo://app?vid=61a289f8-b19b-48f4-b921-d83066f42b39","ios":"levelo://app?vid=61a289f8-b19b-48f4-b921-d83066f42b39"},"vehicle_type_id":"4","last_reported":1690654045,"current_range_meters":4000,"station_id":"ce4bh3p2rcd13ifvqdq0","pricing_plan_id":"free"},{"bike_id":"5e00a1f6-c422-4013-b708-d9532164470d","system_id":"levelo_inurba_marseille","lat":43.286961,"lon":5.373785,"is_reserved":false,"is_disabled":false,"rental_uris":{"android":"levelo://app?vid=5e00a1f6-c422-4013-b708-d9532164470d","ios":"levelo://app?vid=5e00a1f6-c422-4013-b708-d9532164470d"},"vehicle_type_id":"4","last_reported":1690654045,"current_range_meters":18400,"station_id":"ce4bh3p2rcd13ifvqdq0","pricing_plan_id":"free"},{"bike_id":"d707b1d5-3308-4263-bd3f-342b78fc684a","system_id":"levelo_inurba_marseille","lat":43.286961,"lon":5.373785,"is_reserved":false,"is_disabled":false,"rental_uris":{"android":"levelo://app?vid=d707b1d5-3308-4263-bd3f-342b78fc684a","ios":"levelo://app?vid=d707b1d5-3308-4263-bd3f-342b78fc684a"},"vehicle_type_id":"4","last_reported":1690654045,"current_range_meters":11600,"station_id":"ce4bh3p2rcd13ifvqdq0","pricing_plan_id":"free"},{"bike_id":"70213f55-b45b-4402-b8a4-14f5b01cf475","system_id":"levelo_inurba_marseille","lat":43.286961,"lon":5.373785,"is_reserved":false,"is_disabled":false,"rental_uris":{"android":"levelo://app?vid=70213f55-b45b-4402-b8a4-14f5b01cf475","ios":"levelo://app?vid=70213f55-b45b-4402-b8a4-14f5b01cf475"},"vehicle_type_id":"4","last_reported":1690654045,"current_range_meters":24800,"station_id":"ce4bh3p2rcd13ifvqdq0","pricing_plan_id":"free"},{"bike_id":"c8f989ff-befb-4ff0-ac1b-b08a55655f9c","system_id":"levelo_inurba_marseille","lat":43.286961,"lon":5.373785,"is_reserved":false,"is_disabled":false,"rental_uris":{"android":"levelo://app?vid=c8f989ff-befb-4ff0-ac1b-b08a55655f9c","ios":"levelo://app?vid=c8f989ff-befb-4ff0-ac1b-b08a55655f9c"},"vehicle_type_id":"4","last_reported":1690654045,"current_range_meters":25600,"station_id":"ce4bh3p2rcd13ifvqdq0","pricing_plan_id":"free"},{"bike_id":"e74aa97d-754a-431b-b6fa-dbb92046936f","system_id":"levelo_inurba_marseille","lat":43.298681,"lon":5.397225,"is_reserved":false,"is_disabled":false,"rental_uris":{"android":"levelo://app?vid=e74aa97d-754a-431b-b6fa-dbb92046936f","ios":"levelo://app?vid=e74aa97d-754a-431b-b6fa-dbb92046936f"},"vehicle_type_id":"4","last_reported":1690654045,"current_range_meters":20800,"station_id":"ce4bh0h2rcd13ifvqd50","pricing_plan_id":"free"},{"bike_id":"53be4d75-bd11-4ecb-8ce8-32c18036c5f7","system_id":"levelo_inurba_marseille","lat":43.28704,"lon":5.37378,"is_reserved":false,"is_disabled":false,"rental_uris":{"android":"levelo://app?vid=53be4d75-bd11-4ecb-8ce8-32c18036c5f7","ios":"levelo://app?vid=53be4d75-bd11-4ecb-8ce8-32c18036c5f7"},"vehicle_type_id":"4","last_reported":1690654045,"current_range_meters":14000,"station_id":"ce4bh3p2rcd13ifvqdq0","pricing_plan_id":"free"},{"bike_id":"5999feaf-2f92-4be0-8089-c1aa01316d03","system_id":"levelo_inurba_marseille","lat":43.286961,"lon":5.373785,"is_reserved":false,"is_disabled":false,"rental_uris":{"android":"levelo://app?vid=5999feaf-2f92-4be0-8089-c1aa01316d03","ios":"levelo://app?vid=5999feaf-2f92-4be0-8089-c1aa01316d03"},"vehicle_type_id":"4","last_reported":1690654045,"current_range_meters":6000,"station_id":"ce4bh3p2rcd13ifvqdq0","pricing_plan_id":"free"},{"bike_id":"75199276-b705-4ad7-b6a9-49aeaa84628a","system_id":"levelo_inurba_marseille","lat":43.286593,"lon":5.363346,"is_reserved":false,"is_disabled":false,"rental_uris":{"android":"levelo://app?vid=75199276-b705-4ad7-b6a9-49aeaa84628a","ios":"levelo://app?vid=75199276-b705-4ad7-b6a9-49aeaa84628a"},"vehicle_type_id":"4","last_reported":1690654045,"current_range_meters":31200,"station_id":"ce4bhah2rcd13ifvqej0","pricing_plan_id":"free"},{"bike_id":"b69da3cb-9058-4774-ad8a-6754a225a847","system_id":"levelo_inurba_marseille","lat":43.286961,"lon":5.373785,"is_reserved":false,"is_disabled":false,"rental_uris":{"android":"levelo://app?vid=b69da3cb-9058-4774-ad8a-6754a225a847","ios":"levelo://app?vid=b69da3cb-9058-4774-ad8a-6754a225a847"},"vehicle_type_id":"4","last_reported":1690654045,"current_range_meters":23200,"station_id":"ce4bh3p2rcd13ifvqdq0","pricing_plan_id":"free"},{"bike_id":"c5f60409-1c51-469b-adb9-0670a3e7ef86","system_id":"levelo_inurba_marseille","lat":43.295196,"lon":5.39397,"is_reserved":false,"is_disabled":false,"rental_uris":{"android":"levelo://app?vid=c5f60409-1c51-469b-adb9-0670a3e7ef86","ios":"levelo://app?vid=c5f60409-1c51-469b-adb9-0670a3e7ef86"},"vehicle_type_id":"4","last_reported":1690654045,"current_range_meters":18000,"station_id":"ce4bh292rcd13ifvqdf0","pricing_plan_id":"free"},{"bike_id":"d3436209-6c04-4b23-b269-3b7ea0d13f6f","system_id":"levelo_inurba_marseille","lat":43.290336,"lon":5.386425,"is_reserved":false,"is_disabled":false,"rental_uris":{"android":"levelo://app?vid=d3436209-6c04-4b23-b269-3b7ea0d13f6f","ios":"levelo://app?vid=d3436209-6c04-4b23-b269-3b7ea0d13f6f"},"vehicle_type_id":"4","last_reported":1690654045,"current_range_meters":11200,"station_id":"ce4bh4p2rcd13ifvqe0g","pricing_plan_id":"free"},{"bike_id":"05366d05-0bc3-4317-ad10-b7b405397e7b","system_id":"levelo_inurba_marseille","lat":43.286039,"lon":5.370679,"is_reserved":false,"is_disabled":false,"rental_uris":{"android":"levelo://app?vid=05366d05-0bc3-4317-ad10-b7b405397e7b","ios":"levelo://app?vid=05366d05-0bc3-4317-ad10-b7b405397e7b"},"vehicle_type_id":"4","last_reported":1690654045,"current_range_meters":800,"station_id":"ce4bht12rcd13ifvqi60","pricing_plan_id":"free"},{"bike_id":"21e57bed-4a68-45fe-9e49-b1d969c9723d","system_id":"levelo_inurba_marseille","lat":43.286039,"lon":5.370679,"is_reserved":false,"is_disabled":false,"rental_uris":{"android":"levelo://app?vid=21e57bed-4a68-45fe-9e49-b1d969c9723d","ios":"levelo://app?vid=21e57bed-4a68-45fe-9e49-b1d969c9723d"},"vehicle_type_id":"4","last_reported":1690654045,"current_range_meters":24800,"station_id":"ce4bht12rcd13ifvqi60","pricing_plan_id":"free"},{"bike_id":"f8b216bb-5f2f-43e9-9334-97ecb761c00e","system_id":"levelo_inurba_marseille","lat":43.286039,"lon":5.370679,"is_reserved":false,"is_disabled":false,"rental_uris":{"android":"levelo://app?vid=f8b216bb-5f2f-43e9-9334-97ecb761c00e","ios":"levelo://app?vid=f8b216bb-5f2f-43e9-9334-97ecb761c00e"},"vehicle_type_id":"4","last_reported":1690654045,"current_range_meters":2000,"station_id":"ce4bht12rcd13ifvqi60","pricing_plan_id":"free"},{"bike_id":"c5723309-59bc-418f-8808-08f051bfdde6","system_id":"levelo_inurba_marseille","lat":43.287185,"lon":5.379373,"is_reserved":false,"is_disabled":false,"rental_uris":{"android":"levelo://app?vid=c5723309-59bc-418f-8808-08f051bfdde6","ios":"levelo://app?vid=c5723309-59bc-418f-8808-08f051bfdde6"},"vehicle_type_id":"4","last_reported":1690654045,"current_range_meters":23200,"station_id":"ce4bh9p2rcd13ifvqec0","pricing_plan_id":"free"},{"bike_id":"d8cd233b-50f6-49a9-92bf-608a4d3bd61b","system_id":"levelo_inurba_marseille","lat":43.287185,"lon":5.379373,"is_reserved":false,"is_disabled":false,"rental_uris":{"android":"levelo://app?vid=d8cd233b-50f6-49a9-92bf-608a4d3bd61b","ios":"levelo://app?vid=d8cd233b-50f6-49a9-92bf-608a4d3bd61b"},"vehicle_type_id":"4","last_reported":1690654045,"current_range_meters":400,"station_id":"ce4bh9p2rcd13ifvqec0","pricing_plan_id":"free"},{"bike_id":"f0015102-119a-45f7-ba4f-ea014d06c8bf","system_id":"levelo_inurba_marseille","lat":43.287184,"lon":5.37937,"is_reserved":false,"is_disabled":false,"rental_uris":{"android":"levelo://app?vid=f0015102-119a-45f7-ba4f-ea014d06c8bf","ios":"levelo://app?vid=f0015102-119a-45f7-ba4f-ea014d06c8bf"},"vehicle_type_id":"4","last_reported":1690654045,"current_range_meters":4000,"station_id":"ce4bh9p2rcd13ifvqec0","pricing_plan_id":"free"},{"bike_id":"5e3b457b-e2a1-4c42-a7fd-63d46f8a4bfa","system_id":"levelo_inurba_marseille","lat":43.28708,"lon":5.37933,"is_reserved":false,"is_disabled":false,"rental_uris":{"android":"levelo://app?vid=5e3b457b-e2a1-4c42-a7fd-63d46f8a4bfa","ios":"levelo://app?vid=5e3b457b-e2a1-4c42-a7fd-63d46f8a4bfa"},"vehicle_type_id":"4","last_reported":1690654045,"current_range_meters":24400,"station_id":"ce4bh9p2rcd13ifvqec0","pricing_plan_id":"free"},{"bike_id":"f9ac32d9-bfba-4bb8-97d8-4f36f34532d8","system_id":"levelo_inurba_marseille","lat":43.316517,"lon":5.404375,"is_reserved":false,"is_disabled":false,"rental_uris":{"android":"levelo://app?vid=f9ac32d9-bfba-4bb8-97d8-4f36f34532d8","ios":"levelo://app?vid=f9ac32d9-bfba-4bb8-97d8-4f36f34532d8"},"vehicle_type_id":"4","last_reported":1690654045,"current_range_meters":29600,"station_id":"ce4bh012rcd13ifvqd00","pricing_plan_id":"free"},{"bike_id":"9118b72f-4b17-453b-b42d-b800e74d1915","system_id":"levelo_inurba_marseille","lat":43.31648,"lon":5.40435,"is_reserved":false,"is_disabled":false,"rental_uris":{"android":"levelo://app?vid=9118b72f-4b17-453b-b42d-b800e74d1915","ios":"levelo://app?vid=9118b72f-4b17-453b-b42d-b800e74d1915"},"vehicle_type_id":"4","last_reported":1690654045,"current_range_meters":29200,"station_id":"ce4bh012rcd13ifvqd00","pricing_plan_id":"free"},{"bike_id":"fac71e90-717e-4b13-ac8f-11514a86e485","system_id":"levelo_inurba_marseille","lat":43.302759,"lon":5.400793,"is_reserved":false,"is_disabled":false,"rental_uris":{"android":"levelo://app?vid=fac71e90-717e-4b13-ac8f-11514a86e485","ios":"levelo://app?vid=fac71e90-717e-4b13-ac8f-11514a86e485"},"vehicle_type_id":"4","last_reported":1690654045,"current_range_meters":22800,"station_id":"ce4bgvh2rcd13ifvqcs0","pricing_plan_id":"free"},{"bike_id":"282fb984-22b6-4a21-b71c-ba868b218d2f","system_id":"levelo_inurba_marseille","lat":43.291994,"lon":5.392907,"is_reserved":false,"is_disabled":false,"rental_uris":{"android":"levelo://app?vid=282fb984-22b6-4a21-b71c-ba868b218d2f","ios":"levelo://app?vid=282fb984-22b6-4a21-b71c-ba868b218d2f"},"vehicle_type_id":"4","last_reported":1690654045,"current_range_meters":15600,"station_id":"ce4bh192rcd13ifvqdd0","pricing_plan_id":"free"},{"bike_id":"cd82040c-e71a-4f7a-b28b-5f77799dc477","system_id":"levelo_inurba_marseille","lat":43.291994,"lon":5.392907,"is_reserved":false,"is_disabled":false,"rental_uris":{"android":"levelo://app?vid=cd82040c-e71a-4f7a-b28b-5f77799dc477","ios":"levelo://app?vid=cd82040c-e71a-4f7a-b28b-5f77799dc477"},"vehicle_type_id":"4","last_reported":1690654045,"current_range_meters":28800,"station_id":"ce4bh192rcd13ifvqdd0","pricing_plan_id":"free"},{"bike_id":"40e0c0ce-732e-43e9-a3a4-4e1c6f71cfc8","system_id":"levelo_inurba_marseille","lat":43.28712,"lon":5.38296,"is_reserved":false,"is_disabled":false,"rental_uris":{"android":"levelo://app?vid=40e0c0ce-732e-43e9-a3a4-4e1c6f71cfc8","ios":"levelo://app?vid=40e0c0ce-732e-43e9-a3a4-4e1c6f71cfc8"},"vehicle_type_id":"4","last_reported":1690654045,"current_range_meters":17200,"station_id":"ce4bhnp2rcd13ifvqh0g","pricing_plan_id":"free"},{"bike_id":"1609a84d-aee9-4d22-8d36-2d2f8604a9d1","system_id":"levelo_inurba_marseille","lat":43.291994,"lon":5.392907,"is_reserved":false,"is_disabled":false,"rental_uris":{"android":"levelo://app?vid=1609a84d-aee9-4d22-8d36-2d2f8604a9d1","ios":"levelo://app?vid=1609a84d-aee9-4d22-8d36-2d2f8604a9d1"},"vehicle_type_id":"4","last_reported":1690654045,"current_range_meters":28800,"station_id":"ce4bh192rcd13ifvqdd0","pricing_plan_id":"free"},{"bike_id":"11e11913-1d4d-45cb-a0a5-0d7415d4fc1e","system_id":"levelo_inurba_marseille","lat":43.291994,"lon":5.392907,"is_reserved":false,"is_disabled":false,"rental_uris":{"android":"levelo://app?vid=11e11913-1d4d-45cb-a0a5-0d7415d4fc1e","ios":"levelo://app?vid=11e11913-1d4d-45cb-a0a5-0d7415d4fc1e"},"vehicle_type_id":"4","last_reported":1690654045,"current_range_meters":30800,"station_id":"ce4bh192rcd13ifvqdd0","pricing_plan_id":"free"},{"bike_id":"541f2084-db94-4917-bf41-822a0d1d37aa","system_id":"levelo_inurba_marseille","lat":43.291994,"lon":5.392907,"is_reserved":false,"is_disabled":false,"rental_uris":{"android":"levelo://app?vid=541f2084-db94-4917-bf41-822a0d1d37aa","ios":"levelo://app?vid=541f2084-db94-4917-bf41-822a0d1d37aa"},"vehicle_type_id":"4","last_reported":1690654045,"current_range_meters":24400,"station_id":"ce4bh192rcd13ifvqdd0","pricing_plan_id":"free"},{"bike_id":"4d987cb1-cc6c-4504-867d-e91a72363c71","system_id":"levelo_inurba_marseille","lat":43.28466,"lon":5.35883,"is_reserved":false,"is_disabled":false,"rental_uris":{"android":"levelo://app?vid=4d987cb1-cc6c-4504-867d-e91a72363c71","ios":"levelo://app?vid=4d987cb1-cc6c-4504-867d-e91a72363c71"},"vehicle_type_id":"4","last_reported":1690654045,"current_range_meters":25200,"station_id":"ce4bhah2rcd13ifvqei0","pricing_plan_id":"free"},{"bike_id":"bb6463dc-0f50-4992-a71f-ace1fc61b746","system_id":"levelo_inurba_marseille","lat":43.28466,"lon":5.35875,"is_reserved":false,"is_disabled":false,"rental_uris":{"android":"levelo://app?vid=bb6463dc-0f50-4992-a71f-ace1fc61b746","ios":"levelo://app?vid=bb6463dc-0f50-4992-a71f-ace1fc61b746"},"vehicle_type_id":"4","last_reported":1690654045,"current_range_meters":30000,"station_id":"ce4bhah2rcd13ifvqei0","pricing_plan_id":"free"},{"bike_id":"d5246277-3f8e-43d6-8cef-9d03af5fe5b2","system_id":"levelo_inurba_marseille","lat":43.284538,"lon":5.358657,"is_reserved":false,"is_disabled":false,"rental_uris":{"android":"levelo://app?vid=d5246277-3f8e-43d6-8cef-9d03af5fe5b2","ios":"levelo://app?vid=d5246277-3f8e-43d6-8cef-9d03af5fe5b2"},"vehicle_type_id":"4","last_reported":1690654045,"current_range_meters":19200,"station_id":"ce4bhah2rcd13ifvqei0","pricing_plan_id":"free"},