{"last_updated":1730225556,"ttl":60,"version":"2.2","data":{"bikes":[{"bike_id":"e0594c9b-1912-4f09-958a-91f8a4561c29","system_id":"levelo_inurba_marseille","lat":43.24388,"lon":5.37061,"is_reserved":false,"is_disabled":false,"rental_uris":{"android":"levelo://app?vid=e0594c9b-1912-4f09-958a-91f8a4561c29","ios":"levelo://app?vid=e0594c9b-1912-4f09-958a-91f8a4561c29"},"vehicle_type_id":"4","last_reported":1730225556,"current_range_meters":11600,"station_id":"ce4bhhh2rcd13ifvqfk0","pricing_plan_id":"cebpf4jnsgd1na2vs0mg"},{"bike_id":"6daefb7d-890b-4927-bca4-1e9b57c2727d","system_id":"levelo_inurba_marseille","lat":43.27187,"lon":5.41001,"is_reserved":false,"is_disabled":false,"rental_uris":{"android":"levelo://app?vid=6daefb7d-890b-4927-bca4-1e9b57c2727d","ios":"levelo://app?vid=6daefb7d-890b-4927-bca4-1e9b57c2727d"},"vehicle_type_id":"4","last_reported":1730225556,"current_range_meters":6400,"station_id":"ce4bhl12rcd13ifvqgf0","pricing_plan_id":"cebpf4jnsgd1na2vs0mg"},{"bike_id":"e1d18b81-986d-4e87-b61a-22535be9c7fe","system_id":"levelo_inurba_marseille","lat":43.27073,"lon":5.42278,"is_reserved":false,"is_disabled":false,"rental_uris":{"android":"levelo://app?vid=e1d18b81-986d-4e87-b61a-22535be9c7fe","ios":"levelo://app?vid=e1d18b81-986d-4e87-b61a-22535be9c7fe"},"vehicle_type_id":"4","last_reported":1730225556,"current_range_meters":4000,"station_id":"ce4bhk92rcd13ifvqgb0","pricing_plan_id":"cebpf4jnsgd1na2vs0mg"},{"bike_id":"29991ee0-a269-40cc-a8d3-4c371e81ffc4","system_id":"levelo_inurba_marseille","lat":43.2926,"lon":5.3844,"is_reserved":false,"is_disabled":false,"rental_uris":{"android":"levelo://app?vid=29991ee0-a269-40cc-a8d3-4c371e81ffc4","ios":"levelo://app?vid=29991ee0-a269-40cc-a8d3-4c371e81ffc4"},"vehicle_type_id":"4","last_reported":1730225556,"current_range_meters":37600,"station_id":"ce4bh692rcd13ifvqea0","pricing_plan_id":"cebpf4jnsgd1na2vs0mg"},{"bike_id":"e69003c5-61d9-410c-8600-03d60dc443c9","system_id":"levelo_inurba_marseille","lat":43.324831,"lon":5.365772,"is_reserved":false,"is_disabled":false,"rental_uris":{"android":"levelo://app?vid=e69003c5-61d9-410c-8600-03d60dc443c9","ios":"levelo://app?vid=e69003c5-61d9-410c-8600-03d60dc443c9"},"vehicle_type_id":"4","last_reported":1730225556,"current_range_meters":32800,"station_id":"ce4bhs12rcd13ifvqhvg","pricing_plan_id":"cebpf4jnsgd1na2vs0mg"},{"bike_id":"9cd28ed1-51d4-469f-80b1-db1aa7224fd9","system_id":"levelo_inurba_marseille","lat":43.31893,"lon":5.40747,"is_reserved":false,"is_disabled":false,"rental_uris":{"android":"levelo://app?vid=9cd28ed1-51d4-469f-80b1-db1aa7224fd9","ios":"levelo://app?vid=9cd28ed1-51d4-469f-80b1-db1aa7224fd9"},"vehicle_type_id":"4","last_reported":1730225556,"current_range_meters":33600,"station_id":"ce4bhq12rcd13ifvqhig","pricing_plan_id":"cebpf4jnsgd1na2vs0mg"},{"bike_id":"4fa6f98f-dbb9-4df5-abb5-2628955fc1b3","system_id":"levelo_inurba_marseille","lat":43.3112,"lon":5.37766,"is_reserved":false,"is_disabled":false,"rental_uris":{"android":"levelo://app?vid=4fa6f98f-dbb9-4df5-abb5-2628955fc1b3","ios":"levelo://app?vid=4fa6f98f-dbb9-4df5-abb5-2628955fc1b3"},"vehicle_type_id":"4","last_reported":1730225556,"current_range_meters":29600,"station_id":"ce4bgt92rcd13ifvqcg0","pricing_plan_id":"cebpf4jnsgd1na2vs0mg"},{"bike_id":"d375d3c3-9328-45e6-98da-ecff5f924f0c","system_id":"levelo_inurba_marseille","lat":43.32367,"lon":5.38898,"is_reserved":false,"is_disabled":false,"rental_uris":{"android":"levelo://app?vid=d375d3c3-9328-45e6-98da-ecff5f924f0c","ios":"levelo://app?vid=d375d3c3-9328-45e6-98da-ecff5f924f0c"},"vehicle_type_id":"4","last_reported":1730225556,"current_range_meters":19600,"station_id":"ce4bhqp2rcd13ifvqhog","pricing_plan_id":"cebpf4jnsgd1na2vs0mg"},{"bike_id":"4efc8f9b-344f-4672-afda-9f1b5152a5de","system_id":"levelo_inurba_marseille","lat":43.28709,"lon":5.37396,"is_reserved":false,"is_disabled":false,"rental_uris":{"android":"levelo://app?vid=4efc8f9b-344f-4672-afda-9f1b5152a5de","ios":"levelo://app?vid=4efc8f9b-344f-4672-afda-9f1b5152a5de"},"vehicle_type_id":"4","last_reported":1730225556,"current_range_meters":25600,"station_id":"ce4bh3p2rcd13ifvqdq0","pricing_plan_id":"cebpf4jnsgd1na2vs0mg"},{"bike_id":"66a04495-273a-47df-ac95-d7c1740f1ef3","system_id":"levelo_inurba_marseille","lat":43.27859,"lon":5.40719,"is_reserved":false,"is_disabled":false,"rental_uris":{"android":"levelo://app?vid=66a04495-273a-47df-ac95-d7c1740f1ef3","ios":"levelo://app?vid=66a04495-273a-47df-ac95-d7c1740f1ef3"},"vehicle_type_id":"4","last_reported":1730225556,"current_range_meters":26800,"station_id":"","pricing_plan_id":"cebpf4jnsgd1na2vs0mg"},{"bike_id":"20e3fade-aa0a-44b5-a481-8fe8d952b99a","system_id":"levelo_inurba_marseille","lat":43.29708,"lon":5.36617,"is_reserved":false,"is_disabled":false,"rental_uris":{"android":"levelo://app?vid=20e3fade-aa0a-44b5-a481-8fe8d952b99a","ios":"levelo://app?vid=20e3fade-aa0a-44b5-a481-8fe8d952b99a"},"vehicle_type_id":"4","last_reported":1730225556,"current_range_meters":24000,"station_id":"ce4bgn12rcd13ifvqbt0","pricing_plan_id":"cebpf4jnsgd1na2vs0mg"},{"bike_id":"664ffbc2-a127-44aa-bcb1-12f30074a2ff","system_id":"levelo_inurba_marseille","lat":43.27325,"lon":5.39068,"is_reserved":false,"is_disabled":false,"rental_uris":{"android":"levelo://app?vid=664ffbc2-a127-44aa-bcb1-12f30074a2ff","ios":"levelo://app?vid=664ffbc2-a127-44aa-bcb1-12f30074a2ff"},"vehicle_type_id":"4","last_reported":1730225556,"current_range_meters":16800,"station_id":"ce4bhgp2rcd13ifvqfe0","pricing_plan_id":"cebpf4jnsgd1na2vs0mg"},{"bike_id":"941a958f-2ebf-461e-a469-69a273723146","system_id":"levelo_inurba_marseille","lat":43.29965,"lon":5.385,"is_reserved":false,"is_disabled":false,"rental_uris":{"android":"levelo://app?vid=941a958f-2ebf-461e-a469-69a273723146","ios":"levelo://app?vid=941a958f-2ebf-461e-a469-69a273723146"},"vehicle_type_id":"4","last_reported":1730225556,"current_range_meters":12800,"station_id":"ce4bgj92rcd13ifvqbd0","pricing_plan_id":"cebpf4jnsgd1na2vs0mg"},{"bike_id":"14a5f614-a667-4f85-96ce-a07c71c43c81","system_id":"levelo_inurba_marseille","lat":43.30146,"lon":5.38809,"is_reserved":false,"is_disabled":false,"rental_uris":{"android":"levelo://app?vid=14a5f614-a667-4f85-96ce-a07c71c43c81","ios":"levelo://app?vid=14a5f614-a667-4f85-96ce-a07c71c43c81"},"vehicle_type_id":"4","last_reported":1730225556,"current_range_meters":25600,"station_id":"ce4bghh2rcd13ifvqb60","pricing_plan_id":"cebpf4jnsgd1na2vs0mg"},{"bike_id":"34c349c4-c8e0-46ba-aa9f-66ac07aea23e","system_id":"levelo_inurba_marseille","lat":43.33026,"lon":5.39043,"is_reserved":false,"is_disabled":false,"rental_uris":{"android":"levelo://app?vid=34c349c4-c8e0-46ba-aa9f-66ac07aea23e","ios":"levelo://app?vid=34c349c4-c8e0-46ba-aa9f-66ac07aea23e"},"vehicle_type_id":"4","last_reported":1730225556,"current_range_meters":38800,"station_id":"ce4bhr92rcd13ifvqhrg","pricing_plan_id":"cebpf4jnsgd1na2vs0mg"},{"bike_id":"26254099-7976-4751-b52f-f9eb3ad05031","system_id":"levelo_inurba_marseille","lat":43.29637,"lon":5.40607,"is_reserved":false,"is_disabled":false,"rental_uris":{"android":"levelo://app?vid=26254099-7976-4751-b52f-f9eb3ad05031","ios":"levelo://app?vid=26254099-7976-4751-b52f-f9eb3ad05031"},"vehicle_type_id":"4","last_reported":1730225556,"current_range_meters":20400,"station_id":"ce4bh0h2rcd13ifvqd60","pricing_plan_id":"cebpf4jnsgd1na2vs0mg"},{"bike_id":"128f2202-9d45-48a2-adde-a19ebea2ca81","system_id":"levelo_inurba_marseille","lat":43.28566,"lon":5.39502,"is_reserved":false,"is_disabled":false,"rental_uris":{"android":"levelo://app?vid=128f2202-9d45-48a2-adde-a19ebea2ca81","ios":"levelo://app?vid=128f2202-9d45-48a2-adde-a19ebea2ca81"},"vehicle_type_id":"4","last_reported":1730225556,"current_range_meters":7200,"station_id":"ce4bh292rcd13ifvqdg0","pricing_plan_id":"cebpf4jnsgd1na2vs0mg"},{"bike_id":"35223d6d-0969-4dd1-85cc-32d743ee6592","system_id":"levelo_inurba_marseille","lat":43.2656,"lon":5.39013,"is_reserved":false,"is_disabled":false,"rental_uris":{"android":"levelo://app?vid=35223d6d-0969-4dd1-85cc-32d743ee6592","ios":"levelo://app?vid=35223d6d-0969-4dd1-85cc-32d743ee6592"},"vehicle_type_id":"4","last_reported":1730225556,"current_range_meters":34000,"station_id":"ce4bhe12rcd13ifvqf30","pricing_plan_id":"cebpf4jnsgd1na2vs0mg"},{"bike_id":"d653eed6-1b6a-491d-a742-5b6d867c9741","system_id":"levelo_inurba_marseille","lat":43.32363,"lon":5.38884,"is_reserved":false,"is_disabled":false,"rental_uris":{"android":"levelo://app?vid=d653eed6-1b6a-491d-a742-5b6d867c9741","ios":"levelo://app?vid=d653eed6-1b6a-491d-a742-5b6d867c9741"},"vehicle_type_id":"4","last_reported":1730225556,"current_range_meters":19200,"station_id":"ce4bhqp2rcd13ifvqhog","pricing_plan_id":"cebpf4jnsgd1na2vs0mg"},{"bike_id":"c211eb3d-2271-47c0-9d1e-4d1364c078f4","system_id":"levelo_inurba_marseille","lat":43.27174,"lon":5.40995,"is_reserved":false,"is_disabled":false,"rental_uris":{"android":"levelo://app?vid=c211eb3d-2271-47c0-9d1e-4d1364c078f4","ios":"levelo://app?vid=c211eb3d-2271-47c0-9d1e-4d1364c078f4"},"vehicle_type_id":"4","last_reported":1730225556,"current_range_meters":6400,"station_id":"ce4bhl12rcd13ifvqgf0","pricing_plan_id":"cebpf4jnsgd1na2vs0mg"},{"bike_id":"b2c05f9f-585e-4b3d-8a48-b202ea6bf660","system_id":"levelo_inurba_marseille","lat":43.24172,"lon":5.36401,"is_reserved":false,"is_disabled":false,"rental_uris":{"android":"levelo://app?vid=b2c05f9f-585e-4b3d-8a48-b202ea6bf660","ios":"levelo://app?vid=b2c05f9f-585e-4b3d-8a48-b202ea6bf660"},"vehicle_type_id":"4","last_reported":1730225556,"current_range_meters":17200,"station_id":"cpo36qri1sfpv3e86is0","pricing_plan_id":"cebpf4jnsgd1na2vs0mg"},{"bike_id":"b70be9d3-a8c1-4ece-a0bb-8f3408a89b37","system_id":"levelo_inurba_marseille","lat":43.29522,"lon":5.39408,"is_reserved":false,"is_disabled":false,"rental_uris":{"android":"levelo://app?vid=b70be9d3-a8c1-4ece-a0bb-8f3408a89b37","ios":"levelo://app?vid=b70be9d3-a8c1-4ece-a0bb-8f3408a89b37"},"vehicle_type_id":"4","last_reported":1730225556,"current_range_meters":17600,"station_id":"ce4bh292rcd13ifvqdf0","pricing_plan_id":"cebpf4jnsgd1na2vs0mg"},{"bike_id":"2529733e-a5f9-40de-baa3-5b4d27b75a6c","system_id":"levelo_inurba_marseille","lat":43.27326,"lon":5.39067,"is_reserved":false,"is_disabled":false,"rental_uris":{"android":"levelo://app?vid=2529733e-a5f9-40de-baa3-5b4d27b75a6c","ios":"levelo://app?vid=2529733e-a5f9-40de-baa3-5b4d27b75a6c"},"vehicle_type_id":"4","last_reported":1730225556,"current_range_meters":21600,"station_id":"ce4bhgp2rcd13ifvqfe0","pricing_plan_id":"cebpf4jnsgd1na2vs0mg"},{"bike_id":"2fc124cb-bff0-4627-9dca-fc38674316dd","system_id":"levelo_inurba_marseille","lat":43.30115,"lon":5.39841,"is_reserved":false,"is_disabled":false,"rental_uris":{"android":"levelo://app?vid=2fc124cb-bff0-4627-9dca-fc38674316dd","ios":"levelo://app?vid=2fc124cb-bff0-4627-9dca-fc38674316dd"},"vehicle_type_id":"4","last_reported":1730225556,"current_range_meters":2800,"station_id":"ce4bh0h2rcd13ifvqd40","pricing_plan_id":"cebpf4jnsgd1na2vs0mg"},{"bike_id":"79753c44-2696-48d8-8503-a28f55e7f2ea","system_id":"levelo_inurba_marseille","lat":43.31323,"lon":5.39702,"is_reserved":false,"is_disabled":false,"rental_uris":{"android":"levelo://app?vid=79753c44-2696-48d8-8503-a28f55e7f2ea","ios":"levelo://app?vid=79753c44-2696-48d8-8503-a28f55e7f2ea"},"vehicle_type_id":"4","last_reported":1730225556,"current_range_meters":30800,"station_id":"ce4bgvp2rcd13ifvqcu0","pricing_plan_id":"cebpf4jnsgd1na2vs0mg"},{"bike_id":"209691fb-0077-46b7-911d-62fe9fe8ea46","system_id":"levelo_inurba_marseille","lat":43.27988,"lon":5.40006,"is_reserved":false,"is_disabled":false,"rental_uris":{"android":"levelo://app?vid=209691fb-0077-46b7-911d-62fe9fe8ea46","ios":"levelo://app?vid=209691fb-0077-46b7-911d-62fe9fe8ea46"},"vehicle_type_id":"4","last_reported":1730225556,"current_range_meters":28000,"station_id":"ce4bho92rcd13ifvqh4g","pricing_plan_id":"cebpf4jnsgd1na2vs0mg"},{"bike_id":"60f5dcfe-d34a-4af6-b9a2-7dfcd39b769e","system_id":"levelo_inurba_marseille","lat":43.31074,"lon":5.38357,"is_reserved":false,"is_disabled":false,"rental_uris":{"android":"levelo://app?vid=60f5dcfe-d34a-4af6-b9a2-7dfcd39b769e","ios":"levelo://app?vid=60f5dcfe-d34a-4af6-b9a2-7dfcd39b769e"},"vehicle_type_id":"4","last_reported":1730225556,"current_range_meters":2800,"station_id":"ce4bgv92rcd13ifvqcr0","pricing_plan_id":"cebpf4jnsgd1na2vs0mg"},{"bike_id":"17182792-6d29-4920-b8dd-c92be680cced","system_id":"levelo_inurba_marseille","lat":43.29521,"lon":5.3905,"is_reserved":false,"is_disabled":false,"rental_uris":{"android":"levelo://app?vid=17182792-6d29-4920-b8dd-c92be680cced","ios":"levelo://app?vid=17182792-6d29-4920-b8dd-c92be680cced"},"vehicle_type_id":"4","last_reported":1730225556,"current_range_meters":32400,"station_id":"ce4bh3p2rcd13ifvqdp0","pricing_plan_id":"cebpf4jnsgd1na2vs0mg"},{"bike_id":"c5ab8f86-3c93-447c-b767-f885bdebd2ff","system_id":"levelo_inurba_marseille","lat":43.27071,"lon":5.42282,"is_reserved":false,"is_disabled":false,"rental_uris":{"android":"levelo://app?vid=c5ab8f86-3c93-447c-b767-f885bdebd2ff","ios":"levelo://app?vid=c5ab8f86-3c93-447c-b767-f885bdebd2ff"},"vehicle_type_id":"4","last_reported":1730225556,"current_range_meters":32000,"station_id":"ce4bhk92rcd13ifvqgb0","pricing_plan_id":"cebpf4jnsgd1na2vs0mg"},{"bike_id":"6bfb62a6-63c3-4bd5-8676-7b2f3dd6580d","system_id":"levelo_inurba_marseille","lat":43.28153,"lon":5.42645,"is_reserved":false,"is_disabled":false,"rental_uris":{"android":"levelo://app?vid=6bfb62a6-63c3-4bd5-8676-7b2f3dd6580d","ios":"levelo://app?vid=6bfb62a6-63c3-4bd5-8676-7b2f3dd6580d"},"vehicle_type_id":"4","last_reported":1730225556,"current_range_meters":17600,"station_id":"ce4bhnh2rcd13ifvqgug","pricing_plan_id":"cebpf4jnsgd1na2vs0mg"},{"bike_id":"70bb78fe-4bef-4d56-a833-affc0bdfc9f3","system_id":"levelo_inurba_marseille","lat":43.23193,"lon":5.35558,"is_reserved":false,"is_disabled":false,"rental_uris":{"android":"levelo://app?vid=70bb78fe-4bef-4d56-a833-affc0bdfc9f3","ios":"levelo://app?vid=70bb78fe-4bef-4d56-a833-affc0bdfc9f3"},"vehicle_type_id":"4","last_reported":1730225556,"current_range_meters":38800,"station_id":"ce4bhu92rcd13ifvqi70","pricing_plan_id":"cebpf4jnsgd1na2vs0mg"},{"bike_id":"658e7720-0937-4b14-bf25-8edd3092dd28","system_id":"levelo_inurba_marseille","lat":43.26788,"lon":5.3942,"is_reserved":false,"is_disabled":false,"rental_uris":{"android":"levelo://app?vid=658e7720-0937-4b14-bf25-8edd3092dd28","ios":"levelo://app?vid=658e7720-0937-4b14-bf25-8edd3092dd28"},"vehicle_type_id":"4","last_reported":1730225556,"current_range_meters":6400,"station_id":"ce4bhh12rcd13ifvqfg0","pricing_plan_id":"cebpf4jnsgd1na2vs0mg"},{"bike_id":"5c244c3d-8fd7-4c95-b825-2f7fe2f15994","system_id":"levelo_inurba_marseille","lat":43.23199,"lon":5.35559,"is_reserved":false,"is_disabled":false,"rental_uris":{"android":"levelo://app?vid=5c244c3d-8fd7-4c95-b825-2f7fe2f15994","ios":"levelo://app?vid=5c244c3d-8fd7-4c95-b825-2f7fe2f15994"},"vehicle_type_id":"4","last_reported":1730225556,"current_range_meters":21600,"station_id":"ce4bhu92rcd13ifvqi70","pricing_plan_id":"cebpf4jnsgd1na2vs0mg"},{"bike_id":"3128776c-62b4-4d1a-bb84-b20cd347c24c","system_id":"levelo_inurba_marseille","lat":43.24545,"lon":5.39523,"is_reserved":false,"is_disabled":false,"rental_uris":{"android":"levelo://app?vid=3128776c-62b4-4d1a-bb84-b20cd347c24c","ios":"levelo://app?vid=3128776c-62b4-4d1a-bb84-b20cd347c24c"},"vehicle_type_id":"4","last_reported":1730225556,"current_range_meters":6400,"station_id":"ce4bhlp2rcd13ifvqgjg","pricing_plan_id":"cebpf4jnsgd1na2vs0mg"},{"bike_id":"ec1e3a76-bc5c-4fd3-96d9-ca1b80219611","system_id":"levelo_inurba_marseille","lat":43.24649,"lon":5.38896,"is_reserved":false,"is_disabled":false,"rental_uris":{"android":"levelo://app?vid=ec1e3a76-bc5c-4fd3-96d9-ca1b80219611","ios":"levelo://app?vid=ec1e3a76-bc5c-4fd3-96d9-ca1b80219611"},"vehicle_type_id":"4","last_reported":1730225556,"current_range_meters":18000,"station_id":"ce4bhg12rcd13ifvqf60","pricing_plan_id":"cebpf4jnsgd1na2vs0mg"},{"bike_id":"c6472a4b-15fb-475c-a800-9db188055ce2","system_id":"levelo_inurba_marseille","lat":43.25829,"lon":5.39435,"is_reserved":false,"is_disabled":false,"rental_uris":{"android":"levelo://app?vid=c6472a4b-15fb-475c-a800-9db188055ce2","ios":"levelo://app?vid=c6472a4b-15fb-475c-a800-9db188055ce2"},"vehicle_type_id":"4","last_reported":1730225556,"current_range_meters":18800,"station_id":"ce4bhip2rcd13ifvqft0","pricing_plan_id":"cebpf4jnsgd1na2vs0mg"},{"bike_id":"1c36e968-b9ec-4e4e-a73e-52f85b4ded24","system_id":"levelo_inurba_marseille","lat":43.27188,"lon":5.40994,"is_reserved":false,"is_disabled":false,"rental_uris":{"android":"levelo://app?vid=1c36e968-b9ec-4e4e-a73e-52f85b4ded24","ios":"levelo://app?vid=1c36e968-b9ec-4e4e-a73e-52f85b4ded24"},"vehicle_type_id":"4","last_reported":1730225556,"current_range_meters":14000,"station_id":"ce4bhl12rcd13ifvqgf0","pricing_plan_id":"cebpf4jnsgd1na2vs0mg"},{"bike_id":"a5fd636b-0ab6-44c3-bdce-ecc26294dbda","system_id":"levelo_inurba_marseille","lat":43.29034,"lon":5.3862,"is_reserved":false,"is_disabled":false,"rental_uris":{"android":"levelo://app?vid=a5fd636b-0ab6-44c3-bdce-ecc26294dbda","ios":"levelo://app?vid=a5fd636b-0ab6-44c3-bdce-ecc26294dbda"},"vehicle_type_id":"4","last_reported":1730225556,"current_range_meters":38800,"station_id":"ce4bh4p2rcd13ifvqe0g","pricing_plan_id":"cebpf4jnsgd1na2vs0mg"},{"bike_id":"3106e607-d326-4322-b79d-c741297c7f47","system_id":"levelo_inurba_marseille","lat":43.2894,"lon":5.36386,"is_reserved":false,"is_disabled":false,"rental_uris":{"android":"levelo://app?vid=3106e607-d326-4322-b79d-c741297c7f47","ios":"levelo://app?vid=3106e607-d326-4322-b79d-c741297c7f47"},"vehicle_type_id":"4","last_reported":1730225556,"current_range_meters":8400,"station_id":"ce4bhc92rcd13ifvqetg","pricing_plan_id":"cebpf4jnsgd1na2vs0mg"},{"bike_id":"42a1e495-7c77-42e0-85a8-33308af6e0b8","system_id":"levelo_inurba_marseille","lat":43.2717,"lon":5.40997,"is_reserved":false,"is_disabled":false,"rental_uris":{"android":"levelo://app?vid=42a1e495-7c77-42e0-85a8-33308af6e0b8","ios":"levelo://app?vid=42a1e495-7c77-42e0-85a8-33308af6e0b8"},"vehicle_type_id":"4","last_reported":1730225556,"current_range_meters":19600,"station_id":"ce4bhl12rcd13ifvqgf0","pricing_plan_id":"cebpf4jnsgd1na2vs0mg"},{"bike_id":"92adf987-4779-4b78-ad9c-8e29ab9175f3","system_id":"levelo_inurba_marseille","lat":43.23194,"lon":5.35551,"is_reserved":false,"is_disabled":false,"rental_uris":{"android":"levelo://app?vid=92adf987-4779-4b78-ad9c-8e29ab9175f3","ios":"levelo://app?vid=92adf987-4779-4b78-ad9c-8e29ab9175f3"},"vehicle_type_id":"4","last_reported":1730225556,"current_range_meters":17600,"station_id":"ce4bhu92rcd13ifvqi70","pricing_plan_id":"cebpf4jnsgd1na2vs0mg"},{"bike_id":"4144a13d-e099-44e1-b921-9fedcd956383","system_id":"levelo_inurba_marseille","lat":43.29893,"lon":5.43675,"is_reserved":false,"is_disabled":false,"rental_uris":{"android":"levelo://app?vid=4144a13d-e099-44e1-b921-9fedcd956383","ios":"levelo://app?vid=4144a13d-e099-44e1-b921-9fedcd956383"},"vehicle_type_id":"4","last_reported":1730225556,"current_range_meters":27600,"station_id":"ce4bhpp2rcd13ifvqhfg","pricing_plan_id":"cebpf4jnsgd1na2vs0mg"},{"bike_id":"ba4cccac-d0c2-4d26-8c3c-f3aeb4df3107","system_id":"levelo_inurba_marseille","lat":43.28151,"lon":5.42641,"is_reserved":false,"is_disabled":false,"rental_uris":{"android":"levelo://app?vid=ba4cccac-d0c2-4d26-8c3c-f3aeb4df3107","ios":"levelo://app?vid=ba4cccac-d0c2-4d26-8c3c-f3aeb4df3107"},"vehicle_type_id":"4","last_reported":1730225556,"current_range_meters":5600,"station_id":"ce4bhnh2rcd13ifvqgug","pricing_plan_id":"cebpf4jnsgd1na2vs0mg"},{"bike_id":"838c95a1-8d55-45c2-ac90-70286479c46a","system_id":"levelo_inurba_marseille","lat":43.305298,"lon":5.384237,"is_reserved":false,"is_disabled":false,"rental_uris":{"android":"levelo://app?vid=838c95a1-8d55-45c2-ac90-70286479c46a","ios":"levelo://app?vid=838c95a1-8d55-45c2-ac90-70286479c46a"},"vehicle_type_id":"4","last_reported":1730225556,"current_range_meters":38400,"station_id":"ce4bgg92rcd13ifvqb30","pricing_plan_id":"cebpf4jnsgd1na2vs0mg"},{"bike_id":"c88d2f18-4451-43d5-a138-6f3c85eaa8b8","system_id":"levelo_inurba_marseille","lat":43.28918,"lon":5.38417,"is_reserved":false,"is_disabled":false,"rental_uris":{"android":"levelo://app?vid=c88d2f18-4451-43d5-a138-6f3c85eaa8b8","ios":"levelo://app?vid=c88d2f18-4451-43d5-a138-6f3c85eaa8b8"},"vehicle_type_id":"4","last_reported":1730225556,"current_range_meters":30000,"station_id":"ce4bh612rcd13ifvqe6g","pricing_plan_id":"cebpf4jnsgd1na2vs0mg"},{"bike_id":"3eacef56-e200-4054-9b0c-156c6ef1c7f9","system_id":"levelo_inurba_marseille","lat":43.32399,"lon":5.37007,"is_reserved":false,"is_disabled":false,"rental_uris":{"android":"levelo://app?vid=3eacef56-e200-4054-9b0c-156c6ef1c7f9","ios":"levelo://app?vid=3eacef56-e200-4054-9b0c-156c6ef1c7f9"},"vehicle_type_id":"4","last_reported":1730225556,"current_range_meters":36000,"station_id":"","pricing_plan_id":"cebpf4jnsgd1na2vs0mg"},{"bike_id":"3928d2b2-5322-4bfc-935c-f02931565366","system_id":"levelo_inurba_marseille","lat":43.27998,"lon":5.41663,"is_reserved":false,"is_disabled":false,"rental_uris":{"android":"levelo://app?vid=3928d2b2-5322-4bfc-935c-f02931565366","ios":"levelo://app?vid=3928d2b2-5322-4bfc-935c-f02931565366"},"vehicle_type_id":"4","last_reported":1730225556,"current_range_meters":22800,"station_id":"ce4bho12rcd13ifvqh1g","pricing_plan_id":"cebpf4jnsgd1na2vs0mg"},{"bike_id":"669541bb-ec23-44c5-bb83-c3650de83fee","system_id":"levelo_inurba_marseille","lat":43.27995,"lon":5.41665,"is_reserved":false,"is_disabled":false,"rental_uris":{"android":"levelo://app?vid=669541bb-ec23-44c5-bb83-c3650de83fee","ios":"levelo://app?vid=669541bb-ec23-44c5-bb83-c3650de83fee"},"vehicle_type_id":"4","last_reported":1730225556,"current_range_meters":4400,"station_id":"ce4bho12rcd13ifvqh1g","pricing_plan_id":"cebpf4jnsgd1na2vs0mg"},{"bike_id":"c809e107-43ca-49c8-b634-4e4e9555b50e","system_id":"levelo_inurba_marseille","lat":43.31326,"lon":5.39692,"is_reserved":false,"is_disabled":false,"rental_uris":{"android":"levelo://app?vid=c809e107-43ca-49c8-b634-4e4e9555b50e","ios":"levelo://app?vid=c809e107-43ca-49c8-b634-4e4e9555b50e"},"vehicle_type_id":"4","last_reported":1730225556,"current_range_meters":3200,"station_id":"ce4bgvp2rcd13ifvqcu0","pricing_plan_id":"cebpf4jnsgd1na2vs0mg"},{"bike_id":"e3bfaa78-9ac6-44ac-939d-83a965291944","system_id":"levelo_inurba_marseille","lat":43.2903,"lon":5.38638,"is_reserved":false,"is_disabled":false,"rental_uris":{"android":"levelo://app?vid=e3bfaa78-9ac6-44ac-939d-83a965291944","ios":"levelo://app?vid=e3bfaa78-9ac6-44ac-939d-83a965291944"},"vehicle_type_id":"4","last_reported":1730225556,"current_range_meters":25600,"station_id":"ce4bh4p2rcd13ifvqe0g","pricing_plan_id":"cebpf4jnsgd1na2vs0mg"},{"bike_id":"86b8222b-fabd-447a-bba1-fa7cb533ac4f","system_id":"levelo_inurba_marseille","lat":43.29705,"lon":5.36612,"is_reserved":false,"is_disabled":false,"rental_uris":{"android":"levelo://app?vid=86b8222b-fabd-447a-bba1-fa7cb533ac4f","ios":"levelo://app?vid=86b8222b-fabd-447a-bba1-fa7cb533ac4f"},"vehicle_type_id":"4","last_reported":1730225556,"current_range_meters":36800,"station_id":"ce4bgn12rcd13ifvqbt0","pricing_plan_id":"cebpf4jnsgd1na2vs0mg"},{"bike_id":"5818b4c7-1191-4438-a166-805af1a3d8c7","system_id":"levelo_inurba_marseille","lat":43.29438,"lon":5.39755,"is_reserved":false,"is_disabled":false,"rental_uris":{"android":"levelo://app?vid=5818b4c7-1191-4438-a166-805af1a3d8c7","ios":"levelo://app?vid=5818b4c7-1191-4438-a166-805af1a3d8c7"},"vehicle_type_id":"4","last_reported":1730225556,"current_range_meters":9600,"station_id":"ce4bh3h2rcd13ifvqdo0","pricing_plan_id":"cebpf4jnsgd1na2vs0mg"},{"bike_id":"cf1fb438-4120-4755-be09-4e2ca83e4452","system_id":"levelo_inurba_marseille","lat":43.33025,"lon":5.39046,"is_reserved":false,"is_disabled":false,"rental_uris":{"android":"levelo://app?vid=cf1fb438-4120-4755-be09-4e2ca83e4452","ios":"levelo://app?vid=cf1fb438-4120-4755-be09-4e2ca83e4452"},"vehicle_type_id":"4","last_reported":1730225556,"current_range_meters":23200,"station_id":"ce4bhr92rcd13ifvqhrg","pricing_plan_id":"cebpf4jnsgd1na2vs0mg"},{"bike_id":"037a81aa-ba54-4ccb-acb7-1df4bd2d1f95","system_id":"levelo_inurba_marseille","lat":43.26495,"lon":5.39547,"is_reserved":false,"is_disabled":false,"rental_uris":{"android":"levelo://app?vid=037a81aa-ba54-4ccb-acb7-1df4bd2d1f95","ios":"levelo://app?vid=037a81aa-ba54-4ccb-acb7-1df4bd2d1f95"},"vehicle_type_id":"4","last_reported":1730225556,"current_range_meters":30800,"station_id":"ce4bhi12rcd13ifvqfq0","pricing_plan_id":"cebpf4jnsgd1na2vs0mg"},{"bike_id":"e8a97a0b-1dab-415a-b513-bd7b6f0abfdd","system_id":"levelo_inurba_marseille","lat":43.24177,"lon":5.39738,"is_reserved":false,"is_disabled":false,"rental_uris":{"android":"levelo://app?vid=e8a97a0b-1dab-415a-b513-bd7b6f0abfdd","ios":"levelo://app?vid=e8a97a0b-1dab-415a-b513-bd7b6f0abfdd"},"vehicle_type_id":"4","last_reported":1730225556,"current_range_meters":29600,"station_id":"ce4bhn12rcd13ifvqgpg","pricing_plan_id":"cebpf4jnsgd1na2vs0mg"},{"bike_id":"451dd43d-7068-4b86-b4eb-bb5990903185","system_id":"levelo_inurba_marseille","lat":43.28699,"lon":5.39992,"is_reserved":false,"is_disabled":false,"rental_uris":{"android":"levelo://app?vid=451dd43d-7068-4b86-b4eb-bb5990903185","ios":"levelo://app?vid=451dd43d-7068-4b86-b4eb-bb5990903185"},"vehicle_type_id":"4","last_reported":1730225556,"current_range_meters":2000,"station_id":"ce4bho92rcd13ifvqh3g","pricing_plan_id":"cebpf4jnsgd1na2vs0mg"},{"bike_id":"6e0dffd9-281f-4cf7-af3c-7dd9eb149205","system_id":"levelo_inurba_marseille","lat":43.29961,"lon":5.385,"is_reserved":false,"is_disabled":false,"rental_uris":{"android":"levelo://app?vid=6e0dffd9-281f-4cf7-af3c-7dd9eb149205","ios":"levelo://app?vid=6e0dffd9-281f-4cf7-af3c-7dd9eb149205"},"vehicle_type_id":"4","last_reported":1730225556,"current_range_meters":21600,"station_id":"ce4bgj92rcd13ifvqbd0","pricing_plan_id":"cebpf4jnsgd1na2vs0mg"},{"bike_id":"2d4d75f2-4c2a-4d4e-bc35-c9dc36ecc41b","system_id":"levelo_inurba_marseille","lat":43.298908,"lon":5.389009,"is_reserved":false,"is_disabled":false,"rental_uris":{"android":"levelo://app?vid=2d4d75f2-4c2a-4d4e-bc35-c9dc36ecc41b","ios":"levelo://app?vid=2d4d75f2-4c2a-4d4e-bc35-c9dc36ecc41b"},"vehicle_type_id":"4","last_reported":1730225556,"current_range_meters":6800,"station_id":"ce4bh392rcd13ifvqdl0","pricing_plan_id":"cebpf4jnsgd1na2vs0mg"},{"bike_id":"538c6c97-8738-4e40-afde-1ced2fc6b778","system_id":"levelo_inurba_marseille","lat":43.33731,"lon":5.39197,"is_reserved":false,"is_disabled":false,"rental_uris":{"android":"levelo://app?vid=538c6c97-8738-4e40-afde-1ced2fc6b778","ios":"levelo://app?vid=538c6c97-8738-4e40-afde-1ced2fc6b778"},"vehicle_type_id":"4","last_reported":1730225556,"current_range_meters":38800,"station_id":"ce4bhr92rcd13ifvqhsg","pricing_plan_id":"cebpf4jnsgd1na2vs0mg"},{"bike_id":"b17d831e-9fa3-4c76-993c-3485bc5641c6","system_id":"levelo_inurba_marseille","lat":43.30793,"lon":5.43529,"is_reserved":false,"is_disabled":false,"rental_uris":{"android":"levelo://app?vid=b17d831e-9fa3-4c76-993c-3485bc5641c6","ios":"levelo://app?vid=b17d831e-9fa3-4c76-993c-3485bc5641c6"},"vehicle_type_id":"4","last_reported":1730225556,"current_range_meters":3600,"station_id":"ce4bhph2rcd13ifvqheg","pricing_plan_id":"cebpf4jnsgd1na2vs0mg"},{"bike_id":"e40111e4-4deb-41a5-ac02-7465c5223951","system_id":"levelo_inurba_marseille","lat":43.28625,"lon":5.38362,"is_reserved":false,"is_disabled":false,"rental_uris":{"android":"levelo://app?vid=e40111e4-4deb-41a5-ac02-7465c5223951","ios":"levelo://app?vid=e40111e4-4deb-41a5-ac02-7465c5223951"},"vehicle_type_id":"4","last_reported":1730225556,"current_range_meters":14800,"station_id":"ce4bh4p2rcd13ifvqe1g","pricing_plan_id":"cebpf4jnsgd1na2vs0mg"},{"bike_id":"05d59e1f-0e0c-49ac-a6f5-1a692eb656a4","system_id":"levelo_inurba_marseille","lat":43.24549,"lon":5.39524,"is_reserved":false,"is_disabled":false,"rental_uris":{"android":"levelo://app?vid=05d59e1f-0e0c-49ac-a6f5-1a692eb656a4","ios":"levelo://app?vid=05d59e1f-0e0c-49ac-a6f5-1a692eb656a4"},"vehicle_type_id":"4","last_reported":1730225556,"current_range_meters":38800,"station_id":"ce4bhlp2rcd13ifvqgjg","pricing_plan_id":"cebpf4jnsgd1na2vs0mg"},{"bike_id":"c497513d-9d1d-4320-a1e3-875a8b21d4c5","system_id":"levelo_inurba_marseille","lat":43.27181,"lon":5.40997,"is_reserved":false,"is_disabled":false,"rental_uris":{"android":"levelo://app?vid=c497513d-9d1d-4320-a1e3-875a8b21d4c5","ios":"levelo://app?vid=c497513d-9d1d-4320-a1e3-875a8b21d4c5"},"vehicle_type_id":"4","last_reported":1730225556,"current_range_meters":36400,"station_id":"ce4bhl12rcd13ifvqgf0","pricing_plan_id":"cebpf4jnsgd1na2vs0mg"},{"bike_id":"e1b8f9fb-e491-40ed-a82e-b7180152c511","system_id":"levelo_inurba_marseille","lat":43.23968,"lon":5.36632,"is_reserved":false,"is_disabled":false,"rental_uris":{"android":"levelo://app?vid=e1b8f9fb-e491-40ed-a82e-b7180152c511","ios":"levelo://app?vid=e1b8f9fb-e491-40ed-a82e-b7180152c511"},"vehicle_type_id":"4","last_reported":1730225556,"current_range_meters":36400,"station_id":"ce4bhi12rcd13ifvqfp0","pricing_plan_id":"cebpf4jnsgd1na2vs0mg"},{"bike_id":"9b0ea66b-493e-483b-b54b-5f9ea7fe7351","system_id":"levelo_inurba_marseille","lat":43.29007,"lon":5.35621,"is_reserved":false,"is_disabled":false,"rental_uris":{"android":"levelo://app?vid=9b0ea66b-493e-483b-b54b-5f9ea7fe7351","ios":"levelo://app?vid=9b0ea66b-493e-483b-b54b-5f9ea7fe7351"},"vehicle_type_id":"4","last_reported":1730225556,"current_range_meters":19200,"station_id":"ce4bhb92rcd13ifvqen0","pricing_plan_id":"cebpf4jnsgd1na2vs0mg"},{"bike_id":"def1d651-341e-46c0-ae94-0acae7d37bc8","system_id":"levelo_inurba_marseille","lat":43.251068,"lon":5.403243,"is_reserved":false,"is_disabled":false,"rental_uris":{"android":"levelo://app?vid=def1d651-341e-46c0-ae94-0acae7d37bc8","ios":"levelo://app?vid=def1d651-341e-46c0-ae94-0acae7d37bc8"},"vehicle_type_id":"4","last_reported":1730225556,"current_range_meters":24800,"station_id":"ce4bhkp2rcd13ifvqgd0","pricing_plan_id":"cebpf4jnsgd1na2vs0mg"},{"bike_id":"5ff97d39-7787-424f-a87b-f0cd7b86022c","system_id":"levelo_inurba_marseille","lat":43.24181,"lon":5.39726,"is_reserved":false,"is_disabled":false,"rental_uris":{"android":"levelo://app?vid=5ff97d39-7787-424f-a87b-f0cd7b86022c","ios":"levelo://app?vid=5ff97d39-7787-424f-a87b-f0cd7b86022c"},"vehicle_type_id":"4","last_reported":1730225556,"current_range_meters":26000,"station_id":"ce4bhn12rcd13ifvqgpg","pricing_plan_id":"cebpf4jnsgd1na2vs0mg"},{"bike_id":"6235ec86-7722-4b3a-9291-0eda7d1ab6d9","system_id":"levelo_inurba_marseille","lat":43.28157,"lon":5.42645,"is_reserved":false,"is_disabled":false,"rental_uris":{"android":"levelo://app?vid=6235ec86-7722-4b3a-9291-0eda7d1ab6d9","ios":"levelo://app?vid=6235ec86-7722-4b3a-9291-0eda7d1ab6d9"},"vehicle_type_id":"4","last_reported":1730225556,"current_range_meters":38400,"station_id":"ce4bhnh2rcd13ifvqgug","pricing_plan_id":"cebpf4jnsgd1na2vs0mg"},{"bike_id":"40882440-2db7-41f4-a9d3-8d1e0b9311f1","system_id":"levelo_inurba_marseille","lat":43.292807,"lon":5.401201,"is_reserved":false,"is_disabled":false,"rental_uris":{"android":"levelo://app?vid=40882440-2db7-41f4-a9d3-8d1e0b9311f1","ios":"levelo://app?vid=40882440-2db7-41f4-a9d3-8d1e0b9311f1"},"vehicle_type_id":"4","last_reported":1730225556,"current_range_meters":32000,"station_id":"ce4bh312rcd13ifvqdk0","pricing_plan_id":"cebpf4jnsgd1na2vs0mg"},{"bike_id":"041ec194-3f5c-487a-9756-9961793b5622","system_id":"levelo_inurba_marseille","lat":43.27996,"lon":5.4002,"is_reserved":false,"is_disabled":false,"rental_uris":{"android":"levelo://app?vid=041ec194-3f5c-487a-9756-9961793b5622","ios":"levelo://app?vid=041ec194-3f5c-487a-9756-9961793b5622"},"vehicle_type_id":"4","last_reported":1730225556,"current_range_meters":21600,"station_id":"ce4bho92rcd13ifvqh4g","pricing_plan_id":"cebpf4jnsgd1na2vs0mg"},{"bike_id":"e3097137-b5d6-42d3-aac7-0b7a2cb63276","system_id":"levelo_inurba_marseille","lat":43.28004,"lon":5.40012,"is_reserved":false,"is_disabled":false,"rental_uris":{"android":"levelo://app?vid=e3097137-b5d6-42d3-aac7-0b7a2cb63276","ios":"levelo://app?vid=e3097137-b5d6-42d3-aac7-0b7a2cb63276"},"vehicle_type_id":"4","last_reported":1730225556,"current_range_meters":19200,"station_id":"ce4bho92rcd13ifvqh4g","pricing_plan_id":"cebpf4jnsgd1na2vs0mg"},{"bike_id":"653f7fc8-4364-417f-a15e-21a1749bd903","system_id":"levelo_inurba_marseille","lat":43.29779,"lon":5.37099,"is_reserved":false,"is_disabled":false,"rental_uris":{"android":"levelo://app?vid=653f7fc8-4364-417f-a15e-21a1749bd903","ios":"levelo://app?vid=653f7fc8-4364-417f-a15e-21a1749bd903"},"vehicle_type_id":"4","last_reported":1730225556,"current_range_meters":6400,"station_id":"ce4bgop2rcd13ifvqc1g","pricing_plan_id":"cebpf4jnsgd1na2vs0mg"},{"bike_id":"92e7594a-a110-429c-993d-523ec7bd8aac","system_id":"levelo_inurba_marseille","lat":43.28862,"lon":5.39318,"is_reserved":false,"is_disabled":false,"rental_uris":{"android":"levelo://app?vid=92e7594a-a110-429c-993d-523ec7bd8aac","ios":"levelo://app?vid=92e7594a-a110-429c-993d-523ec7bd8aac"},"vehicle_type_id":"4","last_reported":1730225556,"current_range_meters":38800,"station_id":"ce4bh2p2rcd13ifvqdi0","pricing_plan_id":"cebpf4jnsgd1na2vs0mg"},{"bike_id":"92fa9657-dbab-4680-b1ad-47b6aaf27d01","system_id":"levelo_inurba_marseille","lat":43.27997,"lon":5.40032,"is_reserved":false,"is_disabled":false,"rental_uris":{"android":"levelo://app?vid=92fa9657-dbab-4680-b1ad-47b6aaf27d01","ios":"levelo://app?vid=92fa9657-dbab-4680-b1ad-47b6aaf27d01"},"vehicle_type_id":"4","last_reported":1730225556,"current_range_meters":18000,"station_id":"ce4bho92rcd13ifvqh4g","pricing_plan_id":"cebpf4jnsgd1na2vs0mg"},{"bike_id":"6cddfcd3-8c25-494e-b3bc-2b688952c40f","system_id":"levelo_inurba_marseille","lat":43.2942,"lon":5.38631,"is_reserved":false,"is_disabled":false,"rental_uris":{"android":"levelo://app?vid=6cddfcd3-8c25-494e-b3bc-2b688952c40f","ios":"levelo://app?vid=6cddfcd3-8c25-494e-b3bc-2b688952c40f"},"vehicle_type_id":"4","last_reported":1730225556,"current_range_meters":7200,"station_id":"ce4bh2h2rcd13ifvqdh0","pricing_plan_id":"cebpf4jnsgd1na2vs0mg"},{"bike_id":"3271917c-0527-441a-816d-bcab30fe8874","system_id":"levelo_inurba_marseille","lat":43.2668,"lon":5.38281,"is_reserved":false,"is_disabled":false,"rental_uris":{"android":"levelo://app?vid=3271917c-0527-441a-816d-bcab30fe8874","ios":"levelo://app?vid=3271917c-0527-441a-816d-bcab30fe8874"},"vehicle_type_id":"4","last_reported":1730225556,"current_range_meters":37600,"station_id":"ce4bhg92rcd13ifvqf90","pricing_plan_id":"cebpf4jnsgd1na2vs0mg"},{"bike_id":"9d46e0b2-b7a2-490a-aca2-06a1d5481623","system_id":"levelo_inurba_marseille","lat":43.27746,"lon":5.41519,"is_reserved":false,"is_disabled":false,"rental_uris":{"android":"levelo://app?vid=9d46e0b2-b7a2-490a-aca2-06a1d5481623","ios":"levelo://app?vid=9d46e0b2-b7a2-490a-aca2-06a1d5481623"},"vehicle_type_id":"4","last_reported":1730225556,"current_range_meters":16000,"station_id":"","pricing_plan_id":"cebpf4jnsgd1na2vs0mg"},{"bike_id":"fe2904da-4ac6-42de-b232-dbec16338c49","system_id":"levelo_inurba_marseille","lat":43.3369,"lon":5.35748,"is_reserved":false,"is_disabled":false,"rental_uris":{"android":"levelo://app?vid=fe2904da-4ac6-42de-b232-dbec16338c49","ios":"levelo://app?vid=fe2904da-4ac6-42de-b232-dbec16338c49"},"vehicle_type_id":"4","last_reported":1730225556,"current_range_meters":28000,"station_id":"","pricing_plan_id":"cebpf4jnsgd1na2vs0mg"},{"bike_id":"0fa55f12-5b55-480a-9de2-101698078f63","system_id":"levelo_inurba_marseille","lat":43.28855,"lon":5.35868,"is_reserved":false,"is_disabled":false,"rental_uris":{"android":"levelo://app?vid=0fa55f12-5b55-480a-9de2-101698078f63","ios":"levelo://app?vid=0fa55f12-5b55-480a-9de2-101698078f63"},"vehicle_type_id":"4","last_reported":1730225556,"current_range_meters":24400,"station_id":"ce4bhb12rcd13ifvqem0","pricing_plan_id":"cebpf4jnsgd1na2vs0mg"},{"bike_id":"9623babb-d132-42f4-aa0f-29f79a925bfd","system_id":"levelo_inurba_marseille","lat":43.295675,"lon":5.37525,"is_reserved":false,"is_disabled":false,"rental_uris":{"android":"levelo://app?vid=9623babb-d132-42f4-aa0f-29f79a925bfd","ios":"levelo://app?vid=9623babb-d132-42f4-aa0f-29f79a925bfd"},"vehicle_type_id":"4","last_reported":1730225556,"current_range_meters":16800,"station_id":"ce4bhb92rcd13ifvqen0","pricing_plan_id":"cebpf4jnsgd1na2vs0mg"},{"bike_id":"fe0d64c0-ec38-4c5f-97fd-73683173eb6e","system_id":"levelo_inurba_marseille","lat":43.28,"lon":5.40011,"is_reserved":false,"is_disabled":false,"rental_uris":{"android":"levelo://app?vid=fe0d64c0-ec38-4c5f-97fd-73683173eb6e","ios":"levelo://app?vid=fe0d64c0-ec38-4c5f-97fd-73683173eb6e"},"vehicle_type_id":"4","last_reported":1730225556,"current_range_meters":38000,"station_id":"ce4bho92rcd13ifvqh4g","pricing_plan_id":"cebpf4jnsgd1na2vs0mg"},{"bike_id":"b760cd43-20e6-42d2-9392-04a635287f3f","system_id":"levelo_inurba_marseille","lat":43.25823,"lon":5.39433,"is_reserved":false,"is_disabled":false,"rental_uris":{"android":"levelo://app?vid=b760cd43-20e6-42d2-9392-04a635287f3f","ios":"levelo://app?vid=b760cd43-20e6-42d2-9392-04a635287f3f"},"vehicle_type_id":"4","last_reported":1730225556,"current_range_meters":22000,"station_id":"ce4bhip2rcd13ifvqft0","pricing_plan_id":"cebpf4jnsgd1na2vs0mg"},{"bike_id":"baf7c465-8d62-47fd-b581-9074cdb7e3ac","system_id":"levelo_inurba_marseille","lat":43.24653,"lon":5.38903,"is_reserved":false,"is_disabled":false,"rental_uris":{"android":"levelo://app?vid=baf7c465-8d62-47fd-b581-9074cdb7e3ac","ios":"levelo://app?vid=baf7c465-8d62-47fd-b581-9074cdb7e3ac"},"vehicle_type_id":"4","last_reported":1730225556,"current_range_meters":23200,"station_id":"ce4bhg12rcd13ifvqf60","pricing_plan_id":"cebpf4jnsgd1na2vs0mg"},{"bike_id":"6c55372d-3929-4cf2-b4ea-30149f454df3","system_id":"levelo_inurba_marseille","lat":43.27989,"lon":5.40009,"is_reserved":false,"is_disabled":false,"rental_uris":{"android":"levelo://app?vid=6c55372d-3929-4cf2-b4ea-30149f454df3","ios":"levelo://app?vid=6c55372d-3929-4cf2-b4ea-30149f454df3"},"vehicle_type_id":"4","last_reported":1730225556,"current_range_meters":30400,"station_id":"ce4bho92rcd13ifvqh4g","pricing_plan_id":"cebpf4jnsgd1na2vs0mg"},{"bike_id":"de26d2e3-435f-4444-a71a-85f92f4cf820","system_id":"levelo_inurba_marseille","lat":43.29517,"lon":5.39043,"is_reserved":false,"is_disabled":false,"rental_uris":{"android":"levelo://app?vid=de26d2e3-435f-4444-a71a-85f92f4cf820","ios":"levelo://app?vid=de26d2e3-435f-4444-a71a-85f92f4cf820"},"vehicle_type_id":"4","last_reported":1730225556,"current_range_meters":26800,"station_id":"ce4bh3p2rcd13ifvqdp0","pricing_plan_id":"cebpf4jnsgd1na2vs0mg"},{"bike_id":"28479175-49ee-4458-b947-381054ff18fd","system_id":"levelo_inurba_marseille","lat":43.29278,"lon":5.36852,"is_reserved":false,"is_disabled":false,"rental_uris":{"android":"levelo://app?vid=28479175-49ee-4458-b947-381054ff18fd","ios":"levelo://app?vid=28479175-49ee-4458-b947-381054ff18fd"},"vehicle_type_id":"4","last_reported":1730225556,"current_range_meters":17600,"station_id":"ce4bhbp2rcd13ifvqesg","pricing_plan_id":"cebpf4jnsgd1na2vs0mg"},{"bike_id":"cacf8e35-459c-41c7-8f45-78d3a6dca270","system_id":"levelo_inurba_marseille","lat":43.296,"lon":5.38104,"is_reserved":false,"is_disabled":false,"rental_uris":{"android":"levelo://app?vid=cacf8e35-459c-41c7-8f45-78d3a6dca270","ios":"levelo://app?vid=cacf8e35-459c-41c7-8f45-78d3a6dca270"},"vehicle_type_id":"4","last_reported":1730225556,"current_range_meters":33200,"station_id":"ce4bgl12rcd13ifvqbo0","pricing_plan_id":"cebpf4jnsgd1na2vs0mg"},{"bike_id":"979b79fc-0d9d-4fc7-a7e7-37a87f9bd1f1","system_id":"levelo_inurba_marseille","lat":43.28078,"lon":5.39665,"is_reserved":false,"is_disabled":false,"rental_uris":{"android":"levelo://app?vid=979b79fc-0d9d-4fc7-a7e7-37a87f9bd1f1","ios":"levelo://app?vid=979b79fc-0d9d-4fc7-a7e7-37a87f9bd1f1"},"vehicle_type_id":"4","last_reported":1730225556,"current_range_meters":23200,"station_id":"ce4bho12rcd13ifvqh2g","pricing_plan_id":"cebpf4jnsgd1na2vs0mg"},{"bike_id":"fe1d77af-0792-4f97-ae79-62a9f17b1c67","system_id":"levelo_inurba_marseille","lat":43.292837,"lon":5.401189,"is_reserved":false,"is_disabled":false,"rental_uris":{"android":"levelo://app?vid=fe1d77af-0792-4f97-ae79-62a9f17b1c67","ios":"levelo://app?vid=fe1d77af-0792-4f97-ae79-62a9f17b1c67"},"vehicle_type_id":"4","last_reported":1730225556,"current_range_meters":38800,"station_id":"ce4bh312rcd13ifvqdk0","pricing_plan_id":"cebpf4jnsgd1na2vs0mg"},{"bike_id":"9fc5741d-2bc0-4f01-8c06-8ba63206560e","system_id":"levelo_inurba_marseille","lat":43.28677,"lon":5.38665,"is_reserved":false,"is_disabled":false,"rental_uris":{"android":"levelo://app?vid=9fc5741d-2bc0-4f01-8c06-8ba63206560e","ios":"levelo://app?vid=9fc5741d-2bc0-4f01-8c06-8ba63206560e"},"vehicle_type_id":"4","last_reported":1730225556,"current_range_meters":38800,"station_id":"ce4bh492rcd13ifvqdug","pricing_plan_id":"cebpf4jnsgd1na2vs0mg"},{"bike_id":"a1f83bf3-eed6-45ed-a98a-d29a1a4fe512","system_id":"levelo_inurba_marseille","lat":43.29934,"lon":5.41309,"is_reserved":false,"is_disabled":false,"rental_uris":{"android":"levelo://app?vid=a1f83bf3-eed6-45ed-a98a-d29a1a4fe512","ios":"levelo://app?vid=a1f83bf3-eed6-45ed-a98a-d29a1a4fe512"},"vehicle_type_id":"4","last_reported":1730225556,"current_range_meters":27600,"station_id":"ce4bhp12rcd13ifvqh9g","pricing_plan_id":"cebpf4jnsgd1na2vs0mg"},{"bike_id":"6a837c5a-938f-4a78-a0ab-620af17ca80b","system_id":"levelo_inurba_marseille","lat":43.31119,"lon":5.37772,"is_reserved":false,"is_disabled":false,"rental_uris":{"android":"levelo://app?vid=6a837c5a-938f-4a78-a0ab-620af17ca80b","ios":"levelo://app?vid=6a837c5a-938f-4a78-a0ab-620af17ca80b"},"vehicle_type_id":"4","last_reported":1730225556,"current_range_meters":12000,"station_id":"ce4bgt92rcd13ifvqcg0","pricing_plan_id":"cebpf4jnsgd1na2vs0mg"},{"bike_id":"766801a5-7dbd-464a-bc56-398e14b9cf78","system_id":"levelo_inurba_marseille","lat":43.29805,"lon":5.37136,"is_reserved":false,"is_disabled":false,"rental_uris":{"android":"levelo://app?vid=766801a5-7dbd-464a-bc56-398e14b9cf78","ios":"levelo://app?vid=766801a5-7dbd-464a-bc56-398e14b9cf78"},"vehicle_type_id":"4","last_reported":1730225556,"current_range_meters":9600,"station_id":"","pricing_plan_id":"cebpf4jnsgd1na2vs0mg"},{"bike_id":"afc8a59e-718c-432c-b226-d6be0903e5fb","system_id":"levelo_inurba_marseille","lat":43.24395,"lon":5.37063,"is_reserved":false,"is_disabled":false,"rental_uris":{"android":"levelo://app?vid=afc8a59e-718c-432c-b226-d6be0903e5fb","ios":"levelo://app?vid=afc8a59e-718c-432c-b226-d6be0903e5fb"},"vehicle_type_id":"4","last_reported":1730225556,"current_range_meters":36800,"station_id":"ce4bhhh2rcd13ifvqfk0","pricing_plan_id":"cebpf4jnsgd1na2vs0mg"},{"bike_id":"e997f54c-bc4c-4ae0-8b91-621bedb6741c","system_id":"levelo_inurba_marseille","lat":43.30208,"lon":5.39467,"is_reserved":false,"is_disabled":false,"rental_uris":{"android":"levelo://app?vid=e997f54c-bc4c-4ae0-8b91-621bedb6741c","ios":"levelo://app?vid=e997f54c-bc4c-4ae0-8b91-621bedb6741c"},"vehicle_type_id":"4","last_reported":1730225556,"current_range_meters":36000,"station_id":"ce4bh0p2rcd13ifvqd70","pricing_plan_id":"cebpf4jnsgd1na2vs0mg"},{"bike_id":"76374e6a-6f22-42f7-bb0e-e0795a759729","system_id":"levelo_inurba_marseille","lat":43.26677,"lon":5.38266,"is_reserved":false,"is_disabled":false,"rental_uris":{"android":"levelo://app?vid=76374e6a-6f22-42f7-bb0e-e0795a759729","ios":"levelo://app?vid=76374e6a-6f22-42f7-bb0e-e0795a759729"},"vehicle_type_id":"4","last_reported":1730225556,"current_range_meters":8800,"station_id":"ce4bhg92rcd13ifvqf90","pricing_plan_id":"cebpf4jnsgd1na2vs0mg"},{"bike_id":"84a34f64-d710-4f7b-8f16-f367a9f930e0","system_id":"levelo_inurba_marseille","lat":43.26065,"lon":5.39393,"is_reserved":false,"is_disabled":false,"rental_uris":{"android":"levelo://app?vid=84a34f64-d710-4f7b-8f16-f367a9f930e0","ios":"levelo://app?vid=84a34f64-d710-4f7b-8f16-f367a9f930e0"},"vehicle_type_id":"4","last_reported":1730225556,"current_range_meters":28800,"station_id":"ce4bhh92rcd13ifvqfj0","pricing_plan_id":"cebpf4jnsgd1na2vs0mg"},{"bike_id":"34b9d4da-aa6b-4d5a-b646-f4bc21281d7c","system_id":"levelo_inurba_marseille","lat":43.27173,"lon":5.40991,"is_reserved":false,"is_disabled":false,"rental_uris":{"android":"levelo://app?vid=34b9d4da-aa6b-4d5a-b646-f4bc21281d7c","ios":"levelo://app?vid=34b9d4da-aa6b-4d5a-b646-f4bc21281d7c"},"vehicle_type_id":"4","last_reported":1730225556,"current_range_meters":10000,"station_id":"ce4bhl12rcd13ifvqgf0","pricing_plan_id":"cebpf4jnsgd1na2vs0mg"},{"bike_id":"81f9ea95-a211-4ae8-bef1-420c4709cd2f","system_id":"levelo_inurba_marseille","lat":43.28949,"lon":5.36412,"is_reserved":false,"is_disabled":false,"rental_uris":{"android":"levelo://app?vid=81f9ea95-a211-4ae8-bef1-420c4709cd2f","ios":"levelo://app?vid=81f9ea95-a211-4ae8-bef1-420c4709cd2f"},"vehicle_type_id":"4","last_reported":1730225556,"current_range_meters":11200,"station_id":"ce4bh512rcd13ifvqe3g","pricing_plan_id":"cebpf4jnsgd1na2vs0mg"},{"bike_id":"419f4777-13de-4b90-8d2c-5c496a2da8f2","system_id":"levelo_inurba_marseille","lat":43.29298,"lon":5.37466,"is_reserved":false,"is_disabled":false,"rental_uris":{"android":"levelo://app?vid=419f4777-13de-4b90-8d2c-5c496a2da8f2","ios":"levelo://app?vid=419f4777-13de-4b90-8d2c-5c496a2da8f2"},"vehicle_type_id":"4","last_reported":1730225556,"current_range_meters":37600,"station_id":"ce4bgi12rcd13ifvqb70","pricing_plan_id":"cebpf4jnsgd1na2vs0mg"},{"bike_id":"7e1d22b1-e7de-4fee-8478-2effb669d977","system_id":"levelo_inurba_marseille","lat":43.292708,"lon":5.368149,"is_reserved":false,"is_disabled":false,"rental_uris":{"android":"levelo://app?vid=7e1d22b1-e7de-4fee-8478-2effb669d977","ios":"levelo://app?vid=7e1d22b1-e7de-4fee-8478-2effb669d977"},"vehicle_type_id":"4","last_reported":1730225556,"current_range_meters":7200,"station_id":"ce4bhbp2rcd13ifvqesg","pricing_plan_id":"cebpf4jnsgd1na2vs0mg"},{"bike_id":"a06aaa3a-469c-4c08-9a71-0d7e5c362262","system_id":"levelo_inurba_marseille","lat":43.33723,"lon":5.39184,"is_reserved":false,"is_disabled":false,"rental_uris":{"android":"levelo://app?vid=a06aaa3a-469c-4c08-9a71-0d7e5c362262","ios":"levelo://app?vid=a06aaa3a-469c-4c08-9a71-0d7e5c362262"},"vehicle_type_id":"4","last_reported":1730225556,"current_range_meters":30800,"station_id":"ce4bhr92rcd13ifvqhsg","pricing_plan_id":"cebpf4jnsgd1na2vs0mg"},{"bike_id":"f632d907-c3c8-4d5c-b195-8a637b14062e","system_id":"levelo_inurba_marseille","lat":43.292938,"lon":5.374701,"is_reserved":false,"is_disabled":false,"rental_uris":{"android":"levelo://app?vid=f632d907-c3c8-4d5c-b195-8a637b14062e","ios":"levelo://app?vid=f632d907-c3c8-4d5c-b195-8a637b14062e"},"vehicle_type_id":"4","last_reported":1730225556,"current_range_meters":4400,"station_id":"ce4bgi12rcd13ifvqb70","pricing_plan_id":"cebpf4jnsgd1na2vs0mg"},{"bike_id":"2abc57c4-c82c-4664-83d6-b676386c0623","system_id":"levelo_inurba_marseille","lat":43.3107,"lon":5.38362,"is_reserved":false,"is_disabled":false,"rental_uris":{"android":"levelo://app?vid=2abc57c4-c82c-4664-83d6-b676386c0623","ios":"levelo://app?vid=2abc57c4-c82c-4664-83d6-b676386c0623"},"vehicle_type_id":"4","last_reported":1730225556,"current_range_meters":28000,"station_id":"ce4bgv92rcd13ifvqcr0","pricing_plan_id":"cebpf4jnsgd1na2vs0mg"},{"bike_id":"c02eab66-003d-446d-b922-c6fb7d0c0be8","system_id":"levelo_inurba_marseille","lat":43.27071,"lon":5.42283,"is_reserved":false,"is_disabled":false,"rental_uris":{"android":"levelo://app?vid=c02eab66-003d-446d-b922-c6fb7d0c0be8","ios":"levelo://app?vid=c02eab66-003d-446d-b922-c6fb7d0c0be8"},"vehicle_type_id":"4","last_reported":1730225556,"current_range_meters":18000,"station_id":"ce4bhk92rcd13ifvqgb0","pricing_plan_id":"cebpf4jnsgd1na2vs0mg"},{"bike_id":"e6011b99-38ff-409a-9dfc-e5eaed959b39","system_id":"levelo_inurba_marseille","lat":43.2903,"lon":5.38655,"is_reserved":false,"is_disabled":false,"rental_uris":{"android":"levelo://app?vid=e6011b99-38ff-409a-9dfc-e5eaed959b39","ios":"levelo://app?vid=e6011b99-38ff-409a-9dfc-e5eaed959b39"},"vehicle_type_id":"4","last_reported":1730225556,"current_range_meters":22000,"station_id":"ce4bh4p2rcd13ifvqe0g","pricing_plan_id":"cebpf4jnsgd1na2vs0mg"},{"bike_id":"e99a29cc-dcba-4186-9964-ae93362adcc6","system_id":"levelo_inurba_marseille","lat":43.2987,"lon":5.39738,"is_reserved":false,"is_disabled":false,"rental_uris":{"android":"levelo://app?vid=e99a29cc-dcba-4186-9964-ae93362adcc6","ios":"levelo://app?vid=e99a29cc-dcba-4186-9964-ae93362adcc6"},"vehicle_type_id":"4","last_reported":1730225556,"current_range_meters":38800,"station_id":"ce4bh0h2rcd13ifvqd50","pricing_plan_id":"cebpf4jnsgd1na2vs0mg"},{"bike_id":"5ea475d8-fbf3-460f-872c-01c8b0273f69","system_id":"levelo_inurba_marseille","lat":43.23039,"lon":5.3552,"is_reserved":false,"is_disabled":false,"rental_uris":{"android":"levelo://app?vid=5ea475d8-fbf3-460f-872c-01c8b0273f69","ios":"levelo://app?vid=5ea475d8-fbf3-460f-872c-01c8b0273f69"},"vehicle_type_id":"4","last_reported":1730225556,"current_range_meters":12400,"station_id":"cpo3342slgdg3j2ifvpg","pricing_plan_id":"cebpf4jnsgd1na2vs0mg"},{"bike_id":"65e49c63-9e10-4d30-bcbd-c71d5aabb88b","system_id":"levelo_inurba_marseille","lat":43.33599,"lon":5.410048,"is_reserved":false,"is_disabled":false,"rental_uris":{"android":"levelo://app?vid=65e49c63-9e10-4d30-bcbd-c71d5aabb88b","ios":"levelo://app?vid=65e49c63-9e10-4d30-bcbd-c71d5aabb88b"},"vehicle_type_id":"4","last_reported":1730225556,"current_range_meters":20400,"station_id":"ce4bhqh2rcd13ifvqhmg","pricing_plan_id":"cebpf4jnsgd1na2vs0mg"},{"bike_id":"57c873a5-32e2-4859-9989-bce6d8903a31","system_id":"levelo_inurba_marseille","lat":43.24803,"lon":5.37455,"is_reserved":false,"is_disabled":false,"rental_uris":{"android":"levelo://app?vid=57c873a5-32e2-4859-9989-bce6d8903a31","ios":"levelo://app?vid=57c873a5-32e2-4859-9989-bce6d8903a31"},"vehicle_type_id":"4","last_reported":1730225556,"current_range_meters":34000,"station_id":"ce4bhgh2rcd13ifvqfb0","pricing_plan_id":"cebpf4jnsgd1na2vs0mg"},{"bike_id":"19b93e9b-8475-4856-be3e-effc13120edb","system_id":"levelo_inurba_marseille","lat":43.28926,"lon":5.38401,"is_reserved":false,"is_disabled":false,"rental_uris":{"android":"levelo://app?vid=19b93e9b-8475-4856-be3e-effc13120edb","ios":"levelo://app?vid=19b93e9b-8475-4856-be3e-effc13120edb"},"vehicle_type_id":"4","last_reported":1730225556,"current_range_meters":8000,"station_id":"ce4bh612rcd13ifvqe6g","pricing_plan_id":"cebpf4jnsgd1na2vs0mg"},{"bike_id":"aee7f5bd-dd1a-43d3-8332-fe1be419f635","system_id":"levelo_inurba_marseille","lat":43.29513,"lon":5.3904,"is_reserved":false,"is_disabled":false,"rental_uris":{"android":"levelo://app?vid=aee7f5bd-dd1a-43d3-8332-fe1be419f635","ios":"levelo://app?vid=aee7f5bd-dd1a-43d3-8332-fe1be419f635"},"vehicle_type_id":"4","last_reported":1730225556,"current_range_meters":22800,"station_id":"ce4bh3p2rcd13ifvqdp0","pricing_plan_id":"cebpf4jnsgd1na2vs0mg"},{"bike_id":"f9d0957f-c2bc-4daf-98d0-74ceb5bc572d","system_id":"levelo_inurba_marseille","lat":43.2957,"lon":5.39979,"is_reserved":false,"is_disabled":false,"rental_uris":{"android":"levelo://app?vid=f9d0957f-c2bc-4daf-98d0-74ceb5bc572d","ios":"levelo://app?vid=f9d0957f-c2bc-4daf-98d0-74ceb5bc572d"},"vehicle_type_id":"4","last_reported":1730225556,"current_range_meters":37600,"station_id":"ce4bh312rcd13ifvqdj0","pricing_plan_id":"cebpf4jnsgd1na2vs0mg"},{"bike_id":"06b30cca-a31f-489c-b88a-602806626bbf","system_id":"levelo_inurba_marseille","lat":43.29918,"lon":5.38135,"is_reserved":false,"is_disabled":false,"rental_uris":{"android":"levelo://app?vid=06b30cca-a31f-489c-b88a-602806626bbf","ios":"levelo://app?vid=06b30cca-a31f-489c-b88a-602806626bbf"},"vehicle_type_id":"4","last_reported":1730225556,"current_range_meters":18800,"station_id":"ce4bgj12rcd13ifvqbc0","pricing_plan_id":"cebpf4jnsgd1na2vs0mg"},{"bike_id":"fcd8cb47-86d8-4a42-bd45-08f356fc4161","system_id":"levelo_inurba_marseille","lat":43.2694,"lon":5.3866,"is_reserved":false,"is_disabled":false,"rental_uris":{"android":"levelo://app?vid=fcd8cb47-86d8-4a42-bd45-08f356fc4161","ios":"levelo://app?vid=fcd8cb47-86d8-4a42-bd45-08f356fc4161"},"vehicle_type_id":"4","last_reported":1730225556,"current_range_meters":6000,"station_id":"ce4bhh92rcd13ifvqfh0","pricing_plan_id":"cebpf4jnsgd1na2vs0mg"},{"bike_id":"afd5cab3-39b4-40a8-844e-e2365d1c17bc","system_id":"levelo_inurba_marseille","lat":43.31167,"lon":5.38716,"is_reserved":false,"is_disabled":false,"rental_uris":{"android":"levelo://app?vid=afd5cab3-39b4-40a8-844e-e2365d1c17bc","ios":"levelo://app?vid=afd5cab3-39b4-40a8-844e-e2365d1c17bc"},"vehicle_type_id":"4","last_reported":1730225556,"current_range_meters":21600,"station_id":"ce4bgv12rcd13ifvqcp0","pricing_plan_id":"cebpf4jnsgd1na2vs0mg"},{"bike_id":"977b269d-22d8-4b1e-88e8-a2a02784183e","system_id":"levelo_inurba_marseille","lat":43.27998,"lon":5.40016,"is_reserved":false,"is_disabled":false,"rental_uris":{"android":"levelo://app?vid=977b269d-22d8-4b1e-88e8-a2a02784183e","ios":"levelo://app?vid=977b269d-22d8-4b1e-88e8-a2a02784183e"},"vehicle_type_id":"4","last_reported":1730225556,"current_range_meters":25600,"station_id":"ce4bho92rcd13ifvqh4g","pricing_plan_id":"cebpf4jnsgd1na2vs0mg"},{"bike_id":"026b9453-bc52-4163-b0fc-67714528938c","system_id":"levelo_inurba_marseille","lat":43.29516,"lon":5.39063,"is_reserved":false,"is_disabled":false,"rental_uris":{"android":"levelo://app?vid=026b9453-bc52-4163-b0fc-67714528938c","ios":"levelo://app?vid=026b9453-bc52-4163-b0fc-67714528938c"},"vehicle_type_id":"4","last_reported":1730225556,"current_range_meters":33600,"station_id":"ce4bh3p2rcd13ifvqdp0","pricing_plan_id":"cebpf4jnsgd1na2vs0mg"},{"bike_id":"0c54527a-b039-42f8-986e-d8af73f1920c","system_id":"levelo_inurba_marseille","lat":43.29813,"lon":5.40408,"is_reserved":false,"is_disabled":false,"rental_uris":{"android":"levelo://app?vid=0c54527a-b039-42f8-986e-d8af73f1920c","ios":"levelo://app?vid=0c54527a-b039-42f8-986e-d8af73f1920c"},"vehicle_type_id":"4","last_reported":1730225556,"current_range_meters":20000,"station_id":"ce4bh112rcd13ifvqd90","pricing_plan_id":"cebpf4jnsgd1na2vs0mg"},{"bike_id":"df4abadc-569b-4a61-9e82-5cb4df3c1181","system_id":"levelo_inurba_marseille","lat":43.28717,"lon":5.360789,"is_reserved":false,"is_disabled":false,"rental_uris":{"android":"levelo://app?vid=df4abadc-569b-4a61-9e82-5cb4df3c1181","ios":"levelo://app?vid=df4abadc-569b-4a61-9e82-5cb4df3c1181"},"vehicle_type_id":"4","last_reported":1730225556,"current_range_meters":16400,"station_id":"cki0cbj6b192h4jlfktg","pricing_plan_id":"cebpf4jnsgd1na2vs0mg"},{"bike_id":"092bc003-550f-4c5a-8481-12d5d7a716ab","system_id":"levelo_inurba_marseille","lat":43.33026,"lon":5.3905,"is_reserved":false,"is_disabled":false,"rental_uris":{"android":"levelo://app?vid=092bc003-550f-4c5a-8481-12d5d7a716ab","ios":"levelo://app?vid=092bc003-550f-4c5a-8481-12d5d7a716ab"},"vehicle_type_id":"4","last_reported":1730225556,"current_range_meters":19200,"station_id":"ce4bhr92rcd13ifvqhrg","pricing_plan_id":"cebpf4jnsgd1na2vs0mg"},{"bike_id":"160c3125-d109-49e3-a687-ede78b99dea2","system_id":"levelo_inurba_marseille","lat":43.232,"lon":5.3555,"is_reserved":false,"is_disabled":false,"rental_uris":{"android":"levelo://app?vid=160c3125-d109-49e3-a687-ede78b99dea2","ios":"levelo://app?vid=160c3125-d109-49e3-a687-ede78b99dea2"},"vehicle_type_id":"4","last_reported":1730225556,"current_range_meters":15200,"station_id":"ce4bhu92rcd13ifvqi70","pricing_plan_id":"cebpf4jnsgd1na2vs0mg"},{"bike_id":"7a3f60d6-5589-44b2-bea7-8a929e9b6b4e","system_id":"levelo_inurba_marseille","lat":43.29899,"lon":5.43667,"is_reserved":false,"is_disabled":false,"rental_uris":{"android":"levelo://app?vid=7a3f60d6-5589-44b2-bea7-8a929e9b6b4e","ios":"levelo://app?vid=7a3f60d6-5589-44b2-bea7-8a929e9b6b4e"},"vehicle_type_id":"4","last_reported":1730225556,"current_range_meters":16400,"station_id":"ce4bhpp2rcd13ifvqhfg","pricing_plan_id":"cebpf4jnsgd1na2vs0mg"},{"bike_id":"a02a8172-224c-4ed8-9353-56c47468a8fa","system_id":"levelo_inurba_marseille","lat":43.27996,"lon":5.40015,"is_reserved":false,"is_disabled":false,"rental_uris":{"android":"levelo://app?vid=a02a8172-224c-4ed8-9353-56c47468a8fa","ios":"levelo://app?vid=a02a8172-224c-4ed8-9353-56c47468a8fa"},"vehicle_type_id":"4","last_reported":1730225556,"current_range_meters":9200,"station_id":"ce4bho92rcd13ifvqh4g","pricing_plan_id":"cebpf4jnsgd1na2vs0mg"},{"bike_id":"79bf9c97-a5ea-4f15-9e63-9d99560507ff","system_id":"levelo_inurba_marseille","lat":43.29798,"lon":5.39345,"is_reserved":false,"is_disabled":false,"rental_uris":{"android":"levelo://app?vid=79bf9c97-a5ea-4f15-9e63-9d99560507ff","ios":"levelo://app?vid=79bf9c97-a5ea-4f15-9e63-9d99560507ff"},"vehicle_type_id":"4","last_reported":1730225556,"current_range_meters":24800,"station_id":"chh1huq6cuj3fo74tm60","pricing_plan_id":"cebpf4jnsgd1na2vs0mg"},{"bike_id":"58d379de-16a8-4741-9eba-595efbb72180","system_id":"levelo_inurba_marseille","lat":43.28149,"lon":5.42645,"is_reserved":false,"is_disabled":false,"rental_uris":{"android":"levelo://app?vid=58d379de-16a8-4741-9eba-595efbb72180","ios":"levelo://app?vid=58d379de-16a8-4741-9eba-595efbb72180"},"vehicle_type_id":"4","last_reported":1730225556,"current_range_meters":30400,"station_id":"ce4bhnh2rcd13ifvqgug","pricing_plan_id":"cebpf4jnsgd1na2vs0mg"},{"bike_id":"e6420a18-0fb6-4a1b-9f8a-5fcfadc157f2","system_id":"levelo_inurba_marseille","lat":43.30142,"lon":5.39879,"is_reserved":false,"is_disabled":false,"rental_uris":{"android":"levelo://app?vid=e6420a18-0fb6-4a1b-9f8a-5fcfadc157f2","ios":"levelo://app?vid=e6420a18-0fb6-4a1b-9f8a-5fcfadc157f2"},"vehicle_type_id":"4","last_reported":1730225556,"current_range_meters":37600,"station_id":"ce4bh0h2rcd13ifvqd40","pricing_plan_id":"cebpf4jnsgd1na2vs0mg"},{"bike_id":"f166c615-44b8-4c3e-af9a-466b5236b879","system_id":"levelo_inurba_marseille","lat":43.33596,"lon":5.41039,"is_reserved":false,"is_disabled":false,"rental_uris":{"android":"levelo://app?vid=f166c615-44b8-4c3e-af9a-466b5236b879","ios":"levelo://app?vid=f166c615-44b8-4c3e-af9a-466b5236b879"},"vehicle_type_id":"4","last_reported":1730225556,"current_range_meters":26000,"station_id":"ce4bhqh2rcd13ifvqhmg","pricing_plan_id":"cebpf4jnsgd1na2vs0mg"},{"bike_id":"f2c1121c-5c92-4221-a002-33aa3e39f748","system_id":"levelo_inurba_marseille","lat":43.33607,"lon":5.41037,"is_reserved":false,"is_disabled":false,"rental_uris":{"android":"levelo://app?vid=f2c1121c-5c92-4221-a002-33aa3e39f748","ios":"levelo://app?vid=f2c1121c-5c92-4221-a002-33aa3e39f748"},"vehicle_type_id":"4","last_reported":1730225556,"current_range_meters":8400,"station_id":"ce4bhqh2rcd13ifvqhmg","pricing_plan_id":"cebpf4jnsgd1na2vs0mg"},{"bike_id":"f793c0ab-64cd-4f7d-816d-e95d724f8dcb","system_id":"levelo_inurba_marseille","lat":43.31323,"lon":5.39693,"is_reserved":false,"is_disabled":false,"rental_uris":{"android":"levelo://app?vid=f793c0ab-64cd-4f7d-816d-e95d724f8dcb","ios":"levelo://app?vid=f793c0ab-64cd-4f7d-816d-e95d724f8dcb"},"vehicle_type_id":"4","last_reported":1730225556,"current_range_meters":27600,"station_id":"ce4bgvp2rcd13ifvqcu0","pricing_plan_id":"cebpf4jnsgd1na2vs0mg"},{"bike_id":"fab635e2-2398-4e49-8b1c-429c3428e385","system_id":"levelo_inurba_marseille","lat":43.29793,"lon":5.40414,"is_reserved":false,"is_disabled":false,"rental_uris":{"android":"levelo://app?vid=fab635e2-2398-4e49-8b1c-429c3428e385","ios":"levelo://app?vid=fab635e2-2398-4e49-8b1c-429c3428e385"},"vehicle_type_id":"4","last_reported":1730225556,"current_range_meters":37600,"station_id":"ce4bh112rcd13ifvqd90","pricing_plan_id":"cebpf4jnsgd1na2vs0mg"},{"bike_id":"9b38c58f-bb00-4b83-ab2a-35eb8e3b9863","system_id":"levelo_inurba_marseille","lat":43.30327,"lon":5.40448,"is_reserved":false,"is_disabled":false,"rental_uris":{"android":"levelo://app?vid=9b38c58f-bb00-4b83-ab2a-35eb8e3b9863","ios":"levelo://app?vid=9b38c58f-bb00-4b83-ab2a-35eb8e3b9863"},"vehicle_type_id":"4","last_reported":1730225556,"current_range_meters":38400,"station_id":"ce4bh012rcd13ifvqd10","pricing_plan_id":"cebpf4jnsgd1na2vs0mg"},{"bike_id":"55c8fca4-a9e3-4e71-af66-99735d36f108","system_id":"levelo_inurba_marseille","lat":43.27431,"lon":5.3942,"is_reserved":false,"is_disabled":false,"rental_uris":{"android":"levelo://app?vid=55c8fca4-a9e3-4e71-af66-99735d36f108","ios":"levelo://app?vid=55c8fca4-a9e3-4e71-af66-99735d36f108"},"vehicle_type_id":"4","last_reported":1730225556,"current_range_meters":20400,"station_id":"ce4bhdp2rcd13ifvqf20","pricing_plan_id":"cebpf4jnsgd1na2vs0mg"},{"bike_id":"98720dd9-6d26-4f1f-a1ac-af978555cfd3","system_id":"levelo_inurba_marseille","lat":43.23967,"lon":5.36632,"is_reserved":false,"is_disabled":false,"rental_uris":{"android":"levelo://app?vid=98720dd9-6d26-4f1f-a1ac-af978555cfd3","ios":"levelo://app?vid=98720dd9-6d26-4f1f-a1ac-af978555cfd3"},"vehicle_type_id":"4","last_reported":1730225556,"current_range_meters":6400,"station_id":"ce4bhi12rcd13ifvqfp0","pricing_plan_id":"cebpf4jnsgd1na2vs0mg"},{"bike_id":"f89a00b8-5b90-4bd3-84a7-5d0772f21531","system_id":"levelo_inurba_marseille","lat":43.31171,"lon":5.38714,"is_reserved":false,"is_disabled":false,"rental_uris":{"android":"levelo://app?vid=f89a00b8-5b90-4bd3-84a7-5d0772f21531","ios":"levelo://app?vid=f89a00b8-5b90-4bd3-84a7-5d0772f21531"},"vehicle_type_id":"4","last_reported":1730225556,"current_range_meters":20800,"station_id":"ce4bgv12rcd13ifvqcp0","pricing_plan_id":"cebpf4jnsgd1na2vs0mg"},{"bike_id":"958c6c16-54d9-4ff0-9712-a587a1b366f3","system_id":"levelo_inurba_marseille","lat":43.29261,"lon":5.40917,"is_reserved":false,"is_disabled":false,"rental_uris":{"android":"levelo://app?vid=958c6c16-54d9-4ff0-9712-a587a1b366f3","ios":"levelo://app?vid=958c6c16-54d9-4ff0-9712-a587a1b366f3"},"vehicle_type_id":"4","last_reported":1730225556,"current_range_meters":16800,"station_id":"ce4bh192rcd13ifvqdc0","pricing_plan_id":"cebpf4jnsgd1na2vs0mg"},{"bike_id":"3ad229b2-210f-4b0b-95af-f3c6c9e6b25f","system_id":"levelo_inurba_marseille","lat":43.3035,"lon":5.41875,"is_reserved":false,"is_disabled":false,"rental_uris":{"android":"levelo://app?vid=3ad229b2-210f-4b0b-95af-f3c6c9e6b25f","ios":"levelo://app?vid=3ad229b2-210f-4b0b-95af-f3c6c9e6b25f"},"vehicle_type_id":"4","last_reported":1730225556,"current_range_meters":25200,"station_id":"ce4bhop2rcd13ifvqh7g","pricing_plan_id":"cebpf4jnsgd1na2vs0mg"},{"bike_id":"52cd4322-da47-43f1-b749-147e77e1a70f","system_id":"levelo_inurba_marseille","lat":43.24074,"lon":5.37756,"is_reserved":false,"is_disabled":false,"rental_uris":{"android":"levelo://app?vid=52cd4322-da47-43f1-b749-147e77e1a70f","ios":"levelo://app?vid=52cd4322-da47-43f1-b749-147e77e1a70f"},"vehicle_type_id":"4","last_reported":1730225556,"current_range_meters":3600,"station_id":"ce4bhnp2rcd13ifvqgvg","pricing_plan_id":"cebpf4jnsgd1na2vs0mg"},{"bike_id":"b93c1657-5bb5-4cdd-a2f6-bbc5a1c4bb43","system_id":"levelo_inurba_marseille","lat":43.29424,"lon":5.38628,"is_reserved":false,"is_disabled":false,"rental_uris":{"android":"levelo://app?vid=b93c1657-5bb5-4cdd-a2f6-bbc5a1c4bb43","ios":"levelo://app?vid=b93c1657-5bb5-4cdd-a2f6-bbc5a1c4bb43"},"vehicle_type_id":"4","last_reported":1730225556,"current_range_meters":19600,"station_id":"ce4bh2h2rcd13ifvqdh0","pricing_plan_id":"cebpf4jnsgd1na2vs0mg"},{"bike_id":"598742e5-754e-4183-a86d-7571dada0eb2","system_id":"levelo_inurba_marseille","lat":43.27873,"lon":5.38156,"is_reserved":false,"is_disabled":false,"rental_uris":{"android":"levelo://app?vid=598742e5-754e-4183-a86d-7571dada0eb2","ios":"levelo://app?vid=598742e5-754e-4183-a86d-7571dada0eb2"},"vehicle_type_id":"4","last_reported":1730225556,"current_range_meters":26000,"station_id":"ce4bhf92rcd13ifvqf50","pricing_plan_id":"cebpf4jnsgd1na2vs0mg"},{"bike_id":"ac6f2e5d-1d01-4602-926d-d4c71dc1ff1c","system_id":"levelo_inurba_marseille","lat":43.31169,"lon":5.38717,"is_reserved":false,"is_disabled":false,"rental_uris":{"android":"levelo://app?vid=ac6f2e5d-1d01-4602-926d-d4c71dc1ff1c","ios":"levelo://app?vid=ac6f2e5d-1d01-4602-926d-d4c71dc1ff1c"},"vehicle_type_id":"4","last_reported":1730225556,"current_range_meters":7200,"station_id":"ce4bgv12rcd13ifvqcp0","pricing_plan_id":"cebpf4jnsgd1na2vs0mg"},{"bike_id":"51c0afa0-ed76-45a8-b6c8-d5f47615923f","system_id":"levelo_inurba_marseille","lat":43.29036,"lon":5.38646,"is_reserved":false,"is_disabled":false,"rental_uris":{"android":"levelo://app?vid=51c0afa0-ed76-45a8-b6c8-d5f47615923f","ios":"levelo://app?vid=51c0afa0-ed76-45a8-b6c8-d5f47615923f"},"vehicle_type_id":"4","last_reported":1730225556,"current_range_meters":16000,"station_id":"ce4bh4p2rcd13ifvqe0g","pricing_plan_id":"cebpf4jnsgd1na2vs0mg"},{"bike_id":"42c5b94d-a6e1-4c0e-b3fa-74ef5f2ef0d2","system_id":"levelo_inurba_marseille","lat":43.23971,"lon":5.3663,"is_reserved":false,"is_disabled":false,"rental_uris":{"android":"levelo://app?vid=42c5b94d-a6e1-4c0e-b3fa-74ef5f2ef0d2","ios":"levelo://app?vid=42c5b94d-a6e1-4c0e-b3fa-74ef5f2ef0d2"},"vehicle_type_id":"4","last_reported":1730225556,"current_range_meters":21600,"station_id":"ce4bhi12rcd13ifvqfp0","pricing_plan_id":"cebpf4jnsgd1na2vs0mg"},{"bike_id":"85efaa6a-59d9-4e5f-bd82-c67086b09410","system_id":"levelo_inurba_marseille","lat":43.28858,"lon":5.36358,"is_reserved":false,"is_disabled":false,"rental_uris":{"android":"levelo://app?vid=85efaa6a-59d9-4e5f-bd82-c67086b09410","ios":"levelo://app?vid=85efaa6a-59d9-4e5f-bd82-c67086b09410"},"vehicle_type_id":"4","last_reported":1730225556,"current_range_meters":27600,"station_id":"ce4bhah2rcd13ifvqei0","pricing_plan_id":"cebpf4jnsgd1na2vs0mg"},{"bike_id":"c74f24e5-c481-4881-8bd1-3accb0bc43ae","system_id":"levelo_inurba_marseille","lat":43.27994,"lon":5.40006,"is_reserved":false,"is_disabled":false,"rental_uris":{"android":"levelo://app?vid=c74f24e5-c481-4881-8bd1-3accb0bc43ae","ios":"levelo://app?vid=c74f24e5-c481-4881-8bd1-3accb0bc43ae"},"vehicle_type_id":"4","last_reported":1730225556,"current_range_meters":16400,"station_id":"ce4bho92rcd13ifvqh4g","pricing_plan_id":"cebpf4jnsgd1na2vs0mg"},{"bike_id":"57ee550f-ff98-40c5-954a-81f2b1a733a7","system_id":"levelo_inurba_marseille","lat":43.28478,"lon":5.38412,"is_reserved":false,"is_disabled":false,"rental_uris":{"android":"levelo://app?vid=57ee550f-ff98-40c5-954a-81f2b1a733a7","ios":"levelo://app?vid=57ee550f-ff98-40c5-954a-81f2b1a733a7"},"vehicle_type_id":"4","last_reported":1730225556,"current_range_meters":4400,"station_id":"ce4bh512rcd13ifvqe3g","pricing_plan_id":"cebpf4jnsgd1na2vs0mg"},{"bike_id":"9e5caa21-8b24-4abb-b199-54e7e8dc9b7c","system_id":"levelo_inurba_marseille","lat":43.25581,"lon":5.38242,"is_reserved":false,"is_disabled":false,"rental_uris":{"android":"levelo://app?vid=9e5caa21-8b24-4abb-b199-54e7e8dc9b7c","ios":"levelo://app?vid=9e5caa21-8b24-4abb-b199-54e7e8dc9b7c"},"vehicle_type_id":"4","last_reported":1730225556,"current_range_meters":11600,"station_id":"ce4bhih2rcd13ifvqfs0","pricing_plan_id":"cebpf4jnsgd1na2vs0mg"},{"bike_id":"73024640-b376-46fb-bc68-5472649e6f8b","system_id":"levelo_inurba_marseille","lat":43.29274,"lon":5.40129,"is_reserved":false,"is_disabled":false,"rental_uris":{"android":"levelo://app?vid=73024640-b376-46fb-bc68-5472649e6f8b","ios":"levelo://app?vid=73024640-b376-46fb-bc68-5472649e6f8b"},"vehicle_type_id":"4","last_reported":1730225556,"current_range_meters":29600,"station_id":"ce4bh312rcd13ifvqdk0","pricing_plan_id":"cebpf4jnsgd1na2vs0mg"},{"bike_id":"0cebe45a-7302-469a-b861-6fd094a95414","system_id":"levelo_inurba_marseille","lat":43.2319,"lon":5.35554,"is_reserved":false,"is_disabled":false,"rental_uris":{"android":"levelo://app?vid=0cebe45a-7302-469a-b861-6fd094a95414","ios":"levelo://app?vid=0cebe45a-7302-469a-b861-6fd094a95414"},"vehicle_type_id":"4","last_reported":1730225556,"current_range_meters":7200,"station_id":"ce4bhu92rcd13ifvqi70","pricing_plan_id":"cebpf4jnsgd1na2vs0mg"},{"bike_id":"56b943a0-e48e-453f-bdb7-d8b91f470ac7","system_id":"levelo_inurba_marseille","lat":43.30493,"lon":5.3819,"is_reserved":false,"is_disabled":false,"rental_uris":{"android":"levelo://app?vid=56b943a0-e48e-453f-bdb7-d8b91f470ac7","ios":"levelo://app?vid=56b943a0-e48e-453f-bdb7-d8b91f470ac7"},"vehicle_type_id":"4","last_reported":1730225556,"current_range_meters":9200,"station_id":"","pricing_plan_id":"cebpf4jnsgd1na2vs0mg"},{"bike_id":"96e0c146-b415-490b-a8a6-e94f4b15cdcd","system_id":"levelo_inurba_marseille","lat":43.29713,"lon":5.36621,"is_reserved":false,"is_disabled":false,"rental_uris":{"android":"levelo://app?vid=96e0c146-b415-490b-a8a6-e94f4b15cdcd","ios":"levelo://app?vid=96e0c146-b415-490b-a8a6-e94f4b15cdcd"},"vehicle_type_id":"4","last_reported":1730225556,"current_range_meters":32800,"station_id":"ce4bgn12rcd13ifvqbt0","pricing_plan_id":"cebpf4jnsgd1na2vs0mg"},{"bike_id":"dc1e320f-fa1d-4f26-93b5-cc65826cbfac","system_id":"levelo_inurba_marseille","lat":43.28265,"lon":5.35072,"is_reserved":false,"is_disabled":false,"rental_uris":{"android":"levelo://app?vid=dc1e320f-fa1d-4f26-93b5-cc65826cbfac","ios":"levelo://app?vid=dc1e320f-fa1d-4f26-93b5-cc65826cbfac"},"vehicle_type_id":"4","last_reported":1730225556,"current_range_meters":38800,"station_id":"ce4bhbp2rcd13ifvqerg","pricing_plan_id":"cebpf4jnsgd1na2vs0mg"},{"bike_id":"769025b3-b1ab-4a56-8310-7807acc06298","system_id":"levelo_inurba_marseille","lat":43.28708,"lon":5.37386,"is_reserved":false,"is_disabled":false,"rental_uris":{"android":"levelo://app?vid=769025b3-b1ab-4a56-8310-7807acc06298","ios":"levelo://app?vid=769025b3-b1ab-4a56-8310-7807acc06298"},"vehicle_type_id":"4","last_reported":1730225556,"current_range_meters":38800,"station_id":"ce4bh3p2rcd13ifvqdq0","pricing_plan_id":"cebpf4jnsgd1na2vs0mg"},{"bike_id":"b484d928-90f2-4ce5-a53e-52ba9fc989eb","system_id":"levelo_inurba_marseille","lat":43.29265,"lon":5.40125,"is_reserved":false,"is_disabled":false,"rental_uris":{"android":"levelo://app?vid=b484d928-90f2-4ce5-a53e-52ba9fc989eb","ios":"levelo://app?vid=b484d928-90f2-4ce5-a53e-52ba9fc989eb"},"vehicle_type_id":"4","last_reported":1730225556,"current_range_meters":27600,"station_id":"ce4bh312rcd13ifvqdk0","pricing_plan_id":"cebpf4jnsgd1na2vs0mg"},{"bike_id":"9ac23115-5b82-445e-a273-522ea5679d82","system_id":"levelo_inurba_marseille","lat":43.29419,"lon":5.38619,"is_reserved":false,"is_disabled":false,"rental_uris":{"android":"levelo://app?vid=9ac23115-5b82-445e-a273-522ea5679d82","ios":"levelo://app?vid=9ac23115-5b82-445e-a273-522ea5679d82"},"vehicle_type_id":"4","last_reported":1730225556,"current_range_meters":9600,"station_id":"ce4bh2h2rcd13ifvqdh0","pricing_plan_id":"cebpf4jnsgd1na2vs0mg"},{"bike_id":"e3c1417a-7310-44c2-ad26-be6f20483f85","system_id":"levelo_inurba_marseille","lat":43.29556,"lon":5.40044,"is_reserved":false,"is_disabled":false,"rental_uris":{"android":"levelo://app?vid=e3c1417a-7310-44c2-ad26-be6f20483f85","ios":"levelo://app?vid=e3c1417a-7310-44c2-ad26-be6f20483f85"},"vehicle_type_id":"4","last_reported":1730225556,"current_range_meters":36400,"station_id":"","pricing_plan_id":"cebpf4jnsgd1na2vs0mg"},{"bike_id":"e569f399-d982-4d17-8432-6c6f1ebfe210","system_id":"levelo_inurba_marseille","lat":43.28267,"lon":5.35069,"is_reserved":false,"is_disabled":false,"rental_uris":{"android":"levelo://app?vid=e569f399-d982-4d17-8432-6c6f1ebfe210","ios":"levelo://app?vid=e569f399-d982-4d17-8432-6c6f1ebfe210"},"vehicle_type_id":"4","last_reported":1730225556,"current_range_meters":25600,"station_id":"ce4bhbp2rcd13ifvqerg","pricing_plan_id":"cebpf4jnsgd1na2vs0mg"},{"bike_id":"7be5f31c-9d7d-439c-9f50-2218525031a3","system_id":"levelo_inurba_marseille","lat":43.29391,"lon":5.3783,"is_reserved":false,"is_disabled":false,"rental_uris":{"android":"levelo://app?vid=7be5f31c-9d7d-439c-9f50-2218525031a3","ios":"levelo://app?vid=7be5f31c-9d7d-439c-9f50-2218525031a3"},"vehicle_type_id":"4","last_reported":1730225556,"current_range_meters":2000,"station_id":"ce4bgjh2rcd13ifvqbf0","pricing_plan_id":"cebpf4jnsgd1na2vs0mg"},{"bike_id":"fd20c0bf-317d-4bb0-b8ba-ade88bb31067","system_id":"levelo_inurba_marseille","lat":43.29308,"lon":5.37171,"is_reserved":false,"is_disabled":false,"rental_uris":{"android":"levelo://app?vid=fd20c0bf-317d-4bb0-b8ba-ade88bb31067","ios":"levelo://app?vid=fd20c0bf-317d-4bb0-b8ba-ade88bb31067"},"vehicle_type_id":"4","last_reported":1730225556,"current_range_meters":16400,"station_id":"ce4bgh92rcd13ifvqb40","pricing_plan_id":"cebpf4jnsgd1na2vs0mg"},{"bike_id":"0a16ee5a-a2ee-4a35-a288-9cf108d855a2","system_id":"levelo_inurba_marseille","lat":43.28856,"lon":5.39312,"is_reserved":false,"is_disabled":false,"rental_uris":{"android":"levelo://app?vid=0a16ee5a-a2ee-4a35-a288-9cf108d855a2","ios":"levelo://app?vid=0a16ee5a-a2ee-4a35-a288-9cf108d855a2"},"vehicle_type_id":"4","last_reported":1730225556,"current_range_meters":27200,"station_id":"ce4bh2p2rcd13ifvqdi0","pricing_plan_id":"cebpf4jnsgd1na2vs0mg"},{"bike_id":"e1ec640c-30ff-44a1-a014-85d76ccc5a93","system_id":"levelo_inurba_marseille","lat":43.28941,"lon":5.39726,"is_reserved":false,"is_disabled":false,"rental_uris":{"android":"levelo://app?vid=e1ec640c-30ff-44a1-a014-85d76ccc5a93","ios":"levelo://app?vid=e1ec640c-30ff-44a1-a014-85d76ccc5a93"},"vehicle_type_id":"4","last_reported":1730225556,"current_range_meters":2800,"station_id":"ce4bh3h2rcd13ifvqdn0","pricing_plan_id":"cebpf4jnsgd1na2vs0mg"},{"bike_id":"e0a13df7-0417-4b97-b365-e17a9c1ddb72","system_id":"levelo_inurba_marseille","lat":43.31273,"lon":5.40184,"is_reserved":false,"is_disabled":false,"rental_uris":{"android":"levelo://app?vid=e0a13df7-0417-4b97-b365-e17a9c1ddb72","ios":"levelo://app?vid=e0a13df7-0417-4b97-b365-e17a9c1ddb72"},"vehicle_type_id":"4","last_reported":1730225556,"current_range_meters":39200,"station_id":"ce4bh092rcd13ifvqd30","pricing_plan_id":"cebpf4jnsgd1na2vs0mg"},{"bike_id":"5d518288-2712-4be9-8aff-1f5ec6403be2","system_id":"levelo_inurba_marseille","lat":43.27177,"lon":5.41,"is_reserved":false,"is_disabled":false,"rental_uris":{"android":"levelo://app?vid=5d518288-2712-4be9-8aff-1f5ec6403be2","ios":"levelo://app?vid=5d518288-2712-4be9-8aff-1f5ec6403be2"},"vehicle_type_id":"4","last_reported":1730225556,"current_range_meters":18800,"station_id":"ce4bhl12rcd13ifvqgf0","pricing_plan_id":"cebpf4jnsgd1na2vs0mg"},{"bike_id":"aa9f3288-c7ca-4e2b-bf01-c0066e463e9e","system_id":"levelo_inurba_marseille","lat":43.29269,"lon":5.3844,"is_reserved":false,"is_disabled":false,"rental_uris":{"android":"levelo://app?vid=aa9f3288-c7ca-4e2b-bf01-c0066e463e9e","ios":"levelo://app?vid=aa9f3288-c7ca-4e2b-bf01-c0066e463e9e"},"vehicle_type_id":"4","last_reported":1730225556,"current_range_meters":22800,"station_id":"ce4bh692rcd13ifvqea0","pricing_plan_id":"cebpf4jnsgd1na2vs0mg"},{"bike_id":"1b65b5a3-7b33-4214-8b15-08a9cd38a135","system_id":"levelo_inurba_marseille","lat":43.27175,"lon":5.40995,"is_reserved":false,"is_disabled":false,"rental_uris":{"android":"levelo://app?vid=1b65b5a3-7b33-4214-8b15-08a9cd38a135","ios":"levelo://app?vid=1b65b5a3-7b33-4214-8b15-08a9cd38a135"},"vehicle_type_id":"4","last_reported":1730225556,"current_range_meters":20400,"station_id":"ce4bhl12rcd13ifvqgf0","pricing_plan_id":"cebpf4jnsgd1na2vs0mg"},{"bike_id":"6b74f6b7-54de-4296-a9ad-659349dab030","system_id":"levelo_inurba_marseille","lat":43.3133,"lon":5.39691,"is_reserved":false,"is_disabled":false,"rental_uris":{"android":"levelo://app?vid=6b74f6b7-54de-4296-a9ad-659349dab030","ios":"levelo://app?vid=6b74f6b7-54de-4296-a9ad-659349dab030"},"vehicle_type_id":"4","last_reported":1730225556,"current_range_meters":38800,"station_id":"ce4bgvp2rcd13ifvqcu0","pricing_plan_id":"cebpf4jnsgd1na2vs0mg"},{"bike_id":"218a4769-7c25-4739-9405-81b41ca0e65a","system_id":"levelo_inurba_marseille","lat":43.30808,"lon":5.38156,"is_reserved":false,"is_disabled":false,"rental_uris":{"android":"levelo://app?vid=218a4769-7c25-4739-9405-81b41ca0e65a","ios":"levelo://app?vid=218a4769-7c25-4739-9405-81b41ca0e65a"},"vehicle_type_id":"4","last_reported":1730225556,"current_range_meters":37600,"station_id":"ce4bgt12rcd13ifvqce0","pricing_plan_id":"cebpf4jnsgd1na2vs0mg"},{"bike_id":"942ed41f-7c2c-4bd3-a4a9-0bc4ebed5abc","system_id":"levelo_inurba_marseille","lat":43.32368,"lon":5.38887,"is_reserved":false,"is_disabled":false,"rental_uris":{"android":"levelo://app?vid=942ed41f-7c2c-4bd3-a4a9-0bc4ebed5abc","ios":"levelo://app?vid=942ed41f-7c2c-4bd3-a4a9-0bc4ebed5abc"},"vehicle_type_id":"4","last_reported":1730225556,"current_range_meters":28400,"station_id":"ce4bhqp2rcd13ifvqhog","pricing_plan_id":"cebpf4jnsgd1na2vs0mg"},{"bike_id":"7e6550d1-ff23-4314-a63a-fde907e33519","system_id":"levelo_inurba_marseille","lat":43.31087,"lon":5.42438,"is_reserved":false,"is_disabled":false,"rental_uris":{"android":"levelo://app?vid=7e6550d1-ff23-4314-a63a-fde907e33519","ios":"levelo://app?vid=7e6550d1-ff23-4314-a63a-fde907e33519"},"vehicle_type_id":"4","last_reported":1730225556,"current_range_meters":39200,"station_id":"ce4bhp92rcd13ifvqhag","pricing_plan_id":"cebpf4jnsgd1na2vs0mg"},{"bike_id":"3d4bd079-8143-4eab-88a8-0cdddc78f426","system_id":"levelo_inurba_marseille","lat":43.28697,"lon":5.39985,"is_reserved":false,"is_disabled":false,"rental_uris":{"android":"levelo://app?vid=3d4bd079-8143-4eab-88a8-0cdddc78f426","ios":"levelo://app?vid=3d4bd079-8143-4eab-88a8-0cdddc78f426"},"vehicle_type_id":"4","last_reported":1730225556,"current_range_meters":27600,"station_id":"ce4bho92rcd13ifvqh3g","pricing_plan_id":"cebpf4jnsgd1na2vs0mg"},{"bike_id":"a5cb1303-a73c-4081-b544-4c2d1bd86c87","system_id":"levelo_inurba_marseille","lat":43.27167,"lon":5.40994,"is_reserved":false,"is_disabled":false,"rental_uris":{"android":"levelo://app?vid=a5cb1303-a73c-4081-b544-4c2d1bd86c87","ios":"levelo://app?vid=a5cb1303-a73c-4081-b544-4c2d1bd86c87"},"vehicle_type_id":"4","last_reported":1730225556,"current_range_meters":10800,"station_id":"ce4bhl12rcd13ifvqgf0","pricing_plan_id":"cebpf4jnsgd1na2vs0mg"},{"bike_id":"9bbdc421-e337-4bd8-a908-6317df543ed7","system_id":"levelo_inurba_marseille","lat":43.28865,"lon":5.39327,"is_reserved":false,"is_disabled":false,"rental_uris":{"android":"levelo://app?vid=9bbdc421-e337-4bd8-a908-6317df543ed7","ios":"levelo://app?vid=9bbdc421-e337-4bd8-a908-6317df543ed7"},"vehicle_type_id":"4","last_reported":1730225556,"current_range_meters":28400,"station_id":"ce4bh2p2rcd13ifvqdi0","pricing_plan_id":"cebpf4jnsgd1na2vs0mg"},{"bike_id":"6926af3a-292b-4546-95b2-3d4c8435c441","system_id":"levelo_inurba_marseille","lat":43.25582,"lon":5.38237,"is_reserved":false,"is_disabled":false,"rental_uris":{"android":"levelo://app?vid=6926af3a-292b-4546-95b2-3d4c8435c441","ios":"levelo://app?vid=6926af3a-292b-4546-95b2-3d4c8435c441"},"vehicle_type_id":"4","last_reported":1730225556,"current_range_meters":9600,"station_id":"ce4bhih2rcd13ifvqfs0","pricing_plan_id":"cebpf4jnsgd1na2vs0mg"},{"bike_id":"e5d7fc79-deaa-4d09-b329-6aea675c4874","system_id":"levelo_inurba_marseille","lat":43.32291,"lon":5.38259,"is_reserved":false,"is_disabled":false,"rental_uris":{"android":"levelo://app?vid=e5d7fc79-deaa-4d09-b329-6aea675c4874","ios":"levelo://app?vid=e5d7fc79-deaa-4d09-b329-6aea675c4874"},"vehicle_type_id":"4","last_reported":1730225556,"current_range_meters":14000,"station_id":"ce4bhr12rcd13ifvqhqg","pricing_plan_id":"cebpf4jnsgd1na2vs0mg"},{"bike_id":"b83c58c4-6d93-41f5-88cc-db1a2d404e8d","system_id":"levelo_inurba_marseille","lat":43.27998,"lon":5.40016,"is_reserved":false,"is_disabled":false,"rental_uris":{"android":"levelo://app?vid=b83c58c4-6d93-41f5-88cc-db1a2d404e8d","ios":"levelo://app?vid=b83c58c4-6d93-41f5-88cc-db1a2d404e8d"},"vehicle_type_id":"4","last_reported":1730225556,"current_range_meters":34000,"station_id":"ce4bho92rcd13ifvqh4g","pricing_plan_id":"cebpf4jnsgd1na2vs0mg"},{"bike_id":"f4f9d16a-23ce-49d8-b92f-ce1d4ce09c08","system_id":"levelo_inurba_marseille","lat":43.24084,"lon":5.37743,"is_reserved":false,"is_disabled":false,"rental_uris":{"android":"levelo://app?vid=f4f9d16a-23ce-49d8-b92f-ce1d4ce09c08","ios":"levelo://app?vid=f4f9d16a-23ce-49d8-b92f-ce1d4ce09c08"},"vehicle_type_id":"4","last_reported":1730225556,"current_range_meters":28000,"station_id":"ce4bhnp2rcd13ifvqgvg","pricing_plan_id":"cebpf4jnsgd1na2vs0mg"},{"bike_id":"3da15dc4-107d-4454-8df9-1ec987f6fe17","system_id":"levelo_inurba_marseille","lat":43.295837,"lon":5.3855,"is_reserved":false,"is_disabled":false,"rental_uris":{"android":"levelo://app?vid=3da15dc4-107d-4454-8df9-1ec987f6fe17","ios":"levelo://app?vid=3da15dc4-107d-4454-8df9-1ec987f6fe17"},"vehicle_type_id":"4","last_reported":1730225556,"current_range_meters":6000,"station_id":"ce4bgih2rcd13ifvqba0","pricing_plan_id":"cebpf4jnsgd1na2vs0mg"},{"bike_id":"eabf2d3f-2bd8-42db-9d72-9c5ff2311c6d","system_id":"levelo_inurba_marseille","lat":43.28656,"lon":5.36362,"is_reserved":false,"is_disabled":false,"rental_uris":{"android":"levelo://app?vid=eabf2d3f-2bd8-42db-9d72-9c5ff2311c6d","ios":"levelo://app?vid=eabf2d3f-2bd8-42db-9d72-9c5ff2311c6d"},"vehicle_type_id":"4","last_reported":1730225556,"current_range_meters":29600,"station_id":"ce4bhah2rcd13ifvqej0","pricing_plan_id":"cebpf4jnsgd1na2vs0mg"},{"bike_id":"89e3984a-8aab-4193-b001-89fcd46e7063","system_id":"levelo_inurba_marseille","lat":43.29265,"lon":5.38437,"is_reserved":false,"is_disabled":false,"rental_uris":{"android":"levelo://app?vid=89e3984a-8aab-4193-b001-89fcd46e7063","ios":"levelo://app?vid=89e3984a-8aab-4193-b001-89fcd46e7063"},"vehicle_type_id":"4","last_reported":1730225556,"current_range_meters":22800,"station_id":"ce4bh692rcd13ifvqea0","pricing_plan_id":"cebpf4jnsgd1na2vs0mg"},{"bike_id":"f68dbf0c-42ef-4c98-a3a8-72bd17035729","system_id":"levelo_inurba_marseille","lat":43.28038,"lon":5.36956,"is_reserved":false,"is_disabled":false,"rental_uris":{"android":"levelo://app?vid=f68dbf0c-42ef-4c98-a3a8-72bd17035729","ios":"levelo://app?vid=f68dbf0c-42ef-4c98-a3a8-72bd17035729"},"vehicle_type_id":"4","last_reported":1730225556,"current_range_meters":19600,"station_id":"ce4bha12rcd13ifvqef0","pricing_plan_id":"cebpf4jnsgd1na2vs0mg"},{"bike_id":"d9178fed-1854-4f97-a64c-10ad778e892b","system_id":"levelo_inurba_marseille","lat":43.30954,"lon":5.39032,"is_reserved":false,"is_disabled":false,"rental_uris":{"android":"levelo://app?vid=d9178fed-1854-4f97-a64c-10ad778e892b","ios":"levelo://app?vid=d9178fed-1854-4f97-a64c-10ad778e892b"},"vehicle_type_id":"4","last_reported":1730225556,"current_range_meters":28400,"station_id":"ce4bgup2rcd13ifvqco0","pricing_plan_id":"cebpf4jnsgd1na2vs0mg"},{"bike_id":"aa2c3eab-f2b6-4c31-ac08-f36dc99af9f1","system_id":"levelo_inurba_marseille","lat":43.31697,"lon":5.40473,"is_reserved":false,"is_disabled":false,"rental_uris":{"android":"levelo://app?vid=aa2c3eab-f2b6-4c31-ac08-f36dc99af9f1","ios":"levelo://app?vid=aa2c3eab-f2b6-4c31-ac08-f36dc99af9f1"},"vehicle_type_id":"4","last_reported":1730225556,"current_range_meters":38800,"station_id":"ce4bh012rcd13ifvqd00","pricing_plan_id":"cebpf4jnsgd1na2vs0mg"},{"bike_id":"9e541136-436a-4b82-917e-b2364b1d0a9d","system_id":"levelo_inurba_marseille","lat":43.29261,"lon":5.40905,"is_reserved":false,"is_disabled":false,"rental_uris":{"android":"levelo://app?vid=9e541136-436a-4b82-917e-b2364b1d0a9d","ios":"levelo://app?vid=9e541136-436a-4b82-917e-b2364b1d0a9d"},"vehicle_type_id":"4","last_reported":1730225556,"current_range_meters":16800,"station_id":"ce4bh192rcd13ifvqdc0","pricing_plan_id":"cebpf4jnsgd1na2vs0mg"},{"bike_id":"7633888e-60f4-4c50-b625-7fa892517e89","system_id":"levelo_inurba_marseille","lat":43.31168,"lon":5.38722,"is_reserved":false,"is_disabled":false,"rental_uris":{"android":"levelo://app?vid=7633888e-60f4-4c50-b625-7fa892517e89","ios":"levelo://app?vid=7633888e-60f4-4c50-b625-7fa892517e89"},"vehicle_type_id":"4","last_reported":1730225556,"current_range_meters":37600,"station_id":"ce4bgv12rcd13ifvqcp0","pricing_plan_id":"cebpf4jnsgd1na2vs0mg"},{"bike_id":"bcb85d8a-0600-4557-a2bf-22df5d23d711","system_id":"levelo_inurba_marseille","lat":43.29297,"lon":5.37461,"is_reserved":false,"is_disabled":false,"rental_uris":{"android":"levelo://app?vid=bcb85d8a-0600-4557-a2bf-22df5d23d711","ios":"levelo://app?vid=bcb85d8a-0600-4557-a2bf-22df5d23d711"},"vehicle_type_id":"4","last_reported":1730225556,"current_range_meters":35200,"station_id":"ce4bgi12rcd13ifvqb70","pricing_plan_id":"cebpf4jnsgd1na2vs0mg"},{"bike_id":"7a581afa-ceee-4aab-b7d5-be727d90a15e","system_id":"levelo_inurba_marseille","lat":43.31461,"lon":5.39214,"is_reserved":false,"is_disabled":false,"rental_uris":{"android":"levelo://app?vid=7a581afa-ceee-4aab-b7d5-be727d90a15e","ios":"levelo://app?vid=7a581afa-ceee-4aab-b7d5-be727d90a15e"},"vehicle_type_id":"4","last_reported":1730225556,"current_range_meters":8800,"station_id":"ce4bgvp2rcd13ifvqcu0","pricing_plan_id":"cebpf4jnsgd1na2vs0mg"},{"bike_id":"9f792164-b061-4271-98b3-c7397552b87c","system_id":"levelo_inurba_marseille","lat":43.34143,"lon":5.40903,"is_reserved":false,"is_disabled":false,"rental_uris":{"android":"levelo://app?vid=9f792164-b061-4271-98b3-c7397552b87c","ios":"levelo://app?vid=9f792164-b061-4271-98b3-c7397552b87c"},"vehicle_type_id":"4","last_reported":1730225556,"current_range_meters":9200,"station_id":"ce4bhqh2rcd13ifvqhlg","pricing_plan_id":"cebpf4jnsgd1na2vs0mg"},{"bike_id":"7389791a-f8ce-4755-9251-c256a0cf9b0f","system_id":"levelo_inurba_marseille","lat":43.2306,"lon":5.35491,"is_reserved":false,"is_disabled":false,"rental_uris":{"android":"levelo://app?vid=7389791a-f8ce-4755-9251-c256a0cf9b0f","ios":"levelo://app?vid=7389791a-f8ce-4755-9251-c256a0cf9b0f"},"vehicle_type_id":"4","last_reported":1730225556,"current_range_meters":17200,"station_id":"cpo3342slgdg3j2ifvpg","pricing_plan_id":"cebpf4jnsgd1na2vs0mg"},{"bike_id":"8b61fa5b-56dc-462c-a122-778d5f2e3f62","system_id":"levelo_inurba_marseille","lat":43.29437,"lon":5.39753,"is_reserved":false,"is_disabled":false,"rental_uris":{"android":"levelo://app?vid=8b61fa5b-56dc-462c-a122-778d5f2e3f62","ios":"levelo://app?vid=8b61fa5b-56dc-462c-a122-778d5f2e3f62"},"vehicle_type_id":"4","last_reported":1730225556,"current_range_meters":36800,"station_id":"ce4bh3h2rcd13ifvqdo0","pricing_plan_id":"cebpf4jnsgd1na2vs0mg"},{"bike_id":"9886039c-63fa-40e5-a767-029a79fcc99b","system_id":"levelo_inurba_marseille","lat":43.29088,"lon":5.38142,"is_reserved":false,"is_disabled":false,"rental_uris":{"android":"levelo://app?vid=9886039c-63fa-40e5-a767-029a79fcc99b","ios":"levelo://app?vid=9886039c-63fa-40e5-a767-029a79fcc99b"},"vehicle_type_id":"4","last_reported":1730225556,"current_range_meters":14800,"station_id":"ce4bh512rcd13ifvqe2g","pricing_plan_id":"cebpf4jnsgd1na2vs0mg"},{"bike_id":"ccc3ddb5-d6df-40f6-81ab-f895d3a06831","system_id":"levelo_inurba_marseille","lat":43.2306,"lon":5.35496,"is_reserved":false,"is_disabled":false,"rental_uris":{"android":"levelo://app?vid=ccc3ddb5-d6df-40f6-81ab-f895d3a06831","ios":"levelo://app?vid=ccc3ddb5-d6df-40f6-81ab-f895d3a06831"},"vehicle_type_id":"4","last_reported":1730225556,"current_range_meters":18000,"station_id":"cpo3342slgdg3j2ifvpg","pricing_plan_id":"cebpf4jnsgd1na2vs0mg"},{"bike_id":"2ca88fab-1bbf-40ce-87b8-7a7bfbbba800","system_id":"levelo_inurba_marseille","lat":43.2942,"lon":5.38628,"is_reserved":false,"is_disabled":false,"rental_uris":{"android":"levelo://app?vid=2ca88fab-1bbf-40ce-87b8-7a7bfbbba800","ios":"levelo://app?vid=2ca88fab-1bbf-40ce-87b8-7a7bfbbba800"},"vehicle_type_id":"4","last_reported":1730225556,"current_range_meters":38800,"station_id":"ce4bh2h2rcd13ifvqdh0","pricing_plan_id":"cebpf4jnsgd1na2vs0mg"},{"bike_id":"b86c271e-0d81-46e2-a443-9bf1e96e3898","system_id":"levelo_inurba_marseille","lat":43.2439,"lon":5.37065,"is_reserved":false,"is_disabled":false,"rental_uris":{"android":"levelo://app?vid=b86c271e-0d81-46e2-a443-9bf1e96e3898","ios":"levelo://app?vid=b86c271e-0d81-46e2-a443-9bf1e96e3898"},"vehicle_type_id":"4","last_reported":1730225556,"current_range_meters":19200,"station_id":"ce4bhhh2rcd13ifvqfk0","pricing_plan_id":"cebpf4jnsgd1na2vs0mg"},{"bike_id":"d2c939a3-ec07-4007-977f-6538af24c5da","system_id":"levelo_inurba_marseille","lat":43.28947,"lon":5.3664,"is_reserved":false,"is_disabled":false,"rental_uris":{"android":"levelo://app?vid=d2c939a3-ec07-4007-977f-6538af24c5da","ios":"levelo://app?vid=d2c939a3-ec07-4007-977f-6538af24c5da"},"vehicle_type_id":"4","last_reported":1730225556,"current_range_meters":16800,"station_id":"ce4bhap2rcd13ifvqek0","pricing_plan_id":"cebpf4jnsgd1na2vs0mg"},{"bike_id":"f83c915f-7bc4-4196-9097-0a09fd61fe73","system_id":"levelo_inurba_marseille","lat":43.24387,"lon":5.37061,"is_reserved":false,"is_disabled":false,"rental_uris":{"android":"levelo://app?vid=f83c915f-7bc4-4196-9097-0a09fd61fe73","ios":"levelo://app?vid=f83c915f-7bc4-4196-9097-0a09fd61fe73"},"vehicle_type_id":"4","last_reported":1730225556,"current_range_meters":39200,"station_id":"ce4bhhh2rcd13ifvqfk0","pricing_plan_id":"cebpf4jnsgd1na2vs0mg"},{"bike_id":"c8516944-bc09-4ee3-8366-35c973c42b7b","system_id":"levelo_inurba_marseille","lat":43.23964,"lon":5.36632,"is_reserved":false,"is_disabled":false,"rental_uris":{"android":"levelo://app?vid=c8516944-bc09-4ee3-8366-35c973c42b7b","ios":"levelo://app?vid=c8516944-bc09-4ee3-8366-35c973c42b7b"},"vehicle_type_id":"4","last_reported":1730225556,"current_range_meters":23200,"station_id":"ce4bhi12rcd13ifvqfp0","pricing_plan_id":"cebpf4jnsgd1na2vs0mg"},{"bike_id":"9d255e34-48d9-494b-90ce-ee5c71da8ece","system_id":"levelo_inurba_marseille","lat":43.2942,"lon":5.38634,"is_reserved":false,"is_disabled":false,"rental_uris":{"android":"levelo://app?vid=9d255e34-48d9-494b-90ce-ee5c71da8ece","ios":"levelo://app?vid=9d255e34-48d9-494b-90ce-ee5c71da8ece"},"vehicle_type_id":"4","last_reported":1730225556,"current_range_meters":21600,"station_id":"ce4bh2h2rcd13ifvqdh0","pricing_plan_id":"cebpf4jnsgd1na2vs0mg"},{"bike_id":"c97e066c-a05d-4828-876c-856011a40435","system_id":"levelo_inurba_marseille","lat":43.29027,"lon":5.35925,"is_reserved":false,"is_disabled":false,"rental_uris":{"android":"levelo://app?vid=c97e066c-a05d-4828-876c-856011a40435","ios":"levelo://app?vid=c97e066c-a05d-4828-876c-856011a40435"},"vehicle_type_id":"4","last_reported":1730225556,"current_range_meters":20400,"station_id":"ce4bha92rcd13ifvqeg0","pricing_plan_id":"cebpf4jnsgd1na2vs0mg"},{"bike_id":"bfc17770-c225-45a4-984e-ac95fea0f6d3","system_id":"levelo_inurba_marseille","lat":43.29076,"lon":5.37169,"is_reserved":false,"is_disabled":false,"rental_uris":{"android":"levelo://app?vid=bfc17770-c225-45a4-984e-ac95fea0f6d3","ios":"levelo://app?vid=bfc17770-c225-45a4-984e-ac95fea0f6d3"},"vehicle_type_id":"4","last_reported":1730225556,"current_range_meters":27200,"station_id":"ce4bh5p2rcd13ifvqe4g","pricing_plan_id":"cebpf4jnsgd1na2vs0mg"},{"bike_id":"76d4dcb8-7513-4245-90cd-ea6d59c71355","system_id":"levelo_inurba_marseille","lat":43.30924,"lon":5.40145,"is_reserved":false,"is_disabled":false,"rental_uris":{"android":"levelo://app?vid=76d4dcb8-7513-4245-90cd-ea6d59c71355","ios":"levelo://app?vid=76d4dcb8-7513-4245-90cd-ea6d59c71355"},"vehicle_type_id":"4","last_reported":1730225556,"current_range_meters":6400,"station_id":"ce4bgvp2rcd13ifvqct0","pricing_plan_id":"cebpf4jnsgd1na2vs0mg"},{"bike_id":"518b8733-8ff5-4790-81a5-a927d7b5e92d","system_id":"levelo_inurba_marseille","lat":43.33757,"lon":5.37461,"is_reserved":false,"is_disabled":false,"rental_uris":{"android":"levelo://app?vid=518b8733-8ff5-4790-81a5-a927d7b5e92d","ios":"levelo://app?vid=518b8733-8ff5-4790-81a5-a927d7b5e92d"},"vehicle_type_id":"4","last_reported":1730225556,"current_range_meters":32800,"station_id":"","pricing_plan_id":"cebpf4jnsgd1na2vs0mg"},{"bike_id":"c3c4cf66-c885-45e4-9e7e-f1cd98f3d75a","system_id":"levelo_inurba_marseille","lat":43.25582,"lon":5.38235,"is_reserved":false,"is_disabled":false,"rental_uris":{"android":"levelo://app?vid=c3c4cf66-c885-45e4-9e7e-f1cd98f3d75a","ios":"levelo://app?vid=c3c4cf66-c885-45e4-9e7e-f1cd98f3d75a"},"vehicle_type_id":"4","last_reported":1730225556,"current_range_meters":20000,"station_id":"ce4bhih2rcd13ifvqfs0","pricing_plan_id":"cebpf4jnsgd1na2vs0mg"},{"bike_id":"2c16266b-58b5-47a9-9313-ffe546d8d2b1","system_id":"levelo_inurba_marseille","lat":43.23954,"lon":5.36641,"is_reserved":false,"is_disabled":false,"rental_uris":{"android":"levelo://app?vid=2c16266b-58b5-47a9-9313-ffe546d8d2b1","ios":"levelo://app?vid=2c16266b-58b5-47a9-9313-ffe546d8d2b1"},"vehicle_type_id":"4","last_reported":1730225556,"current_range_meters":36400,"station_id":"ce4bhi12rcd13ifvqfp0","pricing_plan_id":"cebpf4jnsgd1na2vs0mg"},{"bike_id":"1a8185b8-3e9f-4f20-9d24-845fe7e98a1a","system_id":"levelo_inurba_marseille","lat":43.28101,"lon":5.3784,"is_reserved":false,"is_disabled":false,"rental_uris":{"android":"levelo://app?vid=1a8185b8-3e9f-4f20-9d24-845fe7e98a1a","ios":"levelo://app?vid=1a8185b8-3e9f-4f20-9d24-845fe7e98a1a"},"vehicle_type_id":"4","last_reported":1730225556,"current_range_meters":5600,"station_id":"ce4bha12rcd13ifvqee0","pricing_plan_id":"cebpf4jnsgd1na2vs0mg"},{"bike_id":"441bbec1-ae65-4059-a99e-66cecc8f44de","system_id":"levelo_inurba_marseille","lat":43.23065,"lon":5.35499,"is_reserved":false,"is_disabled":false,"rental_uris":{"android":"levelo://app?vid=441bbec1-ae65-4059-a99e-66cecc8f44de","ios":"levelo://app?vid=441bbec1-ae65-4059-a99e-66cecc8f44de"},"vehicle_type_id":"4","last_reported":1730225556,"current_range_meters":11600,"station_id":"cpo3342slgdg3j2ifvpg","pricing_plan_id":"cebpf4jnsgd1na2vs0mg"},{"bike_id":"b7f079fb-b5c0-4ac0-b6c9-7ff4a34ba827","system_id":"levelo_inurba_marseille","lat":43.31712,"lon":5.43709,"is_reserved":false,"is_disabled":false,"rental_uris":{"android":"levelo://app?vid=b7f079fb-b5c0-4ac0-b6c9-7ff4a34ba827","ios":"levelo://app?vid=b7f079fb-b5c0-4ac0-b6c9-7ff4a34ba827"},"vehicle_type_id":"4","last_reported":1730225556,"current_range_meters":20000,"station_id":"ce4bhp92rcd13ifvqhcg","pricing_plan_id":"cebpf4jnsgd1na2vs0mg"},{"bike_id":"d18e29fe-6694-4657-aefe-747c6fb2f4ec","system_id":"levelo_inurba_marseille","lat":43.31994,"lon":5.38159,"is_reserved":false,"is_disabled":false,"rental_uris":{"android":"levelo://app?vid=d18e29fe-6694-4657-aefe-747c6fb2f4ec","ios":"levelo://app?vid=d18e29fe-6694-4657-aefe-747c6fb2f4ec"},"vehicle_type_id":"4","last_reported":1730225556,"current_range_meters":19200,"station_id":"ce4bhr12rcd13ifvqhpg","pricing_plan_id":"cebpf4jnsgd1na2vs0mg"},{"bike_id":"38dad52d-8199-4ab7-b15a-226ff7cf8b9f","system_id":"levelo_inurba_marseille","lat":43.23192,"lon":5.35557,"is_reserved":false,"is_disabled":false,"rental_uris":{"android":"levelo://app?vid=38dad52d-8199-4ab7-b15a-226ff7cf8b9f","ios":"levelo://app?vid=38dad52d-8199-4ab7-b15a-226ff7cf8b9f"},"vehicle_type_id":"4","last_reported":1730225556,"current_range_meters":33200,"station_id":"ce4bhu92rcd13ifvqi70","pricing_plan_id":"cebpf4jnsgd1na2vs0mg"},{"bike_id":"801db353-2faf-4d75-8d4d-ed85d190714a","system_id":"levelo_inurba_marseille","lat":43.23955,"lon":5.36629,"is_reserved":false,"is_disabled":false,"rental_uris":{"android":"levelo://app?vid=801db353-2faf-4d75-8d4d-ed85d190714a","ios":"levelo://app?vid=801db353-2faf-4d75-8d4d-ed85d190714a"},"vehicle_type_id":"4","last_reported":1730225556,"current_range_meters":36400,"station_id":"ce4bhi12rcd13ifvqfp0","pricing_plan_id":"cebpf4jnsgd1na2vs0mg"},{"bike_id":"6a4d001c-1816-4dcc-a6a9-b7225fcfd275","system_id":"levelo_inurba_marseille","lat":43.29416,"lon":5.38626,"is_reserved":false,"is_disabled":false,"rental_uris":{"android":"levelo://app?vid=6a4d001c-1816-4dcc-a6a9-b7225fcfd275","ios":"levelo://app?vid=6a4d001c-1816-4dcc-a6a9-b7225fcfd275"},"vehicle_type_id":"4","last_reported":1730225556,"current_range_meters":6400,"station_id":"ce4bh2h2rcd13ifvqdh0","pricing_plan_id":"cebpf4jnsgd1na2vs0mg"},{"bike_id":"4812bb9b-92a8-4379-a4c2-d11355013d71","system_id":"levelo_inurba_marseille","lat":43.28034,"lon":5.36953,"is_reserved":false,"is_disabled":false,"rental_uris":{"android":"levelo://app?vid=4812bb9b-92a8-4379-a4c2-d11355013d71","ios":"levelo://app?vid=4812bb9b-92a8-4379-a4c2-d11355013d71"},"vehicle_type_id":"4","last_reported":1730225556,"current_range_meters":30800,"station_id":"ce4bha12rcd13ifvqef0","pricing_plan_id":"cebpf4jnsgd1na2vs0mg"},{"bike_id":"d07a64c6-d533-4896-86b0-4bda0c05fce8","system_id":"levelo_inurba_marseille","lat":43.27171,"lon":5.40992,"is_reserved":false,"is_disabled":false,"rental_uris":{"android":"levelo://app?vid=d07a64c6-d533-4896-86b0-4bda0c05fce8","ios":"levelo://app?vid=d07a64c6-d533-4896-86b0-4bda0c05fce8"},"vehicle_type_id":"4","last_reported":1730225556,"current_range_meters":16800,"station_id":"ce4bhl12rcd13ifvqgf0","pricing_plan_id":"cebpf4jnsgd1na2vs0mg"},{"bike_id":"b73f769c-89ee-4922-adb0-4652819128f7","system_id":"levelo_inurba_marseille","lat":43.28075,"lon":5.39663,"is_reserved":false,"is_disabled":false,"rental_uris":{"android":"levelo://app?vid=b73f769c-89ee-4922-adb0-4652819128f7","ios":"levelo://app?vid=b73f769c-89ee-4922-adb0-4652819128f7"},"vehicle_type_id":"4","last_reported":1730225556,"current_range_meters":20400,"station_id":"ce4bho12rcd13ifvqh2g","pricing_plan_id":"cebpf4jnsgd1na2vs0mg"},{"bike_id":"28f270e6-6c6f-48e2-bfa4-7e2f5ca61ffd","system_id":"levelo_inurba_marseille","lat":43.33027,"lon":5.39047,"is_reserved":false,"is_disabled":false,"rental_uris":{"android":"levelo://app?vid=28f270e6-6c6f-48e2-bfa4-7e2f5ca61ffd","ios":"levelo://app?vid=28f270e6-6c6f-48e2-bfa4-7e2f5ca61ffd"},"vehicle_type_id":"4","last_reported":1730225556,"current_range_meters":14800,"station_id":"ce4bhr92rcd13ifvqhrg","pricing_plan_id":"cebpf4jnsgd1na2vs0mg"},{"bike_id":"aeec7b94-ba6f-4552-bc77-ffff963c8dcd","system_id":"levelo_inurba_marseille","lat":43.23961,"lon":5.36632,"is_reserved":false,"is_disabled":false,"rental_uris":{"android":"levelo://app?vid=aeec7b94-ba6f-4552-bc77-ffff963c8dcd","ios":"levelo://app?vid=aeec7b94-ba6f-4552-bc77-ffff963c8dcd"},"vehicle_type_id":"4","last_reported":1730225556,"current_range_meters":30400,"station_id":"ce4bhi12rcd13ifvqfp0","pricing_plan_id":"cebpf4jnsgd1na2vs0mg"},{"bike_id":"d57b8475-289b-4dc3-ad82-c3bc6e68cc79","system_id":"levelo_inurba_marseille","lat":43.29622,"lon":5.37722,"is_reserved":false,"is_disabled":false,"rental_uris":{"android":"levelo://app?vid=d57b8475-289b-4dc3-ad82-c3bc6e68cc79","ios":"levelo://app?vid=d57b8475-289b-4dc3-ad82-c3bc6e68cc79"},"vehicle_type_id":"4","last_reported":1730225556,"current_range_meters":5600,"station_id":"ce4bgi92rcd13ifvqb90","pricing_plan_id":"cebpf4jnsgd1na2vs0mg"},{"bike_id":"aa0bac7b-505c-4fc1-88b2-2cdb997df59a","system_id":"levelo_inurba_marseille","lat":43.29528,"lon":5.39043,"is_reserved":false,"is_disabled":false,"rental_uris":{"android":"levelo://app?vid=aa0bac7b-505c-4fc1-88b2-2cdb997df59a","ios":"levelo://app?vid=aa0bac7b-505c-4fc1-88b2-2cdb997df59a"},"vehicle_type_id":"4","last_reported":1730225556,"current_range_meters":38400,"station_id":"ce4bh3p2rcd13ifvqdp0","pricing_plan_id":"cebpf4jnsgd1na2vs0mg"},{"bike_id":"95ce8245-3812-4cf7-b1b4-eb549e7b9c42","system_id":"levelo_inurba_marseille","lat":43.269098,"lon":5.402856,"is_reserved":false,"is_disabled":false,"rental_uris":{"android":"levelo://app?vid=95ce8245-3812-4cf7-b1b4-eb549e7b9c42","ios":"levelo://app?vid=95ce8245-3812-4cf7-b1b4-eb549e7b9c42"},"vehicle_type_id":"4","last_reported":1730225556,"current_range_meters":36400,"station_id":"cjm6bp8fraef2m0cb0m0","pricing_plan_id":"cebpf4jnsgd1na2vs0mg"},{"bike_id":"921ad60f-078a-4b5b-a5aa-8c95ad35a7e9","system_id":"levelo_inurba_marseille","lat":43.28858,"lon":5.35857,"is_reserved":false,"is_disabled":false,"rental_uris":{"android":"levelo://app?vid=921ad60f-078a-4b5b-a5aa-8c95ad35a7e9","ios":"levelo://app?vid=921ad60f-078a-4b5b-a5aa-8c95ad35a7e9"},"vehicle_type_id":"4","last_reported":1730225556,"current_range_meters":16800,"station_id":"ce4bhb12rcd13ifvqem0","pricing_plan_id":"cebpf4jnsgd1na2vs0mg"},