{"last_updated":1745724729,"ttl":60,"version":"2.2","data":{"bikes":[{"bike_id":"327fa908-fafe-40ae-b97e-12862a152f1f","system_id":"levelo_inurba_marseille","lat":43.276189,"lon":5.393102,"is_reserved":false,"is_disabled":false,"rental_uris":{"android":"levelo://app?vid=327fa908-fafe-40ae-b97e-12862a152f1f","ios":"levelo://app?vid=327fa908-fafe-40ae-b97e-12862a152f1f"},"vehicle_type_id":"4","last_reported":1745724730,"current_range_meters":2800,"station_id":"","pricing_plan_id":"cebpf4jnsgd1na2vs0mg"},{"bike_id":"1746265e-27ad-4913-8a06-b6dc5372d844","system_id":"levelo_inurba_marseille","lat":43.259971,"lon":5.374904,"is_reserved":false,"is_disabled":false,"rental_uris":{"android":"levelo://app?vid=1746265e-27ad-4913-8a06-b6dc5372d844","ios":"levelo://app?vid=1746265e-27ad-4913-8a06-b6dc5372d844"},"vehicle_type_id":"4","last_reported":1745724730,"current_range_meters":2800,"station_id":"","pricing_plan_id":"cebpf4jnsgd1na2vs0mg"},{"bike_id":"2d4a7116-d38a-461a-9fdf-b4e93ca5311b","system_id":"levelo_inurba_marseille","lat":43.26216,"lon":5.37443,"is_reserved":false,"is_disabled":false,"rental_uris":{"android":"levelo://app?vid=2d4a7116-d38a-461a-9fdf-b4e93ca5311b","ios":"levelo://app?vid=2d4a7116-d38a-461a-9fdf-b4e93ca5311b"},"vehicle_type_id":"4","last_reported":1745724730,"current_range_meters":2800,"station_id":"ce4bhgp2rcd13ifvqfc0","pricing_plan_id":"cebpf4jnsgd1na2vs0mg"},{"bike_id":"1d10ce78-507c-4676-b08e-f0f5e4c411cb","system_id":"levelo_inurba_marseille","lat":43.312809,"lon":5.40171,"is_reserved":false,"is_disabled":false,"rental_uris":{"android":"levelo://app?vid=1d10ce78-507c-4676-b08e-f0f5e4c411cb","ios":"levelo://app?vid=1d10ce78-507c-4676-b08e-f0f5e4c411cb"},"vehicle_type_id":"4","last_reported":1745724730,"current_range_meters":3200,"station_id":"ce4bh092rcd13ifvqd30","pricing_plan_id":"cebpf4jnsgd1na2vs0mg"},{"bike_id":"eebed111-53f3-42cc-962e-8056498da25f","system_id":"levelo_inurba_marseille","lat":43.280396,"lon":5.356458,"is_reserved":false,"is_disabled":false,"rental_uris":{"android":"levelo://app?vid=eebed111-53f3-42cc-962e-8056498da25f","ios":"levelo://app?vid=eebed111-53f3-42cc-962e-8056498da25f"},"vehicle_type_id":"4","last_reported":1745724730,"current_range_meters":3200,"station_id":"","pricing_plan_id":"cebpf4jnsgd1na2vs0mg"},{"bike_id":"74bf1832-a389-491d-9cf1-c0544e13bc20","system_id":"levelo_inurba_marseille","lat":43.27496,"lon":5.42454,"is_reserved":false,"is_disabled":false,"rental_uris":{"android":"levelo://app?vid=74bf1832-a389-491d-9cf1-c0544e13bc20","ios":"levelo://app?vid=74bf1832-a389-491d-9cf1-c0544e13bc20"},"vehicle_type_id":"4","last_reported":1745724730,"current_range_meters":3200,"station_id":"ce4bhn92rcd13ifvqgrg","pricing_plan_id":"cebpf4jnsgd1na2vs0mg"},{"bike_id":"fcddd32a-71f9-41b4-a1cc-f32582f63a00","system_id":"levelo_inurba_marseille","lat":43.307846,"lon":5.376556,"is_reserved":false,"is_disabled":false,"rental_uris":{"android":"levelo://app?vid=fcddd32a-71f9-41b4-a1cc-f32582f63a00","ios":"levelo://app?vid=fcddd32a-71f9-41b4-a1cc-f32582f63a00"},"vehicle_type_id":"4","last_reported":1745724730,"current_range_meters":3200,"station_id":"","pricing_plan_id":"cebpf4jnsgd1na2vs0mg"},{"bike_id":"5e03de95-19f8-4977-aa30-42647409354d","system_id":"levelo_inurba_marseille","lat":43.239615,"lon":5.366329,"is_reserved":false,"is_disabled":false,"rental_uris":{"android":"levelo://app?vid=5e03de95-19f8-4977-aa30-42647409354d","ios":"levelo://app?vid=5e03de95-19f8-4977-aa30-42647409354d"},"vehicle_type_id":"4","last_reported":1745724730,"current_range_meters":3200,"station_id":"ce4bhi12rcd13ifvqfp0","pricing_plan_id":"cebpf4jnsgd1na2vs0mg"},{"bike_id":"bbfbe63d-2583-4167-a100-08c737992bef","system_id":"levelo_inurba_marseille","lat":43.29411,"lon":5.38076,"is_reserved":false,"is_disabled":false,"rental_uris":{"android":"levelo://app?vid=bbfbe63d-2583-4167-a100-08c737992bef","ios":"levelo://app?vid=bbfbe63d-2583-4167-a100-08c737992bef"},"vehicle_type_id":"4","last_reported":1745724730,"current_range_meters":3200,"station_id":"","pricing_plan_id":"cebpf4jnsgd1na2vs0mg"},{"bike_id":"6d91a8dc-ba91-4e59-90e6-05e9199e8291","system_id":"levelo_inurba_marseille","lat":43.2624,"lon":5.40445,"is_reserved":false,"is_disabled":false,"rental_uris":{"android":"levelo://app?vid=6d91a8dc-ba91-4e59-90e6-05e9199e8291","ios":"levelo://app?vid=6d91a8dc-ba91-4e59-90e6-05e9199e8291"},"vehicle_type_id":"4","last_reported":1745724730,"current_range_meters":3200,"station_id":"ce4bhmh2rcd13ifvqgmg","pricing_plan_id":"cebpf4jnsgd1na2vs0mg"},{"bike_id":"40b6b781-3a93-4dd5-9313-bd380b91aeb6","system_id":"levelo_inurba_marseille","lat":43.2686,"lon":5.38181,"is_reserved":false,"is_disabled":false,"rental_uris":{"android":"levelo://app?vid=40b6b781-3a93-4dd5-9313-bd380b91aeb6","ios":"levelo://app?vid=40b6b781-3a93-4dd5-9313-bd380b91aeb6"},"vehicle_type_id":"4","last_reported":1745724730,"current_range_meters":3600,"station_id":"","pricing_plan_id":"cebpf4jnsgd1na2vs0mg"},{"bike_id":"b729244b-57f7-4f6b-b6a8-0f094c841175","system_id":"levelo_inurba_marseille","lat":43.30585,"lon":5.37209,"is_reserved":false,"is_disabled":false,"rental_uris":{"android":"levelo://app?vid=b729244b-57f7-4f6b-b6a8-0f094c841175","ios":"levelo://app?vid=b729244b-57f7-4f6b-b6a8-0f094c841175"},"vehicle_type_id":"4","last_reported":1745724730,"current_range_meters":3600,"station_id":"ce4bgqh2rcd13ifvqc4g","pricing_plan_id":"cebpf4jnsgd1na2vs0mg"},{"bike_id":"b0962c67-64f4-446f-972e-edf782d7b737","system_id":"levelo_inurba_marseille","lat":43.29265,"lon":5.38456,"is_reserved":false,"is_disabled":false,"rental_uris":{"android":"levelo://app?vid=b0962c67-64f4-446f-972e-edf782d7b737","ios":"levelo://app?vid=b0962c67-64f4-446f-972e-edf782d7b737"},"vehicle_type_id":"4","last_reported":1745724730,"current_range_meters":3600,"station_id":"ce4bh692rcd13ifvqea0","pricing_plan_id":"cebpf4jnsgd1na2vs0mg"},{"bike_id":"d1ff7e34-d25d-4063-9648-2bd4db47424f","system_id":"levelo_inurba_marseille","lat":43.32455,"lon":5.39145,"is_reserved":false,"is_disabled":true,"rental_uris":{"android":"levelo://app?vid=d1ff7e34-d25d-4063-9648-2bd4db47424f","ios":"levelo://app?vid=d1ff7e34-d25d-4063-9648-2bd4db47424f"},"vehicle_type_id":"4","last_reported":1745724730,"current_range_meters":4400,"station_id":"","pricing_plan_id":"cebpf4jnsgd1na2vs0mg"},{"bike_id":"05094179-e208-4767-94df-7d6832edefd1","system_id":"levelo_inurba_marseille","lat":43.281546,"lon":5.426429,"is_reserved":false,"is_disabled":false,"rental_uris":{"android":"levelo://app?vid=05094179-e208-4767-94df-7d6832edefd1","ios":"levelo://app?vid=05094179-e208-4767-94df-7d6832edefd1"},"vehicle_type_id":"4","last_reported":1745724730,"current_range_meters":4400,"station_id":"ce4bhnh2rcd13ifvqgug","pricing_plan_id":"cebpf4jnsgd1na2vs0mg"},{"bike_id":"422b5989-c8b6-43aa-b2b9-3bfeb2e1ddc0","system_id":"levelo_inurba_marseille","lat":43.24713,"lon":5.41172,"is_reserved":false,"is_disabled":false,"rental_uris":{"android":"levelo://app?vid=422b5989-c8b6-43aa-b2b9-3bfeb2e1ddc0","ios":"levelo://app?vid=422b5989-c8b6-43aa-b2b9-3bfeb2e1ddc0"},"vehicle_type_id":"4","last_reported":1745724730,"current_range_meters":4800,"station_id":"","pricing_plan_id":"cebpf4jnsgd1na2vs0mg"},{"bike_id":"f62a4552-ec40-438e-82bf-49608a81162e","system_id":"levelo_inurba_marseille","lat":43.23955,"lon":5.36658,"is_reserved":false,"is_disabled":false,"rental_uris":{"android":"levelo://app?vid=f62a4552-ec40-438e-82bf-49608a81162e","ios":"levelo://app?vid=f62a4552-ec40-438e-82bf-49608a81162e"},"vehicle_type_id":"4","last_reported":1745724730,"current_range_meters":4800,"station_id":"ce4bhi12rcd13ifvqfp0","pricing_plan_id":"cebpf4jnsgd1na2vs0mg"},{"bike_id":"ab3a4106-7e42-4508-9e77-1ef3e4fbbf45","system_id":"levelo_inurba_marseille","lat":43.29335,"lon":5.40196,"is_reserved":false,"is_disabled":false,"rental_uris":{"android":"levelo://app?vid=ab3a4106-7e42-4508-9e77-1ef3e4fbbf45","ios":"levelo://app?vid=ab3a4106-7e42-4508-9e77-1ef3e4fbbf45"},"vehicle_type_id":"4","last_reported":1745724730,"current_range_meters":4800,"station_id":"","pricing_plan_id":"cebpf4jnsgd1na2vs0mg"},{"bike_id":"e99e6315-2751-4329-ad7b-f9d19f8ec3ef","system_id":"levelo_inurba_marseille","lat":43.28119,"lon":5.42683,"is_reserved":false,"is_disabled":false,"rental_uris":{"android":"levelo://app?vid=e99e6315-2751-4329-ad7b-f9d19f8ec3ef","ios":"levelo://app?vid=e99e6315-2751-4329-ad7b-f9d19f8ec3ef"},"vehicle_type_id":"4","last_reported":1745724730,"current_range_meters":4800,"station_id":"","pricing_plan_id":"cebpf4jnsgd1na2vs0mg"},{"bike_id":"af926de2-a12a-4832-8dd1-d3f70d728432","system_id":"levelo_inurba_marseille","lat":43.279846,"lon":5.416574,"is_reserved":false,"is_disabled":false,"rental_uris":{"android":"levelo://app?vid=af926de2-a12a-4832-8dd1-d3f70d728432","ios":"levelo://app?vid=af926de2-a12a-4832-8dd1-d3f70d728432"},"vehicle_type_id":"4","last_reported":1745724730,"current_range_meters":4800,"station_id":"ce4bho12rcd13ifvqh1g","pricing_plan_id":"cebpf4jnsgd1na2vs0mg"},{"bike_id":"bf5cf6b7-c538-4903-a90b-18b5b995616b","system_id":"levelo_inurba_marseille","lat":43.29951,"lon":5.37182,"is_reserved":false,"is_disabled":false,"rental_uris":{"android":"levelo://app?vid=bf5cf6b7-c538-4903-a90b-18b5b995616b","ios":"levelo://app?vid=bf5cf6b7-c538-4903-a90b-18b5b995616b"},"vehicle_type_id":"4","last_reported":1745724730,"current_range_meters":4800,"station_id":"ce4bgr92rcd13ifvqc7g","pricing_plan_id":"cebpf4jnsgd1na2vs0mg"},{"bike_id":"7a32014b-7ba1-4b4e-aeb9-b0d53f9796d5","system_id":"levelo_inurba_marseille","lat":43.29031,"lon":5.39959,"is_reserved":false,"is_disabled":false,"rental_uris":{"android":"levelo://app?vid=7a32014b-7ba1-4b4e-aeb9-b0d53f9796d5","ios":"levelo://app?vid=7a32014b-7ba1-4b4e-aeb9-b0d53f9796d5"},"vehicle_type_id":"4","last_reported":1745724730,"current_range_meters":4800,"station_id":"ce4bh392rcd13ifvqdm0","pricing_plan_id":"cebpf4jnsgd1na2vs0mg"},{"bike_id":"11401a89-1aad-4932-8dc9-873ec02586b9","system_id":"levelo_inurba_marseille","lat":43.225006,"lon":5.34782,"is_reserved":false,"is_disabled":false,"rental_uris":{"android":"levelo://app?vid=11401a89-1aad-4932-8dc9-873ec02586b9","ios":"levelo://app?vid=11401a89-1aad-4932-8dc9-873ec02586b9"},"vehicle_type_id":"4","last_reported":1745724730,"current_range_meters":5600,"station_id":"ce4bgjp2rcd13ifvqbh0","pricing_plan_id":"cebpf4jnsgd1na2vs0mg"},{"bike_id":"3b6e3216-f666-4298-a310-acc5d51086df","system_id":"levelo_inurba_marseille","lat":43.24176,"lon":5.39743,"is_reserved":false,"is_disabled":false,"rental_uris":{"android":"levelo://app?vid=3b6e3216-f666-4298-a310-acc5d51086df","ios":"levelo://app?vid=3b6e3216-f666-4298-a310-acc5d51086df"},"vehicle_type_id":"4","last_reported":1745724730,"current_range_meters":6000,"station_id":"ce4bhn12rcd13ifvqgpg","pricing_plan_id":"cebpf4jnsgd1na2vs0mg"},{"bike_id":"18ae1d78-8d9e-4697-bc48-a39d36035c1d","system_id":"levelo_inurba_marseille","lat":43.239688,"lon":5.366211,"is_reserved":false,"is_disabled":false,"rental_uris":{"android":"levelo://app?vid=18ae1d78-8d9e-4697-bc48-a39d36035c1d","ios":"levelo://app?vid=18ae1d78-8d9e-4697-bc48-a39d36035c1d"},"vehicle_type_id":"4","last_reported":1745724730,"current_range_meters":6000,"station_id":"ce4bhi12rcd13ifvqfp0","pricing_plan_id":"cebpf4jnsgd1na2vs0mg"},{"bike_id":"554fe001-fd7c-4ce9-8b9f-fe24a3da343a","system_id":"levelo_inurba_marseille","lat":43.231876,"lon":5.355679,"is_reserved":false,"is_disabled":false,"rental_uris":{"android":"levelo://app?vid=554fe001-fd7c-4ce9-8b9f-fe24a3da343a","ios":"levelo://app?vid=554fe001-fd7c-4ce9-8b9f-fe24a3da343a"},"vehicle_type_id":"4","last_reported":1745724730,"current_range_meters":6400,"station_id":"ce4bhu92rcd13ifvqi70","pricing_plan_id":"cebpf4jnsgd1na2vs0mg"},{"bike_id":"ebe3c46c-46c9-4817-98cf-384a623937c3","system_id":"levelo_inurba_marseille","lat":43.26212,"lon":5.37442,"is_reserved":false,"is_disabled":false,"rental_uris":{"android":"levelo://app?vid=ebe3c46c-46c9-4817-98cf-384a623937c3","ios":"levelo://app?vid=ebe3c46c-46c9-4817-98cf-384a623937c3"},"vehicle_type_id":"4","last_reported":1745724730,"current_range_meters":6400,"station_id":"ce4bhgp2rcd13ifvqfc0","pricing_plan_id":"cebpf4jnsgd1na2vs0mg"},{"bike_id":"443d6ddb-b230-4118-872e-9387df278ccd","system_id":"levelo_inurba_marseille","lat":43.240489,"lon":5.377881,"is_reserved":false,"is_disabled":false,"rental_uris":{"android":"levelo://app?vid=443d6ddb-b230-4118-872e-9387df278ccd","ios":"levelo://app?vid=443d6ddb-b230-4118-872e-9387df278ccd"},"vehicle_type_id":"4","last_reported":1745724730,"current_range_meters":6400,"station_id":"ce4bhnp2rcd13ifvqgvg","pricing_plan_id":"cebpf4jnsgd1na2vs0mg"},{"bike_id":"1633ed64-e423-42e4-93c5-471c5c6b4f37","system_id":"levelo_inurba_marseille","lat":43.26059,"lon":5.393893,"is_reserved":false,"is_disabled":false,"rental_uris":{"android":"levelo://app?vid=1633ed64-e423-42e4-93c5-471c5c6b4f37","ios":"levelo://app?vid=1633ed64-e423-42e4-93c5-471c5c6b4f37"},"vehicle_type_id":"4","last_reported":1745724730,"current_range_meters":6400,"station_id":"ce4bhh92rcd13ifvqfj0","pricing_plan_id":"cebpf4jnsgd1na2vs0mg"},{"bike_id":"62b8d5c9-eb15-493f-a357-4eb15de007d7","system_id":"levelo_inurba_marseille","lat":43.28153,"lon":5.4264,"is_reserved":false,"is_disabled":false,"rental_uris":{"android":"levelo://app?vid=62b8d5c9-eb15-493f-a357-4eb15de007d7","ios":"levelo://app?vid=62b8d5c9-eb15-493f-a357-4eb15de007d7"},"vehicle_type_id":"4","last_reported":1745724730,"current_range_meters":6800,"station_id":"ce4bhnh2rcd13ifvqgug","pricing_plan_id":"cebpf4jnsgd1na2vs0mg"},{"bike_id":"51376682-930e-45ed-90e0-b53d931ddc33","system_id":"levelo_inurba_marseille","lat":43.27488,"lon":5.4245,"is_reserved":false,"is_disabled":false,"rental_uris":{"android":"levelo://app?vid=51376682-930e-45ed-90e0-b53d931ddc33","ios":"levelo://app?vid=51376682-930e-45ed-90e0-b53d931ddc33"},"vehicle_type_id":"4","last_reported":1745724730,"current_range_meters":6800,"station_id":"ce4bhn92rcd13ifvqgrg","pricing_plan_id":"cebpf4jnsgd1na2vs0mg"},{"bike_id":"62e1022a-c07d-490e-be99-4267ae20ba81","system_id":"levelo_inurba_marseille","lat":43.292833,"lon":5.40111,"is_reserved":false,"is_disabled":false,"rental_uris":{"android":"levelo://app?vid=62e1022a-c07d-490e-be99-4267ae20ba81","ios":"levelo://app?vid=62e1022a-c07d-490e-be99-4267ae20ba81"},"vehicle_type_id":"4","last_reported":1745724730,"current_range_meters":6800,"station_id":"ce4bh312rcd13ifvqdk0","pricing_plan_id":"cebpf4jnsgd1na2vs0mg"},{"bike_id":"8a6fd588-85d3-4301-b7fc-ce76c956fcc4","system_id":"levelo_inurba_marseille","lat":43.3146,"lon":5.37336,"is_reserved":false,"is_disabled":false,"rental_uris":{"android":"levelo://app?vid=8a6fd588-85d3-4301-b7fc-ce76c956fcc4","ios":"levelo://app?vid=8a6fd588-85d3-4301-b7fc-ce76c956fcc4"},"vehicle_type_id":"4","last_reported":1745724730,"current_range_meters":7200,"station_id":"ce4bgt12rcd13ifvqcd0","pricing_plan_id":"cebpf4jnsgd1na2vs0mg"},{"bike_id":"b25d821f-85f0-4e36-bfe6-db46d00f9763","system_id":"levelo_inurba_marseille","lat":43.295554,"lon":5.42292,"is_reserved":false,"is_disabled":false,"rental_uris":{"android":"levelo://app?vid=b25d821f-85f0-4e36-bfe6-db46d00f9763","ios":"levelo://app?vid=b25d821f-85f0-4e36-bfe6-db46d00f9763"},"vehicle_type_id":"4","last_reported":1745724730,"current_range_meters":7200,"station_id":"ce4bhph2rcd13ifvqhdg","pricing_plan_id":"cebpf4jnsgd1na2vs0mg"},{"bike_id":"6104de1b-83a6-4912-bfa1-49d35364e6af","system_id":"levelo_inurba_marseille","lat":43.23957,"lon":5.36642,"is_reserved":false,"is_disabled":false,"rental_uris":{"android":"levelo://app?vid=6104de1b-83a6-4912-bfa1-49d35364e6af","ios":"levelo://app?vid=6104de1b-83a6-4912-bfa1-49d35364e6af"},"vehicle_type_id":"4","last_reported":1745724730,"current_range_meters":7200,"station_id":"ce4bhi12rcd13ifvqfp0","pricing_plan_id":"cebpf4jnsgd1na2vs0mg"},{"bike_id":"da43153d-0c82-4e6e-ab78-8fccd5cb1acc","system_id":"levelo_inurba_marseille","lat":43.2317,"lon":5.40017,"is_reserved":false,"is_disabled":false,"rental_uris":{"android":"levelo://app?vid=da43153d-0c82-4e6e-ab78-8fccd5cb1acc","ios":"levelo://app?vid=da43153d-0c82-4e6e-ab78-8fccd5cb1acc"},"vehicle_type_id":"4","last_reported":1745724730,"current_range_meters":7200,"station_id":"ce4bhn12rcd13ifvqgqg","pricing_plan_id":"cebpf4jnsgd1na2vs0mg"},{"bike_id":"af134254-fe1c-4e1e-b0fb-f7fd5697f069","system_id":"levelo_inurba_marseille","lat":43.26933,"lon":5.38917,"is_reserved":false,"is_disabled":false,"rental_uris":{"android":"levelo://app?vid=af134254-fe1c-4e1e-b0fb-f7fd5697f069","ios":"levelo://app?vid=af134254-fe1c-4e1e-b0fb-f7fd5697f069"},"vehicle_type_id":"4","last_reported":1745724730,"current_range_meters":6800,"station_id":"ce4bhhh2rcd13ifvqfl0","pricing_plan_id":"cebpf4jnsgd1na2vs0mg"},{"bike_id":"206d6220-b715-46fc-be54-9a6732301080","system_id":"levelo_inurba_marseille","lat":43.27827,"lon":5.4071,"is_reserved":false,"is_disabled":false,"rental_uris":{"android":"levelo://app?vid=206d6220-b715-46fc-be54-9a6732301080","ios":"levelo://app?vid=206d6220-b715-46fc-be54-9a6732301080"},"vehicle_type_id":"4","last_reported":1745724730,"current_range_meters":7200,"station_id":"ce4bhnh2rcd13ifvqgtg","pricing_plan_id":"cebpf4jnsgd1na2vs0mg"},{"bike_id":"3b576989-6583-41eb-90c4-d5036c5af5a9","system_id":"levelo_inurba_marseille","lat":43.28446,"lon":5.35897,"is_reserved":false,"is_disabled":false,"rental_uris":{"android":"levelo://app?vid=3b576989-6583-41eb-90c4-d5036c5af5a9","ios":"levelo://app?vid=3b576989-6583-41eb-90c4-d5036c5af5a9"},"vehicle_type_id":"4","last_reported":1745724730,"current_range_meters":8000,"station_id":"ce4bhah2rcd13ifvqei0","pricing_plan_id":"cebpf4jnsgd1na2vs0mg"},{"bike_id":"b9d9721d-c534-4190-b885-afd25bc0dc94","system_id":"levelo_inurba_marseille","lat":43.29244,"lon":5.37643,"is_reserved":false,"is_disabled":false,"rental_uris":{"android":"levelo://app?vid=b9d9721d-c534-4190-b885-afd25bc0dc94","ios":"levelo://app?vid=b9d9721d-c534-4190-b885-afd25bc0dc94"},"vehicle_type_id":"4","last_reported":1745724730,"current_range_meters":8000,"station_id":"ce4bgi12rcd13ifvqb80","pricing_plan_id":"cebpf4jnsgd1na2vs0mg"},{"bike_id":"316a7097-1e22-4f12-a17e-a81c0d10a3d1","system_id":"levelo_inurba_marseille","lat":43.27973,"lon":5.38698,"is_reserved":false,"is_disabled":false,"rental_uris":{"android":"levelo://app?vid=316a7097-1e22-4f12-a17e-a81c0d10a3d1","ios":"levelo://app?vid=316a7097-1e22-4f12-a17e-a81c0d10a3d1"},"vehicle_type_id":"4","last_reported":1745724730,"current_range_meters":8000,"station_id":"ce4bhg12rcd13ifvqf80","pricing_plan_id":"cebpf4jnsgd1na2vs0mg"},{"bike_id":"046462ca-8fd6-4982-94c7-3f4266b3a3be","system_id":"levelo_inurba_marseille","lat":43.279043,"lon":5.380049,"is_reserved":false,"is_disabled":false,"rental_uris":{"android":"levelo://app?vid=046462ca-8fd6-4982-94c7-3f4266b3a3be","ios":"levelo://app?vid=046462ca-8fd6-4982-94c7-3f4266b3a3be"},"vehicle_type_id":"4","last_reported":1745724730,"current_range_meters":8000,"station_id":"ce4bhf92rcd13ifvqf50","pricing_plan_id":"cebpf4jnsgd1na2vs0mg"},{"bike_id":"571880c0-0712-439e-9fee-1111267484d9","system_id":"levelo_inurba_marseille","lat":43.28687,"lon":5.37982,"is_reserved":false,"is_disabled":true,"rental_uris":{"android":"levelo://app?vid=571880c0-0712-439e-9fee-1111267484d9","ios":"levelo://app?vid=571880c0-0712-439e-9fee-1111267484d9"},"vehicle_type_id":"4","last_reported":1745724730,"current_range_meters":8400,"station_id":"","pricing_plan_id":"cebpf4jnsgd1na2vs0mg"},{"bike_id":"458f1985-19de-447d-8c20-91f354b4bc8c","system_id":"levelo_inurba_marseille","lat":43.26497,"lon":5.39549,"is_reserved":false,"is_disabled":false,"rental_uris":{"android":"levelo://app?vid=458f1985-19de-447d-8c20-91f354b4bc8c","ios":"levelo://app?vid=458f1985-19de-447d-8c20-91f354b4bc8c"},"vehicle_type_id":"4","last_reported":1745724730,"current_range_meters":8400,"station_id":"ce4bhi12rcd13ifvqfq0","pricing_plan_id":"cebpf4jnsgd1na2vs0mg"},{"bike_id":"b4b0266c-631d-4bc0-b722-43b22c86c85f","system_id":"levelo_inurba_marseille","lat":43.30976,"lon":5.41743,"is_reserved":false,"is_disabled":false,"rental_uris":{"android":"levelo://app?vid=b4b0266c-631d-4bc0-b722-43b22c86c85f","ios":"levelo://app?vid=b4b0266c-631d-4bc0-b722-43b22c86c85f"},"vehicle_type_id":"4","last_reported":1745724730,"current_range_meters":8400,"station_id":"","pricing_plan_id":"cebpf4jnsgd1na2vs0mg"},{"bike_id":"c886bc95-a9f4-4b08-af93-286cc6dbd1ea","system_id":"levelo_inurba_marseille","lat":43.24152,"lon":5.36463,"is_reserved":false,"is_disabled":false,"rental_uris":{"android":"levelo://app?vid=c886bc95-a9f4-4b08-af93-286cc6dbd1ea","ios":"levelo://app?vid=c886bc95-a9f4-4b08-af93-286cc6dbd1ea"},"vehicle_type_id":"4","last_reported":1745724730,"current_range_meters":8400,"station_id":"","pricing_plan_id":"cebpf4jnsgd1na2vs0mg"},{"bike_id":"3f485f12-ccbf-4cc6-bfee-26b7c2709069","system_id":"levelo_inurba_marseille","lat":43.28188,"lon":5.49066,"is_reserved":false,"is_disabled":false,"rental_uris":{"android":"levelo://app?vid=3f485f12-ccbf-4cc6-bfee-26b7c2709069","ios":"levelo://app?vid=3f485f12-ccbf-4cc6-bfee-26b7c2709069"},"vehicle_type_id":"4","last_reported":1745724730,"current_range_meters":8400,"station_id":"","pricing_plan_id":"cebpf4jnsgd1na2vs0mg"},{"bike_id":"e768aa58-f78c-4d48-862b-93a92cf87bd8","system_id":"levelo_inurba_marseille","lat":43.321181,"lon":5.367648,"is_reserved":false,"is_disabled":false,"rental_uris":{"android":"levelo://app?vid=e768aa58-f78c-4d48-862b-93a92cf87bd8","ios":"levelo://app?vid=e768aa58-f78c-4d48-862b-93a92cf87bd8"},"vehicle_type_id":"4","last_reported":1745724730,"current_range_meters":8800,"station_id":"ce4bhrh2rcd13ifvqhug","pricing_plan_id":"cebpf4jnsgd1na2vs0mg"},{"bike_id":"042a36cf-a68c-4f02-8fbe-a3d4f36fa492","system_id":"levelo_inurba_marseille","lat":43.211897,"lon":5.35074,"is_reserved":false,"is_disabled":false,"rental_uris":{"android":"levelo://app?vid=042a36cf-a68c-4f02-8fbe-a3d4f36fa492","ios":"levelo://app?vid=042a36cf-a68c-4f02-8fbe-a3d4f36fa492"},"vehicle_type_id":"4","last_reported":1745724730,"current_range_meters":8800,"station_id":"st_cvj6sg6p6f1abm77japg","pricing_plan_id":"cebpf4jnsgd1na2vs0mg"},{"bike_id":"60d0d4f4-f24a-4173-850c-0d18243bf392","system_id":"levelo_inurba_marseille","lat":43.26944,"lon":5.40238,"is_reserved":false,"is_disabled":false,"rental_uris":{"android":"levelo://app?vid=60d0d4f4-f24a-4173-850c-0d18243bf392","ios":"levelo://app?vid=60d0d4f4-f24a-4173-850c-0d18243bf392"},"vehicle_type_id":"4","last_reported":1745724730,"current_range_meters":8800,"station_id":"cjm6bp8fraef2m0cb0m0","pricing_plan_id":"cebpf4jnsgd1na2vs0mg"},{"bike_id":"84f9693e-5ab9-4497-970b-c392fec5e36d","system_id":"levelo_inurba_marseille","lat":43.25866,"lon":5.39925,"is_reserved":false,"is_disabled":false,"rental_uris":{"android":"levelo://app?vid=84f9693e-5ab9-4497-970b-c392fec5e36d","ios":"levelo://app?vid=84f9693e-5ab9-4497-970b-c392fec5e36d"},"vehicle_type_id":"4","last_reported":1745724730,"current_range_meters":8800,"station_id":"ce4bhl92rcd13ifvqghg","pricing_plan_id":"cebpf4jnsgd1na2vs0mg"},{"bike_id":"c1b1b433-bcb9-4a7d-8963-3218bcdcba1e","system_id":"levelo_inurba_marseille","lat":43.23364,"lon":5.36046,"is_reserved":false,"is_disabled":false,"rental_uris":{"android":"levelo://app?vid=c1b1b433-bcb9-4a7d-8963-3218bcdcba1e","ios":"levelo://app?vid=c1b1b433-bcb9-4a7d-8963-3218bcdcba1e"},"vehicle_type_id":"4","last_reported":1745724730,"current_range_meters":8800,"station_id":"","pricing_plan_id":"cebpf4jnsgd1na2vs0mg"},{"bike_id":"6d7cc870-ccfd-4f48-96fb-e8c1f82a64cc","system_id":"levelo_inurba_marseille","lat":43.2979,"lon":5.37146,"is_reserved":false,"is_disabled":true,"rental_uris":{"android":"levelo://app?vid=6d7cc870-ccfd-4f48-96fb-e8c1f82a64cc","ios":"levelo://app?vid=6d7cc870-ccfd-4f48-96fb-e8c1f82a64cc"},"vehicle_type_id":"4","last_reported":1745724730,"current_range_meters":9200,"station_id":"ce4bgop2rcd13ifvqc1g","pricing_plan_id":"cebpf4jnsgd1na2vs0mg"},{"bike_id":"b9527aa0-e123-40cc-9678-2b81cd662594","system_id":"levelo_inurba_marseille","lat":43.30932,"lon":5.40169,"is_reserved":false,"is_disabled":false,"rental_uris":{"android":"levelo://app?vid=b9527aa0-e123-40cc-9678-2b81cd662594","ios":"levelo://app?vid=b9527aa0-e123-40cc-9678-2b81cd662594"},"vehicle_type_id":"4","last_reported":1745724730,"current_range_meters":9200,"station_id":"ce4bgvp2rcd13ifvqct0","pricing_plan_id":"cebpf4jnsgd1na2vs0mg"},{"bike_id":"aa7dd23a-c50c-4359-a4fa-3d29c4576751","system_id":"levelo_inurba_marseille","lat":43.24156,"lon":5.36444,"is_reserved":false,"is_disabled":false,"rental_uris":{"android":"levelo://app?vid=aa7dd23a-c50c-4359-a4fa-3d29c4576751","ios":"levelo://app?vid=aa7dd23a-c50c-4359-a4fa-3d29c4576751"},"vehicle_type_id":"4","last_reported":1745724730,"current_range_meters":9200,"station_id":"cpo36qri1sfpv3e86is0","pricing_plan_id":"cebpf4jnsgd1na2vs0mg"},{"bike_id":"757a31c2-77e1-4627-a72e-6a5115a94e27","system_id":"levelo_inurba_marseille","lat":43.21747,"lon":5.34606,"is_reserved":false,"is_disabled":false,"rental_uris":{"android":"levelo://app?vid=757a31c2-77e1-4627-a72e-6a5115a94e27","ios":"levelo://app?vid=757a31c2-77e1-4627-a72e-6a5115a94e27"},"vehicle_type_id":"4","last_reported":1745724730,"current_range_meters":9200,"station_id":"st_cvj6r9ubvosntc0bgbag","pricing_plan_id":"cebpf4jnsgd1na2vs0mg"},{"bike_id":"2fac31c9-ecd4-4c07-9ea5-ab959ac9f813","system_id":"levelo_inurba_marseille","lat":43.2466,"lon":5.38181,"is_reserved":false,"is_disabled":true,"rental_uris":{"android":"levelo://app?vid=2fac31c9-ecd4-4c07-9ea5-ab959ac9f813","ios":"levelo://app?vid=2fac31c9-ecd4-4c07-9ea5-ab959ac9f813"},"vehicle_type_id":"4","last_reported":1745724730,"current_range_meters":9200,"station_id":"ce4bhih2rcd13ifvqfr0","pricing_plan_id":"cebpf4jnsgd1na2vs0mg"},{"bike_id":"9d24975d-5989-4c6e-bc54-bdc168e02c5f","system_id":"levelo_inurba_marseille","lat":43.24491,"lon":5.41159,"is_reserved":false,"is_disabled":false,"rental_uris":{"android":"levelo://app?vid=9d24975d-5989-4c6e-bc54-bdc168e02c5f","ios":"levelo://app?vid=9d24975d-5989-4c6e-bc54-bdc168e02c5f"},"vehicle_type_id":"4","last_reported":1745724730,"current_range_meters":9200,"station_id":"","pricing_plan_id":"cebpf4jnsgd1na2vs0mg"},{"bike_id":"190e2a44-d16f-4e6b-8e6a-22a9c30ba1bb","system_id":"levelo_inurba_marseille","lat":43.22478,"lon":5.34791,"is_reserved":false,"is_disabled":false,"rental_uris":{"android":"levelo://app?vid=190e2a44-d16f-4e6b-8e6a-22a9c30ba1bb","ios":"levelo://app?vid=190e2a44-d16f-4e6b-8e6a-22a9c30ba1bb"},"vehicle_type_id":"4","last_reported":1745724730,"current_range_meters":9200,"station_id":"st_cvj5dfep6f1abm77gieg","pricing_plan_id":"cebpf4jnsgd1na2vs0mg"},{"bike_id":"0cce7ea2-3151-4739-8e52-340c11e5c4e0","system_id":"levelo_inurba_marseille","lat":43.246693,"lon":5.381539,"is_reserved":false,"is_disabled":false,"rental_uris":{"android":"levelo://app?vid=0cce7ea2-3151-4739-8e52-340c11e5c4e0","ios":"levelo://app?vid=0cce7ea2-3151-4739-8e52-340c11e5c4e0"},"vehicle_type_id":"4","last_reported":1745724730,"current_range_meters":9600,"station_id":"ce4bhih2rcd13ifvqfr0","pricing_plan_id":"cebpf4jnsgd1na2vs0mg"},{"bike_id":"ac9de8e3-36ab-49a0-84b7-c5c7afc378d9","system_id":"levelo_inurba_marseille","lat":43.292771,"lon":5.401304,"is_reserved":false,"is_disabled":false,"rental_uris":{"android":"levelo://app?vid=ac9de8e3-36ab-49a0-84b7-c5c7afc378d9","ios":"levelo://app?vid=ac9de8e3-36ab-49a0-84b7-c5c7afc378d9"},"vehicle_type_id":"4","last_reported":1745724730,"current_range_meters":9600,"station_id":"ce4bh312rcd13ifvqdk0","pricing_plan_id":"cebpf4jnsgd1na2vs0mg"},{"bike_id":"3f8e74df-4b8a-4fe8-9f20-4fbe47605119","system_id":"levelo_inurba_marseille","lat":43.29034,"lon":5.3755,"is_reserved":false,"is_disabled":true,"rental_uris":{"android":"levelo://app?vid=3f8e74df-4b8a-4fe8-9f20-4fbe47605119","ios":"levelo://app?vid=3f8e74df-4b8a-4fe8-9f20-4fbe47605119"},"vehicle_type_id":"4","last_reported":1745724730,"current_range_meters":9600,"station_id":"ce4bh692rcd13ifvqe90","pricing_plan_id":"cebpf4jnsgd1na2vs0mg"},{"bike_id":"4e09e2f3-6329-4563-9a1f-79c5001029cb","system_id":"levelo_inurba_marseille","lat":43.32358,"lon":5.38892,"is_reserved":false,"is_disabled":false,"rental_uris":{"android":"levelo://app?vid=4e09e2f3-6329-4563-9a1f-79c5001029cb","ios":"levelo://app?vid=4e09e2f3-6329-4563-9a1f-79c5001029cb"},"vehicle_type_id":"4","last_reported":1745724730,"current_range_meters":9600,"station_id":"ce4bhqp2rcd13ifvqhog","pricing_plan_id":"cebpf4jnsgd1na2vs0mg"},{"bike_id":"ed537f9b-b1db-4f7f-87a1-1dbb18dd4577","system_id":"levelo_inurba_marseille","lat":43.3358,"lon":5.42833,"is_reserved":false,"is_disabled":false,"rental_uris":{"android":"levelo://app?vid=ed537f9b-b1db-4f7f-87a1-1dbb18dd4577","ios":"levelo://app?vid=ed537f9b-b1db-4f7f-87a1-1dbb18dd4577"},"vehicle_type_id":"4","last_reported":1745724730,"current_range_meters":9600,"station_id":"","pricing_plan_id":"cebpf4jnsgd1na2vs0mg"},{"bike_id":"3e8f967c-f41e-4797-a659-737e6711283c","system_id":"levelo_inurba_marseille","lat":43.24398,"lon":5.37063,"is_reserved":false,"is_disabled":false,"rental_uris":{"android":"levelo://app?vid=3e8f967c-f41e-4797-a659-737e6711283c","ios":"levelo://app?vid=3e8f967c-f41e-4797-a659-737e6711283c"},"vehicle_type_id":"4","last_reported":1745724730,"current_range_meters":9600,"station_id":"ce4bhhh2rcd13ifvqfk0","pricing_plan_id":"cebpf4jnsgd1na2vs0mg"},{"bike_id":"303a0bc9-5235-4359-8967-fcaa7c875634","system_id":"levelo_inurba_marseille","lat":43.28376,"lon":5.37531,"is_reserved":false,"is_disabled":false,"rental_uris":{"android":"levelo://app?vid=303a0bc9-5235-4359-8967-fcaa7c875634","ios":"levelo://app?vid=303a0bc9-5235-4359-8967-fcaa7c875634"},"vehicle_type_id":"4","last_reported":1745724730,"current_range_meters":10000,"station_id":"ce4bh412rcd13ifvqds0","pricing_plan_id":"cebpf4jnsgd1na2vs0mg"},{"bike_id":"b2cc3c0b-f417-4257-9c42-1d57f4b85cfd","system_id":"levelo_inurba_marseille","lat":43.32008,"lon":5.38112,"is_reserved":false,"is_disabled":false,"rental_uris":{"android":"levelo://app?vid=b2cc3c0b-f417-4257-9c42-1d57f4b85cfd","ios":"levelo://app?vid=b2cc3c0b-f417-4257-9c42-1d57f4b85cfd"},"vehicle_type_id":"4","last_reported":1745724730,"current_range_meters":10000,"station_id":"ce4bhr12rcd13ifvqhpg","pricing_plan_id":"cebpf4jnsgd1na2vs0mg"},{"bike_id":"c596ab54-4f89-4649-a442-12778ac8adc4","system_id":"levelo_inurba_marseille","lat":43.31705,"lon":5.43696,"is_reserved":false,"is_disabled":true,"rental_uris":{"android":"levelo://app?vid=c596ab54-4f89-4649-a442-12778ac8adc4","ios":"levelo://app?vid=c596ab54-4f89-4649-a442-12778ac8adc4"},"vehicle_type_id":"4","last_reported":1745724730,"current_range_meters":10000,"station_id":"ce4bhp92rcd13ifvqhcg","pricing_plan_id":"cebpf4jnsgd1na2vs0mg"},{"bike_id":"ccb58822-4bf1-4cf8-9190-ef7aee64397d","system_id":"levelo_inurba_marseille","lat":43.31109,"lon":5.37766,"is_reserved":false,"is_disabled":false,"rental_uris":{"android":"levelo://app?vid=ccb58822-4bf1-4cf8-9190-ef7aee64397d","ios":"levelo://app?vid=ccb58822-4bf1-4cf8-9190-ef7aee64397d"},"vehicle_type_id":"4","last_reported":1745724730,"current_range_meters":10000,"station_id":"ce4bgt92rcd13ifvqcg0","pricing_plan_id":"cebpf4jnsgd1na2vs0mg"},{"bike_id":"50567301-7660-45e4-9314-78fdd7ddbf96","system_id":"levelo_inurba_marseille","lat":43.30752,"lon":5.40943,"is_reserved":false,"is_disabled":false,"rental_uris":{"android":"levelo://app?vid=50567301-7660-45e4-9314-78fdd7ddbf96","ios":"levelo://app?vid=50567301-7660-45e4-9314-78fdd7ddbf96"},"vehicle_type_id":"4","last_reported":1745724730,"current_range_meters":10000,"station_id":"","pricing_plan_id":"cebpf4jnsgd1na2vs0mg"},{"bike_id":"c94f832f-a67d-4600-b7d7-74c917a28353","system_id":"levelo_inurba_marseille","lat":43.25578,"lon":5.38244,"is_reserved":false,"is_disabled":false,"rental_uris":{"android":"levelo://app?vid=c94f832f-a67d-4600-b7d7-74c917a28353","ios":"levelo://app?vid=c94f832f-a67d-4600-b7d7-74c917a28353"},"vehicle_type_id":"4","last_reported":1745724730,"current_range_meters":10000,"station_id":"ce4bhih2rcd13ifvqfs0","pricing_plan_id":"cebpf4jnsgd1na2vs0mg"},{"bike_id":"8267a175-b5cb-45e0-8d32-cc806f617854","system_id":"levelo_inurba_marseille","lat":43.30522,"lon":5.38899,"is_reserved":false,"is_disabled":false,"rental_uris":{"android":"levelo://app?vid=8267a175-b5cb-45e0-8d32-cc806f617854","ios":"levelo://app?vid=8267a175-b5cb-45e0-8d32-cc806f617854"},"vehicle_type_id":"4","last_reported":1745724730,"current_range_meters":10000,"station_id":"","pricing_plan_id":"cebpf4jnsgd1na2vs0mg"},{"bike_id":"5ddba1f1-1747-4179-b91f-b8778028cd60","system_id":"levelo_inurba_marseille","lat":43.25611,"lon":5.41198,"is_reserved":false,"is_disabled":false,"rental_uris":{"android":"levelo://app?vid=5ddba1f1-1747-4179-b91f-b8778028cd60","ios":"levelo://app?vid=5ddba1f1-1747-4179-b91f-b8778028cd60"},"vehicle_type_id":"4","last_reported":1745724730,"current_range_meters":10000,"station_id":"","pricing_plan_id":"cebpf4jnsgd1na2vs0mg"},{"bike_id":"df2cf5fe-ae71-4393-b101-92b911d9a985","system_id":"levelo_inurba_marseille","lat":43.27955,"lon":5.38686,"is_reserved":false,"is_disabled":false,"rental_uris":{"android":"levelo://app?vid=df2cf5fe-ae71-4393-b101-92b911d9a985","ios":"levelo://app?vid=df2cf5fe-ae71-4393-b101-92b911d9a985"},"vehicle_type_id":"4","last_reported":1745724730,"current_range_meters":10000,"station_id":"ce4bhg12rcd13ifvqf80","pricing_plan_id":"cebpf4jnsgd1na2vs0mg"},{"bike_id":"d8ad6217-9763-42dc-b54f-610fb581eb45","system_id":"levelo_inurba_marseille","lat":43.29258,"lon":5.40908,"is_reserved":false,"is_disabled":false,"rental_uris":{"android":"levelo://app?vid=d8ad6217-9763-42dc-b54f-610fb581eb45","ios":"levelo://app?vid=d8ad6217-9763-42dc-b54f-610fb581eb45"},"vehicle_type_id":"4","last_reported":1745724730,"current_range_meters":10800,"station_id":"ce4bh192rcd13ifvqdc0","pricing_plan_id":"cebpf4jnsgd1na2vs0mg"},{"bike_id":"3ca0e0b6-859b-407e-b779-010e38c1d06e","system_id":"levelo_inurba_marseille","lat":43.28396,"lon":5.3752,"is_reserved":false,"is_disabled":false,"rental_uris":{"android":"levelo://app?vid=3ca0e0b6-859b-407e-b779-010e38c1d06e","ios":"levelo://app?vid=3ca0e0b6-859b-407e-b779-010e38c1d06e"},"vehicle_type_id":"4","last_reported":1745724730,"current_range_meters":10800,"station_id":"ce4bh412rcd13ifvqds0","pricing_plan_id":"cebpf4jnsgd1na2vs0mg"},{"bike_id":"b987a002-7b79-4baf-97dd-64c49e459599","system_id":"levelo_inurba_marseille","lat":43.335985,"lon":5.410245,"is_reserved":false,"is_disabled":false,"rental_uris":{"android":"levelo://app?vid=b987a002-7b79-4baf-97dd-64c49e459599","ios":"levelo://app?vid=b987a002-7b79-4baf-97dd-64c49e459599"},"vehicle_type_id":"4","last_reported":1745724730,"current_range_meters":10800,"station_id":"ce4bhqh2rcd13ifvqhmg","pricing_plan_id":"cebpf4jnsgd1na2vs0mg"},{"bike_id":"437769dd-f842-483f-a971-b47c60bf1ac1","system_id":"levelo_inurba_marseille","lat":43.303,"lon":5.40437,"is_reserved":false,"is_disabled":false,"rental_uris":{"android":"levelo://app?vid=437769dd-f842-483f-a971-b47c60bf1ac1","ios":"levelo://app?vid=437769dd-f842-483f-a971-b47c60bf1ac1"},"vehicle_type_id":"4","last_reported":1745724730,"current_range_meters":10800,"station_id":"ce4bh012rcd13ifvqd10","pricing_plan_id":"cebpf4jnsgd1na2vs0mg"},{"bike_id":"736ee7d5-708e-48bd-8281-35bb85d0bc7d","system_id":"levelo_inurba_marseille","lat":43.28985,"lon":5.35596,"is_reserved":false,"is_disabled":true,"rental_uris":{"android":"levelo://app?vid=736ee7d5-708e-48bd-8281-35bb85d0bc7d","ios":"levelo://app?vid=736ee7d5-708e-48bd-8281-35bb85d0bc7d"},"vehicle_type_id":"4","last_reported":1745724730,"current_range_meters":10800,"station_id":"ce4bhb92rcd13ifvqen0","pricing_plan_id":"cebpf4jnsgd1na2vs0mg"},{"bike_id":"a695ed80-c122-4ba0-b0ec-f2098e8ddb09","system_id":"levelo_inurba_marseille","lat":43.33606,"lon":5.41019,"is_reserved":false,"is_disabled":false,"rental_uris":{"android":"levelo://app?vid=a695ed80-c122-4ba0-b0ec-f2098e8ddb09","ios":"levelo://app?vid=a695ed80-c122-4ba0-b0ec-f2098e8ddb09"},"vehicle_type_id":"4","last_reported":1745724730,"current_range_meters":10800,"station_id":"ce4bhqh2rcd13ifvqhmg","pricing_plan_id":"cebpf4jnsgd1na2vs0mg"},{"bike_id":"a07c8234-ee61-4ef8-a011-258b70c0cdf3","system_id":"levelo_inurba_marseille","lat":43.33568,"lon":5.41032,"is_reserved":false,"is_disabled":false,"rental_uris":{"android":"levelo://app?vid=a07c8234-ee61-4ef8-a011-258b70c0cdf3","ios":"levelo://app?vid=a07c8234-ee61-4ef8-a011-258b70c0cdf3"},"vehicle_type_id":"4","last_reported":1745724730,"current_range_meters":10800,"station_id":"","pricing_plan_id":"cebpf4jnsgd1na2vs0mg"},{"bike_id":"6432cf12-7374-4597-9940-3d891d136fdc","system_id":"levelo_inurba_marseille","lat":43.30114,"lon":5.39886,"is_reserved":false,"is_disabled":false,"rental_uris":{"android":"levelo://app?vid=6432cf12-7374-4597-9940-3d891d136fdc","ios":"levelo://app?vid=6432cf12-7374-4597-9940-3d891d136fdc"},"vehicle_type_id":"4","last_reported":1745724730,"current_range_meters":10800,"station_id":"ce4bh0h2rcd13ifvqd40","pricing_plan_id":"cebpf4jnsgd1na2vs0mg"},{"bike_id":"0a20c176-84ce-406c-b816-a20786a5492e","system_id":"levelo_inurba_marseille","lat":43.31701,"lon":5.37791,"is_reserved":false,"is_disabled":false,"rental_uris":{"android":"levelo://app?vid=0a20c176-84ce-406c-b816-a20786a5492e","ios":"levelo://app?vid=0a20c176-84ce-406c-b816-a20786a5492e"},"vehicle_type_id":"4","last_reported":1745724730,"current_range_meters":11200,"station_id":"ce4bgth2rcd13ifvqch0","pricing_plan_id":"cebpf4jnsgd1na2vs0mg"},{"bike_id":"60a58b16-450e-4564-abc4-c8500e2008e3","system_id":"levelo_inurba_marseille","lat":43.30931,"lon":5.40179,"is_reserved":false,"is_disabled":false,"rental_uris":{"android":"levelo://app?vid=60a58b16-450e-4564-abc4-c8500e2008e3","ios":"levelo://app?vid=60a58b16-450e-4564-abc4-c8500e2008e3"},"vehicle_type_id":"4","last_reported":1745724730,"current_range_meters":11200,"station_id":"ce4bgvp2rcd13ifvqct0","pricing_plan_id":"cebpf4jnsgd1na2vs0mg"},{"bike_id":"cecf372e-f99d-4092-9fb9-aba0fb187411","system_id":"levelo_inurba_marseille","lat":43.32354,"lon":5.38892,"is_reserved":false,"is_disabled":false,"rental_uris":{"android":"levelo://app?vid=cecf372e-f99d-4092-9fb9-aba0fb187411","ios":"levelo://app?vid=cecf372e-f99d-4092-9fb9-aba0fb187411"},"vehicle_type_id":"4","last_reported":1745724730,"current_range_meters":11200,"station_id":"ce4bhqp2rcd13ifvqhog","pricing_plan_id":"cebpf4jnsgd1na2vs0mg"},{"bike_id":"ac61834c-a10a-425e-9cdb-694af07bb25f","system_id":"levelo_inurba_marseille","lat":43.27932,"lon":5.38711,"is_reserved":false,"is_disabled":false,"rental_uris":{"android":"levelo://app?vid=ac61834c-a10a-425e-9cdb-694af07bb25f","ios":"levelo://app?vid=ac61834c-a10a-425e-9cdb-694af07bb25f"},"vehicle_type_id":"4","last_reported":1745724730,"current_range_meters":11200,"station_id":"ce4bhg12rcd13ifvqf80","pricing_plan_id":"cebpf4jnsgd1na2vs0mg"},{"bike_id":"104abf3f-067b-495c-bcba-476a9dddb48f","system_id":"levelo_inurba_marseille","lat":43.23149,"lon":5.43718,"is_reserved":false,"is_disabled":false,"rental_uris":{"android":"levelo://app?vid=104abf3f-067b-495c-bcba-476a9dddb48f","ios":"levelo://app?vid=104abf3f-067b-495c-bcba-476a9dddb48f"},"vehicle_type_id":"4","last_reported":1745724730,"current_range_meters":11200,"station_id":"ce4bhmp2rcd13ifvqgog","pricing_plan_id":"cebpf4jnsgd1na2vs0mg"},{"bike_id":"765b1b0e-d96e-43ab-919b-2620323cea8d","system_id":"levelo_inurba_marseille","lat":43.29272,"lon":5.40161,"is_reserved":false,"is_disabled":false,"rental_uris":{"android":"levelo://app?vid=765b1b0e-d96e-43ab-919b-2620323cea8d","ios":"levelo://app?vid=765b1b0e-d96e-43ab-919b-2620323cea8d"},"vehicle_type_id":"4","last_reported":1745724730,"current_range_meters":11600,"station_id":"ce4bh312rcd13ifvqdk0","pricing_plan_id":"cebpf4jnsgd1na2vs0mg"},{"bike_id":"a5752412-2b3a-495a-b554-2a3e08204a69","system_id":"levelo_inurba_marseille","lat":43.32293,"lon":5.38287,"is_reserved":false,"is_disabled":false,"rental_uris":{"android":"levelo://app?vid=a5752412-2b3a-495a-b554-2a3e08204a69","ios":"levelo://app?vid=a5752412-2b3a-495a-b554-2a3e08204a69"},"vehicle_type_id":"4","last_reported":1745724730,"current_range_meters":11600,"station_id":"ce4bhr12rcd13ifvqhqg","pricing_plan_id":"cebpf4jnsgd1na2vs0mg"},{"bike_id":"6f9efa22-6701-48b6-9dac-71701c013e89","system_id":"levelo_inurba_marseille","lat":43.279966,"lon":5.40004,"is_reserved":false,"is_disabled":false,"rental_uris":{"android":"levelo://app?vid=6f9efa22-6701-48b6-9dac-71701c013e89","ios":"levelo://app?vid=6f9efa22-6701-48b6-9dac-71701c013e89"},"vehicle_type_id":"4","last_reported":1745724730,"current_range_meters":11600,"station_id":"ce4bho92rcd13ifvqh4g","pricing_plan_id":"cebpf4jnsgd1na2vs0mg"},{"bike_id":"6d0f1c4b-cbb6-4ecc-b9c2-164566a35010","system_id":"levelo_inurba_marseille","lat":43.24178,"lon":5.39725,"is_reserved":false,"is_disabled":false,"rental_uris":{"android":"levelo://app?vid=6d0f1c4b-cbb6-4ecc-b9c2-164566a35010","ios":"levelo://app?vid=6d0f1c4b-cbb6-4ecc-b9c2-164566a35010"},"vehicle_type_id":"4","last_reported":1745724730,"current_range_meters":12000,"station_id":"ce4bhn12rcd13ifvqgpg","pricing_plan_id":"cebpf4jnsgd1na2vs0mg"},{"bike_id":"c8a7bdc5-8f70-419a-b2dd-cd8b6d350aa0","system_id":"levelo_inurba_marseille","lat":43.31467,"lon":5.37301,"is_reserved":false,"is_disabled":false,"rental_uris":{"android":"levelo://app?vid=c8a7bdc5-8f70-419a-b2dd-cd8b6d350aa0","ios":"levelo://app?vid=c8a7bdc5-8f70-419a-b2dd-cd8b6d350aa0"},"vehicle_type_id":"4","last_reported":1745724730,"current_range_meters":12000,"station_id":"ce4bgt12rcd13ifvqcd0","pricing_plan_id":"cebpf4jnsgd1na2vs0mg"},{"bike_id":"0799f71c-0bd9-4877-beaf-3ad98b2665ed","system_id":"levelo_inurba_marseille","lat":43.25719,"lon":5.41115,"is_reserved":false,"is_disabled":false,"rental_uris":{"android":"levelo://app?vid=0799f71c-0bd9-4877-beaf-3ad98b2665ed","ios":"levelo://app?vid=0799f71c-0bd9-4877-beaf-3ad98b2665ed"},"vehicle_type_id":"4","last_reported":1745724730,"current_range_meters":11600,"station_id":"ce4bhkp2rcd13ifvqgd0","pricing_plan_id":"cebpf4jnsgd1na2vs0mg"},{"bike_id":"dd3031e0-5272-497e-a41c-be7750e07327","system_id":"levelo_inurba_marseille","lat":43.30048,"lon":5.40227,"is_reserved":false,"is_disabled":false,"rental_uris":{"android":"levelo://app?vid=dd3031e0-5272-497e-a41c-be7750e07327","ios":"levelo://app?vid=dd3031e0-5272-497e-a41c-be7750e07327"},"vehicle_type_id":"4","last_reported":1745724730,"current_range_meters":12000,"station_id":"","pricing_plan_id":"cebpf4jnsgd1na2vs0mg"},{"bike_id":"15773708-82d1-4093-a964-e4465d2f612a","system_id":"levelo_inurba_marseille","lat":43.27943,"lon":5.41046,"is_reserved":false,"is_disabled":false,"rental_uris":{"android":"levelo://app?vid=15773708-82d1-4093-a964-e4465d2f612a","ios":"levelo://app?vid=15773708-82d1-4093-a964-e4465d2f612a"},"vehicle_type_id":"4","last_reported":1745724730,"current_range_meters":12000,"station_id":"ce4bhnp2rcd13ifvqh0g","pricing_plan_id":"cebpf4jnsgd1na2vs0mg"},{"bike_id":"dea15188-c098-4794-90f6-0fc4b187f745","system_id":"levelo_inurba_marseille","lat":43.30812,"lon":5.43528,"is_reserved":false,"is_disabled":false,"rental_uris":{"android":"levelo://app?vid=dea15188-c098-4794-90f6-0fc4b187f745","ios":"levelo://app?vid=dea15188-c098-4794-90f6-0fc4b187f745"},"vehicle_type_id":"4","last_reported":1745724730,"current_range_meters":12000,"station_id":"ce4bhph2rcd13ifvqheg","pricing_plan_id":"cebpf4jnsgd1na2vs0mg"},{"bike_id":"fede8b9f-33cf-4581-b8f5-66ad259c5ca4","system_id":"levelo_inurba_marseille","lat":43.30184,"lon":5.36613,"is_reserved":false,"is_disabled":false,"rental_uris":{"android":"levelo://app?vid=fede8b9f-33cf-4581-b8f5-66ad259c5ca4","ios":"levelo://app?vid=fede8b9f-33cf-4581-b8f5-66ad259c5ca4"},"vehicle_type_id":"4","last_reported":1745724730,"current_range_meters":12000,"station_id":"ce4bgrh2rcd13ifvqc8g","pricing_plan_id":"cebpf4jnsgd1na2vs0mg"},{"bike_id":"42271494-0173-4211-839d-54a91d38076d","system_id":"levelo_inurba_marseille","lat":43.2926,"lon":5.38435,"is_reserved":false,"is_disabled":false,"rental_uris":{"android":"levelo://app?vid=42271494-0173-4211-839d-54a91d38076d","ios":"levelo://app?vid=42271494-0173-4211-839d-54a91d38076d"},"vehicle_type_id":"4","last_reported":1745724730,"current_range_meters":12000,"station_id":"ce4bh692rcd13ifvqea0","pricing_plan_id":"cebpf4jnsgd1na2vs0mg"},{"bike_id":"f188ac66-fef7-4eee-844f-ab9aab80bfff","system_id":"levelo_inurba_marseille","lat":43.33614,"lon":5.41008,"is_reserved":false,"is_disabled":false,"rental_uris":{"android":"levelo://app?vid=f188ac66-fef7-4eee-844f-ab9aab80bfff","ios":"levelo://app?vid=f188ac66-fef7-4eee-844f-ab9aab80bfff"},"vehicle_type_id":"4","last_reported":1745724730,"current_range_meters":12400,"station_id":"ce4bhqh2rcd13ifvqhmg","pricing_plan_id":"cebpf4jnsgd1na2vs0mg"},{"bike_id":"15a4e1f4-4ca8-4bfa-b5d8-f744834c7deb","system_id":"levelo_inurba_marseille","lat":43.30929,"lon":5.40149,"is_reserved":false,"is_disabled":false,"rental_uris":{"android":"levelo://app?vid=15a4e1f4-4ca8-4bfa-b5d8-f744834c7deb","ios":"levelo://app?vid=15a4e1f4-4ca8-4bfa-b5d8-f744834c7deb"},"vehicle_type_id":"4","last_reported":1745724730,"current_range_meters":12400,"station_id":"ce4bgvp2rcd13ifvqct0","pricing_plan_id":"cebpf4jnsgd1na2vs0mg"},{"bike_id":"ec74b155-1065-4a53-a181-10d9f61c4403","system_id":"levelo_inurba_marseille","lat":43.2925,"lon":5.40912,"is_reserved":false,"is_disabled":false,"rental_uris":{"android":"levelo://app?vid=ec74b155-1065-4a53-a181-10d9f61c4403","ios":"levelo://app?vid=ec74b155-1065-4a53-a181-10d9f61c4403"},"vehicle_type_id":"4","last_reported":1745724730,"current_range_meters":12400,"station_id":"ce4bh192rcd13ifvqdc0","pricing_plan_id":"cebpf4jnsgd1na2vs0mg"},{"bike_id":"10f1716c-0792-4c36-b001-2ec5369ab54e","system_id":"levelo_inurba_marseille","lat":43.28397,"lon":5.37528,"is_reserved":false,"is_disabled":false,"rental_uris":{"android":"levelo://app?vid=10f1716c-0792-4c36-b001-2ec5369ab54e","ios":"levelo://app?vid=10f1716c-0792-4c36-b001-2ec5369ab54e"},"vehicle_type_id":"4","last_reported":1745724730,"current_range_meters":12400,"station_id":"ce4bh412rcd13ifvqds0","pricing_plan_id":"cebpf4jnsgd1na2vs0mg"},{"bike_id":"135d60b1-b88b-42d5-b681-d9bae1e781b4","system_id":"levelo_inurba_marseille","lat":43.310783,"lon":5.383508,"is_reserved":false,"is_disabled":false,"rental_uris":{"android":"levelo://app?vid=135d60b1-b88b-42d5-b681-d9bae1e781b4","ios":"levelo://app?vid=135d60b1-b88b-42d5-b681-d9bae1e781b4"},"vehicle_type_id":"4","last_reported":1745724730,"current_range_meters":12400,"station_id":"ce4bgv92rcd13ifvqcr0","pricing_plan_id":"cebpf4jnsgd1na2vs0mg"},{"bike_id":"2437b117-bcc1-4f0e-afd1-eadb7828182e","system_id":"levelo_inurba_marseille","lat":43.26677,"lon":5.38272,"is_reserved":false,"is_disabled":false,"rental_uris":{"android":"levelo://app?vid=2437b117-bcc1-4f0e-afd1-eadb7828182e","ios":"levelo://app?vid=2437b117-bcc1-4f0e-afd1-eadb7828182e"},"vehicle_type_id":"4","last_reported":1745724730,"current_range_meters":12400,"station_id":"ce4bhg92rcd13ifvqf90","pricing_plan_id":"cebpf4jnsgd1na2vs0mg"},{"bike_id":"0053b840-de47-4900-98aa-cc8575176b05","system_id":"levelo_inurba_marseille","lat":43.24161,"lon":5.36416,"is_reserved":false,"is_disabled":true,"rental_uris":{"android":"levelo://app?vid=0053b840-de47-4900-98aa-cc8575176b05","ios":"levelo://app?vid=0053b840-de47-4900-98aa-cc8575176b05"},"vehicle_type_id":"4","last_reported":1745724730,"current_range_meters":12800,"station_id":"cpo36qri1sfpv3e86is0","pricing_plan_id":"cebpf4jnsgd1na2vs0mg"},{"bike_id":"fe22ad41-f12d-49f0-854c-6528daf9acc2","system_id":"levelo_inurba_marseille","lat":43.28559,"lon":5.39494,"is_reserved":false,"is_disabled":false,"rental_uris":{"android":"levelo://app?vid=fe22ad41-f12d-49f0-854c-6528daf9acc2","ios":"levelo://app?vid=fe22ad41-f12d-49f0-854c-6528daf9acc2"},"vehicle_type_id":"4","last_reported":1745724730,"current_range_meters":12800,"station_id":"ce4bh292rcd13ifvqdg0","pricing_plan_id":"cebpf4jnsgd1na2vs0mg"},{"bike_id":"41f345a9-75d9-4676-b56c-6e8ef96547ca","system_id":"levelo_inurba_marseille","lat":43.24051,"lon":5.378,"is_reserved":false,"is_disabled":false,"rental_uris":{"android":"levelo://app?vid=41f345a9-75d9-4676-b56c-6e8ef96547ca","ios":"levelo://app?vid=41f345a9-75d9-4676-b56c-6e8ef96547ca"},"vehicle_type_id":"4","last_reported":1745724730,"current_range_meters":12800,"station_id":"ce4bhnp2rcd13ifvqgvg","pricing_plan_id":"cebpf4jnsgd1na2vs0mg"},{"bike_id":"9740f2a9-cf08-4e00-bc94-257624b51834","system_id":"levelo_inurba_marseille","lat":43.2845,"lon":5.35891,"is_reserved":false,"is_disabled":false,"rental_uris":{"android":"levelo://app?vid=9740f2a9-cf08-4e00-bc94-257624b51834","ios":"levelo://app?vid=9740f2a9-cf08-4e00-bc94-257624b51834"},"vehicle_type_id":"4","last_reported":1745724730,"current_range_meters":12800,"station_id":"ce4bhah2rcd13ifvqei0","pricing_plan_id":"cebpf4jnsgd1na2vs0mg"},{"bike_id":"8840b7d1-badd-45b4-91db-50feaeb6b7ed","system_id":"levelo_inurba_marseille","lat":43.310414,"lon":5.367147,"is_reserved":false,"is_disabled":false,"rental_uris":{"android":"levelo://app?vid=8840b7d1-badd-45b4-91db-50feaeb6b7ed","ios":"levelo://app?vid=8840b7d1-badd-45b4-91db-50feaeb6b7ed"},"vehicle_type_id":"4","last_reported":1745724730,"current_range_meters":12800,"station_id":"","pricing_plan_id":"cebpf4jnsgd1na2vs0mg"},{"bike_id":"bc5bf057-b3d3-47dd-9451-7a6678eb8d95","system_id":"levelo_inurba_marseille","lat":43.28941,"lon":5.39625,"is_reserved":false,"is_disabled":false,"rental_uris":{"android":"levelo://app?vid=bc5bf057-b3d3-47dd-9451-7a6678eb8d95","ios":"levelo://app?vid=bc5bf057-b3d3-47dd-9451-7a6678eb8d95"},"vehicle_type_id":"4","last_reported":1745724730,"current_range_meters":13600,"station_id":"ce4bh3h2rcd13ifvqdn0","pricing_plan_id":"cebpf4jnsgd1na2vs0mg"},{"bike_id":"9abb17dc-2e3c-4a5a-a7fd-6a6a572d1b3d","system_id":"levelo_inurba_marseille","lat":43.287226,"lon":5.3999,"is_reserved":false,"is_disabled":false,"rental_uris":{"android":"levelo://app?vid=9abb17dc-2e3c-4a5a-a7fd-6a6a572d1b3d","ios":"levelo://app?vid=9abb17dc-2e3c-4a5a-a7fd-6a6a572d1b3d"},"vehicle_type_id":"4","last_reported":1745724730,"current_range_meters":13600,"station_id":"ce4bho92rcd13ifvqh3g","pricing_plan_id":"cebpf4jnsgd1na2vs0mg"},{"bike_id":"ae1d96a0-b0a2-41e1-be14-e78907f9338a","system_id":"levelo_inurba_marseille","lat":43.29493,"lon":5.39429,"is_reserved":false,"is_disabled":true,"rental_uris":{"android":"levelo://app?vid=ae1d96a0-b0a2-41e1-be14-e78907f9338a","ios":"levelo://app?vid=ae1d96a0-b0a2-41e1-be14-e78907f9338a"},"vehicle_type_id":"4","last_reported":1745724730,"current_range_meters":13600,"station_id":"ce4bh292rcd13ifvqdf0","pricing_plan_id":"cebpf4jnsgd1na2vs0mg"},{"bike_id":"af4a97e0-dded-4da0-9eba-7bcd01c44383","system_id":"levelo_inurba_marseille","lat":43.30292,"lon":5.39214,"is_reserved":false,"is_disabled":true,"rental_uris":{"android":"levelo://app?vid=af4a97e0-dded-4da0-9eba-7bcd01c44383","ios":"levelo://app?vid=af4a97e0-dded-4da0-9eba-7bcd01c44383"},"vehicle_type_id":"4","last_reported":1745724730,"current_range_meters":13600,"station_id":"ce4bgkh2rcd13ifvqbk0","pricing_plan_id":"cebpf4jnsgd1na2vs0mg"},{"bike_id":"21a5b78b-6652-49fa-a8ee-70531791ccf1","system_id":"levelo_inurba_marseille","lat":43.24865,"lon":5.42526,"is_reserved":false,"is_disabled":false,"rental_uris":{"android":"levelo://app?vid=21a5b78b-6652-49fa-a8ee-70531791ccf1","ios":"levelo://app?vid=21a5b78b-6652-49fa-a8ee-70531791ccf1"},"vehicle_type_id":"4","last_reported":1745724730,"current_range_meters":13600,"station_id":"","pricing_plan_id":"cebpf4jnsgd1na2vs0mg"},{"bike_id":"bc19f80b-40fb-44eb-a75a-c1aab4c2a4c8","system_id":"levelo_inurba_marseille","lat":43.262085,"lon":5.374393,"is_reserved":false,"is_disabled":false,"rental_uris":{"android":"levelo://app?vid=bc19f80b-40fb-44eb-a75a-c1aab4c2a4c8","ios":"levelo://app?vid=bc19f80b-40fb-44eb-a75a-c1aab4c2a4c8"},"vehicle_type_id":"4","last_reported":1745724730,"current_range_meters":13600,"station_id":"ce4bhgp2rcd13ifvqfc0","pricing_plan_id":"cebpf4jnsgd1na2vs0mg"},{"bike_id":"6503b4a9-33c7-49b4-8fcb-373f096cecb1","system_id":"levelo_inurba_marseille","lat":43.25724,"lon":5.41108,"is_reserved":false,"is_disabled":false,"rental_uris":{"android":"levelo://app?vid=6503b4a9-33c7-49b4-8fcb-373f096cecb1","ios":"levelo://app?vid=6503b4a9-33c7-49b4-8fcb-373f096cecb1"},"vehicle_type_id":"4","last_reported":1745724730,"current_range_meters":13600,"station_id":"ce4bhkp2rcd13ifvqgd0","pricing_plan_id":"cebpf4jnsgd1na2vs0mg"},{"bike_id":"91474842-32bf-45c2-856a-80fd91d22aa5","system_id":"levelo_inurba_marseille","lat":43.211901,"lon":5.350759,"is_reserved":false,"is_disabled":false,"rental_uris":{"android":"levelo://app?vid=91474842-32bf-45c2-856a-80fd91d22aa5","ios":"levelo://app?vid=91474842-32bf-45c2-856a-80fd91d22aa5"},"vehicle_type_id":"4","last_reported":1745724730,"current_range_meters":13600,"station_id":"st_cvj6sg6p6f1abm77japg","pricing_plan_id":"cebpf4jnsgd1na2vs0mg"},{"bike_id":"30288cb7-e849-4b02-8ab1-96deccfd974f","system_id":"levelo_inurba_marseille","lat":43.23953,"lon":5.36635,"is_reserved":false,"is_disabled":false,"rental_uris":{"android":"levelo://app?vid=30288cb7-e849-4b02-8ab1-96deccfd974f","ios":"levelo://app?vid=30288cb7-e849-4b02-8ab1-96deccfd974f"},"vehicle_type_id":"4","last_reported":1745724730,"current_range_meters":14000,"station_id":"ce4bhi12rcd13ifvqfp0","pricing_plan_id":"cebpf4jnsgd1na2vs0mg"},{"bike_id":"47859ae8-4157-419a-a068-4625ada059ba","system_id":"levelo_inurba_marseille","lat":43.26216,"lon":5.40487,"is_reserved":false,"is_disabled":false,"rental_uris":{"android":"levelo://app?vid=47859ae8-4157-419a-a068-4625ada059ba","ios":"levelo://app?vid=47859ae8-4157-419a-a068-4625ada059ba"},"vehicle_type_id":"4","last_reported":1745724730,"current_range_meters":14000,"station_id":"ce4bhmh2rcd13ifvqgmg","pricing_plan_id":"cebpf4jnsgd1na2vs0mg"},{"bike_id":"ed705789-0f0d-49d6-b81c-9868871746ab","system_id":"levelo_inurba_marseille","lat":43.217449,"lon":5.346061,"is_reserved":false,"is_disabled":true,"rental_uris":{"android":"levelo://app?vid=ed705789-0f0d-49d6-b81c-9868871746ab","ios":"levelo://app?vid=ed705789-0f0d-49d6-b81c-9868871746ab"},"vehicle_type_id":"4","last_reported":1745724730,"current_range_meters":14000,"station_id":"ce4bhbp2rcd13ifvqesg","pricing_plan_id":"cebpf4jnsgd1na2vs0mg"},{"bike_id":"8f6f9e39-bb29-4339-bfa4-a9d237fc9c9e","system_id":"levelo_inurba_marseille","lat":43.26778,"lon":5.3941,"is_reserved":false,"is_disabled":false,"rental_uris":{"android":"levelo://app?vid=8f6f9e39-bb29-4339-bfa4-a9d237fc9c9e","ios":"levelo://app?vid=8f6f9e39-bb29-4339-bfa4-a9d237fc9c9e"},"vehicle_type_id":"4","last_reported":1745724730,"current_range_meters":14000,"station_id":"ce4bhh12rcd13ifvqfg0","pricing_plan_id":"cebpf4jnsgd1na2vs0mg"},{"bike_id":"eef1e15c-ad62-483d-a88a-6602293efd51","system_id":"levelo_inurba_marseille","lat":43.29278,"lon":5.40169,"is_reserved":false,"is_disabled":false,"rental_uris":{"android":"levelo://app?vid=eef1e15c-ad62-483d-a88a-6602293efd51","ios":"levelo://app?vid=eef1e15c-ad62-483d-a88a-6602293efd51"},"vehicle_type_id":"4","last_reported":1745724730,"current_range_meters":14400,"station_id":"ce4bh312rcd13ifvqdk0","pricing_plan_id":"cebpf4jnsgd1na2vs0mg"},{"bike_id":"a08e6535-7d97-4f82-b424-5e6daf2d2362","system_id":"levelo_inurba_marseille","lat":43.29499,"lon":5.39423,"is_reserved":false,"is_disabled":true,"rental_uris":{"android":"levelo://app?vid=a08e6535-7d97-4f82-b424-5e6daf2d2362","ios":"levelo://app?vid=a08e6535-7d97-4f82-b424-5e6daf2d2362"},"vehicle_type_id":"4","last_reported":1745724730,"current_range_meters":14400,"station_id":"ce4bh292rcd13ifvqdf0","pricing_plan_id":"cebpf4jnsgd1na2vs0mg"},{"bike_id":"49e0d52b-4e80-46ce-bdc2-e9d6da2fa326","system_id":"levelo_inurba_marseille","lat":43.22482,"lon":5.34795,"is_reserved":false,"is_disabled":false,"rental_uris":{"android":"levelo://app?vid=49e0d52b-4e80-46ce-bdc2-e9d6da2fa326","ios":"levelo://app?vid=49e0d52b-4e80-46ce-bdc2-e9d6da2fa326"},"vehicle_type_id":"4","last_reported":1745724730,"current_range_meters":14400,"station_id":"st_cvj5dfep6f1abm77gieg","pricing_plan_id":"cebpf4jnsgd1na2vs0mg"},{"bike_id":"3deeaf00-3852-4940-b764-733ed923641b","system_id":"levelo_inurba_marseille","lat":43.241724,"lon":5.397396,"is_reserved":false,"is_disabled":false,"rental_uris":{"android":"levelo://app?vid=3deeaf00-3852-4940-b764-733ed923641b","ios":"levelo://app?vid=3deeaf00-3852-4940-b764-733ed923641b"},"vehicle_type_id":"4","last_reported":1745724730,"current_range_meters":14400,"station_id":"ce4bhn12rcd13ifvqgpg","pricing_plan_id":"cebpf4jnsgd1na2vs0mg"},{"bike_id":"dca35924-9704-4de4-8acb-8ca8648e331f","system_id":"levelo_inurba_marseille","lat":43.287091,"lon":5.39983,"is_reserved":false,"is_disabled":false,"rental_uris":{"android":"levelo://app?vid=dca35924-9704-4de4-8acb-8ca8648e331f","ios":"levelo://app?vid=dca35924-9704-4de4-8acb-8ca8648e331f"},"vehicle_type_id":"4","last_reported":1745724730,"current_range_meters":15200,"station_id":"ce4bho92rcd13ifvqh3g","pricing_plan_id":"cebpf4jnsgd1na2vs0mg"},{"bike_id":"5fba67da-67b4-4811-aa42-2ba548abf90a","system_id":"levelo_inurba_marseille","lat":43.31333,"lon":5.39721,"is_reserved":false,"is_disabled":false,"rental_uris":{"android":"levelo://app?vid=5fba67da-67b4-4811-aa42-2ba548abf90a","ios":"levelo://app?vid=5fba67da-67b4-4811-aa42-2ba548abf90a"},"vehicle_type_id":"4","last_reported":1745724730,"current_range_meters":15200,"station_id":"ce4bgvp2rcd13ifvqcu0","pricing_plan_id":"cebpf4jnsgd1na2vs0mg"},{"bike_id":"e1266fd1-6f50-4884-8aec-ff12d75a8cba","system_id":"levelo_inurba_marseille","lat":43.27062,"lon":5.40261,"is_reserved":false,"is_disabled":false,"rental_uris":{"android":"levelo://app?vid=e1266fd1-6f50-4884-8aec-ff12d75a8cba","ios":"levelo://app?vid=e1266fd1-6f50-4884-8aec-ff12d75a8cba"},"vehicle_type_id":"4","last_reported":1745724730,"current_range_meters":15200,"station_id":"ce4bhk92rcd13ifvqgc0","pricing_plan_id":"cebpf4jnsgd1na2vs0mg"},{"bike_id":"560f12bb-1614-4d7c-b78e-ccf5bdec9ea6","system_id":"levelo_inurba_marseille","lat":43.28463,"lon":5.35888,"is_reserved":false,"is_disabled":true,"rental_uris":{"android":"levelo://app?vid=560f12bb-1614-4d7c-b78e-ccf5bdec9ea6","ios":"levelo://app?vid=560f12bb-1614-4d7c-b78e-ccf5bdec9ea6"},"vehicle_type_id":"4","last_reported":1745724730,"current_range_meters":15200,"station_id":"ce4bhah2rcd13ifvqei0","pricing_plan_id":"cebpf4jnsgd1na2vs0mg"},{"bike_id":"356b76a1-af1a-4bef-951e-98e5b057a721","system_id":"levelo_inurba_marseille","lat":43.29259,"lon":5.384299,"is_reserved":false,"is_disabled":true,"rental_uris":{"android":"levelo://app?vid=356b76a1-af1a-4bef-951e-98e5b057a721","ios":"levelo://app?vid=356b76a1-af1a-4bef-951e-98e5b057a721"},"vehicle_type_id":"4","last_reported":1745724730,"current_range_meters":16000,"station_id":"ce4bh692rcd13ifvqea0","pricing_plan_id":"cebpf4jnsgd1na2vs0mg"},{"bike_id":"8962f977-d05b-4126-9dca-069ff6c38b83","system_id":"levelo_inurba_marseille","lat":43.284583,"lon":5.3589,"is_reserved":false,"is_disabled":false,"rental_uris":{"android":"levelo://app?vid=8962f977-d05b-4126-9dca-069ff6c38b83","ios":"levelo://app?vid=8962f977-d05b-4126-9dca-069ff6c38b83"},"vehicle_type_id":"4","last_reported":1745724730,"current_range_meters":16000,"station_id":"ce4bhah2rcd13ifvqei0","pricing_plan_id":"cebpf4jnsgd1na2vs0mg"},{"bike_id":"9111363c-e358-4cc0-9632-937d6be3578a","system_id":"levelo_inurba_marseille","lat":43.27994,"lon":5.40006,"is_reserved":false,"is_disabled":false,"rental_uris":{"android":"levelo://app?vid=9111363c-e358-4cc0-9632-937d6be3578a","ios":"levelo://app?vid=9111363c-e358-4cc0-9632-937d6be3578a"},"vehicle_type_id":"4","last_reported":1745724730,"current_range_meters":16000,"station_id":"ce4bho92rcd13ifvqh4g","pricing_plan_id":"cebpf4jnsgd1na2vs0mg"},{"bike_id":"404f4fcf-8e92-4a5e-b7ed-32fce94ff05c","system_id":"levelo_inurba_marseille","lat":43.3074,"lon":5.37654,"is_reserved":false,"is_disabled":false,"rental_uris":{"android":"levelo://app?vid=404f4fcf-8e92-4a5e-b7ed-32fce94ff05c","ios":"levelo://app?vid=404f4fcf-8e92-4a5e-b7ed-32fce94ff05c"},"vehicle_type_id":"4","last_reported":1745724730,"current_range_meters":16000,"station_id":"","pricing_plan_id":"cebpf4jnsgd1na2vs0mg"},{"bike_id":"ab4e547d-abb4-4c6a-9258-31195eb2ff87","system_id":"levelo_inurba_marseille","lat":43.30936,"lon":5.40145,"is_reserved":false,"is_disabled":false,"rental_uris":{"android":"levelo://app?vid=ab4e547d-abb4-4c6a-9258-31195eb2ff87","ios":"levelo://app?vid=ab4e547d-abb4-4c6a-9258-31195eb2ff87"},"vehicle_type_id":"4","last_reported":1745724730,"current_range_meters":16000,"station_id":"ce4bgvp2rcd13ifvqct0","pricing_plan_id":"cebpf4jnsgd1na2vs0mg"},{"bike_id":"e2ebe0b4-27e2-4f46-bdf4-e1916df46672","system_id":"levelo_inurba_marseille","lat":43.31771,"lon":5.40602,"is_reserved":false,"is_disabled":false,"rental_uris":{"android":"levelo://app?vid=e2ebe0b4-27e2-4f46-bdf4-e1916df46672","ios":"levelo://app?vid=e2ebe0b4-27e2-4f46-bdf4-e1916df46672"},"vehicle_type_id":"4","last_reported":1745724730,"current_range_meters":16000,"station_id":"","pricing_plan_id":"cebpf4jnsgd1na2vs0mg"},{"bike_id":"a3cb0bcc-45ee-4fcb-b255-43e5e09b7dd7","system_id":"levelo_inurba_marseille","lat":43.278166,"lon":5.406987,"is_reserved":false,"is_disabled":false,"rental_uris":{"android":"levelo://app?vid=a3cb0bcc-45ee-4fcb-b255-43e5e09b7dd7","ios":"levelo://app?vid=a3cb0bcc-45ee-4fcb-b255-43e5e09b7dd7"},"vehicle_type_id":"4","last_reported":1745724730,"current_range_meters":16400,"station_id":"ce4bhnh2rcd13ifvqgtg","pricing_plan_id":"cebpf4jnsgd1na2vs0mg"},{"bike_id":"1259d0ac-3d61-4d30-b265-ca729a6366f6","system_id":"levelo_inurba_marseille","lat":43.284076,"lon":5.374959,"is_reserved":false,"is_disabled":false,"rental_uris":{"android":"levelo://app?vid=1259d0ac-3d61-4d30-b265-ca729a6366f6","ios":"levelo://app?vid=1259d0ac-3d61-4d30-b265-ca729a6366f6"},"vehicle_type_id":"4","last_reported":1745724730,"current_range_meters":16400,"station_id":"ce4bh412rcd13ifvqds0","pricing_plan_id":"cebpf4jnsgd1na2vs0mg"},{"bike_id":"cf0d47bd-81d3-4c57-82db-02956e138e59","system_id":"levelo_inurba_marseille","lat":43.323554,"lon":5.388897,"is_reserved":false,"is_disabled":false,"rental_uris":{"android":"levelo://app?vid=cf0d47bd-81d3-4c57-82db-02956e138e59","ios":"levelo://app?vid=cf0d47bd-81d3-4c57-82db-02956e138e59"},"vehicle_type_id":"4","last_reported":1745724730,"current_range_meters":16400,"station_id":"ce4bhqp2rcd13ifvqhog","pricing_plan_id":"cebpf4jnsgd1na2vs0mg"},{"bike_id":"f546c8e4-de69-45ac-a662-7fcf89ae6709","system_id":"levelo_inurba_marseille","lat":43.31129,"lon":5.37754,"is_reserved":false,"is_disabled":false,"rental_uris":{"android":"levelo://app?vid=f546c8e4-de69-45ac-a662-7fcf89ae6709","ios":"levelo://app?vid=f546c8e4-de69-45ac-a662-7fcf89ae6709"},"vehicle_type_id":"4","last_reported":1745724730,"current_range_meters":16400,"station_id":"ce4bgt92rcd13ifvqcg0","pricing_plan_id":"cebpf4jnsgd1na2vs0mg"},{"bike_id":"57ebd52c-bbc8-4a4d-8d80-2da8f6250dbd","system_id":"levelo_inurba_marseille","lat":43.27841,"lon":5.40774,"is_reserved":false,"is_disabled":true,"rental_uris":{"android":"levelo://app?vid=57ebd52c-bbc8-4a4d-8d80-2da8f6250dbd","ios":"levelo://app?vid=57ebd52c-bbc8-4a4d-8d80-2da8f6250dbd"},"vehicle_type_id":"4","last_reported":1745724730,"current_range_meters":16400,"station_id":"ce4bhnh2rcd13ifvqgtg","pricing_plan_id":"cebpf4jnsgd1na2vs0mg"},{"bike_id":"6a699c14-7c95-4e68-88a5-1a55ef87175b","system_id":"levelo_inurba_marseille","lat":43.30244,"lon":5.40072,"is_reserved":false,"is_disabled":false,"rental_uris":{"android":"levelo://app?vid=6a699c14-7c95-4e68-88a5-1a55ef87175b","ios":"levelo://app?vid=6a699c14-7c95-4e68-88a5-1a55ef87175b"},"vehicle_type_id":"4","last_reported":1745724730,"current_range_meters":16400,"station_id":"ce4bgvh2rcd13ifvqcs0","pricing_plan_id":"cebpf4jnsgd1na2vs0mg"},{"bike_id":"edb7787a-c68b-4c3c-a204-0dcc8d513b0d","system_id":"levelo_inurba_marseille","lat":43.246697,"lon":5.381633,"is_reserved":false,"is_disabled":false,"rental_uris":{"android":"levelo://app?vid=edb7787a-c68b-4c3c-a204-0dcc8d513b0d","ios":"levelo://app?vid=edb7787a-c68b-4c3c-a204-0dcc8d513b0d"},"vehicle_type_id":"4","last_reported":1745724730,"current_range_meters":16800,"station_id":"ce4bhih2rcd13ifvqfr0","pricing_plan_id":"cebpf4jnsgd1na2vs0mg"},{"bike_id":"a7198c19-fdc9-4a7a-95e0-a894ca54152c","system_id":"levelo_inurba_marseille","lat":43.30974,"lon":5.41722,"is_reserved":false,"is_disabled":false,"rental_uris":{"android":"levelo://app?vid=a7198c19-fdc9-4a7a-95e0-a894ca54152c","ios":"levelo://app?vid=a7198c19-fdc9-4a7a-95e0-a894ca54152c"},"vehicle_type_id":"4","last_reported":1745724730,"current_range_meters":16800,"station_id":"","pricing_plan_id":"cebpf4jnsgd1na2vs0mg"},{"bike_id":"268dd2c6-408f-4f64-b8d0-799d00701d15","system_id":"levelo_inurba_marseille","lat":43.30886,"lon":5.39639,"is_reserved":false,"is_disabled":false,"rental_uris":{"android":"levelo://app?vid=268dd2c6-408f-4f64-b8d0-799d00701d15","ios":"levelo://app?vid=268dd2c6-408f-4f64-b8d0-799d00701d15"},"vehicle_type_id":"4","last_reported":1745724730,"current_range_meters":16800,"station_id":"ce4bh012rcd13ifvqcv0","pricing_plan_id":"cebpf4jnsgd1na2vs0mg"},{"bike_id":"4fbf14ff-174c-4119-a734-32c176af6ba8","system_id":"levelo_inurba_marseille","lat":43.28472,"lon":5.38565,"is_reserved":false,"is_disabled":false,"rental_uris":{"android":"levelo://app?vid=4fbf14ff-174c-4119-a734-32c176af6ba8","ios":"levelo://app?vid=4fbf14ff-174c-4119-a734-32c176af6ba8"},"vehicle_type_id":"4","last_reported":1745724730,"current_range_meters":16800,"station_id":"ce4bh8p2rcd13ifvqeb0","pricing_plan_id":"cebpf4jnsgd1na2vs0mg"},{"bike_id":"65c86752-8cfb-4ebc-bdc8-3ddd8997a6d1","system_id":"levelo_inurba_marseille","lat":43.251132,"lon":5.40322,"is_reserved":false,"is_disabled":false,"rental_uris":{"android":"levelo://app?vid=65c86752-8cfb-4ebc-bdc8-3ddd8997a6d1","ios":"levelo://app?vid=65c86752-8cfb-4ebc-bdc8-3ddd8997a6d1"},"vehicle_type_id":"4","last_reported":1745724730,"current_range_meters":16800,"station_id":"ce4bhlh2rcd13ifvqgig","pricing_plan_id":"cebpf4jnsgd1na2vs0mg"},{"bike_id":"a6ef5e73-9c2a-4c3a-b853-48e28d6dc161","system_id":"levelo_inurba_marseille","lat":43.31712,"lon":5.43709,"is_reserved":false,"is_disabled":true,"rental_uris":{"android":"levelo://app?vid=a6ef5e73-9c2a-4c3a-b853-48e28d6dc161","ios":"levelo://app?vid=a6ef5e73-9c2a-4c3a-b853-48e28d6dc161"},"vehicle_type_id":"4","last_reported":1745724730,"current_range_meters":16800,"station_id":"ce4bhp92rcd13ifvqhcg","pricing_plan_id":"cebpf4jnsgd1na2vs0mg"},{"bike_id":"a3f1bad3-5904-4057-b6b9-fc62eeda1372","system_id":"levelo_inurba_marseille","lat":43.28655,"lon":5.3639,"is_reserved":false,"is_disabled":false,"rental_uris":{"android":"levelo://app?vid=a3f1bad3-5904-4057-b6b9-fc62eeda1372","ios":"levelo://app?vid=a3f1bad3-5904-4057-b6b9-fc62eeda1372"},"vehicle_type_id":"4","last_reported":1745724730,"current_range_meters":16800,"station_id":"ce4bhah2rcd13ifvqej0","pricing_plan_id":"cebpf4jnsgd1na2vs0mg"},{"bike_id":"b330c3b4-8203-49c9-a4bf-5485d09a1d2d","system_id":"levelo_inurba_marseille","lat":43.30185,"lon":5.39472,"is_reserved":false,"is_disabled":true,"rental_uris":{"android":"levelo://app?vid=b330c3b4-8203-49c9-a4bf-5485d09a1d2d","ios":"levelo://app?vid=b330c3b4-8203-49c9-a4bf-5485d09a1d2d"},"vehicle_type_id":"4","last_reported":1745724730,"current_range_meters":16800,"station_id":"ce4bh0p2rcd13ifvqd70","pricing_plan_id":"cebpf4jnsgd1na2vs0mg"},{"bike_id":"1395a92c-16cc-43f6-88c3-2f1342e75423","system_id":"levelo_inurba_marseille","lat":43.26842,"lon":5.40284,"is_reserved":false,"is_disabled":false,"rental_uris":{"android":"levelo://app?vid=1395a92c-16cc-43f6-88c3-2f1342e75423","ios":"levelo://app?vid=1395a92c-16cc-43f6-88c3-2f1342e75423"},"vehicle_type_id":"4","last_reported":1745724730,"current_range_meters":17200,"station_id":"cjm6bp8fraef2m0cb0m0","pricing_plan_id":"cebpf4jnsgd1na2vs0mg"},{"bike_id":"5c449a82-7dfe-47e8-8bac-0b7fcee87ac1","system_id":"levelo_inurba_marseille","lat":43.29278,"lon":5.40144,"is_reserved":false,"is_disabled":false,"rental_uris":{"android":"levelo://app?vid=5c449a82-7dfe-47e8-8bac-0b7fcee87ac1","ios":"levelo://app?vid=5c449a82-7dfe-47e8-8bac-0b7fcee87ac1"},"vehicle_type_id":"4","last_reported":1745724730,"current_range_meters":17200,"station_id":"ce4bh312rcd13ifvqdk0","pricing_plan_id":"cebpf4jnsgd1na2vs0mg"},{"bike_id":"b673c4dd-5bdb-48a9-9acf-4d4837707a29","system_id":"levelo_inurba_marseille","lat":43.31467,"lon":5.37299,"is_reserved":false,"is_disabled":false,"rental_uris":{"android":"levelo://app?vid=b673c4dd-5bdb-48a9-9acf-4d4837707a29","ios":"levelo://app?vid=b673c4dd-5bdb-48a9-9acf-4d4837707a29"},"vehicle_type_id":"4","last_reported":1745724730,"current_range_meters":17200,"station_id":"ce4bgt12rcd13ifvqcd0","pricing_plan_id":"cebpf4jnsgd1na2vs0mg"},{"bike_id":"0d777af5-4166-475a-a6b9-6a0197032592","system_id":"levelo_inurba_marseille","lat":43.23257,"lon":5.35215,"is_reserved":false,"is_disabled":false,"rental_uris":{"android":"levelo://app?vid=0d777af5-4166-475a-a6b9-6a0197032592","ios":"levelo://app?vid=0d777af5-4166-475a-a6b9-6a0197032592"},"vehicle_type_id":"4","last_reported":1745724730,"current_range_meters":17200,"station_id":"","pricing_plan_id":"cebpf4jnsgd1na2vs0mg"},{"bike_id":"2d419c17-3847-4945-8602-833976c2d402","system_id":"levelo_inurba_marseille","lat":43.25578,"lon":5.38245,"is_reserved":false,"is_disabled":false,"rental_uris":{"android":"levelo://app?vid=2d419c17-3847-4945-8602-833976c2d402","ios":"levelo://app?vid=2d419c17-3847-4945-8602-833976c2d402"},"vehicle_type_id":"4","last_reported":1745724730,"current_range_meters":17200,"station_id":"ce4bhih2rcd13ifvqfs0","pricing_plan_id":"cebpf4jnsgd1na2vs0mg"},{"bike_id":"3d934169-6946-46cc-87a4-ce5d03b77075","system_id":"levelo_inurba_marseille","lat":43.217582,"lon":5.345886,"is_reserved":false,"is_disabled":false,"rental_uris":{"android":"levelo://app?vid=3d934169-6946-46cc-87a4-ce5d03b77075","ios":"levelo://app?vid=3d934169-6946-46cc-87a4-ce5d03b77075"},"vehicle_type_id":"4","last_reported":1745724730,"current_range_meters":17200,"station_id":"st_cvj6r9ubvosntc0bgbag","pricing_plan_id":"cebpf4jnsgd1na2vs0mg"},{"bike_id":"389fa13e-9fb8-4551-94cc-3437e858ed36","system_id":"levelo_inurba_marseille","lat":43.24159,"lon":5.36414,"is_reserved":false,"is_disabled":false,"rental_uris":{"android":"levelo://app?vid=389fa13e-9fb8-4551-94cc-3437e858ed36","ios":"levelo://app?vid=389fa13e-9fb8-4551-94cc-3437e858ed36"},"vehicle_type_id":"4","last_reported":1745724730,"current_range_meters":17200,"station_id":"cpo36qri1sfpv3e86is0","pricing_plan_id":"cebpf4jnsgd1na2vs0mg"},{"bike_id":"c8c66532-2a3d-48eb-b64a-4db7feb05563","system_id":"levelo_inurba_marseille","lat":43.3133,"lon":5.39741,"is_reserved":false,"is_disabled":false,"rental_uris":{"android":"levelo://app?vid=c8c66532-2a3d-48eb-b64a-4db7feb05563","ios":"levelo://app?vid=c8c66532-2a3d-48eb-b64a-4db7feb05563"},"vehicle_type_id":"4","last_reported":1745724730,"current_range_meters":17200,"station_id":"ce4bgvp2rcd13ifvqcu0","pricing_plan_id":"cebpf4jnsgd1na2vs0mg"},{"bike_id":"1fe84233-d6e6-400c-ba7e-765c53207954","system_id":"levelo_inurba_marseille","lat":43.26038,"lon":5.39418,"is_reserved":false,"is_disabled":false,"rental_uris":{"android":"levelo://app?vid=1fe84233-d6e6-400c-ba7e-765c53207954","ios":"levelo://app?vid=1fe84233-d6e6-400c-ba7e-765c53207954"},"vehicle_type_id":"4","last_reported":1745724730,"current_range_meters":17200,"station_id":"ce4bhh92rcd13ifvqfj0","pricing_plan_id":"cebpf4jnsgd1na2vs0mg"},{"bike_id":"99be1414-58ff-4752-826b-d0dcc4401711","system_id":"levelo_inurba_marseille","lat":43.248073,"lon":5.374841,"is_reserved":false,"is_disabled":true,"rental_uris":{"android":"levelo://app?vid=99be1414-58ff-4752-826b-d0dcc4401711","ios":"levelo://app?vid=99be1414-58ff-4752-826b-d0dcc4401711"},"vehicle_type_id":"4","last_reported":1745724730,"current_range_meters":17200,"station_id":"ce4bhgh2rcd13ifvqfb0","pricing_plan_id":"cebpf4jnsgd1na2vs0mg"},{"bike_id":"c5e82df4-aef9-4ded-b24b-229adde6bcd9","system_id":"levelo_inurba_marseille","lat":43.29254,"lon":5.38444,"is_reserved":false,"is_disabled":false,"rental_uris":{"android":"levelo://app?vid=c5e82df4-aef9-4ded-b24b-229adde6bcd9","ios":"levelo://app?vid=c5e82df4-aef9-4ded-b24b-229adde6bcd9"},"vehicle_type_id":"4","last_reported":1745724730,"current_range_meters":17200,"station_id":"ce4bh692rcd13ifvqea0","pricing_plan_id":"cebpf4jnsgd1na2vs0mg"},{"bike_id":"54ef469b-623b-470e-a64d-656e0475c23d","system_id":"levelo_inurba_marseille","lat":43.30642,"lon":5.40092,"is_reserved":false,"is_disabled":false,"rental_uris":{"android":"levelo://app?vid=54ef469b-623b-470e-a64d-656e0475c23d","ios":"levelo://app?vid=54ef469b-623b-470e-a64d-656e0475c23d"},"vehicle_type_id":"4","last_reported":1745724730,"current_range_meters":17600,"station_id":"ce4bh112rcd13ifvqda0","pricing_plan_id":"cebpf4jnsgd1na2vs0mg"},{"bike_id":"36894e47-6a3e-44a3-a461-a4c4abe0aa7d","system_id":"levelo_inurba_marseille","lat":43.33701,"lon":5.39201,"is_reserved":false,"is_disabled":false,"rental_uris":{"android":"levelo://app?vid=36894e47-6a3e-44a3-a461-a4c4abe0aa7d","ios":"levelo://app?vid=36894e47-6a3e-44a3-a461-a4c4abe0aa7d"},"vehicle_type_id":"4","last_reported":1745724730,"current_range_meters":17600,"station_id":"ce4bhr92rcd13ifvqhsg","pricing_plan_id":"cebpf4jnsgd1na2vs0mg"},{"bike_id":"a95d8854-01ac-456e-90b1-05dcac86d2ec","system_id":"levelo_inurba_marseille","lat":43.29797,"lon":5.4041,"is_reserved":false,"is_disabled":false,"rental_uris":{"android":"levelo://app?vid=a95d8854-01ac-456e-90b1-05dcac86d2ec","ios":"levelo://app?vid=a95d8854-01ac-456e-90b1-05dcac86d2ec"},"vehicle_type_id":"4","last_reported":1745724730,"current_range_meters":17600,"station_id":"ce4bh112rcd13ifvqd90","pricing_plan_id":"cebpf4jnsgd1na2vs0mg"},{"bike_id":"a2157019-5dd6-4ed7-9538-28603ba5a141","system_id":"levelo_inurba_marseille","lat":43.30924,"lon":5.40188,"is_reserved":false,"is_disabled":false,"rental_uris":{"android":"levelo://app?vid=a2157019-5dd6-4ed7-9538-28603ba5a141","ios":"levelo://app?vid=a2157019-5dd6-4ed7-9538-28603ba5a141"},"vehicle_type_id":"4","last_reported":1745724730,"current_range_meters":17600,"station_id":"ce4bgvp2rcd13ifvqct0","pricing_plan_id":"cebpf4jnsgd1na2vs0mg"},{"bike_id":"d611f28a-88fc-4696-8f1a-350a4bd9ef77","system_id":"levelo_inurba_marseille","lat":43.30927,"lon":5.40154,"is_reserved":false,"is_disabled":false,"rental_uris":{"android":"levelo://app?vid=d611f28a-88fc-4696-8f1a-350a4bd9ef77","ios":"levelo://app?vid=d611f28a-88fc-4696-8f1a-350a4bd9ef77"},"vehicle_type_id":"4","last_reported":1745724730,"current_range_meters":17600,"station_id":"ce4bgvp2rcd13ifvqct0","pricing_plan_id":"cebpf4jnsgd1na2vs0mg"},{"bike_id":"b8b283a3-f0bb-4b6a-8588-f7b70d0c87cc","system_id":"levelo_inurba_marseille","lat":43.31505,"lon":5.37295,"is_reserved":false,"is_disabled":false,"rental_uris":{"android":"levelo://app?vid=b8b283a3-f0bb-4b6a-8588-f7b70d0c87cc","ios":"levelo://app?vid=b8b283a3-f0bb-4b6a-8588-f7b70d0c87cc"},"vehicle_type_id":"4","last_reported":1745724730,"current_range_meters":18000,"station_id":"ce4bgt12rcd13ifvqcd0","pricing_plan_id":"cebpf4jnsgd1na2vs0mg"},{"bike_id":"7223ae38-d76a-4e78-8f72-e2a57ad53906","system_id":"levelo_inurba_marseille","lat":43.25718,"lon":5.41114,"is_reserved":false,"is_disabled":false,"rental_uris":{"android":"levelo://app?vid=7223ae38-d76a-4e78-8f72-e2a57ad53906","ios":"levelo://app?vid=7223ae38-d76a-4e78-8f72-e2a57ad53906"},"vehicle_type_id":"4","last_reported":1745724730,"current_range_meters":18000,"station_id":"ce4bhkp2rcd13ifvqgd0","pricing_plan_id":"cebpf4jnsgd1na2vs0mg"},{"bike_id":"39e60548-37a4-4fcf-a3ae-8e7ab84a9c0a","system_id":"levelo_inurba_marseille","lat":43.24659,"lon":5.38173,"is_reserved":false,"is_disabled":false,"rental_uris":{"android":"levelo://app?vid=39e60548-37a4-4fcf-a3ae-8e7ab84a9c0a","ios":"levelo://app?vid=39e60548-37a4-4fcf-a3ae-8e7ab84a9c0a"},"vehicle_type_id":"4","last_reported":1745724730,"current_range_meters":18000,"station_id":"ce4bhih2rcd13ifvqfr0","pricing_plan_id":"cebpf4jnsgd1na2vs0mg"},{"bike_id":"6bbd2eb5-fa3d-4f4a-97f6-fbe4ace325a7","system_id":"levelo_inurba_marseille","lat":43.26801,"lon":5.40269,"is_reserved":false,"is_disabled":false,"rental_uris":{"android":"levelo://app?vid=6bbd2eb5-fa3d-4f4a-97f6-fbe4ace325a7","ios":"levelo://app?vid=6bbd2eb5-fa3d-4f4a-97f6-fbe4ace325a7"},"vehicle_type_id":"4","last_reported":1745724730,"current_range_meters":18000,"station_id":"ce501612rcd8frsf0b60","pricing_plan_id":"cebpf4jnsgd1na2vs0mg"},{"bike_id":"4046a82f-66e8-4b55-bd0a-356edea772d8","system_id":"levelo_inurba_marseille","lat":43.30589,"lon":5.38153,"is_reserved":false,"is_disabled":false,"rental_uris":{"android":"levelo://app?vid=4046a82f-66e8-4b55-bd0a-356edea772d8","ios":"levelo://app?vid=4046a82f-66e8-4b55-bd0a-356edea772d8"},"vehicle_type_id":"4","last_reported":1745724730,"current_range_meters":18800,"station_id":"","pricing_plan_id":"cebpf4jnsgd1na2vs0mg"},{"bike_id":"6ed78adf-a90b-4b8a-9e24-777004c0bdb6","system_id":"levelo_inurba_marseille","lat":43.23192,"lon":5.39975,"is_reserved":false,"is_disabled":false,"rental_uris":{"android":"levelo://app?vid=6ed78adf-a90b-4b8a-9e24-777004c0bdb6","ios":"levelo://app?vid=6ed78adf-a90b-4b8a-9e24-777004c0bdb6"},"vehicle_type_id":"4","last_reported":1745724730,"current_range_meters":18800,"station_id":"ce4bhn12rcd13ifvqgqg","pricing_plan_id":"cebpf4jnsgd1na2vs0mg"},{"bike_id":"02ba490b-c1b2-4c3d-8d40-7133faeeb47c","system_id":"levelo_inurba_marseille","lat":43.29568,"lon":5.42273,"is_reserved":false,"is_disabled":false,"rental_uris":{"android":"levelo://app?vid=02ba490b-c1b2-4c3d-8d40-7133faeeb47c","ios":"levelo://app?vid=02ba490b-c1b2-4c3d-8d40-7133faeeb47c"},"vehicle_type_id":"4","last_reported":1745724730,"current_range_meters":18800,"station_id":"ce4bhph2rcd13ifvqhdg","pricing_plan_id":"cebpf4jnsgd1na2vs0mg"},{"bike_id":"97f36b89-3f79-4d54-80b9-0001fe6da6bb","system_id":"levelo_inurba_marseille","lat":43.32445,"lon":5.39134,"is_reserved":false,"is_disabled":true,"rental_uris":{"android":"levelo://app?vid=97f36b89-3f79-4d54-80b9-0001fe6da6bb","ios":"levelo://app?vid=97f36b89-3f79-4d54-80b9-0001fe6da6bb"},"vehicle_type_id":"4","last_reported":1745724730,"current_range_meters":18800,"station_id":"","pricing_plan_id":"cebpf4jnsgd1na2vs0mg"},{"bike_id":"b6fa6dbe-9038-49ed-9332-07858da86a12","system_id":"levelo_inurba_marseille","lat":43.30639,"lon":5.40096,"is_reserved":false,"is_disabled":false,"rental_uris":{"android":"levelo://app?vid=b6fa6dbe-9038-49ed-9332-07858da86a12","ios":"levelo://app?vid=b6fa6dbe-9038-49ed-9332-07858da86a12"},"vehicle_type_id":"4","last_reported":1745724730,"current_range_meters":18800,"station_id":"ce4bh112rcd13ifvqda0","pricing_plan_id":"cebpf4jnsgd1na2vs0mg"},{"bike_id":"346329e4-517d-48cb-ad8a-1f6e92030cf7","system_id":"levelo_inurba_marseille","lat":43.2318,"lon":5.39991,"is_reserved":false,"is_disabled":false,"rental_uris":{"android":"levelo://app?vid=346329e4-517d-48cb-ad8a-1f6e92030cf7","ios":"levelo://app?vid=346329e4-517d-48cb-ad8a-1f6e92030cf7"},"vehicle_type_id":"4","last_reported":1745724730,"current_range_meters":19200,"station_id":"ce4bhn12rcd13ifvqgqg","pricing_plan_id":"cebpf4jnsgd1na2vs0mg"},{"bike_id":"78cb7f0e-bdd1-4934-9dc6-fe66b1ce023c","system_id":"levelo_inurba_marseille","lat":43.26215,"lon":5.40471,"is_reserved":false,"is_disabled":false,"rental_uris":{"android":"levelo://app?vid=78cb7f0e-bdd1-4934-9dc6-fe66b1ce023c","ios":"levelo://app?vid=78cb7f0e-bdd1-4934-9dc6-fe66b1ce023c"},"vehicle_type_id":"4","last_reported":1745724730,"current_range_meters":19200,"station_id":"ce4bhmh2rcd13ifvqgmg","pricing_plan_id":"cebpf4jnsgd1na2vs0mg"},{"bike_id":"5de8e137-bb1d-4eee-9753-053c4ffede48","system_id":"levelo_inurba_marseille","lat":43.30315,"lon":5.40453,"is_reserved":false,"is_disabled":false,"rental_uris":{"android":"levelo://app?vid=5de8e137-bb1d-4eee-9753-053c4ffede48","ios":"levelo://app?vid=5de8e137-bb1d-4eee-9753-053c4ffede48"},"vehicle_type_id":"4","last_reported":1745724730,"current_range_meters":19200,"station_id":"ce4bh012rcd13ifvqd10","pricing_plan_id":"cebpf4jnsgd1na2vs0mg"},{"bike_id":"97fd7a4c-36e8-401d-b12d-1b4015a01ebe","system_id":"levelo_inurba_marseille","lat":43.26559,"lon":5.42101,"is_reserved":false,"is_disabled":false,"rental_uris":{"android":"levelo://app?vid=97fd7a4c-36e8-401d-b12d-1b4015a01ebe","ios":"levelo://app?vid=97fd7a4c-36e8-401d-b12d-1b4015a01ebe"},"vehicle_type_id":"4","last_reported":1745724730,"current_range_meters":19200,"station_id":"","pricing_plan_id":"cebpf4jnsgd1na2vs0mg"},{"bike_id":"6d593226-0a2e-46d4-8de3-9c8bd9d3e674","system_id":"levelo_inurba_marseille","lat":43.2976,"lon":5.3811,"is_reserved":false,"is_disabled":true,"rental_uris":{"android":"levelo://app?vid=6d593226-0a2e-46d4-8de3-9c8bd9d3e674","ios":"levelo://app?vid=6d593226-0a2e-46d4-8de3-9c8bd9d3e674"},"vehicle_type_id":"4","last_reported":1745724730,"current_range_meters":19200,"station_id":"ce4bgip2rcd13ifvqbb0","pricing_plan_id":"cebpf4jnsgd1na2vs0mg"},{"bike_id":"a1300fa1-43f7-47bc-be68-1621591c429e","system_id":"levelo_inurba_marseille","lat":43.25004,"lon":5.38924,"is_reserved":false,"is_disabled":true,"rental_uris":{"android":"levelo://app?vid=a1300fa1-43f7-47bc-be68-1621591c429e","ios":"levelo://app?vid=a1300fa1-43f7-47bc-be68-1621591c429e"},"vehicle_type_id":"4","last_reported":1745724730,"current_range_meters":19200,"station_id":"ce4bhgp2rcd13ifvqfd0","pricing_plan_id":"cebpf4jnsgd1na2vs0mg"},{"bike_id":"b532cbc6-d603-4b6c-8eb1-6da63ec873ab","system_id":"levelo_inurba_marseille","lat":43.27069,"lon":5.40279,"is_reserved":false,"is_disabled":false,"rental_uris":{"android":"levelo://app?vid=b532cbc6-d603-4b6c-8eb1-6da63ec873ab","ios":"levelo://app?vid=b532cbc6-d603-4b6c-8eb1-6da63ec873ab"},"vehicle_type_id":"4","last_reported":1745724730,"current_range_meters":19200,"station_id":"ce4bhk92rcd13ifvqgc0","pricing_plan_id":"cebpf4jnsgd1na2vs0mg"},{"bike_id":"b5374913-2d8e-4340-9ef3-bca67eedae7f","system_id":"levelo_inurba_marseille","lat":43.25928,"lon":5.40919,"is_reserved":false,"is_disabled":false,"rental_uris":{"android":"levelo://app?vid=b5374913-2d8e-4340-9ef3-bca67eedae7f","ios":"levelo://app?vid=b5374913-2d8e-4340-9ef3-bca67eedae7f"},"vehicle_type_id":"4","last_reported":1745724730,"current_range_meters":19600,"station_id":"ce4bhm92rcd13ifvqglg","pricing_plan_id":"cebpf4jnsgd1na2vs0mg"},{"bike_id":"e492037e-60a9-4864-84d6-2fe9ea031f90","system_id":"levelo_inurba_marseille","lat":43.27955,"lon":5.38733,"is_reserved":false,"is_disabled":false,"rental_uris":{"android":"levelo://app?vid=e492037e-60a9-4864-84d6-2fe9ea031f90","ios":"levelo://app?vid=e492037e-60a9-4864-84d6-2fe9ea031f90"},"vehicle_type_id":"4","last_reported":1745724730,"current_range_meters":19600,"station_id":"ce4bhg12rcd13ifvqf80","pricing_plan_id":"cebpf4jnsgd1na2vs0mg"},{"bike_id":"3e0c5218-ad89-4244-bd59-34472db353ef","system_id":"levelo_inurba_marseille","lat":43.28676,"lon":5.36355,"is_reserved":false,"is_disabled":false,"rental_uris":{"android":"levelo://app?vid=3e0c5218-ad89-4244-bd59-34472db353ef","ios":"levelo://app?vid=3e0c5218-ad89-4244-bd59-34472db353ef"},"vehicle_type_id":"4","last_reported":1745724730,"current_range_meters":19600,"station_id":"ce4bhah2rcd13ifvqej0","pricing_plan_id":"cebpf4jnsgd1na2vs0mg"},{"bike_id":"d8e186e0-8d9f-4c16-bb12-3c50f63fd666","system_id":"levelo_inurba_marseille","lat":43.27496,"lon":5.42459,"is_reserved":false,"is_disabled":false,"rental_uris":{"android":"levelo://app?vid=d8e186e0-8d9f-4c16-bb12-3c50f63fd666","ios":"levelo://app?vid=d8e186e0-8d9f-4c16-bb12-3c50f63fd666"},"vehicle_type_id":"4","last_reported":1745724730,"current_range_meters":19600,"station_id":"ce4bhn92rcd13ifvqgrg","pricing_plan_id":"cebpf4jnsgd1na2vs0mg"},{"bike_id":"181ed326-b471-49b5-9f00-acd48cb5b299","system_id":"levelo_inurba_marseille","lat":43.28261,"lon":5.35084,"is_reserved":false,"is_disabled":true,"rental_uris":{"android":"levelo://app?vid=181ed326-b471-49b5-9f00-acd48cb5b299","ios":"levelo://app?vid=181ed326-b471-49b5-9f00-acd48cb5b299"},"vehicle_type_id":"4","last_reported":1745724730,"current_range_meters":19600,"station_id":"ce4bhbp2rcd13ifvqerg","pricing_plan_id":"cebpf4jnsgd1na2vs0mg"},{"bike_id":"2bd0f814-6d80-4a31-b310-ad829281cc90","system_id":"levelo_inurba_marseille","lat":43.22488,"lon":5.34774,"is_reserved":false,"is_disabled":false,"rental_uris":{"android":"levelo://app?vid=2bd0f814-6d80-4a31-b310-ad829281cc90","ios":"levelo://app?vid=2bd0f814-6d80-4a31-b310-ad829281cc90"},"vehicle_type_id":"4","last_reported":1745724730,"current_range_meters":20000,"station_id":"st_cvj5dfep6f1abm77gieg","pricing_plan_id":"cebpf4jnsgd1na2vs0mg"},{"bike_id":"20a88ef9-4f5b-4473-9f43-f6963739d380","system_id":"levelo_inurba_marseille","lat":43.26498,"lon":5.39542,"is_reserved":false,"is_disabled":false,"rental_uris":{"android":"levelo://app?vid=20a88ef9-4f5b-4473-9f43-f6963739d380","ios":"levelo://app?vid=20a88ef9-4f5b-4473-9f43-f6963739d380"},"vehicle_type_id":"4","last_reported":1745724730,"current_range_meters":20000,"station_id":"ce4bhi12rcd13ifvqfq0","pricing_plan_id":"cebpf4jnsgd1na2vs0mg"},{"bike_id":"89fa9ebf-c855-4df0-9b21-5c145a393657","system_id":"levelo_inurba_marseille","lat":43.3111,"lon":5.3775,"is_reserved":false,"is_disabled":false,"rental_uris":{"android":"levelo://app?vid=89fa9ebf-c855-4df0-9b21-5c145a393657","ios":"levelo://app?vid=89fa9ebf-c855-4df0-9b21-5c145a393657"},"vehicle_type_id":"4","last_reported":1745724730,"current_range_meters":20000,"station_id":"ce4bgt92rcd13ifvqcg0","pricing_plan_id":"cebpf4jnsgd1na2vs0mg"},{"bike_id":"a41c67de-46c6-41c8-9b96-d6f14df0c30a","system_id":"levelo_inurba_marseille","lat":43.2649,"lon":5.39554,"is_reserved":false,"is_disabled":false,"rental_uris":{"android":"levelo://app?vid=a41c67de-46c6-41c8-9b96-d6f14df0c30a","ios":"levelo://app?vid=a41c67de-46c6-41c8-9b96-d6f14df0c30a"},"vehicle_type_id":"4","last_reported":1745724730,"current_range_meters":20000,"station_id":"ce4bhi12rcd13ifvqfq0","pricing_plan_id":"cebpf4jnsgd1na2vs0mg"},{"bike_id":"586ad13c-53a6-4799-8583-2ba9ce1a1095","system_id":"levelo_inurba_marseille","lat":43.30974,"lon":5.41733,"is_reserved":false,"is_disabled":false,"rental_uris":{"android":"levelo://app?vid=586ad13c-53a6-4799-8583-2ba9ce1a1095","ios":"levelo://app?vid=586ad13c-53a6-4799-8583-2ba9ce1a1095"},"vehicle_type_id":"4","last_reported":1745724730,"current_range_meters":20000,"station_id":"","pricing_plan_id":"cebpf4jnsgd1na2vs0mg"},{"bike_id":"a5113190-8aa4-4e01-8e98-56dac68a5439","system_id":"levelo_inurba_marseille","lat":43.26954,"lon":5.38636,"is_reserved":false,"is_disabled":false,"rental_uris":{"android":"levelo://app?vid=a5113190-8aa4-4e01-8e98-56dac68a5439","ios":"levelo://app?vid=a5113190-8aa4-4e01-8e98-56dac68a5439"},"vehicle_type_id":"4","last_reported":1745724730,"current_range_meters":19600,"station_id":"ce4bhh92rcd13ifvqfh0","pricing_plan_id":"cebpf4jnsgd1na2vs0mg"},{"bike_id":"958aead2-341b-497f-b287-6fa68d17f30a","system_id":"levelo_inurba_marseille","lat":43.29265,"lon":5.40183,"is_reserved":false,"is_disabled":false,"rental_uris":{"android":"levelo://app?vid=958aead2-341b-497f-b287-6fa68d17f30a","ios":"levelo://app?vid=958aead2-341b-497f-b287-6fa68d17f30a"},"vehicle_type_id":"4","last_reported":1745724730,"current_range_meters":20000,"station_id":"ce4bh312rcd13ifvqdk0","pricing_plan_id":"cebpf4jnsgd1na2vs0mg"},{"bike_id":"3d5facd1-5cc8-48bc-8409-2c37e8b5872c","system_id":"levelo_inurba_marseille","lat":43.251068,"lon":5.403235,"is_reserved":false,"is_disabled":false,"rental_uris":{"android":"levelo://app?vid=3d5facd1-5cc8-48bc-8409-2c37e8b5872c","ios":"levelo://app?vid=3d5facd1-5cc8-48bc-8409-2c37e8b5872c"},"vehicle_type_id":"4","last_reported":1745724730,"current_range_meters":20000,"station_id":"ce4bh412rcd13ifvqdr0","pricing_plan_id":"cebpf4jnsgd1na2vs0mg"},{"bike_id":"4508fac8-20ad-40ae-8ce9-c4bc893ea97b","system_id":"levelo_inurba_marseille","lat":43.27065,"lon":5.42286,"is_reserved":false,"is_disabled":false,"rental_uris":{"android":"levelo://app?vid=4508fac8-20ad-40ae-8ce9-c4bc893ea97b","ios":"levelo://app?vid=4508fac8-20ad-40ae-8ce9-c4bc893ea97b"},"vehicle_type_id":"4","last_reported":1745724730,"current_range_meters":20000,"station_id":"ce4bhk92rcd13ifvqgb0","pricing_plan_id":"cebpf4jnsgd1na2vs0mg"},{"bike_id":"6d9e6bcd-d12c-4436-9898-cbe3ca658211","system_id":"levelo_inurba_marseille","lat":43.22485,"lon":5.34783,"is_reserved":false,"is_disabled":false,"rental_uris":{"android":"levelo://app?vid=6d9e6bcd-d12c-4436-9898-cbe3ca658211","ios":"levelo://app?vid=6d9e6bcd-d12c-4436-9898-cbe3ca658211"},"vehicle_type_id":"4","last_reported":1745724730,"current_range_meters":20000,"station_id":"st_cvj5dfep6f1abm77gieg","pricing_plan_id":"cebpf4jnsgd1na2vs0mg"},{"bike_id":"5e29bb99-7a29-4bbf-a514-99195c8fa20f","system_id":"levelo_inurba_marseille","lat":43.29858,"lon":5.4369,"is_reserved":false,"is_disabled":false,"rental_uris":{"android":"levelo://app?vid=5e29bb99-7a29-4bbf-a514-99195c8fa20f","ios":"levelo://app?vid=5e29bb99-7a29-4bbf-a514-99195c8fa20f"},"vehicle_type_id":"4","last_reported":1745724730,"current_range_meters":20000,"station_id":"ce4bhpp2rcd13ifvqhfg","pricing_plan_id":"cebpf4jnsgd1na2vs0mg"},{"bike_id":"8f0e61c2-977f-4aee-ae3e-ba3de095c8e4","system_id":"levelo_inurba_marseille","lat":43.23125,"lon":5.43732,"is_reserved":false,"is_disabled":false,"rental_uris":{"android":"levelo://app?vid=8f0e61c2-977f-4aee-ae3e-ba3de095c8e4","ios":"levelo://app?vid=8f0e61c2-977f-4aee-ae3e-ba3de095c8e4"},"vehicle_type_id":"4","last_reported":1745724730,"current_range_meters":20000,"station_id":"ce4bhmp2rcd13ifvqgog","pricing_plan_id":"cebpf4jnsgd1na2vs0mg"},{"bike_id":"6a0d76ed-a50b-40df-a903-31c41e5bb65c","system_id":"levelo_inurba_marseille","lat":43.31996,"lon":5.3815,"is_reserved":false,"is_disabled":false,"rental_uris":{"android":"levelo://app?vid=6a0d76ed-a50b-40df-a903-31c41e5bb65c","ios":"levelo://app?vid=6a0d76ed-a50b-40df-a903-31c41e5bb65c"},"vehicle_type_id":"4","last_reported":1745724730,"current_range_meters":20000,"station_id":"ce4bhr12rcd13ifvqhpg","pricing_plan_id":"cebpf4jnsgd1na2vs0mg"},{"bike_id":"18453f94-daca-4a77-9ae6-b4980884ba8b","system_id":"levelo_inurba_marseille","lat":43.30923,"lon":5.40163,"is_reserved":false,"is_disabled":false,"rental_uris":{"android":"levelo://app?vid=18453f94-daca-4a77-9ae6-b4980884ba8b","ios":"levelo://app?vid=18453f94-daca-4a77-9ae6-b4980884ba8b"},"vehicle_type_id":"4","last_reported":1745724730,"current_range_meters":20000,"station_id":"ce4bgvp2rcd13ifvqct0","pricing_plan_id":"cebpf4jnsgd1na2vs0mg"},{"bike_id":"14199087-a4f3-4749-996a-e89402759c06","system_id":"levelo_inurba_marseille","lat":43.26035,"lon":5.39412,"is_reserved":false,"is_disabled":false,"rental_uris":{"android":"levelo://app?vid=14199087-a4f3-4749-996a-e89402759c06","ios":"levelo://app?vid=14199087-a4f3-4749-996a-e89402759c06"},"vehicle_type_id":"4","last_reported":1745724730,"current_range_meters":20000,"station_id":"ce4bhh92rcd13ifvqfj0","pricing_plan_id":"cebpf4jnsgd1na2vs0mg"},{"bike_id":"188f96b2-7316-44a2-875d-4f24a3722e03","system_id":"levelo_inurba_marseille","lat":43.29753,"lon":5.3715,"is_reserved":false,"is_disabled":false,"rental_uris":{"android":"levelo://app?vid=188f96b2-7316-44a2-875d-4f24a3722e03","ios":"levelo://app?vid=188f96b2-7316-44a2-875d-4f24a3722e03"},"vehicle_type_id":"4","last_reported":1745724730,"current_range_meters":20400,"station_id":"","pricing_plan_id":"cebpf4jnsgd1na2vs0mg"},{"bike_id":"94c7b3ad-c424-427c-abb2-5981aea66c18","system_id":"levelo_inurba_marseille","lat":43.29244,"lon":5.40894,"is_reserved":false,"is_disabled":false,"rental_uris":{"android":"levelo://app?vid=94c7b3ad-c424-427c-abb2-5981aea66c18","ios":"levelo://app?vid=94c7b3ad-c424-427c-abb2-5981aea66c18"},"vehicle_type_id":"4","last_reported":1745724730,"current_range_meters":20400,"station_id":"ce4bh192rcd13ifvqdc0","pricing_plan_id":"cebpf4jnsgd1na2vs0mg"},{"bike_id":"c8097efb-13bc-42eb-af8d-71a384717fa6","system_id":"levelo_inurba_marseille","lat":43.26803,"lon":5.40262,"is_reserved":false,"is_disabled":false,"rental_uris":{"android":"levelo://app?vid=c8097efb-13bc-42eb-af8d-71a384717fa6","ios":"levelo://app?vid=c8097efb-13bc-42eb-af8d-71a384717fa6"},"vehicle_type_id":"4","last_reported":1745724730,"current_range_meters":20400,"station_id":"ce501612rcd8frsf0b60","pricing_plan_id":"cebpf4jnsgd1na2vs0mg"},{"bike_id":"0be3e0e7-687d-4857-9b13-2fe0c4be5ba3","system_id":"levelo_inurba_marseille","lat":43.280743,"lon":5.39659,"is_reserved":false,"is_disabled":false,"rental_uris":{"android":"levelo://app?vid=0be3e0e7-687d-4857-9b13-2fe0c4be5ba3","ios":"levelo://app?vid=0be3e0e7-687d-4857-9b13-2fe0c4be5ba3"},"vehicle_type_id":"4","last_reported":1745724730,"current_range_meters":20400,"station_id":"ce4bho12rcd13ifvqh2g","pricing_plan_id":"cebpf4jnsgd1na2vs0mg"},{"bike_id":"bec1e472-63aa-481e-bbc8-305365b19ca4","system_id":"levelo_inurba_marseille","lat":43.279703,"lon":5.387383,"is_reserved":false,"is_disabled":false,"rental_uris":{"android":"levelo://app?vid=bec1e472-63aa-481e-bbc8-305365b19ca4","ios":"levelo://app?vid=bec1e472-63aa-481e-bbc8-305365b19ca4"},"vehicle_type_id":"4","last_reported":1745724730,"current_range_meters":20800,"station_id":"ce4bhg12rcd13ifvqf80","pricing_plan_id":"cebpf4jnsgd1na2vs0mg"},{"bike_id":"aa5216a6-3366-4233-bba1-547280670435","system_id":"levelo_inurba_marseille","lat":43.29791,"lon":5.40433,"is_reserved":false,"is_disabled":false,"rental_uris":{"android":"levelo://app?vid=aa5216a6-3366-4233-bba1-547280670435","ios":"levelo://app?vid=aa5216a6-3366-4233-bba1-547280670435"},"vehicle_type_id":"4","last_reported":1745724730,"current_range_meters":20800,"station_id":"ce4bh112rcd13ifvqd90","pricing_plan_id":"cebpf4jnsgd1na2vs0mg"},{"bike_id":"9275afeb-620b-4a3c-83d1-31bc14709d93","system_id":"levelo_inurba_marseille","lat":43.28848,"lon":5.35856,"is_reserved":false,"is_disabled":true,"rental_uris":{"android":"levelo://app?vid=9275afeb-620b-4a3c-83d1-31bc14709d93","ios":"levelo://app?vid=9275afeb-620b-4a3c-83d1-31bc14709d93"},"vehicle_type_id":"4","last_reported":1745724730,"current_range_meters":20800,"station_id":"ce4bhb12rcd13ifvqem0","pricing_plan_id":"cebpf4jnsgd1na2vs0mg"},{"bike_id":"d39af858-6e44-40e2-9a96-f6d149784e8d","system_id":"levelo_inurba_marseille","lat":43.25724,"lon":5.4111,"is_reserved":false,"is_disabled":false,"rental_uris":{"android":"levelo://app?vid=d39af858-6e44-40e2-9a96-f6d149784e8d","ios":"levelo://app?vid=d39af858-6e44-40e2-9a96-f6d149784e8d"},"vehicle_type_id":"4","last_reported":1745724730,"current_range_meters":20800,"station_id":"ce4bhkp2rcd13ifvqgd0","pricing_plan_id":"cebpf4jnsgd1na2vs0mg"},{"bike_id":"c44eb229-a1f6-478f-a2aa-0e5b2510cf33","system_id":"levelo_inurba_marseille","lat":43.26566,"lon":5.3903,"is_reserved":false,"is_disabled":false,"rental_uris":{"android":"levelo://app?vid=c44eb229-a1f6-478f-a2aa-0e5b2510cf33","ios":"levelo://app?vid=c44eb229-a1f6-478f-a2aa-0e5b2510cf33"},"vehicle_type_id":"4","last_reported":1745724730,"current_range_meters":20800,"station_id":"ce4bhe12rcd13ifvqf30","pricing_plan_id":"cebpf4jnsgd1na2vs0mg"},{"bike_id":"4860624f-4798-4cbd-947e-d1769e6b1e2e","system_id":"levelo_inurba_marseille","lat":43.29869,"lon":5.39736,"is_reserved":false,"is_disabled":false,"rental_uris":{"android":"levelo://app?vid=4860624f-4798-4cbd-947e-d1769e6b1e2e","ios":"levelo://app?vid=4860624f-4798-4cbd-947e-d1769e6b1e2e"},"vehicle_type_id":"4","last_reported":1745724730,"current_range_meters":20800,"station_id":"ce4bh0h2rcd13ifvqd50","pricing_plan_id":"cebpf4jnsgd1na2vs0mg"},{"bike_id":"5ef04bbc-22dd-4338-9a50-0c7bbeda8541","system_id":"levelo_inurba_marseille","lat":43.211893,"lon":5.35077,"is_reserved":false,"is_disabled":false,"rental_uris":{"android":"levelo://app?vid=5ef04bbc-22dd-4338-9a50-0c7bbeda8541","ios":"levelo://app?vid=5ef04bbc-22dd-4338-9a50-0c7bbeda8541"},"vehicle_type_id":"4","last_reported":1745724730,"current_range_meters":20800,"station_id":"","pricing_plan_id":"cebpf4jnsgd1na2vs0mg"},{"bike_id":"c5251972-d279-4ec2-bcf1-956c2d9d91f3","system_id":"levelo_inurba_marseille","lat":43.22443,"lon":5.34808,"is_reserved":false,"is_disabled":false,"rental_uris":{"android":"levelo://app?vid=c5251972-d279-4ec2-bcf1-956c2d9d91f3","ios":"levelo://app?vid=c5251972-d279-4ec2-bcf1-956c2d9d91f3"},"vehicle_type_id":"4","last_reported":1745724730,"current_range_meters":20800,"station_id":"","pricing_plan_id":"cebpf4jnsgd1na2vs0mg"},{"bike_id":"988d3e51-0f81-4d05-9256-41d5bf2a54ae","system_id":"levelo_inurba_marseille","lat":43.29666,"lon":5.3665,"is_reserved":false,"is_disabled":true,"rental_uris":{"android":"levelo://app?vid=988d3e51-0f81-4d05-9256-41d5bf2a54ae","ios":"levelo://app?vid=988d3e51-0f81-4d05-9256-41d5bf2a54ae"},"vehicle_type_id":"4","last_reported":1745724730,"current_range_meters":20800,"station_id":"","pricing_plan_id":"cebpf4jnsgd1na2vs0mg"},{"bike_id":"0fa0d35c-5f1d-4090-ac0b-83c1fb2bda03","system_id":"levelo_inurba_marseille","lat":43.29245,"lon":5.40909,"is_reserved":false,"is_disabled":false,"rental_uris":{"android":"levelo://app?vid=0fa0d35c-5f1d-4090-ac0b-83c1fb2bda03","ios":"levelo://app?vid=0fa0d35c-5f1d-4090-ac0b-83c1fb2bda03"},"vehicle_type_id":"4","last_reported":1745724730,"current_range_meters":21600,"station_id":"ce4bh192rcd13ifvqdc0","pricing_plan_id":"cebpf4jnsgd1na2vs0mg"},{"bike_id":"929ede0a-bede-4f2c-98c5-5586d05b6a66","system_id":"levelo_inurba_marseille","lat":43.21741,"lon":5.34608,"is_reserved":false,"is_disabled":false,"rental_uris":{"android":"levelo://app?vid=929ede0a-bede-4f2c-98c5-5586d05b6a66","ios":"levelo://app?vid=929ede0a-bede-4f2c-98c5-5586d05b6a66"},"vehicle_type_id":"4","last_reported":1745724730,"current_range_meters":21600,"station_id":"st_cvj6r9ubvosntc0bgbag","pricing_plan_id":"cebpf4jnsgd1na2vs0mg"},{"bike_id":"3f594d7c-abb9-4381-87f9-e3bcb3849d6a","system_id":"levelo_inurba_marseille","lat":43.29231,"lon":5.40939,"is_reserved":false,"is_disabled":false,"rental_uris":{"android":"levelo://app?vid=3f594d7c-abb9-4381-87f9-e3bcb3849d6a","ios":"levelo://app?vid=3f594d7c-abb9-4381-87f9-e3bcb3849d6a"},"vehicle_type_id":"4","last_reported":1745724730,"current_range_meters":21600,"station_id":"ce4bh192rcd13ifvqdc0","pricing_plan_id":"cebpf4jnsgd1na2vs0mg"},{"bike_id":"b45721df-1911-4bd0-96bb-0c84adb69cfd","system_id":"levelo_inurba_marseille","lat":43.239615,"lon":5.366328,"is_reserved":false,"is_disabled":false,"rental_uris":{"android":"levelo://app?vid=b45721df-1911-4bd0-96bb-0c84adb69cfd","ios":"levelo://app?vid=b45721df-1911-4bd0-96bb-0c84adb69cfd"},"vehicle_type_id":"4","last_reported":1745724730,"current_range_meters":21600,"station_id":"ce4bhi12rcd13ifvqfp0","pricing_plan_id":"cebpf4jnsgd1na2vs0mg"},{"bike_id":"83e96c23-3f32-4e7b-a983-daa752f195de","system_id":"levelo_inurba_marseille","lat":43.287079,"lon":5.399943,"is_reserved":false,"is_disabled":false,"rental_uris":{"android":"levelo://app?vid=83e96c23-3f32-4e7b-a983-daa752f195de","ios":"levelo://app?vid=83e96c23-3f32-4e7b-a983-daa752f195de"},"vehicle_type_id":"4","last_reported":1745724730,"current_range_meters":22000,"station_id":"ce4bho92rcd13ifvqh3g","pricing_plan_id":"cebpf4jnsgd1na2vs0mg"},{"bike_id":"e28a3c40-459a-4957-a364-87a53a1ddb3a","system_id":"levelo_inurba_marseille","lat":43.27076,"lon":5.40243,"is_reserved":false,"is_disabled":false,"rental_uris":{"android":"levelo://app?vid=e28a3c40-459a-4957-a364-87a53a1ddb3a","ios":"levelo://app?vid=e28a3c40-459a-4957-a364-87a53a1ddb3a"},"vehicle_type_id":"4","last_reported":1745724730,"current_range_meters":22000,"station_id":"ce4bhk92rcd13ifvqgc0","pricing_plan_id":"cebpf4jnsgd1na2vs0mg"},