{"last_updated":1758949797,"ttl":60,"version":"2.2","data":{"bikes":[{"bike_id":"603141fe-20ad-4b9b-a54a-96407e42f9d1","system_id":"levelo_inurba_marseille","lat":43.28706,"lon":5.373928,"is_reserved":false,"is_disabled":false,"rental_uris":{"android":"levelo://app?vid=603141fe-20ad-4b9b-a54a-96407e42f9d1","ios":"levelo://app?vid=603141fe-20ad-4b9b-a54a-96407e42f9d1"},"vehicle_type_id":"4","last_reported":1758949797,"current_range_meters":2800,"station_id":"ce4bh3p2rcd13ifvqdq0","pricing_plan_id":"cebpf4jnsgd1na2vs0mg"},{"bike_id":"64279a81-ee34-4c3b-b57a-9b62bb0c0a24","system_id":"levelo_inurba_marseille","lat":43.31543,"lon":5.43162,"is_reserved":false,"is_disabled":false,"rental_uris":{"android":"levelo://app?vid=64279a81-ee34-4c3b-b57a-9b62bb0c0a24","ios":"levelo://app?vid=64279a81-ee34-4c3b-b57a-9b62bb0c0a24"},"vehicle_type_id":"4","last_reported":1758949797,"current_range_meters":3200,"station_id":"","pricing_plan_id":"cebpf4jnsgd1na2vs0mg"},{"bike_id":"7d9c893e-52dd-45e6-aa9f-5fa5fcf1a192","system_id":"levelo_inurba_marseille","lat":43.309253,"lon":5.401357,"is_reserved":false,"is_disabled":true,"rental_uris":{"android":"levelo://app?vid=7d9c893e-52dd-45e6-aa9f-5fa5fcf1a192","ios":"levelo://app?vid=7d9c893e-52dd-45e6-aa9f-5fa5fcf1a192"},"vehicle_type_id":"4","last_reported":1758949797,"current_range_meters":3600,"station_id":"ce4bgvp2rcd13ifvqct0","pricing_plan_id":"cebpf4jnsgd1na2vs0mg"},{"bike_id":"f4fa8d4b-a43d-46ec-9b71-5d336cdb5590","system_id":"levelo_inurba_marseille","lat":43.282642,"lon":5.350744,"is_reserved":false,"is_disabled":false,"rental_uris":{"android":"levelo://app?vid=f4fa8d4b-a43d-46ec-9b71-5d336cdb5590","ios":"levelo://app?vid=f4fa8d4b-a43d-46ec-9b71-5d336cdb5590"},"vehicle_type_id":"4","last_reported":1758949797,"current_range_meters":4400,"station_id":"","pricing_plan_id":"cebpf4jnsgd1na2vs0mg"},{"bike_id":"c041c55c-d013-4e14-be52-553440902a8b","system_id":"levelo_inurba_marseille","lat":43.28464,"lon":5.35888,"is_reserved":false,"is_disabled":false,"rental_uris":{"android":"levelo://app?vid=c041c55c-d013-4e14-be52-553440902a8b","ios":"levelo://app?vid=c041c55c-d013-4e14-be52-553440902a8b"},"vehicle_type_id":"4","last_reported":1758949797,"current_range_meters":4400,"station_id":"ce4bhah2rcd13ifvqei0","pricing_plan_id":"cebpf4jnsgd1na2vs0mg"},{"bike_id":"4949fcce-d8e3-467f-b7b4-445f07ef4ae4","system_id":"levelo_inurba_marseille","lat":43.29944,"lon":5.36547,"is_reserved":false,"is_disabled":false,"rental_uris":{"android":"levelo://app?vid=4949fcce-d8e3-467f-b7b4-445f07ef4ae4","ios":"levelo://app?vid=4949fcce-d8e3-467f-b7b4-445f07ef4ae4"},"vehicle_type_id":"4","last_reported":1758949797,"current_range_meters":4400,"station_id":"ce4bgm92rcd13ifvqbr0","pricing_plan_id":"cebpf4jnsgd1na2vs0mg"},{"bike_id":"e0436bf6-c1ca-464f-88d0-f007769da320","system_id":"levelo_inurba_marseille","lat":43.30591,"lon":5.369016,"is_reserved":false,"is_disabled":true,"rental_uris":{"android":"levelo://app?vid=e0436bf6-c1ca-464f-88d0-f007769da320","ios":"levelo://app?vid=e0436bf6-c1ca-464f-88d0-f007769da320"},"vehicle_type_id":"4","last_reported":1758949797,"current_range_meters":4400,"station_id":"","pricing_plan_id":"cebpf4jnsgd1na2vs0mg"},{"bike_id":"588bb5c6-d90f-4edd-b1de-2d2164a39c00","system_id":"levelo_inurba_marseille","lat":43.32948,"lon":5.39046,"is_reserved":false,"is_disabled":false,"rental_uris":{"android":"levelo://app?vid=588bb5c6-d90f-4edd-b1de-2d2164a39c00","ios":"levelo://app?vid=588bb5c6-d90f-4edd-b1de-2d2164a39c00"},"vehicle_type_id":"4","last_reported":1758949797,"current_range_meters":4400,"station_id":"","pricing_plan_id":"cebpf4jnsgd1na2vs0mg"},{"bike_id":"d8a2347c-225c-4028-b110-5b8c63be1a5a","system_id":"levelo_inurba_marseille","lat":43.287904,"lon":5.376468,"is_reserved":false,"is_disabled":false,"rental_uris":{"android":"levelo://app?vid=d8a2347c-225c-4028-b110-5b8c63be1a5a","ios":"levelo://app?vid=d8a2347c-225c-4028-b110-5b8c63be1a5a"},"vehicle_type_id":"4","last_reported":1758949797,"current_range_meters":5600,"station_id":"","pricing_plan_id":"cebpf4jnsgd1na2vs0mg"},{"bike_id":"8eae954c-dab6-4303-94f5-569e1c483f62","system_id":"levelo_inurba_marseille","lat":43.29446,"lon":5.40755,"is_reserved":false,"is_disabled":false,"rental_uris":{"android":"levelo://app?vid=8eae954c-dab6-4303-94f5-569e1c483f62","ios":"levelo://app?vid=8eae954c-dab6-4303-94f5-569e1c483f62"},"vehicle_type_id":"4","last_reported":1758949797,"current_range_meters":5600,"station_id":"","pricing_plan_id":"cebpf4jnsgd1na2vs0mg"},{"bike_id":"037af832-96fd-4a02-b607-729afbe98e3d","system_id":"levelo_inurba_marseille","lat":43.29396,"lon":5.37976,"is_reserved":false,"is_disabled":false,"rental_uris":{"android":"levelo://app?vid=037af832-96fd-4a02-b607-729afbe98e3d","ios":"levelo://app?vid=037af832-96fd-4a02-b607-729afbe98e3d"},"vehicle_type_id":"4","last_reported":1758949797,"current_range_meters":5600,"station_id":"","pricing_plan_id":"cebpf4jnsgd1na2vs0mg"},{"bike_id":"003515e8-8117-44bb-979d-5f47e8d50fda","system_id":"levelo_inurba_marseille","lat":43.30634,"lon":5.37555,"is_reserved":false,"is_disabled":false,"rental_uris":{"android":"levelo://app?vid=003515e8-8117-44bb-979d-5f47e8d50fda","ios":"levelo://app?vid=003515e8-8117-44bb-979d-5f47e8d50fda"},"vehicle_type_id":"4","last_reported":1758949797,"current_range_meters":6000,"station_id":"","pricing_plan_id":"cebpf4jnsgd1na2vs0mg"},{"bike_id":"58cfe93d-3b62-4e8d-ae8c-64f579827729","system_id":"levelo_inurba_marseille","lat":43.265844,"lon":5.390367,"is_reserved":false,"is_disabled":false,"rental_uris":{"android":"levelo://app?vid=58cfe93d-3b62-4e8d-ae8c-64f579827729","ios":"levelo://app?vid=58cfe93d-3b62-4e8d-ae8c-64f579827729"},"vehicle_type_id":"4","last_reported":1758949797,"current_range_meters":6000,"station_id":"ce4bhe12rcd13ifvqf30","pricing_plan_id":"cebpf4jnsgd1na2vs0mg"},{"bike_id":"05cf823f-d01d-49dc-b7fd-024ca2b99e90","system_id":"levelo_inurba_marseille","lat":43.2944,"lon":5.44391,"is_reserved":false,"is_disabled":false,"rental_uris":{"android":"levelo://app?vid=05cf823f-d01d-49dc-b7fd-024ca2b99e90","ios":"levelo://app?vid=05cf823f-d01d-49dc-b7fd-024ca2b99e90"},"vehicle_type_id":"4","last_reported":1758949797,"current_range_meters":6400,"station_id":"","pricing_plan_id":"cebpf4jnsgd1na2vs0mg"},{"bike_id":"0a366caa-b462-4eaa-95bc-71e07880bea7","system_id":"levelo_inurba_marseille","lat":43.270546,"lon":5.402608,"is_reserved":false,"is_disabled":false,"rental_uris":{"android":"levelo://app?vid=0a366caa-b462-4eaa-95bc-71e07880bea7","ios":"levelo://app?vid=0a366caa-b462-4eaa-95bc-71e07880bea7"},"vehicle_type_id":"4","last_reported":1758949797,"current_range_meters":6400,"station_id":"ce4bhk92rcd13ifvqgc0","pricing_plan_id":"cebpf4jnsgd1na2vs0mg"},{"bike_id":"3c19536b-fb5b-4f9a-ab5d-bec9a9d3b963","system_id":"levelo_inurba_marseille","lat":43.24648,"lon":5.389,"is_reserved":false,"is_disabled":false,"rental_uris":{"android":"levelo://app?vid=3c19536b-fb5b-4f9a-ab5d-bec9a9d3b963","ios":"levelo://app?vid=3c19536b-fb5b-4f9a-ab5d-bec9a9d3b963"},"vehicle_type_id":"4","last_reported":1758949797,"current_range_meters":6400,"station_id":"ce4bhg12rcd13ifvqf60","pricing_plan_id":"cebpf4jnsgd1na2vs0mg"},{"bike_id":"fee689bb-cae2-4ff6-9789-75afd812a849","system_id":"levelo_inurba_marseille","lat":43.27999,"lon":5.40021,"is_reserved":false,"is_disabled":false,"rental_uris":{"android":"levelo://app?vid=fee689bb-cae2-4ff6-9789-75afd812a849","ios":"levelo://app?vid=fee689bb-cae2-4ff6-9789-75afd812a849"},"vehicle_type_id":"4","last_reported":1758949797,"current_range_meters":6400,"station_id":"ce4bho92rcd13ifvqh4g","pricing_plan_id":"cebpf4jnsgd1na2vs0mg"},{"bike_id":"10570c5a-8e04-4e55-8478-90c821e94d73","system_id":"levelo_inurba_marseille","lat":43.33165,"lon":5.38183,"is_reserved":false,"is_disabled":false,"rental_uris":{"android":"levelo://app?vid=10570c5a-8e04-4e55-8478-90c821e94d73","ios":"levelo://app?vid=10570c5a-8e04-4e55-8478-90c821e94d73"},"vehicle_type_id":"4","last_reported":1758949797,"current_range_meters":6400,"station_id":"","pricing_plan_id":"cebpf4jnsgd1na2vs0mg"},{"bike_id":"f897d300-643c-4c7a-951b-f56d70ef23ca","system_id":"levelo_inurba_marseille","lat":43.303398,"lon":5.390751,"is_reserved":false,"is_disabled":false,"rental_uris":{"android":"levelo://app?vid=f897d300-643c-4c7a-951b-f56d70ef23ca","ios":"levelo://app?vid=f897d300-643c-4c7a-951b-f56d70ef23ca"},"vehicle_type_id":"4","last_reported":1758949797,"current_range_meters":6800,"station_id":"","pricing_plan_id":"cebpf4jnsgd1na2vs0mg"},{"bike_id":"6a6d6cff-09b8-44e2-b0ef-2f3a93fde45f","system_id":"levelo_inurba_marseille","lat":43.29792,"lon":5.37895,"is_reserved":false,"is_disabled":false,"rental_uris":{"android":"levelo://app?vid=6a6d6cff-09b8-44e2-b0ef-2f3a93fde45f","ios":"levelo://app?vid=6a6d6cff-09b8-44e2-b0ef-2f3a93fde45f"},"vehicle_type_id":"4","last_reported":1758949797,"current_range_meters":6800,"station_id":"","pricing_plan_id":"cebpf4jnsgd1na2vs0mg"},{"bike_id":"e057a4ef-97bf-4e25-9a18-02598bbb0bbf","system_id":"levelo_inurba_marseille","lat":43.24552,"lon":5.39534,"is_reserved":false,"is_disabled":true,"rental_uris":{"android":"levelo://app?vid=e057a4ef-97bf-4e25-9a18-02598bbb0bbf","ios":"levelo://app?vid=e057a4ef-97bf-4e25-9a18-02598bbb0bbf"},"vehicle_type_id":"4","last_reported":1758949797,"current_range_meters":6800,"station_id":"ce4bhlp2rcd13ifvqgjg","pricing_plan_id":"cebpf4jnsgd1na2vs0mg"},{"bike_id":"890ffdea-bcf1-4a50-87f1-4792a85b2fb6","system_id":"levelo_inurba_marseille","lat":43.32358,"lon":5.40607,"is_reserved":false,"is_disabled":false,"rental_uris":{"android":"levelo://app?vid=890ffdea-bcf1-4a50-87f1-4792a85b2fb6","ios":"levelo://app?vid=890ffdea-bcf1-4a50-87f1-4792a85b2fb6"},"vehicle_type_id":"4","last_reported":1758949797,"current_range_meters":6800,"station_id":"ce4bhq92rcd13ifvqhjg","pricing_plan_id":"cebpf4jnsgd1na2vs0mg"},{"bike_id":"14568db5-2437-46e1-a004-fca5da459653","system_id":"levelo_inurba_marseille","lat":43.28763,"lon":5.39515,"is_reserved":false,"is_disabled":true,"rental_uris":{"android":"levelo://app?vid=14568db5-2437-46e1-a004-fca5da459653","ios":"levelo://app?vid=14568db5-2437-46e1-a004-fca5da459653"},"vehicle_type_id":"4","last_reported":1758949797,"current_range_meters":7200,"station_id":"","pricing_plan_id":"cebpf4jnsgd1na2vs0mg"},{"bike_id":"00822170-7cc2-47e8-bf25-34d2439a812a","system_id":"levelo_inurba_marseille","lat":43.28461,"lon":5.35888,"is_reserved":false,"is_disabled":false,"rental_uris":{"android":"levelo://app?vid=00822170-7cc2-47e8-bf25-34d2439a812a","ios":"levelo://app?vid=00822170-7cc2-47e8-bf25-34d2439a812a"},"vehicle_type_id":"4","last_reported":1758949797,"current_range_meters":7200,"station_id":"ce4bhah2rcd13ifvqei0","pricing_plan_id":"cebpf4jnsgd1na2vs0mg"},{"bike_id":"f3dac6d8-b180-4928-85f1-c0e06c666299","system_id":"levelo_inurba_marseille","lat":43.26366,"lon":5.39643,"is_reserved":false,"is_disabled":false,"rental_uris":{"android":"levelo://app?vid=f3dac6d8-b180-4928-85f1-c0e06c666299","ios":"levelo://app?vid=f3dac6d8-b180-4928-85f1-c0e06c666299"},"vehicle_type_id":"4","last_reported":1758949797,"current_range_meters":7200,"station_id":"","pricing_plan_id":"cebpf4jnsgd1na2vs0mg"},{"bike_id":"c7f6a08b-c655-4213-b2ba-7d02e7f382fe","system_id":"levelo_inurba_marseille","lat":43.27988,"lon":5.39483,"is_reserved":false,"is_disabled":false,"rental_uris":{"android":"levelo://app?vid=c7f6a08b-c655-4213-b2ba-7d02e7f382fe","ios":"levelo://app?vid=c7f6a08b-c655-4213-b2ba-7d02e7f382fe"},"vehicle_type_id":"4","last_reported":1758949797,"current_range_meters":7200,"station_id":"","pricing_plan_id":"cebpf4jnsgd1na2vs0mg"},{"bike_id":"8cfc4174-b0cd-4d47-9abc-24b60bce3fcc","system_id":"levelo_inurba_marseille","lat":43.28413,"lon":5.37465,"is_reserved":false,"is_disabled":false,"rental_uris":{"android":"levelo://app?vid=8cfc4174-b0cd-4d47-9abc-24b60bce3fcc","ios":"levelo://app?vid=8cfc4174-b0cd-4d47-9abc-24b60bce3fcc"},"vehicle_type_id":"4","last_reported":1758949797,"current_range_meters":7200,"station_id":"ce4bh412rcd13ifvqds0","pricing_plan_id":"cebpf4jnsgd1na2vs0mg"},{"bike_id":"6ed89cc0-a1c2-411f-8cbe-6e0b5926bab7","system_id":"levelo_inurba_marseille","lat":43.29569,"lon":5.40021,"is_reserved":false,"is_disabled":false,"rental_uris":{"android":"levelo://app?vid=6ed89cc0-a1c2-411f-8cbe-6e0b5926bab7","ios":"levelo://app?vid=6ed89cc0-a1c2-411f-8cbe-6e0b5926bab7"},"vehicle_type_id":"4","last_reported":1758949797,"current_range_meters":7200,"station_id":"ce4bh312rcd13ifvqdj0","pricing_plan_id":"cebpf4jnsgd1na2vs0mg"},{"bike_id":"0b1eb747-8274-4a8a-a752-7c30d6b68dc6","system_id":"levelo_inurba_marseille","lat":43.299,"lon":5.43656,"is_reserved":false,"is_disabled":false,"rental_uris":{"android":"levelo://app?vid=0b1eb747-8274-4a8a-a752-7c30d6b68dc6","ios":"levelo://app?vid=0b1eb747-8274-4a8a-a752-7c30d6b68dc6"},"vehicle_type_id":"4","last_reported":1758949797,"current_range_meters":8000,"station_id":"ce4bhpp2rcd13ifvqhfg","pricing_plan_id":"cebpf4jnsgd1na2vs0mg"},{"bike_id":"d8188c10-fa44-48f3-80bc-0d7af47e2395","system_id":"levelo_inurba_marseille","lat":43.27993,"lon":5.41678,"is_reserved":false,"is_disabled":false,"rental_uris":{"android":"levelo://app?vid=d8188c10-fa44-48f3-80bc-0d7af47e2395","ios":"levelo://app?vid=d8188c10-fa44-48f3-80bc-0d7af47e2395"},"vehicle_type_id":"4","last_reported":1758949797,"current_range_meters":8000,"station_id":"ce4bho12rcd13ifvqh1g","pricing_plan_id":"cebpf4jnsgd1na2vs0mg"},{"bike_id":"041cd397-24ab-4e04-af23-07b961e161f4","system_id":"levelo_inurba_marseille","lat":43.337444,"lon":5.374475,"is_reserved":false,"is_disabled":false,"rental_uris":{"android":"levelo://app?vid=041cd397-24ab-4e04-af23-07b961e161f4","ios":"levelo://app?vid=041cd397-24ab-4e04-af23-07b961e161f4"},"vehicle_type_id":"4","last_reported":1758949797,"current_range_meters":8000,"station_id":"","pricing_plan_id":"cebpf4jnsgd1na2vs0mg"},{"bike_id":"78b43ab0-57e9-43ee-b7c6-fbbb1406e224","system_id":"levelo_inurba_marseille","lat":43.25751,"lon":5.41114,"is_reserved":false,"is_disabled":true,"rental_uris":{"android":"levelo://app?vid=78b43ab0-57e9-43ee-b7c6-fbbb1406e224","ios":"levelo://app?vid=78b43ab0-57e9-43ee-b7c6-fbbb1406e224"},"vehicle_type_id":"4","last_reported":1758949797,"current_range_meters":8000,"station_id":"ce4bhkp2rcd13ifvqgd0","pricing_plan_id":"cebpf4jnsgd1na2vs0mg"},{"bike_id":"d04fcbfe-168d-46c8-8add-df8419b475eb","system_id":"levelo_inurba_marseille","lat":43.27168,"lon":5.40996,"is_reserved":false,"is_disabled":false,"rental_uris":{"android":"levelo://app?vid=d04fcbfe-168d-46c8-8add-df8419b475eb","ios":"levelo://app?vid=d04fcbfe-168d-46c8-8add-df8419b475eb"},"vehicle_type_id":"4","last_reported":1758949797,"current_range_meters":8400,"station_id":"ce4bhl12rcd13ifvqgf0","pricing_plan_id":"cebpf4jnsgd1na2vs0mg"},{"bike_id":"22e1526a-5d94-480e-9eef-c281aa35345c","system_id":"levelo_inurba_marseille","lat":43.21201,"lon":5.35084,"is_reserved":false,"is_disabled":false,"rental_uris":{"android":"levelo://app?vid=22e1526a-5d94-480e-9eef-c281aa35345c","ios":"levelo://app?vid=22e1526a-5d94-480e-9eef-c281aa35345c"},"vehicle_type_id":"4","last_reported":1758949797,"current_range_meters":8400,"station_id":"st_cvj6sg6p6f1abm77japg","pricing_plan_id":"cebpf4jnsgd1na2vs0mg"},{"bike_id":"75611fb7-df45-4d9f-9db0-a181136cc424","system_id":"levelo_inurba_marseille","lat":43.21747,"lon":5.34588,"is_reserved":false,"is_disabled":true,"rental_uris":{"android":"levelo://app?vid=75611fb7-df45-4d9f-9db0-a181136cc424","ios":"levelo://app?vid=75611fb7-df45-4d9f-9db0-a181136cc424"},"vehicle_type_id":"4","last_reported":1758949797,"current_range_meters":8400,"station_id":"st_cvj6r9ubvosntc0bgbag","pricing_plan_id":"cebpf4jnsgd1na2vs0mg"},{"bike_id":"96d9d290-3482-406b-a187-2a8b12ccabb2","system_id":"levelo_inurba_marseille","lat":43.29001,"lon":5.37119,"is_reserved":false,"is_disabled":false,"rental_uris":{"android":"levelo://app?vid=96d9d290-3482-406b-a187-2a8b12ccabb2","ios":"levelo://app?vid=96d9d290-3482-406b-a187-2a8b12ccabb2"},"vehicle_type_id":"4","last_reported":1758949797,"current_range_meters":8400,"station_id":"","pricing_plan_id":"cebpf4jnsgd1na2vs0mg"},{"bike_id":"888d9833-34a2-4f76-b088-ac5f6b33041d","system_id":"levelo_inurba_marseille","lat":43.244,"lon":5.37096,"is_reserved":false,"is_disabled":false,"rental_uris":{"android":"levelo://app?vid=888d9833-34a2-4f76-b088-ac5f6b33041d","ios":"levelo://app?vid=888d9833-34a2-4f76-b088-ac5f6b33041d"},"vehicle_type_id":"4","last_reported":1758949797,"current_range_meters":8400,"station_id":"ce4bhhh2rcd13ifvqfk0","pricing_plan_id":"cebpf4jnsgd1na2vs0mg"},{"bike_id":"c997d792-cf69-4564-bd42-903ef7057cc4","system_id":"levelo_inurba_marseille","lat":43.30324,"lon":5.40436,"is_reserved":false,"is_disabled":false,"rental_uris":{"android":"levelo://app?vid=c997d792-cf69-4564-bd42-903ef7057cc4","ios":"levelo://app?vid=c997d792-cf69-4564-bd42-903ef7057cc4"},"vehicle_type_id":"4","last_reported":1758949797,"current_range_meters":8400,"station_id":"ce4bh012rcd13ifvqd10","pricing_plan_id":"cebpf4jnsgd1na2vs0mg"},{"bike_id":"a898d2fd-6567-4531-a6ba-ae906960be4e","system_id":"levelo_inurba_marseille","lat":43.28938,"lon":5.36373,"is_reserved":false,"is_disabled":false,"rental_uris":{"android":"levelo://app?vid=a898d2fd-6567-4531-a6ba-ae906960be4e","ios":"levelo://app?vid=a898d2fd-6567-4531-a6ba-ae906960be4e"},"vehicle_type_id":"4","last_reported":1758949797,"current_range_meters":8400,"station_id":"ce4bhc92rcd13ifvqetg","pricing_plan_id":"cebpf4jnsgd1na2vs0mg"},{"bike_id":"174dfb4f-f618-4c2f-be1c-ae0d6b405e94","system_id":"levelo_inurba_marseille","lat":43.29711,"lon":5.3827,"is_reserved":false,"is_disabled":false,"rental_uris":{"android":"levelo://app?vid=174dfb4f-f618-4c2f-be1c-ae0d6b405e94","ios":"levelo://app?vid=174dfb4f-f618-4c2f-be1c-ae0d6b405e94"},"vehicle_type_id":"4","last_reported":1758949797,"current_range_meters":8800,"station_id":"","pricing_plan_id":"cebpf4jnsgd1na2vs0mg"},{"bike_id":"8ab59c9e-a45d-4a0a-89d4-6aec13f656ce","system_id":"levelo_inurba_marseille","lat":43.30303,"lon":5.3688,"is_reserved":false,"is_disabled":false,"rental_uris":{"android":"levelo://app?vid=8ab59c9e-a45d-4a0a-89d4-6aec13f656ce","ios":"levelo://app?vid=8ab59c9e-a45d-4a0a-89d4-6aec13f656ce"},"vehicle_type_id":"4","last_reported":1758949797,"current_range_meters":9200,"station_id":"ce4bgqh2rcd13ifvqc5g","pricing_plan_id":"cebpf4jnsgd1na2vs0mg"},{"bike_id":"b01b5bc6-6834-41fb-be97-f5b6fb7e9ec8","system_id":"levelo_inurba_marseille","lat":43.26322,"lon":5.39845,"is_reserved":false,"is_disabled":false,"rental_uris":{"android":"levelo://app?vid=b01b5bc6-6834-41fb-be97-f5b6fb7e9ec8","ios":"levelo://app?vid=b01b5bc6-6834-41fb-be97-f5b6fb7e9ec8"},"vehicle_type_id":"4","last_reported":1758949797,"current_range_meters":9200,"station_id":"","pricing_plan_id":"cebpf4jnsgd1na2vs0mg"},{"bike_id":"87b16657-eeaf-4a1b-9184-a62af12c6a4d","system_id":"levelo_inurba_marseille","lat":43.27374,"lon":5.36261,"is_reserved":false,"is_disabled":false,"rental_uris":{"android":"levelo://app?vid=87b16657-eeaf-4a1b-9184-a62af12c6a4d","ios":"levelo://app?vid=87b16657-eeaf-4a1b-9184-a62af12c6a4d"},"vehicle_type_id":"4","last_reported":1758949797,"current_range_meters":9200,"station_id":"ce4bhbh2rcd13ifvqeo0","pricing_plan_id":"cebpf4jnsgd1na2vs0mg"},{"bike_id":"10a1f6b6-637c-4e45-a304-d180b707ff74","system_id":"levelo_inurba_marseille","lat":43.28411,"lon":5.37509,"is_reserved":false,"is_disabled":false,"rental_uris":{"android":"levelo://app?vid=10a1f6b6-637c-4e45-a304-d180b707ff74","ios":"levelo://app?vid=10a1f6b6-637c-4e45-a304-d180b707ff74"},"vehicle_type_id":"4","last_reported":1758949797,"current_range_meters":9200,"station_id":"ce4bh412rcd13ifvqds0","pricing_plan_id":"cebpf4jnsgd1na2vs0mg"},{"bike_id":"8fb6b312-30ed-4765-90d6-32ed783bc889","system_id":"levelo_inurba_marseille","lat":43.29974,"lon":5.41313,"is_reserved":false,"is_disabled":true,"rental_uris":{"android":"levelo://app?vid=8fb6b312-30ed-4765-90d6-32ed783bc889","ios":"levelo://app?vid=8fb6b312-30ed-4765-90d6-32ed783bc889"},"vehicle_type_id":"4","last_reported":1758949797,"current_range_meters":9200,"station_id":"ce4bhp12rcd13ifvqh9g","pricing_plan_id":"cebpf4jnsgd1na2vs0mg"},{"bike_id":"512844d5-2399-4f17-94e2-f8e1f228aa8b","system_id":"levelo_inurba_marseille","lat":43.25004,"lon":5.38929,"is_reserved":false,"is_disabled":false,"rental_uris":{"android":"levelo://app?vid=512844d5-2399-4f17-94e2-f8e1f228aa8b","ios":"levelo://app?vid=512844d5-2399-4f17-94e2-f8e1f228aa8b"},"vehicle_type_id":"4","last_reported":1758949797,"current_range_meters":9200,"station_id":"ce4bhgp2rcd13ifvqfd0","pricing_plan_id":"cebpf4jnsgd1na2vs0mg"},{"bike_id":"a57b3feb-2354-42fe-87fd-e8fcee3a0260","system_id":"levelo_inurba_marseille","lat":43.26953,"lon":5.40241,"is_reserved":false,"is_disabled":false,"rental_uris":{"android":"levelo://app?vid=a57b3feb-2354-42fe-87fd-e8fcee3a0260","ios":"levelo://app?vid=a57b3feb-2354-42fe-87fd-e8fcee3a0260"},"vehicle_type_id":"4","last_reported":1758949797,"current_range_meters":9200,"station_id":"","pricing_plan_id":"cebpf4jnsgd1na2vs0mg"},{"bike_id":"6f7da9ea-ed51-485c-9b5c-d086b463c457","system_id":"levelo_inurba_marseille","lat":43.26182,"lon":5.37449,"is_reserved":false,"is_disabled":true,"rental_uris":{"android":"levelo://app?vid=6f7da9ea-ed51-485c-9b5c-d086b463c457","ios":"levelo://app?vid=6f7da9ea-ed51-485c-9b5c-d086b463c457"},"vehicle_type_id":"4","last_reported":1758949797,"current_range_meters":9600,"station_id":"ce4bhgp2rcd13ifvqfc0","pricing_plan_id":"cebpf4jnsgd1na2vs0mg"},{"bike_id":"376bcd1f-630a-4f4d-a49d-a8583356e5a2","system_id":"levelo_inurba_marseille","lat":43.28647,"lon":5.39327,"is_reserved":false,"is_disabled":false,"rental_uris":{"android":"levelo://app?vid=376bcd1f-630a-4f4d-a49d-a8583356e5a2","ios":"levelo://app?vid=376bcd1f-630a-4f4d-a49d-a8583356e5a2"},"vehicle_type_id":"4","last_reported":1758949797,"current_range_meters":9600,"station_id":"","pricing_plan_id":"cebpf4jnsgd1na2vs0mg"},{"bike_id":"9300ed07-9754-4ebb-833a-0638397716cd","system_id":"levelo_inurba_marseille","lat":43.30552,"lon":5.38444,"is_reserved":false,"is_disabled":false,"rental_uris":{"android":"levelo://app?vid=9300ed07-9754-4ebb-833a-0638397716cd","ios":"levelo://app?vid=9300ed07-9754-4ebb-833a-0638397716cd"},"vehicle_type_id":"4","last_reported":1758949797,"current_range_meters":9600,"station_id":"ce4bgg92rcd13ifvqb30","pricing_plan_id":"cebpf4jnsgd1na2vs0mg"},{"bike_id":"864a8a8b-cf82-4054-a4a3-15be837b084a","system_id":"levelo_inurba_marseille","lat":43.323436,"lon":5.40621,"is_reserved":false,"is_disabled":false,"rental_uris":{"android":"levelo://app?vid=864a8a8b-cf82-4054-a4a3-15be837b084a","ios":"levelo://app?vid=864a8a8b-cf82-4054-a4a3-15be837b084a"},"vehicle_type_id":"4","last_reported":1758949797,"current_range_meters":9600,"station_id":"ce4bhq92rcd13ifvqhjg","pricing_plan_id":"cebpf4jnsgd1na2vs0mg"},{"bike_id":"2907de3a-cdb7-4c49-945b-9d4546080cdd","system_id":"levelo_inurba_marseille","lat":43.29459,"lon":5.36236,"is_reserved":false,"is_disabled":false,"rental_uris":{"android":"levelo://app?vid=2907de3a-cdb7-4c49-945b-9d4546080cdd","ios":"levelo://app?vid=2907de3a-cdb7-4c49-945b-9d4546080cdd"},"vehicle_type_id":"4","last_reported":1758949797,"current_range_meters":9600,"station_id":"","pricing_plan_id":"cebpf4jnsgd1na2vs0mg"},{"bike_id":"a3869f45-7a20-4bea-b4e8-9771008f3fa2","system_id":"levelo_inurba_marseille","lat":43.2871,"lon":5.3741,"is_reserved":false,"is_disabled":false,"rental_uris":{"android":"levelo://app?vid=a3869f45-7a20-4bea-b4e8-9771008f3fa2","ios":"levelo://app?vid=a3869f45-7a20-4bea-b4e8-9771008f3fa2"},"vehicle_type_id":"4","last_reported":1758949797,"current_range_meters":9600,"station_id":"ce4bh3p2rcd13ifvqdq0","pricing_plan_id":"cebpf4jnsgd1na2vs0mg"},{"bike_id":"c975862c-3721-4ac1-a6a4-5b86cf0364aa","system_id":"levelo_inurba_marseille","lat":43.21196,"lon":5.35124,"is_reserved":false,"is_disabled":false,"rental_uris":{"android":"levelo://app?vid=c975862c-3721-4ac1-a6a4-5b86cf0364aa","ios":"levelo://app?vid=c975862c-3721-4ac1-a6a4-5b86cf0364aa"},"vehicle_type_id":"4","last_reported":1758949797,"current_range_meters":9600,"station_id":"st_cvj6sg6p6f1abm77japg","pricing_plan_id":"cebpf4jnsgd1na2vs0mg"},{"bike_id":"a639c491-c436-478a-8d5d-bd2c30b918ff","system_id":"levelo_inurba_marseille","lat":43.29753,"lon":5.37219,"is_reserved":false,"is_disabled":false,"rental_uris":{"android":"levelo://app?vid=a639c491-c436-478a-8d5d-bd2c30b918ff","ios":"levelo://app?vid=a639c491-c436-478a-8d5d-bd2c30b918ff"},"vehicle_type_id":"4","last_reported":1758949797,"current_range_meters":9600,"station_id":"","pricing_plan_id":"cebpf4jnsgd1na2vs0mg"},{"bike_id":"b77c0c26-5543-49c5-acf9-741f709ee51a","system_id":"levelo_inurba_marseille","lat":43.264887,"lon":5.395504,"is_reserved":false,"is_disabled":true,"rental_uris":{"android":"levelo://app?vid=b77c0c26-5543-49c5-acf9-741f709ee51a","ios":"levelo://app?vid=b77c0c26-5543-49c5-acf9-741f709ee51a"},"vehicle_type_id":"4","last_reported":1758949797,"current_range_meters":9600,"station_id":"ce4bhi12rcd13ifvqfq0","pricing_plan_id":"cebpf4jnsgd1na2vs0mg"},{"bike_id":"64df0cea-d93c-4085-a36a-82afb9602077","system_id":"levelo_inurba_marseille","lat":43.26228,"lon":5.40457,"is_reserved":false,"is_disabled":false,"rental_uris":{"android":"levelo://app?vid=64df0cea-d93c-4085-a36a-82afb9602077","ios":"levelo://app?vid=64df0cea-d93c-4085-a36a-82afb9602077"},"vehicle_type_id":"4","last_reported":1758949797,"current_range_meters":10000,"station_id":"ce4bhmh2rcd13ifvqgmg","pricing_plan_id":"cebpf4jnsgd1na2vs0mg"},{"bike_id":"8dc00af3-5715-49ae-82c9-28552fd6dd37","system_id":"levelo_inurba_marseille","lat":43.290032,"lon":5.356161,"is_reserved":false,"is_disabled":false,"rental_uris":{"android":"levelo://app?vid=8dc00af3-5715-49ae-82c9-28552fd6dd37","ios":"levelo://app?vid=8dc00af3-5715-49ae-82c9-28552fd6dd37"},"vehicle_type_id":"4","last_reported":1758949797,"current_range_meters":10000,"station_id":"ce4bhb92rcd13ifvqen0","pricing_plan_id":"cebpf4jnsgd1na2vs0mg"},{"bike_id":"aedba0a8-112f-4dc4-981b-85edf047e9fb","system_id":"levelo_inurba_marseille","lat":43.25112,"lon":5.4034,"is_reserved":false,"is_disabled":false,"rental_uris":{"android":"levelo://app?vid=aedba0a8-112f-4dc4-981b-85edf047e9fb","ios":"levelo://app?vid=aedba0a8-112f-4dc4-981b-85edf047e9fb"},"vehicle_type_id":"4","last_reported":1758949797,"current_range_meters":10000,"station_id":"ce4bhlh2rcd13ifvqgig","pricing_plan_id":"cebpf4jnsgd1na2vs0mg"},{"bike_id":"d85a21d7-1e65-4d76-b134-97a257d3c799","system_id":"levelo_inurba_marseille","lat":43.29089,"lon":5.38182,"is_reserved":false,"is_disabled":true,"rental_uris":{"android":"levelo://app?vid=d85a21d7-1e65-4d76-b134-97a257d3c799","ios":"levelo://app?vid=d85a21d7-1e65-4d76-b134-97a257d3c799"},"vehicle_type_id":"4","last_reported":1758949797,"current_range_meters":10000,"station_id":"ce4bh512rcd13ifvqe2g","pricing_plan_id":"cebpf4jnsgd1na2vs0mg"},{"bike_id":"04e1f2fc-a999-4e5d-b642-eb389a3f0235","system_id":"levelo_inurba_marseille","lat":43.305411,"lon":5.365246,"is_reserved":false,"is_disabled":true,"rental_uris":{"android":"levelo://app?vid=04e1f2fc-a999-4e5d-b642-eb389a3f0235","ios":"levelo://app?vid=04e1f2fc-a999-4e5d-b642-eb389a3f0235"},"vehicle_type_id":"4","last_reported":1758949797,"current_range_meters":10000,"station_id":"ce4bgs12rcd13ifvqcag","pricing_plan_id":"cebpf4jnsgd1na2vs0mg"},{"bike_id":"492ad12c-b243-47af-8b99-b8dc1dc5237a","system_id":"levelo_inurba_marseille","lat":43.22929,"lon":5.35388,"is_reserved":false,"is_disabled":false,"rental_uris":{"android":"levelo://app?vid=492ad12c-b243-47af-8b99-b8dc1dc5237a","ios":"levelo://app?vid=492ad12c-b243-47af-8b99-b8dc1dc5237a"},"vehicle_type_id":"4","last_reported":1758949797,"current_range_meters":10000,"station_id":"cpo3532slgdg3j2ikp40","pricing_plan_id":"cebpf4jnsgd1na2vs0mg"},{"bike_id":"3be1415e-65a3-4c87-9e41-bbfa45afed45","system_id":"levelo_inurba_marseille","lat":43.29904,"lon":5.43699,"is_reserved":false,"is_disabled":false,"rental_uris":{"android":"levelo://app?vid=3be1415e-65a3-4c87-9e41-bbfa45afed45","ios":"levelo://app?vid=3be1415e-65a3-4c87-9e41-bbfa45afed45"},"vehicle_type_id":"4","last_reported":1758949797,"current_range_meters":10800,"station_id":"","pricing_plan_id":"cebpf4jnsgd1na2vs0mg"},{"bike_id":"d6625ab2-f484-4250-9e0e-bc20bc24232f","system_id":"levelo_inurba_marseille","lat":43.30259,"lon":5.40077,"is_reserved":false,"is_disabled":false,"rental_uris":{"android":"levelo://app?vid=d6625ab2-f484-4250-9e0e-bc20bc24232f","ios":"levelo://app?vid=d6625ab2-f484-4250-9e0e-bc20bc24232f"},"vehicle_type_id":"4","last_reported":1758949797,"current_range_meters":10800,"station_id":"ce4bgvh2rcd13ifvqcs0","pricing_plan_id":"cebpf4jnsgd1na2vs0mg"},{"bike_id":"3f51e03c-3abb-4dde-8cdd-da596aa3252f","system_id":"levelo_inurba_marseille","lat":43.27672,"lon":5.38893,"is_reserved":false,"is_disabled":true,"rental_uris":{"android":"levelo://app?vid=3f51e03c-3abb-4dde-8cdd-da596aa3252f","ios":"levelo://app?vid=3f51e03c-3abb-4dde-8cdd-da596aa3252f"},"vehicle_type_id":"4","last_reported":1758949797,"current_range_meters":10800,"station_id":"ce4bhi12rcd13ifvqfo0","pricing_plan_id":"cebpf4jnsgd1na2vs0mg"},{"bike_id":"9a4f92ed-e086-4038-a651-bbe0613f80bd","system_id":"levelo_inurba_marseille","lat":43.22568,"lon":5.4163,"is_reserved":false,"is_disabled":false,"rental_uris":{"android":"levelo://app?vid=9a4f92ed-e086-4038-a651-bbe0613f80bd","ios":"levelo://app?vid=9a4f92ed-e086-4038-a651-bbe0613f80bd"},"vehicle_type_id":"4","last_reported":1758949797,"current_range_meters":10800,"station_id":"st_d2o4gvlbi1j2169b742g","pricing_plan_id":"cebpf4jnsgd1na2vs0mg"},{"bike_id":"fd7db3b2-bf6f-47a6-a193-d9e54fb8924d","system_id":"levelo_inurba_marseille","lat":43.326915,"lon":5.38923,"is_reserved":false,"is_disabled":false,"rental_uris":{"android":"levelo://app?vid=fd7db3b2-bf6f-47a6-a193-d9e54fb8924d","ios":"levelo://app?vid=fd7db3b2-bf6f-47a6-a193-d9e54fb8924d"},"vehicle_type_id":"4","last_reported":1758949797,"current_range_meters":10800,"station_id":"","pricing_plan_id":"cebpf4jnsgd1na2vs0mg"},{"bike_id":"6948e7cf-b0a1-40f5-8c98-6380a618c11b","system_id":"levelo_inurba_marseille","lat":43.28008,"lon":5.41618,"is_reserved":false,"is_disabled":false,"rental_uris":{"android":"levelo://app?vid=6948e7cf-b0a1-40f5-8c98-6380a618c11b","ios":"levelo://app?vid=6948e7cf-b0a1-40f5-8c98-6380a618c11b"},"vehicle_type_id":"4","last_reported":1758949797,"current_range_meters":10800,"station_id":"ce4bho12rcd13ifvqh1g","pricing_plan_id":"cebpf4jnsgd1na2vs0mg"},{"bike_id":"de3747e9-e37c-4cdb-ad1a-9f67e8a91990","system_id":"levelo_inurba_marseille","lat":43.23195,"lon":5.4001,"is_reserved":false,"is_disabled":false,"rental_uris":{"android":"levelo://app?vid=de3747e9-e37c-4cdb-ad1a-9f67e8a91990","ios":"levelo://app?vid=de3747e9-e37c-4cdb-ad1a-9f67e8a91990"},"vehicle_type_id":"4","last_reported":1758949797,"current_range_meters":10800,"station_id":"ce4bhn12rcd13ifvqgqg","pricing_plan_id":"cebpf4jnsgd1na2vs0mg"},{"bike_id":"beedc081-2f74-4443-83b8-86641378e1ea","system_id":"levelo_inurba_marseille","lat":43.27181,"lon":5.40992,"is_reserved":false,"is_disabled":false,"rental_uris":{"android":"levelo://app?vid=beedc081-2f74-4443-83b8-86641378e1ea","ios":"levelo://app?vid=beedc081-2f74-4443-83b8-86641378e1ea"},"vehicle_type_id":"4","last_reported":1758949797,"current_range_meters":10800,"station_id":"ce4bhl12rcd13ifvqgf0","pricing_plan_id":"cebpf4jnsgd1na2vs0mg"},{"bike_id":"bdf98283-e040-4f5f-94a3-6c902d369273","system_id":"levelo_inurba_marseille","lat":43.297319,"lon":5.376881,"is_reserved":false,"is_disabled":true,"rental_uris":{"android":"levelo://app?vid=bdf98283-e040-4f5f-94a3-6c902d369273","ios":"levelo://app?vid=bdf98283-e040-4f5f-94a3-6c902d369273"},"vehicle_type_id":"4","last_reported":1758949797,"current_range_meters":10800,"station_id":"ce4bgkh2rcd13ifvqbl0","pricing_plan_id":"cebpf4jnsgd1na2vs0mg"},{"bike_id":"57dc4d48-a588-470d-9e76-731f989cf022","system_id":"levelo_inurba_marseille","lat":43.27174,"lon":5.40985,"is_reserved":false,"is_disabled":false,"rental_uris":{"android":"levelo://app?vid=57dc4d48-a588-470d-9e76-731f989cf022","ios":"levelo://app?vid=57dc4d48-a588-470d-9e76-731f989cf022"},"vehicle_type_id":"4","last_reported":1758949797,"current_range_meters":10800,"station_id":"ce4bhl12rcd13ifvqgf0","pricing_plan_id":"cebpf4jnsgd1na2vs0mg"},{"bike_id":"08fe2b08-b3fa-43f8-ae73-04061f76318d","system_id":"levelo_inurba_marseille","lat":43.305552,"lon":5.365395,"is_reserved":false,"is_disabled":false,"rental_uris":{"android":"levelo://app?vid=08fe2b08-b3fa-43f8-ae73-04061f76318d","ios":"levelo://app?vid=08fe2b08-b3fa-43f8-ae73-04061f76318d"},"vehicle_type_id":"4","last_reported":1758949797,"current_range_meters":10800,"station_id":"","pricing_plan_id":"cebpf4jnsgd1na2vs0mg"},{"bike_id":"4407f0c7-f8f2-44c4-b16c-74d5984e3278","system_id":"levelo_inurba_marseille","lat":43.25585,"lon":5.38209,"is_reserved":false,"is_disabled":true,"rental_uris":{"android":"levelo://app?vid=4407f0c7-f8f2-44c4-b16c-74d5984e3278","ios":"levelo://app?vid=4407f0c7-f8f2-44c4-b16c-74d5984e3278"},"vehicle_type_id":"4","last_reported":1758949797,"current_range_meters":10800,"station_id":"ce4bhih2rcd13ifvqfs0","pricing_plan_id":"cebpf4jnsgd1na2vs0mg"},{"bike_id":"0ea41344-eefb-4701-8c32-712cc43b7e62","system_id":"levelo_inurba_marseille","lat":43.31495,"lon":5.37306,"is_reserved":false,"is_disabled":false,"rental_uris":{"android":"levelo://app?vid=0ea41344-eefb-4701-8c32-712cc43b7e62","ios":"levelo://app?vid=0ea41344-eefb-4701-8c32-712cc43b7e62"},"vehicle_type_id":"4","last_reported":1758949797,"current_range_meters":10800,"station_id":"ce4bgt12rcd13ifvqcd0","pricing_plan_id":"cebpf4jnsgd1na2vs0mg"},{"bike_id":"41fbe864-b9c2-4b8a-a22b-e40ee788b52e","system_id":"levelo_inurba_marseille","lat":43.25099,"lon":5.39534,"is_reserved":false,"is_disabled":false,"rental_uris":{"android":"levelo://app?vid=41fbe864-b9c2-4b8a-a22b-e40ee788b52e","ios":"levelo://app?vid=41fbe864-b9c2-4b8a-a22b-e40ee788b52e"},"vehicle_type_id":"4","last_reported":1758949797,"current_range_meters":10800,"station_id":"ce4bhm12rcd13ifvqgkg","pricing_plan_id":"cebpf4jnsgd1na2vs0mg"},{"bike_id":"10b8d871-07e9-4114-9eb9-6bcce40e7beb","system_id":"levelo_inurba_marseille","lat":43.27045,"lon":5.392226,"is_reserved":false,"is_disabled":false,"rental_uris":{"android":"levelo://app?vid=10b8d871-07e9-4114-9eb9-6bcce40e7beb","ios":"levelo://app?vid=10b8d871-07e9-4114-9eb9-6bcce40e7beb"},"vehicle_type_id":"4","last_reported":1758949797,"current_range_meters":10800,"station_id":"ce4bhe12rcd13ifvqf30","pricing_plan_id":"cebpf4jnsgd1na2vs0mg"},{"bike_id":"fd4b5ad5-2581-44dd-90b2-f4a8fbdc2423","system_id":"levelo_inurba_marseille","lat":43.299011,"lon":5.364989,"is_reserved":false,"is_disabled":false,"rental_uris":{"android":"levelo://app?vid=fd4b5ad5-2581-44dd-90b2-f4a8fbdc2423","ios":"levelo://app?vid=fd4b5ad5-2581-44dd-90b2-f4a8fbdc2423"},"vehicle_type_id":"4","last_reported":1758949797,"current_range_meters":11200,"station_id":"","pricing_plan_id":"cebpf4jnsgd1na2vs0mg"},{"bike_id":"89cea052-4576-453d-8e9d-6e7729d13e8f","system_id":"levelo_inurba_marseille","lat":43.26569,"lon":5.40328,"is_reserved":false,"is_disabled":false,"rental_uris":{"android":"levelo://app?vid=89cea052-4576-453d-8e9d-6e7729d13e8f","ios":"levelo://app?vid=89cea052-4576-453d-8e9d-6e7729d13e8f"},"vehicle_type_id":"4","last_reported":1758949797,"current_range_meters":11200,"station_id":"ce4bhmp2rcd13ifvqgng","pricing_plan_id":"cebpf4jnsgd1na2vs0mg"},{"bike_id":"f626f457-0696-4e32-af9e-687030f53c6d","system_id":"levelo_inurba_marseille","lat":43.3375,"lon":5.37509,"is_reserved":false,"is_disabled":false,"rental_uris":{"android":"levelo://app?vid=f626f457-0696-4e32-af9e-687030f53c6d","ios":"levelo://app?vid=f626f457-0696-4e32-af9e-687030f53c6d"},"vehicle_type_id":"4","last_reported":1758949797,"current_range_meters":11200,"station_id":"","pricing_plan_id":"cebpf4jnsgd1na2vs0mg"},{"bike_id":"0b2fda4e-ac18-414b-8b05-54fcdd4fc421","system_id":"levelo_inurba_marseille","lat":43.32285,"lon":5.38262,"is_reserved":false,"is_disabled":false,"rental_uris":{"android":"levelo://app?vid=0b2fda4e-ac18-414b-8b05-54fcdd4fc421","ios":"levelo://app?vid=0b2fda4e-ac18-414b-8b05-54fcdd4fc421"},"vehicle_type_id":"4","last_reported":1758949797,"current_range_meters":11200,"station_id":"ce4bhr12rcd13ifvqhqg","pricing_plan_id":"cebpf4jnsgd1na2vs0mg"},{"bike_id":"dbee219e-5153-4b73-9f21-b46d94357ac7","system_id":"levelo_inurba_marseille","lat":43.29921,"lon":5.38107,"is_reserved":false,"is_disabled":true,"rental_uris":{"android":"levelo://app?vid=dbee219e-5153-4b73-9f21-b46d94357ac7","ios":"levelo://app?vid=dbee219e-5153-4b73-9f21-b46d94357ac7"},"vehicle_type_id":"4","last_reported":1758949797,"current_range_meters":11200,"station_id":"ce4bgj12rcd13ifvqbc0","pricing_plan_id":"cebpf4jnsgd1na2vs0mg"},{"bike_id":"cff89afc-fc2e-4a21-b156-855b02c41c7a","system_id":"levelo_inurba_marseille","lat":43.29001,"lon":5.35585,"is_reserved":false,"is_disabled":false,"rental_uris":{"android":"levelo://app?vid=cff89afc-fc2e-4a21-b156-855b02c41c7a","ios":"levelo://app?vid=cff89afc-fc2e-4a21-b156-855b02c41c7a"},"vehicle_type_id":"4","last_reported":1758949797,"current_range_meters":11600,"station_id":"ce4bhb92rcd13ifvqen0","pricing_plan_id":"cebpf4jnsgd1na2vs0mg"},{"bike_id":"7266fb39-452a-4e7f-aafa-8725c9c5d955","system_id":"levelo_inurba_marseille","lat":43.27219,"lon":5.4098,"is_reserved":false,"is_disabled":false,"rental_uris":{"android":"levelo://app?vid=7266fb39-452a-4e7f-aafa-8725c9c5d955","ios":"levelo://app?vid=7266fb39-452a-4e7f-aafa-8725c9c5d955"},"vehicle_type_id":"4","last_reported":1758949797,"current_range_meters":11600,"station_id":"","pricing_plan_id":"cebpf4jnsgd1na2vs0mg"},{"bike_id":"6c00a6a0-3cf0-48a9-b218-0693fab11be9","system_id":"levelo_inurba_marseille","lat":43.30306,"lon":5.43524,"is_reserved":false,"is_disabled":false,"rental_uris":{"android":"levelo://app?vid=6c00a6a0-3cf0-48a9-b218-0693fab11be9","ios":"levelo://app?vid=6c00a6a0-3cf0-48a9-b218-0693fab11be9"},"vehicle_type_id":"4","last_reported":1758949797,"current_range_meters":11600,"station_id":"","pricing_plan_id":"cebpf4jnsgd1na2vs0mg"},{"bike_id":"85782661-163d-4a8b-b5a4-1f0a766faaa2","system_id":"levelo_inurba_marseille","lat":43.2463,"lon":5.4314,"is_reserved":false,"is_disabled":false,"rental_uris":{"android":"levelo://app?vid=85782661-163d-4a8b-b5a4-1f0a766faaa2","ios":"levelo://app?vid=85782661-163d-4a8b-b5a4-1f0a766faaa2"},"vehicle_type_id":"4","last_reported":1758949797,"current_range_meters":11600,"station_id":"st_d2m6c4gdas8pm72e190g","pricing_plan_id":"cebpf4jnsgd1na2vs0mg"},{"bike_id":"05dd7cef-0645-45c5-8020-c5e1ca47099c","system_id":"levelo_inurba_marseille","lat":43.24648,"lon":5.38894,"is_reserved":false,"is_disabled":false,"rental_uris":{"android":"levelo://app?vid=05dd7cef-0645-45c5-8020-c5e1ca47099c","ios":"levelo://app?vid=05dd7cef-0645-45c5-8020-c5e1ca47099c"},"vehicle_type_id":"4","last_reported":1758949797,"current_range_meters":11600,"station_id":"ce4bhg12rcd13ifvqf60","pricing_plan_id":"cebpf4jnsgd1na2vs0mg"},{"bike_id":"e068fba2-d5f5-4586-981c-84563a6c6666","system_id":"levelo_inurba_marseille","lat":43.31336,"lon":5.39706,"is_reserved":false,"is_disabled":true,"rental_uris":{"android":"levelo://app?vid=e068fba2-d5f5-4586-981c-84563a6c6666","ios":"levelo://app?vid=e068fba2-d5f5-4586-981c-84563a6c6666"},"vehicle_type_id":"4","last_reported":1758949797,"current_range_meters":11600,"station_id":"ce4bgvp2rcd13ifvqcu0","pricing_plan_id":"cebpf4jnsgd1na2vs0mg"},{"bike_id":"fc88e4a3-bba5-409d-aedf-70a9d539a9c0","system_id":"levelo_inurba_marseille","lat":43.30887,"lon":5.39632,"is_reserved":false,"is_disabled":false,"rental_uris":{"android":"levelo://app?vid=fc88e4a3-bba5-409d-aedf-70a9d539a9c0","ios":"levelo://app?vid=fc88e4a3-bba5-409d-aedf-70a9d539a9c0"},"vehicle_type_id":"4","last_reported":1758949797,"current_range_meters":11600,"station_id":"ce4bh012rcd13ifvqcv0","pricing_plan_id":"cebpf4jnsgd1na2vs0mg"},{"bike_id":"fee74e98-eb52-4f66-a612-109c75f34aa6","system_id":"levelo_inurba_marseille","lat":43.296216,"lon":5.379492,"is_reserved":false,"is_disabled":false,"rental_uris":{"android":"levelo://app?vid=fee74e98-eb52-4f66-a612-109c75f34aa6","ios":"levelo://app?vid=fee74e98-eb52-4f66-a612-109c75f34aa6"},"vehicle_type_id":"4","last_reported":1758949797,"current_range_meters":11600,"station_id":"","pricing_plan_id":"cebpf4jnsgd1na2vs0mg"},{"bike_id":"e9965d7f-c60b-4fbd-96cd-93282f8867aa","system_id":"levelo_inurba_marseille","lat":43.25352,"lon":5.42191,"is_reserved":false,"is_disabled":false,"rental_uris":{"android":"levelo://app?vid=e9965d7f-c60b-4fbd-96cd-93282f8867aa","ios":"levelo://app?vid=e9965d7f-c60b-4fbd-96cd-93282f8867aa"},"vehicle_type_id":"4","last_reported":1758949797,"current_range_meters":11600,"station_id":"st_d2m65c5bi1j21697t3ng","pricing_plan_id":"cebpf4jnsgd1na2vs0mg"},{"bike_id":"de37a4c8-34a4-4a8f-b54c-1bbc676690f8","system_id":"levelo_inurba_marseille","lat":43.3031,"lon":5.40462,"is_reserved":false,"is_disabled":false,"rental_uris":{"android":"levelo://app?vid=de37a4c8-34a4-4a8f-b54c-1bbc676690f8","ios":"levelo://app?vid=de37a4c8-34a4-4a8f-b54c-1bbc676690f8"},"vehicle_type_id":"4","last_reported":1758949797,"current_range_meters":11600,"station_id":"ce4bh012rcd13ifvqd10","pricing_plan_id":"cebpf4jnsgd1na2vs0mg"},{"bike_id":"c37e5625-b670-436a-802f-d0e6109b1c8f","system_id":"levelo_inurba_marseille","lat":43.30153,"lon":5.38091,"is_reserved":false,"is_disabled":false,"rental_uris":{"android":"levelo://app?vid=c37e5625-b670-436a-802f-d0e6109b1c8f","ios":"levelo://app?vid=c37e5625-b670-436a-802f-d0e6109b1c8f"},"vehicle_type_id":"4","last_reported":1758949797,"current_range_meters":11600,"station_id":"ce4bgjp2rcd13ifvqbh0","pricing_plan_id":"cebpf4jnsgd1na2vs0mg"},{"bike_id":"8cf842e4-76c1-4a82-ad31-66529da65dba","system_id":"levelo_inurba_marseille","lat":43.26692,"lon":5.40213,"is_reserved":false,"is_disabled":false,"rental_uris":{"android":"levelo://app?vid=8cf842e4-76c1-4a82-ad31-66529da65dba","ios":"levelo://app?vid=8cf842e4-76c1-4a82-ad31-66529da65dba"},"vehicle_type_id":"4","last_reported":1758949797,"current_range_meters":12000,"station_id":"","pricing_plan_id":"cebpf4jnsgd1na2vs0mg"},{"bike_id":"735b4eef-5ed2-47aa-ab59-36616a810357","system_id":"levelo_inurba_marseille","lat":43.28038,"lon":5.39168,"is_reserved":false,"is_disabled":false,"rental_uris":{"android":"levelo://app?vid=735b4eef-5ed2-47aa-ab59-36616a810357","ios":"levelo://app?vid=735b4eef-5ed2-47aa-ab59-36616a810357"},"vehicle_type_id":"4","last_reported":1758949797,"current_range_meters":12000,"station_id":"","pricing_plan_id":"cebpf4jnsgd1na2vs0mg"},{"bike_id":"3652de56-c611-41c6-aa03-7fef6136da9d","system_id":"levelo_inurba_marseille","lat":43.25005,"lon":5.38925,"is_reserved":false,"is_disabled":false,"rental_uris":{"android":"levelo://app?vid=3652de56-c611-41c6-aa03-7fef6136da9d","ios":"levelo://app?vid=3652de56-c611-41c6-aa03-7fef6136da9d"},"vehicle_type_id":"4","last_reported":1758949797,"current_range_meters":12000,"station_id":"ce4bhgp2rcd13ifvqfd0","pricing_plan_id":"cebpf4jnsgd1na2vs0mg"},{"bike_id":"5a85c95d-db7c-4aff-bb3e-11fe5a5d2127","system_id":"levelo_inurba_marseille","lat":43.26579,"lon":5.39044,"is_reserved":false,"is_disabled":false,"rental_uris":{"android":"levelo://app?vid=5a85c95d-db7c-4aff-bb3e-11fe5a5d2127","ios":"levelo://app?vid=5a85c95d-db7c-4aff-bb3e-11fe5a5d2127"},"vehicle_type_id":"4","last_reported":1758949797,"current_range_meters":12000,"station_id":"ce4bhe12rcd13ifvqf30","pricing_plan_id":"cebpf4jnsgd1na2vs0mg"},{"bike_id":"3c886f95-456b-4492-8a78-52ec040e522d","system_id":"levelo_inurba_marseille","lat":43.29816,"lon":5.37369,"is_reserved":false,"is_disabled":true,"rental_uris":{"android":"levelo://app?vid=3c886f95-456b-4492-8a78-52ec040e522d","ios":"levelo://app?vid=3c886f95-456b-4492-8a78-52ec040e522d"},"vehicle_type_id":"4","last_reported":1758949797,"current_range_meters":12000,"station_id":"","pricing_plan_id":"cebpf4jnsgd1na2vs0mg"},{"bike_id":"ab915236-e4e0-43d4-b3d0-7dc20b4ec838","system_id":"levelo_inurba_marseille","lat":43.31392,"lon":5.36722,"is_reserved":false,"is_disabled":false,"rental_uris":{"android":"levelo://app?vid=ab915236-e4e0-43d4-b3d0-7dc20b4ec838","ios":"levelo://app?vid=ab915236-e4e0-43d4-b3d0-7dc20b4ec838"},"vehicle_type_id":"4","last_reported":1758949797,"current_range_meters":12000,"station_id":"","pricing_plan_id":"cebpf4jnsgd1na2vs0mg"},{"bike_id":"15b8abb9-1b82-439d-bef4-2444276aa7c3","system_id":"levelo_inurba_marseille","lat":43.31056,"lon":5.38348,"is_reserved":false,"is_disabled":true,"rental_uris":{"android":"levelo://app?vid=15b8abb9-1b82-439d-bef4-2444276aa7c3","ios":"levelo://app?vid=15b8abb9-1b82-439d-bef4-2444276aa7c3"},"vehicle_type_id":"4","last_reported":1758949797,"current_range_meters":12400,"station_id":"ce4bgv92rcd13ifvqcr0","pricing_plan_id":"cebpf4jnsgd1na2vs0mg"},{"bike_id":"a6187c30-1c11-4309-be70-335b3ca8c646","system_id":"levelo_inurba_marseille","lat":43.21192,"lon":5.350659,"is_reserved":false,"is_disabled":false,"rental_uris":{"android":"levelo://app?vid=a6187c30-1c11-4309-be70-335b3ca8c646","ios":"levelo://app?vid=a6187c30-1c11-4309-be70-335b3ca8c646"},"vehicle_type_id":"4","last_reported":1758949797,"current_range_meters":12400,"station_id":"","pricing_plan_id":"cebpf4jnsgd1na2vs0mg"},{"bike_id":"aca0d3b9-3123-4490-8e2c-fd1d3a8b8251","system_id":"levelo_inurba_marseille","lat":43.31361,"lon":5.38504,"is_reserved":false,"is_disabled":false,"rental_uris":{"android":"levelo://app?vid=aca0d3b9-3123-4490-8e2c-fd1d3a8b8251","ios":"levelo://app?vid=aca0d3b9-3123-4490-8e2c-fd1d3a8b8251"},"vehicle_type_id":"4","last_reported":1758949797,"current_range_meters":12400,"station_id":"ce4bgt92rcd13ifvqcf0","pricing_plan_id":"cebpf4jnsgd1na2vs0mg"},{"bike_id":"6d6d8da8-e6bd-4401-8227-e4015a556e81","system_id":"levelo_inurba_marseille","lat":43.251198,"lon":5.403256,"is_reserved":false,"is_disabled":false,"rental_uris":{"android":"levelo://app?vid=6d6d8da8-e6bd-4401-8227-e4015a556e81","ios":"levelo://app?vid=6d6d8da8-e6bd-4401-8227-e4015a556e81"},"vehicle_type_id":"4","last_reported":1758949797,"current_range_meters":12400,"station_id":"ce4bhlh2rcd13ifvqgig","pricing_plan_id":"cebpf4jnsgd1na2vs0mg"},{"bike_id":"ec348589-ff91-45a4-84f8-96a0dc2abb69","system_id":"levelo_inurba_marseille","lat":43.3273,"lon":5.39253,"is_reserved":false,"is_disabled":false,"rental_uris":{"android":"levelo://app?vid=ec348589-ff91-45a4-84f8-96a0dc2abb69","ios":"levelo://app?vid=ec348589-ff91-45a4-84f8-96a0dc2abb69"},"vehicle_type_id":"4","last_reported":1758949797,"current_range_meters":12400,"station_id":"","pricing_plan_id":"cebpf4jnsgd1na2vs0mg"},{"bike_id":"cd52d724-6e36-4c8e-9efa-f35ff15b1a8b","system_id":"levelo_inurba_marseille","lat":43.31725,"lon":5.42403,"is_reserved":false,"is_disabled":false,"rental_uris":{"android":"levelo://app?vid=cd52d724-6e36-4c8e-9efa-f35ff15b1a8b","ios":"levelo://app?vid=cd52d724-6e36-4c8e-9efa-f35ff15b1a8b"},"vehicle_type_id":"4","last_reported":1758949797,"current_range_meters":12400,"station_id":"ce4bhp92rcd13ifvqhbg","pricing_plan_id":"cebpf4jnsgd1na2vs0mg"},{"bike_id":"2a416e7a-1803-402e-9523-74bfe690bd54","system_id":"levelo_inurba_marseille","lat":43.32365,"lon":5.36767,"is_reserved":false,"is_disabled":false,"rental_uris":{"android":"levelo://app?vid=2a416e7a-1803-402e-9523-74bfe690bd54","ios":"levelo://app?vid=2a416e7a-1803-402e-9523-74bfe690bd54"},"vehicle_type_id":"4","last_reported":1758949797,"current_range_meters":12400,"station_id":"ce4bhsh2rcd13ifvqi2g","pricing_plan_id":"cebpf4jnsgd1na2vs0mg"},{"bike_id":"5d877167-f391-4cf4-830a-d2718a5834ac","system_id":"levelo_inurba_marseille","lat":43.31721,"lon":5.423938,"is_reserved":false,"is_disabled":false,"rental_uris":{"android":"levelo://app?vid=5d877167-f391-4cf4-830a-d2718a5834ac","ios":"levelo://app?vid=5d877167-f391-4cf4-830a-d2718a5834ac"},"vehicle_type_id":"4","last_reported":1758949797,"current_range_meters":12800,"station_id":"ce4bhp92rcd13ifvqhbg","pricing_plan_id":"cebpf4jnsgd1na2vs0mg"},{"bike_id":"70b7ea01-eb7d-4ad4-9d7b-08819c9c9cd3","system_id":"levelo_inurba_marseille","lat":43.25566,"lon":5.38253,"is_reserved":false,"is_disabled":true,"rental_uris":{"android":"levelo://app?vid=70b7ea01-eb7d-4ad4-9d7b-08819c9c9cd3","ios":"levelo://app?vid=70b7ea01-eb7d-4ad4-9d7b-08819c9c9cd3"},"vehicle_type_id":"4","last_reported":1758949797,"current_range_meters":12800,"station_id":"ce4bhih2rcd13ifvqfs0","pricing_plan_id":"cebpf4jnsgd1na2vs0mg"},{"bike_id":"63d52c35-c9c9-44eb-9780-1b2f9145123b","system_id":"levelo_inurba_marseille","lat":43.29627,"lon":5.377037,"is_reserved":false,"is_disabled":false,"rental_uris":{"android":"levelo://app?vid=63d52c35-c9c9-44eb-9780-1b2f9145123b","ios":"levelo://app?vid=63d52c35-c9c9-44eb-9780-1b2f9145123b"},"vehicle_type_id":"4","last_reported":1758949797,"current_range_meters":12800,"station_id":"","pricing_plan_id":"cebpf4jnsgd1na2vs0mg"},{"bike_id":"9bb4db31-0bf9-4171-bca1-76cb045f53a3","system_id":"levelo_inurba_marseille","lat":43.26924,"lon":5.389081,"is_reserved":false,"is_disabled":true,"rental_uris":{"android":"levelo://app?vid=9bb4db31-0bf9-4171-bca1-76cb045f53a3","ios":"levelo://app?vid=9bb4db31-0bf9-4171-bca1-76cb045f53a3"},"vehicle_type_id":"4","last_reported":1758949797,"current_range_meters":12800,"station_id":"ce4bhhh2rcd13ifvqfl0","pricing_plan_id":"cebpf4jnsgd1na2vs0mg"},{"bike_id":"01bf55f2-4ac6-46f6-8504-3267bf31e1a6","system_id":"levelo_inurba_marseille","lat":43.2973,"lon":5.381787,"is_reserved":false,"is_disabled":false,"rental_uris":{"android":"levelo://app?vid=01bf55f2-4ac6-46f6-8504-3267bf31e1a6","ios":"levelo://app?vid=01bf55f2-4ac6-46f6-8504-3267bf31e1a6"},"vehicle_type_id":"4","last_reported":1758949797,"current_range_meters":12800,"station_id":"","pricing_plan_id":"cebpf4jnsgd1na2vs0mg"},{"bike_id":"62529f44-1407-45b5-a57d-0e6b577d523f","system_id":"levelo_inurba_marseille","lat":43.317171,"lon":5.424029,"is_reserved":false,"is_disabled":true,"rental_uris":{"android":"levelo://app?vid=62529f44-1407-45b5-a57d-0e6b577d523f","ios":"levelo://app?vid=62529f44-1407-45b5-a57d-0e6b577d523f"},"vehicle_type_id":"4","last_reported":1758949797,"current_range_meters":12800,"station_id":"ce4bhp92rcd13ifvqhbg","pricing_plan_id":"cebpf4jnsgd1na2vs0mg"},{"bike_id":"5dfe6188-cf51-49fc-b324-419cf8501486","system_id":"levelo_inurba_marseille","lat":43.29488,"lon":5.38752,"is_reserved":false,"is_disabled":false,"rental_uris":{"android":"levelo://app?vid=5dfe6188-cf51-49fc-b324-419cf8501486","ios":"levelo://app?vid=5dfe6188-cf51-49fc-b324-419cf8501486"},"vehicle_type_id":"4","last_reported":1758949797,"current_range_meters":12800,"station_id":"","pricing_plan_id":"cebpf4jnsgd1na2vs0mg"},{"bike_id":"fd1364a5-ff73-488a-b72e-592513140002","system_id":"levelo_inurba_marseille","lat":43.25091,"lon":5.39525,"is_reserved":false,"is_disabled":false,"rental_uris":{"android":"levelo://app?vid=fd1364a5-ff73-488a-b72e-592513140002","ios":"levelo://app?vid=fd1364a5-ff73-488a-b72e-592513140002"},"vehicle_type_id":"4","last_reported":1758949797,"current_range_meters":12800,"station_id":"ce4bhm12rcd13ifvqgkg","pricing_plan_id":"cebpf4jnsgd1na2vs0mg"},{"bike_id":"ee925a9c-c600-454e-8837-0da5956fd25f","system_id":"levelo_inurba_marseille","lat":43.22944,"lon":5.3539,"is_reserved":false,"is_disabled":false,"rental_uris":{"android":"levelo://app?vid=ee925a9c-c600-454e-8837-0da5956fd25f","ios":"levelo://app?vid=ee925a9c-c600-454e-8837-0da5956fd25f"},"vehicle_type_id":"4","last_reported":1758949797,"current_range_meters":12800,"station_id":"cpo3532slgdg3j2ikp40","pricing_plan_id":"cebpf4jnsgd1na2vs0mg"},{"bike_id":"45e07bae-690f-4ff3-a8bd-511d32841972","system_id":"levelo_inurba_marseille","lat":43.24697,"lon":5.40187,"is_reserved":false,"is_disabled":false,"rental_uris":{"android":"levelo://app?vid=45e07bae-690f-4ff3-a8bd-511d32841972","ios":"levelo://app?vid=45e07bae-690f-4ff3-a8bd-511d32841972"},"vehicle_type_id":"4","last_reported":1758949797,"current_range_meters":13600,"station_id":"","pricing_plan_id":"cebpf4jnsgd1na2vs0mg"},{"bike_id":"e8c51c17-19f3-4a36-b51c-2f9ea4777522","system_id":"levelo_inurba_marseille","lat":43.2657,"lon":5.39055,"is_reserved":false,"is_disabled":false,"rental_uris":{"android":"levelo://app?vid=e8c51c17-19f3-4a36-b51c-2f9ea4777522","ios":"levelo://app?vid=e8c51c17-19f3-4a36-b51c-2f9ea4777522"},"vehicle_type_id":"4","last_reported":1758949797,"current_range_meters":13600,"station_id":"ce4bhe12rcd13ifvqf30","pricing_plan_id":"cebpf4jnsgd1na2vs0mg"},{"bike_id":"3f5f25b2-29cb-4c1b-9001-a380de7c6480","system_id":"levelo_inurba_marseille","lat":43.28419,"lon":5.34995,"is_reserved":false,"is_disabled":false,"rental_uris":{"android":"levelo://app?vid=3f5f25b2-29cb-4c1b-9001-a380de7c6480","ios":"levelo://app?vid=3f5f25b2-29cb-4c1b-9001-a380de7c6480"},"vehicle_type_id":"4","last_reported":1758949797,"current_range_meters":13600,"station_id":"ce4bhbh2rcd13ifvqepg","pricing_plan_id":"cebpf4jnsgd1na2vs0mg"},{"bike_id":"1c14f608-9eb0-4b58-8221-e6e5ed28265b","system_id":"levelo_inurba_marseille","lat":43.243951,"lon":5.370574,"is_reserved":false,"is_disabled":false,"rental_uris":{"android":"levelo://app?vid=1c14f608-9eb0-4b58-8221-e6e5ed28265b","ios":"levelo://app?vid=1c14f608-9eb0-4b58-8221-e6e5ed28265b"},"vehicle_type_id":"4","last_reported":1758949797,"current_range_meters":13600,"station_id":"ce4bhhh2rcd13ifvqfk0","pricing_plan_id":"cebpf4jnsgd1na2vs0mg"},{"bike_id":"39e73ceb-60a7-4264-8736-2fb1b49c7fb4","system_id":"levelo_inurba_marseille","lat":43.250014,"lon":5.389338,"is_reserved":false,"is_disabled":false,"rental_uris":{"android":"levelo://app?vid=39e73ceb-60a7-4264-8736-2fb1b49c7fb4","ios":"levelo://app?vid=39e73ceb-60a7-4264-8736-2fb1b49c7fb4"},"vehicle_type_id":"4","last_reported":1758949797,"current_range_meters":13600,"station_id":"ce4bhgp2rcd13ifvqfd0","pricing_plan_id":"cebpf4jnsgd1na2vs0mg"},{"bike_id":"e241dfc8-d7f9-404e-a9fb-70b03889b507","system_id":"levelo_inurba_marseille","lat":43.31376,"lon":5.38533,"is_reserved":false,"is_disabled":true,"rental_uris":{"android":"levelo://app?vid=e241dfc8-d7f9-404e-a9fb-70b03889b507","ios":"levelo://app?vid=e241dfc8-d7f9-404e-a9fb-70b03889b507"},"vehicle_type_id":"4","last_reported":1758949797,"current_range_meters":14000,"station_id":"ce4bgt92rcd13ifvqcf0","pricing_plan_id":"cebpf4jnsgd1na2vs0mg"},{"bike_id":"fc0516a3-c60c-4ef6-aa0f-b20216ddae8e","system_id":"levelo_inurba_marseille","lat":43.28958,"lon":5.37168,"is_reserved":false,"is_disabled":false,"rental_uris":{"android":"levelo://app?vid=fc0516a3-c60c-4ef6-aa0f-b20216ddae8e","ios":"levelo://app?vid=fc0516a3-c60c-4ef6-aa0f-b20216ddae8e"},"vehicle_type_id":"4","last_reported":1758949797,"current_range_meters":14000,"station_id":"","pricing_plan_id":"cebpf4jnsgd1na2vs0mg"},{"bike_id":"80bdba63-46f3-4274-b0d9-d9711409b6a8","system_id":"levelo_inurba_marseille","lat":43.270752,"lon":5.402497,"is_reserved":false,"is_disabled":false,"rental_uris":{"android":"levelo://app?vid=80bdba63-46f3-4274-b0d9-d9711409b6a8","ios":"levelo://app?vid=80bdba63-46f3-4274-b0d9-d9711409b6a8"},"vehicle_type_id":"4","last_reported":1758949797,"current_range_meters":14000,"station_id":"","pricing_plan_id":"cebpf4jnsgd1na2vs0mg"},{"bike_id":"c8b1cf41-1849-4329-8ffa-26e75935d5f8","system_id":"levelo_inurba_marseille","lat":43.27093,"lon":5.42278,"is_reserved":false,"is_disabled":false,"rental_uris":{"android":"levelo://app?vid=c8b1cf41-1849-4329-8ffa-26e75935d5f8","ios":"levelo://app?vid=c8b1cf41-1849-4329-8ffa-26e75935d5f8"},"vehicle_type_id":"4","last_reported":1758949797,"current_range_meters":14000,"station_id":"ce4bhk92rcd13ifvqgb0","pricing_plan_id":"cebpf4jnsgd1na2vs0mg"},{"bike_id":"934ea1ec-b7f6-49a1-9efa-287317d4eb22","system_id":"levelo_inurba_marseille","lat":43.29048,"lon":5.35914,"is_reserved":false,"is_disabled":false,"rental_uris":{"android":"levelo://app?vid=934ea1ec-b7f6-49a1-9efa-287317d4eb22","ios":"levelo://app?vid=934ea1ec-b7f6-49a1-9efa-287317d4eb22"},"vehicle_type_id":"4","last_reported":1758949797,"current_range_meters":14400,"station_id":"","pricing_plan_id":"cebpf4jnsgd1na2vs0mg"},{"bike_id":"943bef0e-7084-48c8-bbe4-deebf90121ff","system_id":"levelo_inurba_marseille","lat":43.29035,"lon":5.39974,"is_reserved":false,"is_disabled":false,"rental_uris":{"android":"levelo://app?vid=943bef0e-7084-48c8-bbe4-deebf90121ff","ios":"levelo://app?vid=943bef0e-7084-48c8-bbe4-deebf90121ff"},"vehicle_type_id":"4","last_reported":1758949797,"current_range_meters":14400,"station_id":"ce4bh392rcd13ifvqdm0","pricing_plan_id":"cebpf4jnsgd1na2vs0mg"},{"bike_id":"052c59a7-1cc4-4bbc-97f5-180981a63118","system_id":"levelo_inurba_marseille","lat":43.24632,"lon":5.43158,"is_reserved":false,"is_disabled":false,"rental_uris":{"android":"levelo://app?vid=052c59a7-1cc4-4bbc-97f5-180981a63118","ios":"levelo://app?vid=052c59a7-1cc4-4bbc-97f5-180981a63118"},"vehicle_type_id":"4","last_reported":1758949797,"current_range_meters":14400,"station_id":"st_d2m6c4gdas8pm72e190g","pricing_plan_id":"cebpf4jnsgd1na2vs0mg"},{"bike_id":"31a2accd-fac1-445a-96a9-4f1a04ab92f2","system_id":"levelo_inurba_marseille","lat":43.32354,"lon":5.40623,"is_reserved":false,"is_disabled":false,"rental_uris":{"android":"levelo://app?vid=31a2accd-fac1-445a-96a9-4f1a04ab92f2","ios":"levelo://app?vid=31a2accd-fac1-445a-96a9-4f1a04ab92f2"},"vehicle_type_id":"4","last_reported":1758949797,"current_range_meters":14400,"station_id":"ce4bhq92rcd13ifvqhjg","pricing_plan_id":"cebpf4jnsgd1na2vs0mg"},{"bike_id":"8c1d5d89-9224-4ca7-944d-7e12066fcb9e","system_id":"levelo_inurba_marseille","lat":43.30014,"lon":5.3885,"is_reserved":false,"is_disabled":false,"rental_uris":{"android":"levelo://app?vid=8c1d5d89-9224-4ca7-944d-7e12066fcb9e","ios":"levelo://app?vid=8c1d5d89-9224-4ca7-944d-7e12066fcb9e"},"vehicle_type_id":"4","last_reported":1758949797,"current_range_meters":14400,"station_id":"","pricing_plan_id":"cebpf4jnsgd1na2vs0mg"},{"bike_id":"0b6d78ef-a482-414c-8c48-806956450260","system_id":"levelo_inurba_marseille","lat":43.30649,"lon":5.40116,"is_reserved":false,"is_disabled":false,"rental_uris":{"android":"levelo://app?vid=0b6d78ef-a482-414c-8c48-806956450260","ios":"levelo://app?vid=0b6d78ef-a482-414c-8c48-806956450260"},"vehicle_type_id":"4","last_reported":1758949797,"current_range_meters":14400,"station_id":"ce4bh112rcd13ifvqda0","pricing_plan_id":"cebpf4jnsgd1na2vs0mg"},{"bike_id":"a58a31a4-3992-4f6b-9553-88e861e2eaae","system_id":"levelo_inurba_marseille","lat":43.28227,"lon":5.39106,"is_reserved":false,"is_disabled":false,"rental_uris":{"android":"levelo://app?vid=a58a31a4-3992-4f6b-9553-88e861e2eaae","ios":"levelo://app?vid=a58a31a4-3992-4f6b-9553-88e861e2eaae"},"vehicle_type_id":"4","last_reported":1758949797,"current_range_meters":14800,"station_id":"ce4bhn92rcd13ifvqgsg","pricing_plan_id":"cebpf4jnsgd1na2vs0mg"},{"bike_id":"df649d25-1f44-4471-8cdd-9566da8ef9b9","system_id":"levelo_inurba_marseille","lat":43.31921,"lon":5.39298,"is_reserved":false,"is_disabled":false,"rental_uris":{"android":"levelo://app?vid=df649d25-1f44-4471-8cdd-9566da8ef9b9","ios":"levelo://app?vid=df649d25-1f44-4471-8cdd-9566da8ef9b9"},"vehicle_type_id":"4","last_reported":1758949797,"current_range_meters":14800,"station_id":"","pricing_plan_id":"cebpf4jnsgd1na2vs0mg"},{"bike_id":"a85c738a-1316-4889-b7f4-674fdfcaba7e","system_id":"levelo_inurba_marseille","lat":43.246554,"lon":5.403647,"is_reserved":false,"is_disabled":false,"rental_uris":{"android":"levelo://app?vid=a85c738a-1316-4889-b7f4-674fdfcaba7e","ios":"levelo://app?vid=a85c738a-1316-4889-b7f4-674fdfcaba7e"},"vehicle_type_id":"4","last_reported":1758949797,"current_range_meters":14800,"station_id":"","pricing_plan_id":"cebpf4jnsgd1na2vs0mg"},{"bike_id":"9de5eb4a-2bba-4d94-b5d2-50807c7d8cc2","system_id":"levelo_inurba_marseille","lat":43.22534,"lon":5.34839,"is_reserved":false,"is_disabled":false,"rental_uris":{"android":"levelo://app?vid=9de5eb4a-2bba-4d94-b5d2-50807c7d8cc2","ios":"levelo://app?vid=9de5eb4a-2bba-4d94-b5d2-50807c7d8cc2"},"vehicle_type_id":"4","last_reported":1758949797,"current_range_meters":14800,"station_id":"","pricing_plan_id":"cebpf4jnsgd1na2vs0mg"},{"bike_id":"5bb42022-0e19-48bc-a5b4-218bb1d7482e","system_id":"levelo_inurba_marseille","lat":43.312739,"lon":5.377424,"is_reserved":false,"is_disabled":false,"rental_uris":{"android":"levelo://app?vid=5bb42022-0e19-48bc-a5b4-218bb1d7482e","ios":"levelo://app?vid=5bb42022-0e19-48bc-a5b4-218bb1d7482e"},"vehicle_type_id":"4","last_reported":1758949797,"current_range_meters":14800,"station_id":"","pricing_plan_id":"cebpf4jnsgd1na2vs0mg"},{"bike_id":"6c3ac910-3fcf-45ab-8662-fb568e445058","system_id":"levelo_inurba_marseille","lat":43.30653,"lon":5.40077,"is_reserved":false,"is_disabled":false,"rental_uris":{"android":"levelo://app?vid=6c3ac910-3fcf-45ab-8662-fb568e445058","ios":"levelo://app?vid=6c3ac910-3fcf-45ab-8662-fb568e445058"},"vehicle_type_id":"4","last_reported":1758949797,"current_range_meters":14800,"station_id":"ce4bh112rcd13ifvqda0","pricing_plan_id":"cebpf4jnsgd1na2vs0mg"},{"bike_id":"855d7122-4824-46d3-b6c6-d8afb40dfca0","system_id":"levelo_inurba_marseille","lat":43.24086,"lon":5.37787,"is_reserved":false,"is_disabled":false,"rental_uris":{"android":"levelo://app?vid=855d7122-4824-46d3-b6c6-d8afb40dfca0","ios":"levelo://app?vid=855d7122-4824-46d3-b6c6-d8afb40dfca0"},"vehicle_type_id":"4","last_reported":1758949797,"current_range_meters":14800,"station_id":"ce4bhnp2rcd13ifvqgvg","pricing_plan_id":"cebpf4jnsgd1na2vs0mg"},{"bike_id":"b97777f5-d0e8-46c1-ba55-0326f8586d47","system_id":"levelo_inurba_marseille","lat":43.28855,"lon":5.35848,"is_reserved":false,"is_disabled":false,"rental_uris":{"android":"levelo://app?vid=b97777f5-d0e8-46c1-ba55-0326f8586d47","ios":"levelo://app?vid=b97777f5-d0e8-46c1-ba55-0326f8586d47"},"vehicle_type_id":"4","last_reported":1758949797,"current_range_meters":15200,"station_id":"ce4bhb12rcd13ifvqem0","pricing_plan_id":"cebpf4jnsgd1na2vs0mg"},{"bike_id":"7f09bc43-02a6-468a-9182-731c83281b4a","system_id":"levelo_inurba_marseille","lat":43.26363,"lon":5.37548,"is_reserved":false,"is_disabled":false,"rental_uris":{"android":"levelo://app?vid=7f09bc43-02a6-468a-9182-731c83281b4a","ios":"levelo://app?vid=7f09bc43-02a6-468a-9182-731c83281b4a"},"vehicle_type_id":"4","last_reported":1758949797,"current_range_meters":15200,"station_id":"","pricing_plan_id":"cebpf4jnsgd1na2vs0mg"},{"bike_id":"4a9588e3-eb45-4a8a-8a80-e0548791ccd6","system_id":"levelo_inurba_marseille","lat":43.25342,"lon":5.42162,"is_reserved":false,"is_disabled":false,"rental_uris":{"android":"levelo://app?vid=4a9588e3-eb45-4a8a-8a80-e0548791ccd6","ios":"levelo://app?vid=4a9588e3-eb45-4a8a-8a80-e0548791ccd6"},"vehicle_type_id":"4","last_reported":1758949797,"current_range_meters":15200,"station_id":"st_d2m65c5bi1j21697t3ng","pricing_plan_id":"cebpf4jnsgd1na2vs0mg"},{"bike_id":"46ac5fb6-ac2e-43e8-84c9-c4e46889ea29","system_id":"levelo_inurba_marseille","lat":43.21196,"lon":5.35077,"is_reserved":false,"is_disabled":false,"rental_uris":{"android":"levelo://app?vid=46ac5fb6-ac2e-43e8-84c9-c4e46889ea29","ios":"levelo://app?vid=46ac5fb6-ac2e-43e8-84c9-c4e46889ea29"},"vehicle_type_id":"4","last_reported":1758949797,"current_range_meters":15200,"station_id":"st_cvj6sg6p6f1abm77japg","pricing_plan_id":"cebpf4jnsgd1na2vs0mg"},{"bike_id":"03350417-1098-4d6c-b8fe-9e64358744bf","system_id":"levelo_inurba_marseille","lat":43.31055,"lon":5.37575,"is_reserved":false,"is_disabled":false,"rental_uris":{"android":"levelo://app?vid=03350417-1098-4d6c-b8fe-9e64358744bf","ios":"levelo://app?vid=03350417-1098-4d6c-b8fe-9e64358744bf"},"vehicle_type_id":"4","last_reported":1758949797,"current_range_meters":15200,"station_id":"","pricing_plan_id":"cebpf4jnsgd1na2vs0mg"},{"bike_id":"216d4158-735a-4750-8f01-04eff35c8b90","system_id":"levelo_inurba_marseille","lat":43.27848,"lon":5.39222,"is_reserved":false,"is_disabled":false,"rental_uris":{"android":"levelo://app?vid=216d4158-735a-4750-8f01-04eff35c8b90","ios":"levelo://app?vid=216d4158-735a-4750-8f01-04eff35c8b90"},"vehicle_type_id":"4","last_reported":1758949797,"current_range_meters":14800,"station_id":"ce4bhjp2rcd13ifvqga0","pricing_plan_id":"cebpf4jnsgd1na2vs0mg"},{"bike_id":"71649b2c-48f8-4b8a-b9c0-477bd83fa14b","system_id":"levelo_inurba_marseille","lat":43.28422,"lon":5.34971,"is_reserved":false,"is_disabled":true,"rental_uris":{"android":"levelo://app?vid=71649b2c-48f8-4b8a-b9c0-477bd83fa14b","ios":"levelo://app?vid=71649b2c-48f8-4b8a-b9c0-477bd83fa14b"},"vehicle_type_id":"4","last_reported":1758949797,"current_range_meters":16000,"station_id":"ce4bhbh2rcd13ifvqepg","pricing_plan_id":"cebpf4jnsgd1na2vs0mg"},{"bike_id":"327c041e-5c9e-4b0d-a97c-a2dbaab036ae","system_id":"levelo_inurba_marseille","lat":43.32813,"lon":5.4113,"is_reserved":false,"is_disabled":false,"rental_uris":{"android":"levelo://app?vid=327c041e-5c9e-4b0d-a97c-a2dbaab036ae","ios":"levelo://app?vid=327c041e-5c9e-4b0d-a97c-a2dbaab036ae"},"vehicle_type_id":"4","last_reported":1758949797,"current_range_meters":16000,"station_id":"","pricing_plan_id":"cebpf4jnsgd1na2vs0mg"},{"bike_id":"cd119ae5-1417-41f1-a8e2-920696e70b86","system_id":"levelo_inurba_marseille","lat":43.225653,"lon":5.416267,"is_reserved":false,"is_disabled":false,"rental_uris":{"android":"levelo://app?vid=cd119ae5-1417-41f1-a8e2-920696e70b86","ios":"levelo://app?vid=cd119ae5-1417-41f1-a8e2-920696e70b86"},"vehicle_type_id":"4","last_reported":1758949797,"current_range_meters":16000,"station_id":"st_d2o4gvlbi1j2169b742g","pricing_plan_id":"cebpf4jnsgd1na2vs0mg"},{"bike_id":"9298efca-5863-4f45-8b64-7fc54d2feaa7","system_id":"levelo_inurba_marseille","lat":43.28715,"lon":5.37402,"is_reserved":false,"is_disabled":false,"rental_uris":{"android":"levelo://app?vid=9298efca-5863-4f45-8b64-7fc54d2feaa7","ios":"levelo://app?vid=9298efca-5863-4f45-8b64-7fc54d2feaa7"},"vehicle_type_id":"4","last_reported":1758949797,"current_range_meters":16000,"station_id":"ce4bh3p2rcd13ifvqdq0","pricing_plan_id":"cebpf4jnsgd1na2vs0mg"},{"bike_id":"398ee6a3-1ca0-4a39-b8ef-9410f4339bd9","system_id":"levelo_inurba_marseille","lat":43.24171,"lon":5.36401,"is_reserved":false,"is_disabled":false,"rental_uris":{"android":"levelo://app?vid=398ee6a3-1ca0-4a39-b8ef-9410f4339bd9","ios":"levelo://app?vid=398ee6a3-1ca0-4a39-b8ef-9410f4339bd9"},"vehicle_type_id":"4","last_reported":1758949797,"current_range_meters":16000,"station_id":"cpo36qri1sfpv3e86is0","pricing_plan_id":"cebpf4jnsgd1na2vs0mg"},{"bike_id":"665db91b-dd1b-4912-8590-8678ef4e8928","system_id":"levelo_inurba_marseille","lat":43.25132,"lon":5.40317,"is_reserved":false,"is_disabled":false,"rental_uris":{"android":"levelo://app?vid=665db91b-dd1b-4912-8590-8678ef4e8928","ios":"levelo://app?vid=665db91b-dd1b-4912-8590-8678ef4e8928"},"vehicle_type_id":"4","last_reported":1758949797,"current_range_meters":16000,"station_id":"ce4bhlh2rcd13ifvqgig","pricing_plan_id":"cebpf4jnsgd1na2vs0mg"},{"bike_id":"1c3e2cf7-7039-483f-bd2a-6943b321f854","system_id":"levelo_inurba_marseille","lat":43.26419,"lon":5.41126,"is_reserved":false,"is_disabled":false,"rental_uris":{"android":"levelo://app?vid=1c3e2cf7-7039-483f-bd2a-6943b321f854","ios":"levelo://app?vid=1c3e2cf7-7039-483f-bd2a-6943b321f854"},"vehicle_type_id":"4","last_reported":1758949797,"current_range_meters":16000,"station_id":"","pricing_plan_id":"cebpf4jnsgd1na2vs0mg"},{"bike_id":"31028c27-330e-419e-b95a-677487e65d45","system_id":"levelo_inurba_marseille","lat":43.330265,"lon":5.390441,"is_reserved":false,"is_disabled":false,"rental_uris":{"android":"levelo://app?vid=31028c27-330e-419e-b95a-677487e65d45","ios":"levelo://app?vid=31028c27-330e-419e-b95a-677487e65d45"},"vehicle_type_id":"4","last_reported":1758949797,"current_range_meters":16000,"station_id":"ce4bhr92rcd13ifvqhrg","pricing_plan_id":"cebpf4jnsgd1na2vs0mg"},{"bike_id":"367cc5de-fbd0-47d1-8fa2-cb83d9fcf585","system_id":"levelo_inurba_marseille","lat":43.25828,"lon":5.39451,"is_reserved":false,"is_disabled":false,"rental_uris":{"android":"levelo://app?vid=367cc5de-fbd0-47d1-8fa2-cb83d9fcf585","ios":"levelo://app?vid=367cc5de-fbd0-47d1-8fa2-cb83d9fcf585"},"vehicle_type_id":"4","last_reported":1758949797,"current_range_meters":16000,"station_id":"ce4bhip2rcd13ifvqft0","pricing_plan_id":"cebpf4jnsgd1na2vs0mg"},{"bike_id":"03b6b41b-7fc6-407d-b0ba-3a89c78751bc","system_id":"levelo_inurba_marseille","lat":43.306535,"lon":5.400807,"is_reserved":false,"is_disabled":false,"rental_uris":{"android":"levelo://app?vid=03b6b41b-7fc6-407d-b0ba-3a89c78751bc","ios":"levelo://app?vid=03b6b41b-7fc6-407d-b0ba-3a89c78751bc"},"vehicle_type_id":"4","last_reported":1758949797,"current_range_meters":16000,"station_id":"ce4bh112rcd13ifvqda0","pricing_plan_id":"cebpf4jnsgd1na2vs0mg"},{"bike_id":"9feae468-b8bd-422a-8fcb-2d68fc5ee82c","system_id":"levelo_inurba_marseille","lat":43.3338,"lon":5.42025,"is_reserved":false,"is_disabled":false,"rental_uris":{"android":"levelo://app?vid=9feae468-b8bd-422a-8fcb-2d68fc5ee82c","ios":"levelo://app?vid=9feae468-b8bd-422a-8fcb-2d68fc5ee82c"},"vehicle_type_id":"4","last_reported":1758949797,"current_range_meters":16400,"station_id":"","pricing_plan_id":"cebpf4jnsgd1na2vs0mg"},{"bike_id":"a4ba26dc-2f32-48e5-bf18-4cc12ac5d755","system_id":"levelo_inurba_marseille","lat":43.270843,"lon":5.422759,"is_reserved":false,"is_disabled":false,"rental_uris":{"android":"levelo://app?vid=a4ba26dc-2f32-48e5-bf18-4cc12ac5d755","ios":"levelo://app?vid=a4ba26dc-2f32-48e5-bf18-4cc12ac5d755"},"vehicle_type_id":"4","last_reported":1758949797,"current_range_meters":16400,"station_id":"ce4bhk92rcd13ifvqgb0","pricing_plan_id":"cebpf4jnsgd1na2vs0mg"},{"bike_id":"71c5f8cc-6881-46b9-bbbc-8164fe7d6eaa","system_id":"levelo_inurba_marseille","lat":43.251213,"lon":5.403266,"is_reserved":false,"is_disabled":false,"rental_uris":{"android":"levelo://app?vid=71c5f8cc-6881-46b9-bbbc-8164fe7d6eaa","ios":"levelo://app?vid=71c5f8cc-6881-46b9-bbbc-8164fe7d6eaa"},"vehicle_type_id":"4","last_reported":1758949797,"current_range_meters":16400,"station_id":"ce4bhlh2rcd13ifvqgig","pricing_plan_id":"cebpf4jnsgd1na2vs0mg"},{"bike_id":"4a5f2c7e-7ab6-4fbf-abec-0194fa5424fe","system_id":"levelo_inurba_marseille","lat":43.28007,"lon":5.41666,"is_reserved":false,"is_disabled":false,"rental_uris":{"android":"levelo://app?vid=4a5f2c7e-7ab6-4fbf-abec-0194fa5424fe","ios":"levelo://app?vid=4a5f2c7e-7ab6-4fbf-abec-0194fa5424fe"},"vehicle_type_id":"4","last_reported":1758949797,"current_range_meters":16400,"station_id":"ce4bho12rcd13ifvqh1g","pricing_plan_id":"cebpf4jnsgd1na2vs0mg"},{"bike_id":"2221b137-a2de-474e-91de-6d351c76ddc5","system_id":"levelo_inurba_marseille","lat":43.31336,"lon":5.39682,"is_reserved":false,"is_disabled":false,"rental_uris":{"android":"levelo://app?vid=2221b137-a2de-474e-91de-6d351c76ddc5","ios":"levelo://app?vid=2221b137-a2de-474e-91de-6d351c76ddc5"},"vehicle_type_id":"4","last_reported":1758949797,"current_range_meters":16400,"station_id":"ce4bgvp2rcd13ifvqcu0","pricing_plan_id":"cebpf4jnsgd1na2vs0mg"},{"bike_id":"82115a18-6cd4-48f2-87ee-746c22595cee","system_id":"levelo_inurba_marseille","lat":43.30153,"lon":5.38105,"is_reserved":false,"is_disabled":true,"rental_uris":{"android":"levelo://app?vid=82115a18-6cd4-48f2-87ee-746c22595cee","ios":"levelo://app?vid=82115a18-6cd4-48f2-87ee-746c22595cee"},"vehicle_type_id":"4","last_reported":1758949797,"current_range_meters":16400,"station_id":"ce4bgjp2rcd13ifvqbh0","pricing_plan_id":"cebpf4jnsgd1na2vs0mg"},{"bike_id":"1cab1605-6b3d-4fdf-a982-82c459da0097","system_id":"levelo_inurba_marseille","lat":43.28672,"lon":5.36362,"is_reserved":false,"is_disabled":false,"rental_uris":{"android":"levelo://app?vid=1cab1605-6b3d-4fdf-a982-82c459da0097","ios":"levelo://app?vid=1cab1605-6b3d-4fdf-a982-82c459da0097"},"vehicle_type_id":"4","last_reported":1758949797,"current_range_meters":16400,"station_id":"ce4bhah2rcd13ifvqej0","pricing_plan_id":"cebpf4jnsgd1na2vs0mg"},{"bike_id":"4635c942-f2b1-44bd-8835-1cc392551193","system_id":"levelo_inurba_marseille","lat":43.28403,"lon":5.3752,"is_reserved":false,"is_disabled":false,"rental_uris":{"android":"levelo://app?vid=4635c942-f2b1-44bd-8835-1cc392551193","ios":"levelo://app?vid=4635c942-f2b1-44bd-8835-1cc392551193"},"vehicle_type_id":"4","last_reported":1758949797,"current_range_meters":16400,"station_id":"ce4bh412rcd13ifvqds0","pricing_plan_id":"cebpf4jnsgd1na2vs0mg"},{"bike_id":"aa1ef45f-f323-4723-9180-ea0318bf8a28","system_id":"levelo_inurba_marseille","lat":43.32344,"lon":5.40612,"is_reserved":false,"is_disabled":false,"rental_uris":{"android":"levelo://app?vid=aa1ef45f-f323-4723-9180-ea0318bf8a28","ios":"levelo://app?vid=aa1ef45f-f323-4723-9180-ea0318bf8a28"},"vehicle_type_id":"4","last_reported":1758949797,"current_range_meters":16800,"station_id":"ce4bhq92rcd13ifvqhjg","pricing_plan_id":"cebpf4jnsgd1na2vs0mg"},{"bike_id":"175ed984-4779-4b98-920a-039ca300eaa4","system_id":"levelo_inurba_marseille","lat":43.27297,"lon":5.4079,"is_reserved":false,"is_disabled":false,"rental_uris":{"android":"levelo://app?vid=175ed984-4779-4b98-920a-039ca300eaa4","ios":"levelo://app?vid=175ed984-4779-4b98-920a-039ca300eaa4"},"vehicle_type_id":"4","last_reported":1758949797,"current_range_meters":16800,"station_id":"","pricing_plan_id":"cebpf4jnsgd1na2vs0mg"},{"bike_id":"85c7ac65-0172-4766-8977-f4ba34ed9c93","system_id":"levelo_inurba_marseille","lat":43.2535,"lon":5.42192,"is_reserved":false,"is_disabled":false,"rental_uris":{"android":"levelo://app?vid=85c7ac65-0172-4766-8977-f4ba34ed9c93","ios":"levelo://app?vid=85c7ac65-0172-4766-8977-f4ba34ed9c93"},"vehicle_type_id":"4","last_reported":1758949797,"current_range_meters":16800,"station_id":"st_d2m65c5bi1j21697t3ng","pricing_plan_id":"cebpf4jnsgd1na2vs0mg"},{"bike_id":"44d4d470-428c-4d22-8a8d-45e84313f9de","system_id":"levelo_inurba_marseille","lat":43.30908,"lon":5.39644,"is_reserved":false,"is_disabled":false,"rental_uris":{"android":"levelo://app?vid=44d4d470-428c-4d22-8a8d-45e84313f9de","ios":"levelo://app?vid=44d4d470-428c-4d22-8a8d-45e84313f9de"},"vehicle_type_id":"4","last_reported":1758949797,"current_range_meters":16800,"station_id":"ce4bh012rcd13ifvqcv0","pricing_plan_id":"cebpf4jnsgd1na2vs0mg"},{"bike_id":"b23fb850-684f-43f6-8592-6935a0d57bb2","system_id":"levelo_inurba_marseille","lat":43.28565,"lon":5.3951,"is_reserved":false,"is_disabled":true,"rental_uris":{"android":"levelo://app?vid=b23fb850-684f-43f6-8592-6935a0d57bb2","ios":"levelo://app?vid=b23fb850-684f-43f6-8592-6935a0d57bb2"},"vehicle_type_id":"4","last_reported":1758949797,"current_range_meters":16800,"station_id":"ce4bh292rcd13ifvqdg0","pricing_plan_id":"cebpf4jnsgd1na2vs0mg"},{"bike_id":"5de5a448-9e06-4293-af32-48e8256dee6d","system_id":"levelo_inurba_marseille","lat":43.33756,"lon":5.37439,"is_reserved":false,"is_disabled":false,"rental_uris":{"android":"levelo://app?vid=5de5a448-9e06-4293-af32-48e8256dee6d","ios":"levelo://app?vid=5de5a448-9e06-4293-af32-48e8256dee6d"},"vehicle_type_id":"4","last_reported":1758949797,"current_range_meters":16800,"station_id":"","pricing_plan_id":"cebpf4jnsgd1na2vs0mg"},{"bike_id":"912aeb68-4b25-4bda-9d18-d3328632a172","system_id":"levelo_inurba_marseille","lat":43.288557,"lon":5.35854,"is_reserved":false,"is_disabled":false,"rental_uris":{"android":"levelo://app?vid=912aeb68-4b25-4bda-9d18-d3328632a172","ios":"levelo://app?vid=912aeb68-4b25-4bda-9d18-d3328632a172"},"vehicle_type_id":"4","last_reported":1758949797,"current_range_meters":16800,"station_id":"ce4bhb12rcd13ifvqem0","pricing_plan_id":"cebpf4jnsgd1na2vs0mg"},{"bike_id":"21b98d00-a3e4-4f64-9029-39c5707a0872","system_id":"levelo_inurba_marseille","lat":43.31072,"lon":5.38348,"is_reserved":false,"is_disabled":false,"rental_uris":{"android":"levelo://app?vid=21b98d00-a3e4-4f64-9029-39c5707a0872","ios":"levelo://app?vid=21b98d00-a3e4-4f64-9029-39c5707a0872"},"vehicle_type_id":"4","last_reported":1758949797,"current_range_meters":16800,"station_id":"ce4bgv92rcd13ifvqcr0","pricing_plan_id":"cebpf4jnsgd1na2vs0mg"},{"bike_id":"317f2be1-b105-402c-900f-6b3ae07bb4db","system_id":"levelo_inurba_marseille","lat":43.24167,"lon":5.36399,"is_reserved":false,"is_disabled":false,"rental_uris":{"android":"levelo://app?vid=317f2be1-b105-402c-900f-6b3ae07bb4db","ios":"levelo://app?vid=317f2be1-b105-402c-900f-6b3ae07bb4db"},"vehicle_type_id":"4","last_reported":1758949797,"current_range_meters":16800,"station_id":"cpo36qri1sfpv3e86is0","pricing_plan_id":"cebpf4jnsgd1na2vs0mg"},{"bike_id":"6fbef51e-815f-44f1-844b-e8c9d10753b8","system_id":"levelo_inurba_marseille","lat":43.27175,"lon":5.41,"is_reserved":false,"is_disabled":false,"rental_uris":{"android":"levelo://app?vid=6fbef51e-815f-44f1-844b-e8c9d10753b8","ios":"levelo://app?vid=6fbef51e-815f-44f1-844b-e8c9d10753b8"},"vehicle_type_id":"4","last_reported":1758949797,"current_range_meters":17200,"station_id":"ce4bhl12rcd13ifvqgf0","pricing_plan_id":"cebpf4jnsgd1na2vs0mg"},{"bike_id":"eba41fdd-3d44-40e3-adae-81844e46783b","system_id":"levelo_inurba_marseille","lat":43.28417,"lon":5.37509,"is_reserved":false,"is_disabled":false,"rental_uris":{"android":"levelo://app?vid=eba41fdd-3d44-40e3-adae-81844e46783b","ios":"levelo://app?vid=eba41fdd-3d44-40e3-adae-81844e46783b"},"vehicle_type_id":"4","last_reported":1758949797,"current_range_meters":17200,"station_id":"ce4bh412rcd13ifvqds0","pricing_plan_id":"cebpf4jnsgd1na2vs0mg"},{"bike_id":"cb0a43cc-2f6b-482a-91bb-c383cccf5be4","system_id":"levelo_inurba_marseille","lat":43.31993,"lon":5.38044,"is_reserved":false,"is_disabled":false,"rental_uris":{"android":"levelo://app?vid=cb0a43cc-2f6b-482a-91bb-c383cccf5be4","ios":"levelo://app?vid=cb0a43cc-2f6b-482a-91bb-c383cccf5be4"},"vehicle_type_id":"4","last_reported":1758949797,"current_range_meters":17200,"station_id":"","pricing_plan_id":"cebpf4jnsgd1na2vs0mg"},{"bike_id":"bfac250c-b803-44ef-88a2-b8e95d5dc714","system_id":"levelo_inurba_marseille","lat":43.25338,"lon":5.42173,"is_reserved":false,"is_disabled":false,"rental_uris":{"android":"levelo://app?vid=bfac250c-b803-44ef-88a2-b8e95d5dc714","ios":"levelo://app?vid=bfac250c-b803-44ef-88a2-b8e95d5dc714"},"vehicle_type_id":"4","last_reported":1758949797,"current_range_meters":17200,"station_id":"st_d2m65c5bi1j21697t3ng","pricing_plan_id":"cebpf4jnsgd1na2vs0mg"},{"bike_id":"4c02c545-ad59-45b1-9b9c-d3678a5922c7","system_id":"levelo_inurba_marseille","lat":43.337444,"lon":5.374475,"is_reserved":false,"is_disabled":false,"rental_uris":{"android":"levelo://app?vid=4c02c545-ad59-45b1-9b9c-d3678a5922c7","ios":"levelo://app?vid=4c02c545-ad59-45b1-9b9c-d3678a5922c7"},"vehicle_type_id":"4","last_reported":1758949797,"current_range_meters":17200,"station_id":"","pricing_plan_id":"cebpf4jnsgd1na2vs0mg"},{"bike_id":"3fccd8f6-2dcb-412d-8982-fb947c83a223","system_id":"levelo_inurba_marseille","lat":43.31123,"lon":5.37759,"is_reserved":false,"is_disabled":false,"rental_uris":{"android":"levelo://app?vid=3fccd8f6-2dcb-412d-8982-fb947c83a223","ios":"levelo://app?vid=3fccd8f6-2dcb-412d-8982-fb947c83a223"},"vehicle_type_id":"4","last_reported":1758949797,"current_range_meters":17200,"station_id":"ce4bgt92rcd13ifvqcg0","pricing_plan_id":"cebpf4jnsgd1na2vs0mg"},{"bike_id":"8631e1de-9e17-4ad0-8f0d-fcc6c04dcb03","system_id":"levelo_inurba_marseille","lat":43.30935,"lon":5.4015,"is_reserved":false,"is_disabled":false,"rental_uris":{"android":"levelo://app?vid=8631e1de-9e17-4ad0-8f0d-fcc6c04dcb03","ios":"levelo://app?vid=8631e1de-9e17-4ad0-8f0d-fcc6c04dcb03"},"vehicle_type_id":"4","last_reported":1758949797,"current_range_meters":17200,"station_id":"ce4bgvp2rcd13ifvqct0","pricing_plan_id":"cebpf4jnsgd1na2vs0mg"},{"bike_id":"3c406417-c9c2-4748-906e-a2fb7326e10c","system_id":"levelo_inurba_marseille","lat":43.2871,"lon":5.39975,"is_reserved":false,"is_disabled":false,"rental_uris":{"android":"levelo://app?vid=3c406417-c9c2-4748-906e-a2fb7326e10c","ios":"levelo://app?vid=3c406417-c9c2-4748-906e-a2fb7326e10c"},"vehicle_type_id":"4","last_reported":1758949797,"current_range_meters":17200,"station_id":"ce4bho92rcd13ifvqh3g","pricing_plan_id":"cebpf4jnsgd1na2vs0mg"},{"bike_id":"7aac2627-6b70-4df7-ad8a-6082bb89c0b7","system_id":"levelo_inurba_marseille","lat":43.25114,"lon":5.40335,"is_reserved":false,"is_disabled":false,"rental_uris":{"android":"levelo://app?vid=7aac2627-6b70-4df7-ad8a-6082bb89c0b7","ios":"levelo://app?vid=7aac2627-6b70-4df7-ad8a-6082bb89c0b7"},"vehicle_type_id":"4","last_reported":1758949797,"current_range_meters":17200,"station_id":"ce4bhlh2rcd13ifvqgig","pricing_plan_id":"cebpf4jnsgd1na2vs0mg"},{"bike_id":"28ee8c09-1dd8-4072-8a3e-fbfd6fb6b45b","system_id":"levelo_inurba_marseille","lat":43.318897,"lon":5.407359,"is_reserved":false,"is_disabled":false,"rental_uris":{"android":"levelo://app?vid=28ee8c09-1dd8-4072-8a3e-fbfd6fb6b45b","ios":"levelo://app?vid=28ee8c09-1dd8-4072-8a3e-fbfd6fb6b45b"},"vehicle_type_id":"4","last_reported":1758949797,"current_range_meters":17600,"station_id":"ce4bhq12rcd13ifvqhig","pricing_plan_id":"cebpf4jnsgd1na2vs0mg"},{"bike_id":"dc4883ea-8f06-44d1-8b3d-6660e39a87ec","system_id":"levelo_inurba_marseille","lat":43.21767,"lon":5.34584,"is_reserved":false,"is_disabled":true,"rental_uris":{"android":"levelo://app?vid=dc4883ea-8f06-44d1-8b3d-6660e39a87ec","ios":"levelo://app?vid=dc4883ea-8f06-44d1-8b3d-6660e39a87ec"},"vehicle_type_id":"4","last_reported":1758949797,"current_range_meters":17600,"station_id":"st_cvj6r9ubvosntc0bgbag","pricing_plan_id":"cebpf4jnsgd1na2vs0mg"},{"bike_id":"4f5a88f0-fd06-4a49-be33-193b1dc49457","system_id":"levelo_inurba_marseille","lat":43.30415,"lon":5.41286,"is_reserved":false,"is_disabled":false,"rental_uris":{"android":"levelo://app?vid=4f5a88f0-fd06-4a49-be33-193b1dc49457","ios":"levelo://app?vid=4f5a88f0-fd06-4a49-be33-193b1dc49457"},"vehicle_type_id":"4","last_reported":1758949797,"current_range_meters":17600,"station_id":"ce4bhop2rcd13ifvqh8g","pricing_plan_id":"cebpf4jnsgd1na2vs0mg"},{"bike_id":"37a3518b-1574-4b1f-9320-dfb70ff44a3c","system_id":"levelo_inurba_marseille","lat":43.29209,"lon":5.3932,"is_reserved":false,"is_disabled":true,"rental_uris":{"android":"levelo://app?vid=37a3518b-1574-4b1f-9320-dfb70ff44a3c","ios":"levelo://app?vid=37a3518b-1574-4b1f-9320-dfb70ff44a3c"},"vehicle_type_id":"4","last_reported":1758949797,"current_range_meters":17600,"station_id":"ce4bh192rcd13ifvqdd0","pricing_plan_id":"cebpf4jnsgd1na2vs0mg"},{"bike_id":"0f8c66b7-2559-4545-8c9b-b7b40dced113","system_id":"levelo_inurba_marseille","lat":43.29675,"lon":5.41286,"is_reserved":false,"is_disabled":true,"rental_uris":{"android":"levelo://app?vid=0f8c66b7-2559-4545-8c9b-b7b40dced113","ios":"levelo://app?vid=0f8c66b7-2559-4545-8c9b-b7b40dced113"},"vehicle_type_id":"4","last_reported":1758949797,"current_range_meters":17600,"station_id":"","pricing_plan_id":"cebpf4jnsgd1na2vs0mg"},{"bike_id":"9d9cb4e9-d21a-4a45-b390-b7b55c6d9b4d","system_id":"levelo_inurba_marseille","lat":43.270588,"lon":5.402581,"is_reserved":false,"is_disabled":false,"rental_uris":{"android":"levelo://app?vid=9d9cb4e9-d21a-4a45-b390-b7b55c6d9b4d","ios":"levelo://app?vid=9d9cb4e9-d21a-4a45-b390-b7b55c6d9b4d"},"vehicle_type_id":"4","last_reported":1758949797,"current_range_meters":17600,"station_id":"ce4bhk92rcd13ifvqgc0","pricing_plan_id":"cebpf4jnsgd1na2vs0mg"},{"bike_id":"465329a0-1983-473b-b8fe-3ff82ec8429d","system_id":"levelo_inurba_marseille","lat":43.231988,"lon":5.355522,"is_reserved":false,"is_disabled":false,"rental_uris":{"android":"levelo://app?vid=465329a0-1983-473b-b8fe-3ff82ec8429d","ios":"levelo://app?vid=465329a0-1983-473b-b8fe-3ff82ec8429d"},"vehicle_type_id":"4","last_reported":1758949797,"current_range_meters":17600,"station_id":"ce4bhu92rcd13ifvqi70","pricing_plan_id":"cebpf4jnsgd1na2vs0mg"},{"bike_id":"d66cd03b-dbeb-4aa4-961e-bd97aeefe4a4","system_id":"levelo_inurba_marseille","lat":43.25963,"lon":5.41372,"is_reserved":false,"is_disabled":false,"rental_uris":{"android":"levelo://app?vid=d66cd03b-dbeb-4aa4-961e-bd97aeefe4a4","ios":"levelo://app?vid=d66cd03b-dbeb-4aa4-961e-bd97aeefe4a4"},"vehicle_type_id":"4","last_reported":1758949797,"current_range_meters":17600,"station_id":"","pricing_plan_id":"cebpf4jnsgd1na2vs0mg"},{"bike_id":"d55e72cf-944a-4608-8c58-6a41695b302e","system_id":"levelo_inurba_marseille","lat":43.31052,"lon":5.38369,"is_reserved":false,"is_disabled":true,"rental_uris":{"android":"levelo://app?vid=d55e72cf-944a-4608-8c58-6a41695b302e","ios":"levelo://app?vid=d55e72cf-944a-4608-8c58-6a41695b302e"},"vehicle_type_id":"4","last_reported":1758949797,"current_range_meters":18000,"station_id":"ce4bgv92rcd13ifvqcr0","pricing_plan_id":"cebpf4jnsgd1na2vs0mg"},{"bike_id":"a5ff59a1-1644-4b76-9136-59d47ea9f820","system_id":"levelo_inurba_marseille","lat":43.30922,"lon":5.37486,"is_reserved":false,"is_disabled":false,"rental_uris":{"android":"levelo://app?vid=a5ff59a1-1644-4b76-9136-59d47ea9f820","ios":"levelo://app?vid=a5ff59a1-1644-4b76-9136-59d47ea9f820"},"vehicle_type_id":"4","last_reported":1758949797,"current_range_meters":18000,"station_id":"","pricing_plan_id":"cebpf4jnsgd1na2vs0mg"},{"bike_id":"75a1808b-f036-45a0-9b9e-d8442cdf8f90","system_id":"levelo_inurba_marseille","lat":43.25013,"lon":5.3892,"is_reserved":false,"is_disabled":false,"rental_uris":{"android":"levelo://app?vid=75a1808b-f036-45a0-9b9e-d8442cdf8f90","ios":"levelo://app?vid=75a1808b-f036-45a0-9b9e-d8442cdf8f90"},"vehicle_type_id":"4","last_reported":1758949797,"current_range_meters":18000,"station_id":"ce4bhgp2rcd13ifvqfd0","pricing_plan_id":"cebpf4jnsgd1na2vs0mg"},{"bike_id":"f84411c9-d6fb-4874-a3a1-bef02530091d","system_id":"levelo_inurba_marseille","lat":43.28367,"lon":5.43828,"is_reserved":false,"is_disabled":false,"rental_uris":{"android":"levelo://app?vid=f84411c9-d6fb-4874-a3a1-bef02530091d","ios":"levelo://app?vid=f84411c9-d6fb-4874-a3a1-bef02530091d"},"vehicle_type_id":"4","last_reported":1758949797,"current_range_meters":18000,"station_id":"","pricing_plan_id":"cebpf4jnsgd1na2vs0mg"},{"bike_id":"c19a096d-6bfd-4347-9445-ece358d57b77","system_id":"levelo_inurba_marseille","lat":43.30673,"lon":5.40253,"is_reserved":false,"is_disabled":false,"rental_uris":{"android":"levelo://app?vid=c19a096d-6bfd-4347-9445-ece358d57b77","ios":"levelo://app?vid=c19a096d-6bfd-4347-9445-ece358d57b77"},"vehicle_type_id":"4","last_reported":1758949797,"current_range_meters":18000,"station_id":"","pricing_plan_id":"cebpf4jnsgd1na2vs0mg"},{"bike_id":"54e7e81f-be08-40ef-af55-88274545b504","system_id":"levelo_inurba_marseille","lat":43.30318,"lon":5.40443,"is_reserved":false,"is_disabled":false,"rental_uris":{"android":"levelo://app?vid=54e7e81f-be08-40ef-af55-88274545b504","ios":"levelo://app?vid=54e7e81f-be08-40ef-af55-88274545b504"},"vehicle_type_id":"4","last_reported":1758949797,"current_range_meters":18000,"station_id":"ce4bh012rcd13ifvqd10","pricing_plan_id":"cebpf4jnsgd1na2vs0mg"},{"bike_id":"54fff988-c74f-45fc-a0eb-29489bfa1777","system_id":"levelo_inurba_marseille","lat":43.246471,"lon":5.388927,"is_reserved":false,"is_disabled":false,"rental_uris":{"android":"levelo://app?vid=54fff988-c74f-45fc-a0eb-29489bfa1777","ios":"levelo://app?vid=54fff988-c74f-45fc-a0eb-29489bfa1777"},"vehicle_type_id":"4","last_reported":1758949797,"current_range_meters":18000,"station_id":"ce4bhg12rcd13ifvqf60","pricing_plan_id":"cebpf4jnsgd1na2vs0mg"},{"bike_id":"71d0631b-eb81-4977-ba97-2d8def997263","system_id":"levelo_inurba_marseille","lat":43.28455,"lon":5.35904,"is_reserved":false,"is_disabled":false,"rental_uris":{"android":"levelo://app?vid=71d0631b-eb81-4977-ba97-2d8def997263","ios":"levelo://app?vid=71d0631b-eb81-4977-ba97-2d8def997263"},"vehicle_type_id":"4","last_reported":1758949797,"current_range_meters":18000,"station_id":"ce4bhah2rcd13ifvqei0","pricing_plan_id":"cebpf4jnsgd1na2vs0mg"},{"bike_id":"8ba5e33b-48f1-42b5-a531-76085f7229c8","system_id":"levelo_inurba_marseille","lat":43.246328,"lon":5.431439,"is_reserved":false,"is_disabled":false,"rental_uris":{"android":"levelo://app?vid=8ba5e33b-48f1-42b5-a531-76085f7229c8","ios":"levelo://app?vid=8ba5e33b-48f1-42b5-a531-76085f7229c8"},"vehicle_type_id":"4","last_reported":1758949797,"current_range_meters":18000,"station_id":"st_d2m6c4gdas8pm72e190g","pricing_plan_id":"cebpf4jnsgd1na2vs0mg"},{"bike_id":"809498ec-17c7-4be3-af91-40663913f97a","system_id":"levelo_inurba_marseille","lat":43.25115,"lon":5.40321,"is_reserved":false,"is_disabled":false,"rental_uris":{"android":"levelo://app?vid=809498ec-17c7-4be3-af91-40663913f97a","ios":"levelo://app?vid=809498ec-17c7-4be3-af91-40663913f97a"},"vehicle_type_id":"4","last_reported":1758949797,"current_range_meters":18000,"station_id":"ce4bhlh2rcd13ifvqgig","pricing_plan_id":"cebpf4jnsgd1na2vs0mg"},{"bike_id":"61f72c81-84af-4d24-903d-9a7cb27e68a1","system_id":"levelo_inurba_marseille","lat":43.2465,"lon":5.43172,"is_reserved":false,"is_disabled":false,"rental_uris":{"android":"levelo://app?vid=61f72c81-84af-4d24-903d-9a7cb27e68a1","ios":"levelo://app?vid=61f72c81-84af-4d24-903d-9a7cb27e68a1"},"vehicle_type_id":"4","last_reported":1758949797,"current_range_meters":18000,"station_id":"st_d2m6c4gdas8pm72e190g","pricing_plan_id":"cebpf4jnsgd1na2vs0mg"},{"bike_id":"78bed11f-2b62-4758-9489-c09980e15071","system_id":"levelo_inurba_marseille","lat":43.29265,"lon":5.40142,"is_reserved":false,"is_disabled":false,"rental_uris":{"android":"levelo://app?vid=78bed11f-2b62-4758-9489-c09980e15071","ios":"levelo://app?vid=78bed11f-2b62-4758-9489-c09980e15071"},"vehicle_type_id":"4","last_reported":1758949797,"current_range_meters":18000,"station_id":"ce4bh312rcd13ifvqdk0","pricing_plan_id":"cebpf4jnsgd1na2vs0mg"},{"bike_id":"5877284a-e137-4952-9a1e-23dc34b1a44c","system_id":"levelo_inurba_marseille","lat":43.30303,"lon":5.36899,"is_reserved":false,"is_disabled":false,"rental_uris":{"android":"levelo://app?vid=5877284a-e137-4952-9a1e-23dc34b1a44c","ios":"levelo://app?vid=5877284a-e137-4952-9a1e-23dc34b1a44c"},"vehicle_type_id":"4","last_reported":1758949797,"current_range_meters":18000,"station_id":"ce4bgqh2rcd13ifvqc5g","pricing_plan_id":"cebpf4jnsgd1na2vs0mg"},{"bike_id":"49cc1930-269d-4bd6-8804-0c6869823a2d","system_id":"levelo_inurba_marseille","lat":43.24169,"lon":5.39746,"is_reserved":false,"is_disabled":false,"rental_uris":{"android":"levelo://app?vid=49cc1930-269d-4bd6-8804-0c6869823a2d","ios":"levelo://app?vid=49cc1930-269d-4bd6-8804-0c6869823a2d"},"vehicle_type_id":"4","last_reported":1758949797,"current_range_meters":18000,"station_id":"ce4bhn12rcd13ifvqgpg","pricing_plan_id":"cebpf4jnsgd1na2vs0mg"},{"bike_id":"976fd36e-2f5c-424c-baa8-068b37f1eb42","system_id":"levelo_inurba_marseille","lat":43.27558,"lon":5.38439,"is_reserved":false,"is_disabled":false,"rental_uris":{"android":"levelo://app?vid=976fd36e-2f5c-424c-baa8-068b37f1eb42","ios":"levelo://app?vid=976fd36e-2f5c-424c-baa8-068b37f1eb42"},"vehicle_type_id":"4","last_reported":1758949797,"current_range_meters":18800,"station_id":"ce4bhh92rcd13ifvqfi0","pricing_plan_id":"cebpf4jnsgd1na2vs0mg"},{"bike_id":"4d3db327-222a-45ad-802f-f3e647671720","system_id":"levelo_inurba_marseille","lat":43.28225,"lon":5.39077,"is_reserved":false,"is_disabled":false,"rental_uris":{"android":"levelo://app?vid=4d3db327-222a-45ad-802f-f3e647671720","ios":"levelo://app?vid=4d3db327-222a-45ad-802f-f3e647671720"},"vehicle_type_id":"4","last_reported":1758949797,"current_range_meters":18800,"station_id":"ce4bhn92rcd13ifvqgsg","pricing_plan_id":"cebpf4jnsgd1na2vs0mg"},{"bike_id":"2243febf-ebaf-474b-8e3e-799410e4c867","system_id":"levelo_inurba_marseille","lat":43.32572,"lon":5.36361,"is_reserved":false,"is_disabled":false,"rental_uris":{"android":"levelo://app?vid=2243febf-ebaf-474b-8e3e-799410e4c867","ios":"levelo://app?vid=2243febf-ebaf-474b-8e3e-799410e4c867"},"vehicle_type_id":"4","last_reported":1758949797,"current_range_meters":18800,"station_id":"","pricing_plan_id":"cebpf4jnsgd1na2vs0mg"},{"bike_id":"fcb39673-3ef9-4ca1-b91f-f8431a34419e","system_id":"levelo_inurba_marseille","lat":43.24646,"lon":5.3891,"is_reserved":false,"is_disabled":false,"rental_uris":{"android":"levelo://app?vid=fcb39673-3ef9-4ca1-b91f-f8431a34419e","ios":"levelo://app?vid=fcb39673-3ef9-4ca1-b91f-f8431a34419e"},"vehicle_type_id":"4","last_reported":1758949797,"current_range_meters":18800,"station_id":"ce4bhg12rcd13ifvqf60","pricing_plan_id":"cebpf4jnsgd1na2vs0mg"},{"bike_id":"88417ecf-3b45-4a85-b3ba-a098b1b6b1ed","system_id":"levelo_inurba_marseille","lat":43.27318,"lon":5.38536,"is_reserved":false,"is_disabled":false,"rental_uris":{"android":"levelo://app?vid=88417ecf-3b45-4a85-b3ba-a098b1b6b1ed","ios":"levelo://app?vid=88417ecf-3b45-4a85-b3ba-a098b1b6b1ed"},"vehicle_type_id":"4","last_reported":1758949797,"current_range_meters":18800,"station_id":"","pricing_plan_id":"cebpf4jnsgd1na2vs0mg"},{"bike_id":"0d0352bf-f394-45c0-baef-aa15dd4a4c38","system_id":"levelo_inurba_marseille","lat":43.2464,"lon":5.43146,"is_reserved":false,"is_disabled":false,"rental_uris":{"android":"levelo://app?vid=0d0352bf-f394-45c0-baef-aa15dd4a4c38","ios":"levelo://app?vid=0d0352bf-f394-45c0-baef-aa15dd4a4c38"},"vehicle_type_id":"4","last_reported":1758949797,"current_range_meters":18800,"station_id":"st_d2m6c4gdas8pm72e190g","pricing_plan_id":"cebpf4jnsgd1na2vs0mg"},{"bike_id":"91f03681-11bd-4a24-811a-6c09a89c8efe","system_id":"levelo_inurba_marseille","lat":43.24998,"lon":5.38927,"is_reserved":false,"is_disabled":false,"rental_uris":{"android":"levelo://app?vid=91f03681-11bd-4a24-811a-6c09a89c8efe","ios":"levelo://app?vid=91f03681-11bd-4a24-811a-6c09a89c8efe"},"vehicle_type_id":"4","last_reported":1758949797,"current_range_meters":18800,"station_id":"ce4bhgp2rcd13ifvqfd0","pricing_plan_id":"cebpf4jnsgd1na2vs0mg"},{"bike_id":"65fc51c6-c33c-4188-80ea-4d997b104665","system_id":"levelo_inurba_marseille","lat":43.29206,"lon":5.39322,"is_reserved":false,"is_disabled":false,"rental_uris":{"android":"levelo://app?vid=65fc51c6-c33c-4188-80ea-4d997b104665","ios":"levelo://app?vid=65fc51c6-c33c-4188-80ea-4d997b104665"},"vehicle_type_id":"4","last_reported":1758949797,"current_range_meters":16000,"station_id":"ce4bh192rcd13ifvqdd0","pricing_plan_id":"cebpf4jnsgd1na2vs0mg"},{"bike_id":"9a819dc8-447d-4df7-8b5f-0b18332a26a7","system_id":"levelo_inurba_marseille","lat":43.290216,"lon":5.386423,"is_reserved":false,"is_disabled":true,"rental_uris":{"android":"levelo://app?vid=9a819dc8-447d-4df7-8b5f-0b18332a26a7","ios":"levelo://app?vid=9a819dc8-447d-4df7-8b5f-0b18332a26a7"},"vehicle_type_id":"4","last_reported":1758949797,"current_range_meters":18800,"station_id":"ce4bh4p2rcd13ifvqe0g","pricing_plan_id":"cebpf4jnsgd1na2vs0mg"},{"bike_id":"258ab053-1083-4ca9-a32a-1e85f085fc22","system_id":"levelo_inurba_marseille","lat":43.337444,"lon":5.374475,"is_reserved":false,"is_disabled":false,"rental_uris":{"android":"levelo://app?vid=258ab053-1083-4ca9-a32a-1e85f085fc22","ios":"levelo://app?vid=258ab053-1083-4ca9-a32a-1e85f085fc22"},"vehicle_type_id":"4","last_reported":1758949797,"current_range_meters":18800,"station_id":"","pricing_plan_id":"cebpf4jnsgd1na2vs0mg"},{"bike_id":"4f5f9b8a-cf53-40f1-bb39-f7718febf450","system_id":"levelo_inurba_marseille","lat":43.2894,"lon":5.36408,"is_reserved":false,"is_disabled":false,"rental_uris":{"android":"levelo://app?vid=4f5f9b8a-cf53-40f1-bb39-f7718febf450","ios":"levelo://app?vid=4f5f9b8a-cf53-40f1-bb39-f7718febf450"},"vehicle_type_id":"4","last_reported":1758949797,"current_range_meters":19200,"station_id":"ce4bhc92rcd13ifvqetg","pricing_plan_id":"cebpf4jnsgd1na2vs0mg"},{"bike_id":"a7149a7d-cfff-4749-aab1-667f13b4b633","system_id":"levelo_inurba_marseille","lat":43.30932,"lon":5.4016,"is_reserved":false,"is_disabled":false,"rental_uris":{"android":"levelo://app?vid=a7149a7d-cfff-4749-aab1-667f13b4b633","ios":"levelo://app?vid=a7149a7d-cfff-4749-aab1-667f13b4b633"},"vehicle_type_id":"4","last_reported":1758949797,"current_range_meters":19200,"station_id":"ce4bgvp2rcd13ifvqct0","pricing_plan_id":"cebpf4jnsgd1na2vs0mg"},{"bike_id":"cfbc307e-8a35-40a6-8069-a30750bd7540","system_id":"levelo_inurba_marseille","lat":43.29193,"lon":5.40938,"is_reserved":false,"is_disabled":false,"rental_uris":{"android":"levelo://app?vid=cfbc307e-8a35-40a6-8069-a30750bd7540","ios":"levelo://app?vid=cfbc307e-8a35-40a6-8069-a30750bd7540"},"vehicle_type_id":"4","last_reported":1758949797,"current_range_meters":19200,"station_id":"","pricing_plan_id":"cebpf4jnsgd1na2vs0mg"},{"bike_id":"1b5850eb-1f21-46c1-84ef-fe3b307a5211","system_id":"levelo_inurba_marseille","lat":43.335905,"lon":5.410339,"is_reserved":false,"is_disabled":false,"rental_uris":{"android":"levelo://app?vid=1b5850eb-1f21-46c1-84ef-fe3b307a5211","ios":"levelo://app?vid=1b5850eb-1f21-46c1-84ef-fe3b307a5211"},"vehicle_type_id":"4","last_reported":1758949797,"current_range_meters":19200,"station_id":"ce4bhqh2rcd13ifvqhmg","pricing_plan_id":"cebpf4jnsgd1na2vs0mg"},{"bike_id":"c3540d4b-6b27-44ad-8e52-a31bb0e59238","system_id":"levelo_inurba_marseille","lat":43.287325,"lon":5.399922,"is_reserved":false,"is_disabled":true,"rental_uris":{"android":"levelo://app?vid=c3540d4b-6b27-44ad-8e52-a31bb0e59238","ios":"levelo://app?vid=c3540d4b-6b27-44ad-8e52-a31bb0e59238"},"vehicle_type_id":"4","last_reported":1758949797,"current_range_meters":19200,"station_id":"ce4bho92rcd13ifvqh3g","pricing_plan_id":"cebpf4jnsgd1na2vs0mg"},{"bike_id":"4bc5ce2a-a943-49ff-b51f-ff13b97e7de5","system_id":"levelo_inurba_marseille","lat":43.28786,"lon":5.35961,"is_reserved":false,"is_disabled":false,"rental_uris":{"android":"levelo://app?vid=4bc5ce2a-a943-49ff-b51f-ff13b97e7de5","ios":"levelo://app?vid=4bc5ce2a-a943-49ff-b51f-ff13b97e7de5"},"vehicle_type_id":"4","last_reported":1758949797,"current_range_meters":19200,"station_id":"","pricing_plan_id":"cebpf4jnsgd1na2vs0mg"},{"bike_id":"b3272b63-5ddd-4ef5-9862-eea168cf9702","system_id":"levelo_inurba_marseille","lat":43.28425,"lon":5.35001,"is_reserved":false,"is_disabled":true,"rental_uris":{"android":"levelo://app?vid=b3272b63-5ddd-4ef5-9862-eea168cf9702","ios":"levelo://app?vid=b3272b63-5ddd-4ef5-9862-eea168cf9702"},"vehicle_type_id":"4","last_reported":1758949797,"current_range_meters":19200,"station_id":"ce4bhbh2rcd13ifvqepg","pricing_plan_id":"cebpf4jnsgd1na2vs0mg"},{"bike_id":"20947a55-e0d6-4d75-b673-1fc8e34c39fa","system_id":"levelo_inurba_marseille","lat":43.25125,"lon":5.40324,"is_reserved":false,"is_disabled":false,"rental_uris":{"android":"levelo://app?vid=20947a55-e0d6-4d75-b673-1fc8e34c39fa","ios":"levelo://app?vid=20947a55-e0d6-4d75-b673-1fc8e34c39fa"},"vehicle_type_id":"4","last_reported":1758949797,"current_range_meters":19200,"station_id":"ce4bhlh2rcd13ifvqgig","pricing_plan_id":"cebpf4jnsgd1na2vs0mg"},{"bike_id":"d04d69ab-b81a-4e04-b105-360a2ca4e5b6","system_id":"levelo_inurba_marseille","lat":43.23194,"lon":5.39992,"is_reserved":false,"is_disabled":false,"rental_uris":{"android":"levelo://app?vid=d04d69ab-b81a-4e04-b105-360a2ca4e5b6","ios":"levelo://app?vid=d04d69ab-b81a-4e04-b105-360a2ca4e5b6"},"vehicle_type_id":"4","last_reported":1758949797,"current_range_meters":19200,"station_id":"ce4bhn12rcd13ifvqgqg","pricing_plan_id":"cebpf4jnsgd1na2vs0mg"},{"bike_id":"ce90b0c1-6c36-4837-a050-6c45b26dd091","system_id":"levelo_inurba_marseille","lat":43.23184,"lon":5.35551,"is_reserved":false,"is_disabled":false,"rental_uris":{"android":"levelo://app?vid=ce90b0c1-6c36-4837-a050-6c45b26dd091","ios":"levelo://app?vid=ce90b0c1-6c36-4837-a050-6c45b26dd091"},"vehicle_type_id":"4","last_reported":1758949797,"current_range_meters":19200,"station_id":"ce4bhu92rcd13ifvqi70","pricing_plan_id":"cebpf4jnsgd1na2vs0mg"},