{"last_updated":1730999286,"ttl":60,"version":"2.2","data":{"bikes":[{"bike_id":"8b901d64-846a-402f-acd7-f8215a6bba8e","system_id":"levelo_inurba_marseille","lat":43.2997,"lon":5.37179,"is_reserved":false,"is_disabled":false,"rental_uris":{"android":"levelo://app?vid=8b901d64-846a-402f-acd7-f8215a6bba8e","ios":"levelo://app?vid=8b901d64-846a-402f-acd7-f8215a6bba8e"},"vehicle_type_id":"4","last_reported":1730999286,"current_range_meters":12400,"station_id":"ce4bgr92rcd13ifvqc7g","pricing_plan_id":"cebpf4jnsgd1na2vs0mg"},{"bike_id":"1cef1b77-5483-44b9-8e97-f29b4779b0b1","system_id":"levelo_inurba_marseille","lat":43.28728,"lon":5.36083,"is_reserved":false,"is_disabled":false,"rental_uris":{"android":"levelo://app?vid=1cef1b77-5483-44b9-8e97-f29b4779b0b1","ios":"levelo://app?vid=1cef1b77-5483-44b9-8e97-f29b4779b0b1"},"vehicle_type_id":"4","last_reported":1730999286,"current_range_meters":38800,"station_id":"cki0cbj6b192h4jlfktg","pricing_plan_id":"cebpf4jnsgd1na2vs0mg"},{"bike_id":"bd17e4f4-492e-44ce-a1e5-bf5ab1c982ba","system_id":"levelo_inurba_marseille","lat":43.31306,"lon":5.40948,"is_reserved":false,"is_disabled":false,"rental_uris":{"android":"levelo://app?vid=bd17e4f4-492e-44ce-a1e5-bf5ab1c982ba","ios":"levelo://app?vid=bd17e4f4-492e-44ce-a1e5-bf5ab1c982ba"},"vehicle_type_id":"4","last_reported":1730999286,"current_range_meters":28400,"station_id":"ce4bhp92rcd13ifvqhbg","pricing_plan_id":"cebpf4jnsgd1na2vs0mg"},{"bike_id":"50e99082-7d21-4908-a76c-85dc17e9cce1","system_id":"levelo_inurba_marseille","lat":43.29422,"lon":5.386,"is_reserved":false,"is_disabled":false,"rental_uris":{"android":"levelo://app?vid=50e99082-7d21-4908-a76c-85dc17e9cce1","ios":"levelo://app?vid=50e99082-7d21-4908-a76c-85dc17e9cce1"},"vehicle_type_id":"4","last_reported":1730999286,"current_range_meters":38800,"station_id":"ce4bh2h2rcd13ifvqdh0","pricing_plan_id":"cebpf4jnsgd1na2vs0mg"},{"bike_id":"f43f5290-94ce-430c-a4c8-62fc91143611","system_id":"levelo_inurba_marseille","lat":43.26569,"lon":5.39014,"is_reserved":false,"is_disabled":false,"rental_uris":{"android":"levelo://app?vid=f43f5290-94ce-430c-a4c8-62fc91143611","ios":"levelo://app?vid=f43f5290-94ce-430c-a4c8-62fc91143611"},"vehicle_type_id":"4","last_reported":1730999286,"current_range_meters":24400,"station_id":"ce4bhe12rcd13ifvqf30","pricing_plan_id":"cebpf4jnsgd1na2vs0mg"},{"bike_id":"40dd4257-d6e7-454b-ba60-8d003c5e1cfc","system_id":"levelo_inurba_marseille","lat":43.30888,"lon":5.39658,"is_reserved":false,"is_disabled":false,"rental_uris":{"android":"levelo://app?vid=40dd4257-d6e7-454b-ba60-8d003c5e1cfc","ios":"levelo://app?vid=40dd4257-d6e7-454b-ba60-8d003c5e1cfc"},"vehicle_type_id":"4","last_reported":1730999286,"current_range_meters":22000,"station_id":"ce4bh012rcd13ifvqcv0","pricing_plan_id":"cebpf4jnsgd1na2vs0mg"},{"bike_id":"1df4d711-4ca5-4e4f-8f9c-e7732e3d0984","system_id":"levelo_inurba_marseille","lat":43.29791,"lon":5.37125,"is_reserved":false,"is_disabled":false,"rental_uris":{"android":"levelo://app?vid=1df4d711-4ca5-4e4f-8f9c-e7732e3d0984","ios":"levelo://app?vid=1df4d711-4ca5-4e4f-8f9c-e7732e3d0984"},"vehicle_type_id":"4","last_reported":1730999286,"current_range_meters":28400,"station_id":"ce4bgop2rcd13ifvqc1g","pricing_plan_id":"cebpf4jnsgd1na2vs0mg"},{"bike_id":"c0fd3d82-7a9a-4922-b0f5-bcdc2b7cf632","system_id":"levelo_inurba_marseille","lat":43.33021,"lon":5.39045,"is_reserved":false,"is_disabled":false,"rental_uris":{"android":"levelo://app?vid=c0fd3d82-7a9a-4922-b0f5-bcdc2b7cf632","ios":"levelo://app?vid=c0fd3d82-7a9a-4922-b0f5-bcdc2b7cf632"},"vehicle_type_id":"4","last_reported":1730999286,"current_range_meters":14000,"station_id":"ce4bhr92rcd13ifvqhrg","pricing_plan_id":"cebpf4jnsgd1na2vs0mg"},{"bike_id":"a96985a1-dde2-4b71-8ed9-7a1eaf3979d0","system_id":"levelo_inurba_marseille","lat":43.30645,"lon":5.40087,"is_reserved":false,"is_disabled":false,"rental_uris":{"android":"levelo://app?vid=a96985a1-dde2-4b71-8ed9-7a1eaf3979d0","ios":"levelo://app?vid=a96985a1-dde2-4b71-8ed9-7a1eaf3979d0"},"vehicle_type_id":"4","last_reported":1730999286,"current_range_meters":10000,"station_id":"ce4bh112rcd13ifvqda0","pricing_plan_id":"cebpf4jnsgd1na2vs0mg"},{"bike_id":"6441f0a6-ca90-4a7b-aa82-358330e3e383","system_id":"levelo_inurba_marseille","lat":43.26804,"lon":5.4028,"is_reserved":false,"is_disabled":false,"rental_uris":{"android":"levelo://app?vid=6441f0a6-ca90-4a7b-aa82-358330e3e383","ios":"levelo://app?vid=6441f0a6-ca90-4a7b-aa82-358330e3e383"},"vehicle_type_id":"4","last_reported":1730999286,"current_range_meters":4000,"station_id":"ce501612rcd8frsf0b60","pricing_plan_id":"cebpf4jnsgd1na2vs0mg"},{"bike_id":"9bf93cee-9ed1-421e-a295-64aec9decdf8","system_id":"levelo_inurba_marseille","lat":43.30145,"lon":5.39866,"is_reserved":false,"is_disabled":false,"rental_uris":{"android":"levelo://app?vid=9bf93cee-9ed1-421e-a295-64aec9decdf8","ios":"levelo://app?vid=9bf93cee-9ed1-421e-a295-64aec9decdf8"},"vehicle_type_id":"4","last_reported":1730999286,"current_range_meters":32800,"station_id":"ce4bh0h2rcd13ifvqd40","pricing_plan_id":"cebpf4jnsgd1na2vs0mg"},{"bike_id":"e09c5c0b-ebf6-4e9f-b642-f47822c4009c","system_id":"levelo_inurba_marseille","lat":43.27998,"lon":5.40006,"is_reserved":false,"is_disabled":false,"rental_uris":{"android":"levelo://app?vid=e09c5c0b-ebf6-4e9f-b642-f47822c4009c","ios":"levelo://app?vid=e09c5c0b-ebf6-4e9f-b642-f47822c4009c"},"vehicle_type_id":"4","last_reported":1730999286,"current_range_meters":27600,"station_id":"ce4bho92rcd13ifvqh4g","pricing_plan_id":"cebpf4jnsgd1na2vs0mg"},{"bike_id":"bcf5dad1-721a-4f4e-82b2-15a9cc44926f","system_id":"levelo_inurba_marseille","lat":43.33776,"lon":5.37438,"is_reserved":false,"is_disabled":false,"rental_uris":{"android":"levelo://app?vid=bcf5dad1-721a-4f4e-82b2-15a9cc44926f","ios":"levelo://app?vid=bcf5dad1-721a-4f4e-82b2-15a9cc44926f"},"vehicle_type_id":"4","last_reported":1730999286,"current_range_meters":35200,"station_id":"","pricing_plan_id":"cebpf4jnsgd1na2vs0mg"},{"bike_id":"c09c6390-21e4-4164-9b4f-3a9d29e9eb77","system_id":"levelo_inurba_marseille","lat":43.25086,"lon":5.39521,"is_reserved":false,"is_disabled":false,"rental_uris":{"android":"levelo://app?vid=c09c6390-21e4-4164-9b4f-3a9d29e9eb77","ios":"levelo://app?vid=c09c6390-21e4-4164-9b4f-3a9d29e9eb77"},"vehicle_type_id":"4","last_reported":1730999286,"current_range_meters":9200,"station_id":"ce4bhm12rcd13ifvqgkg","pricing_plan_id":"cebpf4jnsgd1na2vs0mg"},{"bike_id":"98bee176-270e-4519-8402-03a0e972452a","system_id":"levelo_inurba_marseille","lat":43.32338,"lon":5.40624,"is_reserved":false,"is_disabled":false,"rental_uris":{"android":"levelo://app?vid=98bee176-270e-4519-8402-03a0e972452a","ios":"levelo://app?vid=98bee176-270e-4519-8402-03a0e972452a"},"vehicle_type_id":"4","last_reported":1730999286,"current_range_meters":32000,"station_id":"ce4bhq92rcd13ifvqhjg","pricing_plan_id":"cebpf4jnsgd1na2vs0mg"},{"bike_id":"320ea4bb-9fe7-4e4a-9293-99fa1268b42f","system_id":"levelo_inurba_marseille","lat":43.28668,"lon":5.36351,"is_reserved":false,"is_disabled":false,"rental_uris":{"android":"levelo://app?vid=320ea4bb-9fe7-4e4a-9293-99fa1268b42f","ios":"levelo://app?vid=320ea4bb-9fe7-4e4a-9293-99fa1268b42f"},"vehicle_type_id":"4","last_reported":1730999286,"current_range_meters":18000,"station_id":"ce4bhah2rcd13ifvqej0","pricing_plan_id":"cebpf4jnsgd1na2vs0mg"},{"bike_id":"eb302d06-0580-43c9-8569-28cab0b23a18","system_id":"levelo_inurba_marseille","lat":43.279133,"lon":5.380195,"is_reserved":false,"is_disabled":false,"rental_uris":{"android":"levelo://app?vid=eb302d06-0580-43c9-8569-28cab0b23a18","ios":"levelo://app?vid=eb302d06-0580-43c9-8569-28cab0b23a18"},"vehicle_type_id":"4","last_reported":1730999286,"current_range_meters":38800,"station_id":"ce4bhf92rcd13ifvqf50","pricing_plan_id":"cebpf4jnsgd1na2vs0mg"},{"bike_id":"e8bfd738-c175-46c9-a1c3-b89304ad2ca8","system_id":"levelo_inurba_marseille","lat":43.28082,"lon":5.39667,"is_reserved":false,"is_disabled":false,"rental_uris":{"android":"levelo://app?vid=e8bfd738-c175-46c9-a1c3-b89304ad2ca8","ios":"levelo://app?vid=e8bfd738-c175-46c9-a1c3-b89304ad2ca8"},"vehicle_type_id":"4","last_reported":1730999286,"current_range_meters":26800,"station_id":"ce4bho12rcd13ifvqh2g","pricing_plan_id":"cebpf4jnsgd1na2vs0mg"},{"bike_id":"8a401a8a-30f9-4643-ad63-74116d1b600f","system_id":"levelo_inurba_marseille","lat":43.32481,"lon":5.36571,"is_reserved":false,"is_disabled":false,"rental_uris":{"android":"levelo://app?vid=8a401a8a-30f9-4643-ad63-74116d1b600f","ios":"levelo://app?vid=8a401a8a-30f9-4643-ad63-74116d1b600f"},"vehicle_type_id":"4","last_reported":1730999286,"current_range_meters":36000,"station_id":"ce4bhs12rcd13ifvqhvg","pricing_plan_id":"cebpf4jnsgd1na2vs0mg"},{"bike_id":"9c68575f-38af-4a90-9769-262e13521a63","system_id":"levelo_inurba_marseille","lat":43.26196,"lon":5.37455,"is_reserved":false,"is_disabled":false,"rental_uris":{"android":"levelo://app?vid=9c68575f-38af-4a90-9769-262e13521a63","ios":"levelo://app?vid=9c68575f-38af-4a90-9769-262e13521a63"},"vehicle_type_id":"4","last_reported":1730999286,"current_range_meters":19600,"station_id":"ce4bhgp2rcd13ifvqfc0","pricing_plan_id":"cebpf4jnsgd1na2vs0mg"},{"bike_id":"60bb8ba5-396a-42c6-a39d-ec6237392067","system_id":"levelo_inurba_marseille","lat":43.22928,"lon":5.35377,"is_reserved":false,"is_disabled":false,"rental_uris":{"android":"levelo://app?vid=60bb8ba5-396a-42c6-a39d-ec6237392067","ios":"levelo://app?vid=60bb8ba5-396a-42c6-a39d-ec6237392067"},"vehicle_type_id":"4","last_reported":1730999286,"current_range_meters":35600,"station_id":"cpo3532slgdg3j2ikp40","pricing_plan_id":"cebpf4jnsgd1na2vs0mg"},{"bike_id":"f5d4c6ea-877f-4565-b083-45be9ec21b21","system_id":"levelo_inurba_marseille","lat":43.32487,"lon":5.36579,"is_reserved":false,"is_disabled":false,"rental_uris":{"android":"levelo://app?vid=f5d4c6ea-877f-4565-b083-45be9ec21b21","ios":"levelo://app?vid=f5d4c6ea-877f-4565-b083-45be9ec21b21"},"vehicle_type_id":"4","last_reported":1730999286,"current_range_meters":10800,"station_id":"ce4bhs12rcd13ifvqhvg","pricing_plan_id":"cebpf4jnsgd1na2vs0mg"},{"bike_id":"ff3d86de-5c8f-44df-8c76-d883f8fa9ba1","system_id":"levelo_inurba_marseille","lat":43.231825,"lon":5.399985,"is_reserved":false,"is_disabled":false,"rental_uris":{"android":"levelo://app?vid=ff3d86de-5c8f-44df-8c76-d883f8fa9ba1","ios":"levelo://app?vid=ff3d86de-5c8f-44df-8c76-d883f8fa9ba1"},"vehicle_type_id":"4","last_reported":1730999286,"current_range_meters":20800,"station_id":"ce4bhn12rcd13ifvqgqg","pricing_plan_id":"cebpf4jnsgd1na2vs0mg"},{"bike_id":"3232343b-b00a-47b1-9de8-95cc6580cbfa","system_id":"levelo_inurba_marseille","lat":43.2293,"lon":5.35376,"is_reserved":false,"is_disabled":false,"rental_uris":{"android":"levelo://app?vid=3232343b-b00a-47b1-9de8-95cc6580cbfa","ios":"levelo://app?vid=3232343b-b00a-47b1-9de8-95cc6580cbfa"},"vehicle_type_id":"4","last_reported":1730999286,"current_range_meters":30000,"station_id":"cpo3532slgdg3j2ikp40","pricing_plan_id":"cebpf4jnsgd1na2vs0mg"},{"bike_id":"efb47a1c-d594-4ecc-8e43-598e422d28f9","system_id":"levelo_inurba_marseille","lat":43.31755,"lon":5.39016,"is_reserved":false,"is_disabled":false,"rental_uris":{"android":"levelo://app?vid=efb47a1c-d594-4ecc-8e43-598e422d28f9","ios":"levelo://app?vid=efb47a1c-d594-4ecc-8e43-598e422d28f9"},"vehicle_type_id":"4","last_reported":1730999286,"current_range_meters":6400,"station_id":"ce4bhqp2rcd13ifvqhng","pricing_plan_id":"cebpf4jnsgd1na2vs0mg"},{"bike_id":"5ac2563e-43d4-4a8e-92c9-eba22b9679c6","system_id":"levelo_inurba_marseille","lat":43.3013,"lon":5.39879,"is_reserved":false,"is_disabled":false,"rental_uris":{"android":"levelo://app?vid=5ac2563e-43d4-4a8e-92c9-eba22b9679c6","ios":"levelo://app?vid=5ac2563e-43d4-4a8e-92c9-eba22b9679c6"},"vehicle_type_id":"4","last_reported":1730999286,"current_range_meters":21600,"station_id":"ce4bh0h2rcd13ifvqd40","pricing_plan_id":"cebpf4jnsgd1na2vs0mg"},{"bike_id":"13713c29-0e0d-481b-a9ab-94d3f4d2e1a3","system_id":"levelo_inurba_marseille","lat":43.28731,"lon":5.36098,"is_reserved":false,"is_disabled":false,"rental_uris":{"android":"levelo://app?vid=13713c29-0e0d-481b-a9ab-94d3f4d2e1a3","ios":"levelo://app?vid=13713c29-0e0d-481b-a9ab-94d3f4d2e1a3"},"vehicle_type_id":"4","last_reported":1730999286,"current_range_meters":21600,"station_id":"cki0cbj6b192h4jlfktg","pricing_plan_id":"cebpf4jnsgd1na2vs0mg"},{"bike_id":"30c122d9-3c8b-4500-b013-ed517a07df34","system_id":"levelo_inurba_marseille","lat":43.278076,"lon":5.407118,"is_reserved":false,"is_disabled":false,"rental_uris":{"android":"levelo://app?vid=30c122d9-3c8b-4500-b013-ed517a07df34","ios":"levelo://app?vid=30c122d9-3c8b-4500-b013-ed517a07df34"},"vehicle_type_id":"4","last_reported":1730999286,"current_range_meters":32000,"station_id":"ce4bhnh2rcd13ifvqgtg","pricing_plan_id":"cebpf4jnsgd1na2vs0mg"},{"bike_id":"faa87ace-4861-4aec-8a19-5b94678fad58","system_id":"levelo_inurba_marseille","lat":43.295159,"lon":5.374399,"is_reserved":false,"is_disabled":false,"rental_uris":{"android":"levelo://app?vid=faa87ace-4861-4aec-8a19-5b94678fad58","ios":"levelo://app?vid=faa87ace-4861-4aec-8a19-5b94678fad58"},"vehicle_type_id":"4","last_reported":1730999286,"current_range_meters":12800,"station_id":"ce4bgh92rcd13ifvqb50","pricing_plan_id":"cebpf4jnsgd1na2vs0mg"},{"bike_id":"d46fc949-017c-4337-a007-b5f9f19a0bfa","system_id":"levelo_inurba_marseille","lat":43.337444,"lon":5.374475,"is_reserved":false,"is_disabled":false,"rental_uris":{"android":"levelo://app?vid=d46fc949-017c-4337-a007-b5f9f19a0bfa","ios":"levelo://app?vid=d46fc949-017c-4337-a007-b5f9f19a0bfa"},"vehicle_type_id":"4","last_reported":1730999286,"current_range_meters":33600,"station_id":"","pricing_plan_id":"cebpf4jnsgd1na2vs0mg"},{"bike_id":"b856fee3-5c8e-425e-8bbb-320e2cda8238","system_id":"levelo_inurba_marseille","lat":43.3133,"lon":5.39691,"is_reserved":false,"is_disabled":false,"rental_uris":{"android":"levelo://app?vid=b856fee3-5c8e-425e-8bbb-320e2cda8238","ios":"levelo://app?vid=b856fee3-5c8e-425e-8bbb-320e2cda8238"},"vehicle_type_id":"4","last_reported":1730999286,"current_range_meters":38800,"station_id":"ce4bgvp2rcd13ifvqcu0","pricing_plan_id":"cebpf4jnsgd1na2vs0mg"},{"bike_id":"ea97513e-c1d7-45d6-8da1-53081899724a","system_id":"levelo_inurba_marseille","lat":43.30647,"lon":5.37435,"is_reserved":false,"is_disabled":false,"rental_uris":{"android":"levelo://app?vid=ea97513e-c1d7-45d6-8da1-53081899724a","ios":"levelo://app?vid=ea97513e-c1d7-45d6-8da1-53081899724a"},"vehicle_type_id":"4","last_reported":1730999286,"current_range_meters":10800,"station_id":"","pricing_plan_id":"cebpf4jnsgd1na2vs0mg"},{"bike_id":"42d3a9f2-be82-4dc9-b101-932507ef28c9","system_id":"levelo_inurba_marseille","lat":43.2572,"lon":5.41114,"is_reserved":false,"is_disabled":false,"rental_uris":{"android":"levelo://app?vid=42d3a9f2-be82-4dc9-b101-932507ef28c9","ios":"levelo://app?vid=42d3a9f2-be82-4dc9-b101-932507ef28c9"},"vehicle_type_id":"4","last_reported":1730999286,"current_range_meters":8000,"station_id":"ce4bhkp2rcd13ifvqgd0","pricing_plan_id":"cebpf4jnsgd1na2vs0mg"},{"bike_id":"fb9a4917-24cd-45ae-967d-97aed9b41d4d","system_id":"levelo_inurba_marseille","lat":43.32001,"lon":5.38162,"is_reserved":false,"is_disabled":false,"rental_uris":{"android":"levelo://app?vid=fb9a4917-24cd-45ae-967d-97aed9b41d4d","ios":"levelo://app?vid=fb9a4917-24cd-45ae-967d-97aed9b41d4d"},"vehicle_type_id":"4","last_reported":1730999286,"current_range_meters":33200,"station_id":"ce4bhr12rcd13ifvqhpg","pricing_plan_id":"cebpf4jnsgd1na2vs0mg"},{"bike_id":"9b96d1a7-1bb0-4837-8ce5-5f6325109a7b","system_id":"levelo_inurba_marseille","lat":43.23185,"lon":5.39996,"is_reserved":false,"is_disabled":false,"rental_uris":{"android":"levelo://app?vid=9b96d1a7-1bb0-4837-8ce5-5f6325109a7b","ios":"levelo://app?vid=9b96d1a7-1bb0-4837-8ce5-5f6325109a7b"},"vehicle_type_id":"4","last_reported":1730999286,"current_range_meters":10000,"station_id":"ce4bhn12rcd13ifvqgqg","pricing_plan_id":"cebpf4jnsgd1na2vs0mg"},{"bike_id":"7148e5a3-e345-4df8-9602-6c428d6f2779","system_id":"levelo_inurba_marseille","lat":43.2667,"lon":5.40289,"is_reserved":false,"is_disabled":false,"rental_uris":{"android":"levelo://app?vid=7148e5a3-e345-4df8-9602-6c428d6f2779","ios":"levelo://app?vid=7148e5a3-e345-4df8-9602-6c428d6f2779"},"vehicle_type_id":"4","last_reported":1730999286,"current_range_meters":15200,"station_id":"","pricing_plan_id":"cebpf4jnsgd1na2vs0mg"},{"bike_id":"14a66910-2e94-4fbc-860a-5889a2a2ac9a","system_id":"levelo_inurba_marseille","lat":43.27173,"lon":5.40992,"is_reserved":false,"is_disabled":false,"rental_uris":{"android":"levelo://app?vid=14a66910-2e94-4fbc-860a-5889a2a2ac9a","ios":"levelo://app?vid=14a66910-2e94-4fbc-860a-5889a2a2ac9a"},"vehicle_type_id":"4","last_reported":1730999286,"current_range_meters":8400,"station_id":"ce4bhl12rcd13ifvqgf0","pricing_plan_id":"cebpf4jnsgd1na2vs0mg"},{"bike_id":"ebe24ed0-22ef-4108-8346-d144ddd06aac","system_id":"levelo_inurba_marseille","lat":43.33728,"lon":5.39188,"is_reserved":false,"is_disabled":false,"rental_uris":{"android":"levelo://app?vid=ebe24ed0-22ef-4108-8346-d144ddd06aac","ios":"levelo://app?vid=ebe24ed0-22ef-4108-8346-d144ddd06aac"},"vehicle_type_id":"4","last_reported":1730999286,"current_range_meters":38000,"station_id":"ce4bhr92rcd13ifvqhsg","pricing_plan_id":"cebpf4jnsgd1na2vs0mg"},{"bike_id":"42758877-c4e6-4f54-b67e-2527e84c4894","system_id":"levelo_inurba_marseille","lat":43.23184,"lon":5.39985,"is_reserved":false,"is_disabled":false,"rental_uris":{"android":"levelo://app?vid=42758877-c4e6-4f54-b67e-2527e84c4894","ios":"levelo://app?vid=42758877-c4e6-4f54-b67e-2527e84c4894"},"vehicle_type_id":"4","last_reported":1730999286,"current_range_meters":21600,"station_id":"ce4bhn12rcd13ifvqgqg","pricing_plan_id":"cebpf4jnsgd1na2vs0mg"},{"bike_id":"c39ab4c4-b30c-4ef9-b497-ba43ecf94a8d","system_id":"levelo_inurba_marseille","lat":43.304169,"lon":5.376684,"is_reserved":false,"is_disabled":false,"rental_uris":{"android":"levelo://app?vid=c39ab4c4-b30c-4ef9-b497-ba43ecf94a8d","ios":"levelo://app?vid=c39ab4c4-b30c-4ef9-b497-ba43ecf94a8d"},"vehicle_type_id":"4","last_reported":1730999286,"current_range_meters":6800,"station_id":"ce4bgip2rcd13ifvqbb0","pricing_plan_id":"cebpf4jnsgd1na2vs0mg"},{"bike_id":"9e87e5eb-3a66-4ceb-bb4f-e3b331820bcf","system_id":"levelo_inurba_marseille","lat":43.28932,"lon":5.36644,"is_reserved":false,"is_disabled":false,"rental_uris":{"android":"levelo://app?vid=9e87e5eb-3a66-4ceb-bb4f-e3b331820bcf","ios":"levelo://app?vid=9e87e5eb-3a66-4ceb-bb4f-e3b331820bcf"},"vehicle_type_id":"4","last_reported":1730999286,"current_range_meters":22000,"station_id":"ce4bhap2rcd13ifvqek0","pricing_plan_id":"cebpf4jnsgd1na2vs0mg"},{"bike_id":"207ed067-29d8-4a8f-b9f3-0849ce579f81","system_id":"levelo_inurba_marseille","lat":43.33018,"lon":5.39056,"is_reserved":false,"is_disabled":false,"rental_uris":{"android":"levelo://app?vid=207ed067-29d8-4a8f-b9f3-0849ce579f81","ios":"levelo://app?vid=207ed067-29d8-4a8f-b9f3-0849ce579f81"},"vehicle_type_id":"4","last_reported":1730999286,"current_range_meters":36800,"station_id":"ce4bhr92rcd13ifvqhrg","pricing_plan_id":"cebpf4jnsgd1na2vs0mg"},{"bike_id":"c54d8938-bd66-4746-8397-6468d0e45158","system_id":"levelo_inurba_marseille","lat":43.30803,"lon":5.43525,"is_reserved":false,"is_disabled":false,"rental_uris":{"android":"levelo://app?vid=c54d8938-bd66-4746-8397-6468d0e45158","ios":"levelo://app?vid=c54d8938-bd66-4746-8397-6468d0e45158"},"vehicle_type_id":"4","last_reported":1730999286,"current_range_meters":27200,"station_id":"ce4bhph2rcd13ifvqheg","pricing_plan_id":"cebpf4jnsgd1na2vs0mg"},{"bike_id":"2e26812e-2641-4dfe-86cb-5b488675e290","system_id":"levelo_inurba_marseille","lat":43.29623,"lon":5.37151,"is_reserved":false,"is_disabled":false,"rental_uris":{"android":"levelo://app?vid=2e26812e-2641-4dfe-86cb-5b488675e290","ios":"levelo://app?vid=2e26812e-2641-4dfe-86cb-5b488675e290"},"vehicle_type_id":"4","last_reported":1730999286,"current_range_meters":3600,"station_id":"ce4bgnh2rcd13ifvqc0g","pricing_plan_id":"cebpf4jnsgd1na2vs0mg"},{"bike_id":"95ac8b55-d461-4c79-bf07-3deece0b5544","system_id":"levelo_inurba_marseille","lat":43.337444,"lon":5.374475,"is_reserved":false,"is_disabled":false,"rental_uris":{"android":"levelo://app?vid=95ac8b55-d461-4c79-bf07-3deece0b5544","ios":"levelo://app?vid=95ac8b55-d461-4c79-bf07-3deece0b5544"},"vehicle_type_id":"4","last_reported":1730999286,"current_range_meters":36400,"station_id":"","pricing_plan_id":"cebpf4jnsgd1na2vs0mg"},{"bike_id":"ccbf061e-f784-4fc7-9398-6ec03b068213","system_id":"levelo_inurba_marseille","lat":43.29254,"lon":5.40912,"is_reserved":false,"is_disabled":false,"rental_uris":{"android":"levelo://app?vid=ccbf061e-f784-4fc7-9398-6ec03b068213","ios":"levelo://app?vid=ccbf061e-f784-4fc7-9398-6ec03b068213"},"vehicle_type_id":"4","last_reported":1730999286,"current_range_meters":8000,"station_id":"ce4bh192rcd13ifvqdc0","pricing_plan_id":"cebpf4jnsgd1na2vs0mg"},{"bike_id":"2e20f2a1-b564-48ea-877a-8fba77b4c953","system_id":"levelo_inurba_marseille","lat":43.22926,"lon":5.35376,"is_reserved":false,"is_disabled":false,"rental_uris":{"android":"levelo://app?vid=2e20f2a1-b564-48ea-877a-8fba77b4c953","ios":"levelo://app?vid=2e20f2a1-b564-48ea-877a-8fba77b4c953"},"vehicle_type_id":"4","last_reported":1730999286,"current_range_meters":36000,"station_id":"cpo3532slgdg3j2ikp40","pricing_plan_id":"cebpf4jnsgd1na2vs0mg"},{"bike_id":"33064e37-6c0e-403e-a467-b05959d281e9","system_id":"levelo_inurba_marseille","lat":43.31359,"lon":5.38487,"is_reserved":false,"is_disabled":false,"rental_uris":{"android":"levelo://app?vid=33064e37-6c0e-403e-a467-b05959d281e9","ios":"levelo://app?vid=33064e37-6c0e-403e-a467-b05959d281e9"},"vehicle_type_id":"4","last_reported":1730999286,"current_range_meters":6800,"station_id":"ce4bgt92rcd13ifvqcf0","pricing_plan_id":"cebpf4jnsgd1na2vs0mg"},{"bike_id":"c2eb73f9-d43a-4eeb-92a3-348ccedd9e83","system_id":"levelo_inurba_marseille","lat":43.29811,"lon":5.38101,"is_reserved":false,"is_disabled":false,"rental_uris":{"android":"levelo://app?vid=c2eb73f9-d43a-4eeb-92a3-348ccedd9e83","ios":"levelo://app?vid=c2eb73f9-d43a-4eeb-92a3-348ccedd9e83"},"vehicle_type_id":"4","last_reported":1730999286,"current_range_meters":28400,"station_id":"ce4bgip2rcd13ifvqbb0","pricing_plan_id":"cebpf4jnsgd1na2vs0mg"},{"bike_id":"7ffed040-cea6-4535-acb7-59a33b3043ed","system_id":"levelo_inurba_marseille","lat":43.30635,"lon":5.40106,"is_reserved":false,"is_disabled":false,"rental_uris":{"android":"levelo://app?vid=7ffed040-cea6-4535-acb7-59a33b3043ed","ios":"levelo://app?vid=7ffed040-cea6-4535-acb7-59a33b3043ed"},"vehicle_type_id":"4","last_reported":1730999286,"current_range_meters":7200,"station_id":"ce4bh112rcd13ifvqda0","pricing_plan_id":"cebpf4jnsgd1na2vs0mg"},{"bike_id":"a33de4ee-a3bf-4089-85aa-47e730f8c2c0","system_id":"levelo_inurba_marseille","lat":43.28281,"lon":5.35067,"is_reserved":false,"is_disabled":false,"rental_uris":{"android":"levelo://app?vid=a33de4ee-a3bf-4089-85aa-47e730f8c2c0","ios":"levelo://app?vid=a33de4ee-a3bf-4089-85aa-47e730f8c2c0"},"vehicle_type_id":"4","last_reported":1730999286,"current_range_meters":16400,"station_id":"ce4bhbp2rcd13ifvqerg","pricing_plan_id":"cebpf4jnsgd1na2vs0mg"},{"bike_id":"b4b6e481-dfc8-420b-ab48-63a6dfd0ce0a","system_id":"levelo_inurba_marseille","lat":43.27372,"lon":5.36262,"is_reserved":false,"is_disabled":false,"rental_uris":{"android":"levelo://app?vid=b4b6e481-dfc8-420b-ab48-63a6dfd0ce0a","ios":"levelo://app?vid=b4b6e481-dfc8-420b-ab48-63a6dfd0ce0a"},"vehicle_type_id":"4","last_reported":1730999286,"current_range_meters":12000,"station_id":"ce4bhbh2rcd13ifvqeo0","pricing_plan_id":"cebpf4jnsgd1na2vs0mg"},{"bike_id":"f139c0b7-52a7-4153-bf41-ccb9fdb0faad","system_id":"levelo_inurba_marseille","lat":43.28724,"lon":5.36087,"is_reserved":false,"is_disabled":false,"rental_uris":{"android":"levelo://app?vid=f139c0b7-52a7-4153-bf41-ccb9fdb0faad","ios":"levelo://app?vid=f139c0b7-52a7-4153-bf41-ccb9fdb0faad"},"vehicle_type_id":"4","last_reported":1730999286,"current_range_meters":38800,"station_id":"cki0cbj6b192h4jlfktg","pricing_plan_id":"cebpf4jnsgd1na2vs0mg"},{"bike_id":"7c165f07-8e31-435b-b043-f5f5e85de47d","system_id":"levelo_inurba_marseille","lat":43.30133,"lon":5.3879,"is_reserved":false,"is_disabled":false,"rental_uris":{"android":"levelo://app?vid=7c165f07-8e31-435b-b043-f5f5e85de47d","ios":"levelo://app?vid=7c165f07-8e31-435b-b043-f5f5e85de47d"},"vehicle_type_id":"4","last_reported":1730999286,"current_range_meters":19600,"station_id":"ce4bghh2rcd13ifvqb60","pricing_plan_id":"cebpf4jnsgd1na2vs0mg"},{"bike_id":"17dcbff9-79f1-4c2f-b403-9514b021d060","system_id":"levelo_inurba_marseille","lat":43.31728,"lon":5.424,"is_reserved":false,"is_disabled":false,"rental_uris":{"android":"levelo://app?vid=17dcbff9-79f1-4c2f-b403-9514b021d060","ios":"levelo://app?vid=17dcbff9-79f1-4c2f-b403-9514b021d060"},"vehicle_type_id":"4","last_reported":1730999286,"current_range_meters":33200,"station_id":"ce4bhp92rcd13ifvqhbg","pricing_plan_id":"cebpf4jnsgd1na2vs0mg"},{"bike_id":"f4e0bfe0-ef7d-4202-a9c2-0a3990594751","system_id":"levelo_inurba_marseille","lat":43.2439,"lon":5.37059,"is_reserved":false,"is_disabled":false,"rental_uris":{"android":"levelo://app?vid=f4e0bfe0-ef7d-4202-a9c2-0a3990594751","ios":"levelo://app?vid=f4e0bfe0-ef7d-4202-a9c2-0a3990594751"},"vehicle_type_id":"4","last_reported":1730999286,"current_range_meters":16800,"station_id":"ce4bhhh2rcd13ifvqfk0","pricing_plan_id":"cebpf4jnsgd1na2vs0mg"},{"bike_id":"309b4c1a-9d96-4344-b947-5bf48d2369bc","system_id":"levelo_inurba_marseille","lat":43.30935,"lon":5.40141,"is_reserved":false,"is_disabled":false,"rental_uris":{"android":"levelo://app?vid=309b4c1a-9d96-4344-b947-5bf48d2369bc","ios":"levelo://app?vid=309b4c1a-9d96-4344-b947-5bf48d2369bc"},"vehicle_type_id":"4","last_reported":1730999286,"current_range_meters":8400,"station_id":"ce4bgvp2rcd13ifvqct0","pricing_plan_id":"cebpf4jnsgd1na2vs0mg"},{"bike_id":"a70eb764-5f58-4f0e-95c8-70e8835be325","system_id":"levelo_inurba_marseille","lat":43.29884,"lon":5.38897,"is_reserved":false,"is_disabled":false,"rental_uris":{"android":"levelo://app?vid=a70eb764-5f58-4f0e-95c8-70e8835be325","ios":"levelo://app?vid=a70eb764-5f58-4f0e-95c8-70e8835be325"},"vehicle_type_id":"4","last_reported":1730999286,"current_range_meters":24800,"station_id":"ce4bh392rcd13ifvqdl0","pricing_plan_id":"cebpf4jnsgd1na2vs0mg"},{"bike_id":"746f8df5-cd38-4c92-9c55-a49257706bc6","system_id":"levelo_inurba_marseille","lat":43.31327,"lon":5.39695,"is_reserved":false,"is_disabled":false,"rental_uris":{"android":"levelo://app?vid=746f8df5-cd38-4c92-9c55-a49257706bc6","ios":"levelo://app?vid=746f8df5-cd38-4c92-9c55-a49257706bc6"},"vehicle_type_id":"4","last_reported":1730999286,"current_range_meters":39200,"station_id":"ce4bgvp2rcd13ifvqcu0","pricing_plan_id":"cebpf4jnsgd1na2vs0mg"},{"bike_id":"80d5c89e-745d-46d6-9ab9-4f5ea40b6def","system_id":"levelo_inurba_marseille","lat":43.27178,"lon":5.41005,"is_reserved":false,"is_disabled":false,"rental_uris":{"android":"levelo://app?vid=80d5c89e-745d-46d6-9ab9-4f5ea40b6def","ios":"levelo://app?vid=80d5c89e-745d-46d6-9ab9-4f5ea40b6def"},"vehicle_type_id":"4","last_reported":1730999286,"current_range_meters":14800,"station_id":"ce4bhl12rcd13ifvqgf0","pricing_plan_id":"cebpf4jnsgd1na2vs0mg"},{"bike_id":"7edf48a5-86b0-440d-9f42-94cf46ce791e","system_id":"levelo_inurba_marseille","lat":43.31715,"lon":5.42404,"is_reserved":false,"is_disabled":false,"rental_uris":{"android":"levelo://app?vid=7edf48a5-86b0-440d-9f42-94cf46ce791e","ios":"levelo://app?vid=7edf48a5-86b0-440d-9f42-94cf46ce791e"},"vehicle_type_id":"4","last_reported":1730999286,"current_range_meters":3200,"station_id":"ce4bhp92rcd13ifvqhbg","pricing_plan_id":"cebpf4jnsgd1na2vs0mg"},{"bike_id":"56724e01-9843-478f-9957-90072d770c6c","system_id":"levelo_inurba_marseille","lat":43.23184,"lon":5.35548,"is_reserved":false,"is_disabled":false,"rental_uris":{"android":"levelo://app?vid=56724e01-9843-478f-9957-90072d770c6c","ios":"levelo://app?vid=56724e01-9843-478f-9957-90072d770c6c"},"vehicle_type_id":"4","last_reported":1730999286,"current_range_meters":9200,"station_id":"ce4bhu92rcd13ifvqi70","pricing_plan_id":"cebpf4jnsgd1na2vs0mg"},{"bike_id":"a3cbf27e-520d-47d0-9f14-5a77f3ec210a","system_id":"levelo_inurba_marseille","lat":43.28083,"lon":5.39659,"is_reserved":false,"is_disabled":false,"rental_uris":{"android":"levelo://app?vid=a3cbf27e-520d-47d0-9f14-5a77f3ec210a","ios":"levelo://app?vid=a3cbf27e-520d-47d0-9f14-5a77f3ec210a"},"vehicle_type_id":"4","last_reported":1730999286,"current_range_meters":36400,"station_id":"ce4bho12rcd13ifvqh2g","pricing_plan_id":"cebpf4jnsgd1na2vs0mg"},{"bike_id":"9044ed43-de46-4645-b2ad-5e136647239a","system_id":"levelo_inurba_marseille","lat":43.337444,"lon":5.374475,"is_reserved":false,"is_disabled":false,"rental_uris":{"android":"levelo://app?vid=9044ed43-de46-4645-b2ad-5e136647239a","ios":"levelo://app?vid=9044ed43-de46-4645-b2ad-5e136647239a"},"vehicle_type_id":"4","last_reported":1730999286,"current_range_meters":36400,"station_id":"","pricing_plan_id":"cebpf4jnsgd1na2vs0mg"},{"bike_id":"705fff24-d923-4789-8e22-cb2c7d8105e1","system_id":"levelo_inurba_marseille","lat":43.26805,"lon":5.40273,"is_reserved":false,"is_disabled":false,"rental_uris":{"android":"levelo://app?vid=705fff24-d923-4789-8e22-cb2c7d8105e1","ios":"levelo://app?vid=705fff24-d923-4789-8e22-cb2c7d8105e1"},"vehicle_type_id":"4","last_reported":1730999286,"current_range_meters":9200,"station_id":"ce501612rcd8frsf0b60","pricing_plan_id":"cebpf4jnsgd1na2vs0mg"},{"bike_id":"cde33d01-4fdf-4588-9993-50576e545d63","system_id":"levelo_inurba_marseille","lat":43.29902,"lon":5.43662,"is_reserved":false,"is_disabled":false,"rental_uris":{"android":"levelo://app?vid=cde33d01-4fdf-4588-9993-50576e545d63","ios":"levelo://app?vid=cde33d01-4fdf-4588-9993-50576e545d63"},"vehicle_type_id":"4","last_reported":1730999286,"current_range_meters":32800,"station_id":"ce4bhpp2rcd13ifvqhfg","pricing_plan_id":"cebpf4jnsgd1na2vs0mg"},{"bike_id":"84d60574-e97d-416a-bb69-40e9fb469182","system_id":"levelo_inurba_marseille","lat":43.22928,"lon":5.35377,"is_reserved":false,"is_disabled":false,"rental_uris":{"android":"levelo://app?vid=84d60574-e97d-416a-bb69-40e9fb469182","ios":"levelo://app?vid=84d60574-e97d-416a-bb69-40e9fb469182"},"vehicle_type_id":"4","last_reported":1730999286,"current_range_meters":40000,"station_id":"cpo3532slgdg3j2ikp40","pricing_plan_id":"cebpf4jnsgd1na2vs0mg"},{"bike_id":"91693bd7-f476-41f9-b7d1-d2f385e7fa75","system_id":"levelo_inurba_marseille","lat":43.25867,"lon":5.39901,"is_reserved":false,"is_disabled":false,"rental_uris":{"android":"levelo://app?vid=91693bd7-f476-41f9-b7d1-d2f385e7fa75","ios":"levelo://app?vid=91693bd7-f476-41f9-b7d1-d2f385e7fa75"},"vehicle_type_id":"4","last_reported":1730999286,"current_range_meters":38800,"station_id":"ce4bhl92rcd13ifvqghg","pricing_plan_id":"cebpf4jnsgd1na2vs0mg"},{"bike_id":"4fb4cb80-d53b-4ba2-a81d-0a71c8ef8b75","system_id":"levelo_inurba_marseille","lat":43.28619,"lon":5.35106,"is_reserved":false,"is_disabled":false,"rental_uris":{"android":"levelo://app?vid=4fb4cb80-d53b-4ba2-a81d-0a71c8ef8b75","ios":"levelo://app?vid=4fb4cb80-d53b-4ba2-a81d-0a71c8ef8b75"},"vehicle_type_id":"4","last_reported":1730999286,"current_range_meters":38800,"station_id":"ce4bhch2rcd13ifvqeug","pricing_plan_id":"cebpf4jnsgd1na2vs0mg"},{"bike_id":"7ee938f5-5cb3-43de-9fdd-d1bcc674d87e","system_id":"levelo_inurba_marseille","lat":43.2694,"lon":5.40252,"is_reserved":false,"is_disabled":false,"rental_uris":{"android":"levelo://app?vid=7ee938f5-5cb3-43de-9fdd-d1bcc674d87e","ios":"levelo://app?vid=7ee938f5-5cb3-43de-9fdd-d1bcc674d87e"},"vehicle_type_id":"4","last_reported":1730999286,"current_range_meters":14800,"station_id":"cjm6bp8fraef2m0cb0m0","pricing_plan_id":"cebpf4jnsgd1na2vs0mg"},{"bike_id":"5174ae6b-73b7-4eb9-b82e-9c61c1f78ce8","system_id":"levelo_inurba_marseille","lat":43.31233,"lon":5.40615,"is_reserved":false,"is_disabled":false,"rental_uris":{"android":"levelo://app?vid=5174ae6b-73b7-4eb9-b82e-9c61c1f78ce8","ios":"levelo://app?vid=5174ae6b-73b7-4eb9-b82e-9c61c1f78ce8"},"vehicle_type_id":"4","last_reported":1730999286,"current_range_meters":16400,"station_id":"","pricing_plan_id":"cebpf4jnsgd1na2vs0mg"},{"bike_id":"f0b1fc38-bd45-42b9-a902-6d44d0608b45","system_id":"levelo_inurba_marseille","lat":43.29852,"lon":5.39733,"is_reserved":false,"is_disabled":false,"rental_uris":{"android":"levelo://app?vid=f0b1fc38-bd45-42b9-a902-6d44d0608b45","ios":"levelo://app?vid=f0b1fc38-bd45-42b9-a902-6d44d0608b45"},"vehicle_type_id":"4","last_reported":1730999286,"current_range_meters":38800,"station_id":"ce4bh0h2rcd13ifvqd50","pricing_plan_id":"cebpf4jnsgd1na2vs0mg"},{"bike_id":"92dd61f4-f06d-49fc-b77f-5f4e0dfd43f6","system_id":"levelo_inurba_marseille","lat":43.265656,"lon":5.39006,"is_reserved":false,"is_disabled":false,"rental_uris":{"android":"levelo://app?vid=92dd61f4-f06d-49fc-b77f-5f4e0dfd43f6","ios":"levelo://app?vid=92dd61f4-f06d-49fc-b77f-5f4e0dfd43f6"},"vehicle_type_id":"4","last_reported":1730999286,"current_range_meters":6400,"station_id":"ce4bhe12rcd13ifvqf30","pricing_plan_id":"cebpf4jnsgd1na2vs0mg"},{"bike_id":"964f1532-5a20-4712-98a6-89de64f47908","system_id":"levelo_inurba_marseille","lat":43.28158,"lon":5.4265,"is_reserved":false,"is_disabled":false,"rental_uris":{"android":"levelo://app?vid=964f1532-5a20-4712-98a6-89de64f47908","ios":"levelo://app?vid=964f1532-5a20-4712-98a6-89de64f47908"},"vehicle_type_id":"4","last_reported":1730999286,"current_range_meters":27200,"station_id":"ce4bhnh2rcd13ifvqgug","pricing_plan_id":"cebpf4jnsgd1na2vs0mg"},{"bike_id":"1ff4a1cb-b644-439e-9982-9d270ac520b8","system_id":"levelo_inurba_marseille","lat":43.27616,"lon":5.36103,"is_reserved":false,"is_disabled":false,"rental_uris":{"android":"levelo://app?vid=1ff4a1cb-b644-439e-9982-9d270ac520b8","ios":"levelo://app?vid=1ff4a1cb-b644-439e-9982-9d270ac520b8"},"vehicle_type_id":"4","last_reported":1730999286,"current_range_meters":28000,"station_id":"ce4bgj92rcd13ifvqbe0","pricing_plan_id":"cebpf4jnsgd1na2vs0mg"},{"bike_id":"82685ad2-7480-4e75-99fa-239fa13ca0be","system_id":"levelo_inurba_marseille","lat":43.26067,"lon":5.39393,"is_reserved":false,"is_disabled":false,"rental_uris":{"android":"levelo://app?vid=82685ad2-7480-4e75-99fa-239fa13ca0be","ios":"levelo://app?vid=82685ad2-7480-4e75-99fa-239fa13ca0be"},"vehicle_type_id":"4","last_reported":1730999286,"current_range_meters":39200,"station_id":"ce4bhh92rcd13ifvqfj0","pricing_plan_id":"cebpf4jnsgd1na2vs0mg"},{"bike_id":"67678471-8900-40c3-b5bb-806b24feb686","system_id":"levelo_inurba_marseille","lat":43.31333,"lon":5.39696,"is_reserved":false,"is_disabled":false,"rental_uris":{"android":"levelo://app?vid=67678471-8900-40c3-b5bb-806b24feb686","ios":"levelo://app?vid=67678471-8900-40c3-b5bb-806b24feb686"},"vehicle_type_id":"4","last_reported":1730999286,"current_range_meters":23200,"station_id":"ce4bgvp2rcd13ifvqcu0","pricing_plan_id":"cebpf4jnsgd1na2vs0mg"},{"bike_id":"a812fd61-18c0-4cd5-9d16-f55ded34f535","system_id":"levelo_inurba_marseille","lat":43.29419,"lon":5.38627,"is_reserved":false,"is_disabled":false,"rental_uris":{"android":"levelo://app?vid=a812fd61-18c0-4cd5-9d16-f55ded34f535","ios":"levelo://app?vid=a812fd61-18c0-4cd5-9d16-f55ded34f535"},"vehicle_type_id":"4","last_reported":1730999286,"current_range_meters":24800,"station_id":"ce4bh2h2rcd13ifvqdh0","pricing_plan_id":"cebpf4jnsgd1na2vs0mg"},{"bike_id":"d6fdae69-642e-4d84-a8fd-edeb75ed0ef4","system_id":"levelo_inurba_marseille","lat":43.22934,"lon":5.35378,"is_reserved":false,"is_disabled":false,"rental_uris":{"android":"levelo://app?vid=d6fdae69-642e-4d84-a8fd-edeb75ed0ef4","ios":"levelo://app?vid=d6fdae69-642e-4d84-a8fd-edeb75ed0ef4"},"vehicle_type_id":"4","last_reported":1730999286,"current_range_meters":27600,"station_id":"cpo3532slgdg3j2ikp40","pricing_plan_id":"cebpf4jnsgd1na2vs0mg"},{"bike_id":"9c67dc55-56be-48c5-a437-0348a5fc65cf","system_id":"levelo_inurba_marseille","lat":43.3204,"lon":5.41523,"is_reserved":false,"is_disabled":false,"rental_uris":{"android":"levelo://app?vid=9c67dc55-56be-48c5-a437-0348a5fc65cf","ios":"levelo://app?vid=9c67dc55-56be-48c5-a437-0348a5fc65cf"},"vehicle_type_id":"4","last_reported":1730999286,"current_range_meters":9200,"station_id":"ce4bhq92rcd13ifvqhkg","pricing_plan_id":"cebpf4jnsgd1na2vs0mg"},{"bike_id":"42e59f4f-02e5-4657-aab7-27019ec177bf","system_id":"levelo_inurba_marseille","lat":43.3211,"lon":5.36773,"is_reserved":false,"is_disabled":false,"rental_uris":{"android":"levelo://app?vid=42e59f4f-02e5-4657-aab7-27019ec177bf","ios":"levelo://app?vid=42e59f4f-02e5-4657-aab7-27019ec177bf"},"vehicle_type_id":"4","last_reported":1730999286,"current_range_meters":24800,"station_id":"ce4bhrh2rcd13ifvqhug","pricing_plan_id":"cebpf4jnsgd1na2vs0mg"},{"bike_id":"8c859256-dd0c-45b6-8065-e85a378b5228","system_id":"levelo_inurba_marseille","lat":43.30223,"lon":5.39477,"is_reserved":false,"is_disabled":false,"rental_uris":{"android":"levelo://app?vid=8c859256-dd0c-45b6-8065-e85a378b5228","ios":"levelo://app?vid=8c859256-dd0c-45b6-8065-e85a378b5228"},"vehicle_type_id":"4","last_reported":1730999286,"current_range_meters":26800,"station_id":"ce4bh0p2rcd13ifvqd70","pricing_plan_id":"cebpf4jnsgd1na2vs0mg"},{"bike_id":"da199f3b-8d99-4a41-8e19-ec397d54e187","system_id":"levelo_inurba_marseille","lat":43.30546,"lon":5.36746,"is_reserved":false,"is_disabled":false,"rental_uris":{"android":"levelo://app?vid=da199f3b-8d99-4a41-8e19-ec397d54e187","ios":"levelo://app?vid=da199f3b-8d99-4a41-8e19-ec397d54e187"},"vehicle_type_id":"4","last_reported":1730999286,"current_range_meters":2800,"station_id":"ce4bgrp2rcd13ifvqc9g","pricing_plan_id":"cebpf4jnsgd1na2vs0mg"},{"bike_id":"001b7c42-40a7-47a9-927f-6c03197892aa","system_id":"levelo_inurba_marseille","lat":43.33721,"lon":5.39179,"is_reserved":false,"is_disabled":false,"rental_uris":{"android":"levelo://app?vid=001b7c42-40a7-47a9-927f-6c03197892aa","ios":"levelo://app?vid=001b7c42-40a7-47a9-927f-6c03197892aa"},"vehicle_type_id":"4","last_reported":1730999286,"current_range_meters":40000,"station_id":"ce4bhr92rcd13ifvqhsg","pricing_plan_id":"cebpf4jnsgd1na2vs0mg"},{"bike_id":"ea5f30e1-b564-4e7f-a1f0-bdc6a1a4e171","system_id":"levelo_inurba_marseille","lat":43.27945,"lon":5.41048,"is_reserved":false,"is_disabled":false,"rental_uris":{"android":"levelo://app?vid=ea5f30e1-b564-4e7f-a1f0-bdc6a1a4e171","ios":"levelo://app?vid=ea5f30e1-b564-4e7f-a1f0-bdc6a1a4e171"},"vehicle_type_id":"4","last_reported":1730999286,"current_range_meters":4800,"station_id":"ce4bhnp2rcd13ifvqh0g","pricing_plan_id":"cebpf4jnsgd1na2vs0mg"},{"bike_id":"86b42d8b-fdbb-4fa0-8863-3c1c45fb5049","system_id":"levelo_inurba_marseille","lat":43.31882,"lon":5.40736,"is_reserved":false,"is_disabled":false,"rental_uris":{"android":"levelo://app?vid=86b42d8b-fdbb-4fa0-8863-3c1c45fb5049","ios":"levelo://app?vid=86b42d8b-fdbb-4fa0-8863-3c1c45fb5049"},"vehicle_type_id":"4","last_reported":1730999286,"current_range_meters":38800,"station_id":"ce4bhq12rcd13ifvqhig","pricing_plan_id":"cebpf4jnsgd1na2vs0mg"},{"bike_id":"9178d598-d5de-4d5c-85ae-0efa9377149a","system_id":"levelo_inurba_marseille","lat":43.2318,"lon":5.39986,"is_reserved":false,"is_disabled":false,"rental_uris":{"android":"levelo://app?vid=9178d598-d5de-4d5c-85ae-0efa9377149a","ios":"levelo://app?vid=9178d598-d5de-4d5c-85ae-0efa9377149a"},"vehicle_type_id":"4","last_reported":1730999286,"current_range_meters":20400,"station_id":"ce4bhn12rcd13ifvqgqg","pricing_plan_id":"cebpf4jnsgd1na2vs0mg"},{"bike_id":"0f6720d0-0074-4d75-8954-368ef2125385","system_id":"levelo_inurba_marseille","lat":43.31727,"lon":5.37755,"is_reserved":false,"is_disabled":false,"rental_uris":{"android":"levelo://app?vid=0f6720d0-0074-4d75-8954-368ef2125385","ios":"levelo://app?vid=0f6720d0-0074-4d75-8954-368ef2125385"},"vehicle_type_id":"4","last_reported":1730999286,"current_range_meters":35200,"station_id":"ce4bgth2rcd13ifvqch0","pricing_plan_id":"cebpf4jnsgd1na2vs0mg"},{"bike_id":"cb6ea851-bf40-4406-8667-fd4dee8f2841","system_id":"levelo_inurba_marseille","lat":43.30134,"lon":5.39877,"is_reserved":false,"is_disabled":false,"rental_uris":{"android":"levelo://app?vid=cb6ea851-bf40-4406-8667-fd4dee8f2841","ios":"levelo://app?vid=cb6ea851-bf40-4406-8667-fd4dee8f2841"},"vehicle_type_id":"4","last_reported":1730999286,"current_range_meters":26800,"station_id":"ce4bh0h2rcd13ifvqd40","pricing_plan_id":"cebpf4jnsgd1na2vs0mg"},{"bike_id":"fdf26527-6c0f-4b2a-b565-d41399ed3242","system_id":"levelo_inurba_marseille","lat":43.31537,"lon":5.3804,"is_reserved":false,"is_disabled":false,"rental_uris":{"android":"levelo://app?vid=fdf26527-6c0f-4b2a-b565-d41399ed3242","ios":"levelo://app?vid=fdf26527-6c0f-4b2a-b565-d41399ed3242"},"vehicle_type_id":"4","last_reported":1730999286,"current_range_meters":4800,"station_id":"ce4bhsp2rcd13ifvqi50","pricing_plan_id":"cebpf4jnsgd1na2vs0mg"},{"bike_id":"d982d339-5568-4890-80be-c3acb5f42fad","system_id":"levelo_inurba_marseille","lat":43.30137,"lon":5.39871,"is_reserved":false,"is_disabled":false,"rental_uris":{"android":"levelo://app?vid=d982d339-5568-4890-80be-c3acb5f42fad","ios":"levelo://app?vid=d982d339-5568-4890-80be-c3acb5f42fad"},"vehicle_type_id":"4","last_reported":1730999286,"current_range_meters":39200,"station_id":"ce4bh0h2rcd13ifvqd40","pricing_plan_id":"cebpf4jnsgd1na2vs0mg"},{"bike_id":"0993ae53-b33b-4ec0-8420-6942bdb9eb84","system_id":"levelo_inurba_marseille","lat":43.30803,"lon":5.43525,"is_reserved":false,"is_disabled":false,"rental_uris":{"android":"levelo://app?vid=0993ae53-b33b-4ec0-8420-6942bdb9eb84","ios":"levelo://app?vid=0993ae53-b33b-4ec0-8420-6942bdb9eb84"},"vehicle_type_id":"4","last_reported":1730999286,"current_range_meters":39200,"station_id":"ce4bhph2rcd13ifvqheg","pricing_plan_id":"cebpf4jnsgd1na2vs0mg"},{"bike_id":"bb038f56-3c8f-49e3-8d13-d49835b6da4f","system_id":"levelo_inurba_marseille","lat":43.317116,"lon":5.377106,"is_reserved":false,"is_disabled":false,"rental_uris":{"android":"levelo://app?vid=bb038f56-3c8f-49e3-8d13-d49835b6da4f","ios":"levelo://app?vid=bb038f56-3c8f-49e3-8d13-d49835b6da4f"},"vehicle_type_id":"4","last_reported":1730999286,"current_range_meters":31200,"station_id":"ce4bgth2rcd13ifvqch0","pricing_plan_id":"cebpf4jnsgd1na2vs0mg"},{"bike_id":"3c4940ac-dd2d-40e4-98b9-15ab46c67da2","system_id":"levelo_inurba_marseille","lat":43.28484,"lon":5.38404,"is_reserved":false,"is_disabled":false,"rental_uris":{"android":"levelo://app?vid=3c4940ac-dd2d-40e4-98b9-15ab46c67da2","ios":"levelo://app?vid=3c4940ac-dd2d-40e4-98b9-15ab46c67da2"},"vehicle_type_id":"4","last_reported":1730999286,"current_range_meters":18800,"station_id":"ce4bh512rcd13ifvqe3g","pricing_plan_id":"cebpf4jnsgd1na2vs0mg"},{"bike_id":"82ec77be-b5ce-4796-b485-1eeaf0128323","system_id":"levelo_inurba_marseille","lat":43.24962,"lon":5.39635,"is_reserved":false,"is_disabled":false,"rental_uris":{"android":"levelo://app?vid=82ec77be-b5ce-4796-b485-1eeaf0128323","ios":"levelo://app?vid=82ec77be-b5ce-4796-b485-1eeaf0128323"},"vehicle_type_id":"4","last_reported":1730999286,"current_range_meters":7200,"station_id":"ce4bhhh2rcd13ifvqfk0","pricing_plan_id":"cebpf4jnsgd1na2vs0mg"},{"bike_id":"8a76bcd1-0f5e-4170-8a69-1f04e611da97","system_id":"levelo_inurba_marseille","lat":43.32479,"lon":5.3658,"is_reserved":false,"is_disabled":false,"rental_uris":{"android":"levelo://app?vid=8a76bcd1-0f5e-4170-8a69-1f04e611da97","ios":"levelo://app?vid=8a76bcd1-0f5e-4170-8a69-1f04e611da97"},"vehicle_type_id":"4","last_reported":1730999286,"current_range_meters":10000,"station_id":"ce4bhs12rcd13ifvqhvg","pricing_plan_id":"cebpf4jnsgd1na2vs0mg"},{"bike_id":"bcbb8b4f-0b40-4a73-ba39-d99337986b2c","system_id":"levelo_inurba_marseille","lat":43.3211,"lon":5.36772,"is_reserved":false,"is_disabled":false,"rental_uris":{"android":"levelo://app?vid=bcbb8b4f-0b40-4a73-ba39-d99337986b2c","ios":"levelo://app?vid=bcbb8b4f-0b40-4a73-ba39-d99337986b2c"},"vehicle_type_id":"4","last_reported":1730999286,"current_range_meters":37600,"station_id":"ce4bhrh2rcd13ifvqhug","pricing_plan_id":"cebpf4jnsgd1na2vs0mg"},{"bike_id":"93c3e829-8f89-4247-be5d-e931e8ceb625","system_id":"levelo_inurba_marseille","lat":43.26951,"lon":5.40244,"is_reserved":false,"is_disabled":false,"rental_uris":{"android":"levelo://app?vid=93c3e829-8f89-4247-be5d-e931e8ceb625","ios":"levelo://app?vid=93c3e829-8f89-4247-be5d-e931e8ceb625"},"vehicle_type_id":"4","last_reported":1730999286,"current_range_meters":28400,"station_id":"cjm6bp8fraef2m0cb0m0","pricing_plan_id":"cebpf4jnsgd1na2vs0mg"},{"bike_id":"92bbe5af-b5d9-48fc-afb8-3b15fc8d3190","system_id":"levelo_inurba_marseille","lat":43.31718,"lon":5.42401,"is_reserved":false,"is_disabled":false,"rental_uris":{"android":"levelo://app?vid=92bbe5af-b5d9-48fc-afb8-3b15fc8d3190","ios":"levelo://app?vid=92bbe5af-b5d9-48fc-afb8-3b15fc8d3190"},"vehicle_type_id":"4","last_reported":1730999286,"current_range_meters":33200,"station_id":"ce4bhp92rcd13ifvqhbg","pricing_plan_id":"cebpf4jnsgd1na2vs0mg"},{"bike_id":"0845ca82-6ae9-453a-9d67-fbce6fefc0e9","system_id":"levelo_inurba_marseille","lat":43.27681,"lon":5.38882,"is_reserved":false,"is_disabled":false,"rental_uris":{"android":"levelo://app?vid=0845ca82-6ae9-453a-9d67-fbce6fefc0e9","ios":"levelo://app?vid=0845ca82-6ae9-453a-9d67-fbce6fefc0e9"},"vehicle_type_id":"4","last_reported":1730999286,"current_range_meters":30800,"station_id":"ce4bhi12rcd13ifvqfo0","pricing_plan_id":"cebpf4jnsgd1na2vs0mg"},{"bike_id":"897901f3-17a5-4903-845d-3f7c707d4a0e","system_id":"levelo_inurba_marseille","lat":43.27702,"lon":5.3887,"is_reserved":false,"is_disabled":false,"rental_uris":{"android":"levelo://app?vid=897901f3-17a5-4903-845d-3f7c707d4a0e","ios":"levelo://app?vid=897901f3-17a5-4903-845d-3f7c707d4a0e"},"vehicle_type_id":"4","last_reported":1730999286,"current_range_meters":4800,"station_id":"ce4bhi12rcd13ifvqfo0","pricing_plan_id":"cebpf4jnsgd1na2vs0mg"},{"bike_id":"087c12e0-51d1-40d3-8796-641de37d21e4","system_id":"levelo_inurba_marseille","lat":43.28282,"lon":5.35065,"is_reserved":false,"is_disabled":false,"rental_uris":{"android":"levelo://app?vid=087c12e0-51d1-40d3-8796-641de37d21e4","ios":"levelo://app?vid=087c12e0-51d1-40d3-8796-641de37d21e4"},"vehicle_type_id":"4","last_reported":1730999286,"current_range_meters":4400,"station_id":"ce4bhbp2rcd13ifvqerg","pricing_plan_id":"cebpf4jnsgd1na2vs0mg"},{"bike_id":"9c78cef8-750b-4dd9-ab59-b79a963a26d0","system_id":"levelo_inurba_marseille","lat":43.30893,"lon":5.39651,"is_reserved":false,"is_disabled":false,"rental_uris":{"android":"levelo://app?vid=9c78cef8-750b-4dd9-ab59-b79a963a26d0","ios":"levelo://app?vid=9c78cef8-750b-4dd9-ab59-b79a963a26d0"},"vehicle_type_id":"4","last_reported":1730999286,"current_range_meters":27600,"station_id":"ce4bh012rcd13ifvqcv0","pricing_plan_id":"cebpf4jnsgd1na2vs0mg"},{"bike_id":"ab1fcd1a-fcde-4195-893e-f692c9a1b42a","system_id":"levelo_inurba_marseille","lat":43.33488,"lon":5.3915,"is_reserved":false,"is_disabled":false,"rental_uris":{"android":"levelo://app?vid=ab1fcd1a-fcde-4195-893e-f692c9a1b42a","ios":"levelo://app?vid=ab1fcd1a-fcde-4195-893e-f692c9a1b42a"},"vehicle_type_id":"4","last_reported":1730999286,"current_range_meters":12800,"station_id":"ce4bhr92rcd13ifvqhsg","pricing_plan_id":"cebpf4jnsgd1na2vs0mg"},{"bike_id":"a3dd47c7-381c-4102-8749-a59a9cff12f5","system_id":"levelo_inurba_marseille","lat":43.24668,"lon":5.38171,"is_reserved":false,"is_disabled":false,"rental_uris":{"android":"levelo://app?vid=a3dd47c7-381c-4102-8749-a59a9cff12f5","ios":"levelo://app?vid=a3dd47c7-381c-4102-8749-a59a9cff12f5"},"vehicle_type_id":"4","last_reported":1730999286,"current_range_meters":20000,"station_id":"ce4bhih2rcd13ifvqfr0","pricing_plan_id":"cebpf4jnsgd1na2vs0mg"},{"bike_id":"1ec12e42-04cc-4d15-b3a9-92281a6d5908","system_id":"levelo_inurba_marseille","lat":43.29445,"lon":5.41491,"is_reserved":false,"is_disabled":false,"rental_uris":{"android":"levelo://app?vid=1ec12e42-04cc-4d15-b3a9-92281a6d5908","ios":"levelo://app?vid=1ec12e42-04cc-4d15-b3a9-92281a6d5908"},"vehicle_type_id":"4","last_reported":1730999286,"current_range_meters":12400,"station_id":"ce4bh4p2rcd13ifvqe0g","pricing_plan_id":"cebpf4jnsgd1na2vs0mg"},{"bike_id":"1d812e72-65f4-4dc3-be34-9d9dc97d9734","system_id":"levelo_inurba_marseille","lat":43.2709,"lon":5.39264,"is_reserved":false,"is_disabled":false,"rental_uris":{"android":"levelo://app?vid=1d812e72-65f4-4dc3-be34-9d9dc97d9734","ios":"levelo://app?vid=1d812e72-65f4-4dc3-be34-9d9dc97d9734"},"vehicle_type_id":"4","last_reported":1730999286,"current_range_meters":38400,"station_id":"ce4bhh12rcd13ifvqfg0","pricing_plan_id":"cebpf4jnsgd1na2vs0mg"},{"bike_id":"3b7cc53b-1086-468a-b950-cb258ed159a7","system_id":"levelo_inurba_marseille","lat":43.280853,"lon":5.401295,"is_reserved":false,"is_disabled":false,"rental_uris":{"android":"levelo://app?vid=3b7cc53b-1086-468a-b950-cb258ed159a7","ios":"levelo://app?vid=3b7cc53b-1086-468a-b950-cb258ed159a7"},"vehicle_type_id":"4","last_reported":1730999286,"current_range_meters":28000,"station_id":"ce4bho92rcd13ifvqh4g","pricing_plan_id":"cebpf4jnsgd1na2vs0mg"},{"bike_id":"26ee007d-c521-4271-a726-fe0c9aeca07e","system_id":"levelo_inurba_marseille","lat":43.33113,"lon":5.3822,"is_reserved":false,"is_disabled":false,"rental_uris":{"android":"levelo://app?vid=26ee007d-c521-4271-a726-fe0c9aeca07e","ios":"levelo://app?vid=26ee007d-c521-4271-a726-fe0c9aeca07e"},"vehicle_type_id":"4","last_reported":1730999286,"current_range_meters":8000,"station_id":"","pricing_plan_id":"cebpf4jnsgd1na2vs0mg"},{"bike_id":"f2dffc67-356e-4a74-8069-85edbcb6981d","system_id":"levelo_inurba_marseille","lat":43.24803,"lon":5.37458,"is_reserved":false,"is_disabled":false,"rental_uris":{"android":"levelo://app?vid=f2dffc67-356e-4a74-8069-85edbcb6981d","ios":"levelo://app?vid=f2dffc67-356e-4a74-8069-85edbcb6981d"},"vehicle_type_id":"4","last_reported":1730999286,"current_range_meters":8000,"station_id":"ce4bhgh2rcd13ifvqfb0","pricing_plan_id":"cebpf4jnsgd1na2vs0mg"},{"bike_id":"57a8f577-0796-4b9b-a40b-643e069b336e","system_id":"levelo_inurba_marseille","lat":43.26805,"lon":5.40273,"is_reserved":false,"is_disabled":false,"rental_uris":{"android":"levelo://app?vid=57a8f577-0796-4b9b-a40b-643e069b336e","ios":"levelo://app?vid=57a8f577-0796-4b9b-a40b-643e069b336e"},"vehicle_type_id":"4","last_reported":1730999286,"current_range_meters":39200,"station_id":"ce501612rcd8frsf0b60","pricing_plan_id":"cebpf4jnsgd1na2vs0mg"},{"bike_id":"c1cdbd21-6a79-4fa0-af6f-5b1f247fbb4e","system_id":"levelo_inurba_marseille","lat":43.28613,"lon":5.35115,"is_reserved":false,"is_disabled":false,"rental_uris":{"android":"levelo://app?vid=c1cdbd21-6a79-4fa0-af6f-5b1f247fbb4e","ios":"levelo://app?vid=c1cdbd21-6a79-4fa0-af6f-5b1f247fbb4e"},"vehicle_type_id":"4","last_reported":1730999286,"current_range_meters":38800,"station_id":"ce4bhch2rcd13ifvqeug","pricing_plan_id":"cebpf4jnsgd1na2vs0mg"},{"bike_id":"50bf8edb-d667-40de-b581-c7faeb1d6c4b","system_id":"levelo_inurba_marseille","lat":43.28271,"lon":5.35064,"is_reserved":false,"is_disabled":false,"rental_uris":{"android":"levelo://app?vid=50bf8edb-d667-40de-b581-c7faeb1d6c4b","ios":"levelo://app?vid=50bf8edb-d667-40de-b581-c7faeb1d6c4b"},"vehicle_type_id":"4","last_reported":1730999286,"current_range_meters":35200,"station_id":"ce4bhbp2rcd13ifvqerg","pricing_plan_id":"cebpf4jnsgd1na2vs0mg"},{"bike_id":"ab8b8739-cba7-4692-897b-91f8f579cca2","system_id":"levelo_inurba_marseille","lat":43.28938,"lon":5.36389,"is_reserved":false,"is_disabled":false,"rental_uris":{"android":"levelo://app?vid=ab8b8739-cba7-4692-897b-91f8f579cca2","ios":"levelo://app?vid=ab8b8739-cba7-4692-897b-91f8f579cca2"},"vehicle_type_id":"4","last_reported":1730999286,"current_range_meters":12000,"station_id":"ce4bhc92rcd13ifvqetg","pricing_plan_id":"cebpf4jnsgd1na2vs0mg"},{"bike_id":"dfcf3015-64e1-4c73-9065-23a58d1a316f","system_id":"levelo_inurba_marseille","lat":43.337444,"lon":5.374475,"is_reserved":false,"is_disabled":false,"rental_uris":{"android":"levelo://app?vid=dfcf3015-64e1-4c73-9065-23a58d1a316f","ios":"levelo://app?vid=dfcf3015-64e1-4c73-9065-23a58d1a316f"},"vehicle_type_id":"4","last_reported":1730999286,"current_range_meters":34000,"station_id":"","pricing_plan_id":"cebpf4jnsgd1na2vs0mg"},{"bike_id":"1a4da3d4-5f38-4038-87f3-4fe4d4322da2","system_id":"levelo_inurba_marseille","lat":43.28269,"lon":5.35077,"is_reserved":false,"is_disabled":false,"rental_uris":{"android":"levelo://app?vid=1a4da3d4-5f38-4038-87f3-4fe4d4322da2","ios":"levelo://app?vid=1a4da3d4-5f38-4038-87f3-4fe4d4322da2"},"vehicle_type_id":"4","last_reported":1730999286,"current_range_meters":8800,"station_id":"ce4bhbp2rcd13ifvqerg","pricing_plan_id":"cebpf4jnsgd1na2vs0mg"},{"bike_id":"d3c0e141-860f-4ef5-ab72-cffd56f6136c","system_id":"levelo_inurba_marseille","lat":43.29548,"lon":5.39402,"is_reserved":false,"is_disabled":false,"rental_uris":{"android":"levelo://app?vid=d3c0e141-860f-4ef5-ab72-cffd56f6136c","ios":"levelo://app?vid=d3c0e141-860f-4ef5-ab72-cffd56f6136c"},"vehicle_type_id":"4","last_reported":1730999286,"current_range_meters":8400,"station_id":"ce4bh292rcd13ifvqdf0","pricing_plan_id":"cebpf4jnsgd1na2vs0mg"},{"bike_id":"0562544a-b79d-473e-a168-4b06e39e4c5b","system_id":"levelo_inurba_marseille","lat":43.32476,"lon":5.36574,"is_reserved":false,"is_disabled":false,"rental_uris":{"android":"levelo://app?vid=0562544a-b79d-473e-a168-4b06e39e4c5b","ios":"levelo://app?vid=0562544a-b79d-473e-a168-4b06e39e4c5b"},"vehicle_type_id":"4","last_reported":1730999286,"current_range_meters":30400,"station_id":"ce4bhs12rcd13ifvqhvg","pricing_plan_id":"cebpf4jnsgd1na2vs0mg"},{"bike_id":"595b5542-527c-401a-aa84-a350467429ed","system_id":"levelo_inurba_marseille","lat":43.28726,"lon":5.36084,"is_reserved":false,"is_disabled":false,"rental_uris":{"android":"levelo://app?vid=595b5542-527c-401a-aa84-a350467429ed","ios":"levelo://app?vid=595b5542-527c-401a-aa84-a350467429ed"},"vehicle_type_id":"4","last_reported":1730999286,"current_range_meters":37600,"station_id":"cki0cbj6b192h4jlfktg","pricing_plan_id":"cebpf4jnsgd1na2vs0mg"},{"bike_id":"e9c8a630-2d73-4117-9bf7-aca5570a0743","system_id":"levelo_inurba_marseille","lat":43.23197,"lon":5.39997,"is_reserved":false,"is_disabled":false,"rental_uris":{"android":"levelo://app?vid=e9c8a630-2d73-4117-9bf7-aca5570a0743","ios":"levelo://app?vid=e9c8a630-2d73-4117-9bf7-aca5570a0743"},"vehicle_type_id":"4","last_reported":1730999286,"current_range_meters":38800,"station_id":"ce4bhn12rcd13ifvqgqg","pricing_plan_id":"cebpf4jnsgd1na2vs0mg"},{"bike_id":"f0c25ae0-cfdc-4136-9f06-999992d1cbf0","system_id":"levelo_inurba_marseille","lat":43.25721,"lon":5.41125,"is_reserved":false,"is_disabled":false,"rental_uris":{"android":"levelo://app?vid=f0c25ae0-cfdc-4136-9f06-999992d1cbf0","ios":"levelo://app?vid=f0c25ae0-cfdc-4136-9f06-999992d1cbf0"},"vehicle_type_id":"4","last_reported":1730999286,"current_range_meters":12800,"station_id":"ce4bhkp2rcd13ifvqgd0","pricing_plan_id":"cebpf4jnsgd1na2vs0mg"},{"bike_id":"12998df6-67e0-4c79-9bb8-7f71b5c7bd9d","system_id":"levelo_inurba_marseille","lat":43.29035,"lon":5.38653,"is_reserved":false,"is_disabled":false,"rental_uris":{"android":"levelo://app?vid=12998df6-67e0-4c79-9bb8-7f71b5c7bd9d","ios":"levelo://app?vid=12998df6-67e0-4c79-9bb8-7f71b5c7bd9d"},"vehicle_type_id":"4","last_reported":1730999286,"current_range_meters":4000,"station_id":"ce4bh4p2rcd13ifvqe0g","pricing_plan_id":"cebpf4jnsgd1na2vs0mg"},{"bike_id":"5082748c-4f62-4b73-849f-d9d3bcc8091b","system_id":"levelo_inurba_marseille","lat":43.2621,"lon":5.37443,"is_reserved":false,"is_disabled":false,"rental_uris":{"android":"levelo://app?vid=5082748c-4f62-4b73-849f-d9d3bcc8091b","ios":"levelo://app?vid=5082748c-4f62-4b73-849f-d9d3bcc8091b"},"vehicle_type_id":"4","last_reported":1730999286,"current_range_meters":22400,"station_id":"ce4bhgp2rcd13ifvqfc0","pricing_plan_id":"cebpf4jnsgd1na2vs0mg"},{"bike_id":"26e2be75-9cad-44b2-a62b-1e0c8edbf9d4","system_id":"levelo_inurba_marseille","lat":43.27181,"lon":5.40996,"is_reserved":false,"is_disabled":false,"rental_uris":{"android":"levelo://app?vid=26e2be75-9cad-44b2-a62b-1e0c8edbf9d4","ios":"levelo://app?vid=26e2be75-9cad-44b2-a62b-1e0c8edbf9d4"},"vehicle_type_id":"4","last_reported":1730999286,"current_range_meters":38800,"station_id":"ce4bhl12rcd13ifvqgf0","pricing_plan_id":"cebpf4jnsgd1na2vs0mg"},{"bike_id":"3432efb2-a10d-427c-a287-16ab67192755","system_id":"levelo_inurba_marseille","lat":43.32679,"lon":5.42602,"is_reserved":false,"is_disabled":false,"rental_uris":{"android":"levelo://app?vid=3432efb2-a10d-427c-a287-16ab67192755","ios":"levelo://app?vid=3432efb2-a10d-427c-a287-16ab67192755"},"vehicle_type_id":"4","last_reported":1730999286,"current_range_meters":18800,"station_id":"","pricing_plan_id":"cebpf4jnsgd1na2vs0mg"},{"bike_id":"9df1fc7b-0939-4918-9ac9-41001cfeb1b2","system_id":"levelo_inurba_marseille","lat":43.27927,"lon":5.39585,"is_reserved":false,"is_disabled":false,"rental_uris":{"android":"levelo://app?vid=9df1fc7b-0939-4918-9ac9-41001cfeb1b2","ios":"levelo://app?vid=9df1fc7b-0939-4918-9ac9-41001cfeb1b2"},"vehicle_type_id":"4","last_reported":1730999286,"current_range_meters":27600,"station_id":"ce4bhf92rcd13ifvqf40","pricing_plan_id":"cebpf4jnsgd1na2vs0mg"},{"bike_id":"0e65a751-1254-4d73-ba68-a3930f19cf5e","system_id":"levelo_inurba_marseille","lat":43.33026,"lon":5.39043,"is_reserved":false,"is_disabled":false,"rental_uris":{"android":"levelo://app?vid=0e65a751-1254-4d73-ba68-a3930f19cf5e","ios":"levelo://app?vid=0e65a751-1254-4d73-ba68-a3930f19cf5e"},"vehicle_type_id":"4","last_reported":1730999286,"current_range_meters":39200,"station_id":"ce4bhr92rcd13ifvqhrg","pricing_plan_id":"cebpf4jnsgd1na2vs0mg"},{"bike_id":"cb3bbfe8-eb15-4cf2-b9b1-50cc4da0eb6a","system_id":"levelo_inurba_marseille","lat":43.26807,"lon":5.40261,"is_reserved":false,"is_disabled":false,"rental_uris":{"android":"levelo://app?vid=cb3bbfe8-eb15-4cf2-b9b1-50cc4da0eb6a","ios":"levelo://app?vid=cb3bbfe8-eb15-4cf2-b9b1-50cc4da0eb6a"},"vehicle_type_id":"4","last_reported":1730999286,"current_range_meters":10000,"station_id":"ce501612rcd8frsf0b60","pricing_plan_id":"cebpf4jnsgd1na2vs0mg"},{"bike_id":"b94fc4bd-2b0b-48b2-ae35-e1cd5f4c4ffc","system_id":"levelo_inurba_marseille","lat":43.30885,"lon":5.39659,"is_reserved":false,"is_disabled":false,"rental_uris":{"android":"levelo://app?vid=b94fc4bd-2b0b-48b2-ae35-e1cd5f4c4ffc","ios":"levelo://app?vid=b94fc4bd-2b0b-48b2-ae35-e1cd5f4c4ffc"},"vehicle_type_id":"4","last_reported":1730999286,"current_range_meters":38800,"station_id":"ce4bh012rcd13ifvqcv0","pricing_plan_id":"cebpf4jnsgd1na2vs0mg"},{"bike_id":"74ca9176-b8dc-4f40-bcb4-f3cbf0e532fd","system_id":"levelo_inurba_marseille","lat":43.31169,"lon":5.38716,"is_reserved":false,"is_disabled":false,"rental_uris":{"android":"levelo://app?vid=74ca9176-b8dc-4f40-bcb4-f3cbf0e532fd","ios":"levelo://app?vid=74ca9176-b8dc-4f40-bcb4-f3cbf0e532fd"},"vehicle_type_id":"4","last_reported":1730999286,"current_range_meters":32000,"station_id":"","pricing_plan_id":"cebpf4jnsgd1na2vs0mg"},{"bike_id":"cf8c3f6f-e75b-4403-bf73-083fa0aec14e","system_id":"levelo_inurba_marseille","lat":43.26942,"lon":5.40253,"is_reserved":false,"is_disabled":false,"rental_uris":{"android":"levelo://app?vid=cf8c3f6f-e75b-4403-bf73-083fa0aec14e","ios":"levelo://app?vid=cf8c3f6f-e75b-4403-bf73-083fa0aec14e"},"vehicle_type_id":"4","last_reported":1730999286,"current_range_meters":8400,"station_id":"cjm6bp8fraef2m0cb0m0","pricing_plan_id":"cebpf4jnsgd1na2vs0mg"},{"bike_id":"2601a4a5-f7a6-43c0-9d1f-9261f8a0f7a5","system_id":"levelo_inurba_marseille","lat":43.27911,"lon":5.3957,"is_reserved":false,"is_disabled":false,"rental_uris":{"android":"levelo://app?vid=2601a4a5-f7a6-43c0-9d1f-9261f8a0f7a5","ios":"levelo://app?vid=2601a4a5-f7a6-43c0-9d1f-9261f8a0f7a5"},"vehicle_type_id":"4","last_reported":1730999286,"current_range_meters":10000,"station_id":"ce4bhf92rcd13ifvqf40","pricing_plan_id":"cebpf4jnsgd1na2vs0mg"},{"bike_id":"9bd7731a-1942-454c-a7ed-240a874ca40e","system_id":"levelo_inurba_marseille","lat":43.3081,"lon":5.43523,"is_reserved":false,"is_disabled":false,"rental_uris":{"android":"levelo://app?vid=9bd7731a-1942-454c-a7ed-240a874ca40e","ios":"levelo://app?vid=9bd7731a-1942-454c-a7ed-240a874ca40e"},"vehicle_type_id":"4","last_reported":1730999286,"current_range_meters":6400,"station_id":"ce4bhph2rcd13ifvqheg","pricing_plan_id":"cebpf4jnsgd1na2vs0mg"},{"bike_id":"31c780e0-87de-4878-b279-05ae02ba59b1","system_id":"levelo_inurba_marseille","lat":43.28726,"lon":5.36091,"is_reserved":false,"is_disabled":false,"rental_uris":{"android":"levelo://app?vid=31c780e0-87de-4878-b279-05ae02ba59b1","ios":"levelo://app?vid=31c780e0-87de-4878-b279-05ae02ba59b1"},"vehicle_type_id":"4","last_reported":1730999286,"current_range_meters":10800,"station_id":"cki0cbj6b192h4jlfktg","pricing_plan_id":"cebpf4jnsgd1na2vs0mg"},{"bike_id":"d3e54780-ddfb-432e-bfd3-55d19e8c43c8","system_id":"levelo_inurba_marseille","lat":43.31746,"lon":5.39022,"is_reserved":false,"is_disabled":false,"rental_uris":{"android":"levelo://app?vid=d3e54780-ddfb-432e-bfd3-55d19e8c43c8","ios":"levelo://app?vid=d3e54780-ddfb-432e-bfd3-55d19e8c43c8"},"vehicle_type_id":"4","last_reported":1730999286,"current_range_meters":30400,"station_id":"ce4bhqp2rcd13ifvqhng","pricing_plan_id":"cebpf4jnsgd1na2vs0mg"},{"bike_id":"5cb6ab74-a67a-4877-a34c-380a80faed1e","system_id":"levelo_inurba_marseille","lat":43.29878,"lon":5.39737,"is_reserved":false,"is_disabled":false,"rental_uris":{"android":"levelo://app?vid=5cb6ab74-a67a-4877-a34c-380a80faed1e","ios":"levelo://app?vid=5cb6ab74-a67a-4877-a34c-380a80faed1e"},"vehicle_type_id":"4","last_reported":1730999286,"current_range_meters":24000,"station_id":"ce4bh0h2rcd13ifvqd50","pricing_plan_id":"cebpf4jnsgd1na2vs0mg"},{"bike_id":"f48ced8d-222f-42c7-a912-0f18b0eecc42","system_id":"levelo_inurba_marseille","lat":43.32112,"lon":5.3677,"is_reserved":false,"is_disabled":false,"rental_uris":{"android":"levelo://app?vid=f48ced8d-222f-42c7-a912-0f18b0eecc42","ios":"levelo://app?vid=f48ced8d-222f-42c7-a912-0f18b0eecc42"},"vehicle_type_id":"4","last_reported":1730999286,"current_range_meters":20800,"station_id":"ce4bhrh2rcd13ifvqhug","pricing_plan_id":"cebpf4jnsgd1na2vs0mg"},{"bike_id":"05708d2e-f8f0-42da-adac-8f1dea52b70b","system_id":"levelo_inurba_marseille","lat":43.27995,"lon":5.41667,"is_reserved":false,"is_disabled":false,"rental_uris":{"android":"levelo://app?vid=05708d2e-f8f0-42da-adac-8f1dea52b70b","ios":"levelo://app?vid=05708d2e-f8f0-42da-adac-8f1dea52b70b"},"vehicle_type_id":"4","last_reported":1730999286,"current_range_meters":26000,"station_id":"ce4bho12rcd13ifvqh1g","pricing_plan_id":"cebpf4jnsgd1na2vs0mg"},{"bike_id":"82b97aae-830e-4430-ae99-7cef8ad2c993","system_id":"levelo_inurba_marseille","lat":43.337444,"lon":5.374475,"is_reserved":false,"is_disabled":false,"rental_uris":{"android":"levelo://app?vid=82b97aae-830e-4430-ae99-7cef8ad2c993","ios":"levelo://app?vid=82b97aae-830e-4430-ae99-7cef8ad2c993"},"vehicle_type_id":"4","last_reported":1730999286,"current_range_meters":36000,"station_id":"","pricing_plan_id":"cebpf4jnsgd1na2vs0mg"},{"bike_id":"854468fb-a54f-483a-aea9-7449ced74a9b","system_id":"levelo_inurba_marseille","lat":43.29034,"lon":5.36928,"is_reserved":false,"is_disabled":false,"rental_uris":{"android":"levelo://app?vid=854468fb-a54f-483a-aea9-7449ced74a9b","ios":"levelo://app?vid=854468fb-a54f-483a-aea9-7449ced74a9b"},"vehicle_type_id":"4","last_reported":1730999286,"current_range_meters":32000,"station_id":"ce4bhap2rcd13ifvqek0","pricing_plan_id":"cebpf4jnsgd1na2vs0mg"},{"bike_id":"053ce263-140d-4c76-9854-5770e523a4eb","system_id":"levelo_inurba_marseille","lat":43.295319,"lon":5.390395,"is_reserved":false,"is_disabled":false,"rental_uris":{"android":"levelo://app?vid=053ce263-140d-4c76-9854-5770e523a4eb","ios":"levelo://app?vid=053ce263-140d-4c76-9854-5770e523a4eb"},"vehicle_type_id":"4","last_reported":1730999286,"current_range_meters":3200,"station_id":"ce4bh3p2rcd13ifvqdp0","pricing_plan_id":"cebpf4jnsgd1na2vs0mg"},{"bike_id":"e11f2957-c866-431f-b50b-d0178644b09f","system_id":"levelo_inurba_marseille","lat":43.23183,"lon":5.39991,"is_reserved":false,"is_disabled":false,"rental_uris":{"android":"levelo://app?vid=e11f2957-c866-431f-b50b-d0178644b09f","ios":"levelo://app?vid=e11f2957-c866-431f-b50b-d0178644b09f"},"vehicle_type_id":"4","last_reported":1730999286,"current_range_meters":39200,"station_id":"ce4bhn12rcd13ifvqgqg","pricing_plan_id":"cebpf4jnsgd1na2vs0mg"},{"bike_id":"27a231c2-1969-43f3-b006-75d000f53d0b","system_id":"levelo_inurba_marseille","lat":43.31361,"lon":5.38494,"is_reserved":false,"is_disabled":false,"rental_uris":{"android":"levelo://app?vid=27a231c2-1969-43f3-b006-75d000f53d0b","ios":"levelo://app?vid=27a231c2-1969-43f3-b006-75d000f53d0b"},"vehicle_type_id":"4","last_reported":1730999286,"current_range_meters":16800,"station_id":"ce4bgt92rcd13ifvqcf0","pricing_plan_id":"cebpf4jnsgd1na2vs0mg"},{"bike_id":"8befa393-3872-493a-9a5d-6005d6827670","system_id":"levelo_inurba_marseille","lat":43.33722,"lon":5.39188,"is_reserved":false,"is_disabled":false,"rental_uris":{"android":"levelo://app?vid=8befa393-3872-493a-9a5d-6005d6827670","ios":"levelo://app?vid=8befa393-3872-493a-9a5d-6005d6827670"},"vehicle_type_id":"4","last_reported":1730999286,"current_range_meters":39200,"station_id":"ce4bhr92rcd13ifvqhsg","pricing_plan_id":"cebpf4jnsgd1na2vs0mg"},{"bike_id":"f2f3b8ba-8cb3-4443-8094-426793eaa6b8","system_id":"levelo_inurba_marseille","lat":43.2572,"lon":5.41111,"is_reserved":false,"is_disabled":false,"rental_uris":{"android":"levelo://app?vid=f2f3b8ba-8cb3-4443-8094-426793eaa6b8","ios":"levelo://app?vid=f2f3b8ba-8cb3-4443-8094-426793eaa6b8"},"vehicle_type_id":"4","last_reported":1730999286,"current_range_meters":30800,"station_id":"ce4bhkp2rcd13ifvqgd0","pricing_plan_id":"cebpf4jnsgd1na2vs0mg"},{"bike_id":"4a06e2e7-6504-45e0-86df-4eadb328491c","system_id":"levelo_inurba_marseille","lat":43.27996,"lon":5.4166,"is_reserved":false,"is_disabled":false,"rental_uris":{"android":"levelo://app?vid=4a06e2e7-6504-45e0-86df-4eadb328491c","ios":"levelo://app?vid=4a06e2e7-6504-45e0-86df-4eadb328491c"},"vehicle_type_id":"4","last_reported":1730999286,"current_range_meters":16800,"station_id":"ce4bho12rcd13ifvqh1g","pricing_plan_id":"cebpf4jnsgd1na2vs0mg"},{"bike_id":"6e9d71ae-01d0-46de-8911-552e7f43644b","system_id":"levelo_inurba_marseille","lat":43.2979,"lon":5.40403,"is_reserved":false,"is_disabled":false,"rental_uris":{"android":"levelo://app?vid=6e9d71ae-01d0-46de-8911-552e7f43644b","ios":"levelo://app?vid=6e9d71ae-01d0-46de-8911-552e7f43644b"},"vehicle_type_id":"4","last_reported":1730999286,"current_range_meters":27200,"station_id":"ce4bh112rcd13ifvqd90","pricing_plan_id":"cebpf4jnsgd1na2vs0mg"},{"bike_id":"0c2c4ff6-876e-4880-ac62-c9eab7b03881","system_id":"levelo_inurba_marseille","lat":43.2848,"lon":5.38413,"is_reserved":false,"is_disabled":false,"rental_uris":{"android":"levelo://app?vid=0c2c4ff6-876e-4880-ac62-c9eab7b03881","ios":"levelo://app?vid=0c2c4ff6-876e-4880-ac62-c9eab7b03881"},"vehicle_type_id":"4","last_reported":1730999286,"current_range_meters":3600,"station_id":"ce4bh512rcd13ifvqe3g","pricing_plan_id":"cebpf4jnsgd1na2vs0mg"},{"bike_id":"b7e40318-dfbd-49e5-ac96-e42aa22ecf6c","system_id":"levelo_inurba_marseille","lat":43.31705,"lon":5.37746,"is_reserved":false,"is_disabled":false,"rental_uris":{"android":"levelo://app?vid=b7e40318-dfbd-49e5-ac96-e42aa22ecf6c","ios":"levelo://app?vid=b7e40318-dfbd-49e5-ac96-e42aa22ecf6c"},"vehicle_type_id":"4","last_reported":1730999286,"current_range_meters":6800,"station_id":"ce4bgth2rcd13ifvqch0","pricing_plan_id":"cebpf4jnsgd1na2vs0mg"},{"bike_id":"f2c98f04-ea49-496d-a0e4-9927339047a2","system_id":"levelo_inurba_marseille","lat":43.29622,"lon":5.37167,"is_reserved":false,"is_disabled":false,"rental_uris":{"android":"levelo://app?vid=f2c98f04-ea49-496d-a0e4-9927339047a2","ios":"levelo://app?vid=f2c98f04-ea49-496d-a0e4-9927339047a2"},"vehicle_type_id":"4","last_reported":1730999286,"current_range_meters":36400,"station_id":"ce4bgnh2rcd13ifvqc0g","pricing_plan_id":"cebpf4jnsgd1na2vs0mg"},{"bike_id":"dffec2a8-c439-421a-b78b-4882a98cf51d","system_id":"levelo_inurba_marseille","lat":43.25863,"lon":5.39902,"is_reserved":false,"is_disabled":false,"rental_uris":{"android":"levelo://app?vid=dffec2a8-c439-421a-b78b-4882a98cf51d","ios":"levelo://app?vid=dffec2a8-c439-421a-b78b-4882a98cf51d"},"vehicle_type_id":"4","last_reported":1730999286,"current_range_meters":25600,"station_id":"ce4bhl92rcd13ifvqghg","pricing_plan_id":"cebpf4jnsgd1na2vs0mg"},{"bike_id":"ed8f904f-c137-4a01-bc5f-c55444095af6","system_id":"levelo_inurba_marseille","lat":43.291,"lon":5.38128,"is_reserved":false,"is_disabled":false,"rental_uris":{"android":"levelo://app?vid=ed8f904f-c137-4a01-bc5f-c55444095af6","ios":"levelo://app?vid=ed8f904f-c137-4a01-bc5f-c55444095af6"},"vehicle_type_id":"4","last_reported":1730999286,"current_range_meters":6000,"station_id":"ce4bh512rcd13ifvqe2g","pricing_plan_id":"cebpf4jnsgd1na2vs0mg"},{"bike_id":"ff90f044-b67a-4b64-a278-2703b27d5b23","system_id":"levelo_inurba_marseille","lat":43.28541,"lon":5.37782,"is_reserved":false,"is_disabled":false,"rental_uris":{"android":"levelo://app?vid=ff90f044-b67a-4b64-a278-2703b27d5b23","ios":"levelo://app?vid=ff90f044-b67a-4b64-a278-2703b27d5b23"},"vehicle_type_id":"4","last_reported":1730999286,"current_range_meters":25200,"station_id":"","pricing_plan_id":"cebpf4jnsgd1na2vs0mg"},{"bike_id":"74dd3738-b60c-49b6-b994-9984e2e24fd3","system_id":"levelo_inurba_marseille","lat":43.29016,"lon":5.38129,"is_reserved":false,"is_disabled":false,"rental_uris":{"android":"levelo://app?vid=74dd3738-b60c-49b6-b994-9984e2e24fd3","ios":"levelo://app?vid=74dd3738-b60c-49b6-b994-9984e2e24fd3"},"vehicle_type_id":"4","last_reported":1730999286,"current_range_meters":38800,"station_id":"ce4bh4p2rcd13ifvqe1g","pricing_plan_id":"cebpf4jnsgd1na2vs0mg"},{"bike_id":"cc03c46b-7cd1-49d3-8d25-c4184c21e0e7","system_id":"levelo_inurba_marseille","lat":43.30621,"lon":5.37229,"is_reserved":false,"is_disabled":false,"rental_uris":{"android":"levelo://app?vid=cc03c46b-7cd1-49d3-8d25-c4184c21e0e7","ios":"levelo://app?vid=cc03c46b-7cd1-49d3-8d25-c4184c21e0e7"},"vehicle_type_id":"4","last_reported":1730999286,"current_range_meters":30800,"station_id":"ce4bh512rcd13ifvqe2g","pricing_plan_id":"cebpf4jnsgd1na2vs0mg"},{"bike_id":"11063700-6e58-46bd-9c68-4557d8eae7ab","system_id":"levelo_inurba_marseille","lat":43.2465,"lon":5.38894,"is_reserved":false,"is_disabled":false,"rental_uris":{"android":"levelo://app?vid=11063700-6e58-46bd-9c68-4557d8eae7ab","ios":"levelo://app?vid=11063700-6e58-46bd-9c68-4557d8eae7ab"},"vehicle_type_id":"4","last_reported":1730999286,"current_range_meters":36800,"station_id":"ce4bhg12rcd13ifvqf60","pricing_plan_id":"cebpf4jnsgd1na2vs0mg"},{"bike_id":"9be629be-268c-4ab3-ab80-a338e0af9206","system_id":"levelo_inurba_marseille","lat":43.28985,"lon":5.37833,"is_reserved":false,"is_disabled":false,"rental_uris":{"android":"levelo://app?vid=9be629be-268c-4ab3-ab80-a338e0af9206","ios":"levelo://app?vid=9be629be-268c-4ab3-ab80-a338e0af9206"},"vehicle_type_id":"4","last_reported":1730999286,"current_range_meters":1200,"station_id":"ce4bh9p2rcd13ifvqed0","pricing_plan_id":"cebpf4jnsgd1na2vs0mg"},{"bike_id":"1febfa9d-66f8-4f60-9e20-5c7bdefe7764","system_id":"levelo_inurba_marseille","lat":43.26955,"lon":5.38993,"is_reserved":false,"is_disabled":false,"rental_uris":{"android":"levelo://app?vid=1febfa9d-66f8-4f60-9e20-5c7bdefe7764","ios":"levelo://app?vid=1febfa9d-66f8-4f60-9e20-5c7bdefe7764"},"vehicle_type_id":"4","last_reported":1730999286,"current_range_meters":27600,"station_id":"","pricing_plan_id":"cebpf4jnsgd1na2vs0mg"},{"bike_id":"a7620733-2730-4983-898f-a0fe4211b0b4","system_id":"levelo_inurba_marseille","lat":43.29358,"lon":5.37851,"is_reserved":false,"is_disabled":false,"rental_uris":{"android":"levelo://app?vid=a7620733-2730-4983-898f-a0fe4211b0b4","ios":"levelo://app?vid=a7620733-2730-4983-898f-a0fe4211b0b4"},"vehicle_type_id":"4","last_reported":1730999286,"current_range_meters":27200,"station_id":"ce4bgjh2rcd13ifvqbf0","pricing_plan_id":"cebpf4jnsgd1na2vs0mg"},{"bike_id":"91170140-253b-49f8-8b8a-22b2f55dc1c9","system_id":"levelo_inurba_marseille","lat":43.2795,"lon":5.41053,"is_reserved":false,"is_disabled":false,"rental_uris":{"android":"levelo://app?vid=91170140-253b-49f8-8b8a-22b2f55dc1c9","ios":"levelo://app?vid=91170140-253b-49f8-8b8a-22b2f55dc1c9"},"vehicle_type_id":"4","last_reported":1730999286,"current_range_meters":3200,"station_id":"ce4bhnp2rcd13ifvqh0g","pricing_plan_id":"cebpf4jnsgd1na2vs0mg"},{"bike_id":"5b3b4202-5abc-4b67-9cd0-f08d9124df40","system_id":"levelo_inurba_marseille","lat":43.337444,"lon":5.374475,"is_reserved":false,"is_disabled":false,"rental_uris":{"android":"levelo://app?vid=5b3b4202-5abc-4b67-9cd0-f08d9124df40","ios":"levelo://app?vid=5b3b4202-5abc-4b67-9cd0-f08d9124df40"},"vehicle_type_id":"4","last_reported":1730999286,"current_range_meters":38000,"station_id":"","pricing_plan_id":"cebpf4jnsgd1na2vs0mg"},{"bike_id":"54b7f1f6-7341-4bb2-bbd6-8766f023bcaf","system_id":"levelo_inurba_marseille","lat":43.30322,"lon":5.40444,"is_reserved":false,"is_disabled":false,"rental_uris":{"android":"levelo://app?vid=54b7f1f6-7341-4bb2-bbd6-8766f023bcaf","ios":"levelo://app?vid=54b7f1f6-7341-4bb2-bbd6-8766f023bcaf"},"vehicle_type_id":"4","last_reported":1730999286,"current_range_meters":20000,"station_id":"ce4bh012rcd13ifvqd10","pricing_plan_id":"cebpf4jnsgd1na2vs0mg"},{"bike_id":"53c2d71b-a41e-4e06-bcc8-cc5ff84cece4","system_id":"levelo_inurba_marseille","lat":43.33025,"lon":5.39045,"is_reserved":false,"is_disabled":false,"rental_uris":{"android":"levelo://app?vid=53c2d71b-a41e-4e06-bcc8-cc5ff84cece4","ios":"levelo://app?vid=53c2d71b-a41e-4e06-bcc8-cc5ff84cece4"},"vehicle_type_id":"4","last_reported":1730999286,"current_range_meters":29600,"station_id":"ce4bhr92rcd13ifvqhrg","pricing_plan_id":"cebpf4jnsgd1na2vs0mg"},{"bike_id":"9bc3a65a-0f85-4319-b49a-07bc196767b6","system_id":"levelo_inurba_marseille","lat":43.28588,"lon":5.39494,"is_reserved":false,"is_disabled":false,"rental_uris":{"android":"levelo://app?vid=9bc3a65a-0f85-4319-b49a-07bc196767b6","ios":"levelo://app?vid=9bc3a65a-0f85-4319-b49a-07bc196767b6"},"vehicle_type_id":"4","last_reported":1730999286,"current_range_meters":28400,"station_id":"ce4bh292rcd13ifvqdg0","pricing_plan_id":"cebpf4jnsgd1na2vs0mg"},{"bike_id":"ed7e367d-c5af-41cd-95a8-a414ea0e86a6","system_id":"levelo_inurba_marseille","lat":43.27382,"lon":5.36255,"is_reserved":false,"is_disabled":false,"rental_uris":{"android":"levelo://app?vid=ed7e367d-c5af-41cd-95a8-a414ea0e86a6","ios":"levelo://app?vid=ed7e367d-c5af-41cd-95a8-a414ea0e86a6"},"vehicle_type_id":"4","last_reported":1730999286,"current_range_meters":33600,"station_id":"ce4bhbh2rcd13ifvqeo0","pricing_plan_id":"cebpf4jnsgd1na2vs0mg"},{"bike_id":"68a603d9-96dd-41e0-9d2d-ac79cc2bc439","system_id":"levelo_inurba_marseille","lat":43.30201,"lon":5.36624,"is_reserved":false,"is_disabled":false,"rental_uris":{"android":"levelo://app?vid=68a603d9-96dd-41e0-9d2d-ac79cc2bc439","ios":"levelo://app?vid=68a603d9-96dd-41e0-9d2d-ac79cc2bc439"},"vehicle_type_id":"4","last_reported":1730999286,"current_range_meters":37600,"station_id":"ce4bgrh2rcd13ifvqc8g","pricing_plan_id":"cebpf4jnsgd1na2vs0mg"},{"bike_id":"c598bba8-f360-4ccc-9806-6cc9665deb5d","system_id":"levelo_inurba_marseille","lat":43.29899,"lon":5.43666,"is_reserved":false,"is_disabled":false,"rental_uris":{"android":"levelo://app?vid=c598bba8-f360-4ccc-9806-6cc9665deb5d","ios":"levelo://app?vid=c598bba8-f360-4ccc-9806-6cc9665deb5d"},"vehicle_type_id":"4","last_reported":1730999286,"current_range_meters":19600,"station_id":"ce4bhpp2rcd13ifvqhfg","pricing_plan_id":"cebpf4jnsgd1na2vs0mg"},{"bike_id":"47c488a2-76cc-486a-84e1-1bcb45dfb04b","system_id":"levelo_inurba_marseille","lat":43.31996,"lon":5.3816,"is_reserved":false,"is_disabled":false,"rental_uris":{"android":"levelo://app?vid=47c488a2-76cc-486a-84e1-1bcb45dfb04b","ios":"levelo://app?vid=47c488a2-76cc-486a-84e1-1bcb45dfb04b"},"vehicle_type_id":"4","last_reported":1730999286,"current_range_meters":37600,"station_id":"ce4bhr12rcd13ifvqhpg","pricing_plan_id":"cebpf4jnsgd1na2vs0mg"},{"bike_id":"9f4a1336-50f2-4c60-9fc9-5ed56515e270","system_id":"levelo_inurba_marseille","lat":43.32368,"lon":5.38892,"is_reserved":false,"is_disabled":false,"rental_uris":{"android":"levelo://app?vid=9f4a1336-50f2-4c60-9fc9-5ed56515e270","ios":"levelo://app?vid=9f4a1336-50f2-4c60-9fc9-5ed56515e270"},"vehicle_type_id":"4","last_reported":1730999286,"current_range_meters":38800,"station_id":"ce4bhqp2rcd13ifvqhog","pricing_plan_id":"cebpf4jnsgd1na2vs0mg"},{"bike_id":"734184d3-a829-4f05-83bd-97da22a1de47","system_id":"levelo_inurba_marseille","lat":43.25579,"lon":5.38226,"is_reserved":false,"is_disabled":false,"rental_uris":{"android":"levelo://app?vid=734184d3-a829-4f05-83bd-97da22a1de47","ios":"levelo://app?vid=734184d3-a829-4f05-83bd-97da22a1de47"},"vehicle_type_id":"4","last_reported":1730999286,"current_range_meters":35600,"station_id":"ce4bhih2rcd13ifvqfs0","pricing_plan_id":"cebpf4jnsgd1na2vs0mg"},{"bike_id":"ddfe9d4a-f2f1-400a-81c1-f46ffa46e784","system_id":"levelo_inurba_marseille","lat":43.31492,"lon":5.37303,"is_reserved":false,"is_disabled":false,"rental_uris":{"android":"levelo://app?vid=ddfe9d4a-f2f1-400a-81c1-f46ffa46e784","ios":"levelo://app?vid=ddfe9d4a-f2f1-400a-81c1-f46ffa46e784"},"vehicle_type_id":"4","last_reported":1730999286,"current_range_meters":6400,"station_id":"ce4bgt12rcd13ifvqcd0","pricing_plan_id":"cebpf4jnsgd1na2vs0mg"},{"bike_id":"b8872bd1-2499-4711-a609-12c4c71b687b","system_id":"levelo_inurba_marseille","lat":43.30552,"lon":5.36545,"is_reserved":false,"is_disabled":false,"rental_uris":{"android":"levelo://app?vid=b8872bd1-2499-4711-a609-12c4c71b687b","ios":"levelo://app?vid=b8872bd1-2499-4711-a609-12c4c71b687b"},"vehicle_type_id":"4","last_reported":1730999286,"current_range_meters":32000,"station_id":"ce4bgs12rcd13ifvqcag","pricing_plan_id":"cebpf4jnsgd1na2vs0mg"},{"bike_id":"eac87bf3-0813-4bba-8ebc-58f2ca82b09b","system_id":"levelo_inurba_marseille","lat":43.2937,"lon":5.37841,"is_reserved":false,"is_disabled":false,"rental_uris":{"android":"levelo://app?vid=eac87bf3-0813-4bba-8ebc-58f2ca82b09b","ios":"levelo://app?vid=eac87bf3-0813-4bba-8ebc-58f2ca82b09b"},"vehicle_type_id":"4","last_reported":1730999286,"current_range_meters":21600,"station_id":"ce4bgjh2rcd13ifvqbf0","pricing_plan_id":"cebpf4jnsgd1na2vs0mg"},{"bike_id":"cd256adf-f193-4fca-b9e8-f9872f5a9634","system_id":"levelo_inurba_marseille","lat":43.28446,"lon":5.39208,"is_reserved":false,"is_disabled":false,"rental_uris":{"android":"levelo://app?vid=cd256adf-f193-4fca-b9e8-f9872f5a9634","ios":"levelo://app?vid=cd256adf-f193-4fca-b9e8-f9872f5a9634"},"vehicle_type_id":"4","last_reported":1730999286,"current_range_meters":6000,"station_id":"ce4bhoh2rcd13ifvqh5g","pricing_plan_id":"cebpf4jnsgd1na2vs0mg"},{"bike_id":"1ce98008-f598-464e-a147-3d266ecaae00","system_id":"levelo_inurba_marseille","lat":43.26217,"lon":5.37441,"is_reserved":false,"is_disabled":false,"rental_uris":{"android":"levelo://app?vid=1ce98008-f598-464e-a147-3d266ecaae00","ios":"levelo://app?vid=1ce98008-f598-464e-a147-3d266ecaae00"},"vehicle_type_id":"4","last_reported":1730999286,"current_range_meters":24000,"station_id":"ce4bhgp2rcd13ifvqfc0","pricing_plan_id":"cebpf4jnsgd1na2vs0mg"},{"bike_id":"9ec3c8e0-44c1-41be-a187-ed5c093d65b5","system_id":"levelo_inurba_marseille","lat":43.26217,"lon":5.37461,"is_reserved":false,"is_disabled":false,"rental_uris":{"android":"levelo://app?vid=9ec3c8e0-44c1-41be-a187-ed5c093d65b5","ios":"levelo://app?vid=9ec3c8e0-44c1-41be-a187-ed5c093d65b5"},"vehicle_type_id":"4","last_reported":1730999286,"current_range_meters":8800,"station_id":"ce4bhgp2rcd13ifvqfc0","pricing_plan_id":"cebpf4jnsgd1na2vs0mg"},{"bike_id":"f3144f33-4454-4329-973a-a2c323a3827e","system_id":"levelo_inurba_marseille","lat":43.27325,"lon":5.39069,"is_reserved":false,"is_disabled":false,"rental_uris":{"android":"levelo://app?vid=f3144f33-4454-4329-973a-a2c323a3827e","ios":"levelo://app?vid=f3144f33-4454-4329-973a-a2c323a3827e"},"vehicle_type_id":"4","last_reported":1730999286,"current_range_meters":16800,"station_id":"ce4bhgp2rcd13ifvqfe0","pricing_plan_id":"cebpf4jnsgd1na2vs0mg"},{"bike_id":"f17062e9-383e-43fa-8afe-0945667a58c5","system_id":"levelo_inurba_marseille","lat":43.24077,"lon":5.37765,"is_reserved":false,"is_disabled":false,"rental_uris":{"android":"levelo://app?vid=f17062e9-383e-43fa-8afe-0945667a58c5","ios":"levelo://app?vid=f17062e9-383e-43fa-8afe-0945667a58c5"},"vehicle_type_id":"4","last_reported":1730999286,"current_range_meters":4400,"station_id":"ce4bhnp2rcd13ifvqgvg","pricing_plan_id":"cebpf4jnsgd1na2vs0mg"},{"bike_id":"f160a927-4fa0-44ab-8f03-4eb0c8fef6d2","system_id":"levelo_inurba_marseille","lat":43.28724,"lon":5.36081,"is_reserved":false,"is_disabled":false,"rental_uris":{"android":"levelo://app?vid=f160a927-4fa0-44ab-8f03-4eb0c8fef6d2","ios":"levelo://app?vid=f160a927-4fa0-44ab-8f03-4eb0c8fef6d2"},"vehicle_type_id":"4","last_reported":1730999286,"current_range_meters":6000,"station_id":"cki0cbj6b192h4jlfktg","pricing_plan_id":"cebpf4jnsgd1na2vs0mg"},{"bike_id":"1b953554-595a-4065-bbb8-7db5127495c8","system_id":"levelo_inurba_marseille","lat":43.27041,"lon":5.41641,"is_reserved":false,"is_disabled":false,"rental_uris":{"android":"levelo://app?vid=1b953554-595a-4065-bbb8-7db5127495c8","ios":"levelo://app?vid=1b953554-595a-4065-bbb8-7db5127495c8"},"vehicle_type_id":"4","last_reported":1730999286,"current_range_meters":26800,"station_id":"","pricing_plan_id":"cebpf4jnsgd1na2vs0mg"},{"bike_id":"4e880b1f-0d65-4465-bdbe-761b2e9fded2","system_id":"levelo_inurba_marseille","lat":43.31363,"lon":5.39489,"is_reserved":false,"is_disabled":false,"rental_uris":{"android":"levelo://app?vid=4e880b1f-0d65-4465-bdbe-761b2e9fded2","ios":"levelo://app?vid=4e880b1f-0d65-4465-bdbe-761b2e9fded2"},"vehicle_type_id":"4","last_reported":1730999286,"current_range_meters":32000,"station_id":"","pricing_plan_id":"cebpf4jnsgd1na2vs0mg"},{"bike_id":"d24ced80-341b-4862-ae7b-07840095ea03","system_id":"levelo_inurba_marseille","lat":43.27185,"lon":5.40997,"is_reserved":false,"is_disabled":false,"rental_uris":{"android":"levelo://app?vid=d24ced80-341b-4862-ae7b-07840095ea03","ios":"levelo://app?vid=d24ced80-341b-4862-ae7b-07840095ea03"},"vehicle_type_id":"4","last_reported":1730999286,"current_range_meters":32800,"station_id":"ce4bhl12rcd13ifvqgf0","pricing_plan_id":"cebpf4jnsgd1na2vs0mg"},{"bike_id":"e4e0867e-acab-4f28-bcf4-d2f926a640d4","system_id":"levelo_inurba_marseille","lat":43.31709,"lon":5.37754,"is_reserved":false,"is_disabled":false,"rental_uris":{"android":"levelo://app?vid=e4e0867e-acab-4f28-bcf4-d2f926a640d4","ios":"levelo://app?vid=e4e0867e-acab-4f28-bcf4-d2f926a640d4"},"vehicle_type_id":"4","last_reported":1730999286,"current_range_meters":4400,"station_id":"ce4bgth2rcd13ifvqch0","pricing_plan_id":"cebpf4jnsgd1na2vs0mg"},{"bike_id":"4dd3dd42-3c34-4312-b885-5cbf58c530c2","system_id":"levelo_inurba_marseille","lat":43.23184,"lon":5.39989,"is_reserved":false,"is_disabled":false,"rental_uris":{"android":"levelo://app?vid=4dd3dd42-3c34-4312-b885-5cbf58c530c2","ios":"levelo://app?vid=4dd3dd42-3c34-4312-b885-5cbf58c530c2"},"vehicle_type_id":"4","last_reported":1730999286,"current_range_meters":9600,"station_id":"ce4bhn12rcd13ifvqgqg","pricing_plan_id":"cebpf4jnsgd1na2vs0mg"},{"bike_id":"e7ada93a-e1e5-421b-bb82-0cd644901f4f","system_id":"levelo_inurba_marseille","lat":43.298,"lon":5.40416,"is_reserved":false,"is_disabled":false,"rental_uris":{"android":"levelo://app?vid=e7ada93a-e1e5-421b-bb82-0cd644901f4f","ios":"levelo://app?vid=e7ada93a-e1e5-421b-bb82-0cd644901f4f"},"vehicle_type_id":"4","last_reported":1730999286,"current_range_meters":39200,"station_id":"ce4bh112rcd13ifvqd90","pricing_plan_id":"cebpf4jnsgd1na2vs0mg"},{"bike_id":"2d36061b-6c80-40c8-bce4-ba116b411d90","system_id":"levelo_inurba_marseille","lat":43.27378,"lon":5.3626,"is_reserved":false,"is_disabled":false,"rental_uris":{"android":"levelo://app?vid=2d36061b-6c80-40c8-bce4-ba116b411d90","ios":"levelo://app?vid=2d36061b-6c80-40c8-bce4-ba116b411d90"},"vehicle_type_id":"4","last_reported":1730999286,"current_range_meters":32400,"station_id":"ce4bhbh2rcd13ifvqeo0","pricing_plan_id":"cebpf4jnsgd1na2vs0mg"},{"bike_id":"cdf308ab-9e0b-4730-8480-577b58d85e5c","system_id":"levelo_inurba_marseille","lat":43.29274,"lon":5.36845,"is_reserved":false,"is_disabled":false,"rental_uris":{"android":"levelo://app?vid=cdf308ab-9e0b-4730-8480-577b58d85e5c","ios":"levelo://app?vid=cdf308ab-9e0b-4730-8480-577b58d85e5c"},"vehicle_type_id":"4","last_reported":1730999286,"current_range_meters":33600,"station_id":"ce4bhbp2rcd13ifvqesg","pricing_plan_id":"cebpf4jnsgd1na2vs0mg"},{"bike_id":"3913bea1-f25c-4ed6-8021-dfd1af122789","system_id":"levelo_inurba_marseille","lat":43.29371,"lon":5.3784,"is_reserved":false,"is_disabled":false,"rental_uris":{"android":"levelo://app?vid=3913bea1-f25c-4ed6-8021-dfd1af122789","ios":"levelo://app?vid=3913bea1-f25c-4ed6-8021-dfd1af122789"},"vehicle_type_id":"4","last_reported":1730999286,"current_range_meters":22400,"station_id":"ce4bgjh2rcd13ifvqbf0","pricing_plan_id":"cebpf4jnsgd1na2vs0mg"},{"bike_id":"6cd8c7f0-4f46-4134-92f3-3cbdc465b235","system_id":"levelo_inurba_marseille","lat":43.31491,"lon":5.3731,"is_reserved":false,"is_disabled":false,"rental_uris":{"android":"levelo://app?vid=6cd8c7f0-4f46-4134-92f3-3cbdc465b235","ios":"levelo://app?vid=6cd8c7f0-4f46-4134-92f3-3cbdc465b235"},"vehicle_type_id":"4","last_reported":1730999286,"current_range_meters":25200,"station_id":"ce4bgt12rcd13ifvqcd0","pricing_plan_id":"cebpf4jnsgd1na2vs0mg"},{"bike_id":"c82db6a7-8599-4064-8a13-f8b36333d027","system_id":"levelo_inurba_marseille","lat":43.29715,"lon":5.36273,"is_reserved":false,"is_disabled":false,"rental_uris":{"android":"levelo://app?vid=c82db6a7-8599-4064-8a13-f8b36333d027","ios":"levelo://app?vid=c82db6a7-8599-4064-8a13-f8b36333d027"},"vehicle_type_id":"4","last_reported":1730999286,"current_range_meters":10000,"station_id":"ce4bgpp2rcd13ifvqc3g","pricing_plan_id":"cebpf4jnsgd1na2vs0mg"},{"bike_id":"30ce2356-dc64-4d84-9399-9d17d4738c8e","system_id":"levelo_inurba_marseille","lat":43.30459,"lon":5.37899,"is_reserved":false,"is_disabled":false,"rental_uris":{"android":"levelo://app?vid=30ce2356-dc64-4d84-9399-9d17d4738c8e","ios":"levelo://app?vid=30ce2356-dc64-4d84-9399-9d17d4738c8e"},"vehicle_type_id":"4","last_reported":1730999286,"current_range_meters":38000,"station_id":"ce4bgup2rcd13ifvqcn0","pricing_plan_id":"cebpf4jnsgd1na2vs0mg"},{"bike_id":"4fcf3408-30b9-4ad7-b447-72f87507543b","system_id":"levelo_inurba_marseille","lat":43.22936,"lon":5.35376,"is_reserved":false,"is_disabled":false,"rental_uris":{"android":"levelo://app?vid=4fcf3408-30b9-4ad7-b447-72f87507543b","ios":"levelo://app?vid=4fcf3408-30b9-4ad7-b447-72f87507543b"},"vehicle_type_id":"4","last_reported":1730999286,"current_range_meters":39200,"station_id":"cpo3532slgdg3j2ikp40","pricing_plan_id":"cebpf4jnsgd1na2vs0mg"},{"bike_id":"b245bf44-b83b-4734-93fa-b688b017666e","system_id":"levelo_inurba_marseille","lat":43.26945,"lon":5.40253,"is_reserved":false,"is_disabled":false,"rental_uris":{"android":"levelo://app?vid=b245bf44-b83b-4734-93fa-b688b017666e","ios":"levelo://app?vid=b245bf44-b83b-4734-93fa-b688b017666e"},"vehicle_type_id":"4","last_reported":1730999286,"current_range_meters":33200,"station_id":"cjm6bp8fraef2m0cb0m0","pricing_plan_id":"cebpf4jnsgd1na2vs0mg"},{"bike_id":"50f6944e-9df5-4ccd-81f5-07fe7847bb8f","system_id":"levelo_inurba_marseille","lat":43.28074,"lon":5.39662,"is_reserved":false,"is_disabled":false,"rental_uris":{"android":"levelo://app?vid=50f6944e-9df5-4ccd-81f5-07fe7847bb8f","ios":"levelo://app?vid=50f6944e-9df5-4ccd-81f5-07fe7847bb8f"},"vehicle_type_id":"4","last_reported":1730999286,"current_range_meters":9600,"station_id":"ce4bho12rcd13ifvqh2g","pricing_plan_id":"cebpf4jnsgd1na2vs0mg"},{"bike_id":"a48171a6-2d6b-49bb-8eb3-f46478a41608","system_id":"levelo_inurba_marseille","lat":43.31335,"lon":5.39701,"is_reserved":false,"is_disabled":false,"rental_uris":{"android":"levelo://app?vid=a48171a6-2d6b-49bb-8eb3-f46478a41608","ios":"levelo://app?vid=a48171a6-2d6b-49bb-8eb3-f46478a41608"},"vehicle_type_id":"4","last_reported":1730999286,"current_range_meters":36800,"station_id":"ce4bgvp2rcd13ifvqcu0","pricing_plan_id":"cebpf4jnsgd1na2vs0mg"},{"bike_id":"5e86a304-875a-484d-a63a-ef141960df3c","system_id":"levelo_inurba_marseille","lat":43.29699,"lon":5.36634,"is_reserved":false,"is_disabled":false,"rental_uris":{"android":"levelo://app?vid=5e86a304-875a-484d-a63a-ef141960df3c","ios":"levelo://app?vid=5e86a304-875a-484d-a63a-ef141960df3c"},"vehicle_type_id":"4","last_reported":1730999286,"current_range_meters":34000,"station_id":"ce4bgn12rcd13ifvqbt0","pricing_plan_id":"cebpf4jnsgd1na2vs0mg"},{"bike_id":"def0a5ca-bf76-4081-87a8-16b0955c67c0","system_id":"levelo_inurba_marseille","lat":43.30938,"lon":5.4032,"is_reserved":false,"is_disabled":false,"rental_uris":{"android":"levelo://app?vid=def0a5ca-bf76-4081-87a8-16b0955c67c0","ios":"levelo://app?vid=def0a5ca-bf76-4081-87a8-16b0955c67c0"},"vehicle_type_id":"4","last_reported":1730999286,"current_range_meters":25600,"station_id":"ce4bgvp2rcd13ifvqcu0","pricing_plan_id":"cebpf4jnsgd1na2vs0mg"},{"bike_id":"5e850d8c-9333-4ee1-9b44-c7c7c1fa9b65","system_id":"levelo_inurba_marseille","lat":43.22928,"lon":5.35382,"is_reserved":false,"is_disabled":false,"rental_uris":{"android":"levelo://app?vid=5e850d8c-9333-4ee1-9b44-c7c7c1fa9b65","ios":"levelo://app?vid=5e850d8c-9333-4ee1-9b44-c7c7c1fa9b65"},"vehicle_type_id":"4","last_reported":1730999286,"current_range_meters":36000,"station_id":"cpo3532slgdg3j2ikp40","pricing_plan_id":"cebpf4jnsgd1na2vs0mg"},{"bike_id":"0c43746a-d522-43ba-8bd1-aa16d6a4d383","system_id":"levelo_inurba_marseille","lat":43.28703,"lon":5.37396,"is_reserved":false,"is_disabled":false,"rental_uris":{"android":"levelo://app?vid=0c43746a-d522-43ba-8bd1-aa16d6a4d383","ios":"levelo://app?vid=0c43746a-d522-43ba-8bd1-aa16d6a4d383"},"vehicle_type_id":"4","last_reported":1730999286,"current_range_meters":28800,"station_id":"ce4bh3p2rcd13ifvqdq0","pricing_plan_id":"cebpf4jnsgd1na2vs0mg"},{"bike_id":"eae7def2-1a9a-469c-97bd-a4dbd3fb2ae5","system_id":"levelo_inurba_marseille","lat":43.33754,"lon":5.37477,"is_reserved":false,"is_disabled":false,"rental_uris":{"android":"levelo://app?vid=eae7def2-1a9a-469c-97bd-a4dbd3fb2ae5","ios":"levelo://app?vid=eae7def2-1a9a-469c-97bd-a4dbd3fb2ae5"},"vehicle_type_id":"4","last_reported":1730999286,"current_range_meters":32400,"station_id":"","pricing_plan_id":"cebpf4jnsgd1na2vs0mg"},{"bike_id":"3a801cbb-1e2e-46c3-bc85-0c5198b9902c","system_id":"levelo_inurba_marseille","lat":43.26536,"lon":5.38843,"is_reserved":false,"is_disabled":false,"rental_uris":{"android":"levelo://app?vid=3a801cbb-1e2e-46c3-bc85-0c5198b9902c","ios":"levelo://app?vid=3a801cbb-1e2e-46c3-bc85-0c5198b9902c"},"vehicle_type_id":"4","last_reported":1730999286,"current_range_meters":6800,"station_id":"","pricing_plan_id":"cebpf4jnsgd1na2vs0mg"},{"bike_id":"7aa5c0e1-37a1-4214-b878-7413f60503d3","system_id":"levelo_inurba_marseille","lat":43.3303,"lon":5.39033,"is_reserved":false,"is_disabled":false,"rental_uris":{"android":"levelo://app?vid=7aa5c0e1-37a1-4214-b878-7413f60503d3","ios":"levelo://app?vid=7aa5c0e1-37a1-4214-b878-7413f60503d3"},"vehicle_type_id":"4","last_reported":1730999286,"current_range_meters":29600,"station_id":"ce4bhr92rcd13ifvqhrg","pricing_plan_id":"cebpf4jnsgd1na2vs0mg"},{"bike_id":"c7b1be92-24c3-4b5d-9f37-6d2cc47c4005","system_id":"levelo_inurba_marseille","lat":43.27178,"lon":5.41001,"is_reserved":false,"is_disabled":false,"rental_uris":{"android":"levelo://app?vid=c7b1be92-24c3-4b5d-9f37-6d2cc47c4005","ios":"levelo://app?vid=c7b1be92-24c3-4b5d-9f37-6d2cc47c4005"},"vehicle_type_id":"4","last_reported":1730999286,"current_range_meters":8400,"station_id":"ce4bhl12rcd13ifvqgf0","pricing_plan_id":"cebpf4jnsgd1na2vs0mg"},{"bike_id":"c434ccf8-1787-400f-ac92-24a0ad1b10e2","system_id":"levelo_inurba_marseille","lat":43.316888,"lon":5.376206,"is_reserved":false,"is_disabled":false,"rental_uris":{"android":"levelo://app?vid=c434ccf8-1787-400f-ac92-24a0ad1b10e2","ios":"levelo://app?vid=c434ccf8-1787-400f-ac92-24a0ad1b10e2"},"vehicle_type_id":"4","last_reported":1730999286,"current_range_meters":28800,"station_id":"ce4bgth2rcd13ifvqch0","pricing_plan_id":"cebpf4jnsgd1na2vs0mg"},{"bike_id":"4dc0e3bd-ab9c-461a-835f-d4784d7b8326","system_id":"levelo_inurba_marseille","lat":43.31356,"lon":5.42381,"is_reserved":false,"is_disabled":false,"rental_uris":{"android":"levelo://app?vid=4dc0e3bd-ab9c-461a-835f-d4784d7b8326","ios":"levelo://app?vid=4dc0e3bd-ab9c-461a-835f-d4784d7b8326"},"vehicle_type_id":"4","last_reported":1730999286,"current_range_meters":27600,"station_id":"ce4bhp92rcd13ifvqhcg","pricing_plan_id":"cebpf4jnsgd1na2vs0mg"},{"bike_id":"94e03716-f8ce-4ae9-9e9f-59ce993c0973","system_id":"levelo_inurba_marseille","lat":43.24168,"lon":5.36393,"is_reserved":false,"is_disabled":false,"rental_uris":{"android":"levelo://app?vid=94e03716-f8ce-4ae9-9e9f-59ce993c0973","ios":"levelo://app?vid=94e03716-f8ce-4ae9-9e9f-59ce993c0973"},"vehicle_type_id":"4","last_reported":1730999286,"current_range_meters":33600,"station_id":"cpo36qri1sfpv3e86is0","pricing_plan_id":"cebpf4jnsgd1na2vs0mg"},{"bike_id":"dda4400c-aee4-4a36-9ba6-804a39e35f97","system_id":"levelo_inurba_marseille","lat":43.31495,"lon":5.37312,"is_reserved":false,"is_disabled":false,"rental_uris":{"android":"levelo://app?vid=dda4400c-aee4-4a36-9ba6-804a39e35f97","ios":"levelo://app?vid=dda4400c-aee4-4a36-9ba6-804a39e35f97"},"vehicle_type_id":"4","last_reported":1730999286,"current_range_meters":25600,"station_id":"ce4bgt12rcd13ifvqcd0","pricing_plan_id":"cebpf4jnsgd1na2vs0mg"},{"bike_id":"b8c34cba-2055-45a4-9f04-9a09356cb888","system_id":"levelo_inurba_marseille","lat":43.30598,"lon":5.37225,"is_reserved":false,"is_disabled":false,"rental_uris":{"android":"levelo://app?vid=b8c34cba-2055-45a4-9f04-9a09356cb888","ios":"levelo://app?vid=b8c34cba-2055-45a4-9f04-9a09356cb888"},"vehicle_type_id":"4","last_reported":1730999286,"current_range_meters":35600,"station_id":"ce4bgqh2rcd13ifvqc4g","pricing_plan_id":"cebpf4jnsgd1na2vs0mg"},{"bike_id":"3b6e6238-02a6-491e-8e72-386586c5d1ab","system_id":"levelo_inurba_marseille","lat":43.31719,"lon":5.42398,"is_reserved":false,"is_disabled":false,"rental_uris":{"android":"levelo://app?vid=3b6e6238-02a6-491e-8e72-386586c5d1ab","ios":"levelo://app?vid=3b6e6238-02a6-491e-8e72-386586c5d1ab"},"vehicle_type_id":"4","last_reported":1730999286,"current_range_meters":38400,"station_id":"ce4bhp92rcd13ifvqhbg","pricing_plan_id":"cebpf4jnsgd1na2vs0mg"},{"bike_id":"0b2cee62-258f-4777-8b2f-3aa857af8b17","system_id":"levelo_inurba_marseille","lat":43.23194,"lon":5.35556,"is_reserved":false,"is_disabled":false,"rental_uris":{"android":"levelo://app?vid=0b2cee62-258f-4777-8b2f-3aa857af8b17","ios":"levelo://app?vid=0b2cee62-258f-4777-8b2f-3aa857af8b17"},"vehicle_type_id":"4","last_reported":1730999286,"current_range_meters":30000,"station_id":"ce4bhu92rcd13ifvqi70","pricing_plan_id":"cebpf4jnsgd1na2vs0mg"},{"bike_id":"78ff9e05-37ad-446f-8ce3-1e3b6d4b1634","system_id":"levelo_inurba_marseille","lat":43.33026,"lon":5.39043,"is_reserved":false,"is_disabled":false,"rental_uris":{"android":"levelo://app?vid=78ff9e05-37ad-446f-8ce3-1e3b6d4b1634","ios":"levelo://app?vid=78ff9e05-37ad-446f-8ce3-1e3b6d4b1634"},"vehicle_type_id":"4","last_reported":1730999286,"current_range_meters":26800,"station_id":"ce4bhr92rcd13ifvqhrg","pricing_plan_id":"cebpf4jnsgd1na2vs0mg"},{"bike_id":"8199b209-550d-4b43-b506-24f74d1c507d","system_id":"levelo_inurba_marseille","lat":43.2694,"lon":5.40241,"is_reserved":false,"is_disabled":false,"rental_uris":{"android":"levelo://app?vid=8199b209-550d-4b43-b506-24f74d1c507d","ios":"levelo://app?vid=8199b209-550d-4b43-b506-24f74d1c507d"},"vehicle_type_id":"4","last_reported":1730999286,"current_range_meters":13600,"station_id":"cjm6bp8fraef2m0cb0m0","pricing_plan_id":"cebpf4jnsgd1na2vs0mg"},{"bike_id":"79252c9c-c901-484d-b2fb-57e434b9e5c3","system_id":"levelo_inurba_marseille","lat":43.312653,"lon":5.401634,"is_reserved":false,"is_disabled":false,"rental_uris":{"android":"levelo://app?vid=79252c9c-c901-484d-b2fb-57e434b9e5c3","ios":"levelo://app?vid=79252c9c-c901-484d-b2fb-57e434b9e5c3"},"vehicle_type_id":"4","last_reported":1730999286,"current_range_meters":24400,"station_id":"ce4bh092rcd13ifvqd30","pricing_plan_id":"cebpf4jnsgd1na2vs0mg"},{"bike_id":"f1195415-1418-4ff1-8e06-47bbcc682f1c","system_id":"levelo_inurba_marseille","lat":43.31884,"lon":5.40741,"is_reserved":false,"is_disabled":false,"rental_uris":{"android":"levelo://app?vid=f1195415-1418-4ff1-8e06-47bbcc682f1c","ios":"levelo://app?vid=f1195415-1418-4ff1-8e06-47bbcc682f1c"},"vehicle_type_id":"4","last_reported":1730999286,"current_range_meters":5600,"station_id":"ce4bhq12rcd13ifvqhig","pricing_plan_id":"cebpf4jnsgd1na2vs0mg"},{"bike_id":"e5bbbdde-0588-4320-9f61-f72f39345e96","system_id":"levelo_inurba_marseille","lat":43.30131,"lon":5.3879,"is_reserved":false,"is_disabled":false,"rental_uris":{"android":"levelo://app?vid=e5bbbdde-0588-4320-9f61-f72f39345e96","ios":"levelo://app?vid=e5bbbdde-0588-4320-9f61-f72f39345e96"},"vehicle_type_id":"4","last_reported":1730999286,"current_range_meters":23200,"station_id":"ce4bghh2rcd13ifvqb60","pricing_plan_id":"cebpf4jnsgd1na2vs0mg"},{"bike_id":"4a325baa-b0a6-4229-b383-0da71a582d64","system_id":"levelo_inurba_marseille","lat":43.33026,"lon":5.39045,"is_reserved":false,"is_disabled":false,"rental_uris":{"android":"levelo://app?vid=4a325baa-b0a6-4229-b383-0da71a582d64","ios":"levelo://app?vid=4a325baa-b0a6-4229-b383-0da71a582d64"},"vehicle_type_id":"4","last_reported":1730999286,"current_range_meters":28400,"station_id":"ce4bhr92rcd13ifvqhrg","pricing_plan_id":"cebpf4jnsgd1na2vs0mg"},{"bike_id":"b56714ef-f788-42ce-91b4-3718139b8ec7","system_id":"levelo_inurba_marseille","lat":43.2761,"lon":5.36113,"is_reserved":false,"is_disabled":false,"rental_uris":{"android":"levelo://app?vid=b56714ef-f788-42ce-91b4-3718139b8ec7","ios":"levelo://app?vid=b56714ef-f788-42ce-91b4-3718139b8ec7"},"vehicle_type_id":"4","last_reported":1730999286,"current_range_meters":38000,"station_id":"ce4bgj92rcd13ifvqbe0","pricing_plan_id":"cebpf4jnsgd1na2vs0mg"},{"bike_id":"38ef6cbf-1808-49d9-af22-2d40c62d522c","system_id":"levelo_inurba_marseille","lat":43.28728,"lon":5.36086,"is_reserved":false,"is_disabled":false,"rental_uris":{"android":"levelo://app?vid=38ef6cbf-1808-49d9-af22-2d40c62d522c","ios":"levelo://app?vid=38ef6cbf-1808-49d9-af22-2d40c62d522c"},"vehicle_type_id":"4","last_reported":1730999286,"current_range_meters":20000,"station_id":"cki0cbj6b192h4jlfktg","pricing_plan_id":"cebpf4jnsgd1na2vs0mg"},{"bike_id":"8c5b725f-8758-4193-9892-fb5bca91d7df","system_id":"levelo_inurba_marseille","lat":43.303619,"lon":5.384602,"is_reserved":false,"is_disabled":false,"rental_uris":{"android":"levelo://app?vid=8c5b725f-8758-4193-9892-fb5bca91d7df","ios":"levelo://app?vid=8c5b725f-8758-4193-9892-fb5bca91d7df"},"vehicle_type_id":"4","last_reported":1730999286,"current_range_meters":36400,"station_id":"ce4bgg92rcd13ifvqb30","pricing_plan_id":"cebpf4jnsgd1na2vs0mg"},