{"last_updated":1701864824,"ttl":30,"version":"2.2","data":{"bikes":[{"bike_id":"3a9b5267-1e6b-4241-88fe-8869541b4bcc","system_id":"levelo_inurba_marseille","lat":43.31341,"lon":5.367098,"is_reserved":false,"is_disabled":false,"rental_uris":{"android":"levelo://app?vid=3a9b5267-1e6b-4241-88fe-8869541b4bcc","ios":"levelo://app?vid=3a9b5267-1e6b-4241-88fe-8869541b4bcc"},"vehicle_type_id":"4","last_reported":1701864824,"current_range_meters":30000,"station_id":"ce4bgr92rcd13ifvqc6g","pricing_plan_id":"free"},{"bike_id":"3d529393-120c-4e42-a57e-af9af9e35db1","system_id":"levelo_inurba_marseille","lat":43.31341,"lon":5.367098,"is_reserved":false,"is_disabled":false,"rental_uris":{"android":"levelo://app?vid=3d529393-120c-4e42-a57e-af9af9e35db1","ios":"levelo://app?vid=3d529393-120c-4e42-a57e-af9af9e35db1"},"vehicle_type_id":"4","last_reported":1701864824,"current_range_meters":31600,"station_id":"ce4bgr92rcd13ifvqc6g","pricing_plan_id":"free"},{"bike_id":"ba9bb771-dc60-40b2-b810-826e56111735","system_id":"levelo_inurba_marseille","lat":43.313391,"lon":5.36706,"is_reserved":false,"is_disabled":false,"rental_uris":{"android":"levelo://app?vid=ba9bb771-dc60-40b2-b810-826e56111735","ios":"levelo://app?vid=ba9bb771-dc60-40b2-b810-826e56111735"},"vehicle_type_id":"4","last_reported":1701864824,"current_range_meters":31600,"station_id":"ce4bgr92rcd13ifvqc6g","pricing_plan_id":"free"},{"bike_id":"abc62d03-4891-49c3-94b1-60d308d83518","system_id":"levelo_inurba_marseille","lat":43.31341,"lon":5.367098,"is_reserved":false,"is_disabled":false,"rental_uris":{"android":"levelo://app?vid=abc62d03-4891-49c3-94b1-60d308d83518","ios":"levelo://app?vid=abc62d03-4891-49c3-94b1-60d308d83518"},"vehicle_type_id":"4","last_reported":1701864824,"current_range_meters":18400,"station_id":"ce4bgr92rcd13ifvqc6g","pricing_plan_id":"free"},{"bike_id":"373c682f-8a52-4d5b-87bf-cc5fef03619f","system_id":"levelo_inurba_marseille","lat":43.313391,"lon":5.36706,"is_reserved":false,"is_disabled":false,"rental_uris":{"android":"levelo://app?vid=373c682f-8a52-4d5b-87bf-cc5fef03619f","ios":"levelo://app?vid=373c682f-8a52-4d5b-87bf-cc5fef03619f"},"vehicle_type_id":"4","last_reported":1701864824,"current_range_meters":20000,"station_id":"ce4bgr92rcd13ifvqc6g","pricing_plan_id":"free"},{"bike_id":"a4f85eea-54de-42dc-86bf-af348cdde399","system_id":"levelo_inurba_marseille","lat":43.31359,"lon":5.36713,"is_reserved":false,"is_disabled":false,"rental_uris":{"android":"levelo://app?vid=a4f85eea-54de-42dc-86bf-af348cdde399","ios":"levelo://app?vid=a4f85eea-54de-42dc-86bf-af348cdde399"},"vehicle_type_id":"4","last_reported":1701864824,"current_range_meters":6800,"station_id":"ce4bgr92rcd13ifvqc6g","pricing_plan_id":"free"},{"bike_id":"c0470a3c-42aa-4c59-8acf-31502aa0bab9","system_id":"levelo_inurba_marseille","lat":43.31341,"lon":5.367098,"is_reserved":false,"is_disabled":false,"rental_uris":{"android":"levelo://app?vid=c0470a3c-42aa-4c59-8acf-31502aa0bab9","ios":"levelo://app?vid=c0470a3c-42aa-4c59-8acf-31502aa0bab9"},"vehicle_type_id":"4","last_reported":1701864824,"current_range_meters":8800,"station_id":"ce4bgr92rcd13ifvqc6g","pricing_plan_id":"free"},{"bike_id":"d7cff2fc-91b2-414b-8664-514c29073941","system_id":"levelo_inurba_marseille","lat":43.313391,"lon":5.36706,"is_reserved":false,"is_disabled":false,"rental_uris":{"android":"levelo://app?vid=d7cff2fc-91b2-414b-8664-514c29073941","ios":"levelo://app?vid=d7cff2fc-91b2-414b-8664-514c29073941"},"vehicle_type_id":"4","last_reported":1701864824,"current_range_meters":18000,"station_id":"ce4bgr92rcd13ifvqc6g","pricing_plan_id":"free"},{"bike_id":"11a0f3d6-d069-47ed-918a-40eecf757967","system_id":"levelo_inurba_marseille","lat":43.313606,"lon":5.367082,"is_reserved":false,"is_disabled":false,"rental_uris":{"android":"levelo://app?vid=11a0f3d6-d069-47ed-918a-40eecf757967","ios":"levelo://app?vid=11a0f3d6-d069-47ed-918a-40eecf757967"},"vehicle_type_id":"4","last_reported":1701864824,"current_range_meters":18000,"station_id":"ce4bgr92rcd13ifvqc6g","pricing_plan_id":"free"},{"bike_id":"9ee78ad1-fc8d-4485-912c-a8a0ec6f5528","system_id":"levelo_inurba_marseille","lat":43.31366,"lon":5.367,"is_reserved":false,"is_disabled":false,"rental_uris":{"android":"levelo://app?vid=9ee78ad1-fc8d-4485-912c-a8a0ec6f5528","ios":"levelo://app?vid=9ee78ad1-fc8d-4485-912c-a8a0ec6f5528"},"vehicle_type_id":"4","last_reported":1701864824,"current_range_meters":12000,"station_id":"ce4bgr92rcd13ifvqc6g","pricing_plan_id":"free"},{"bike_id":"331be314-ae5c-4f3a-bdc3-7af88237772f","system_id":"levelo_inurba_marseille","lat":43.312239,"lon":5.368562,"is_reserved":false,"is_disabled":false,"rental_uris":{"android":"levelo://app?vid=331be314-ae5c-4f3a-bdc3-7af88237772f","ios":"levelo://app?vid=331be314-ae5c-4f3a-bdc3-7af88237772f"},"vehicle_type_id":"4","last_reported":1701864824,"current_range_meters":16400,"station_id":"ce4bgl92rcd13ifvqbq0","pricing_plan_id":"free"},{"bike_id":"cbfe79c3-11a9-4c72-aeea-633bd8d0190d","system_id":"levelo_inurba_marseille","lat":43.30912,"lon":5.36854,"is_reserved":false,"is_disabled":false,"rental_uris":{"android":"levelo://app?vid=cbfe79c3-11a9-4c72-aeea-633bd8d0190d","ios":"levelo://app?vid=cbfe79c3-11a9-4c72-aeea-633bd8d0190d"},"vehicle_type_id":"4","last_reported":1701864824,"current_range_meters":8400,"station_id":"ce4bgn92rcd13ifvqbvg","pricing_plan_id":"free"},{"bike_id":"a6ff5fb3-e234-4b68-9f86-fbf823f4d8f6","system_id":"levelo_inurba_marseille","lat":43.309076,"lon":5.368465,"is_reserved":false,"is_disabled":false,"rental_uris":{"android":"levelo://app?vid=a6ff5fb3-e234-4b68-9f86-fbf823f4d8f6","ios":"levelo://app?vid=a6ff5fb3-e234-4b68-9f86-fbf823f4d8f6"},"vehicle_type_id":"4","last_reported":1701864824,"current_range_meters":29200,"station_id":"ce4bgn92rcd13ifvqbvg","pricing_plan_id":"free"},{"bike_id":"cec8feac-5c1c-4720-9c21-bb6577e74e6a","system_id":"levelo_inurba_marseille","lat":43.314811,"lon":5.373103,"is_reserved":false,"is_disabled":false,"rental_uris":{"android":"levelo://app?vid=cec8feac-5c1c-4720-9c21-bb6577e74e6a","ios":"levelo://app?vid=cec8feac-5c1c-4720-9c21-bb6577e74e6a"},"vehicle_type_id":"4","last_reported":1701864824,"current_range_meters":24000,"station_id":"ce4bgt12rcd13ifvqcd0","pricing_plan_id":"free"},{"bike_id":"985aab09-457a-4cec-9572-8c2a3ecfac74","system_id":"levelo_inurba_marseille","lat":43.306318,"lon":5.368272,"is_reserved":false,"is_disabled":false,"rental_uris":{"android":"levelo://app?vid=985aab09-457a-4cec-9572-8c2a3ecfac74","ios":"levelo://app?vid=985aab09-457a-4cec-9572-8c2a3ecfac74"},"vehicle_type_id":"4","last_reported":1701864824,"current_range_meters":21600,"station_id":"","pricing_plan_id":"free"},{"bike_id":"16806761-799a-44fd-9ad8-f873d831faf4","system_id":"levelo_inurba_marseille","lat":43.305712,"lon":5.365641,"is_reserved":false,"is_disabled":false,"rental_uris":{"android":"levelo://app?vid=16806761-799a-44fd-9ad8-f873d831faf4","ios":"levelo://app?vid=16806761-799a-44fd-9ad8-f873d831faf4"},"vehicle_type_id":"4","last_reported":1701864824,"current_range_meters":20800,"station_id":"ce4bgs12rcd13ifvqcag","pricing_plan_id":"free"},{"bike_id":"ce9f7137-be66-4316-872d-d35ed10d88cd","system_id":"levelo_inurba_marseille","lat":43.305714,"lon":5.365633,"is_reserved":false,"is_disabled":false,"rental_uris":{"android":"levelo://app?vid=ce9f7137-be66-4316-872d-d35ed10d88cd","ios":"levelo://app?vid=ce9f7137-be66-4316-872d-d35ed10d88cd"},"vehicle_type_id":"4","last_reported":1701864824,"current_range_meters":8400,"station_id":"ce4bgs12rcd13ifvqcag","pricing_plan_id":"free"},{"bike_id":"798f65ea-9d43-47d2-937c-29666f7c9f8a","system_id":"levelo_inurba_marseille","lat":43.305459,"lon":5.365361,"is_reserved":false,"is_disabled":false,"rental_uris":{"android":"levelo://app?vid=798f65ea-9d43-47d2-937c-29666f7c9f8a","ios":"levelo://app?vid=798f65ea-9d43-47d2-937c-29666f7c9f8a"},"vehicle_type_id":"4","last_reported":1701864824,"current_range_meters":24800,"station_id":"ce4bgs12rcd13ifvqcag","pricing_plan_id":"free"},{"bike_id":"83cf6fb0-6c8f-4a41-8f44-f6b032da01bf","system_id":"levelo_inurba_marseille","lat":43.30532,"lon":5.36708,"is_reserved":false,"is_disabled":false,"rental_uris":{"android":"levelo://app?vid=83cf6fb0-6c8f-4a41-8f44-f6b032da01bf","ios":"levelo://app?vid=83cf6fb0-6c8f-4a41-8f44-f6b032da01bf"},"vehicle_type_id":"4","last_reported":1701864824,"current_range_meters":17600,"station_id":"ce4bgrp2rcd13ifvqc9g","pricing_plan_id":"free"},{"bike_id":"68056c2e-494d-46f5-a77b-584a7e692292","system_id":"levelo_inurba_marseille","lat":43.305706,"lon":5.365654,"is_reserved":false,"is_disabled":false,"rental_uris":{"android":"levelo://app?vid=68056c2e-494d-46f5-a77b-584a7e692292","ios":"levelo://app?vid=68056c2e-494d-46f5-a77b-584a7e692292"},"vehicle_type_id":"4","last_reported":1701864824,"current_range_meters":30400,"station_id":"ce4bgs12rcd13ifvqcag","pricing_plan_id":"free"},{"bike_id":"796f82de-046f-4bf9-b66e-1ae140e0b220","system_id":"levelo_inurba_marseille","lat":43.305989,"lon":5.37225,"is_reserved":false,"is_disabled":false,"rental_uris":{"android":"levelo://app?vid=796f82de-046f-4bf9-b66e-1ae140e0b220","ios":"levelo://app?vid=796f82de-046f-4bf9-b66e-1ae140e0b220"},"vehicle_type_id":"4","last_reported":1701864824,"current_range_meters":10000,"station_id":"ce4bgqh2rcd13ifvqc4g","pricing_plan_id":"free"},{"bike_id":"3d6cbab9-6960-4525-81e3-b6a324e7660e","system_id":"levelo_inurba_marseille","lat":43.30601,"lon":5.37235,"is_reserved":false,"is_disabled":false,"rental_uris":{"android":"levelo://app?vid=3d6cbab9-6960-4525-81e3-b6a324e7660e","ios":"levelo://app?vid=3d6cbab9-6960-4525-81e3-b6a324e7660e"},"vehicle_type_id":"4","last_reported":1701864824,"current_range_meters":18400,"station_id":"ce4bgqh2rcd13ifvqc4g","pricing_plan_id":"free"},{"bike_id":"3a578191-6f1e-4a3d-9c82-2683572bb26d","system_id":"levelo_inurba_marseille","lat":43.319237,"lon":5.37299,"is_reserved":false,"is_disabled":false,"rental_uris":{"android":"levelo://app?vid=3a578191-6f1e-4a3d-9c82-2683572bb26d","ios":"levelo://app?vid=3a578191-6f1e-4a3d-9c82-2683572bb26d"},"vehicle_type_id":"4","last_reported":1701864824,"current_range_meters":0,"station_id":"","pricing_plan_id":"free"},{"bike_id":"8533c099-ddbb-4a60-ab31-df796d68d476","system_id":"levelo_inurba_marseille","lat":43.307945,"lon":5.376487,"is_reserved":false,"is_disabled":false,"rental_uris":{"android":"levelo://app?vid=8533c099-ddbb-4a60-ab31-df796d68d476","ios":"levelo://app?vid=8533c099-ddbb-4a60-ab31-df796d68d476"},"vehicle_type_id":"4","last_reported":1701864824,"current_range_meters":16800,"station_id":"ce4bgv92rcd13ifvqcq0","pricing_plan_id":"free"},{"bike_id":"902d5b61-26a4-43c6-84a6-0de21cbf6b46","system_id":"levelo_inurba_marseille","lat":43.317075,"lon":5.377367,"is_reserved":false,"is_disabled":false,"rental_uris":{"android":"levelo://app?vid=902d5b61-26a4-43c6-84a6-0de21cbf6b46","ios":"levelo://app?vid=902d5b61-26a4-43c6-84a6-0de21cbf6b46"},"vehicle_type_id":"4","last_reported":1701864824,"current_range_meters":16000,"station_id":"ce4bgth2rcd13ifvqch0","pricing_plan_id":"free"},{"bike_id":"adf146c5-e4e1-4668-9a33-042940925130","system_id":"levelo_inurba_marseille","lat":43.31351,"lon":5.37909,"is_reserved":false,"is_disabled":false,"rental_uris":{"android":"levelo://app?vid=adf146c5-e4e1-4668-9a33-042940925130","ios":"levelo://app?vid=adf146c5-e4e1-4668-9a33-042940925130"},"vehicle_type_id":"4","last_reported":1701864824,"current_range_meters":6400,"station_id":"","pricing_plan_id":"free"},{"bike_id":"c3291676-abd1-441c-baef-1c51ffc58f6e","system_id":"levelo_inurba_marseille","lat":43.303046,"lon":5.368981,"is_reserved":false,"is_disabled":false,"rental_uris":{"android":"levelo://app?vid=c3291676-abd1-441c-baef-1c51ffc58f6e","ios":"levelo://app?vid=c3291676-abd1-441c-baef-1c51ffc58f6e"},"vehicle_type_id":"4","last_reported":1701864824,"current_range_meters":17200,"station_id":"ce4bgqh2rcd13ifvqc5g","pricing_plan_id":"free"},{"bike_id":"1ea60f58-75f7-4484-b705-1156df4b02ad","system_id":"levelo_inurba_marseille","lat":43.302815,"lon":5.373351,"is_reserved":false,"is_disabled":false,"rental_uris":{"android":"levelo://app?vid=1ea60f58-75f7-4484-b705-1156df4b02ad","ios":"levelo://app?vid=1ea60f58-75f7-4484-b705-1156df4b02ad"},"vehicle_type_id":"4","last_reported":1701864824,"current_range_meters":10000,"station_id":"","pricing_plan_id":"free"},{"bike_id":"d9b6d51d-552c-44a0-af63-e672a39602dc","system_id":"levelo_inurba_marseille","lat":43.308012,"lon":5.381511,"is_reserved":false,"is_disabled":false,"rental_uris":{"android":"levelo://app?vid=d9b6d51d-552c-44a0-af63-e672a39602dc","ios":"levelo://app?vid=d9b6d51d-552c-44a0-af63-e672a39602dc"},"vehicle_type_id":"4","last_reported":1701864824,"current_range_meters":24000,"station_id":"ce4bgt12rcd13ifvqce0","pricing_plan_id":"free"},{"bike_id":"93be4470-6d5f-45a2-982e-4ee72df2f628","system_id":"levelo_inurba_marseille","lat":43.308012,"lon":5.381511,"is_reserved":false,"is_disabled":false,"rental_uris":{"android":"levelo://app?vid=93be4470-6d5f-45a2-982e-4ee72df2f628","ios":"levelo://app?vid=93be4470-6d5f-45a2-982e-4ee72df2f628"},"vehicle_type_id":"4","last_reported":1701864824,"current_range_meters":0,"station_id":"ce4bgt12rcd13ifvqce0","pricing_plan_id":"free"},{"bike_id":"5fe01a00-1e30-4582-b44c-09833cfbe6f1","system_id":"levelo_inurba_marseille","lat":43.308012,"lon":5.381511,"is_reserved":false,"is_disabled":false,"rental_uris":{"android":"levelo://app?vid=5fe01a00-1e30-4582-b44c-09833cfbe6f1","ios":"levelo://app?vid=5fe01a00-1e30-4582-b44c-09833cfbe6f1"},"vehicle_type_id":"4","last_reported":1701864824,"current_range_meters":22800,"station_id":"ce4bgt12rcd13ifvqce0","pricing_plan_id":"free"},{"bike_id":"aa0ee920-2bad-4f6b-93ca-ebc4058340d6","system_id":"levelo_inurba_marseille","lat":43.32477,"lon":5.36566,"is_reserved":false,"is_disabled":false,"rental_uris":{"android":"levelo://app?vid=aa0ee920-2bad-4f6b-93ca-ebc4058340d6","ios":"levelo://app?vid=aa0ee920-2bad-4f6b-93ca-ebc4058340d6"},"vehicle_type_id":"4","last_reported":1701864824,"current_range_meters":22800,"station_id":"ce4bhs12rcd13ifvqhvg","pricing_plan_id":"free"},{"bike_id":"a600183b-75ba-4e6a-875b-9ddbda6c948a","system_id":"levelo_inurba_marseille","lat":43.319935,"lon":5.381699,"is_reserved":false,"is_disabled":false,"rental_uris":{"android":"levelo://app?vid=a600183b-75ba-4e6a-875b-9ddbda6c948a","ios":"levelo://app?vid=a600183b-75ba-4e6a-875b-9ddbda6c948a"},"vehicle_type_id":"4","last_reported":1701864824,"current_range_meters":19200,"station_id":"ce4bhr12rcd13ifvqhpg","pricing_plan_id":"free"},{"bike_id":"9ae94d0b-3bf1-4047-8781-8a890d852d5a","system_id":"levelo_inurba_marseille","lat":43.319935,"lon":5.381699,"is_reserved":false,"is_disabled":false,"rental_uris":{"android":"levelo://app?vid=9ae94d0b-3bf1-4047-8781-8a890d852d5a","ios":"levelo://app?vid=9ae94d0b-3bf1-4047-8781-8a890d852d5a"},"vehicle_type_id":"4","last_reported":1701864824,"current_range_meters":9600,"station_id":"ce4bhr12rcd13ifvqhpg","pricing_plan_id":"free"},{"bike_id":"44b639d4-c394-49b2-9e18-6098ae373bd6","system_id":"levelo_inurba_marseille","lat":43.319935,"lon":5.381699,"is_reserved":false,"is_disabled":false,"rental_uris":{"android":"levelo://app?vid=44b639d4-c394-49b2-9e18-6098ae373bd6","ios":"levelo://app?vid=44b639d4-c394-49b2-9e18-6098ae373bd6"},"vehicle_type_id":"4","last_reported":1701864824,"current_range_meters":11600,"station_id":"ce4bhr12rcd13ifvqhpg","pricing_plan_id":"free"},{"bike_id":"e6a7946c-a7d5-4369-b254-577b631c8d1a","system_id":"levelo_inurba_marseille","lat":43.319935,"lon":5.381699,"is_reserved":false,"is_disabled":false,"rental_uris":{"android":"levelo://app?vid=e6a7946c-a7d5-4369-b254-577b631c8d1a","ios":"levelo://app?vid=e6a7946c-a7d5-4369-b254-577b631c8d1a"},"vehicle_type_id":"4","last_reported":1701864824,"current_range_meters":24800,"station_id":"ce4bhr12rcd13ifvqhpg","pricing_plan_id":"free"},{"bike_id":"9ee0ef7a-8d9c-4d78-8ae5-64e12b708d26","system_id":"levelo_inurba_marseille","lat":43.319997,"lon":5.381594,"is_reserved":false,"is_disabled":false,"rental_uris":{"android":"levelo://app?vid=9ee0ef7a-8d9c-4d78-8ae5-64e12b708d26","ios":"levelo://app?vid=9ee0ef7a-8d9c-4d78-8ae5-64e12b708d26"},"vehicle_type_id":"4","last_reported":1701864824,"current_range_meters":0,"station_id":"ce4bhr12rcd13ifvqhpg","pricing_plan_id":"free"},{"bike_id":"4085daeb-125b-4b27-bcb0-d5d5b2328722","system_id":"levelo_inurba_marseille","lat":43.319935,"lon":5.381699,"is_reserved":false,"is_disabled":false,"rental_uris":{"android":"levelo://app?vid=4085daeb-125b-4b27-bcb0-d5d5b2328722","ios":"levelo://app?vid=4085daeb-125b-4b27-bcb0-d5d5b2328722"},"vehicle_type_id":"4","last_reported":1701864824,"current_range_meters":2800,"station_id":"ce4bhr12rcd13ifvqhpg","pricing_plan_id":"free"},{"bike_id":"40eb896c-49a2-41ff-9acf-57f8912cf961","system_id":"levelo_inurba_marseille","lat":43.31162,"lon":5.38688,"is_reserved":false,"is_disabled":false,"rental_uris":{"android":"levelo://app?vid=40eb896c-49a2-41ff-9acf-57f8912cf961","ios":"levelo://app?vid=40eb896c-49a2-41ff-9acf-57f8912cf961"},"vehicle_type_id":"4","last_reported":1701864824,"current_range_meters":6000,"station_id":"ce4bgv12rcd13ifvqcp0","pricing_plan_id":"free"},{"bike_id":"8e460b9e-fa20-425f-9b9a-e2fbebc459bc","system_id":"levelo_inurba_marseille","lat":43.298433,"lon":5.362774,"is_reserved":false,"is_disabled":false,"rental_uris":{"android":"levelo://app?vid=8e460b9e-fa20-425f-9b9a-e2fbebc459bc","ios":"levelo://app?vid=8e460b9e-fa20-425f-9b9a-e2fbebc459bc"},"vehicle_type_id":"4","last_reported":1701864824,"current_range_meters":28400,"station_id":"ce4bgpp2rcd13ifvqc3g","pricing_plan_id":"free"},{"bike_id":"93d76e8a-44ba-41ed-b331-ec05a93fbc25","system_id":"levelo_inurba_marseille","lat":43.31222,"lon":5.3871,"is_reserved":false,"is_disabled":false,"rental_uris":{"android":"levelo://app?vid=93d76e8a-44ba-41ed-b331-ec05a93fbc25","ios":"levelo://app?vid=93d76e8a-44ba-41ed-b331-ec05a93fbc25"},"vehicle_type_id":"4","last_reported":1701864824,"current_range_meters":28800,"station_id":"","pricing_plan_id":"free"},{"bike_id":"0d25c9ff-4554-4e69-b3a8-7307b489de56","system_id":"levelo_inurba_marseille","lat":43.311722,"lon":5.387247,"is_reserved":false,"is_disabled":false,"rental_uris":{"android":"levelo://app?vid=0d25c9ff-4554-4e69-b3a8-7307b489de56","ios":"levelo://app?vid=0d25c9ff-4554-4e69-b3a8-7307b489de56"},"vehicle_type_id":"4","last_reported":1701864824,"current_range_meters":11200,"station_id":"ce4bgv12rcd13ifvqcp0","pricing_plan_id":"free"},{"bike_id":"e416c5ae-38cf-4637-ace0-f3b8c75a13c6","system_id":"levelo_inurba_marseille","lat":43.297794,"lon":5.370888,"is_reserved":false,"is_disabled":false,"rental_uris":{"android":"levelo://app?vid=e416c5ae-38cf-4637-ace0-f3b8c75a13c6","ios":"levelo://app?vid=e416c5ae-38cf-4637-ace0-f3b8c75a13c6"},"vehicle_type_id":"4","last_reported":1701864824,"current_range_meters":23600,"station_id":"ce4bgop2rcd13ifvqc1g","pricing_plan_id":"free"},{"bike_id":"68a3be96-2d90-4af7-8e47-6deb89fbab65","system_id":"levelo_inurba_marseille","lat":43.297794,"lon":5.370888,"is_reserved":false,"is_disabled":false,"rental_uris":{"android":"levelo://app?vid=68a3be96-2d90-4af7-8e47-6deb89fbab65","ios":"levelo://app?vid=68a3be96-2d90-4af7-8e47-6deb89fbab65"},"vehicle_type_id":"4","last_reported":1701864824,"current_range_meters":0,"station_id":"ce4bgop2rcd13ifvqc1g","pricing_plan_id":"free"},{"bike_id":"04ea328d-eef9-479c-b3df-9ac03c15edf6","system_id":"levelo_inurba_marseille","lat":43.298218,"lon":5.374416,"is_reserved":false,"is_disabled":false,"rental_uris":{"android":"levelo://app?vid=04ea328d-eef9-479c-b3df-9ac03c15edf6","ios":"levelo://app?vid=04ea328d-eef9-479c-b3df-9ac03c15edf6"},"vehicle_type_id":"4","last_reported":1701864824,"current_range_meters":14000,"station_id":"","pricing_plan_id":"free"},{"bike_id":"c58a2089-b67f-42c5-ac7a-21fc01aff172","system_id":"levelo_inurba_marseille","lat":43.32828,"lon":5.367,"is_reserved":false,"is_disabled":false,"rental_uris":{"android":"levelo://app?vid=c58a2089-b67f-42c5-ac7a-21fc01aff172","ios":"levelo://app?vid=c58a2089-b67f-42c5-ac7a-21fc01aff172"},"vehicle_type_id":"4","last_reported":1701864824,"current_range_meters":3600,"station_id":"ce4bhs92rcd13ifvqi0g","pricing_plan_id":"free"},{"bike_id":"93ce9c28-5bf8-4845-9bea-47b8315036f3","system_id":"levelo_inurba_marseille","lat":43.297163,"lon":5.365866,"is_reserved":false,"is_disabled":false,"rental_uris":{"android":"levelo://app?vid=93ce9c28-5bf8-4845-9bea-47b8315036f3","ios":"levelo://app?vid=93ce9c28-5bf8-4845-9bea-47b8315036f3"},"vehicle_type_id":"4","last_reported":1701864824,"current_range_meters":26000,"station_id":"ce4bgn12rcd13ifvqbt0","pricing_plan_id":"free"},{"bike_id":"94007754-7055-4e9f-884b-a69ad1a23f33","system_id":"levelo_inurba_marseille","lat":43.29883,"lon":5.378289,"is_reserved":false,"is_disabled":false,"rental_uris":{"android":"levelo://app?vid=94007754-7055-4e9f-884b-a69ad1a23f33","ios":"levelo://app?vid=94007754-7055-4e9f-884b-a69ad1a23f33"},"vehicle_type_id":"4","last_reported":1701864824,"current_range_meters":23200,"station_id":"","pricing_plan_id":"free"},{"bike_id":"8b65df6d-79df-4277-8581-6652602f1eae","system_id":"levelo_inurba_marseille","lat":43.296129,"lon":5.370777,"is_reserved":false,"is_disabled":false,"rental_uris":{"android":"levelo://app?vid=8b65df6d-79df-4277-8581-6652602f1eae","ios":"levelo://app?vid=8b65df6d-79df-4277-8581-6652602f1eae"},"vehicle_type_id":"4","last_reported":1701864824,"current_range_meters":19200,"station_id":"ce4bgnh2rcd13ifvqc0g","pricing_plan_id":"free"},{"bike_id":"9de1a80e-a5a6-4b70-9a80-3d9a37cc8846","system_id":"levelo_inurba_marseille","lat":43.32953,"lon":5.36531,"is_reserved":false,"is_disabled":false,"rental_uris":{"android":"levelo://app?vid=9de1a80e-a5a6-4b70-9a80-3d9a37cc8846","ios":"levelo://app?vid=9de1a80e-a5a6-4b70-9a80-3d9a37cc8846"},"vehicle_type_id":"4","last_reported":1701864824,"current_range_meters":30400,"station_id":"","pricing_plan_id":"free"},{"bike_id":"92dc65d6-6823-4de3-93d4-056f738f090c","system_id":"levelo_inurba_marseille","lat":43.316538,"lon":5.38954,"is_reserved":false,"is_disabled":false,"rental_uris":{"android":"levelo://app?vid=92dc65d6-6823-4de3-93d4-056f738f090c","ios":"levelo://app?vid=92dc65d6-6823-4de3-93d4-056f738f090c"},"vehicle_type_id":"4","last_reported":1701864824,"current_range_meters":9600,"station_id":"","pricing_plan_id":"free"},{"bike_id":"559b918e-be90-4084-8d2b-53bf31273894","system_id":"levelo_inurba_marseille","lat":43.29573,"lon":5.367355,"is_reserved":false,"is_disabled":false,"rental_uris":{"android":"levelo://app?vid=559b918e-be90-4084-8d2b-53bf31273894","ios":"levelo://app?vid=559b918e-be90-4084-8d2b-53bf31273894"},"vehicle_type_id":"4","last_reported":1701864824,"current_range_meters":30800,"station_id":"ce4bgph2rcd13ifvqc2g","pricing_plan_id":"free"},{"bike_id":"b036a702-45d4-4657-a24f-a99b95dede9d","system_id":"levelo_inurba_marseille","lat":43.29573,"lon":5.367355,"is_reserved":false,"is_disabled":false,"rental_uris":{"android":"levelo://app?vid=b036a702-45d4-4657-a24f-a99b95dede9d","ios":"levelo://app?vid=b036a702-45d4-4657-a24f-a99b95dede9d"},"vehicle_type_id":"4","last_reported":1701864824,"current_range_meters":30000,"station_id":"ce4bgph2rcd13ifvqc2g","pricing_plan_id":"free"},{"bike_id":"abad22c8-6a6a-4d5c-af87-8fa88c3a3e3a","system_id":"levelo_inurba_marseille","lat":43.29573,"lon":5.367355,"is_reserved":false,"is_disabled":false,"rental_uris":{"android":"levelo://app?vid=abad22c8-6a6a-4d5c-af87-8fa88c3a3e3a","ios":"levelo://app?vid=abad22c8-6a6a-4d5c-af87-8fa88c3a3e3a"},"vehicle_type_id":"4","last_reported":1701864824,"current_range_meters":18000,"station_id":"ce4bgph2rcd13ifvqc2g","pricing_plan_id":"free"},{"bike_id":"9d557935-ee00-40d0-b1ca-16d0e3e74320","system_id":"levelo_inurba_marseille","lat":43.299028,"lon":5.381509,"is_reserved":false,"is_disabled":false,"rental_uris":{"android":"levelo://app?vid=9d557935-ee00-40d0-b1ca-16d0e3e74320","ios":"levelo://app?vid=9d557935-ee00-40d0-b1ca-16d0e3e74320"},"vehicle_type_id":"4","last_reported":1701864824,"current_range_meters":13600,"station_id":"ce4bgj12rcd13ifvqbc0","pricing_plan_id":"free"},{"bike_id":"9dd135c6-ea0e-4ed9-993b-789e679c9833","system_id":"levelo_inurba_marseille","lat":43.317557,"lon":5.390173,"is_reserved":false,"is_disabled":false,"rental_uris":{"android":"levelo://app?vid=9dd135c6-ea0e-4ed9-993b-789e679c9833","ios":"levelo://app?vid=9dd135c6-ea0e-4ed9-993b-789e679c9833"},"vehicle_type_id":"4","last_reported":1701864824,"current_range_meters":19200,"station_id":"ce4bhqp2rcd13ifvqhng","pricing_plan_id":"free"},{"bike_id":"0dc48191-b041-4424-a75d-f7abdecafc88","system_id":"levelo_inurba_marseille","lat":43.298037,"lon":5.381066,"is_reserved":false,"is_disabled":false,"rental_uris":{"android":"levelo://app?vid=0dc48191-b041-4424-a75d-f7abdecafc88","ios":"levelo://app?vid=0dc48191-b041-4424-a75d-f7abdecafc88"},"vehicle_type_id":"4","last_reported":1701864824,"current_range_meters":8000,"station_id":"ce4bgip2rcd13ifvqbb0","pricing_plan_id":"free"},{"bike_id":"5eb62614-e500-42fd-a8b3-ea9c6e38936c","system_id":"levelo_inurba_marseille","lat":43.32358,"lon":5.38882,"is_reserved":false,"is_disabled":false,"rental_uris":{"android":"levelo://app?vid=5eb62614-e500-42fd-a8b3-ea9c6e38936c","ios":"levelo://app?vid=5eb62614-e500-42fd-a8b3-ea9c6e38936c"},"vehicle_type_id":"4","last_reported":1701864824,"current_range_meters":13200,"station_id":"ce4bhqp2rcd13ifvqhog","pricing_plan_id":"free"},{"bike_id":"1c77babb-2656-4d5d-9885-0a26a9e70ddf","system_id":"levelo_inurba_marseille","lat":43.29285,"lon":5.36856,"is_reserved":false,"is_disabled":false,"rental_uris":{"android":"levelo://app?vid=1c77babb-2656-4d5d-9885-0a26a9e70ddf","ios":"levelo://app?vid=1c77babb-2656-4d5d-9885-0a26a9e70ddf"},"vehicle_type_id":"4","last_reported":1701864824,"current_range_meters":19600,"station_id":"ce4bhbp2rcd13ifvqesg","pricing_plan_id":"free"},{"bike_id":"1181ec05-ea3d-4ee5-b6b4-2a0305f2a3ef","system_id":"levelo_inurba_marseille","lat":43.292311,"lon":5.360731,"is_reserved":false,"is_disabled":false,"rental_uris":{"android":"levelo://app?vid=1181ec05-ea3d-4ee5-b6b4-2a0305f2a3ef","ios":"levelo://app?vid=1181ec05-ea3d-4ee5-b6b4-2a0305f2a3ef"},"vehicle_type_id":"4","last_reported":1701864824,"current_range_meters":4400,"station_id":"ce4bhbh2rcd13ifvqeqg","pricing_plan_id":"free"},{"bike_id":"6e6e087d-8bc3-4a0a-b602-30427f75ea44","system_id":"levelo_inurba_marseille","lat":43.300878,"lon":5.390835,"is_reserved":false,"is_disabled":false,"rental_uris":{"android":"levelo://app?vid=6e6e087d-8bc3-4a0a-b602-30427f75ea44","ios":"levelo://app?vid=6e6e087d-8bc3-4a0a-b602-30427f75ea44"},"vehicle_type_id":"4","last_reported":1701864824,"current_range_meters":16800,"station_id":"ce4bh192rcd13ifvqdb0","pricing_plan_id":"free"},{"bike_id":"adc51aa0-2d0f-48a8-bff0-d4765267fc7c","system_id":"levelo_inurba_marseille","lat":43.291671,"lon":5.371575,"is_reserved":false,"is_disabled":false,"rental_uris":{"android":"levelo://app?vid=adc51aa0-2d0f-48a8-bff0-d4765267fc7c","ios":"levelo://app?vid=adc51aa0-2d0f-48a8-bff0-d4765267fc7c"},"vehicle_type_id":"4","last_reported":1701864824,"current_range_meters":19200,"station_id":"ce4bha92rcd13ifvqeh0","pricing_plan_id":"free"},{"bike_id":"317d3531-936f-4a52-a7cd-e1f0a4364c88","system_id":"levelo_inurba_marseille","lat":43.309047,"lon":5.396551,"is_reserved":false,"is_disabled":false,"rental_uris":{"android":"levelo://app?vid=317d3531-936f-4a52-a7cd-e1f0a4364c88","ios":"levelo://app?vid=317d3531-936f-4a52-a7cd-e1f0a4364c88"},"vehicle_type_id":"4","last_reported":1701864824,"current_range_meters":21200,"station_id":"ce4bh012rcd13ifvqcv0","pricing_plan_id":"free"},{"bike_id":"b99812dd-d959-4a38-a905-a36814313d90","system_id":"levelo_inurba_marseille","lat":43.31327,"lon":5.3969,"is_reserved":false,"is_disabled":false,"rental_uris":{"android":"levelo://app?vid=b99812dd-d959-4a38-a905-a36814313d90","ios":"levelo://app?vid=b99812dd-d959-4a38-a905-a36814313d90"},"vehicle_type_id":"4","last_reported":1701864824,"current_range_meters":11200,"station_id":"ce4bgvp2rcd13ifvqcu0","pricing_plan_id":"free"},{"bike_id":"2d76088b-aa40-4c90-b7ea-f80efe14e984","system_id":"levelo_inurba_marseille","lat":43.309038,"lon":5.396546,"is_reserved":false,"is_disabled":false,"rental_uris":{"android":"levelo://app?vid=2d76088b-aa40-4c90-b7ea-f80efe14e984","ios":"levelo://app?vid=2d76088b-aa40-4c90-b7ea-f80efe14e984"},"vehicle_type_id":"4","last_reported":1701864824,"current_range_meters":18800,"station_id":"ce4bh012rcd13ifvqcv0","pricing_plan_id":"free"},{"bike_id":"8a06681b-f28b-4c52-989d-e79deade6617","system_id":"levelo_inurba_marseille","lat":43.309038,"lon":5.396546,"is_reserved":false,"is_disabled":false,"rental_uris":{"android":"levelo://app?vid=8a06681b-f28b-4c52-989d-e79deade6617","ios":"levelo://app?vid=8a06681b-f28b-4c52-989d-e79deade6617"},"vehicle_type_id":"4","last_reported":1701864824,"current_range_meters":23200,"station_id":"ce4bh012rcd13ifvqcv0","pricing_plan_id":"free"},{"bike_id":"bfb79337-0009-4ad1-a34f-42eab90ff9ed","system_id":"levelo_inurba_marseille","lat":43.29529,"lon":5.385581,"is_reserved":false,"is_disabled":false,"rental_uris":{"android":"levelo://app?vid=bfb79337-0009-4ad1-a34f-42eab90ff9ed","ios":"levelo://app?vid=bfb79337-0009-4ad1-a34f-42eab90ff9ed"},"vehicle_type_id":"4","last_reported":1701864824,"current_range_meters":20400,"station_id":"ce4bgih2rcd13ifvqba0","pricing_plan_id":"free"},{"bike_id":"f7a1c747-09b3-405f-8d91-038e51bdf263","system_id":"levelo_inurba_marseille","lat":43.290779,"lon":5.371482,"is_reserved":false,"is_disabled":false,"rental_uris":{"android":"levelo://app?vid=f7a1c747-09b3-405f-8d91-038e51bdf263","ios":"levelo://app?vid=f7a1c747-09b3-405f-8d91-038e51bdf263"},"vehicle_type_id":"4","last_reported":1701864824,"current_range_meters":6000,"station_id":"ce4bh5p2rcd13ifvqe4g","pricing_plan_id":"free"},{"bike_id":"8c633d77-909b-47dc-b036-e1679d45f068","system_id":"levelo_inurba_marseille","lat":43.290779,"lon":5.371482,"is_reserved":false,"is_disabled":false,"rental_uris":{"android":"levelo://app?vid=8c633d77-909b-47dc-b036-e1679d45f068","ios":"levelo://app?vid=8c633d77-909b-47dc-b036-e1679d45f068"},"vehicle_type_id":"4","last_reported":1701864824,"current_range_meters":20800,"station_id":"ce4bh5p2rcd13ifvqe4g","pricing_plan_id":"free"},{"bike_id":"582caeef-f467-4c3a-840c-1de49282bea8","system_id":"levelo_inurba_marseille","lat":43.302008,"lon":5.394694,"is_reserved":false,"is_disabled":false,"rental_uris":{"android":"levelo://app?vid=582caeef-f467-4c3a-840c-1de49282bea8","ios":"levelo://app?vid=582caeef-f467-4c3a-840c-1de49282bea8"},"vehicle_type_id":"4","last_reported":1701864824,"current_range_meters":22000,"station_id":"ce4bh0p2rcd13ifvqd70","pricing_plan_id":"free"},{"bike_id":"8c3e8408-089f-4fa7-a070-4d1b0fcf6f9e","system_id":"levelo_inurba_marseille","lat":43.289184,"lon":5.366408,"is_reserved":false,"is_disabled":false,"rental_uris":{"android":"levelo://app?vid=8c3e8408-089f-4fa7-a070-4d1b0fcf6f9e","ios":"levelo://app?vid=8c3e8408-089f-4fa7-a070-4d1b0fcf6f9e"},"vehicle_type_id":"4","last_reported":1701864824,"current_range_meters":14400,"station_id":"ce4bhap2rcd13ifvqek0","pricing_plan_id":"free"},{"bike_id":"ff3cefe0-a04b-48ec-b57f-8148b92af063","system_id":"levelo_inurba_marseille","lat":43.289184,"lon":5.366408,"is_reserved":false,"is_disabled":false,"rental_uris":{"android":"levelo://app?vid=ff3cefe0-a04b-48ec-b57f-8148b92af063","ios":"levelo://app?vid=ff3cefe0-a04b-48ec-b57f-8148b92af063"},"vehicle_type_id":"4","last_reported":1701864824,"current_range_meters":12800,"station_id":"ce4bhap2rcd13ifvqek0","pricing_plan_id":"free"},{"bike_id":"88985a38-0aad-48e1-bded-22c4e8a29c66","system_id":"levelo_inurba_marseille","lat":43.289184,"lon":5.366408,"is_reserved":false,"is_disabled":false,"rental_uris":{"android":"levelo://app?vid=88985a38-0aad-48e1-bded-22c4e8a29c66","ios":"levelo://app?vid=88985a38-0aad-48e1-bded-22c4e8a29c66"},"vehicle_type_id":"4","last_reported":1701864824,"current_range_meters":28000,"station_id":"ce4bhap2rcd13ifvqek0","pricing_plan_id":"free"},{"bike_id":"3c39fac0-e002-4db2-9b6f-84132828be32","system_id":"levelo_inurba_marseille","lat":43.294162,"lon":5.386292,"is_reserved":false,"is_disabled":false,"rental_uris":{"android":"levelo://app?vid=3c39fac0-e002-4db2-9b6f-84132828be32","ios":"levelo://app?vid=3c39fac0-e002-4db2-9b6f-84132828be32"},"vehicle_type_id":"4","last_reported":1701864824,"current_range_meters":26800,"station_id":"ce4bh2h2rcd13ifvqdh0","pricing_plan_id":"free"},{"bike_id":"a02a1b20-1fb1-4951-988a-77389649024d","system_id":"levelo_inurba_marseille","lat":43.289259,"lon":5.366364,"is_reserved":false,"is_disabled":false,"rental_uris":{"android":"levelo://app?vid=a02a1b20-1fb1-4951-988a-77389649024d","ios":"levelo://app?vid=a02a1b20-1fb1-4951-988a-77389649024d"},"vehicle_type_id":"4","last_reported":1701864824,"current_range_meters":23600,"station_id":"","pricing_plan_id":"free"},{"bike_id":"228e0dda-db34-4c37-bb27-1af2f977bb1d","system_id":"levelo_inurba_marseille","lat":43.292642,"lon":5.384254,"is_reserved":false,"is_disabled":false,"rental_uris":{"android":"levelo://app?vid=228e0dda-db34-4c37-bb27-1af2f977bb1d","ios":"levelo://app?vid=228e0dda-db34-4c37-bb27-1af2f977bb1d"},"vehicle_type_id":"4","last_reported":1701864824,"current_range_meters":10000,"station_id":"ce4bh692rcd13ifvqea0","pricing_plan_id":"free"},{"bike_id":"fd42f959-6e54-41f9-b7eb-b7ab84a07ab6","system_id":"levelo_inurba_marseille","lat":43.330442,"lon":5.389148,"is_reserved":false,"is_disabled":false,"rental_uris":{"android":"levelo://app?vid=fd42f959-6e54-41f9-b7eb-b7ab84a07ab6","ios":"levelo://app?vid=fd42f959-6e54-41f9-b7eb-b7ab84a07ab6"},"vehicle_type_id":"4","last_reported":1701864824,"current_range_meters":13600,"station_id":"ce4bhr92rcd13ifvqhrg","pricing_plan_id":"free"},{"bike_id":"f55099cb-02d1-4d51-abb4-0573e5473199","system_id":"levelo_inurba_marseille","lat":43.29007,"lon":5.35618,"is_reserved":false,"is_disabled":false,"rental_uris":{"android":"levelo://app?vid=f55099cb-02d1-4d51-abb4-0573e5473199","ios":"levelo://app?vid=f55099cb-02d1-4d51-abb4-0573e5473199"},"vehicle_type_id":"4","last_reported":1701864824,"current_range_meters":26800,"station_id":"ce4bhb92rcd13ifvqen0","pricing_plan_id":"free"},{"bike_id":"dc743834-0744-49da-a7b6-1d70a7df3514","system_id":"levelo_inurba_marseille","lat":43.29008,"lon":5.35613,"is_reserved":false,"is_disabled":false,"rental_uris":{"android":"levelo://app?vid=dc743834-0744-49da-a7b6-1d70a7df3514","ios":"levelo://app?vid=dc743834-0744-49da-a7b6-1d70a7df3514"},"vehicle_type_id":"4","last_reported":1701864824,"current_range_meters":25200,"station_id":"ce4bhb92rcd13ifvqen0","pricing_plan_id":"free"},{"bike_id":"41264422-244a-4ee3-804a-0e79117f4bec","system_id":"levelo_inurba_marseille","lat":43.33043,"lon":5.3892,"is_reserved":false,"is_disabled":false,"rental_uris":{"android":"levelo://app?vid=41264422-244a-4ee3-804a-0e79117f4bec","ios":"levelo://app?vid=41264422-244a-4ee3-804a-0e79117f4bec"},"vehicle_type_id":"4","last_reported":1701864824,"current_range_meters":14800,"station_id":"ce4bhr92rcd13ifvqhrg","pricing_plan_id":"free"},{"bike_id":"bfc84fba-fd9c-4885-b230-77c6b556f3fa","system_id":"levelo_inurba_marseille","lat":43.33034,"lon":5.38936,"is_reserved":false,"is_disabled":false,"rental_uris":{"android":"levelo://app?vid=bfc84fba-fd9c-4885-b230-77c6b556f3fa","ios":"levelo://app?vid=bfc84fba-fd9c-4885-b230-77c6b556f3fa"},"vehicle_type_id":"4","last_reported":1701864824,"current_range_meters":27600,"station_id":"ce4bhr92rcd13ifvqhrg","pricing_plan_id":"free"},{"bike_id":"9cee2875-0d53-4f7f-be49-1e7cae8d92ea","system_id":"levelo_inurba_marseille","lat":43.29005,"lon":5.35614,"is_reserved":false,"is_disabled":false,"rental_uris":{"android":"levelo://app?vid=9cee2875-0d53-4f7f-be49-1e7cae8d92ea","ios":"levelo://app?vid=9cee2875-0d53-4f7f-be49-1e7cae8d92ea"},"vehicle_type_id":"4","last_reported":1701864824,"current_range_meters":25600,"station_id":"ce4bhb92rcd13ifvqen0","pricing_plan_id":"free"},{"bike_id":"bd57a0ff-608b-4e17-bef2-8d55e2235fbf","system_id":"levelo_inurba_marseille","lat":43.33045,"lon":5.38923,"is_reserved":false,"is_disabled":false,"rental_uris":{"android":"levelo://app?vid=bd57a0ff-608b-4e17-bef2-8d55e2235fbf","ios":"levelo://app?vid=bd57a0ff-608b-4e17-bef2-8d55e2235fbf"},"vehicle_type_id":"4","last_reported":1701864824,"current_range_meters":14000,"station_id":"ce4bhr92rcd13ifvqhrg","pricing_plan_id":"free"},{"bike_id":"0fd93b5b-9680-40e9-87c3-f4b35878e5d4","system_id":"levelo_inurba_marseille","lat":43.290104,"lon":5.356111,"is_reserved":false,"is_disabled":false,"rental_uris":{"android":"levelo://app?vid=0fd93b5b-9680-40e9-87c3-f4b35878e5d4","ios":"levelo://app?vid=0fd93b5b-9680-40e9-87c3-f4b35878e5d4"},"vehicle_type_id":"4","last_reported":1701864824,"current_range_meters":31200,"station_id":"ce4bhb92rcd13ifvqen0","pricing_plan_id":"free"},{"bike_id":"9143d033-4478-4f2b-ae6b-ceecb1aeb694","system_id":"levelo_inurba_marseille","lat":43.330442,"lon":5.389148,"is_reserved":false,"is_disabled":false,"rental_uris":{"android":"levelo://app?vid=9143d033-4478-4f2b-ae6b-ceecb1aeb694","ios":"levelo://app?vid=9143d033-4478-4f2b-ae6b-ceecb1aeb694"},"vehicle_type_id":"4","last_reported":1701864824,"current_range_meters":25200,"station_id":"ce4bhr92rcd13ifvqhrg","pricing_plan_id":"free"},{"bike_id":"ad63439f-a5b2-4555-90bf-4979408d7e50","system_id":"levelo_inurba_marseille","lat":43.2901,"lon":5.381269,"is_reserved":false,"is_disabled":false,"rental_uris":{"android":"levelo://app?vid=ad63439f-a5b2-4555-90bf-4979408d7e50","ios":"levelo://app?vid=ad63439f-a5b2-4555-90bf-4979408d7e50"},"vehicle_type_id":"4","last_reported":1701864824,"current_range_meters":26400,"station_id":"ce4bh4p2rcd13ifvqe1g","pricing_plan_id":"free"},{"bike_id":"66e70398-649c-4272-91b8-37186416e93a","system_id":"levelo_inurba_marseille","lat":43.31286,"lon":5.40173,"is_reserved":false,"is_disabled":false,"rental_uris":{"android":"levelo://app?vid=66e70398-649c-4272-91b8-37186416e93a","ios":"levelo://app?vid=66e70398-649c-4272-91b8-37186416e93a"},"vehicle_type_id":"4","last_reported":1701864824,"current_range_meters":14800,"station_id":"","pricing_plan_id":"free"},{"bike_id":"822605d2-7494-4f1f-8e85-7b21a1e83420","system_id":"levelo_inurba_marseille","lat":43.337458,"lon":5.374723,"is_reserved":false,"is_disabled":false,"rental_uris":{"android":"levelo://app?vid=822605d2-7494-4f1f-8e85-7b21a1e83420","ios":"levelo://app?vid=822605d2-7494-4f1f-8e85-7b21a1e83420"},"vehicle_type_id":"4","last_reported":1701864824,"current_range_meters":24000,"station_id":"","pricing_plan_id":"free"},{"bike_id":"a2f3e256-085a-458b-b440-f803e179fe6f","system_id":"levelo_inurba_marseille","lat":43.31282,"lon":5.40179,"is_reserved":false,"is_disabled":false,"rental_uris":{"android":"levelo://app?vid=a2f3e256-085a-458b-b440-f803e179fe6f","ios":"levelo://app?vid=a2f3e256-085a-458b-b440-f803e179fe6f"},"vehicle_type_id":"4","last_reported":1701864824,"current_range_meters":20000,"station_id":"ce4bh092rcd13ifvqd30","pricing_plan_id":"free"},{"bike_id":"e3ac798c-6343-43ea-9327-13ff9d258c8c","system_id":"levelo_inurba_marseille","lat":43.337464,"lon":5.374801,"is_reserved":false,"is_disabled":false,"rental_uris":{"android":"levelo://app?vid=e3ac798c-6343-43ea-9327-13ff9d258c8c","ios":"levelo://app?vid=e3ac798c-6343-43ea-9327-13ff9d258c8c"},"vehicle_type_id":"4","last_reported":1701864824,"current_range_meters":30400,"station_id":"","pricing_plan_id":"free"},{"bike_id":"c1dbbc09-0034-45ec-8bd0-52d9f84cbcd2","system_id":"levelo_inurba_marseille","lat":43.337515,"lon":5.374499,"is_reserved":false,"is_disabled":false,"rental_uris":{"android":"levelo://app?vid=c1dbbc09-0034-45ec-8bd0-52d9f84cbcd2","ios":"levelo://app?vid=c1dbbc09-0034-45ec-8bd0-52d9f84cbcd2"},"vehicle_type_id":"4","last_reported":1701864824,"current_range_meters":29600,"station_id":"","pricing_plan_id":"free"},{"bike_id":"3453df02-4887-4b0e-aba0-d9d0285c8077","system_id":"levelo_inurba_marseille","lat":43.306412,"lon":5.401035,"is_reserved":false,"is_disabled":false,"rental_uris":{"android":"levelo://app?vid=3453df02-4887-4b0e-aba0-d9d0285c8077","ios":"levelo://app?vid=3453df02-4887-4b0e-aba0-d9d0285c8077"},"vehicle_type_id":"4","last_reported":1701864824,"current_range_meters":5600,"station_id":"ce4bh112rcd13ifvqda0","pricing_plan_id":"free"},{"bike_id":"44c1b1b2-0973-4870-b46d-f2780c9c18c7","system_id":"levelo_inurba_marseille","lat":43.33758,"lon":5.37457,"is_reserved":false,"is_disabled":false,"rental_uris":{"android":"levelo://app?vid=44c1b1b2-0973-4870-b46d-f2780c9c18c7","ios":"levelo://app?vid=44c1b1b2-0973-4870-b46d-f2780c9c18c7"},"vehicle_type_id":"4","last_reported":1701864824,"current_range_meters":22400,"station_id":"","pricing_plan_id":"free"},{"bike_id":"c7696395-4b6d-47c6-ba5e-ed97d58bdf6e","system_id":"levelo_inurba_marseille","lat":43.337579,"lon":5.374603,"is_reserved":false,"is_disabled":false,"rental_uris":{"android":"levelo://app?vid=c7696395-4b6d-47c6-ba5e-ed97d58bdf6e","ios":"levelo://app?vid=c7696395-4b6d-47c6-ba5e-ed97d58bdf6e"},"vehicle_type_id":"4","last_reported":1701864824,"current_range_meters":28400,"station_id":"","pricing_plan_id":"free"},{"bike_id":"c414c01b-a2f8-498a-b878-2b9e16cb8f02","system_id":"levelo_inurba_marseille","lat":43.337634,"lon":5.374488,"is_reserved":false,"is_disabled":false,"rental_uris":{"android":"levelo://app?vid=c414c01b-a2f8-498a-b878-2b9e16cb8f02","ios":"levelo://app?vid=c414c01b-a2f8-498a-b878-2b9e16cb8f02"},"vehicle_type_id":"4","last_reported":1701864824,"current_range_meters":29600,"station_id":"","pricing_plan_id":"free"},{"bike_id":"e658f28b-b7c7-45e4-8c16-61adba012dcb","system_id":"levelo_inurba_marseille","lat":43.33758,"lon":5.37484,"is_reserved":false,"is_disabled":false,"rental_uris":{"android":"levelo://app?vid=e658f28b-b7c7-45e4-8c16-61adba012dcb","ios":"levelo://app?vid=e658f28b-b7c7-45e4-8c16-61adba012dcb"},"vehicle_type_id":"4","last_reported":1701864824,"current_range_meters":31200,"station_id":"","pricing_plan_id":"free"},{"bike_id":"c0925858-207f-4b0b-a969-d3c39c8c47b8","system_id":"levelo_inurba_marseille","lat":43.296263,"lon":5.40601,"is_reserved":false,"is_disabled":false,"rental_uris":{"android":"levelo://app?vid=c0925858-207f-4b0b-a969-d3c39c8c47b8","ios":"levelo://app?vid=c0925858-207f-4b0b-a969-d3c39c8c47b8"},"vehicle_type_id":"4","last_reported":1701864824,"current_range_meters":16400,"station_id":"ce4bh0h2rcd13ifvqd60","pricing_plan_id":"free"},{"bike_id":"eb88b65a-4926-4455-834d-443c97fe5cad","system_id":"levelo_inurba_marseille","lat":43.286591,"lon":5.363346,"is_reserved":false,"is_disabled":false,"rental_uris":{"android":"levelo://app?vid=eb88b65a-4926-4455-834d-443c97fe5cad","ios":"levelo://app?vid=eb88b65a-4926-4455-834d-443c97fe5cad"},"vehicle_type_id":"4","last_reported":1701864824,"current_range_meters":3600,"station_id":"ce4bhah2rcd13ifvqej0","pricing_plan_id":"free"},{"bike_id":"06a03168-1721-4c81-8d2b-47af61a70600","system_id":"levelo_inurba_marseille","lat":43.286039,"lon":5.370679,"is_reserved":false,"is_disabled":false,"rental_uris":{"android":"levelo://app?vid=06a03168-1721-4c81-8d2b-47af61a70600","ios":"levelo://app?vid=06a03168-1721-4c81-8d2b-47af61a70600"},"vehicle_type_id":"4","last_reported":1701864824,"current_range_meters":7600,"station_id":"ce4bht12rcd13ifvqi60","pricing_plan_id":"free"},{"bike_id":"3f98acfa-dbbf-440f-93f4-61291ccc49c8","system_id":"levelo_inurba_marseille","lat":43.291994,"lon":5.392907,"is_reserved":false,"is_disabled":false,"rental_uris":{"android":"levelo://app?vid=3f98acfa-dbbf-440f-93f4-61291ccc49c8","ios":"levelo://app?vid=3f98acfa-dbbf-440f-93f4-61291ccc49c8"},"vehicle_type_id":"4","last_reported":1701864824,"current_range_meters":18000,"station_id":"ce4bh192rcd13ifvqdd0","pricing_plan_id":"free"},{"bike_id":"bb0e51f4-fa9d-4cfa-b7c3-c34bf40c518b","system_id":"levelo_inurba_marseille","lat":43.284538,"lon":5.358657,"is_reserved":false,"is_disabled":false,"rental_uris":{"android":"levelo://app?vid=bb0e51f4-fa9d-4cfa-b7c3-c34bf40c518b","ios":"levelo://app?vid=bb0e51f4-fa9d-4cfa-b7c3-c34bf40c518b"},"vehicle_type_id":"4","last_reported":1701864824,"current_range_meters":11600,"station_id":"ce4bhah2rcd13ifvqei0","pricing_plan_id":"free"},{"bike_id":"b1784b1e-b2c5-4b07-92b3-204281bc50ef","system_id":"levelo_inurba_marseille","lat":43.294314,"lon":5.397498,"is_reserved":false,"is_disabled":false,"rental_uris":{"android":"levelo://app?vid=b1784b1e-b2c5-4b07-92b3-204281bc50ef","ios":"levelo://app?vid=b1784b1e-b2c5-4b07-92b3-204281bc50ef"},"vehicle_type_id":"4","last_reported":1701864824,"current_range_meters":27600,"station_id":"ce4bh3h2rcd13ifvqdo0","pricing_plan_id":"free"},{"bike_id":"bee7c9f1-36fe-4cd6-b628-8d5dcaa6b001","system_id":"levelo_inurba_marseille","lat":43.285848,"lon":5.350787,"is_reserved":false,"is_disabled":false,"rental_uris":{"android":"levelo://app?vid=bee7c9f1-36fe-4cd6-b628-8d5dcaa6b001","ios":"levelo://app?vid=bee7c9f1-36fe-4cd6-b628-8d5dcaa6b001"},"vehicle_type_id":"4","last_reported":1701864824,"current_range_meters":28400,"station_id":"ce4bhch2rcd13ifvqeug","pricing_plan_id":"free"},{"bike_id":"ab111484-c208-4087-aa3d-12d1d6315cad","system_id":"levelo_inurba_marseille","lat":43.286114,"lon":5.35104,"is_reserved":false,"is_disabled":false,"rental_uris":{"android":"levelo://app?vid=ab111484-c208-4087-aa3d-12d1d6315cad","ios":"levelo://app?vid=ab111484-c208-4087-aa3d-12d1d6315cad"},"vehicle_type_id":"4","last_reported":1701864824,"current_range_meters":24000,"station_id":"ce4bhch2rcd13ifvqeug","pricing_plan_id":"free"},{"bike_id":"2d5e5d1e-3204-4af6-864a-6ea79d6e5ebd","system_id":"levelo_inurba_marseille","lat":43.283998,"lon":5.375062,"is_reserved":false,"is_disabled":false,"rental_uris":{"android":"levelo://app?vid=2d5e5d1e-3204-4af6-864a-6ea79d6e5ebd","ios":"levelo://app?vid=2d5e5d1e-3204-4af6-864a-6ea79d6e5ebd"},"vehicle_type_id":"4","last_reported":1701864824,"current_range_meters":0,"station_id":"ce4bh412rcd13ifvqds0","pricing_plan_id":"free"},{"bike_id":"75e50c8e-cea5-4f83-bbc5-7e90f01a2b46","system_id":"levelo_inurba_marseille","lat":43.295713,"lon":5.399639,"is_reserved":false,"is_disabled":false,"rental_uris":{"android":"levelo://app?vid=75e50c8e-cea5-4f83-bbc5-7e90f01a2b46","ios":"levelo://app?vid=75e50c8e-cea5-4f83-bbc5-7e90f01a2b46"},"vehicle_type_id":"4","last_reported":1701864824,"current_range_meters":24400,"station_id":"ce4bh312rcd13ifvqdj0","pricing_plan_id":"free"},{"bike_id":"7037da29-efaa-459c-8f43-a749f887713b","system_id":"levelo_inurba_marseille","lat":43.286595,"lon":5.386795,"is_reserved":false,"is_disabled":false,"rental_uris":{"android":"levelo://app?vid=7037da29-efaa-459c-8f43-a749f887713b","ios":"levelo://app?vid=7037da29-efaa-459c-8f43-a749f887713b"},"vehicle_type_id":"4","last_reported":1701864824,"current_range_meters":29200,"station_id":"ce4bh492rcd13ifvqdug","pricing_plan_id":"free"},{"bike_id":"ec42ce68-1ad3-48cd-9e1e-4c2199a2bfbc","system_id":"levelo_inurba_marseille","lat":43.337168,"lon":5.391825,"is_reserved":false,"is_disabled":false,"rental_uris":{"android":"levelo://app?vid=ec42ce68-1ad3-48cd-9e1e-4c2199a2bfbc","ios":"levelo://app?vid=ec42ce68-1ad3-48cd-9e1e-4c2199a2bfbc"},"vehicle_type_id":"4","last_reported":1701864824,"current_range_meters":29600,"station_id":"ce4bhr92rcd13ifvqhsg","pricing_plan_id":"free"},{"bike_id":"47f70068-fc8c-4884-98bc-083d8dad1d10","system_id":"levelo_inurba_marseille","lat":43.323464,"lon":5.406297,"is_reserved":false,"is_disabled":false,"rental_uris":{"android":"levelo://app?vid=47f70068-fc8c-4884-98bc-083d8dad1d10","ios":"levelo://app?vid=47f70068-fc8c-4884-98bc-083d8dad1d10"},"vehicle_type_id":"4","last_reported":1701864824,"current_range_meters":16000,"station_id":"ce4bhq92rcd13ifvqhjg","pricing_plan_id":"free"},{"bike_id":"e78ed1da-de0e-41fa-b418-e08a16765915","system_id":"levelo_inurba_marseille","lat":43.33717,"lon":5.391857,"is_reserved":false,"is_disabled":false,"rental_uris":{"android":"levelo://app?vid=e78ed1da-de0e-41fa-b418-e08a16765915","ios":"levelo://app?vid=e78ed1da-de0e-41fa-b418-e08a16765915"},"vehicle_type_id":"4","last_reported":1701864824,"current_range_meters":17600,"station_id":"ce4bhr92rcd13ifvqhsg","pricing_plan_id":"free"},{"bike_id":"4d67eda1-7426-4d49-8e7c-3dc228a5b2fe","system_id":"levelo_inurba_marseille","lat":43.284219,"lon":5.3497,"is_reserved":false,"is_disabled":false,"rental_uris":{"android":"levelo://app?vid=4d67eda1-7426-4d49-8e7c-3dc228a5b2fe","ios":"levelo://app?vid=4d67eda1-7426-4d49-8e7c-3dc228a5b2fe"},"vehicle_type_id":"4","last_reported":1701864824,"current_range_meters":23600,"station_id":"ce4bhbh2rcd13ifvqepg","pricing_plan_id":"free"},{"bike_id":"3e4bfcef-91a5-495f-847c-d552ce548408","system_id":"levelo_inurba_marseille","lat":43.283498,"lon":5.380948,"is_reserved":false,"is_disabled":false,"rental_uris":{"android":"levelo://app?vid=3e4bfcef-91a5-495f-847c-d552ce548408","ios":"levelo://app?vid=3e4bfcef-91a5-495f-847c-d552ce548408"},"vehicle_type_id":"4","last_reported":1701864824,"current_range_meters":5200,"station_id":"ce4bh412rcd13ifvqdr0","pricing_plan_id":"free"},{"bike_id":"56d68a88-3f10-45e4-b700-8ee72c347c0b","system_id":"levelo_inurba_marseille","lat":43.289363,"lon":5.396322,"is_reserved":false,"is_disabled":false,"rental_uris":{"android":"levelo://app?vid=56d68a88-3f10-45e4-b700-8ee72c347c0b","ios":"levelo://app?vid=56d68a88-3f10-45e4-b700-8ee72c347c0b"},"vehicle_type_id":"4","last_reported":1701864824,"current_range_meters":29200,"station_id":"ce4bh3h2rcd13ifvqdn0","pricing_plan_id":"free"},{"bike_id":"8f40dca5-72ef-4aa9-8ea6-8ba9f65862e0","system_id":"levelo_inurba_marseille","lat":43.2929,"lon":5.40131,"is_reserved":false,"is_disabled":false,"rental_uris":{"android":"levelo://app?vid=8f40dca5-72ef-4aa9-8ea6-8ba9f65862e0","ios":"levelo://app?vid=8f40dca5-72ef-4aa9-8ea6-8ba9f65862e0"},"vehicle_type_id":"4","last_reported":1701864824,"current_range_meters":13600,"station_id":"ce4bh312rcd13ifvqdk0","pricing_plan_id":"free"},{"bike_id":"3bc6a5a5-36a6-41a0-a55d-0fedbd4ea51d","system_id":"levelo_inurba_marseille","lat":43.28274,"lon":5.35083,"is_reserved":false,"is_disabled":false,"rental_uris":{"android":"levelo://app?vid=3bc6a5a5-36a6-41a0-a55d-0fedbd4ea51d","ios":"levelo://app?vid=3bc6a5a5-36a6-41a0-a55d-0fedbd4ea51d"},"vehicle_type_id":"4","last_reported":1701864824,"current_range_meters":26800,"station_id":"ce4bhbp2rcd13ifvqerg","pricing_plan_id":"free"},{"bike_id":"6fef5b55-7352-447e-adeb-747c11f7785d","system_id":"levelo_inurba_marseille","lat":43.28039,"lon":5.369297,"is_reserved":false,"is_disabled":false,"rental_uris":{"android":"levelo://app?vid=6fef5b55-7352-447e-adeb-747c11f7785d","ios":"levelo://app?vid=6fef5b55-7352-447e-adeb-747c11f7785d"},"vehicle_type_id":"4","last_reported":1701864824,"current_range_meters":19600,"station_id":"ce4bha12rcd13ifvqef0","pricing_plan_id":"free"},{"bike_id":"3418f12b-14ec-4b39-b11b-7176dbdcbe57","system_id":"levelo_inurba_marseille","lat":43.282754,"lon":5.350519,"is_reserved":false,"is_disabled":false,"rental_uris":{"android":"levelo://app?vid=3418f12b-14ec-4b39-b11b-7176dbdcbe57","ios":"levelo://app?vid=3418f12b-14ec-4b39-b11b-7176dbdcbe57"},"vehicle_type_id":"4","last_reported":1701864824,"current_range_meters":20400,"station_id":"ce4bhbp2rcd13ifvqerg","pricing_plan_id":"free"},{"bike_id":"884f9ad5-44ec-4dea-9df6-dc09800412ef","system_id":"levelo_inurba_marseille","lat":43.282754,"lon":5.350519,"is_reserved":false,"is_disabled":false,"rental_uris":{"android":"levelo://app?vid=884f9ad5-44ec-4dea-9df6-dc09800412ef","ios":"levelo://app?vid=884f9ad5-44ec-4dea-9df6-dc09800412ef"},"vehicle_type_id":"4","last_reported":1701864824,"current_range_meters":31200,"station_id":"ce4bhbp2rcd13ifvqerg","pricing_plan_id":"free"},{"bike_id":"f811cd38-647b-4797-a386-45c34718913d","system_id":"levelo_inurba_marseille","lat":43.280382,"lon":5.369291,"is_reserved":false,"is_disabled":false,"rental_uris":{"android":"levelo://app?vid=f811cd38-647b-4797-a386-45c34718913d","ios":"levelo://app?vid=f811cd38-647b-4797-a386-45c34718913d"},"vehicle_type_id":"4","last_reported":1701864824,"current_range_meters":17600,"station_id":"ce4bha12rcd13ifvqef0","pricing_plan_id":"free"},{"bike_id":"c7708d6a-c870-42a3-8530-1edd7dd96bec","system_id":"levelo_inurba_marseille","lat":43.281044,"lon":5.378308,"is_reserved":false,"is_disabled":false,"rental_uris":{"android":"levelo://app?vid=c7708d6a-c870-42a3-8530-1edd7dd96bec","ios":"levelo://app?vid=c7708d6a-c870-42a3-8530-1edd7dd96bec"},"vehicle_type_id":"4","last_reported":1701864824,"current_range_meters":5200,"station_id":"ce4bha12rcd13ifvqee0","pricing_plan_id":"free"},{"bike_id":"e869dea5-e77b-4aa8-91ef-5b32ff9e1eec","system_id":"levelo_inurba_marseille","lat":43.281044,"lon":5.378308,"is_reserved":false,"is_disabled":false,"rental_uris":{"android":"levelo://app?vid=e869dea5-e77b-4aa8-91ef-5b32ff9e1eec","ios":"levelo://app?vid=e869dea5-e77b-4aa8-91ef-5b32ff9e1eec"},"vehicle_type_id":"4","last_reported":1701864824,"current_range_meters":16000,"station_id":"ce4bha12rcd13ifvqee0","pricing_plan_id":"free"},{"bike_id":"9ef2329a-9d30-4c89-9d5b-e617efaf5914","system_id":"levelo_inurba_marseille","lat":43.281044,"lon":5.378308,"is_reserved":false,"is_disabled":false,"rental_uris":{"android":"levelo://app?vid=9ef2329a-9d30-4c89-9d5b-e617efaf5914","ios":"levelo://app?vid=9ef2329a-9d30-4c89-9d5b-e617efaf5914"},"vehicle_type_id":"4","last_reported":1701864824,"current_range_meters":4800,"station_id":"ce4bha12rcd13ifvqee0","pricing_plan_id":"free"},{"bike_id":"b3b58790-5df9-4933-b98e-5fca655c3a12","system_id":"levelo_inurba_marseille","lat":43.281044,"lon":5.378308,"is_reserved":false,"is_disabled":false,"rental_uris":{"android":"levelo://app?vid=b3b58790-5df9-4933-b98e-5fca655c3a12","ios":"levelo://app?vid=b3b58790-5df9-4933-b98e-5fca655c3a12"},"vehicle_type_id":"4","last_reported":1701864824,"current_range_meters":25200,"station_id":"ce4bha12rcd13ifvqee0","pricing_plan_id":"free"},{"bike_id":"308ecbaa-b835-4044-a39d-ddf60d50a1dc","system_id":"levelo_inurba_marseille","lat":43.296263,"lon":5.40601,"is_reserved":false,"is_disabled":false,"rental_uris":{"android":"levelo://app?vid=308ecbaa-b835-4044-a39d-ddf60d50a1dc","ios":"levelo://app?vid=308ecbaa-b835-4044-a39d-ddf60d50a1dc"},"vehicle_type_id":"4","last_reported":1701864824,"current_range_meters":12000,"station_id":"ce4bh0h2rcd13ifvqd60","pricing_plan_id":"free"},{"bike_id":"f3200500-7289-46a7-aef9-d6a600b93fd3","system_id":"levelo_inurba_marseille","lat":43.281044,"lon":5.378308,"is_reserved":false,"is_disabled":false,"rental_uris":{"android":"levelo://app?vid=f3200500-7289-46a7-aef9-d6a600b93fd3","ios":"levelo://app?vid=f3200500-7289-46a7-aef9-d6a600b93fd3"},"vehicle_type_id":"4","last_reported":1701864824,"current_range_meters":21600,"station_id":"ce4bha12rcd13ifvqee0","pricing_plan_id":"free"},{"bike_id":"d837fc3e-9bd9-4c8d-9dda-c183331fccc8","system_id":"levelo_inurba_marseille","lat":43.296263,"lon":5.40601,"is_reserved":false,"is_disabled":false,"rental_uris":{"android":"levelo://app?vid=d837fc3e-9bd9-4c8d-9dda-c183331fccc8","ios":"levelo://app?vid=d837fc3e-9bd9-4c8d-9dda-c183331fccc8"},"vehicle_type_id":"4","last_reported":1701864824,"current_range_meters":0,"station_id":"ce4bh0h2rcd13ifvqd60","pricing_plan_id":"free"},{"bike_id":"cec6daa9-0552-4c5f-83c1-1a488b38c7a8","system_id":"levelo_inurba_marseille","lat":43.279087,"lon":5.380114,"is_reserved":false,"is_disabled":false,"rental_uris":{"android":"levelo://app?vid=cec6daa9-0552-4c5f-83c1-1a488b38c7a8","ios":"levelo://app?vid=cec6daa9-0552-4c5f-83c1-1a488b38c7a8"},"vehicle_type_id":"4","last_reported":1701864824,"current_range_meters":24400,"station_id":"ce4bhf92rcd13ifvqf50","pricing_plan_id":"free"},{"bike_id":"fbc0a71e-a8e0-45ed-9c78-2812e45f60e0","system_id":"levelo_inurba_marseille","lat":43.279,"lon":5.38025,"is_reserved":false,"is_disabled":false,"rental_uris":{"android":"levelo://app?vid=fbc0a71e-a8e0-45ed-9c78-2812e45f60e0","ios":"levelo://app?vid=fbc0a71e-a8e0-45ed-9c78-2812e45f60e0"},"vehicle_type_id":"4","last_reported":1701864824,"current_range_meters":14400,"station_id":"ce4bhf92rcd13ifvqf50","pricing_plan_id":"free"},{"bike_id":"623f1a6f-b734-4287-970e-381119759563","system_id":"levelo_inurba_marseille","lat":43.287154,"lon":5.399979,"is_reserved":false,"is_disabled":false,"rental_uris":{"android":"levelo://app?vid=623f1a6f-b734-4287-970e-381119759563","ios":"levelo://app?vid=623f1a6f-b734-4287-970e-381119759563"},"vehicle_type_id":"4","last_reported":1701864824,"current_range_meters":19600,"station_id":"ce4bho92rcd13ifvqh3g","pricing_plan_id":"free"},{"bike_id":"74dff095-6944-424e-ac10-68dad825ad60","system_id":"levelo_inurba_marseille","lat":43.320045,"lon":5.415046,"is_reserved":false,"is_disabled":false,"rental_uris":{"android":"levelo://app?vid=74dff095-6944-424e-ac10-68dad825ad60","ios":"levelo://app?vid=74dff095-6944-424e-ac10-68dad825ad60"},"vehicle_type_id":"4","last_reported":1701864824,"current_range_meters":29600,"station_id":"ce4bhq92rcd13ifvqhkg","pricing_plan_id":"free"},{"bike_id":"29b87346-aacd-456d-b919-8d52707f2168","system_id":"levelo_inurba_marseille","lat":43.320045,"lon":5.415046,"is_reserved":false,"is_disabled":false,"rental_uris":{"android":"levelo://app?vid=29b87346-aacd-456d-b919-8d52707f2168","ios":"levelo://app?vid=29b87346-aacd-456d-b919-8d52707f2168"},"vehicle_type_id":"4","last_reported":1701864824,"current_range_meters":31200,"station_id":"ce4bhq92rcd13ifvqhkg","pricing_plan_id":"free"},{"bike_id":"412e119b-5f26-40ac-9cbf-3612e099d935","system_id":"levelo_inurba_marseille","lat":43.32556,"lon":5.41437,"is_reserved":false,"is_disabled":false,"rental_uris":{"android":"levelo://app?vid=412e119b-5f26-40ac-9cbf-3612e099d935","ios":"levelo://app?vid=412e119b-5f26-40ac-9cbf-3612e099d935"},"vehicle_type_id":"4","last_reported":1701864824,"current_range_meters":0,"station_id":"ce4bhq12rcd13ifvqhhg","pricing_plan_id":"free"},{"bike_id":"fef0b8e9-7cfc-44a1-9848-9ff1089b06e3","system_id":"levelo_inurba_marseille","lat":43.273129,"lon":5.390725,"is_reserved":false,"is_disabled":false,"rental_uris":{"android":"levelo://app?vid=fef0b8e9-7cfc-44a1-9848-9ff1089b06e3","ios":"levelo://app?vid=fef0b8e9-7cfc-44a1-9848-9ff1089b06e3"},"vehicle_type_id":"4","last_reported":1701864824,"current_range_meters":0,"station_id":"ce4bhgp2rcd13ifvqfe0","pricing_plan_id":"free"},{"bike_id":"ca2dcf6d-63b4-4511-bf86-dc1ad377bbd9","system_id":"levelo_inurba_marseille","lat":43.280784,"lon":5.396622,"is_reserved":false,"is_disabled":false,"rental_uris":{"android":"levelo://app?vid=ca2dcf6d-63b4-4511-bf86-dc1ad377bbd9","ios":"levelo://app?vid=ca2dcf6d-63b4-4511-bf86-dc1ad377bbd9"},"vehicle_type_id":"4","last_reported":1701864824,"current_range_meters":20400,"station_id":"ce4bho12rcd13ifvqh2g","pricing_plan_id":"free"},{"bike_id":"e089898a-6bb9-4ced-933f-93a5c94fe7a3","system_id":"levelo_inurba_marseille","lat":43.27842,"lon":5.392075,"is_reserved":false,"is_disabled":false,"rental_uris":{"android":"levelo://app?vid=e089898a-6bb9-4ced-933f-93a5c94fe7a3","ios":"levelo://app?vid=e089898a-6bb9-4ced-933f-93a5c94fe7a3"},"vehicle_type_id":"4","last_reported":1701864824,"current_range_meters":13600,"station_id":"","pricing_plan_id":"free"},{"bike_id":"c5920f92-c20a-44cc-94e9-35d938350482","system_id":"levelo_inurba_marseille","lat":43.278399,"lon":5.392139,"is_reserved":false,"is_disabled":false,"rental_uris":{"android":"levelo://app?vid=c5920f92-c20a-44cc-94e9-35d938350482","ios":"levelo://app?vid=c5920f92-c20a-44cc-94e9-35d938350482"},"vehicle_type_id":"4","last_reported":1701864824,"current_range_meters":24800,"station_id":"ce4bhjp2rcd13ifvqga0","pricing_plan_id":"free"},{"bike_id":"75a2b667-2bd6-4148-baef-780309bbc529","system_id":"levelo_inurba_marseille","lat":43.275625,"lon":5.384392,"is_reserved":false,"is_disabled":false,"rental_uris":{"android":"levelo://app?vid=75a2b667-2bd6-4148-baef-780309bbc529","ios":"levelo://app?vid=75a2b667-2bd6-4148-baef-780309bbc529"},"vehicle_type_id":"4","last_reported":1701864824,"current_range_meters":24800,"station_id":"ce4bhh92rcd13ifvqfi0","pricing_plan_id":"free"},{"bike_id":"3246fb1f-0be0-4283-bd2e-aa7baffea45d","system_id":"levelo_inurba_marseille","lat":43.275625,"lon":5.384392,"is_reserved":false,"is_disabled":false,"rental_uris":{"android":"levelo://app?vid=3246fb1f-0be0-4283-bd2e-aa7baffea45d","ios":"levelo://app?vid=3246fb1f-0be0-4283-bd2e-aa7baffea45d"},"vehicle_type_id":"4","last_reported":1701864824,"current_range_meters":21200,"station_id":"ce4bhh92rcd13ifvqfi0","pricing_plan_id":"free"},{"bike_id":"49887d6e-45bf-426f-bcf7-4f15ec2b06db","system_id":"levelo_inurba_marseille","lat":43.273609,"lon":5.362708,"is_reserved":false,"is_disabled":false,"rental_uris":{"android":"levelo://app?vid=49887d6e-45bf-426f-bcf7-4f15ec2b06db","ios":"levelo://app?vid=49887d6e-45bf-426f-bcf7-4f15ec2b06db"},"vehicle_type_id":"4","last_reported":1701864824,"current_range_meters":30000,"station_id":"ce4bhbh2rcd13ifvqeo0","pricing_plan_id":"free"},{"bike_id":"bf724215-6aec-4dc7-abf1-0e55b7e25cee","system_id":"levelo_inurba_marseille","lat":43.275625,"lon":5.384392,"is_reserved":false,"is_disabled":false,"rental_uris":{"android":"levelo://app?vid=bf724215-6aec-4dc7-abf1-0e55b7e25cee","ios":"levelo://app?vid=bf724215-6aec-4dc7-abf1-0e55b7e25cee"},"vehicle_type_id":"4","last_reported":1701864824,"current_range_meters":9200,"station_id":"ce4bhh92rcd13ifvqfi0","pricing_plan_id":"free"},{"bike_id":"c34f5cff-352e-4b5d-aa20-163a588c69f9","system_id":"levelo_inurba_marseille","lat":43.33612,"lon":5.410321,"is_reserved":false,"is_disabled":false,"rental_uris":{"android":"levelo://app?vid=c34f5cff-352e-4b5d-aa20-163a588c69f9","ios":"levelo://app?vid=c34f5cff-352e-4b5d-aa20-163a588c69f9"},"vehicle_type_id":"4","last_reported":1701864824,"current_range_meters":31600,"station_id":"ce4bhqh2rcd13ifvqhmg","pricing_plan_id":"free"},{"bike_id":"d01da6d0-51cc-4e50-b40b-3548691ee38c","system_id":"levelo_inurba_marseille","lat":43.33612,"lon":5.410321,"is_reserved":false,"is_disabled":false,"rental_uris":{"android":"levelo://app?vid=d01da6d0-51cc-4e50-b40b-3548691ee38c","ios":"levelo://app?vid=d01da6d0-51cc-4e50-b40b-3548691ee38c"},"vehicle_type_id":"4","last_reported":1701864824,"current_range_meters":31200,"station_id":"ce4bhqh2rcd13ifvqhmg","pricing_plan_id":"free"},{"bike_id":"fc097290-25ff-460b-b252-b06b7c0e7d70","system_id":"levelo_inurba_marseille","lat":43.276769,"lon":5.388787,"is_reserved":false,"is_disabled":false,"rental_uris":{"android":"levelo://app?vid=fc097290-25ff-460b-b252-b06b7c0e7d70","ios":"levelo://app?vid=fc097290-25ff-460b-b252-b06b7c0e7d70"},"vehicle_type_id":"4","last_reported":1701864824,"current_range_meters":24000,"station_id":"ce4bhi12rcd13ifvqfo0","pricing_plan_id":"free"},{"bike_id":"00dbe302-f28e-4d24-a7c4-d63e2c756374","system_id":"levelo_inurba_marseille","lat":43.33612,"lon":5.410321,"is_reserved":false,"is_disabled":false,"rental_uris":{"android":"levelo://app?vid=00dbe302-f28e-4d24-a7c4-d63e2c756374","ios":"levelo://app?vid=00dbe302-f28e-4d24-a7c4-d63e2c756374"},"vehicle_type_id":"4","last_reported":1701864824,"current_range_meters":31600,"station_id":"ce4bhqh2rcd13ifvqhmg","pricing_plan_id":"free"},{"bike_id":"7b9dd2bf-9941-4a07-b856-fc6e27580007","system_id":"levelo_inurba_marseille","lat":43.33612,"lon":5.410321,"is_reserved":false,"is_disabled":false,"rental_uris":{"android":"levelo://app?vid=7b9dd2bf-9941-4a07-b856-fc6e27580007","ios":"levelo://app?vid=7b9dd2bf-9941-4a07-b856-fc6e27580007"},"vehicle_type_id":"4","last_reported":1701864824,"current_range_meters":16000,"station_id":"ce4bhqh2rcd13ifvqhmg","pricing_plan_id":"free"},{"bike_id":"722efaa8-bc00-4069-9582-0fdf3cc4c690","system_id":"levelo_inurba_marseille","lat":43.276771,"lon":5.388799,"is_reserved":false,"is_disabled":false,"rental_uris":{"android":"levelo://app?vid=722efaa8-bc00-4069-9582-0fdf3cc4c690","ios":"levelo://app?vid=722efaa8-bc00-4069-9582-0fdf3cc4c690"},"vehicle_type_id":"4","last_reported":1701864824,"current_range_meters":28800,"station_id":"ce4bhi12rcd13ifvqfo0","pricing_plan_id":"free"},{"bike_id":"283b1518-47c4-4c7a-aece-e76435d9d17e","system_id":"levelo_inurba_marseille","lat":43.27622,"lon":5.39483,"is_reserved":false,"is_disabled":false,"rental_uris":{"android":"levelo://app?vid=283b1518-47c4-4c7a-aece-e76435d9d17e","ios":"levelo://app?vid=283b1518-47c4-4c7a-aece-e76435d9d17e"},"vehicle_type_id":"4","last_reported":1701864824,"current_range_meters":8800,"station_id":"","pricing_plan_id":"free"},{"bike_id":"48a1a1a4-e735-401c-83e7-33c2c02dc144","system_id":"levelo_inurba_marseille","lat":43.317121,"lon":5.423936,"is_reserved":false,"is_disabled":false,"rental_uris":{"android":"levelo://app?vid=48a1a1a4-e735-401c-83e7-33c2c02dc144","ios":"levelo://app?vid=48a1a1a4-e735-401c-83e7-33c2c02dc144"},"vehicle_type_id":"4","last_reported":1701864824,"current_range_meters":13200,"station_id":"ce4bhp92rcd13ifvqhbg","pricing_plan_id":"free"},{"bike_id":"cd554b92-ad32-45e7-86a0-2b9e95bac498","system_id":"levelo_inurba_marseille","lat":43.34143,"lon":5.40913,"is_reserved":false,"is_disabled":false,"rental_uris":{"android":"levelo://app?vid=cd554b92-ad32-45e7-86a0-2b9e95bac498","ios":"levelo://app?vid=cd554b92-ad32-45e7-86a0-2b9e95bac498"},"vehicle_type_id":"4","last_reported":1701864824,"current_range_meters":16800,"station_id":"ce4bhqh2rcd13ifvqhlg","pricing_plan_id":"free"},{"bike_id":"23052053-7d7f-4335-9496-4076a8780ef3","system_id":"levelo_inurba_marseille","lat":43.34145,"lon":5.40915,"is_reserved":false,"is_disabled":false,"rental_uris":{"android":"levelo://app?vid=23052053-7d7f-4335-9496-4076a8780ef3","ios":"levelo://app?vid=23052053-7d7f-4335-9496-4076a8780ef3"},"vehicle_type_id":"4","last_reported":1701864824,"current_range_meters":5600,"station_id":"ce4bhqh2rcd13ifvqhlg","pricing_plan_id":"free"},{"bike_id":"422ecc8f-7144-4d8f-b16a-0be1ac2026f0","system_id":"levelo_inurba_marseille","lat":43.27568,"lon":5.395388,"is_reserved":false,"is_disabled":false,"rental_uris":{"android":"levelo://app?vid=422ecc8f-7144-4d8f-b16a-0be1ac2026f0","ios":"levelo://app?vid=422ecc8f-7144-4d8f-b16a-0be1ac2026f0"},"vehicle_type_id":"4","last_reported":1701864824,"current_range_meters":2800,"station_id":"","pricing_plan_id":"free"},{"bike_id":"77e2df1b-d75a-48fe-a6ad-744dfbe91f1d","system_id":"levelo_inurba_marseille","lat":43.27214,"lon":5.3925,"is_reserved":false,"is_disabled":false,"rental_uris":{"android":"levelo://app?vid=77e2df1b-d75a-48fe-a6ad-744dfbe91f1d","ios":"levelo://app?vid=77e2df1b-d75a-48fe-a6ad-744dfbe91f1d"},"vehicle_type_id":"4","last_reported":1701864824,"current_range_meters":13200,"station_id":"","pricing_plan_id":"free"},{"bike_id":"45647406-cf71-44b6-9b14-81c7b0305cfc","system_id":"levelo_inurba_marseille","lat":43.269467,"lon":5.386439,"is_reserved":false,"is_disabled":false,"rental_uris":{"android":"levelo://app?vid=45647406-cf71-44b6-9b14-81c7b0305cfc","ios":"levelo://app?vid=45647406-cf71-44b6-9b14-81c7b0305cfc"},"vehicle_type_id":"4","last_reported":1701864824,"current_range_meters":20800,"station_id":"ce4bhh92rcd13ifvqfh0","pricing_plan_id":"free"},{"bike_id":"793f249f-50f7-43f2-82e4-efdf1637028a","system_id":"levelo_inurba_marseille","lat":43.269319,"lon":5.389397,"is_reserved":false,"is_disabled":false,"rental_uris":{"android":"levelo://app?vid=793f249f-50f7-43f2-82e4-efdf1637028a","ios":"levelo://app?vid=793f249f-50f7-43f2-82e4-efdf1637028a"},"vehicle_type_id":"4","last_reported":1701864824,"current_range_meters":18400,"station_id":"ce4bhhh2rcd13ifvqfl0","pricing_plan_id":"free"},{"bike_id":"ca9ee795-dc45-4cae-9c18-78f8dd52f826","system_id":"levelo_inurba_marseille","lat":43.26558,"lon":5.37281,"is_reserved":false,"is_disabled":false,"rental_uris":{"android":"levelo://app?vid=ca9ee795-dc45-4cae-9c18-78f8dd52f826","ios":"levelo://app?vid=ca9ee795-dc45-4cae-9c18-78f8dd52f826"},"vehicle_type_id":"4","last_reported":1701864824,"current_range_meters":21200,"station_id":"ce4bhg12rcd13ifvqf70","pricing_plan_id":"free"},{"bike_id":"7e94b9f8-1dd2-4290-87fb-08a8cbb353bf","system_id":"levelo_inurba_marseille","lat":43.265714,"lon":5.372891,"is_reserved":false,"is_disabled":false,"rental_uris":{"android":"levelo://app?vid=7e94b9f8-1dd2-4290-87fb-08a8cbb353bf","ios":"levelo://app?vid=7e94b9f8-1dd2-4290-87fb-08a8cbb353bf"},"vehicle_type_id":"4","last_reported":1701864824,"current_range_meters":13600,"station_id":"ce4bhg12rcd13ifvqf70","pricing_plan_id":"free"},{"bike_id":"6db05bce-35e4-4620-812a-e8f0384ec6c8","system_id":"levelo_inurba_marseille","lat":43.26547,"lon":5.37284,"is_reserved":false,"is_disabled":false,"rental_uris":{"android":"levelo://app?vid=6db05bce-35e4-4620-812a-e8f0384ec6c8","ios":"levelo://app?vid=6db05bce-35e4-4620-812a-e8f0384ec6c8"},"vehicle_type_id":"4","last_reported":1701864824,"current_range_meters":27600,"station_id":"ce4bhg12rcd13ifvqf70","pricing_plan_id":"free"},{"bike_id":"520e41c6-97ef-4a03-b730-d882672609ce","system_id":"levelo_inurba_marseille","lat":43.269467,"lon":5.386439,"is_reserved":false,"is_disabled":false,"rental_uris":{"android":"levelo://app?vid=520e41c6-97ef-4a03-b730-d882672609ce","ios":"levelo://app?vid=520e41c6-97ef-4a03-b730-d882672609ce"},"vehicle_type_id":"4","last_reported":1701864824,"current_range_meters":29200,"station_id":"ce4bhh92rcd13ifvqfh0","pricing_plan_id":"free"},{"bike_id":"04b3ff8e-7a27-43b1-a8e4-71bc020d7822","system_id":"levelo_inurba_marseille","lat":43.26567,"lon":5.39016,"is_reserved":false,"is_disabled":false,"rental_uris":{"android":"levelo://app?vid=04b3ff8e-7a27-43b1-a8e4-71bc020d7822","ios":"levelo://app?vid=04b3ff8e-7a27-43b1-a8e4-71bc020d7822"},"vehicle_type_id":"4","last_reported":1701864824,"current_range_meters":16400,"station_id":"ce4bhe12rcd13ifvqf30","pricing_plan_id":"free"},{"bike_id":"5c74fde4-c98f-47de-ac63-e91d7a4f9caa","system_id":"levelo_inurba_marseille","lat":43.26202,"lon":5.379299,"is_reserved":false,"is_disabled":false,"rental_uris":{"android":"levelo://app?vid=5c74fde4-c98f-47de-ac63-e91d7a4f9caa","ios":"levelo://app?vid=5c74fde4-c98f-47de-ac63-e91d7a4f9caa"},"vehicle_type_id":"4","last_reported":1701864824,"current_range_meters":26400,"station_id":"ce4bhjp2rcd13ifvqg90","pricing_plan_id":"free"},{"bike_id":"cfb6f79a-2f06-4101-b1bf-608c83c5b537","system_id":"levelo_inurba_marseille","lat":43.26806,"lon":5.40272,"is_reserved":false,"is_disabled":false,"rental_uris":{"android":"levelo://app?vid=cfb6f79a-2f06-4101-b1bf-608c83c5b537","ios":"levelo://app?vid=cfb6f79a-2f06-4101-b1bf-608c83c5b537"},"vehicle_type_id":"4","last_reported":1701864824,"current_range_meters":18400,"station_id":"ce501612rcd8frsf0b60","pricing_plan_id":"free"},{"bike_id":"dabc9e3b-c811-4ac7-9e75-61ab6d84a6a6","system_id":"levelo_inurba_marseille","lat":43.267959,"lon":5.402687,"is_reserved":false,"is_disabled":false,"rental_uris":{"android":"levelo://app?vid=dabc9e3b-c811-4ac7-9e75-61ab6d84a6a6","ios":"levelo://app?vid=dabc9e3b-c811-4ac7-9e75-61ab6d84a6a6"},"vehicle_type_id":"4","last_reported":1701864824,"current_range_meters":14400,"station_id":"ce501612rcd8frsf0b60","pricing_plan_id":"free"},{"bike_id":"a25b46cb-c48b-4a96-9869-c85d1ef25a0f","system_id":"levelo_inurba_marseille","lat":43.298768,"lon":5.43643,"is_reserved":false,"is_disabled":false,"rental_uris":{"android":"levelo://app?vid=a25b46cb-c48b-4a96-9869-c85d1ef25a0f","ios":"levelo://app?vid=a25b46cb-c48b-4a96-9869-c85d1ef25a0f"},"vehicle_type_id":"4","last_reported":1701864824,"current_range_meters":26000,"station_id":"ce4bhpp2rcd13ifvqhfg","pricing_plan_id":"free"},{"bike_id":"3e401427-b316-4666-aa6a-0f5b61afd0c5","system_id":"levelo_inurba_marseille","lat":43.298768,"lon":5.43643,"is_reserved":false,"is_disabled":false,"rental_uris":{"android":"levelo://app?vid=3e401427-b316-4666-aa6a-0f5b61afd0c5","ios":"levelo://app?vid=3e401427-b316-4666-aa6a-0f5b61afd0c5"},"vehicle_type_id":"4","last_reported":1701864824,"current_range_meters":8400,"station_id":"ce4bhpp2rcd13ifvqhfg","pricing_plan_id":"free"},{"bike_id":"83e79399-31e4-495a-9ab6-c83bc80ff130","system_id":"levelo_inurba_marseille","lat":43.2607,"lon":5.393983,"is_reserved":false,"is_disabled":false,"rental_uris":{"android":"levelo://app?vid=83e79399-31e4-495a-9ab6-c83bc80ff130","ios":"levelo://app?vid=83e79399-31e4-495a-9ab6-c83bc80ff130"},"vehicle_type_id":"4","last_reported":1701864824,"current_range_meters":23200,"station_id":"ce4bhh92rcd13ifvqfj0","pricing_plan_id":"free"},{"bike_id":"9e071d5e-e62e-42df-be1e-506f3ac756c2","system_id":"levelo_inurba_marseille","lat":43.25506,"lon":5.37649,"is_reserved":false,"is_disabled":false,"rental_uris":{"android":"levelo://app?vid=9e071d5e-e62e-42df-be1e-506f3ac756c2","ios":"levelo://app?vid=9e071d5e-e62e-42df-be1e-506f3ac756c2"},"vehicle_type_id":"4","last_reported":1701864824,"current_range_meters":4800,"station_id":"","pricing_plan_id":"free"},{"bike_id":"4749d4db-2a07-4402-bcc1-f70094c2f8a2","system_id":"levelo_inurba_marseille","lat":43.270721,"lon":5.422764,"is_reserved":false,"is_disabled":false,"rental_uris":{"android":"levelo://app?vid=4749d4db-2a07-4402-bcc1-f70094c2f8a2","ios":"levelo://app?vid=4749d4db-2a07-4402-bcc1-f70094c2f8a2"},"vehicle_type_id":"4","last_reported":1701864824,"current_range_meters":21200,"station_id":"ce4bhk92rcd13ifvqgb0","pricing_plan_id":"free"},{"bike_id":"f89bb153-29cf-4d82-971b-69086d29d5f0","system_id":"levelo_inurba_marseille","lat":43.258658,"lon":5.398935,"is_reserved":false,"is_disabled":false,"rental_uris":{"android":"levelo://app?vid=f89bb153-29cf-4d82-971b-69086d29d5f0","ios":"levelo://app?vid=f89bb153-29cf-4d82-971b-69086d29d5f0"},"vehicle_type_id":"4","last_reported":1701864824,"current_range_meters":15600,"station_id":"ce4bhl92rcd13ifvqghg","pricing_plan_id":"free"},{"bike_id":"19180140-b6e3-420c-99e9-e3c97640b1e3","system_id":"levelo_inurba_marseille","lat":43.257079,"lon":5.411051,"is_reserved":false,"is_disabled":false,"rental_uris":{"android":"levelo://app?vid=19180140-b6e3-420c-99e9-e3c97640b1e3","ios":"levelo://app?vid=19180140-b6e3-420c-99e9-e3c97640b1e3"},"vehicle_type_id":"4","last_reported":1701864824,"current_range_meters":19200,"station_id":"ce4bhkp2rcd13ifvqgd0","pricing_plan_id":"free"},{"bike_id":"7c1c2a7a-e8a3-4ffb-bce5-a650eb0e36ad","system_id":"levelo_inurba_marseille","lat":43.250009,"lon":5.389195,"is_reserved":false,"is_disabled":false,"rental_uris":{"android":"levelo://app?vid=7c1c2a7a-e8a3-4ffb-bce5-a650eb0e36ad","ios":"levelo://app?vid=7c1c2a7a-e8a3-4ffb-bce5-a650eb0e36ad"},"vehicle_type_id":"4","last_reported":1701864824,"current_range_meters":28000,"station_id":"ce4bhgp2rcd13ifvqfd0","pricing_plan_id":"free"},{"bike_id":"cdf2f788-2947-41e2-bcab-14ff6bb8705d","system_id":"levelo_inurba_marseille","lat":43.250966,"lon":5.395186,"is_reserved":false,"is_disabled":false,"rental_uris":{"android":"levelo://app?vid=cdf2f788-2947-41e2-bcab-14ff6bb8705d","ios":"levelo://app?vid=cdf2f788-2947-41e2-bcab-14ff6bb8705d"},"vehicle_type_id":"4","last_reported":1701864824,"current_range_meters":29600,"station_id":"ce4bhm12rcd13ifvqgkg","pricing_plan_id":"free"},{"bike_id":"14d29667-4e67-47ba-9ac7-c6b30cd61f39","system_id":"levelo_inurba_marseille","lat":43.250966,"lon":5.395186,"is_reserved":false,"is_disabled":false,"rental_uris":{"android":"levelo://app?vid=14d29667-4e67-47ba-9ac7-c6b30cd61f39","ios":"levelo://app?vid=14d29667-4e67-47ba-9ac7-c6b30cd61f39"},"vehicle_type_id":"4","last_reported":1701864824,"current_range_meters":26800,"station_id":"ce4bhm12rcd13ifvqgkg","pricing_plan_id":"free"},{"bike_id":"6a8b6271-bf92-4640-908b-e3a766dce9e9","system_id":"levelo_inurba_marseille","lat":43.24693,"lon":5.382096,"is_reserved":false,"is_disabled":false,"rental_uris":{"android":"levelo://app?vid=6a8b6271-bf92-4640-908b-e3a766dce9e9","ios":"levelo://app?vid=6a8b6271-bf92-4640-908b-e3a766dce9e9"},"vehicle_type_id":"4","last_reported":1701864824,"current_range_meters":22000,"station_id":"ce4bhih2rcd13ifvqfr0","pricing_plan_id":"free"},{"bike_id":"aa44efba-0b08-4488-a029-961fbc60903f","system_id":"levelo_inurba_marseille","lat":43.245581,"lon":5.395069,"is_reserved":false,"is_disabled":false,"rental_uris":{"android":"levelo://app?vid=aa44efba-0b08-4488-a029-961fbc60903f","ios":"levelo://app?vid=aa44efba-0b08-4488-a029-961fbc60903f"},"vehicle_type_id":"4","last_reported":1701864824,"current_range_meters":2800,"station_id":"ce4bhlp2rcd13ifvqgjg","pricing_plan_id":"free"},{"bike_id":"5a756ac8-8a38-4f38-be4a-fcef9eda1135","system_id":"levelo_inurba_marseille","lat":43.239588,"lon":5.366238,"is_reserved":false,"is_disabled":false,"rental_uris":{"android":"levelo://app?vid=5a756ac8-8a38-4f38-be4a-fcef9eda1135","ios":"levelo://app?vid=5a756ac8-8a38-4f38-be4a-fcef9eda1135"},"vehicle_type_id":"4","last_reported":1701864824,"current_range_meters":18400,"station_id":"ce4bhi12rcd13ifvqfp0","pricing_plan_id":"free"},{"bike_id":"a61ffd3e-c798-431d-ab03-cc824026f57e","system_id":"levelo_inurba_marseille","lat":43.239588,"lon":5.366238,"is_reserved":false,"is_disabled":false,"rental_uris":{"android":"levelo://app?vid=a61ffd3e-c798-431d-ab03-cc824026f57e","ios":"levelo://app?vid=a61ffd3e-c798-431d-ab03-cc824026f57e"},"vehicle_type_id":"4","last_reported":1701864824,"current_range_meters":30800,"station_id":"ce4bhi12rcd13ifvqfp0","pricing_plan_id":"free"},{"bike_id":"a2017a60-cff5-46fa-a2b4-af5d7ee300a6","system_id":"levelo_inurba_marseille","lat":43.241782,"lon":5.397261,"is_reserved":false,"is_disabled":false,"rental_uris":{"android":"levelo://app?vid=a2017a60-cff5-46fa-a2b4-af5d7ee300a6","ios":"levelo://app?vid=a2017a60-cff5-46fa-a2b4-af5d7ee300a6"},"vehicle_type_id":"4","last_reported":1701864824,"current_range_meters":8400,"station_id":"ce4bhn12rcd13ifvqgpg","pricing_plan_id":"free"},{"bike_id":"eee5cae3-a0ba-4530-b2a1-2a5afaf0250a","system_id":"levelo_inurba_marseille","lat":43.241782,"lon":5.397261,"is_reserved":false,"is_disabled":false,"rental_uris":{"android":"levelo://app?vid=eee5cae3-a0ba-4530-b2a1-2a5afaf0250a","ios":"levelo://app?vid=eee5cae3-a0ba-4530-b2a1-2a5afaf0250a"},"vehicle_type_id":"4","last_reported":1701864824,"current_range_meters":30000,"station_id":"ce4bhn12rcd13ifvqgpg","pricing_plan_id":"free"},{"bike_id":"ee8851ba-2934-4bc6-b20d-354057ab45e2","system_id":"levelo_inurba_marseille","lat":43.23203,"lon":5.35552,"is_reserved":false,"is_disabled":false,"rental_uris":{"android":"levelo://app?vid=ee8851ba-2934-4bc6-b20d-354057ab45e2","ios":"levelo://app?vid=ee8851ba-2934-4bc6-b20d-354057ab45e2"},"vehicle_type_id":"4","last_reported":1701864824,"current_range_meters":11600,"station_id":"ce4bhu92rcd13ifvqi70","pricing_plan_id":"free"},{"bike_id":"8d93eeb2-1ca5-45c1-aa71-2bedec57b2ab","system_id":"levelo_inurba_marseille","lat":43.231923,"lon":5.355545,"is_reserved":false,"is_disabled":false,"rental_uris":{"android":"levelo://app?vid=8d93eeb2-1ca5-45c1-aa71-2bedec57b2ab","ios":"levelo://app?vid=8d93eeb2-1ca5-45c1-aa71-2bedec57b2ab"},"vehicle_type_id":"4","last_reported":1701864824,"current_range_meters":30400,"station_id":"ce4bhu92rcd13ifvqi70","pricing_plan_id":"free"},{"bike_id":"cb54492e-531a-4ddd-ac05-b584fa4c27e9","system_id":"levelo_inurba_marseille","lat":43.231958,"lon":5.355476,"is_reserved":false,"is_disabled":false,"rental_uris":{"android":"levelo://app?vid=cb54492e-531a-4ddd-ac05-b584fa4c27e9","ios":"levelo://app?vid=cb54492e-531a-4ddd-ac05-b584fa4c27e9"},"vehicle_type_id":"4","last_reported":1701864824,"current_range_meters":31600,"station_id":"ce4bhu92rcd13ifvqi70","pricing_plan_id":"free"},{"bike_id":"e2aa6ba6-fe77-46b8-9b07-373b92acd67a","system_id":"levelo_inurba_marseille","lat":43.23193,"lon":5.355601,"is_reserved":false,"is_disabled":false,"rental_uris":{"android":"levelo://app?vid=e2aa6ba6-fe77-46b8-9b07-373b92acd67a","ios":"levelo://app?vid=e2aa6ba6-fe77-46b8-9b07-373b92acd67a"},"vehicle_type_id":"4","last_reported":1701864824,"current_range_meters":30800,"station_id":"ce4bhu92rcd13ifvqi70","pricing_plan_id":"free"},{"bike_id":"265d8647-926c-4792-875e-587423febe0c","system_id":"levelo_inurba_marseille","lat":43.231916,"lon":5.355569,"is_reserved":false,"is_disabled":false,"rental_uris":{"android":"levelo://app?vid=265d8647-926c-4792-875e-587423febe0c","ios":"levelo://app?vid=265d8647-926c-4792-875e-587423febe0c"},"vehicle_type_id":"4","last_reported":1701864824,"current_range_meters":14000,"station_id":"ce4bhu92rcd13ifvqi70","pricing_plan_id":"free"},{"bike_id":"c67a76af-19e2-4781-b20f-4f48d4550695","system_id":"levelo_inurba_marseille","lat":43.23192,"lon":5.35547,"is_reserved":false,"is_disabled":false,"rental_uris":{"android":"levelo://app?vid=c67a76af-19e2-4781-b20f-4f48d4550695","ios":"levelo://app?vid=c67a76af-19e2-4781-b20f-4f48d4550695"},"vehicle_type_id":"4","last_reported":1701864824,"current_range_meters":20800,"station_id":"ce4bhu92rcd13ifvqi70","pricing_plan_id":"free"},{"bike_id":"13c0e5b5-62bd-42f7-8c7c-9168886e359e","system_id":"levelo_inurba_marseille","lat":43.231908,"lon":5.355612,"is_reserved":false,"is_disabled":false,"rental_uris":{"android":"levelo://app?vid=13c0e5b5-62bd-42f7-8c7c-9168886e359e","ios":"levelo://app?vid=13c0e5b5-62bd-42f7-8c7c-9168886e359e"},"vehicle_type_id":"4","last_reported":1701864824,"current_range_meters":30400,"station_id":"ce4bhu92rcd13ifvqi70","pricing_plan_id":"free"},{"bike_id":"6bdb87c7-8611-4910-9ce3-ff8207311338","system_id":"levelo_inurba_marseille","lat":43.23191,"lon":5.35555,"is_reserved":false,"is_disabled":false,"rental_uris":{"android":"levelo://app?vid=6bdb87c7-8611-4910-9ce3-ff8207311338","ios":"levelo://app?vid=6bdb87c7-8611-4910-9ce3-ff8207311338"},"vehicle_type_id":"4","last_reported":1701864824,"current_range_meters":16400,"station_id":"ce4bhu92rcd13ifvqi70","pricing_plan_id":"free"},{"bike_id":"31a33c15-352d-45b2-8ca0-1a47651437f3","system_id":"levelo_inurba_marseille","lat":43.2319,"lon":5.35544,"is_reserved":false,"is_disabled":false,"rental_uris":{"android":"levelo://app?vid=31a33c15-352d-45b2-8ca0-1a47651437f3","ios":"levelo://app?vid=31a33c15-352d-45b2-8ca0-1a47651437f3"},"vehicle_type_id":"4","last_reported":1701864824,"current_range_meters":25600,"station_id":"ce4bhu92rcd13ifvqi70","pricing_plan_id":"free"},{"bike_id":"64f3204c-e608-4645-91bb-4342251f16ef","system_id":"levelo_inurba_marseille","lat":43.23186,"lon":5.35549,"is_reserved":false,"is_disabled":false,"rental_uris":{"android":"levelo://app?vid=64f3204c-e608-4645-91bb-4342251f16ef","ios":"levelo://app?vid=64f3204c-e608-4645-91bb-4342251f16ef"},"vehicle_type_id":"4","last_reported":1701864824,"current_range_meters":10000,"station_id":"ce4bhu92rcd13ifvqi70","pricing_plan_id":"free"},{"bike_id":"78549b52-f63e-4e01-9bb8-766efb3fdee5","system_id":"levelo_inurba_marseille","lat":43.231793,"lon":5.400044,"is_reserved":false,"is_disabled":false,"rental_uris":{"android":"levelo://app?vid=78549b52-f63e-4e01-9bb8-766efb3fdee5","ios":"levelo://app?vid=78549b52-f63e-4e01-9bb8-766efb3fdee5"},"vehicle_type_id":"4","last_reported":1701864824,"current_range_meters":9600,"station_id":"ce4bhn12rcd13ifvqgqg","pricing_plan_id":"free"},{"bike_id":"665751fa-b6e1-4e36-8467-b488a695febb","system_id":"levelo_inurba_marseille","lat":43.231793,"lon":5.400044,"is_reserved":false,"is_disabled":false,"rental_uris":{"android":"levelo://app?vid=665751fa-b6e1-4e36-8467-b488a695febb","ios":"levelo://app?vid=665751fa-b6e1-4e36-8467-b488a695febb"},"vehicle_type_id":"4","last_reported":1701864824,"current_range_meters":27200,"station_id":"ce4bhn12rcd13ifvqgqg","pricing_plan_id":"free"},{"bike_id":"d4fafc8f-17c1-4709-ba6c-7f18a0e46857","system_id":"levelo_inurba_marseille","lat":43.231794,"lon":5.400052,"is_reserved":false,"is_disabled":false,"rental_uris":{"android":"levelo://app?vid=d4fafc8f-17c1-4709-ba6c-7f18a0e46857","ios":"levelo://app?vid=d4fafc8f-17c1-4709-ba6c-7f18a0e46857"},"vehicle_type_id":"4","last_reported":1701864824,"current_range_meters":9200,"station_id":"ce4bhn12rcd13ifvqgqg","pricing_plan_id":"free"},{"bike_id":"532069f4-e08d-45bf-af3a-d0b088d4d417","system_id":"levelo_inurba_marseille","lat":43.231793,"lon":5.400044,"is_reserved":false,"is_disabled":false,"rental_uris":{"android":"levelo://app?vid=532069f4-e08d-45bf-af3a-d0b088d4d417","ios":"levelo://app?vid=532069f4-e08d-45bf-af3a-d0b088d4d417"},"vehicle_type_id":"4","last_reported":1701864824,"current_range_meters":8800,"station_id":"ce4bhn12rcd13ifvqgqg","pricing_plan_id":"free"},{"bike_id":"f1b84a36-46b4-4777-8d9b-adfc0d30be06","system_id":"levelo_inurba_marseille","lat":43.231793,"lon":5.400044,"is_reserved":false,"is_disabled":false,"rental_uris":{"android":"levelo://app?vid=f1b84a36-46b4-4777-8d9b-adfc0d30be06","ios":"levelo://app?vid=f1b84a36-46b4-4777-8d9b-adfc0d30be06"},"vehicle_type_id":"4","last_reported":1701864824,"current_range_meters":0,"station_id":"ce4bhn12rcd13ifvqgqg","pricing_plan_id":"free"},{"bike_id":"901a5ad1-6326-4310-99d1-e5550d8117ee","system_id":"levelo_inurba_marseille","lat":43.231793,"lon":5.400044,"is_reserved":false,"is_disabled":false,"rental_uris":{"android":"levelo://app?vid=901a5ad1-6326-4310-99d1-e5550d8117ee","ios":"levelo://app?vid=901a5ad1-6326-4310-99d1-e5550d8117ee"},"vehicle_type_id":"4","last_reported":1701864824,"current_range_meters":25200,"station_id":"ce4bhn12rcd13ifvqgqg","pricing_plan_id":"free"},{"bike_id":"19cd97c2-90a0-4893-8845-2f6a224bf5f7","system_id":"levelo_inurba_marseille","lat":43.231794,"lon":5.400052,"is_reserved":false,"is_disabled":false,"rental_uris":{"android":"levelo://app?vid=19cd97c2-90a0-4893-8845-2f6a224bf5f7","ios":"levelo://app?vid=19cd97c2-90a0-4893-8845-2f6a224bf5f7"},"vehicle_type_id":"4","last_reported":1701864824,"current_range_meters":31200,"station_id":"ce4bhn12rcd13ifvqgqg","pricing_plan_id":"free"},{"bike_id":"add320da-e253-49c9-82fb-e1b1621f2dd7","system_id":"levelo_inurba_marseille","lat":43.231794,"lon":5.400052,"is_reserved":false,"is_disabled":false,"rental_uris":{"android":"levelo://app?vid=add320da-e253-49c9-82fb-e1b1621f2dd7","ios":"levelo://app?vid=add320da-e253-49c9-82fb-e1b1621f2dd7"},"vehicle_type_id":"4","last_reported":1701864824,"current_range_meters":9200,"station_id":"ce4bhn12rcd13ifvqgqg","pricing_plan_id":"free"},{"bike_id":"2a73e8fa-c92c-487d-afb8-ed18138423a5","system_id":"levelo_inurba_marseille","lat":43.231794,"lon":5.400052,"is_reserved":false,"is_disabled":false,"rental_uris":{"android":"levelo://app?vid=2a73e8fa-c92c-487d-afb8-ed18138423a5","ios":"levelo://app?vid=2a73e8fa-c92c-487d-afb8-ed18138423a5"},"vehicle_type_id":"4","last_reported":1701864824,"current_range_meters":18000,"station_id":"ce4bhn12rcd13ifvqgqg","pricing_plan_id":"free"},{"bike_id":"cc1f465c-2a96-4d0e-9933-59899d0661dc","system_id":"levelo_inurba_marseille","lat":43.231562,"lon":5.436933,"is_reserved":false,"is_disabled":false,"rental_uris":{"android":"levelo://app?vid=cc1f465c-2a96-4d0e-9933-59899d0661dc","ios":"levelo://app?vid=cc1f465c-2a96-4d0e-9933-59899d0661dc"},"vehicle_type_id":"4","last_reported":1701864824,"current_range_meters":0,"station_id":"ce4bhmp2rcd13ifvqgog","pricing_plan_id":"free"},{"bike_id":"4c87a925-060f-4042-83d3-c9a1a412ed0e","system_id":"levelo_inurba_marseille","lat":43.231562,"lon":5.436933,"is_reserved":false,"is_disabled":false,"rental_uris":{"android":"levelo://app?vid=4c87a925-060f-4042-83d3-c9a1a412ed0e","ios":"levelo://app?vid=4c87a925-060f-4042-83d3-c9a1a412ed0e"},"vehicle_type_id":"4","last_reported":1701864824,"current_range_meters":7200,"station_id":"ce4bhmp2rcd13ifvqgog","pricing_plan_id":"free"},{"bike_id":"dd01c6b3-fa3e-445c-9a8e-c0f758a12cba","system_id":"levelo_inurba_marseille","lat":43.231562,"lon":5.436933,"is_reserved":false,"is_disabled":false,"rental_uris":{"android":"levelo://app?vid=dd01c6b3-fa3e-445c-9a8e-c0f758a12cba","ios":"levelo://app?vid=dd01c6b3-fa3e-445c-9a8e-c0f758a12cba"},"vehicle_type_id":"4","last_reported":1701864824,"current_range_meters":31200,"station_id":"ce4bhmp2rcd13ifvqgog","pricing_plan_id":"free"},{"bike_id":"56430272-dad1-41f8-84d0-a8e1088d51bf","system_id":"levelo_inurba_marseille","lat":43.231562,"lon":5.436933,"is_reserved":false,"is_disabled":false,"rental_uris":{"android":"levelo://app?vid=56430272-dad1-41f8-84d0-a8e1088d51bf","ios":"levelo://app?vid=56430272-dad1-41f8-84d0-a8e1088d51bf"},"vehicle_type_id":"4","last_reported":1701864824,"current_range_meters":31200,"station_id":"ce4bhmp2rcd13ifvqgog","pricing_plan_id":"free"},{"bike_id":"ceef45cf-eb38-4c77-8919-0d17aac14d67","system_id":"levelo_inurba_marseille","lat":43.231562,"lon":5.436933,"is_reserved":false,"is_disabled":false,"rental_uris":{"android":"levelo://app?vid=ceef45cf-eb38-4c77-8919-0d17aac14d67","ios":"levelo://app?vid=ceef45cf-eb38-4c77-8919-0d17aac14d67"},"vehicle_type_id":"4","last_reported":1701864824,"current_range_meters":31600,"station_id":"ce4bhmp2rcd13ifvqgog","pricing_plan_id":"free"},{"bike_id":"075282f0-c021-4c3b-ab85-62d2b8d99df1","system_id":"levelo_inurba_marseille","lat":43.231562,"lon":5.436933,"is_reserved":false,"is_disabled":false,"rental_uris":{"android":"levelo://app?vid=075282f0-c021-4c3b-ab85-62d2b8d99df1","ios":"levelo://app?vid=075282f0-c021-4c3b-ab85-62d2b8d99df1"},"vehicle_type_id":"4","last_reported":1701864824,"current_range_meters":1200,"station_id":"ce4bhmp2rcd13ifvqgog","pricing_plan_id":"free"},{"bike_id":"18694f44-4de7-4e36-8126-84af36c601e5","system_id":"levelo_inurba_marseille","lat":43.231562,"lon":5.436933,"is_reserved":false,"is_disabled":false,"rental_uris":{"android":"levelo://app?vid=18694f44-4de7-4e36-8126-84af36c601e5","ios":"levelo://app?vid=18694f44-4de7-4e36-8126-84af36c601e5"},"vehicle_type_id":"4","last_reported":1701864824,"current_range_meters":28000,"station_id":"ce4bhmp2rcd13ifvqgog","pricing_plan_id":"free"},{"bike_id":"778e5985-dbdd-42e1-a7d8-130a2b906c87","system_id":"levelo_inurba_marseille","lat":43.231562,"lon":5.436933,"is_reserved":false,"is_disabled":false,"rental_uris":{"android":"levelo://app?vid=778e5985-dbdd-42e1-a7d8-130a2b906c87","ios":"levelo://app?vid=778e5985-dbdd-42e1-a7d8-130a2b906c87"},"vehicle_type_id":"4","last_reported":1701864824,"current_range_meters":1200,"station_id":"ce4bhmp2rcd13ifvqgog","pricing_plan_id":"free"}]}}