{"last_updated":1684058787,"ttl":30,"version":"2.2","data":{"bikes":[{"bike_id":"febc23c5-0cf4-48a3-bb4c-63084f78e6ac","system_id":"levelo_inurba_marseille","lat":43.31341,"lon":5.367098,"is_reserved":false,"is_disabled":false,"rental_uris":{"android":"levelo://app?vid=febc23c5-0cf4-48a3-bb4c-63084f78e6ac","ios":"levelo://app?vid=febc23c5-0cf4-48a3-bb4c-63084f78e6ac"},"vehicle_type_id":"4","last_reported":1684058788,"current_range_meters":31600,"station_id":"ce4bgr92rcd13ifvqc6g","pricing_plan_id":"free"},{"bike_id":"dcd566cd-4193-4d6e-8699-75ef45649505","system_id":"levelo_inurba_marseille","lat":43.313391,"lon":5.36706,"is_reserved":false,"is_disabled":false,"rental_uris":{"android":"levelo://app?vid=dcd566cd-4193-4d6e-8699-75ef45649505","ios":"levelo://app?vid=dcd566cd-4193-4d6e-8699-75ef45649505"},"vehicle_type_id":"4","last_reported":1684058788,"current_range_meters":26400,"station_id":"ce4bgr92rcd13ifvqc6g","pricing_plan_id":"free"},{"bike_id":"09c876cf-0b1b-4188-b85c-3c6995193ab3","system_id":"levelo_inurba_marseille","lat":43.31341,"lon":5.367098,"is_reserved":false,"is_disabled":false,"rental_uris":{"android":"levelo://app?vid=09c876cf-0b1b-4188-b85c-3c6995193ab3","ios":"levelo://app?vid=09c876cf-0b1b-4188-b85c-3c6995193ab3"},"vehicle_type_id":"4","last_reported":1684058788,"current_range_meters":28800,"station_id":"ce4bgr92rcd13ifvqc6g","pricing_plan_id":"free"},{"bike_id":"24abea9d-acff-40a0-8816-0a2f4e1dca42","system_id":"levelo_inurba_marseille","lat":43.31341,"lon":5.367098,"is_reserved":false,"is_disabled":false,"rental_uris":{"android":"levelo://app?vid=24abea9d-acff-40a0-8816-0a2f4e1dca42","ios":"levelo://app?vid=24abea9d-acff-40a0-8816-0a2f4e1dca42"},"vehicle_type_id":"4","last_reported":1684058788,"current_range_meters":31200,"station_id":"ce4bgr92rcd13ifvqc6g","pricing_plan_id":"free"},{"bike_id":"e6987441-362a-40f3-92bc-e5f9ecf6b8a9","system_id":"levelo_inurba_marseille","lat":43.31341,"lon":5.367098,"is_reserved":false,"is_disabled":false,"rental_uris":{"android":"levelo://app?vid=e6987441-362a-40f3-92bc-e5f9ecf6b8a9","ios":"levelo://app?vid=e6987441-362a-40f3-92bc-e5f9ecf6b8a9"},"vehicle_type_id":"4","last_reported":1684058788,"current_range_meters":31200,"station_id":"ce4bgr92rcd13ifvqc6g","pricing_plan_id":"free"},{"bike_id":"78639281-da9b-4878-980b-0e688644d586","system_id":"levelo_inurba_marseille","lat":43.312239,"lon":5.368562,"is_reserved":false,"is_disabled":false,"rental_uris":{"android":"levelo://app?vid=78639281-da9b-4878-980b-0e688644d586","ios":"levelo://app?vid=78639281-da9b-4878-980b-0e688644d586"},"vehicle_type_id":"4","last_reported":1684058788,"current_range_meters":22000,"station_id":"ce4bgl92rcd13ifvqbq0","pricing_plan_id":"free"},{"bike_id":"d869964a-6117-4992-8705-f8a608eb9ffd","system_id":"levelo_inurba_marseille","lat":43.312239,"lon":5.368562,"is_reserved":false,"is_disabled":false,"rental_uris":{"android":"levelo://app?vid=d869964a-6117-4992-8705-f8a608eb9ffd","ios":"levelo://app?vid=d869964a-6117-4992-8705-f8a608eb9ffd"},"vehicle_type_id":"4","last_reported":1684058788,"current_range_meters":27200,"station_id":"ce4bgl92rcd13ifvqbq0","pricing_plan_id":"free"},{"bike_id":"23ce4cef-3a42-4437-8db2-7941a48493b1","system_id":"levelo_inurba_marseille","lat":43.312239,"lon":5.368562,"is_reserved":false,"is_disabled":false,"rental_uris":{"android":"levelo://app?vid=23ce4cef-3a42-4437-8db2-7941a48493b1","ios":"levelo://app?vid=23ce4cef-3a42-4437-8db2-7941a48493b1"},"vehicle_type_id":"4","last_reported":1684058788,"current_range_meters":22000,"station_id":"ce4bgl92rcd13ifvqbq0","pricing_plan_id":"free"},{"bike_id":"4f01b1ad-c2e9-42d8-961b-a2e8ffaa4b1e","system_id":"levelo_inurba_marseille","lat":43.31224,"lon":5.36865,"is_reserved":false,"is_disabled":false,"rental_uris":{"android":"levelo://app?vid=4f01b1ad-c2e9-42d8-961b-a2e8ffaa4b1e","ios":"levelo://app?vid=4f01b1ad-c2e9-42d8-961b-a2e8ffaa4b1e"},"vehicle_type_id":"4","last_reported":1684058788,"current_range_meters":29200,"station_id":"ce4bgl92rcd13ifvqbq0","pricing_plan_id":"free"},{"bike_id":"71b4b514-8551-431a-9fa6-dd4d82ac9363","system_id":"levelo_inurba_marseille","lat":43.312239,"lon":5.368562,"is_reserved":false,"is_disabled":false,"rental_uris":{"android":"levelo://app?vid=71b4b514-8551-431a-9fa6-dd4d82ac9363","ios":"levelo://app?vid=71b4b514-8551-431a-9fa6-dd4d82ac9363"},"vehicle_type_id":"4","last_reported":1684058788,"current_range_meters":31600,"station_id":"ce4bgl92rcd13ifvqbq0","pricing_plan_id":"free"},{"bike_id":"831b07ab-f194-4459-8e8b-0f4fa3d89a6c","system_id":"levelo_inurba_marseille","lat":43.312239,"lon":5.368562,"is_reserved":false,"is_disabled":false,"rental_uris":{"android":"levelo://app?vid=831b07ab-f194-4459-8e8b-0f4fa3d89a6c","ios":"levelo://app?vid=831b07ab-f194-4459-8e8b-0f4fa3d89a6c"},"vehicle_type_id":"4","last_reported":1684058788,"current_range_meters":30400,"station_id":"ce4bgl92rcd13ifvqbq0","pricing_plan_id":"free"},{"bike_id":"cc9fd6aa-3aab-4bd7-87bf-d26db6eea85a","system_id":"levelo_inurba_marseille","lat":43.309076,"lon":5.368465,"is_reserved":false,"is_disabled":false,"rental_uris":{"android":"levelo://app?vid=cc9fd6aa-3aab-4bd7-87bf-d26db6eea85a","ios":"levelo://app?vid=cc9fd6aa-3aab-4bd7-87bf-d26db6eea85a"},"vehicle_type_id":"4","last_reported":1684058788,"current_range_meters":7600,"station_id":"ce4bgn92rcd13ifvqbvg","pricing_plan_id":"free"},{"bike_id":"1d93fcc2-b93a-40ec-83bf-d6e9a533d6b0","system_id":"levelo_inurba_marseille","lat":43.308614,"lon":5.372098,"is_reserved":false,"is_disabled":false,"rental_uris":{"android":"levelo://app?vid=1d93fcc2-b93a-40ec-83bf-d6e9a533d6b0","ios":"levelo://app?vid=1d93fcc2-b93a-40ec-83bf-d6e9a533d6b0"},"vehicle_type_id":"4","last_reported":1684058788,"current_range_meters":31200,"station_id":"ce4bguh2rcd13ifvqckg","pricing_plan_id":"free"},{"bike_id":"e32bba85-ea90-4991-bc8c-8cede8e6d63a","system_id":"levelo_inurba_marseille","lat":43.308614,"lon":5.372098,"is_reserved":false,"is_disabled":false,"rental_uris":{"android":"levelo://app?vid=e32bba85-ea90-4991-bc8c-8cede8e6d63a","ios":"levelo://app?vid=e32bba85-ea90-4991-bc8c-8cede8e6d63a"},"vehicle_type_id":"4","last_reported":1684058788,"current_range_meters":18000,"station_id":"ce4bguh2rcd13ifvqckg","pricing_plan_id":"free"},{"bike_id":"ef42665b-7a58-430a-a09b-24ad7325a98d","system_id":"levelo_inurba_marseille","lat":43.30588,"lon":5.36563,"is_reserved":false,"is_disabled":false,"rental_uris":{"android":"levelo://app?vid=ef42665b-7a58-430a-a09b-24ad7325a98d","ios":"levelo://app?vid=ef42665b-7a58-430a-a09b-24ad7325a98d"},"vehicle_type_id":"4","last_reported":1684058788,"current_range_meters":12400,"station_id":"","pricing_plan_id":"free"},{"bike_id":"f53dac5a-d92c-4fb1-adf1-7d3491e41a83","system_id":"levelo_inurba_marseille","lat":43.305368,"lon":5.367343,"is_reserved":false,"is_disabled":false,"rental_uris":{"android":"levelo://app?vid=f53dac5a-d92c-4fb1-adf1-7d3491e41a83","ios":"levelo://app?vid=f53dac5a-d92c-4fb1-adf1-7d3491e41a83"},"vehicle_type_id":"4","last_reported":1684058788,"current_range_meters":3200,"station_id":"ce4bgrp2rcd13ifvqc9g","pricing_plan_id":"free"},{"bike_id":"d946d0b4-02ed-460f-812c-bb0ac6ee0935","system_id":"levelo_inurba_marseille","lat":43.30543,"lon":5.3655,"is_reserved":false,"is_disabled":false,"rental_uris":{"android":"levelo://app?vid=d946d0b4-02ed-460f-812c-bb0ac6ee0935","ios":"levelo://app?vid=d946d0b4-02ed-460f-812c-bb0ac6ee0935"},"vehicle_type_id":"4","last_reported":1684058788,"current_range_meters":12000,"station_id":"","pricing_plan_id":"free"},{"bike_id":"87458fa8-4792-4fb7-9853-ce1572ad6276","system_id":"levelo_inurba_marseille","lat":43.305706,"lon":5.365654,"is_reserved":false,"is_disabled":false,"rental_uris":{"android":"levelo://app?vid=87458fa8-4792-4fb7-9853-ce1572ad6276","ios":"levelo://app?vid=87458fa8-4792-4fb7-9853-ce1572ad6276"},"vehicle_type_id":"4","last_reported":1684058788,"current_range_meters":31200,"station_id":"ce4bgs12rcd13ifvqcag","pricing_plan_id":"free"},{"bike_id":"13240473-3def-42a3-b095-8602f843b467","system_id":"levelo_inurba_marseille","lat":43.3054,"lon":5.36523,"is_reserved":false,"is_disabled":false,"rental_uris":{"android":"levelo://app?vid=13240473-3def-42a3-b095-8602f843b467","ios":"levelo://app?vid=13240473-3def-42a3-b095-8602f843b467"},"vehicle_type_id":"4","last_reported":1684058788,"current_range_meters":20000,"station_id":"","pricing_plan_id":"free"},{"bike_id":"200eaba4-b409-4b23-9802-e4111d101ffd","system_id":"levelo_inurba_marseille","lat":43.305706,"lon":5.365654,"is_reserved":false,"is_disabled":false,"rental_uris":{"android":"levelo://app?vid=200eaba4-b409-4b23-9802-e4111d101ffd","ios":"levelo://app?vid=200eaba4-b409-4b23-9802-e4111d101ffd"},"vehicle_type_id":"4","last_reported":1684058788,"current_range_meters":29200,"station_id":"ce4bgs12rcd13ifvqcag","pricing_plan_id":"free"},{"bike_id":"37443179-1f22-4e57-958f-25a4f7aae3dc","system_id":"levelo_inurba_marseille","lat":43.30539,"lon":5.36521,"is_reserved":false,"is_disabled":false,"rental_uris":{"android":"levelo://app?vid=37443179-1f22-4e57-958f-25a4f7aae3dc","ios":"levelo://app?vid=37443179-1f22-4e57-958f-25a4f7aae3dc"},"vehicle_type_id":"4","last_reported":1684058788,"current_range_meters":24400,"station_id":"","pricing_plan_id":"free"},{"bike_id":"2ad787c7-02e3-46f4-bfe3-51a52df73058","system_id":"levelo_inurba_marseille","lat":43.305706,"lon":5.365654,"is_reserved":false,"is_disabled":false,"rental_uris":{"android":"levelo://app?vid=2ad787c7-02e3-46f4-bfe3-51a52df73058","ios":"levelo://app?vid=2ad787c7-02e3-46f4-bfe3-51a52df73058"},"vehicle_type_id":"4","last_reported":1684058788,"current_range_meters":30000,"station_id":"ce4bgs12rcd13ifvqcag","pricing_plan_id":"free"},{"bike_id":"9018c11a-b4a2-49d9-bb89-e1d8612f7a9a","system_id":"levelo_inurba_marseille","lat":43.305706,"lon":5.365654,"is_reserved":false,"is_disabled":false,"rental_uris":{"android":"levelo://app?vid=9018c11a-b4a2-49d9-bb89-e1d8612f7a9a","ios":"levelo://app?vid=9018c11a-b4a2-49d9-bb89-e1d8612f7a9a"},"vehicle_type_id":"4","last_reported":1684058788,"current_range_meters":27600,"station_id":"ce4bgs12rcd13ifvqcag","pricing_plan_id":"free"},{"bike_id":"c5c5d909-f70c-4643-a35f-7abeffaa3930","system_id":"levelo_inurba_marseille","lat":43.305368,"lon":5.367343,"is_reserved":false,"is_disabled":false,"rental_uris":{"android":"levelo://app?vid=c5c5d909-f70c-4643-a35f-7abeffaa3930","ios":"levelo://app?vid=c5c5d909-f70c-4643-a35f-7abeffaa3930"},"vehicle_type_id":"4","last_reported":1684058788,"current_range_meters":25600,"station_id":"ce4bgrp2rcd13ifvqc9g","pricing_plan_id":"free"},{"bike_id":"0db3ca76-8d39-470d-82e1-4167226e3252","system_id":"levelo_inurba_marseille","lat":43.305706,"lon":5.365654,"is_reserved":false,"is_disabled":false,"rental_uris":{"android":"levelo://app?vid=0db3ca76-8d39-470d-82e1-4167226e3252","ios":"levelo://app?vid=0db3ca76-8d39-470d-82e1-4167226e3252"},"vehicle_type_id":"4","last_reported":1684058788,"current_range_meters":31200,"station_id":"ce4bgs12rcd13ifvqcag","pricing_plan_id":"free"},{"bike_id":"16c5cbb5-9cd5-4f5f-af46-f2cadf6be593","system_id":"levelo_inurba_marseille","lat":43.305706,"lon":5.365654,"is_reserved":false,"is_disabled":false,"rental_uris":{"android":"levelo://app?vid=16c5cbb5-9cd5-4f5f-af46-f2cadf6be593","ios":"levelo://app?vid=16c5cbb5-9cd5-4f5f-af46-f2cadf6be593"},"vehicle_type_id":"4","last_reported":1684058788,"current_range_meters":23600,"station_id":"ce4bgs12rcd13ifvqcag","pricing_plan_id":"free"},{"bike_id":"fca00784-2e75-4453-a59d-99531596f0c9","system_id":"levelo_inurba_marseille","lat":43.305706,"lon":5.365654,"is_reserved":false,"is_disabled":false,"rental_uris":{"android":"levelo://app?vid=fca00784-2e75-4453-a59d-99531596f0c9","ios":"levelo://app?vid=fca00784-2e75-4453-a59d-99531596f0c9"},"vehicle_type_id":"4","last_reported":1684058788,"current_range_meters":30000,"station_id":"ce4bgs12rcd13ifvqcag","pricing_plan_id":"free"},{"bike_id":"ecdc5015-01d1-4b53-a9d9-0aa1b2d14064","system_id":"levelo_inurba_marseille","lat":43.3112,"lon":5.3776,"is_reserved":false,"is_disabled":false,"rental_uris":{"android":"levelo://app?vid=ecdc5015-01d1-4b53-a9d9-0aa1b2d14064","ios":"levelo://app?vid=ecdc5015-01d1-4b53-a9d9-0aa1b2d14064"},"vehicle_type_id":"4","last_reported":1684058788,"current_range_meters":26000,"station_id":"ce4bgt92rcd13ifvqcg0","pricing_plan_id":"free"},{"bike_id":"151d50bc-3aee-48d5-9527-783274464e00","system_id":"levelo_inurba_marseille","lat":43.31187,"lon":5.37776,"is_reserved":false,"is_disabled":false,"rental_uris":{"android":"levelo://app?vid=151d50bc-3aee-48d5-9527-783274464e00","ios":"levelo://app?vid=151d50bc-3aee-48d5-9527-783274464e00"},"vehicle_type_id":"4","last_reported":1684058788,"current_range_meters":9200,"station_id":"","pricing_plan_id":"free"},{"bike_id":"93b0e58d-acbd-41e8-8b94-2c704b260b4f","system_id":"levelo_inurba_marseille","lat":43.317075,"lon":5.377367,"is_reserved":false,"is_disabled":false,"rental_uris":{"android":"levelo://app?vid=93b0e58d-acbd-41e8-8b94-2c704b260b4f","ios":"levelo://app?vid=93b0e58d-acbd-41e8-8b94-2c704b260b4f"},"vehicle_type_id":"4","last_reported":1684058788,"current_range_meters":30000,"station_id":"ce4bgth2rcd13ifvqch0","pricing_plan_id":"free"},{"bike_id":"b8ae1045-8136-4e3f-9d69-ffea148830e0","system_id":"levelo_inurba_marseille","lat":43.31539,"lon":5.38033,"is_reserved":false,"is_disabled":false,"rental_uris":{"android":"levelo://app?vid=b8ae1045-8136-4e3f-9d69-ffea148830e0","ios":"levelo://app?vid=b8ae1045-8136-4e3f-9d69-ffea148830e0"},"vehicle_type_id":"4","last_reported":1684058788,"current_range_meters":23600,"station_id":"ce4bhsp2rcd13ifvqi50","pricing_plan_id":"free"},{"bike_id":"4f771b04-864c-4e16-9678-f9511e13d0df","system_id":"levelo_inurba_marseille","lat":43.30255,"lon":5.36941,"is_reserved":false,"is_disabled":false,"rental_uris":{"android":"levelo://app?vid=4f771b04-864c-4e16-9678-f9511e13d0df","ios":"levelo://app?vid=4f771b04-864c-4e16-9678-f9511e13d0df"},"vehicle_type_id":"4","last_reported":1684058788,"current_range_meters":22000,"station_id":"","pricing_plan_id":"free"},{"bike_id":"5f1fef8a-a1dd-479c-b9bb-abb98bcb3246","system_id":"levelo_inurba_marseille","lat":43.304606,"lon":5.379026,"is_reserved":false,"is_disabled":false,"rental_uris":{"android":"levelo://app?vid=5f1fef8a-a1dd-479c-b9bb-abb98bcb3246","ios":"levelo://app?vid=5f1fef8a-a1dd-479c-b9bb-abb98bcb3246"},"vehicle_type_id":"4","last_reported":1684058788,"current_range_meters":27600,"station_id":"ce4bgup2rcd13ifvqcn0","pricing_plan_id":"free"},{"bike_id":"ccbed042-a768-40a3-85c1-ed7e88950d87","system_id":"levelo_inurba_marseille","lat":43.304606,"lon":5.379026,"is_reserved":false,"is_disabled":false,"rental_uris":{"android":"levelo://app?vid=ccbed042-a768-40a3-85c1-ed7e88950d87","ios":"levelo://app?vid=ccbed042-a768-40a3-85c1-ed7e88950d87"},"vehicle_type_id":"4","last_reported":1684058788,"current_range_meters":31200,"station_id":"ce4bgup2rcd13ifvqcn0","pricing_plan_id":"free"},{"bike_id":"560dd8ae-a848-4b17-928a-0b9197fcb1c3","system_id":"levelo_inurba_marseille","lat":43.304606,"lon":5.379026,"is_reserved":false,"is_disabled":false,"rental_uris":{"android":"levelo://app?vid=560dd8ae-a848-4b17-928a-0b9197fcb1c3","ios":"levelo://app?vid=560dd8ae-a848-4b17-928a-0b9197fcb1c3"},"vehicle_type_id":"4","last_reported":1684058788,"current_range_meters":29200,"station_id":"ce4bgup2rcd13ifvqcn0","pricing_plan_id":"free"},{"bike_id":"8b0517c8-e7bb-4f9e-954c-7c0789a5ced5","system_id":"levelo_inurba_marseille","lat":43.304606,"lon":5.379026,"is_reserved":false,"is_disabled":false,"rental_uris":{"android":"levelo://app?vid=8b0517c8-e7bb-4f9e-954c-7c0789a5ced5","ios":"levelo://app?vid=8b0517c8-e7bb-4f9e-954c-7c0789a5ced5"},"vehicle_type_id":"4","last_reported":1684058788,"current_range_meters":31200,"station_id":"ce4bgup2rcd13ifvqcn0","pricing_plan_id":"free"},{"bike_id":"22db9de9-d3cf-4578-bf45-d686bea36ace","system_id":"levelo_inurba_marseille","lat":43.304606,"lon":5.379026,"is_reserved":false,"is_disabled":false,"rental_uris":{"android":"levelo://app?vid=22db9de9-d3cf-4578-bf45-d686bea36ace","ios":"levelo://app?vid=22db9de9-d3cf-4578-bf45-d686bea36ace"},"vehicle_type_id":"4","last_reported":1684058788,"current_range_meters":31600,"station_id":"ce4bgup2rcd13ifvqcn0","pricing_plan_id":"free"},{"bike_id":"27e3ad0d-7f15-45fc-b485-8709add66d05","system_id":"levelo_inurba_marseille","lat":43.304606,"lon":5.379026,"is_reserved":false,"is_disabled":false,"rental_uris":{"android":"levelo://app?vid=27e3ad0d-7f15-45fc-b485-8709add66d05","ios":"levelo://app?vid=27e3ad0d-7f15-45fc-b485-8709add66d05"},"vehicle_type_id":"4","last_reported":1684058788,"current_range_meters":31200,"station_id":"ce4bgup2rcd13ifvqcn0","pricing_plan_id":"free"},{"bike_id":"31c379d8-f6a1-4784-af89-4ce76b207c64","system_id":"levelo_inurba_marseille","lat":43.304606,"lon":5.379026,"is_reserved":false,"is_disabled":false,"rental_uris":{"android":"levelo://app?vid=31c379d8-f6a1-4784-af89-4ce76b207c64","ios":"levelo://app?vid=31c379d8-f6a1-4784-af89-4ce76b207c64"},"vehicle_type_id":"4","last_reported":1684058788,"current_range_meters":27200,"station_id":"ce4bgup2rcd13ifvqcn0","pricing_plan_id":"free"},{"bike_id":"2fea3bfe-4513-4e7a-8ec9-b5a42d7fc9b0","system_id":"levelo_inurba_marseille","lat":43.304606,"lon":5.379026,"is_reserved":false,"is_disabled":false,"rental_uris":{"android":"levelo://app?vid=2fea3bfe-4513-4e7a-8ec9-b5a42d7fc9b0","ios":"levelo://app?vid=2fea3bfe-4513-4e7a-8ec9-b5a42d7fc9b0"},"vehicle_type_id":"4","last_reported":1684058788,"current_range_meters":24000,"station_id":"ce4bgup2rcd13ifvqcn0","pricing_plan_id":"free"},{"bike_id":"71b357f4-122d-4014-a715-fab6452b98f7","system_id":"levelo_inurba_marseille","lat":43.304606,"lon":5.379026,"is_reserved":false,"is_disabled":false,"rental_uris":{"android":"levelo://app?vid=71b357f4-122d-4014-a715-fab6452b98f7","ios":"levelo://app?vid=71b357f4-122d-4014-a715-fab6452b98f7"},"vehicle_type_id":"4","last_reported":1684058788,"current_range_meters":24000,"station_id":"ce4bgup2rcd13ifvqcn0","pricing_plan_id":"free"},{"bike_id":"da4a5a0f-6330-4fe7-895a-2b138d8dde45","system_id":"levelo_inurba_marseille","lat":43.304606,"lon":5.379026,"is_reserved":false,"is_disabled":false,"rental_uris":{"android":"levelo://app?vid=da4a5a0f-6330-4fe7-895a-2b138d8dde45","ios":"levelo://app?vid=da4a5a0f-6330-4fe7-895a-2b138d8dde45"},"vehicle_type_id":"4","last_reported":1684058788,"current_range_meters":26000,"station_id":"ce4bgup2rcd13ifvqcn0","pricing_plan_id":"free"},{"bike_id":"631d8dc8-01e4-40fa-adb6-94922b641a1d","system_id":"levelo_inurba_marseille","lat":43.304606,"lon":5.379026,"is_reserved":false,"is_disabled":false,"rental_uris":{"android":"levelo://app?vid=631d8dc8-01e4-40fa-adb6-94922b641a1d","ios":"levelo://app?vid=631d8dc8-01e4-40fa-adb6-94922b641a1d"},"vehicle_type_id":"4","last_reported":1684058788,"current_range_meters":25600,"station_id":"ce4bgup2rcd13ifvqcn0","pricing_plan_id":"free"},{"bike_id":"5647464b-8e56-46f9-b5ba-616ff7924d98","system_id":"levelo_inurba_marseille","lat":43.31993,"lon":5.38145,"is_reserved":false,"is_disabled":false,"rental_uris":{"android":"levelo://app?vid=5647464b-8e56-46f9-b5ba-616ff7924d98","ios":"levelo://app?vid=5647464b-8e56-46f9-b5ba-616ff7924d98"},"vehicle_type_id":"4","last_reported":1684058788,"current_range_meters":11200,"station_id":"","pricing_plan_id":"free"},{"bike_id":"29e9a853-df39-4486-a555-83e2b2b1e45f","system_id":"levelo_inurba_marseille","lat":43.313571,"lon":5.384829,"is_reserved":false,"is_disabled":false,"rental_uris":{"android":"levelo://app?vid=29e9a853-df39-4486-a555-83e2b2b1e45f","ios":"levelo://app?vid=29e9a853-df39-4486-a555-83e2b2b1e45f"},"vehicle_type_id":"4","last_reported":1684058788,"current_range_meters":29200,"station_id":"ce4bgt92rcd13ifvqcf0","pricing_plan_id":"free"},{"bike_id":"3e1db83a-a0ed-434b-a372-4c5ab6f43946","system_id":"levelo_inurba_marseille","lat":43.29966,"lon":5.37419,"is_reserved":false,"is_disabled":false,"rental_uris":{"android":"levelo://app?vid=3e1db83a-a0ed-434b-a372-4c5ab6f43946","ios":"levelo://app?vid=3e1db83a-a0ed-434b-a372-4c5ab6f43946"},"vehicle_type_id":"4","last_reported":1684058788,"current_range_meters":18400,"station_id":"","pricing_plan_id":"free"},{"bike_id":"ea3a5b10-8c37-4ba0-a15a-2bc587607283","system_id":"levelo_inurba_marseille","lat":43.298433,"lon":5.362774,"is_reserved":false,"is_disabled":false,"rental_uris":{"android":"levelo://app?vid=ea3a5b10-8c37-4ba0-a15a-2bc587607283","ios":"levelo://app?vid=ea3a5b10-8c37-4ba0-a15a-2bc587607283"},"vehicle_type_id":"4","last_reported":1684058788,"current_range_meters":31200,"station_id":"ce4bgpp2rcd13ifvqc3g","pricing_plan_id":"free"},{"bike_id":"66dc8311-f45a-40f1-b2cd-15e530163214","system_id":"levelo_inurba_marseille","lat":43.298433,"lon":5.362774,"is_reserved":false,"is_disabled":false,"rental_uris":{"android":"levelo://app?vid=66dc8311-f45a-40f1-b2cd-15e530163214","ios":"levelo://app?vid=66dc8311-f45a-40f1-b2cd-15e530163214"},"vehicle_type_id":"4","last_reported":1684058788,"current_range_meters":31200,"station_id":"ce4bgpp2rcd13ifvqc3g","pricing_plan_id":"free"},{"bike_id":"a44f3be9-b486-4c9c-88bf-dbf8e9ea941d","system_id":"levelo_inurba_marseille","lat":43.305364,"lon":5.384119,"is_reserved":false,"is_disabled":false,"rental_uris":{"android":"levelo://app?vid=a44f3be9-b486-4c9c-88bf-dbf8e9ea941d","ios":"levelo://app?vid=a44f3be9-b486-4c9c-88bf-dbf8e9ea941d"},"vehicle_type_id":"4","last_reported":1684058788,"current_range_meters":6400,"station_id":"ce4bgg92rcd13ifvqb30","pricing_plan_id":"free"},{"bike_id":"ffb79ff0-7001-42ad-baf2-18d3475b1333","system_id":"levelo_inurba_marseille","lat":43.298433,"lon":5.362774,"is_reserved":false,"is_disabled":false,"rental_uris":{"android":"levelo://app?vid=ffb79ff0-7001-42ad-baf2-18d3475b1333","ios":"levelo://app?vid=ffb79ff0-7001-42ad-baf2-18d3475b1333"},"vehicle_type_id":"4","last_reported":1684058788,"current_range_meters":17200,"station_id":"ce4bgpp2rcd13ifvqc3g","pricing_plan_id":"free"},{"bike_id":"6d63365a-46c3-407d-81f2-6466660db751","system_id":"levelo_inurba_marseille","lat":43.305364,"lon":5.384119,"is_reserved":false,"is_disabled":false,"rental_uris":{"android":"levelo://app?vid=6d63365a-46c3-407d-81f2-6466660db751","ios":"levelo://app?vid=6d63365a-46c3-407d-81f2-6466660db751"},"vehicle_type_id":"4","last_reported":1684058788,"current_range_meters":6800,"station_id":"ce4bgg92rcd13ifvqb30","pricing_plan_id":"free"},{"bike_id":"47a8c5a6-370c-4e83-aa2f-659b58493d4c","system_id":"levelo_inurba_marseille","lat":43.29842,"lon":5.36266,"is_reserved":false,"is_disabled":false,"rental_uris":{"android":"levelo://app?vid=47a8c5a6-370c-4e83-aa2f-659b58493d4c","ios":"levelo://app?vid=47a8c5a6-370c-4e83-aa2f-659b58493d4c"},"vehicle_type_id":"4","last_reported":1684058788,"current_range_meters":22400,"station_id":"","pricing_plan_id":"free"},{"bike_id":"f3069f7d-18e7-4a25-9b94-319295793bee","system_id":"levelo_inurba_marseille","lat":43.299243,"lon":5.37481,"is_reserved":false,"is_disabled":false,"rental_uris":{"android":"levelo://app?vid=f3069f7d-18e7-4a25-9b94-319295793bee","ios":"levelo://app?vid=f3069f7d-18e7-4a25-9b94-319295793bee"},"vehicle_type_id":"4","last_reported":1684058788,"current_range_meters":29200,"station_id":"ce4bgjh2rcd13ifvqbg0","pricing_plan_id":"free"},{"bike_id":"757f50e4-4c75-4682-8988-c20dbd260609","system_id":"levelo_inurba_marseille","lat":43.311722,"lon":5.387247,"is_reserved":false,"is_disabled":false,"rental_uris":{"android":"levelo://app?vid=757f50e4-4c75-4682-8988-c20dbd260609","ios":"levelo://app?vid=757f50e4-4c75-4682-8988-c20dbd260609"},"vehicle_type_id":"4","last_reported":1684058788,"current_range_meters":16000,"station_id":"ce4bgv12rcd13ifvqcp0","pricing_plan_id":"free"},{"bike_id":"f450a63a-2c04-4707-ae43-29a1d041ab5e","system_id":"levelo_inurba_marseille","lat":43.299243,"lon":5.37481,"is_reserved":false,"is_disabled":false,"rental_uris":{"android":"levelo://app?vid=f450a63a-2c04-4707-ae43-29a1d041ab5e","ios":"levelo://app?vid=f450a63a-2c04-4707-ae43-29a1d041ab5e"},"vehicle_type_id":"4","last_reported":1684058788,"current_range_meters":5600,"station_id":"ce4bgjh2rcd13ifvqbg0","pricing_plan_id":"free"},{"bike_id":"2f96f4b7-d3f1-4b87-b98f-caf50ba6d13d","system_id":"levelo_inurba_marseille","lat":43.32764,"lon":5.36699,"is_reserved":false,"is_disabled":false,"rental_uris":{"android":"levelo://app?vid=2f96f4b7-d3f1-4b87-b98f-caf50ba6d13d","ios":"levelo://app?vid=2f96f4b7-d3f1-4b87-b98f-caf50ba6d13d"},"vehicle_type_id":"4","last_reported":1684058788,"current_range_meters":8000,"station_id":"","pricing_plan_id":"free"},{"bike_id":"1cbf122e-aafc-4328-ac04-aa7745237dab","system_id":"levelo_inurba_marseille","lat":43.297794,"lon":5.370888,"is_reserved":false,"is_disabled":false,"rental_uris":{"android":"levelo://app?vid=1cbf122e-aafc-4328-ac04-aa7745237dab","ios":"levelo://app?vid=1cbf122e-aafc-4328-ac04-aa7745237dab"},"vehicle_type_id":"4","last_reported":1684058788,"current_range_meters":12000,"station_id":"ce4bgop2rcd13ifvqc1g","pricing_plan_id":"free"},{"bike_id":"ad50fbdc-6818-49a3-976a-84468e8cc53b","system_id":"levelo_inurba_marseille","lat":43.328371,"lon":5.366912,"is_reserved":false,"is_disabled":false,"rental_uris":{"android":"levelo://app?vid=ad50fbdc-6818-49a3-976a-84468e8cc53b","ios":"levelo://app?vid=ad50fbdc-6818-49a3-976a-84468e8cc53b"},"vehicle_type_id":"4","last_reported":1684058788,"current_range_meters":31200,"station_id":"ce4bhs92rcd13ifvqi0g","pricing_plan_id":"free"},{"bike_id":"98fc616f-05d8-4d1d-9c58-d04644bf4fef","system_id":"levelo_inurba_marseille","lat":43.328371,"lon":5.366912,"is_reserved":false,"is_disabled":false,"rental_uris":{"android":"levelo://app?vid=98fc616f-05d8-4d1d-9c58-d04644bf4fef","ios":"levelo://app?vid=98fc616f-05d8-4d1d-9c58-d04644bf4fef"},"vehicle_type_id":"4","last_reported":1684058788,"current_range_meters":29600,"station_id":"ce4bhs92rcd13ifvqi0g","pricing_plan_id":"free"},{"bike_id":"b60b2146-6e25-4d40-acc1-c67a07b5be20","system_id":"levelo_inurba_marseille","lat":43.328371,"lon":5.366909,"is_reserved":false,"is_disabled":false,"rental_uris":{"android":"levelo://app?vid=b60b2146-6e25-4d40-acc1-c67a07b5be20","ios":"levelo://app?vid=b60b2146-6e25-4d40-acc1-c67a07b5be20"},"vehicle_type_id":"4","last_reported":1684058788,"current_range_meters":30800,"station_id":"ce4bhs92rcd13ifvqi0g","pricing_plan_id":"free"},{"bike_id":"8b551262-3438-4831-9812-be7a47f77893","system_id":"levelo_inurba_marseille","lat":43.328371,"lon":5.366909,"is_reserved":false,"is_disabled":false,"rental_uris":{"android":"levelo://app?vid=8b551262-3438-4831-9812-be7a47f77893","ios":"levelo://app?vid=8b551262-3438-4831-9812-be7a47f77893"},"vehicle_type_id":"4","last_reported":1684058788,"current_range_meters":30400,"station_id":"ce4bhs92rcd13ifvqi0g","pricing_plan_id":"free"},{"bike_id":"b449a4e4-2b40-420f-9a30-3bbbb718557f","system_id":"levelo_inurba_marseille","lat":43.328371,"lon":5.366912,"is_reserved":false,"is_disabled":false,"rental_uris":{"android":"levelo://app?vid=b449a4e4-2b40-420f-9a30-3bbbb718557f","ios":"levelo://app?vid=b449a4e4-2b40-420f-9a30-3bbbb718557f"},"vehicle_type_id":"4","last_reported":1684058788,"current_range_meters":17200,"station_id":"ce4bhs92rcd13ifvqi0g","pricing_plan_id":"free"},{"bike_id":"34c470f1-ed41-47d6-8d65-5c286939ee04","system_id":"levelo_inurba_marseille","lat":43.328371,"lon":5.366912,"is_reserved":false,"is_disabled":false,"rental_uris":{"android":"levelo://app?vid=34c470f1-ed41-47d6-8d65-5c286939ee04","ios":"levelo://app?vid=34c470f1-ed41-47d6-8d65-5c286939ee04"},"vehicle_type_id":"4","last_reported":1684058788,"current_range_meters":16000,"station_id":"ce4bhs92rcd13ifvqi0g","pricing_plan_id":"free"},{"bike_id":"05dd3660-fb8d-4649-b95f-77a48f876534","system_id":"levelo_inurba_marseille","lat":43.328371,"lon":5.366909,"is_reserved":false,"is_disabled":false,"rental_uris":{"android":"levelo://app?vid=05dd3660-fb8d-4649-b95f-77a48f876534","ios":"levelo://app?vid=05dd3660-fb8d-4649-b95f-77a48f876534"},"vehicle_type_id":"4","last_reported":1684058788,"current_range_meters":31200,"station_id":"ce4bhs92rcd13ifvqi0g","pricing_plan_id":"free"},{"bike_id":"5bc79a87-8c51-4256-972d-10ecdbdb6305","system_id":"levelo_inurba_marseille","lat":43.328371,"lon":5.366912,"is_reserved":false,"is_disabled":false,"rental_uris":{"android":"levelo://app?vid=5bc79a87-8c51-4256-972d-10ecdbdb6305","ios":"levelo://app?vid=5bc79a87-8c51-4256-972d-10ecdbdb6305"},"vehicle_type_id":"4","last_reported":1684058788,"current_range_meters":15600,"station_id":"ce4bhs92rcd13ifvqi0g","pricing_plan_id":"free"},{"bike_id":"439e171b-885c-4b84-971d-3c43043903d7","system_id":"levelo_inurba_marseille","lat":43.328371,"lon":5.366912,"is_reserved":false,"is_disabled":false,"rental_uris":{"android":"levelo://app?vid=439e171b-885c-4b84-971d-3c43043903d7","ios":"levelo://app?vid=439e171b-885c-4b84-971d-3c43043903d7"},"vehicle_type_id":"4","last_reported":1684058788,"current_range_meters":24000,"station_id":"ce4bhs92rcd13ifvqi0g","pricing_plan_id":"free"},{"bike_id":"ef619222-d86f-4984-a46f-cda033f9cc5b","system_id":"levelo_inurba_marseille","lat":43.328371,"lon":5.366912,"is_reserved":false,"is_disabled":false,"rental_uris":{"android":"levelo://app?vid=ef619222-d86f-4984-a46f-cda033f9cc5b","ios":"levelo://app?vid=ef619222-d86f-4984-a46f-cda033f9cc5b"},"vehicle_type_id":"4","last_reported":1684058788,"current_range_meters":30400,"station_id":"ce4bhs92rcd13ifvqi0g","pricing_plan_id":"free"},{"bike_id":"fc0b1b04-c329-4dcf-bf4d-f47a83066660","system_id":"levelo_inurba_marseille","lat":43.328371,"lon":5.366909,"is_reserved":false,"is_disabled":false,"rental_uris":{"android":"levelo://app?vid=fc0b1b04-c329-4dcf-bf4d-f47a83066660","ios":"levelo://app?vid=fc0b1b04-c329-4dcf-bf4d-f47a83066660"},"vehicle_type_id":"4","last_reported":1684058788,"current_range_meters":24000,"station_id":"ce4bhs92rcd13ifvqi0g","pricing_plan_id":"free"},{"bike_id":"9a3d7d7e-a3a8-457b-98eb-b021d728676d","system_id":"levelo_inurba_marseille","lat":43.328371,"lon":5.366909,"is_reserved":false,"is_disabled":false,"rental_uris":{"android":"levelo://app?vid=9a3d7d7e-a3a8-457b-98eb-b021d728676d","ios":"levelo://app?vid=9a3d7d7e-a3a8-457b-98eb-b021d728676d"},"vehicle_type_id":"4","last_reported":1684058788,"current_range_meters":20000,"station_id":"ce4bhs92rcd13ifvqi0g","pricing_plan_id":"free"},{"bike_id":"216acc05-cd3c-4a35-b67b-82ab6e8e46bc","system_id":"levelo_inurba_marseille","lat":43.32833,"lon":5.36681,"is_reserved":false,"is_disabled":false,"rental_uris":{"android":"levelo://app?vid=216acc05-cd3c-4a35-b67b-82ab6e8e46bc","ios":"levelo://app?vid=216acc05-cd3c-4a35-b67b-82ab6e8e46bc"},"vehicle_type_id":"4","last_reported":1684058788,"current_range_meters":16000,"station_id":"ce4bhs92rcd13ifvqi0g","pricing_plan_id":"free"},{"bike_id":"aaca5fdf-1dee-4b81-aa4f-2d7102ec2d0c","system_id":"levelo_inurba_marseille","lat":43.32836,"lon":5.3669,"is_reserved":false,"is_disabled":false,"rental_uris":{"android":"levelo://app?vid=aaca5fdf-1dee-4b81-aa4f-2d7102ec2d0c","ios":"levelo://app?vid=aaca5fdf-1dee-4b81-aa4f-2d7102ec2d0c"},"vehicle_type_id":"4","last_reported":1684058788,"current_range_meters":19200,"station_id":"ce4bhs92rcd13ifvqi0g","pricing_plan_id":"free"},{"bike_id":"f7e16b9b-dda5-4bba-9d80-00bc064f0f46","system_id":"levelo_inurba_marseille","lat":43.32836,"lon":5.36678,"is_reserved":false,"is_disabled":false,"rental_uris":{"android":"levelo://app?vid=f7e16b9b-dda5-4bba-9d80-00bc064f0f46","ios":"levelo://app?vid=f7e16b9b-dda5-4bba-9d80-00bc064f0f46"},"vehicle_type_id":"4","last_reported":1684058788,"current_range_meters":14400,"station_id":"ce4bhs92rcd13ifvqi0g","pricing_plan_id":"free"},{"bike_id":"19dbfe5d-9e77-4915-8c62-a8b2b75c629f","system_id":"levelo_inurba_marseille","lat":43.29708,"lon":5.36611,"is_reserved":false,"is_disabled":false,"rental_uris":{"android":"levelo://app?vid=19dbfe5d-9e77-4915-8c62-a8b2b75c629f","ios":"levelo://app?vid=19dbfe5d-9e77-4915-8c62-a8b2b75c629f"},"vehicle_type_id":"4","last_reported":1684058788,"current_range_meters":4800,"station_id":"","pricing_plan_id":"free"},{"bike_id":"71f095af-5cd7-4446-9898-e2cfd01fcc7c","system_id":"levelo_inurba_marseille","lat":43.296129,"lon":5.370777,"is_reserved":false,"is_disabled":false,"rental_uris":{"android":"levelo://app?vid=71f095af-5cd7-4446-9898-e2cfd01fcc7c","ios":"levelo://app?vid=71f095af-5cd7-4446-9898-e2cfd01fcc7c"},"vehicle_type_id":"4","last_reported":1684058788,"current_range_meters":28400,"station_id":"ce4bgnh2rcd13ifvqc0g","pricing_plan_id":"free"},{"bike_id":"aa8e4371-19f6-4480-9899-007472146187","system_id":"levelo_inurba_marseille","lat":43.296131,"lon":5.370773,"is_reserved":false,"is_disabled":false,"rental_uris":{"android":"levelo://app?vid=aa8e4371-19f6-4480-9899-007472146187","ios":"levelo://app?vid=aa8e4371-19f6-4480-9899-007472146187"},"vehicle_type_id":"4","last_reported":1684058788,"current_range_meters":27600,"station_id":"ce4bgnh2rcd13ifvqc0g","pricing_plan_id":"free"},{"bike_id":"eccbc263-0c5a-4cd5-a44d-6c7ea73118e0","system_id":"levelo_inurba_marseille","lat":43.296129,"lon":5.370777,"is_reserved":false,"is_disabled":false,"rental_uris":{"android":"levelo://app?vid=eccbc263-0c5a-4cd5-a44d-6c7ea73118e0","ios":"levelo://app?vid=eccbc263-0c5a-4cd5-a44d-6c7ea73118e0"},"vehicle_type_id":"4","last_reported":1684058788,"current_range_meters":31200,"station_id":"ce4bgnh2rcd13ifvqc0g","pricing_plan_id":"free"},{"bike_id":"a2bc7a3b-c45f-49e8-986d-037148160209","system_id":"levelo_inurba_marseille","lat":43.29573,"lon":5.367355,"is_reserved":false,"is_disabled":false,"rental_uris":{"android":"levelo://app?vid=a2bc7a3b-c45f-49e8-986d-037148160209","ios":"levelo://app?vid=a2bc7a3b-c45f-49e8-986d-037148160209"},"vehicle_type_id":"4","last_reported":1684058788,"current_range_meters":30000,"station_id":"ce4bgph2rcd13ifvqc2g","pricing_plan_id":"free"},{"bike_id":"861a25f8-ecc2-4d01-a380-f56317affc06","system_id":"levelo_inurba_marseille","lat":43.29573,"lon":5.367355,"is_reserved":false,"is_disabled":false,"rental_uris":{"android":"levelo://app?vid=861a25f8-ecc2-4d01-a380-f56317affc06","ios":"levelo://app?vid=861a25f8-ecc2-4d01-a380-f56317affc06"},"vehicle_type_id":"4","last_reported":1684058788,"current_range_meters":31200,"station_id":"ce4bgph2rcd13ifvqc2g","pricing_plan_id":"free"},{"bike_id":"1197b576-82d3-4fa6-8faa-9fbc5b30e25b","system_id":"levelo_inurba_marseille","lat":43.29726,"lon":5.37689,"is_reserved":false,"is_disabled":false,"rental_uris":{"android":"levelo://app?vid=1197b576-82d3-4fa6-8faa-9fbc5b30e25b","ios":"levelo://app?vid=1197b576-82d3-4fa6-8faa-9fbc5b30e25b"},"vehicle_type_id":"4","last_reported":1684058788,"current_range_meters":0,"station_id":"","pricing_plan_id":"free"},{"bike_id":"668cb8bc-0b19-4b71-811b-dcd0c18cf87a","system_id":"levelo_inurba_marseille","lat":43.29914,"lon":5.3815,"is_reserved":false,"is_disabled":false,"rental_uris":{"android":"levelo://app?vid=668cb8bc-0b19-4b71-811b-dcd0c18cf87a","ios":"levelo://app?vid=668cb8bc-0b19-4b71-811b-dcd0c18cf87a"},"vehicle_type_id":"4","last_reported":1684058788,"current_range_meters":18000,"station_id":"ce4bgj12rcd13ifvqbc0","pricing_plan_id":"free"},{"bike_id":"7178ef59-ebcc-428a-b356-f3b7fe5be670","system_id":"levelo_inurba_marseille","lat":43.299028,"lon":5.381509,"is_reserved":false,"is_disabled":false,"rental_uris":{"android":"levelo://app?vid=7178ef59-ebcc-428a-b356-f3b7fe5be670","ios":"levelo://app?vid=7178ef59-ebcc-428a-b356-f3b7fe5be670"},"vehicle_type_id":"4","last_reported":1684058788,"current_range_meters":13200,"station_id":"ce4bgj12rcd13ifvqbc0","pricing_plan_id":"free"},{"bike_id":"6d8508f1-5258-4ca6-a653-65b2847c3788","system_id":"levelo_inurba_marseille","lat":43.309589,"lon":5.390258,"is_reserved":false,"is_disabled":false,"rental_uris":{"android":"levelo://app?vid=6d8508f1-5258-4ca6-a653-65b2847c3788","ios":"levelo://app?vid=6d8508f1-5258-4ca6-a653-65b2847c3788"},"vehicle_type_id":"4","last_reported":1684058788,"current_range_meters":16800,"station_id":"ce4bgup2rcd13ifvqco0","pricing_plan_id":"free"},{"bike_id":"afc44f55-b926-4ff0-af18-cdb76bd3f71c","system_id":"levelo_inurba_marseille","lat":43.309589,"lon":5.390258,"is_reserved":false,"is_disabled":false,"rental_uris":{"android":"levelo://app?vid=afc44f55-b926-4ff0-af18-cdb76bd3f71c","ios":"levelo://app?vid=afc44f55-b926-4ff0-af18-cdb76bd3f71c"},"vehicle_type_id":"4","last_reported":1684058788,"current_range_meters":27600,"station_id":"ce4bgup2rcd13ifvqco0","pricing_plan_id":"free"},{"bike_id":"b14d555f-1417-4866-a107-aac5622b58c4","system_id":"levelo_inurba_marseille","lat":43.309589,"lon":5.390258,"is_reserved":false,"is_disabled":false,"rental_uris":{"android":"levelo://app?vid=b14d555f-1417-4866-a107-aac5622b58c4","ios":"levelo://app?vid=b14d555f-1417-4866-a107-aac5622b58c4"},"vehicle_type_id":"4","last_reported":1684058788,"current_range_meters":23600,"station_id":"ce4bgup2rcd13ifvqco0","pricing_plan_id":"free"},{"bike_id":"eeb98850-8a68-43a8-9551-47d4b2fb7662","system_id":"levelo_inurba_marseille","lat":43.309589,"lon":5.390258,"is_reserved":false,"is_disabled":false,"rental_uris":{"android":"levelo://app?vid=eeb98850-8a68-43a8-9551-47d4b2fb7662","ios":"levelo://app?vid=eeb98850-8a68-43a8-9551-47d4b2fb7662"},"vehicle_type_id":"4","last_reported":1684058788,"current_range_meters":31600,"station_id":"ce4bgup2rcd13ifvqco0","pricing_plan_id":"free"},{"bike_id":"808e25be-9bda-49c7-af44-68800ae9ce5e","system_id":"levelo_inurba_marseille","lat":43.309589,"lon":5.390258,"is_reserved":false,"is_disabled":false,"rental_uris":{"android":"levelo://app?vid=808e25be-9bda-49c7-af44-68800ae9ce5e","ios":"levelo://app?vid=808e25be-9bda-49c7-af44-68800ae9ce5e"},"vehicle_type_id":"4","last_reported":1684058788,"current_range_meters":30000,"station_id":"ce4bgup2rcd13ifvqco0","pricing_plan_id":"free"},{"bike_id":"309d0d2d-1b44-4f27-b750-6baa1f46ccba","system_id":"levelo_inurba_marseille","lat":43.309589,"lon":5.390258,"is_reserved":false,"is_disabled":false,"rental_uris":{"android":"levelo://app?vid=309d0d2d-1b44-4f27-b750-6baa1f46ccba","ios":"levelo://app?vid=309d0d2d-1b44-4f27-b750-6baa1f46ccba"},"vehicle_type_id":"4","last_reported":1684058788,"current_range_meters":31200,"station_id":"ce4bgup2rcd13ifvqco0","pricing_plan_id":"free"},{"bike_id":"57c3029e-a82c-41e0-8094-bac2abcea413","system_id":"levelo_inurba_marseille","lat":43.309589,"lon":5.390258,"is_reserved":false,"is_disabled":false,"rental_uris":{"android":"levelo://app?vid=57c3029e-a82c-41e0-8094-bac2abcea413","ios":"levelo://app?vid=57c3029e-a82c-41e0-8094-bac2abcea413"},"vehicle_type_id":"4","last_reported":1684058788,"current_range_meters":28400,"station_id":"ce4bgup2rcd13ifvqco0","pricing_plan_id":"free"},{"bike_id":"5a6c3b1b-b8eb-4eaa-82db-1c51f70c2b79","system_id":"levelo_inurba_marseille","lat":43.309589,"lon":5.390258,"is_reserved":false,"is_disabled":false,"rental_uris":{"android":"levelo://app?vid=5a6c3b1b-b8eb-4eaa-82db-1c51f70c2b79","ios":"levelo://app?vid=5a6c3b1b-b8eb-4eaa-82db-1c51f70c2b79"},"vehicle_type_id":"4","last_reported":1684058788,"current_range_meters":28400,"station_id":"ce4bgup2rcd13ifvqco0","pricing_plan_id":"free"},{"bike_id":"59782408-da8f-4234-a790-f6275cdc67ac","system_id":"levelo_inurba_marseille","lat":43.309589,"lon":5.390258,"is_reserved":false,"is_disabled":false,"rental_uris":{"android":"levelo://app?vid=59782408-da8f-4234-a790-f6275cdc67ac","ios":"levelo://app?vid=59782408-da8f-4234-a790-f6275cdc67ac"},"vehicle_type_id":"4","last_reported":1684058788,"current_range_meters":31200,"station_id":"ce4bgup2rcd13ifvqco0","pricing_plan_id":"free"},{"bike_id":"b9c5ccae-9ed6-43fa-b427-0fb6eac72783","system_id":"levelo_inurba_marseille","lat":43.309589,"lon":5.390258,"is_reserved":false,"is_disabled":false,"rental_uris":{"android":"levelo://app?vid=b9c5ccae-9ed6-43fa-b427-0fb6eac72783","ios":"levelo://app?vid=b9c5ccae-9ed6-43fa-b427-0fb6eac72783"},"vehicle_type_id":"4","last_reported":1684058788,"current_range_meters":31200,"station_id":"ce4bgup2rcd13ifvqco0","pricing_plan_id":"free"},{"bike_id":"be1ed82e-206d-4caf-b060-ca67c034763e","system_id":"levelo_inurba_marseille","lat":43.309589,"lon":5.390258,"is_reserved":false,"is_disabled":false,"rental_uris":{"android":"levelo://app?vid=be1ed82e-206d-4caf-b060-ca67c034763e","ios":"levelo://app?vid=be1ed82e-206d-4caf-b060-ca67c034763e"},"vehicle_type_id":"4","last_reported":1684058788,"current_range_meters":28400,"station_id":"ce4bgup2rcd13ifvqco0","pricing_plan_id":"free"},{"bike_id":"5bd6f28e-0bdc-4ca7-b39a-b08c12afb0cd","system_id":"levelo_inurba_marseille","lat":43.309589,"lon":5.390258,"is_reserved":false,"is_disabled":false,"rental_uris":{"android":"levelo://app?vid=5bd6f28e-0bdc-4ca7-b39a-b08c12afb0cd","ios":"levelo://app?vid=5bd6f28e-0bdc-4ca7-b39a-b08c12afb0cd"},"vehicle_type_id":"4","last_reported":1684058788,"current_range_meters":24400,"station_id":"ce4bgup2rcd13ifvqco0","pricing_plan_id":"free"},{"bike_id":"c4972440-0edb-4590-95e2-8012ae1775b1","system_id":"levelo_inurba_marseille","lat":43.309589,"lon":5.390258,"is_reserved":false,"is_disabled":false,"rental_uris":{"android":"levelo://app?vid=c4972440-0edb-4590-95e2-8012ae1775b1","ios":"levelo://app?vid=c4972440-0edb-4590-95e2-8012ae1775b1"},"vehicle_type_id":"4","last_reported":1684058788,"current_range_meters":31200,"station_id":"ce4bgup2rcd13ifvqco0","pricing_plan_id":"free"},{"bike_id":"92e339d3-21f3-438e-8201-fe359df47132","system_id":"levelo_inurba_marseille","lat":43.29702,"lon":5.37744,"is_reserved":false,"is_disabled":false,"rental_uris":{"android":"levelo://app?vid=92e339d3-21f3-438e-8201-fe359df47132","ios":"levelo://app?vid=92e339d3-21f3-438e-8201-fe359df47132"},"vehicle_type_id":"4","last_reported":1684058788,"current_range_meters":29200,"station_id":"","pricing_plan_id":"free"},{"bike_id":"2e4072c4-97ae-412f-891d-364f103e5e6c","system_id":"levelo_inurba_marseille","lat":43.317539,"lon":5.390113,"is_reserved":false,"is_disabled":false,"rental_uris":{"android":"levelo://app?vid=2e4072c4-97ae-412f-891d-364f103e5e6c","ios":"levelo://app?vid=2e4072c4-97ae-412f-891d-364f103e5e6c"},"vehicle_type_id":"4","last_reported":1684058788,"current_range_meters":14800,"station_id":"ce4bhqp2rcd13ifvqhng","pricing_plan_id":"free"},{"bike_id":"7e101d88-7926-4513-a08a-b2a6fdb92c65","system_id":"levelo_inurba_marseille","lat":43.317541,"lon":5.390117,"is_reserved":false,"is_disabled":false,"rental_uris":{"android":"levelo://app?vid=7e101d88-7926-4513-a08a-b2a6fdb92c65","ios":"levelo://app?vid=7e101d88-7926-4513-a08a-b2a6fdb92c65"},"vehicle_type_id":"4","last_reported":1684058788,"current_range_meters":26000,"station_id":"ce4bhqp2rcd13ifvqhng","pricing_plan_id":"free"},{"bike_id":"1b8e8455-d974-44bb-9a4e-7e7867c76231","system_id":"levelo_inurba_marseille","lat":43.317533,"lon":5.390134,"is_reserved":false,"is_disabled":false,"rental_uris":{"android":"levelo://app?vid=1b8e8455-d974-44bb-9a4e-7e7867c76231","ios":"levelo://app?vid=1b8e8455-d974-44bb-9a4e-7e7867c76231"},"vehicle_type_id":"4","last_reported":1684058788,"current_range_meters":13600,"station_id":"ce4bhqp2rcd13ifvqhng","pricing_plan_id":"free"},{"bike_id":"46fe8492-485e-4b45-949b-3fd957712adc","system_id":"levelo_inurba_marseille","lat":43.317543,"lon":5.390142,"is_reserved":false,"is_disabled":false,"rental_uris":{"android":"levelo://app?vid=46fe8492-485e-4b45-949b-3fd957712adc","ios":"levelo://app?vid=46fe8492-485e-4b45-949b-3fd957712adc"},"vehicle_type_id":"4","last_reported":1684058788,"current_range_meters":10800,"station_id":"ce4bhqp2rcd13ifvqhng","pricing_plan_id":"free"},{"bike_id":"1b325cea-ceaa-42a6-b5b5-d830a284156d","system_id":"levelo_inurba_marseille","lat":43.317537,"lon":5.390144,"is_reserved":false,"is_disabled":false,"rental_uris":{"android":"levelo://app?vid=1b325cea-ceaa-42a6-b5b5-d830a284156d","ios":"levelo://app?vid=1b325cea-ceaa-42a6-b5b5-d830a284156d"},"vehicle_type_id":"4","last_reported":1684058788,"current_range_meters":22800,"station_id":"ce4bhqp2rcd13ifvqhng","pricing_plan_id":"free"},{"bike_id":"6b77c43c-960d-417c-8233-25f3afef3740","system_id":"levelo_inurba_marseille","lat":43.317585,"lon":5.390283,"is_reserved":false,"is_disabled":false,"rental_uris":{"android":"levelo://app?vid=6b77c43c-960d-417c-8233-25f3afef3740","ios":"levelo://app?vid=6b77c43c-960d-417c-8233-25f3afef3740"},"vehicle_type_id":"4","last_reported":1684058788,"current_range_meters":27200,"station_id":"ce4bhqp2rcd13ifvqhng","pricing_plan_id":"free"},{"bike_id":"7c734a01-5d51-434c-8c87-4d17d628036f","system_id":"levelo_inurba_marseille","lat":43.298037,"lon":5.381066,"is_reserved":false,"is_disabled":false,"rental_uris":{"android":"levelo://app?vid=7c734a01-5d51-434c-8c87-4d17d628036f","ios":"levelo://app?vid=7c734a01-5d51-434c-8c87-4d17d628036f"},"vehicle_type_id":"4","last_reported":1684058788,"current_range_meters":18400,"station_id":"ce4bgip2rcd13ifvqbb0","pricing_plan_id":"free"},{"bike_id":"f4747956-6d8a-481e-86cb-add5f99b752f","system_id":"levelo_inurba_marseille","lat":43.304274,"lon":5.388873,"is_reserved":false,"is_disabled":false,"rental_uris":{"android":"levelo://app?vid=f4747956-6d8a-481e-86cb-add5f99b752f","ios":"levelo://app?vid=f4747956-6d8a-481e-86cb-add5f99b752f"},"vehicle_type_id":"4","last_reported":1684058788,"current_range_meters":18800,"station_id":"ce4bgk12rcd13ifvqbi0","pricing_plan_id":"free"},{"bike_id":"e3c0425a-ba41-4394-9ea2-8b99bfebc698","system_id":"levelo_inurba_marseille","lat":43.29782,"lon":5.38099,"is_reserved":false,"is_disabled":false,"rental_uris":{"android":"levelo://app?vid=e3c0425a-ba41-4394-9ea2-8b99bfebc698","ios":"levelo://app?vid=e3c0425a-ba41-4394-9ea2-8b99bfebc698"},"vehicle_type_id":"4","last_reported":1684058788,"current_range_meters":28000,"station_id":"","pricing_plan_id":"free"},{"bike_id":"e453530a-7a97-4069-8619-b18a48aa2f97","system_id":"levelo_inurba_marseille","lat":43.295279,"lon":5.375048,"is_reserved":false,"is_disabled":false,"rental_uris":{"android":"levelo://app?vid=e453530a-7a97-4069-8619-b18a48aa2f97","ios":"levelo://app?vid=e453530a-7a97-4069-8619-b18a48aa2f97"},"vehicle_type_id":"4","last_reported":1684058788,"current_range_meters":2000,"station_id":"ce4bgkp2rcd13ifvqbmg","pricing_plan_id":"free"},{"bike_id":"98d43089-ff1e-40ee-a123-f18e174ce1c4","system_id":"levelo_inurba_marseille","lat":43.31444,"lon":5.39271,"is_reserved":false,"is_disabled":false,"rental_uris":{"android":"levelo://app?vid=98d43089-ff1e-40ee-a123-f18e174ce1c4","ios":"levelo://app?vid=98d43089-ff1e-40ee-a123-f18e174ce1c4"},"vehicle_type_id":"4","last_reported":1684058788,"current_range_meters":0,"station_id":"","pricing_plan_id":"free"},{"bike_id":"6f6b02ce-a50b-443a-a31d-aed834771e7b","system_id":"levelo_inurba_marseille","lat":43.31441,"lon":5.39281,"is_reserved":false,"is_disabled":false,"rental_uris":{"android":"levelo://app?vid=6f6b02ce-a50b-443a-a31d-aed834771e7b","ios":"levelo://app?vid=6f6b02ce-a50b-443a-a31d-aed834771e7b"},"vehicle_type_id":"4","last_reported":1684058788,"current_range_meters":2400,"station_id":"","pricing_plan_id":"free"},{"bike_id":"80d8423c-45c9-442d-9a74-f0f97a936a52","system_id":"levelo_inurba_marseille","lat":43.293249,"lon":5.371578,"is_reserved":false,"is_disabled":false,"rental_uris":{"android":"levelo://app?vid=80d8423c-45c9-442d-9a74-f0f97a936a52","ios":"levelo://app?vid=80d8423c-45c9-442d-9a74-f0f97a936a52"},"vehicle_type_id":"4","last_reported":1684058788,"current_range_meters":20400,"station_id":"ce4bgh92rcd13ifvqb40","pricing_plan_id":"free"},{"bike_id":"6a2642fc-b753-4208-985a-371364f6d403","system_id":"levelo_inurba_marseille","lat":43.293085,"lon":5.371775,"is_reserved":false,"is_disabled":false,"rental_uris":{"android":"levelo://app?vid=6a2642fc-b753-4208-985a-371364f6d403","ios":"levelo://app?vid=6a2642fc-b753-4208-985a-371364f6d403"},"vehicle_type_id":"4","last_reported":1684058788,"current_range_meters":24000,"station_id":"","pricing_plan_id":"free"},{"bike_id":"5be8549b-646c-4b67-8f89-93fb5ee4f60d","system_id":"levelo_inurba_marseille","lat":43.292749,"lon":5.368402,"is_reserved":false,"is_disabled":false,"rental_uris":{"android":"levelo://app?vid=5be8549b-646c-4b67-8f89-93fb5ee4f60d","ios":"levelo://app?vid=5be8549b-646c-4b67-8f89-93fb5ee4f60d"},"vehicle_type_id":"4","last_reported":1684058788,"current_range_meters":22000,"station_id":"ce4bhbp2rcd13ifvqesg","pricing_plan_id":"free"},{"bike_id":"f7f60b7c-4887-484d-901a-e2d8bfd193ac","system_id":"levelo_inurba_marseille","lat":43.293249,"lon":5.371578,"is_reserved":false,"is_disabled":false,"rental_uris":{"android":"levelo://app?vid=f7f60b7c-4887-484d-901a-e2d8bfd193ac","ios":"levelo://app?vid=f7f60b7c-4887-484d-901a-e2d8bfd193ac"},"vehicle_type_id":"4","last_reported":1684058788,"current_range_meters":19600,"station_id":"ce4bgh92rcd13ifvqb40","pricing_plan_id":"free"},{"bike_id":"c2e21ff3-2ccb-4cca-aeb9-ff5ebec2880b","system_id":"levelo_inurba_marseille","lat":43.292749,"lon":5.368402,"is_reserved":false,"is_disabled":false,"rental_uris":{"android":"levelo://app?vid=c2e21ff3-2ccb-4cca-aeb9-ff5ebec2880b","ios":"levelo://app?vid=c2e21ff3-2ccb-4cca-aeb9-ff5ebec2880b"},"vehicle_type_id":"4","last_reported":1684058788,"current_range_meters":20400,"station_id":"ce4bhbp2rcd13ifvqesg","pricing_plan_id":"free"},{"bike_id":"e32ad5ca-2dea-4191-b03e-f4541502abf5","system_id":"levelo_inurba_marseille","lat":43.30606,"lon":5.39352,"is_reserved":false,"is_disabled":false,"rental_uris":{"android":"levelo://app?vid=e32ad5ca-2dea-4191-b03e-f4541502abf5","ios":"levelo://app?vid=e32ad5ca-2dea-4191-b03e-f4541502abf5"},"vehicle_type_id":"4","last_reported":1684058788,"current_range_meters":24400,"station_id":"ce4bh0p2rcd13ifvqd80","pricing_plan_id":"free"},{"bike_id":"24bb99c6-36d0-45ab-98b0-f09763c40467","system_id":"levelo_inurba_marseille","lat":43.305994,"lon":5.393687,"is_reserved":false,"is_disabled":false,"rental_uris":{"android":"levelo://app?vid=24bb99c6-36d0-45ab-98b0-f09763c40467","ios":"levelo://app?vid=24bb99c6-36d0-45ab-98b0-f09763c40467"},"vehicle_type_id":"4","last_reported":1684058788,"current_range_meters":19200,"station_id":"ce4bh0p2rcd13ifvqd80","pricing_plan_id":"free"},{"bike_id":"61d8f620-9d04-4fc1-aad2-8d592de31835","system_id":"levelo_inurba_marseille","lat":43.303002,"lon":5.392142,"is_reserved":false,"is_disabled":false,"rental_uris":{"android":"levelo://app?vid=61d8f620-9d04-4fc1-aad2-8d592de31835","ios":"levelo://app?vid=61d8f620-9d04-4fc1-aad2-8d592de31835"},"vehicle_type_id":"4","last_reported":1684058788,"current_range_meters":26800,"station_id":"ce4bgkh2rcd13ifvqbk0","pricing_plan_id":"free"},{"bike_id":"30f51648-c827-4ad6-b817-2f5144866c72","system_id":"levelo_inurba_marseille","lat":43.300852,"lon":5.390859,"is_reserved":false,"is_disabled":false,"rental_uris":{"android":"levelo://app?vid=30f51648-c827-4ad6-b817-2f5144866c72","ios":"levelo://app?vid=30f51648-c827-4ad6-b817-2f5144866c72"},"vehicle_type_id":"4","last_reported":1684058788,"current_range_meters":25600,"station_id":"ce4bh192rcd13ifvqdb0","pricing_plan_id":"free"},{"bike_id":"1e2ea9b7-a361-4aa2-a38d-4d60228da173","system_id":"levelo_inurba_marseille","lat":43.29217,"lon":5.36047,"is_reserved":false,"is_disabled":false,"rental_uris":{"android":"levelo://app?vid=1e2ea9b7-a361-4aa2-a38d-4d60228da173","ios":"levelo://app?vid=1e2ea9b7-a361-4aa2-a38d-4d60228da173"},"vehicle_type_id":"4","last_reported":1684058788,"current_range_meters":27200,"station_id":"","pricing_plan_id":"free"},{"bike_id":"71310500-a00d-4f63-a692-41782e820f55","system_id":"levelo_inurba_marseille","lat":43.29215,"lon":5.36047,"is_reserved":false,"is_disabled":false,"rental_uris":{"android":"levelo://app?vid=71310500-a00d-4f63-a692-41782e820f55","ios":"levelo://app?vid=71310500-a00d-4f63-a692-41782e820f55"},"vehicle_type_id":"4","last_reported":1684058788,"current_range_meters":20800,"station_id":"","pricing_plan_id":"free"},{"bike_id":"68da6d6a-d0cb-4466-b2e0-dd1b933823ba","system_id":"levelo_inurba_marseille","lat":43.29213,"lon":5.36059,"is_reserved":false,"is_disabled":false,"rental_uris":{"android":"levelo://app?vid=68da6d6a-d0cb-4466-b2e0-dd1b933823ba","ios":"levelo://app?vid=68da6d6a-d0cb-4466-b2e0-dd1b933823ba"},"vehicle_type_id":"4","last_reported":1684058788,"current_range_meters":17600,"station_id":"","pricing_plan_id":"free"},{"bike_id":"10df3eed-9b89-41e7-ac7f-551c3f418178","system_id":"levelo_inurba_marseille","lat":43.29196,"lon":5.35809,"is_reserved":false,"is_disabled":false,"rental_uris":{"android":"levelo://app?vid=10df3eed-9b89-41e7-ac7f-551c3f418178","ios":"levelo://app?vid=10df3eed-9b89-41e7-ac7f-551c3f418178"},"vehicle_type_id":"4","last_reported":1684058788,"current_range_meters":22000,"station_id":"","pricing_plan_id":"free"},{"bike_id":"e0008fc2-f1a5-4135-b7c4-bbf3cfe98cdb","system_id":"levelo_inurba_marseille","lat":43.31325,"lon":5.39683,"is_reserved":false,"is_disabled":false,"rental_uris":{"android":"levelo://app?vid=e0008fc2-f1a5-4135-b7c4-bbf3cfe98cdb","ios":"levelo://app?vid=e0008fc2-f1a5-4135-b7c4-bbf3cfe98cdb"},"vehicle_type_id":"4","last_reported":1684058788,"current_range_meters":14400,"station_id":"","pricing_plan_id":"free"},{"bike_id":"7abeee48-2120-4826-b7ef-74295e873def","system_id":"levelo_inurba_marseille","lat":43.290104,"lon":5.356111,"is_reserved":false,"is_disabled":false,"rental_uris":{"android":"levelo://app?vid=7abeee48-2120-4826-b7ef-74295e873def","ios":"levelo://app?vid=7abeee48-2120-4826-b7ef-74295e873def"},"vehicle_type_id":"4","last_reported":1684058788,"current_range_meters":0,"station_id":"ce4bhb92rcd13ifvqen0","pricing_plan_id":"free"},{"bike_id":"bb459314-17f6-417f-93dd-1cdb5c32a679","system_id":"levelo_inurba_marseille","lat":43.313291,"lon":5.396838,"is_reserved":false,"is_disabled":false,"rental_uris":{"android":"levelo://app?vid=bb459314-17f6-417f-93dd-1cdb5c32a679","ios":"levelo://app?vid=bb459314-17f6-417f-93dd-1cdb5c32a679"},"vehicle_type_id":"4","last_reported":1684058788,"current_range_meters":26800,"station_id":"ce4bgvp2rcd13ifvqcu0","pricing_plan_id":"free"},{"bike_id":"e45f9ceb-d7cf-44ac-ac01-ed8ef1fde44f","system_id":"levelo_inurba_marseille","lat":43.313291,"lon":5.396838,"is_reserved":false,"is_disabled":false,"rental_uris":{"android":"levelo://app?vid=e45f9ceb-d7cf-44ac-ac01-ed8ef1fde44f","ios":"levelo://app?vid=e45f9ceb-d7cf-44ac-ac01-ed8ef1fde44f"},"vehicle_type_id":"4","last_reported":1684058788,"current_range_meters":21200,"station_id":"ce4bgvp2rcd13ifvqcu0","pricing_plan_id":"free"},{"bike_id":"0de22fe6-f5bd-4a91-a882-a56a52302f31","system_id":"levelo_inurba_marseille","lat":43.309038,"lon":5.396546,"is_reserved":false,"is_disabled":false,"rental_uris":{"android":"levelo://app?vid=0de22fe6-f5bd-4a91-a882-a56a52302f31","ios":"levelo://app?vid=0de22fe6-f5bd-4a91-a882-a56a52302f31"},"vehicle_type_id":"4","last_reported":1684058788,"current_range_meters":16800,"station_id":"ce4bh012rcd13ifvqcv0","pricing_plan_id":"free"},{"bike_id":"f54d2ac5-2892-476e-b185-b228218c5273","system_id":"levelo_inurba_marseille","lat":43.309038,"lon":5.396546,"is_reserved":false,"is_disabled":false,"rental_uris":{"android":"levelo://app?vid=f54d2ac5-2892-476e-b185-b228218c5273","ios":"levelo://app?vid=f54d2ac5-2892-476e-b185-b228218c5273"},"vehicle_type_id":"4","last_reported":1684058788,"current_range_meters":28400,"station_id":"ce4bh012rcd13ifvqcv0","pricing_plan_id":"free"},{"bike_id":"5f065ca9-3ba2-4c59-888c-7c829bc79e91","system_id":"levelo_inurba_marseille","lat":43.30884,"lon":5.39641,"is_reserved":false,"is_disabled":false,"rental_uris":{"android":"levelo://app?vid=5f065ca9-3ba2-4c59-888c-7c829bc79e91","ios":"levelo://app?vid=5f065ca9-3ba2-4c59-888c-7c829bc79e91"},"vehicle_type_id":"4","last_reported":1684058788,"current_range_meters":31200,"station_id":"","pricing_plan_id":"free"},{"bike_id":"723c5ffd-0b1b-44cf-8cb5-bc8afe360d1d","system_id":"levelo_inurba_marseille","lat":43.309038,"lon":5.396546,"is_reserved":false,"is_disabled":false,"rental_uris":{"android":"levelo://app?vid=723c5ffd-0b1b-44cf-8cb5-bc8afe360d1d","ios":"levelo://app?vid=723c5ffd-0b1b-44cf-8cb5-bc8afe360d1d"},"vehicle_type_id":"4","last_reported":1684058788,"current_range_meters":31200,"station_id":"ce4bh012rcd13ifvqcv0","pricing_plan_id":"free"},{"bike_id":"caa3a155-042e-4332-ae2d-e502e48a4926","system_id":"levelo_inurba_marseille","lat":43.30889,"lon":5.39647,"is_reserved":false,"is_disabled":false,"rental_uris":{"android":"levelo://app?vid=caa3a155-042e-4332-ae2d-e502e48a4926","ios":"levelo://app?vid=caa3a155-042e-4332-ae2d-e502e48a4926"},"vehicle_type_id":"4","last_reported":1684058788,"current_range_meters":28400,"station_id":"ce4bh012rcd13ifvqcv0","pricing_plan_id":"free"},{"bike_id":"18b4e796-6e42-4902-ae8e-38f0f06d4d57","system_id":"levelo_inurba_marseille","lat":43.309038,"lon":5.396546,"is_reserved":false,"is_disabled":false,"rental_uris":{"android":"levelo://app?vid=18b4e796-6e42-4902-ae8e-38f0f06d4d57","ios":"levelo://app?vid=18b4e796-6e42-4902-ae8e-38f0f06d4d57"},"vehicle_type_id":"4","last_reported":1684058788,"current_range_meters":14000,"station_id":"ce4bh012rcd13ifvqcv0","pricing_plan_id":"free"},{"bike_id":"da42fdc4-1e46-4b6a-9199-894601431afa","system_id":"levelo_inurba_marseille","lat":43.309038,"lon":5.396546,"is_reserved":false,"is_disabled":false,"rental_uris":{"android":"levelo://app?vid=da42fdc4-1e46-4b6a-9199-894601431afa","ios":"levelo://app?vid=da42fdc4-1e46-4b6a-9199-894601431afa"},"vehicle_type_id":"4","last_reported":1684058788,"current_range_meters":30000,"station_id":"ce4bh012rcd13ifvqcv0","pricing_plan_id":"free"},{"bike_id":"a1cbd7f1-b1d6-46ee-8d7a-e685f12f07db","system_id":"levelo_inurba_marseille","lat":43.313291,"lon":5.396838,"is_reserved":false,"is_disabled":false,"rental_uris":{"android":"levelo://app?vid=a1cbd7f1-b1d6-46ee-8d7a-e685f12f07db","ios":"levelo://app?vid=a1cbd7f1-b1d6-46ee-8d7a-e685f12f07db"},"vehicle_type_id":"4","last_reported":1684058788,"current_range_meters":22000,"station_id":"ce4bgvp2rcd13ifvqcu0","pricing_plan_id":"free"},{"bike_id":"4e28d4ec-174c-493f-82d5-7de48c41998c","system_id":"levelo_inurba_marseille","lat":43.29044,"lon":5.35909,"is_reserved":false,"is_disabled":false,"rental_uris":{"android":"levelo://app?vid=4e28d4ec-174c-493f-82d5-7de48c41998c","ios":"levelo://app?vid=4e28d4ec-174c-493f-82d5-7de48c41998c"},"vehicle_type_id":"4","last_reported":1684058788,"current_range_meters":19200,"station_id":"ce4bha92rcd13ifvqeg0","pricing_plan_id":"free"},{"bike_id":"08e758c1-0412-4c02-982a-42cdc55b5264","system_id":"levelo_inurba_marseille","lat":43.29041,"lon":5.35919,"is_reserved":false,"is_disabled":false,"rental_uris":{"android":"levelo://app?vid=08e758c1-0412-4c02-982a-42cdc55b5264","ios":"levelo://app?vid=08e758c1-0412-4c02-982a-42cdc55b5264"},"vehicle_type_id":"4","last_reported":1684058788,"current_range_meters":24400,"station_id":"","pricing_plan_id":"free"},{"bike_id":"5f15ca38-2411-466e-9499-deef8b727ddb","system_id":"levelo_inurba_marseille","lat":43.29042,"lon":5.3591,"is_reserved":false,"is_disabled":false,"rental_uris":{"android":"levelo://app?vid=5f15ca38-2411-466e-9499-deef8b727ddb","ios":"levelo://app?vid=5f15ca38-2411-466e-9499-deef8b727ddb"},"vehicle_type_id":"4","last_reported":1684058788,"current_range_meters":29600,"station_id":"","pricing_plan_id":"free"},{"bike_id":"898ad62c-7b44-48c9-bc93-09f6d5634813","system_id":"levelo_inurba_marseille","lat":43.29038,"lon":5.35908,"is_reserved":false,"is_disabled":false,"rental_uris":{"android":"levelo://app?vid=898ad62c-7b44-48c9-bc93-09f6d5634813","ios":"levelo://app?vid=898ad62c-7b44-48c9-bc93-09f6d5634813"},"vehicle_type_id":"4","last_reported":1684058788,"current_range_meters":30800,"station_id":"","pricing_plan_id":"free"},{"bike_id":"1ea73195-37e9-406e-a709-506f8392c5c1","system_id":"levelo_inurba_marseille","lat":43.29036,"lon":5.35904,"is_reserved":false,"is_disabled":false,"rental_uris":{"android":"levelo://app?vid=1ea73195-37e9-406e-a709-506f8392c5c1","ios":"levelo://app?vid=1ea73195-37e9-406e-a709-506f8392c5c1"},"vehicle_type_id":"4","last_reported":1684058788,"current_range_meters":18000,"station_id":"","pricing_plan_id":"free"},{"bike_id":"9f129774-36e1-42f1-8229-a7c2be11d89e","system_id":"levelo_inurba_marseille","lat":43.30481,"lon":5.39697,"is_reserved":false,"is_disabled":false,"rental_uris":{"android":"levelo://app?vid=9f129774-36e1-42f1-8229-a7c2be11d89e","ios":"levelo://app?vid=9f129774-36e1-42f1-8229-a7c2be11d89e"},"vehicle_type_id":"4","last_reported":1684058788,"current_range_meters":16000,"station_id":"","pricing_plan_id":"free"},{"bike_id":"adb4d11c-3bbd-43ed-b260-bd6fc4807a09","system_id":"levelo_inurba_marseille","lat":43.290327,"lon":5.375711,"is_reserved":false,"is_disabled":false,"rental_uris":{"android":"levelo://app?vid=adb4d11c-3bbd-43ed-b260-bd6fc4807a09","ios":"levelo://app?vid=adb4d11c-3bbd-43ed-b260-bd6fc4807a09"},"vehicle_type_id":"4","last_reported":1684058788,"current_range_meters":22000,"station_id":"ce4bh692rcd13ifvqe90","pricing_plan_id":"free"},{"bike_id":"bedee10e-5dfc-450e-8b51-ca83bf1109a6","system_id":"levelo_inurba_marseille","lat":43.30488,"lon":5.39703,"is_reserved":false,"is_disabled":false,"rental_uris":{"android":"levelo://app?vid=bedee10e-5dfc-450e-8b51-ca83bf1109a6","ios":"levelo://app?vid=bedee10e-5dfc-450e-8b51-ca83bf1109a6"},"vehicle_type_id":"4","last_reported":1684058788,"current_range_meters":0,"station_id":"","pricing_plan_id":"free"},{"bike_id":"b241c935-4e94-4509-a0e8-5b21a62a956d","system_id":"levelo_inurba_marseille","lat":43.290319,"lon":5.375732,"is_reserved":false,"is_disabled":false,"rental_uris":{"android":"levelo://app?vid=b241c935-4e94-4509-a0e8-5b21a62a956d","ios":"levelo://app?vid=b241c935-4e94-4509-a0e8-5b21a62a956d"},"vehicle_type_id":"4","last_reported":1684058788,"current_range_meters":31600,"station_id":"ce4bh692rcd13ifvqe90","pricing_plan_id":"free"},{"bike_id":"9dcb4c10-6ebd-4d57-be75-a917aaefe57b","system_id":"levelo_inurba_marseille","lat":43.2903,"lon":5.37559,"is_reserved":false,"is_disabled":false,"rental_uris":{"android":"levelo://app?vid=9dcb4c10-6ebd-4d57-be75-a917aaefe57b","ios":"levelo://app?vid=9dcb4c10-6ebd-4d57-be75-a917aaefe57b"},"vehicle_type_id":"4","last_reported":1684058788,"current_range_meters":31200,"station_id":"ce4bh692rcd13ifvqe90","pricing_plan_id":"free"},{"bike_id":"4157fe18-351c-49c8-bfcc-013f2c292855","system_id":"levelo_inurba_marseille","lat":43.289468,"lon":5.363719,"is_reserved":false,"is_disabled":false,"rental_uris":{"android":"levelo://app?vid=4157fe18-351c-49c8-bfcc-013f2c292855","ios":"levelo://app?vid=4157fe18-351c-49c8-bfcc-013f2c292855"},"vehicle_type_id":"4","last_reported":1684058788,"current_range_meters":24000,"station_id":"ce4bhc92rcd13ifvqetg","pricing_plan_id":"free"},{"bike_id":"7343231d-e123-42dc-b0bc-e0d0749e3072","system_id":"levelo_inurba_marseille","lat":43.292642,"lon":5.384254,"is_reserved":false,"is_disabled":false,"rental_uris":{"android":"levelo://app?vid=7343231d-e123-42dc-b0bc-e0d0749e3072","ios":"levelo://app?vid=7343231d-e123-42dc-b0bc-e0d0749e3072"},"vehicle_type_id":"4","last_reported":1684058788,"current_range_meters":15600,"station_id":"ce4bh692rcd13ifvqea0","pricing_plan_id":"free"},{"bike_id":"4b9e8926-0c1f-46aa-8bd9-01ba33f2657b","system_id":"levelo_inurba_marseille","lat":43.29268,"lon":5.38441,"is_reserved":false,"is_disabled":false,"rental_uris":{"android":"levelo://app?vid=4b9e8926-0c1f-46aa-8bd9-01ba33f2657b","ios":"levelo://app?vid=4b9e8926-0c1f-46aa-8bd9-01ba33f2657b"},"vehicle_type_id":"4","last_reported":1684058788,"current_range_meters":18400,"station_id":"ce4bh692rcd13ifvqea0","pricing_plan_id":"free"},{"bike_id":"afd4d46a-9b6b-48e6-b482-33b1cc154d4a","system_id":"levelo_inurba_marseille","lat":43.292642,"lon":5.384254,"is_reserved":false,"is_disabled":false,"rental_uris":{"android":"levelo://app?vid=afd4d46a-9b6b-48e6-b482-33b1cc154d4a","ios":"levelo://app?vid=afd4d46a-9b6b-48e6-b482-33b1cc154d4a"},"vehicle_type_id":"4","last_reported":1684058788,"current_range_meters":32000,"station_id":"ce4bh692rcd13ifvqea0","pricing_plan_id":"free"},{"bike_id":"3b89fc94-9d05-4bf0-906d-a19d041745fb","system_id":"levelo_inurba_marseille","lat":43.29264,"lon":5.38447,"is_reserved":false,"is_disabled":false,"rental_uris":{"android":"levelo://app?vid=3b89fc94-9d05-4bf0-906d-a19d041745fb","ios":"levelo://app?vid=3b89fc94-9d05-4bf0-906d-a19d041745fb"},"vehicle_type_id":"4","last_reported":1684058788,"current_range_meters":29600,"station_id":"ce4bh692rcd13ifvqea0","pricing_plan_id":"free"},{"bike_id":"ec94a3ae-7e4c-47a0-881a-b545f010b5df","system_id":"levelo_inurba_marseille","lat":43.290104,"lon":5.356111,"is_reserved":false,"is_disabled":false,"rental_uris":{"android":"levelo://app?vid=ec94a3ae-7e4c-47a0-881a-b545f010b5df","ios":"levelo://app?vid=ec94a3ae-7e4c-47a0-881a-b545f010b5df"},"vehicle_type_id":"4","last_reported":1684058788,"current_range_meters":31200,"station_id":"ce4bhb92rcd13ifvqen0","pricing_plan_id":"free"},{"bike_id":"c77189a6-03f3-4824-bc42-770ea478ccb2","system_id":"levelo_inurba_marseille","lat":43.290104,"lon":5.356111,"is_reserved":false,"is_disabled":false,"rental_uris":{"android":"levelo://app?vid=c77189a6-03f3-4824-bc42-770ea478ccb2","ios":"levelo://app?vid=c77189a6-03f3-4824-bc42-770ea478ccb2"},"vehicle_type_id":"4","last_reported":1684058788,"current_range_meters":26800,"station_id":"ce4bhb92rcd13ifvqen0","pricing_plan_id":"free"},{"bike_id":"f3562043-b80d-45e3-967d-ba21f94bef01","system_id":"levelo_inurba_marseille","lat":43.33038,"lon":5.3892,"is_reserved":false,"is_disabled":false,"rental_uris":{"android":"levelo://app?vid=f3562043-b80d-45e3-967d-ba21f94bef01","ios":"levelo://app?vid=f3562043-b80d-45e3-967d-ba21f94bef01"},"vehicle_type_id":"4","last_reported":1684058788,"current_range_meters":30800,"station_id":"ce4bhr92rcd13ifvqhrg","pricing_plan_id":"free"},{"bike_id":"19d810ab-8370-4eb6-8eb4-3f94413eb503","system_id":"levelo_inurba_marseille","lat":43.33042,"lon":5.38915,"is_reserved":false,"is_disabled":false,"rental_uris":{"android":"levelo://app?vid=19d810ab-8370-4eb6-8eb4-3f94413eb503","ios":"levelo://app?vid=19d810ab-8370-4eb6-8eb4-3f94413eb503"},"vehicle_type_id":"4","last_reported":1684058788,"current_range_meters":12800,"station_id":"ce4bhr92rcd13ifvqhrg","pricing_plan_id":"free"},{"bike_id":"12c51a24-94fc-42c9-adce-c9658b9c69d8","system_id":"levelo_inurba_marseille","lat":43.290104,"lon":5.356111,"is_reserved":false,"is_disabled":false,"rental_uris":{"android":"levelo://app?vid=12c51a24-94fc-42c9-adce-c9658b9c69d8","ios":"levelo://app?vid=12c51a24-94fc-42c9-adce-c9658b9c69d8"},"vehicle_type_id":"4","last_reported":1684058788,"current_range_meters":31200,"station_id":"ce4bhb92rcd13ifvqen0","pricing_plan_id":"free"},{"bike_id":"1001b891-1ff1-4dc1-8d16-d756bcc38d00","system_id":"levelo_inurba_marseille","lat":43.290104,"lon":5.356111,"is_reserved":false,"is_disabled":false,"rental_uris":{"android":"levelo://app?vid=1001b891-1ff1-4dc1-8d16-d756bcc38d00","ios":"levelo://app?vid=1001b891-1ff1-4dc1-8d16-d756bcc38d00"},"vehicle_type_id":"4","last_reported":1684058788,"current_range_meters":16800,"station_id":"ce4bhb92rcd13ifvqen0","pricing_plan_id":"free"},{"bike_id":"9b34a26f-1256-4b06-a2cd-2e6177e89d22","system_id":"levelo_inurba_marseille","lat":43.33042,"lon":5.38918,"is_reserved":false,"is_disabled":false,"rental_uris":{"android":"levelo://app?vid=9b34a26f-1256-4b06-a2cd-2e6177e89d22","ios":"levelo://app?vid=9b34a26f-1256-4b06-a2cd-2e6177e89d22"},"vehicle_type_id":"4","last_reported":1684058788,"current_range_meters":24000,"station_id":"ce4bhr92rcd13ifvqhrg","pricing_plan_id":"free"},{"bike_id":"b9b646b4-78b1-402c-930e-3d487dde0f8e","system_id":"levelo_inurba_marseille","lat":43.3304,"lon":5.38921,"is_reserved":false,"is_disabled":false,"rental_uris":{"android":"levelo://app?vid=b9b646b4-78b1-402c-930e-3d487dde0f8e","ios":"levelo://app?vid=b9b646b4-78b1-402c-930e-3d487dde0f8e"},"vehicle_type_id":"4","last_reported":1684058788,"current_range_meters":28400,"station_id":"ce4bhr92rcd13ifvqhrg","pricing_plan_id":"free"},{"bike_id":"5f6fff34-db82-45a4-91a7-3c22166ba6bc","system_id":"levelo_inurba_marseille","lat":43.33041,"lon":5.3892,"is_reserved":false,"is_disabled":false,"rental_uris":{"android":"levelo://app?vid=5f6fff34-db82-45a4-91a7-3c22166ba6bc","ios":"levelo://app?vid=5f6fff34-db82-45a4-91a7-3c22166ba6bc"},"vehicle_type_id":"4","last_reported":1684058788,"current_range_meters":20800,"station_id":"ce4bhr92rcd13ifvqhrg","pricing_plan_id":"free"},{"bike_id":"a283f4c1-ae8d-4031-a088-b926efa9a279","system_id":"levelo_inurba_marseille","lat":43.290103,"lon":5.356114,"is_reserved":false,"is_disabled":false,"rental_uris":{"android":"levelo://app?vid=a283f4c1-ae8d-4031-a088-b926efa9a279","ios":"levelo://app?vid=a283f4c1-ae8d-4031-a088-b926efa9a279"},"vehicle_type_id":"4","last_reported":1684058788,"current_range_meters":30000,"station_id":"ce4bhb92rcd13ifvqen0","pricing_plan_id":"free"},{"bike_id":"6d6176ef-a50e-4cee-835c-882911dfc591","system_id":"levelo_inurba_marseille","lat":43.290103,"lon":5.356114,"is_reserved":false,"is_disabled":false,"rental_uris":{"android":"levelo://app?vid=6d6176ef-a50e-4cee-835c-882911dfc591","ios":"levelo://app?vid=6d6176ef-a50e-4cee-835c-882911dfc591"},"vehicle_type_id":"4","last_reported":1684058788,"current_range_meters":17200,"station_id":"ce4bhb92rcd13ifvqen0","pricing_plan_id":"free"},{"bike_id":"b2a86a95-8df1-4310-9b3a-b8cc9a2a5257","system_id":"levelo_inurba_marseille","lat":43.290103,"lon":5.356114,"is_reserved":false,"is_disabled":false,"rental_uris":{"android":"levelo://app?vid=b2a86a95-8df1-4310-9b3a-b8cc9a2a5257","ios":"levelo://app?vid=b2a86a95-8df1-4310-9b3a-b8cc9a2a5257"},"vehicle_type_id":"4","last_reported":1684058788,"current_range_meters":31200,"station_id":"ce4bhb92rcd13ifvqen0","pricing_plan_id":"free"},{"bike_id":"716f196f-bdac-4a6a-9628-97caa9d0581b","system_id":"levelo_inurba_marseille","lat":43.33043,"lon":5.38919,"is_reserved":false,"is_disabled":false,"rental_uris":{"android":"levelo://app?vid=716f196f-bdac-4a6a-9628-97caa9d0581b","ios":"levelo://app?vid=716f196f-bdac-4a6a-9628-97caa9d0581b"},"vehicle_type_id":"4","last_reported":1684058788,"current_range_meters":8400,"station_id":"ce4bhr92rcd13ifvqhrg","pricing_plan_id":"free"},{"bike_id":"b8d0a2d7-4443-405c-9e1e-71d351b2ac12","system_id":"levelo_inurba_marseille","lat":43.33041,"lon":5.38922,"is_reserved":false,"is_disabled":false,"rental_uris":{"android":"levelo://app?vid=b8d0a2d7-4443-405c-9e1e-71d351b2ac12","ios":"levelo://app?vid=b8d0a2d7-4443-405c-9e1e-71d351b2ac12"},"vehicle_type_id":"4","last_reported":1684058788,"current_range_meters":18400,"station_id":"ce4bhr92rcd13ifvqhrg","pricing_plan_id":"free"},{"bike_id":"28c1e377-839a-4343-9a7a-489f5c05ed8f","system_id":"levelo_inurba_marseille","lat":43.290104,"lon":5.356111,"is_reserved":false,"is_disabled":false,"rental_uris":{"android":"levelo://app?vid=28c1e377-839a-4343-9a7a-489f5c05ed8f","ios":"levelo://app?vid=28c1e377-839a-4343-9a7a-489f5c05ed8f"},"vehicle_type_id":"4","last_reported":1684058788,"current_range_meters":27600,"station_id":"ce4bhb92rcd13ifvqen0","pricing_plan_id":"free"},{"bike_id":"d9c65fb5-b538-43a6-8b06-cce8ee9f5b2a","system_id":"levelo_inurba_marseille","lat":43.33042,"lon":5.38921,"is_reserved":false,"is_disabled":false,"rental_uris":{"android":"levelo://app?vid=d9c65fb5-b538-43a6-8b06-cce8ee9f5b2a","ios":"levelo://app?vid=d9c65fb5-b538-43a6-8b06-cce8ee9f5b2a"},"vehicle_type_id":"4","last_reported":1684058788,"current_range_meters":26000,"station_id":"ce4bhr92rcd13ifvqhrg","pricing_plan_id":"free"},{"bike_id":"cb4d9618-9331-4b71-964c-0e59c384450a","system_id":"levelo_inurba_marseille","lat":43.290104,"lon":5.356111,"is_reserved":false,"is_disabled":false,"rental_uris":{"android":"levelo://app?vid=cb4d9618-9331-4b71-964c-0e59c384450a","ios":"levelo://app?vid=cb4d9618-9331-4b71-964c-0e59c384450a"},"vehicle_type_id":"4","last_reported":1684058788,"current_range_meters":31200,"station_id":"ce4bhb92rcd13ifvqen0","pricing_plan_id":"free"},{"bike_id":"99d11ff8-cd4f-4243-907c-822c17bc769b","system_id":"levelo_inurba_marseille","lat":43.33042,"lon":5.38922,"is_reserved":false,"is_disabled":false,"rental_uris":{"android":"levelo://app?vid=99d11ff8-cd4f-4243-907c-822c17bc769b","ios":"levelo://app?vid=99d11ff8-cd4f-4243-907c-822c17bc769b"},"vehicle_type_id":"4","last_reported":1684058788,"current_range_meters":17200,"station_id":"ce4bhr92rcd13ifvqhrg","pricing_plan_id":"free"},{"bike_id":"ed5cd8b2-602b-4d3b-baa6-7935b8a8e4b2","system_id":"levelo_inurba_marseille","lat":43.290103,"lon":5.356114,"is_reserved":false,"is_disabled":false,"rental_uris":{"android":"levelo://app?vid=ed5cd8b2-602b-4d3b-baa6-7935b8a8e4b2","ios":"levelo://app?vid=ed5cd8b2-602b-4d3b-baa6-7935b8a8e4b2"},"vehicle_type_id":"4","last_reported":1684058788,"current_range_meters":20800,"station_id":"ce4bhb92rcd13ifvqen0","pricing_plan_id":"free"},{"bike_id":"07e07d13-e8ad-43ab-818c-a704c72c421a","system_id":"levelo_inurba_marseille","lat":43.290103,"lon":5.356114,"is_reserved":false,"is_disabled":false,"rental_uris":{"android":"levelo://app?vid=07e07d13-e8ad-43ab-818c-a704c72c421a","ios":"levelo://app?vid=07e07d13-e8ad-43ab-818c-a704c72c421a"},"vehicle_type_id":"4","last_reported":1684058788,"current_range_meters":26800,"station_id":"ce4bhb92rcd13ifvqen0","pricing_plan_id":"free"},{"bike_id":"0ab9e344-1188-4bd1-9ab8-facc1ea08a18","system_id":"levelo_inurba_marseille","lat":43.290062,"lon":5.356123,"is_reserved":false,"is_disabled":false,"rental_uris":{"android":"levelo://app?vid=0ab9e344-1188-4bd1-9ab8-facc1ea08a18","ios":"levelo://app?vid=0ab9e344-1188-4bd1-9ab8-facc1ea08a18"},"vehicle_type_id":"4","last_reported":1684058788,"current_range_meters":20400,"station_id":"","pricing_plan_id":"free"},{"bike_id":"0d62e83a-fbc9-443b-963e-b4ba8c148eaf","system_id":"levelo_inurba_marseille","lat":43.290061,"lon":5.356122,"is_reserved":false,"is_disabled":false,"rental_uris":{"android":"levelo://app?vid=0d62e83a-fbc9-443b-963e-b4ba8c148eaf","ios":"levelo://app?vid=0d62e83a-fbc9-443b-963e-b4ba8c148eaf"},"vehicle_type_id":"4","last_reported":1684058788,"current_range_meters":11200,"station_id":"","pricing_plan_id":"free"},{"bike_id":"754ef565-0150-4f0d-8c0d-a8a5d6927613","system_id":"levelo_inurba_marseille","lat":43.33044,"lon":5.38922,"is_reserved":false,"is_disabled":false,"rental_uris":{"android":"levelo://app?vid=754ef565-0150-4f0d-8c0d-a8a5d6927613","ios":"levelo://app?vid=754ef565-0150-4f0d-8c0d-a8a5d6927613"},"vehicle_type_id":"4","last_reported":1684058788,"current_range_meters":15600,"station_id":"ce4bhr92rcd13ifvqhrg","pricing_plan_id":"free"},{"bike_id":"9c9f66b1-5bff-40c5-afbd-0f1645910b80","system_id":"levelo_inurba_marseille","lat":43.290042,"lon":5.356169,"is_reserved":false,"is_disabled":false,"rental_uris":{"android":"levelo://app?vid=9c9f66b1-5bff-40c5-afbd-0f1645910b80","ios":"levelo://app?vid=9c9f66b1-5bff-40c5-afbd-0f1645910b80"},"vehicle_type_id":"4","last_reported":1684058788,"current_range_meters":31200,"station_id":"","pricing_plan_id":"free"},{"bike_id":"6df1ae69-5f7d-40f7-b3d2-12202a9f2eb1","system_id":"levelo_inurba_marseille","lat":43.290104,"lon":5.356111,"is_reserved":false,"is_disabled":false,"rental_uris":{"android":"levelo://app?vid=6df1ae69-5f7d-40f7-b3d2-12202a9f2eb1","ios":"levelo://app?vid=6df1ae69-5f7d-40f7-b3d2-12202a9f2eb1"},"vehicle_type_id":"4","last_reported":1684058788,"current_range_meters":31200,"station_id":"ce4bhb92rcd13ifvqen0","pricing_plan_id":"free"},{"bike_id":"127ebec0-5800-449e-bff9-d1fd823ca15c","system_id":"levelo_inurba_marseille","lat":43.33046,"lon":5.38921,"is_reserved":false,"is_disabled":false,"rental_uris":{"android":"levelo://app?vid=127ebec0-5800-449e-bff9-d1fd823ca15c","ios":"levelo://app?vid=127ebec0-5800-449e-bff9-d1fd823ca15c"},"vehicle_type_id":"4","last_reported":1684058788,"current_range_meters":1200,"station_id":"ce4bhr92rcd13ifvqhrg","pricing_plan_id":"free"},{"bike_id":"638a09c5-acac-42d1-b824-5854af2ac0c5","system_id":"levelo_inurba_marseille","lat":43.290103,"lon":5.356114,"is_reserved":false,"is_disabled":false,"rental_uris":{"android":"levelo://app?vid=638a09c5-acac-42d1-b824-5854af2ac0c5","ios":"levelo://app?vid=638a09c5-acac-42d1-b824-5854af2ac0c5"},"vehicle_type_id":"4","last_reported":1684058788,"current_range_meters":25200,"station_id":"ce4bhb92rcd13ifvqen0","pricing_plan_id":"free"},{"bike_id":"dc0692ec-341e-479a-8203-e6c1224b7166","system_id":"levelo_inurba_marseille","lat":43.29002,"lon":5.3561,"is_reserved":false,"is_disabled":false,"rental_uris":{"android":"levelo://app?vid=dc0692ec-341e-479a-8203-e6c1224b7166","ios":"levelo://app?vid=dc0692ec-341e-479a-8203-e6c1224b7166"},"vehicle_type_id":"4","last_reported":1684058788,"current_range_meters":24000,"station_id":"ce4bhb92rcd13ifvqen0","pricing_plan_id":"free"},{"bike_id":"f8909722-84e4-4fe4-96b5-08b9d1f09bd6","system_id":"levelo_inurba_marseille","lat":43.290103,"lon":5.356114,"is_reserved":false,"is_disabled":false,"rental_uris":{"android":"levelo://app?vid=f8909722-84e4-4fe4-96b5-08b9d1f09bd6","ios":"levelo://app?vid=f8909722-84e4-4fe4-96b5-08b9d1f09bd6"},"vehicle_type_id":"4","last_reported":1684058788,"current_range_meters":9200,"station_id":"ce4bhb92rcd13ifvqen0","pricing_plan_id":"free"},{"bike_id":"cad193f2-44f3-4b2a-bd83-5b224084ecef","system_id":"levelo_inurba_marseille","lat":43.29795,"lon":5.39332,"is_reserved":false,"is_disabled":false,"rental_uris":{"android":"levelo://app?vid=cad193f2-44f3-4b2a-bd83-5b224084ecef","ios":"levelo://app?vid=cad193f2-44f3-4b2a-bd83-5b224084ecef"},"vehicle_type_id":"4","last_reported":1684058788,"current_range_meters":26400,"station_id":"ce4bh212rcd13ifvqde0","pricing_plan_id":"free"},{"bike_id":"45267953-7b14-4eb9-9ce6-09c9bf50dfb4","system_id":"levelo_inurba_marseille","lat":43.330109,"lon":5.390647,"is_reserved":false,"is_disabled":false,"rental_uris":{"android":"levelo://app?vid=45267953-7b14-4eb9-9ce6-09c9bf50dfb4","ios":"levelo://app?vid=45267953-7b14-4eb9-9ce6-09c9bf50dfb4"},"vehicle_type_id":"4","last_reported":1684058788,"current_range_meters":26800,"station_id":"ce4bhr92rcd13ifvqhrg","pricing_plan_id":"free"},{"bike_id":"2d15947b-c62e-4a11-a551-874de57dd937","system_id":"levelo_inurba_marseille","lat":43.3097,"lon":5.40059,"is_reserved":false,"is_disabled":false,"rental_uris":{"android":"levelo://app?vid=2d15947b-c62e-4a11-a551-874de57dd937","ios":"levelo://app?vid=2d15947b-c62e-4a11-a551-874de57dd937"},"vehicle_type_id":"4","last_reported":1684058788,"current_range_meters":18400,"station_id":"","pricing_plan_id":"free"},{"bike_id":"98a62e2d-5b37-47b5-9b2a-70dea06f0e25","system_id":"levelo_inurba_marseille","lat":43.2901,"lon":5.381269,"is_reserved":false,"is_disabled":false,"rental_uris":{"android":"levelo://app?vid=98a62e2d-5b37-47b5-9b2a-70dea06f0e25","ios":"levelo://app?vid=98a62e2d-5b37-47b5-9b2a-70dea06f0e25"},"vehicle_type_id":"4","last_reported":1684058788,"current_range_meters":20400,"station_id":"ce4bh4p2rcd13ifvqe1g","pricing_plan_id":"free"},{"bike_id":"235bfca5-3523-4573-9b75-a1fadb68ed6a","system_id":"levelo_inurba_marseille","lat":43.337328,"lon":5.374538,"is_reserved":false,"is_disabled":false,"rental_uris":{"android":"levelo://app?vid=235bfca5-3523-4573-9b75-a1fadb68ed6a","ios":"levelo://app?vid=235bfca5-3523-4573-9b75-a1fadb68ed6a"},"vehicle_type_id":"4","last_reported":1684058788,"current_range_meters":28000,"station_id":"ce4bhah2rcd13ifvqei0","pricing_plan_id":"free"},{"bike_id":"cdf1001d-ab4d-40bb-8b32-fa98dae5e3b8","system_id":"levelo_inurba_marseille","lat":43.337444,"lon":5.374475,"is_reserved":false,"is_disabled":false,"rental_uris":{"android":"levelo://app?vid=cdf1001d-ab4d-40bb-8b32-fa98dae5e3b8","ios":"levelo://app?vid=cdf1001d-ab4d-40bb-8b32-fa98dae5e3b8"},"vehicle_type_id":"4","last_reported":1684058788,"current_range_meters":31200,"station_id":"ce4rr2p2rcd13i802rgg","pricing_plan_id":"free"},{"bike_id":"5b3ce0e7-ddde-4f08-9689-05c27b8dd4cc","system_id":"levelo_inurba_marseille","lat":43.337436,"lon":5.374627,"is_reserved":false,"is_disabled":false,"rental_uris":{"android":"levelo://app?vid=5b3ce0e7-ddde-4f08-9689-05c27b8dd4cc","ios":"levelo://app?vid=5b3ce0e7-ddde-4f08-9689-05c27b8dd4cc"},"vehicle_type_id":"4","last_reported":1684058788,"current_range_meters":28400,"station_id":"ce4bhnp2rcd13ifvqgvg","pricing_plan_id":"free"},{"bike_id":"8b17919d-4eaa-4cf5-ae81-ec94192cf69f","system_id":"levelo_inurba_marseille","lat":43.30642,"lon":5.401031,"is_reserved":false,"is_disabled":false,"rental_uris":{"android":"levelo://app?vid=8b17919d-4eaa-4cf5-ae81-ec94192cf69f","ios":"levelo://app?vid=8b17919d-4eaa-4cf5-ae81-ec94192cf69f"},"vehicle_type_id":"4","last_reported":1684058788,"current_range_meters":30400,"station_id":"ce4bh112rcd13ifvqda0","pricing_plan_id":"free"},{"bike_id":"593ec190-c5ba-4ece-8207-d8024873a790","system_id":"levelo_inurba_marseille","lat":43.30642,"lon":5.401031,"is_reserved":false,"is_disabled":false,"rental_uris":{"android":"levelo://app?vid=593ec190-c5ba-4ece-8207-d8024873a790","ios":"levelo://app?vid=593ec190-c5ba-4ece-8207-d8024873a790"},"vehicle_type_id":"4","last_reported":1684058788,"current_range_meters":23200,"station_id":"ce4bh112rcd13ifvqda0","pricing_plan_id":"free"},{"bike_id":"cf4f9034-a56f-4904-b316-e69a72c8d79a","system_id":"levelo_inurba_marseille","lat":43.301117,"lon":5.398795,"is_reserved":false,"is_disabled":false,"rental_uris":{"android":"levelo://app?vid=cf4f9034-a56f-4904-b316-e69a72c8d79a","ios":"levelo://app?vid=cf4f9034-a56f-4904-b316-e69a72c8d79a"},"vehicle_type_id":"4","last_reported":1684058788,"current_range_meters":16800,"station_id":"ce4bh0h2rcd13ifvqd40","pricing_plan_id":"free"},{"bike_id":"3129c005-5ae6-4605-b9ca-ac4ac1445eb8","system_id":"levelo_inurba_marseille","lat":43.301117,"lon":5.398795,"is_reserved":false,"is_disabled":false,"rental_uris":{"android":"levelo://app?vid=3129c005-5ae6-4605-b9ca-ac4ac1445eb8","ios":"levelo://app?vid=3129c005-5ae6-4605-b9ca-ac4ac1445eb8"},"vehicle_type_id":"4","last_reported":1684058788,"current_range_meters":16000,"station_id":"ce4bh0h2rcd13ifvqd40","pricing_plan_id":"free"},{"bike_id":"4e694e8e-c5fc-46ac-bc98-16e75cbf6f33","system_id":"levelo_inurba_marseille","lat":43.286593,"lon":5.363346,"is_reserved":false,"is_disabled":false,"rental_uris":{"android":"levelo://app?vid=4e694e8e-c5fc-46ac-bc98-16e75cbf6f33","ios":"levelo://app?vid=4e694e8e-c5fc-46ac-bc98-16e75cbf6f33"},"vehicle_type_id":"4","last_reported":1684058788,"current_range_meters":29600,"station_id":"ce4bhah2rcd13ifvqej0","pricing_plan_id":"free"},{"bike_id":"4b79f772-de53-484d-9da4-dd8a5c1097fe","system_id":"levelo_inurba_marseille","lat":43.286593,"lon":5.363346,"is_reserved":false,"is_disabled":false,"rental_uris":{"android":"levelo://app?vid=4b79f772-de53-484d-9da4-dd8a5c1097fe","ios":"levelo://app?vid=4b79f772-de53-484d-9da4-dd8a5c1097fe"},"vehicle_type_id":"4","last_reported":1684058788,"current_range_meters":25200,"station_id":"ce4bhah2rcd13ifvqej0","pricing_plan_id":"free"},{"bike_id":"a51b6541-5697-45a7-8779-44f67d49027f","system_id":"levelo_inurba_marseille","lat":43.295196,"lon":5.39397,"is_reserved":false,"is_disabled":false,"rental_uris":{"android":"levelo://app?vid=a51b6541-5697-45a7-8779-44f67d49027f","ios":"levelo://app?vid=a51b6541-5697-45a7-8779-44f67d49027f"},"vehicle_type_id":"4","last_reported":1684058788,"current_range_meters":28000,"station_id":"ce4bh292rcd13ifvqdf0","pricing_plan_id":"free"},{"bike_id":"db8efd6a-61e2-43eb-bd9d-0f36e4e0d89b","system_id":"levelo_inurba_marseille","lat":43.295194,"lon":5.39397,"is_reserved":false,"is_disabled":false,"rental_uris":{"android":"levelo://app?vid=db8efd6a-61e2-43eb-bd9d-0f36e4e0d89b","ios":"levelo://app?vid=db8efd6a-61e2-43eb-bd9d-0f36e4e0d89b"},"vehicle_type_id":"4","last_reported":1684058788,"current_range_meters":9200,"station_id":"ce4bh292rcd13ifvqdf0","pricing_plan_id":"free"},{"bike_id":"f7270dfd-de5f-4326-a3c5-ffcdfad8b321","system_id":"levelo_inurba_marseille","lat":43.295196,"lon":5.39397,"is_reserved":false,"is_disabled":false,"rental_uris":{"android":"levelo://app?vid=f7270dfd-de5f-4326-a3c5-ffcdfad8b321","ios":"levelo://app?vid=f7270dfd-de5f-4326-a3c5-ffcdfad8b321"},"vehicle_type_id":"4","last_reported":1684058788,"current_range_meters":28000,"station_id":"ce4bh292rcd13ifvqdf0","pricing_plan_id":"free"},{"bike_id":"f92a6ef8-543c-4289-b85b-9c1358d8cb48","system_id":"levelo_inurba_marseille","lat":43.302759,"lon":5.400793,"is_reserved":false,"is_disabled":false,"rental_uris":{"android":"levelo://app?vid=f92a6ef8-543c-4289-b85b-9c1358d8cb48","ios":"levelo://app?vid=f92a6ef8-543c-4289-b85b-9c1358d8cb48"},"vehicle_type_id":"4","last_reported":1684058788,"current_range_meters":31200,"station_id":"ce4bgvh2rcd13ifvqcs0","pricing_plan_id":"free"},{"bike_id":"baf031cf-132c-4780-9eed-e3bd80873bbc","system_id":"levelo_inurba_marseille","lat":43.302759,"lon":5.400793,"is_reserved":false,"is_disabled":false,"rental_uris":{"android":"levelo://app?vid=baf031cf-132c-4780-9eed-e3bd80873bbc","ios":"levelo://app?vid=baf031cf-132c-4780-9eed-e3bd80873bbc"},"vehicle_type_id":"4","last_reported":1684058788,"current_range_meters":24800,"station_id":"ce4bgvh2rcd13ifvqcs0","pricing_plan_id":"free"},{"bike_id":"e6b38e8f-eacc-4d33-aa8c-08708bde4b7d","system_id":"levelo_inurba_marseille","lat":43.302759,"lon":5.400793,"is_reserved":false,"is_disabled":false,"rental_uris":{"android":"levelo://app?vid=e6b38e8f-eacc-4d33-aa8c-08708bde4b7d","ios":"levelo://app?vid=e6b38e8f-eacc-4d33-aa8c-08708bde4b7d"},"vehicle_type_id":"4","last_reported":1684058788,"current_range_meters":22800,"station_id":"ce4bgvh2rcd13ifvqcs0","pricing_plan_id":"free"},{"bike_id":"7bf141eb-5f71-4617-8809-05f44db90ed5","system_id":"levelo_inurba_marseille","lat":43.302759,"lon":5.400793,"is_reserved":false,"is_disabled":false,"rental_uris":{"android":"levelo://app?vid=7bf141eb-5f71-4617-8809-05f44db90ed5","ios":"levelo://app?vid=7bf141eb-5f71-4617-8809-05f44db90ed5"},"vehicle_type_id":"4","last_reported":1684058788,"current_range_meters":23200,"station_id":"ce4bgvh2rcd13ifvqcs0","pricing_plan_id":"free"},{"bike_id":"85d1b458-554c-4a95-a393-88ae6b1b78c1","system_id":"levelo_inurba_marseille","lat":43.290336,"lon":5.386425,"is_reserved":false,"is_disabled":false,"rental_uris":{"android":"levelo://app?vid=85d1b458-554c-4a95-a393-88ae6b1b78c1","ios":"levelo://app?vid=85d1b458-554c-4a95-a393-88ae6b1b78c1"},"vehicle_type_id":"4","last_reported":1684058788,"current_range_meters":10400,"station_id":"ce4bh4p2rcd13ifvqe0g","pricing_plan_id":"free"},{"bike_id":"de402486-4ac5-4568-8c69-b724c720c119","system_id":"levelo_inurba_marseille","lat":43.302759,"lon":5.400793,"is_reserved":false,"is_disabled":false,"rental_uris":{"android":"levelo://app?vid=de402486-4ac5-4568-8c69-b724c720c119","ios":"levelo://app?vid=de402486-4ac5-4568-8c69-b724c720c119"},"vehicle_type_id":"4","last_reported":1684058788,"current_range_meters":25200,"station_id":"ce4bgvh2rcd13ifvqcs0","pricing_plan_id":"free"},{"bike_id":"9aa6d738-d9ae-4daa-a149-dbc028502389","system_id":"levelo_inurba_marseille","lat":43.302759,"lon":5.400793,"is_reserved":false,"is_disabled":false,"rental_uris":{"android":"levelo://app?vid=9aa6d738-d9ae-4daa-a149-dbc028502389","ios":"levelo://app?vid=9aa6d738-d9ae-4daa-a149-dbc028502389"},"vehicle_type_id":"4","last_reported":1684058788,"current_range_meters":32000,"station_id":"ce4bgvh2rcd13ifvqcs0","pricing_plan_id":"free"},{"bike_id":"c2ecef62-dad9-4732-b3a1-72fd5896e1ca","system_id":"levelo_inurba_marseille","lat":43.302759,"lon":5.400793,"is_reserved":false,"is_disabled":false,"rental_uris":{"android":"levelo://app?vid=c2ecef62-dad9-4732-b3a1-72fd5896e1ca","ios":"levelo://app?vid=c2ecef62-dad9-4732-b3a1-72fd5896e1ca"},"vehicle_type_id":"4","last_reported":1684058788,"current_range_meters":20400,"station_id":"ce4bgvh2rcd13ifvqcs0","pricing_plan_id":"free"},{"bike_id":"35be71c0-beaa-494c-ba1d-895735629bb1","system_id":"levelo_inurba_marseille","lat":43.29012,"lon":5.38632,"is_reserved":false,"is_disabled":false,"rental_uris":{"android":"levelo://app?vid=35be71c0-beaa-494c-ba1d-895735629bb1","ios":"levelo://app?vid=35be71c0-beaa-494c-ba1d-895735629bb1"},"vehicle_type_id":"4","last_reported":1684058788,"current_range_meters":25600,"station_id":"","pricing_plan_id":"free"},{"bike_id":"5e4d563d-3046-41b0-b3f9-d4f44e6e51f0","system_id":"levelo_inurba_marseille","lat":43.286039,"lon":5.370679,"is_reserved":false,"is_disabled":false,"rental_uris":{"android":"levelo://app?vid=5e4d563d-3046-41b0-b3f9-d4f44e6e51f0","ios":"levelo://app?vid=5e4d563d-3046-41b0-b3f9-d4f44e6e51f0"},"vehicle_type_id":"4","last_reported":1684058788,"current_range_meters":4400,"station_id":"ce4bht12rcd13ifvqi60","pricing_plan_id":"free"},{"bike_id":"3c7ed110-6e13-429a-8cf7-466739e57745","system_id":"levelo_inurba_marseille","lat":43.286039,"lon":5.370679,"is_reserved":false,"is_disabled":false,"rental_uris":{"android":"levelo://app?vid=3c7ed110-6e13-429a-8cf7-466739e57745","ios":"levelo://app?vid=3c7ed110-6e13-429a-8cf7-466739e57745"},"vehicle_type_id":"4","last_reported":1684058788,"current_range_meters":18800,"station_id":"ce4bht12rcd13ifvqi60","pricing_plan_id":"free"},{"bike_id":"50130c5e-7e38-410b-8dfa-ccebcddb86be","system_id":"levelo_inurba_marseille","lat":43.286039,"lon":5.370681,"is_reserved":false,"is_disabled":false,"rental_uris":{"android":"levelo://app?vid=50130c5e-7e38-410b-8dfa-ccebcddb86be","ios":"levelo://app?vid=50130c5e-7e38-410b-8dfa-ccebcddb86be"},"vehicle_type_id":"4","last_reported":1684058788,"current_range_meters":22800,"station_id":"ce4bht12rcd13ifvqi60","pricing_plan_id":"free"},{"bike_id":"5307b277-40de-421b-b220-2fc1759047c0","system_id":"levelo_inurba_marseille","lat":43.287185,"lon":5.379373,"is_reserved":false,"is_disabled":false,"rental_uris":{"android":"levelo://app?vid=5307b277-40de-421b-b220-2fc1759047c0","ios":"levelo://app?vid=5307b277-40de-421b-b220-2fc1759047c0"},"vehicle_type_id":"4","last_reported":1684058788,"current_range_meters":17200,"station_id":"ce4bh9p2rcd13ifvqec0","pricing_plan_id":"free"},{"bike_id":"b3798c8a-7a31-46bc-b4f5-85d588418842","system_id":"levelo_inurba_marseille","lat":43.316517,"lon":5.404375,"is_reserved":false,"is_disabled":false,"rental_uris":{"android":"levelo://app?vid=b3798c8a-7a31-46bc-b4f5-85d588418842","ios":"levelo://app?vid=b3798c8a-7a31-46bc-b4f5-85d588418842"},"vehicle_type_id":"4","last_reported":1684058788,"current_range_meters":28400,"station_id":"ce4bh012rcd13ifvqd00","pricing_plan_id":"free"},{"bike_id":"1018ceab-4439-4ce5-aadc-392d4b7ef1ad","system_id":"levelo_inurba_marseille","lat":43.316517,"lon":5.404375,"is_reserved":false,"is_disabled":false,"rental_uris":{"android":"levelo://app?vid=1018ceab-4439-4ce5-aadc-392d4b7ef1ad","ios":"levelo://app?vid=1018ceab-4439-4ce5-aadc-392d4b7ef1ad"},"vehicle_type_id":"4","last_reported":1684058788,"current_range_meters":29600,"station_id":"ce4bh012rcd13ifvqd00","pricing_plan_id":"free"},{"bike_id":"abd7c6cf-0623-4f61-a012-641ab24aedca","system_id":"levelo_inurba_marseille","lat":43.291994,"lon":5.392907,"is_reserved":false,"is_disabled":false,"rental_uris":{"android":"levelo://app?vid=abd7c6cf-0623-4f61-a012-641ab24aedca","ios":"levelo://app?vid=abd7c6cf-0623-4f61-a012-641ab24aedca"},"vehicle_type_id":"4","last_reported":1684058788,"current_range_meters":12800,"station_id":"ce4bh192rcd13ifvqdd0","pricing_plan_id":"free"},{"bike_id":"265e0f36-6502-4974-bcbd-8b73cfd3b4ec","system_id":"levelo_inurba_marseille","lat":43.284534,"lon":5.358662,"is_reserved":false,"is_disabled":false,"rental_uris":{"android":"levelo://app?vid=265e0f36-6502-4974-bcbd-8b73cfd3b4ec","ios":"levelo://app?vid=265e0f36-6502-4974-bcbd-8b73cfd3b4ec"},"vehicle_type_id":"4","last_reported":1684058788,"current_range_meters":30400,"station_id":"ce4bhah2rcd13ifvqei0","pricing_plan_id":"free"},{"bike_id":"5753093b-6168-4ca1-8d37-9f8158eca916","system_id":"levelo_inurba_marseille","lat":43.284534,"lon":5.358662,"is_reserved":false,"is_disabled":false,"rental_uris":{"android":"levelo://app?vid=5753093b-6168-4ca1-8d37-9f8158eca916","ios":"levelo://app?vid=5753093b-6168-4ca1-8d37-9f8158eca916"},"vehicle_type_id":"4","last_reported":1684058788,"current_range_meters":22400,"station_id":"ce4bhah2rcd13ifvqei0","pricing_plan_id":"free"},{"bike_id":"709d8fe9-7d4f-455e-a5b2-9705774cd476","system_id":"levelo_inurba_marseille","lat":43.284534,"lon":5.358662,"is_reserved":false,"is_disabled":false,"rental_uris":{"android":"levelo://app?vid=709d8fe9-7d4f-455e-a5b2-9705774cd476","ios":"levelo://app?vid=709d8fe9-7d4f-455e-a5b2-9705774cd476"},"vehicle_type_id":"4","last_reported":1684058788,"current_range_meters":29200,"station_id":"ce4bhah2rcd13ifvqei0","pricing_plan_id":"free"},{"bike_id":"802c25fa-fae5-4fc9-b3f5-1c0529fadd92","system_id":"levelo_inurba_marseille","lat":43.284534,"lon":5.358662,"is_reserved":false,"is_disabled":false,"rental_uris":{"android":"levelo://app?vid=802c25fa-fae5-4fc9-b3f5-1c0529fadd92","ios":"levelo://app?vid=802c25fa-fae5-4fc9-b3f5-1c0529fadd92"},"vehicle_type_id":"4","last_reported":1684058788,"current_range_meters":24400,"station_id":"ce4bhah2rcd13ifvqei0","pricing_plan_id":"free"},{"bike_id":"11d665f9-31b2-421b-9ed7-76cf0e8d0c93","system_id":"levelo_inurba_marseille","lat":43.284534,"lon":5.358662,"is_reserved":false,"is_disabled":false,"rental_uris":{"android":"levelo://app?vid=11d665f9-31b2-421b-9ed7-76cf0e8d0c93","ios":"levelo://app?vid=11d665f9-31b2-421b-9ed7-76cf0e8d0c93"},"vehicle_type_id":"4","last_reported":1684058788,"current_range_meters":18400,"station_id":"ce4bhah2rcd13ifvqei0","pricing_plan_id":"free"},{"bike_id":"6fbe72f8-47af-4b28-9f39-b50a70b38582","system_id":"levelo_inurba_marseille","lat":43.285848,"lon":5.350787,"is_reserved":false,"is_disabled":false,"rental_uris":{"android":"levelo://app?vid=6fbe72f8-47af-4b28-9f39-b50a70b38582","ios":"levelo://app?vid=6fbe72f8-47af-4b28-9f39-b50a70b38582"},"vehicle_type_id":"4","last_reported":1684058788,"current_range_meters":11600,"station_id":"ce4bhch2rcd13ifvqeug","pricing_plan_id":"free"},{"bike_id":"9401109f-18f2-4070-95cf-9e21027e9c17","system_id":"levelo_inurba_marseille","lat":43.285848,"lon":5.350787,"is_reserved":false,"is_disabled":false,"rental_uris":{"android":"levelo://app?vid=9401109f-18f2-4070-95cf-9e21027e9c17","ios":"levelo://app?vid=9401109f-18f2-4070-95cf-9e21027e9c17"},"vehicle_type_id":"4","last_reported":1684058788,"current_range_meters":22400,"station_id":"ce4bhch2rcd13ifvqeug","pricing_plan_id":"free"},{"bike_id":"583d4200-3bb0-45b4-aa71-7b46b373abd1","system_id":"levelo_inurba_marseille","lat":43.285848,"lon":5.350787,"is_reserved":false,"is_disabled":false,"rental_uris":{"android":"levelo://app?vid=583d4200-3bb0-45b4-aa71-7b46b373abd1","ios":"levelo://app?vid=583d4200-3bb0-45b4-aa71-7b46b373abd1"},"vehicle_type_id":"4","last_reported":1684058788,"current_range_meters":23200,"station_id":"ce4bhch2rcd13ifvqeug","pricing_plan_id":"free"},{"bike_id":"77818488-e9ec-46ec-a6ba-ea6ae1b7e669","system_id":"levelo_inurba_marseille","lat":43.285848,"lon":5.350787,"is_reserved":false,"is_disabled":false,"rental_uris":{"android":"levelo://app?vid=77818488-e9ec-46ec-a6ba-ea6ae1b7e669","ios":"levelo://app?vid=77818488-e9ec-46ec-a6ba-ea6ae1b7e669"},"vehicle_type_id":"4","last_reported":1684058788,"current_range_meters":31200,"station_id":"ce4bhch2rcd13ifvqeug","pricing_plan_id":"free"},{"bike_id":"7b9b9459-6ceb-44b9-b2c3-e995620236a2","system_id":"levelo_inurba_marseille","lat":43.285848,"lon":5.350787,"is_reserved":false,"is_disabled":false,"rental_uris":{"android":"levelo://app?vid=7b9b9459-6ceb-44b9-b2c3-e995620236a2","ios":"levelo://app?vid=7b9b9459-6ceb-44b9-b2c3-e995620236a2"},"vehicle_type_id":"4","last_reported":1684058788,"current_range_meters":29600,"station_id":"ce4bhch2rcd13ifvqeug","pricing_plan_id":"free"},{"bike_id":"bb9d6e3e-1fa3-4d34-a87c-5d5614a4885e","system_id":"levelo_inurba_marseille","lat":43.295601,"lon":5.399211,"is_reserved":false,"is_disabled":false,"rental_uris":{"android":"levelo://app?vid=bb9d6e3e-1fa3-4d34-a87c-5d5614a4885e","ios":"levelo://app?vid=bb9d6e3e-1fa3-4d34-a87c-5d5614a4885e"},"vehicle_type_id":"4","last_reported":1684058788,"current_range_meters":13200,"station_id":"","pricing_plan_id":"free"},{"bike_id":"00e77349-fab1-4e61-8bfe-fa70c56aa04b","system_id":"levelo_inurba_marseille","lat":43.285848,"lon":5.350787,"is_reserved":false,"is_disabled":false,"rental_uris":{"android":"levelo://app?vid=00e77349-fab1-4e61-8bfe-fa70c56aa04b","ios":"levelo://app?vid=00e77349-fab1-4e61-8bfe-fa70c56aa04b"},"vehicle_type_id":"4","last_reported":1684058788,"current_range_meters":26400,"station_id":"ce4bhch2rcd13ifvqeug","pricing_plan_id":"free"},{"bike_id":"470af7ff-41e7-40c3-9106-1c4321a7ab75","system_id":"levelo_inurba_marseille","lat":43.29886,"lon":5.40233,"is_reserved":false,"is_disabled":false,"rental_uris":{"android":"levelo://app?vid=470af7ff-41e7-40c3-9106-1c4321a7ab75","ios":"levelo://app?vid=470af7ff-41e7-40c3-9106-1c4321a7ab75"},"vehicle_type_id":"4","last_reported":1684058788,"current_range_meters":14000,"station_id":"ce4bh112rcd13ifvqd90","pricing_plan_id":"free"},{"bike_id":"e75f1dbb-aa97-479d-9f77-95d8017e2640","system_id":"levelo_inurba_marseille","lat":43.295713,"lon":5.399639,"is_reserved":false,"is_disabled":false,"rental_uris":{"android":"levelo://app?vid=e75f1dbb-aa97-479d-9f77-95d8017e2640","ios":"levelo://app?vid=e75f1dbb-aa97-479d-9f77-95d8017e2640"},"vehicle_type_id":"4","last_reported":1684058788,"current_range_meters":26400,"station_id":"ce4bh312rcd13ifvqdj0","pricing_plan_id":"free"},{"bike_id":"71746a4b-4015-4663-8ba2-16c9685ce313","system_id":"levelo_inurba_marseille","lat":43.286595,"lon":5.386795,"is_reserved":false,"is_disabled":false,"rental_uris":{"android":"levelo://app?vid=71746a4b-4015-4663-8ba2-16c9685ce313","ios":"levelo://app?vid=71746a4b-4015-4663-8ba2-16c9685ce313"},"vehicle_type_id":"4","last_reported":1684058788,"current_range_meters":31200,"station_id":"ce4bh492rcd13ifvqdug","pricing_plan_id":"free"},{"bike_id":"c0737023-6886-4dd3-ab6c-20c31001e0f6","system_id":"levelo_inurba_marseille","lat":43.286595,"lon":5.386795,"is_reserved":false,"is_disabled":false,"rental_uris":{"android":"levelo://app?vid=c0737023-6886-4dd3-ab6c-20c31001e0f6","ios":"levelo://app?vid=c0737023-6886-4dd3-ab6c-20c31001e0f6"},"vehicle_type_id":"4","last_reported":1684058788,"current_range_meters":30400,"station_id":"ce4bh492rcd13ifvqdug","pricing_plan_id":"free"},{"bike_id":"2d0e8c76-e00b-418c-b455-5ad364cfba93","system_id":"levelo_inurba_marseille","lat":43.33718,"lon":5.39181,"is_reserved":false,"is_disabled":false,"rental_uris":{"android":"levelo://app?vid=2d0e8c76-e00b-418c-b455-5ad364cfba93","ios":"levelo://app?vid=2d0e8c76-e00b-418c-b455-5ad364cfba93"},"vehicle_type_id":"4","last_reported":1684058788,"current_range_meters":4000,"station_id":"ce4bhr92rcd13ifvqhsg","pricing_plan_id":"free"},{"bike_id":"4e827552-b7fe-40ee-ae3f-44353bb18d25","system_id":"levelo_inurba_marseille","lat":43.33724,"lon":5.39186,"is_reserved":false,"is_disabled":false,"rental_uris":{"android":"levelo://app?vid=4e827552-b7fe-40ee-ae3f-44353bb18d25","ios":"levelo://app?vid=4e827552-b7fe-40ee-ae3f-44353bb18d25"},"vehicle_type_id":"4","last_reported":1684058788,"current_range_meters":9200,"station_id":"","pricing_plan_id":"free"},{"bike_id":"ba7aa913-9040-4670-8e19-c182538420d2","system_id":"levelo_inurba_marseille","lat":43.31929,"lon":5.40792,"is_reserved":false,"is_disabled":false,"rental_uris":{"android":"levelo://app?vid=ba7aa913-9040-4670-8e19-c182538420d2","ios":"levelo://app?vid=ba7aa913-9040-4670-8e19-c182538420d2"},"vehicle_type_id":"4","last_reported":1684058788,"current_range_meters":20800,"station_id":"ce4bhq12rcd13ifvqhig","pricing_plan_id":"free"},