{"last_updated":1758967725,"ttl":60,"version":"2.2","data":{"bikes":[{"bike_id":"aee6de86-7bb8-4af7-ada9-ed2ff95629a8","system_id":"levelo_inurba_marseille","lat":43.21748,"lon":5.34603,"is_reserved":false,"is_disabled":false,"rental_uris":{"android":"levelo://app?vid=aee6de86-7bb8-4af7-ada9-ed2ff95629a8","ios":"levelo://app?vid=aee6de86-7bb8-4af7-ada9-ed2ff95629a8"},"vehicle_type_id":"4","last_reported":1758967725,"current_range_meters":2800,"station_id":"st_cvj6r9ubvosntc0bgbag","pricing_plan_id":"cebpf4jnsgd1na2vs0mg"},{"bike_id":"4949fcce-d8e3-467f-b7b4-445f07ef4ae4","system_id":"levelo_inurba_marseille","lat":43.29941,"lon":5.36522,"is_reserved":false,"is_disabled":false,"rental_uris":{"android":"levelo://app?vid=4949fcce-d8e3-467f-b7b4-445f07ef4ae4","ios":"levelo://app?vid=4949fcce-d8e3-467f-b7b4-445f07ef4ae4"},"vehicle_type_id":"4","last_reported":1758967725,"current_range_meters":3200,"station_id":"ce4bgm92rcd13ifvqbr0","pricing_plan_id":"cebpf4jnsgd1na2vs0mg"},{"bike_id":"9fcf51fd-58e0-4156-b4e0-da1a36ef29dc","system_id":"levelo_inurba_marseille","lat":43.282642,"lon":5.350744,"is_reserved":false,"is_disabled":false,"rental_uris":{"android":"levelo://app?vid=9fcf51fd-58e0-4156-b4e0-da1a36ef29dc","ios":"levelo://app?vid=9fcf51fd-58e0-4156-b4e0-da1a36ef29dc"},"vehicle_type_id":"4","last_reported":1758967725,"current_range_meters":3600,"station_id":"","pricing_plan_id":"cebpf4jnsgd1na2vs0mg"},{"bike_id":"588bb5c6-d90f-4edd-b1de-2d2164a39c00","system_id":"levelo_inurba_marseille","lat":43.32948,"lon":5.39046,"is_reserved":false,"is_disabled":false,"rental_uris":{"android":"levelo://app?vid=588bb5c6-d90f-4edd-b1de-2d2164a39c00","ios":"levelo://app?vid=588bb5c6-d90f-4edd-b1de-2d2164a39c00"},"vehicle_type_id":"4","last_reported":1758967725,"current_range_meters":3600,"station_id":"","pricing_plan_id":"cebpf4jnsgd1na2vs0mg"},{"bike_id":"003515e8-8117-44bb-979d-5f47e8d50fda","system_id":"levelo_inurba_marseille","lat":43.3063,"lon":5.37565,"is_reserved":false,"is_disabled":false,"rental_uris":{"android":"levelo://app?vid=003515e8-8117-44bb-979d-5f47e8d50fda","ios":"levelo://app?vid=003515e8-8117-44bb-979d-5f47e8d50fda"},"vehicle_type_id":"4","last_reported":1758967725,"current_range_meters":4400,"station_id":"","pricing_plan_id":"cebpf4jnsgd1na2vs0mg"},{"bike_id":"9f989a45-0678-43cb-85bf-b193e6d4481d","system_id":"levelo_inurba_marseille","lat":43.28688,"lon":5.38666,"is_reserved":false,"is_disabled":false,"rental_uris":{"android":"levelo://app?vid=9f989a45-0678-43cb-85bf-b193e6d4481d","ios":"levelo://app?vid=9f989a45-0678-43cb-85bf-b193e6d4481d"},"vehicle_type_id":"4","last_reported":1758967725,"current_range_meters":4400,"station_id":"ce4bh492rcd13ifvqdug","pricing_plan_id":"cebpf4jnsgd1na2vs0mg"},{"bike_id":"c1739f42-8419-48dc-bb71-80b9937c19a8","system_id":"levelo_inurba_marseille","lat":43.29886,"lon":5.38902,"is_reserved":false,"is_disabled":false,"rental_uris":{"android":"levelo://app?vid=c1739f42-8419-48dc-bb71-80b9937c19a8","ios":"levelo://app?vid=c1739f42-8419-48dc-bb71-80b9937c19a8"},"vehicle_type_id":"4","last_reported":1758967725,"current_range_meters":800,"station_id":"ce4bh392rcd13ifvqdl0","pricing_plan_id":"cebpf4jnsgd1na2vs0mg"},{"bike_id":"0dc7d6cf-a5ea-45ce-bf8e-d7a00b35789c","system_id":"levelo_inurba_marseille","lat":43.28716,"lon":5.3999,"is_reserved":false,"is_disabled":false,"rental_uris":{"android":"levelo://app?vid=0dc7d6cf-a5ea-45ce-bf8e-d7a00b35789c","ios":"levelo://app?vid=0dc7d6cf-a5ea-45ce-bf8e-d7a00b35789c"},"vehicle_type_id":"4","last_reported":1758967725,"current_range_meters":4800,"station_id":"ce4bho92rcd13ifvqh3g","pricing_plan_id":"cebpf4jnsgd1na2vs0mg"},{"bike_id":"45babd81-de3b-44f0-86d4-8ee283abdccf","system_id":"levelo_inurba_marseille","lat":43.265733,"lon":5.390244,"is_reserved":false,"is_disabled":false,"rental_uris":{"android":"levelo://app?vid=45babd81-de3b-44f0-86d4-8ee283abdccf","ios":"levelo://app?vid=45babd81-de3b-44f0-86d4-8ee283abdccf"},"vehicle_type_id":"4","last_reported":1758967725,"current_range_meters":4800,"station_id":"ce4bhe12rcd13ifvqf30","pricing_plan_id":"cebpf4jnsgd1na2vs0mg"},{"bike_id":"bff64e72-658b-4977-8200-b7d596ee0c71","system_id":"levelo_inurba_marseille","lat":43.28495,"lon":5.38549,"is_reserved":false,"is_disabled":false,"rental_uris":{"android":"levelo://app?vid=bff64e72-658b-4977-8200-b7d596ee0c71","ios":"levelo://app?vid=bff64e72-658b-4977-8200-b7d596ee0c71"},"vehicle_type_id":"4","last_reported":1758967725,"current_range_meters":4800,"station_id":"ce4bh8p2rcd13ifvqeb0","pricing_plan_id":"cebpf4jnsgd1na2vs0mg"},{"bike_id":"f897d300-643c-4c7a-951b-f56d70ef23ca","system_id":"levelo_inurba_marseille","lat":43.30318,"lon":5.39083,"is_reserved":false,"is_disabled":false,"rental_uris":{"android":"levelo://app?vid=f897d300-643c-4c7a-951b-f56d70ef23ca","ios":"levelo://app?vid=f897d300-643c-4c7a-951b-f56d70ef23ca"},"vehicle_type_id":"4","last_reported":1758967725,"current_range_meters":5600,"station_id":"","pricing_plan_id":"cebpf4jnsgd1na2vs0mg"},{"bike_id":"69699675-8a18-4582-a1c3-6bfb6681de1d","system_id":"levelo_inurba_marseille","lat":43.212005,"lon":5.350754,"is_reserved":false,"is_disabled":false,"rental_uris":{"android":"levelo://app?vid=69699675-8a18-4582-a1c3-6bfb6681de1d","ios":"levelo://app?vid=69699675-8a18-4582-a1c3-6bfb6681de1d"},"vehicle_type_id":"4","last_reported":1758967725,"current_range_meters":6000,"station_id":"st_cvj6sg6p6f1abm77japg","pricing_plan_id":"cebpf4jnsgd1na2vs0mg"},{"bike_id":"9a921cb2-04da-4550-9ae0-deb68d9d52e9","system_id":"levelo_inurba_marseille","lat":43.26043,"lon":5.37537,"is_reserved":false,"is_disabled":false,"rental_uris":{"android":"levelo://app?vid=9a921cb2-04da-4550-9ae0-deb68d9d52e9","ios":"levelo://app?vid=9a921cb2-04da-4550-9ae0-deb68d9d52e9"},"vehicle_type_id":"4","last_reported":1758967725,"current_range_meters":6000,"station_id":"ce4bhgh2rcd13ifvqfa0","pricing_plan_id":"cebpf4jnsgd1na2vs0mg"},{"bike_id":"6a6d6cff-09b8-44e2-b0ef-2f3a93fde45f","system_id":"levelo_inurba_marseille","lat":43.29804,"lon":5.37901,"is_reserved":false,"is_disabled":false,"rental_uris":{"android":"levelo://app?vid=6a6d6cff-09b8-44e2-b0ef-2f3a93fde45f","ios":"levelo://app?vid=6a6d6cff-09b8-44e2-b0ef-2f3a93fde45f"},"vehicle_type_id":"4","last_reported":1758967725,"current_range_meters":6000,"station_id":"","pricing_plan_id":"cebpf4jnsgd1na2vs0mg"},{"bike_id":"1cb5bc79-4b2b-45e3-955f-d54567a59051","system_id":"levelo_inurba_marseille","lat":43.32342,"lon":5.40615,"is_reserved":false,"is_disabled":false,"rental_uris":{"android":"levelo://app?vid=1cb5bc79-4b2b-45e3-955f-d54567a59051","ios":"levelo://app?vid=1cb5bc79-4b2b-45e3-955f-d54567a59051"},"vehicle_type_id":"4","last_reported":1758967725,"current_range_meters":6000,"station_id":"ce4bhq92rcd13ifvqhjg","pricing_plan_id":"cebpf4jnsgd1na2vs0mg"},{"bike_id":"10570c5a-8e04-4e55-8478-90c821e94d73","system_id":"levelo_inurba_marseille","lat":43.33159,"lon":5.38198,"is_reserved":false,"is_disabled":false,"rental_uris":{"android":"levelo://app?vid=10570c5a-8e04-4e55-8478-90c821e94d73","ios":"levelo://app?vid=10570c5a-8e04-4e55-8478-90c821e94d73"},"vehicle_type_id":"4","last_reported":1758967725,"current_range_meters":6000,"station_id":"","pricing_plan_id":"cebpf4jnsgd1na2vs0mg"},{"bike_id":"eaf80a02-9048-472b-8db0-d23ef5f848ea","system_id":"levelo_inurba_marseille","lat":43.254982,"lon":5.376492,"is_reserved":false,"is_disabled":false,"rental_uris":{"android":"levelo://app?vid=eaf80a02-9048-472b-8db0-d23ef5f848ea","ios":"levelo://app?vid=eaf80a02-9048-472b-8db0-d23ef5f848ea"},"vehicle_type_id":"4","last_reported":1758967725,"current_range_meters":6000,"station_id":"ce4bhh12rcd13ifvqff0","pricing_plan_id":"cebpf4jnsgd1na2vs0mg"},{"bike_id":"71499704-517e-44e9-b3c8-827e983f110a","system_id":"levelo_inurba_marseille","lat":43.29543,"lon":5.39035,"is_reserved":false,"is_disabled":false,"rental_uris":{"android":"levelo://app?vid=71499704-517e-44e9-b3c8-827e983f110a","ios":"levelo://app?vid=71499704-517e-44e9-b3c8-827e983f110a"},"vehicle_type_id":"4","last_reported":1758967725,"current_range_meters":8000,"station_id":"ce4bh3p2rcd13ifvqdp0","pricing_plan_id":"cebpf4jnsgd1na2vs0mg"},{"bike_id":"c7f6a08b-c655-4213-b2ba-7d02e7f382fe","system_id":"levelo_inurba_marseille","lat":43.27988,"lon":5.39483,"is_reserved":false,"is_disabled":false,"rental_uris":{"android":"levelo://app?vid=c7f6a08b-c655-4213-b2ba-7d02e7f382fe","ios":"levelo://app?vid=c7f6a08b-c655-4213-b2ba-7d02e7f382fe"},"vehicle_type_id":"4","last_reported":1758967725,"current_range_meters":6400,"station_id":"","pricing_plan_id":"cebpf4jnsgd1na2vs0mg"},{"bike_id":"90b16cfb-4abf-4e40-a9c7-f357958b1e71","system_id":"levelo_inurba_marseille","lat":43.21188,"lon":5.35075,"is_reserved":false,"is_disabled":false,"rental_uris":{"android":"levelo://app?vid=90b16cfb-4abf-4e40-a9c7-f357958b1e71","ios":"levelo://app?vid=90b16cfb-4abf-4e40-a9c7-f357958b1e71"},"vehicle_type_id":"4","last_reported":1758967725,"current_range_meters":6400,"station_id":"st_cvj6sg6p6f1abm77japg","pricing_plan_id":"cebpf4jnsgd1na2vs0mg"},{"bike_id":"041cd397-24ab-4e04-af23-07b961e161f4","system_id":"levelo_inurba_marseille","lat":43.337444,"lon":5.374475,"is_reserved":false,"is_disabled":false,"rental_uris":{"android":"levelo://app?vid=041cd397-24ab-4e04-af23-07b961e161f4","ios":"levelo://app?vid=041cd397-24ab-4e04-af23-07b961e161f4"},"vehicle_type_id":"4","last_reported":1758967725,"current_range_meters":6800,"station_id":"","pricing_plan_id":"cebpf4jnsgd1na2vs0mg"},{"bike_id":"0b1eb747-8274-4a8a-a752-7c30d6b68dc6","system_id":"levelo_inurba_marseille","lat":43.29904,"lon":5.43665,"is_reserved":false,"is_disabled":false,"rental_uris":{"android":"levelo://app?vid=0b1eb747-8274-4a8a-a752-7c30d6b68dc6","ios":"levelo://app?vid=0b1eb747-8274-4a8a-a752-7c30d6b68dc6"},"vehicle_type_id":"4","last_reported":1758967725,"current_range_meters":7200,"station_id":"ce4bhpp2rcd13ifvqhfg","pricing_plan_id":"cebpf4jnsgd1na2vs0mg"},{"bike_id":"7ec8d1cd-864c-4c78-8dfa-f4c0a0417007","system_id":"levelo_inurba_marseille","lat":43.272079,"lon":5.391769,"is_reserved":false,"is_disabled":false,"rental_uris":{"android":"levelo://app?vid=7ec8d1cd-864c-4c78-8dfa-f4c0a0417007","ios":"levelo://app?vid=7ec8d1cd-864c-4c78-8dfa-f4c0a0417007"},"vehicle_type_id":"4","last_reported":1758967725,"current_range_meters":8800,"station_id":"ce4bhhp2rcd13ifvqfm0","pricing_plan_id":"cebpf4jnsgd1na2vs0mg"},{"bike_id":"a955fda5-27fd-4960-a10d-2275e4ab2f5c","system_id":"levelo_inurba_marseille","lat":43.29504,"lon":5.37515,"is_reserved":false,"is_disabled":false,"rental_uris":{"android":"levelo://app?vid=a955fda5-27fd-4960-a10d-2275e4ab2f5c","ios":"levelo://app?vid=a955fda5-27fd-4960-a10d-2275e4ab2f5c"},"vehicle_type_id":"4","last_reported":1758967725,"current_range_meters":6800,"station_id":"ce4bgkp2rcd13ifvqbmg","pricing_plan_id":"cebpf4jnsgd1na2vs0mg"},{"bike_id":"a6b9ab9e-aed2-4080-8206-b068aa898306","system_id":"levelo_inurba_marseille","lat":43.286621,"lon":5.38671,"is_reserved":false,"is_disabled":false,"rental_uris":{"android":"levelo://app?vid=a6b9ab9e-aed2-4080-8206-b068aa898306","ios":"levelo://app?vid=a6b9ab9e-aed2-4080-8206-b068aa898306"},"vehicle_type_id":"4","last_reported":1758967725,"current_range_meters":7200,"station_id":"ce4bh492rcd13ifvqdug","pricing_plan_id":"cebpf4jnsgd1na2vs0mg"},{"bike_id":"75611fb7-df45-4d9f-9db0-a181136cc424","system_id":"levelo_inurba_marseille","lat":43.21744,"lon":5.34601,"is_reserved":false,"is_disabled":false,"rental_uris":{"android":"levelo://app?vid=75611fb7-df45-4d9f-9db0-a181136cc424","ios":"levelo://app?vid=75611fb7-df45-4d9f-9db0-a181136cc424"},"vehicle_type_id":"4","last_reported":1758967725,"current_range_meters":8000,"station_id":"st_cvj6r9ubvosntc0bgbag","pricing_plan_id":"cebpf4jnsgd1na2vs0mg"},{"bike_id":"174dfb4f-f618-4c2f-be1c-ae0d6b405e94","system_id":"levelo_inurba_marseille","lat":43.297067,"lon":5.38265,"is_reserved":false,"is_disabled":false,"rental_uris":{"android":"levelo://app?vid=174dfb4f-f618-4c2f-be1c-ae0d6b405e94","ios":"levelo://app?vid=174dfb4f-f618-4c2f-be1c-ae0d6b405e94"},"vehicle_type_id":"4","last_reported":1758967725,"current_range_meters":8000,"station_id":"","pricing_plan_id":"cebpf4jnsgd1na2vs0mg"},{"bike_id":"49c81374-5d7f-4473-916c-fe555bd78ac3","system_id":"levelo_inurba_marseille","lat":43.2549,"lon":5.376484,"is_reserved":false,"is_disabled":false,"rental_uris":{"android":"levelo://app?vid=49c81374-5d7f-4473-916c-fe555bd78ac3","ios":"levelo://app?vid=49c81374-5d7f-4473-916c-fe555bd78ac3"},"vehicle_type_id":"4","last_reported":1758967725,"current_range_meters":8000,"station_id":"","pricing_plan_id":"cebpf4jnsgd1na2vs0mg"},{"bike_id":"fb6883fd-8818-4750-968b-a049d6e508f8","system_id":"levelo_inurba_marseille","lat":43.29313,"lon":5.37176,"is_reserved":false,"is_disabled":false,"rental_uris":{"android":"levelo://app?vid=fb6883fd-8818-4750-968b-a049d6e508f8","ios":"levelo://app?vid=fb6883fd-8818-4750-968b-a049d6e508f8"},"vehicle_type_id":"4","last_reported":1758967725,"current_range_meters":8000,"station_id":"ce4bgh92rcd13ifvqb40","pricing_plan_id":"cebpf4jnsgd1na2vs0mg"},{"bike_id":"9a819dc8-447d-4df7-8b5f-0b18332a26a7","system_id":"levelo_inurba_marseille","lat":43.3311,"lon":5.37587,"is_reserved":false,"is_disabled":false,"rental_uris":{"android":"levelo://app?vid=9a819dc8-447d-4df7-8b5f-0b18332a26a7","ios":"levelo://app?vid=9a819dc8-447d-4df7-8b5f-0b18332a26a7"},"vehicle_type_id":"4","last_reported":1758967725,"current_range_meters":8000,"station_id":"","pricing_plan_id":"cebpf4jnsgd1na2vs0mg"},{"bike_id":"a80b4e2b-09a3-4a6b-8d9b-3895f3df1abc","system_id":"levelo_inurba_marseille","lat":43.270512,"lon":5.402603,"is_reserved":false,"is_disabled":false,"rental_uris":{"android":"levelo://app?vid=a80b4e2b-09a3-4a6b-8d9b-3895f3df1abc","ios":"levelo://app?vid=a80b4e2b-09a3-4a6b-8d9b-3895f3df1abc"},"vehicle_type_id":"4","last_reported":1758967725,"current_range_meters":8400,"station_id":"ce4bhk92rcd13ifvqgc0","pricing_plan_id":"cebpf4jnsgd1na2vs0mg"},{"bike_id":"78b43ab0-57e9-43ee-b7c6-fbbb1406e224","system_id":"levelo_inurba_marseille","lat":43.25737,"lon":5.41099,"is_reserved":false,"is_disabled":false,"rental_uris":{"android":"levelo://app?vid=78b43ab0-57e9-43ee-b7c6-fbbb1406e224","ios":"levelo://app?vid=78b43ab0-57e9-43ee-b7c6-fbbb1406e224"},"vehicle_type_id":"4","last_reported":1758967725,"current_range_meters":8400,"station_id":"ce4bhkp2rcd13ifvqgd0","pricing_plan_id":"cebpf4jnsgd1na2vs0mg"},{"bike_id":"a639c491-c436-478a-8d5d-bd2c30b918ff","system_id":"levelo_inurba_marseille","lat":43.29777,"lon":5.37218,"is_reserved":false,"is_disabled":false,"rental_uris":{"android":"levelo://app?vid=a639c491-c436-478a-8d5d-bd2c30b918ff","ios":"levelo://app?vid=a639c491-c436-478a-8d5d-bd2c30b918ff"},"vehicle_type_id":"4","last_reported":1758967725,"current_range_meters":8800,"station_id":"","pricing_plan_id":"cebpf4jnsgd1na2vs0mg"},{"bike_id":"f0cb1322-187b-4d06-988c-b833426d9a61","system_id":"levelo_inurba_marseille","lat":43.25333,"lon":5.42172,"is_reserved":false,"is_disabled":false,"rental_uris":{"android":"levelo://app?vid=f0cb1322-187b-4d06-988c-b833426d9a61","ios":"levelo://app?vid=f0cb1322-187b-4d06-988c-b833426d9a61"},"vehicle_type_id":"4","last_reported":1758967725,"current_range_meters":8800,"station_id":"st_d2m65c5bi1j21697t3ng","pricing_plan_id":"cebpf4jnsgd1na2vs0mg"},{"bike_id":"47f65f3c-ff83-4f68-bc22-05a6c758532e","system_id":"levelo_inurba_marseille","lat":43.29867,"lon":5.39732,"is_reserved":false,"is_disabled":false,"rental_uris":{"android":"levelo://app?vid=47f65f3c-ff83-4f68-bc22-05a6c758532e","ios":"levelo://app?vid=47f65f3c-ff83-4f68-bc22-05a6c758532e"},"vehicle_type_id":"4","last_reported":1758967725,"current_range_meters":9200,"station_id":"ce4bh0h2rcd13ifvqd50","pricing_plan_id":"cebpf4jnsgd1na2vs0mg"},{"bike_id":"2907de3a-cdb7-4c49-945b-9d4546080cdd","system_id":"levelo_inurba_marseille","lat":43.29472,"lon":5.36247,"is_reserved":false,"is_disabled":false,"rental_uris":{"android":"levelo://app?vid=2907de3a-cdb7-4c49-945b-9d4546080cdd","ios":"levelo://app?vid=2907de3a-cdb7-4c49-945b-9d4546080cdd"},"vehicle_type_id":"4","last_reported":1758967725,"current_range_meters":9200,"station_id":"","pricing_plan_id":"cebpf4jnsgd1na2vs0mg"},{"bike_id":"671d3f4e-25f2-4f9f-aaaa-73c8d879d9f5","system_id":"levelo_inurba_marseille","lat":43.29018,"lon":5.38127,"is_reserved":false,"is_disabled":false,"rental_uris":{"android":"levelo://app?vid=671d3f4e-25f2-4f9f-aaaa-73c8d879d9f5","ios":"levelo://app?vid=671d3f4e-25f2-4f9f-aaaa-73c8d879d9f5"},"vehicle_type_id":"4","last_reported":1758967725,"current_range_meters":9200,"station_id":"ce4bh4p2rcd13ifvqe1g","pricing_plan_id":"cebpf4jnsgd1na2vs0mg"},{"bike_id":"1e9f6a39-1434-45d9-afe2-f90ffa3a6c0d","system_id":"levelo_inurba_marseille","lat":43.30209,"lon":5.39475,"is_reserved":false,"is_disabled":false,"rental_uris":{"android":"levelo://app?vid=1e9f6a39-1434-45d9-afe2-f90ffa3a6c0d","ios":"levelo://app?vid=1e9f6a39-1434-45d9-afe2-f90ffa3a6c0d"},"vehicle_type_id":"4","last_reported":1758967725,"current_range_meters":8800,"station_id":"ce4bh0p2rcd13ifvqd70","pricing_plan_id":"cebpf4jnsgd1na2vs0mg"},{"bike_id":"3f51e03c-3abb-4dde-8cdd-da596aa3252f","system_id":"levelo_inurba_marseille","lat":43.27672,"lon":5.38893,"is_reserved":false,"is_disabled":true,"rental_uris":{"android":"levelo://app?vid=3f51e03c-3abb-4dde-8cdd-da596aa3252f","ios":"levelo://app?vid=3f51e03c-3abb-4dde-8cdd-da596aa3252f"},"vehicle_type_id":"4","last_reported":1758967725,"current_range_meters":9600,"station_id":"ce4bhi12rcd13ifvqfo0","pricing_plan_id":"cebpf4jnsgd1na2vs0mg"},{"bike_id":"fd7db3b2-bf6f-47a6-a193-d9e54fb8924d","system_id":"levelo_inurba_marseille","lat":43.32353,"lon":5.3903,"is_reserved":false,"is_disabled":false,"rental_uris":{"android":"levelo://app?vid=fd7db3b2-bf6f-47a6-a193-d9e54fb8924d","ios":"levelo://app?vid=fd7db3b2-bf6f-47a6-a193-d9e54fb8924d"},"vehicle_type_id":"4","last_reported":1758967725,"current_range_meters":9600,"station_id":"","pricing_plan_id":"cebpf4jnsgd1na2vs0mg"},{"bike_id":"2763c84c-30da-486d-b93d-4d03b7f8b8cd","system_id":"levelo_inurba_marseille","lat":43.25339,"lon":5.42159,"is_reserved":false,"is_disabled":false,"rental_uris":{"android":"levelo://app?vid=2763c84c-30da-486d-b93d-4d03b7f8b8cd","ios":"levelo://app?vid=2763c84c-30da-486d-b93d-4d03b7f8b8cd"},"vehicle_type_id":"4","last_reported":1758967725,"current_range_meters":9600,"station_id":"st_d2m65c5bi1j21697t3ng","pricing_plan_id":"cebpf4jnsgd1na2vs0mg"},{"bike_id":"7412c2bc-126e-4fde-a5a2-6602deef6b91","system_id":"levelo_inurba_marseille","lat":43.29846,"lon":5.36284,"is_reserved":false,"is_disabled":false,"rental_uris":{"android":"levelo://app?vid=7412c2bc-126e-4fde-a5a2-6602deef6b91","ios":"levelo://app?vid=7412c2bc-126e-4fde-a5a2-6602deef6b91"},"vehicle_type_id":"4","last_reported":1758967725,"current_range_meters":9600,"station_id":"ce4bgpp2rcd13ifvqc3g","pricing_plan_id":"cebpf4jnsgd1na2vs0mg"},{"bike_id":"08fe2b08-b3fa-43f8-ae73-04061f76318d","system_id":"levelo_inurba_marseille","lat":43.305552,"lon":5.365395,"is_reserved":false,"is_disabled":false,"rental_uris":{"android":"levelo://app?vid=08fe2b08-b3fa-43f8-ae73-04061f76318d","ios":"levelo://app?vid=08fe2b08-b3fa-43f8-ae73-04061f76318d"},"vehicle_type_id":"4","last_reported":1758967725,"current_range_meters":9600,"station_id":"","pricing_plan_id":"cebpf4jnsgd1na2vs0mg"},{"bike_id":"a60274be-e39c-4dbe-bf75-6e30df67c0b7","system_id":"levelo_inurba_marseille","lat":43.2317,"lon":5.43746,"is_reserved":false,"is_disabled":false,"rental_uris":{"android":"levelo://app?vid=a60274be-e39c-4dbe-bf75-6e30df67c0b7","ios":"levelo://app?vid=a60274be-e39c-4dbe-bf75-6e30df67c0b7"},"vehicle_type_id":"4","last_reported":1758967725,"current_range_meters":9600,"station_id":"ce4bhmp2rcd13ifvqgog","pricing_plan_id":"cebpf4jnsgd1na2vs0mg"},{"bike_id":"eeaa18cb-5fe9-4c1f-9753-4cfd440671ff","system_id":"levelo_inurba_marseille","lat":43.2293,"lon":5.3539,"is_reserved":false,"is_disabled":false,"rental_uris":{"android":"levelo://app?vid=eeaa18cb-5fe9-4c1f-9753-4cfd440671ff","ios":"levelo://app?vid=eeaa18cb-5fe9-4c1f-9753-4cfd440671ff"},"vehicle_type_id":"4","last_reported":1758967725,"current_range_meters":10000,"station_id":"cpo3532slgdg3j2ikp40","pricing_plan_id":"cebpf4jnsgd1na2vs0mg"},{"bike_id":"555aca4f-69a5-4323-b53a-892613b78149","system_id":"levelo_inurba_marseille","lat":43.249928,"lon":5.389342,"is_reserved":false,"is_disabled":false,"rental_uris":{"android":"levelo://app?vid=555aca4f-69a5-4323-b53a-892613b78149","ios":"levelo://app?vid=555aca4f-69a5-4323-b53a-892613b78149"},"vehicle_type_id":"4","last_reported":1758967725,"current_range_meters":10000,"station_id":"ce4bhgp2rcd13ifvqfd0","pricing_plan_id":"cebpf4jnsgd1na2vs0mg"},{"bike_id":"9a4f92ed-e086-4038-a651-bbe0613f80bd","system_id":"levelo_inurba_marseille","lat":43.22593,"lon":5.41617,"is_reserved":false,"is_disabled":false,"rental_uris":{"android":"levelo://app?vid=9a4f92ed-e086-4038-a651-bbe0613f80bd","ios":"levelo://app?vid=9a4f92ed-e086-4038-a651-bbe0613f80bd"},"vehicle_type_id":"4","last_reported":1758967725,"current_range_meters":10000,"station_id":"st_d2o4gvlbi1j2169b742g","pricing_plan_id":"cebpf4jnsgd1na2vs0mg"},{"bike_id":"fb3aa34b-ce03-44ac-8433-1d17c895f863","system_id":"levelo_inurba_marseille","lat":43.24173,"lon":5.39729,"is_reserved":false,"is_disabled":false,"rental_uris":{"android":"levelo://app?vid=fb3aa34b-ce03-44ac-8433-1d17c895f863","ios":"levelo://app?vid=fb3aa34b-ce03-44ac-8433-1d17c895f863"},"vehicle_type_id":"4","last_reported":1758967725,"current_range_meters":10000,"station_id":"ce4bhn12rcd13ifvqgpg","pricing_plan_id":"cebpf4jnsgd1na2vs0mg"},{"bike_id":"20241577-7696-40b2-a056-c9118a174630","system_id":"levelo_inurba_marseille","lat":43.29935,"lon":5.36558,"is_reserved":false,"is_disabled":false,"rental_uris":{"android":"levelo://app?vid=20241577-7696-40b2-a056-c9118a174630","ios":"levelo://app?vid=20241577-7696-40b2-a056-c9118a174630"},"vehicle_type_id":"4","last_reported":1758967725,"current_range_meters":10000,"station_id":"ce4bgm92rcd13ifvqbr0","pricing_plan_id":"cebpf4jnsgd1na2vs0mg"},{"bike_id":"09018ec9-72c9-4d84-9d68-5aef86bf762b","system_id":"levelo_inurba_marseille","lat":43.33024,"lon":5.39042,"is_reserved":false,"is_disabled":false,"rental_uris":{"android":"levelo://app?vid=09018ec9-72c9-4d84-9d68-5aef86bf762b","ios":"levelo://app?vid=09018ec9-72c9-4d84-9d68-5aef86bf762b"},"vehicle_type_id":"4","last_reported":1758967725,"current_range_meters":10000,"station_id":"ce4bhr92rcd13ifvqhrg","pricing_plan_id":"cebpf4jnsgd1na2vs0mg"},{"bike_id":"0b2fda4e-ac18-414b-8b05-54fcdd4fc421","system_id":"levelo_inurba_marseille","lat":43.32285,"lon":5.38264,"is_reserved":false,"is_disabled":false,"rental_uris":{"android":"levelo://app?vid=0b2fda4e-ac18-414b-8b05-54fcdd4fc421","ios":"levelo://app?vid=0b2fda4e-ac18-414b-8b05-54fcdd4fc421"},"vehicle_type_id":"4","last_reported":1758967725,"current_range_meters":10000,"station_id":"ce4bhr12rcd13ifvqhqg","pricing_plan_id":"cebpf4jnsgd1na2vs0mg"},{"bike_id":"74edfd30-b972-4882-80ba-b192751c42e3","system_id":"levelo_inurba_marseille","lat":43.24989,"lon":5.389,"is_reserved":false,"is_disabled":false,"rental_uris":{"android":"levelo://app?vid=74edfd30-b972-4882-80ba-b192751c42e3","ios":"levelo://app?vid=74edfd30-b972-4882-80ba-b192751c42e3"},"vehicle_type_id":"4","last_reported":1758967725,"current_range_meters":10000,"station_id":"ce4bhgp2rcd13ifvqfd0","pricing_plan_id":"cebpf4jnsgd1na2vs0mg"},{"bike_id":"88bc72fd-f6e3-44af-bf4e-4389408e6114","system_id":"levelo_inurba_marseille","lat":43.26492,"lon":5.39549,"is_reserved":false,"is_disabled":false,"rental_uris":{"android":"levelo://app?vid=88bc72fd-f6e3-44af-bf4e-4389408e6114","ios":"levelo://app?vid=88bc72fd-f6e3-44af-bf4e-4389408e6114"},"vehicle_type_id":"4","last_reported":1758967725,"current_range_meters":10800,"station_id":"ce4bhi12rcd13ifvqfq0","pricing_plan_id":"cebpf4jnsgd1na2vs0mg"},{"bike_id":"6c00a6a0-3cf0-48a9-b218-0693fab11be9","system_id":"levelo_inurba_marseille","lat":43.30299,"lon":5.43528,"is_reserved":false,"is_disabled":false,"rental_uris":{"android":"levelo://app?vid=6c00a6a0-3cf0-48a9-b218-0693fab11be9","ios":"levelo://app?vid=6c00a6a0-3cf0-48a9-b218-0693fab11be9"},"vehicle_type_id":"4","last_reported":1758967725,"current_range_meters":10800,"station_id":"","pricing_plan_id":"cebpf4jnsgd1na2vs0mg"},{"bike_id":"fd4b5ad5-2581-44dd-90b2-f4a8fbdc2423","system_id":"levelo_inurba_marseille","lat":43.299011,"lon":5.364989,"is_reserved":false,"is_disabled":false,"rental_uris":{"android":"levelo://app?vid=fd4b5ad5-2581-44dd-90b2-f4a8fbdc2423","ios":"levelo://app?vid=fd4b5ad5-2581-44dd-90b2-f4a8fbdc2423"},"vehicle_type_id":"4","last_reported":1758967725,"current_range_meters":10800,"station_id":"","pricing_plan_id":"cebpf4jnsgd1na2vs0mg"},{"bike_id":"fee74e98-eb52-4f66-a612-109c75f34aa6","system_id":"levelo_inurba_marseille","lat":43.296216,"lon":5.379492,"is_reserved":false,"is_disabled":false,"rental_uris":{"android":"levelo://app?vid=fee74e98-eb52-4f66-a612-109c75f34aa6","ios":"levelo://app?vid=fee74e98-eb52-4f66-a612-109c75f34aa6"},"vehicle_type_id":"4","last_reported":1758967725,"current_range_meters":10800,"station_id":"","pricing_plan_id":"cebpf4jnsgd1na2vs0mg"},{"bike_id":"460dc79f-5575-4f99-ae1a-a43c8adf9ace","system_id":"levelo_inurba_marseille","lat":43.25367,"lon":5.42168,"is_reserved":false,"is_disabled":false,"rental_uris":{"android":"levelo://app?vid=460dc79f-5575-4f99-ae1a-a43c8adf9ace","ios":"levelo://app?vid=460dc79f-5575-4f99-ae1a-a43c8adf9ace"},"vehicle_type_id":"4","last_reported":1758967725,"current_range_meters":10800,"station_id":"st_d2m65c5bi1j21697t3ng","pricing_plan_id":"cebpf4jnsgd1na2vs0mg"},{"bike_id":"c37e5625-b670-436a-802f-d0e6109b1c8f","system_id":"levelo_inurba_marseille","lat":43.30182,"lon":5.38095,"is_reserved":false,"is_disabled":false,"rental_uris":{"android":"levelo://app?vid=c37e5625-b670-436a-802f-d0e6109b1c8f","ios":"levelo://app?vid=c37e5625-b670-436a-802f-d0e6109b1c8f"},"vehicle_type_id":"4","last_reported":1758967725,"current_range_meters":10800,"station_id":"ce4bgjp2rcd13ifvqbh0","pricing_plan_id":"cebpf4jnsgd1na2vs0mg"},{"bike_id":"8cf842e4-76c1-4a82-ad31-66529da65dba","system_id":"levelo_inurba_marseille","lat":43.26687,"lon":5.40252,"is_reserved":false,"is_disabled":false,"rental_uris":{"android":"levelo://app?vid=8cf842e4-76c1-4a82-ad31-66529da65dba","ios":"levelo://app?vid=8cf842e4-76c1-4a82-ad31-66529da65dba"},"vehicle_type_id":"4","last_reported":1758967725,"current_range_meters":11200,"station_id":"","pricing_plan_id":"cebpf4jnsgd1na2vs0mg"},{"bike_id":"735b4eef-5ed2-47aa-ab59-36616a810357","system_id":"levelo_inurba_marseille","lat":43.28056,"lon":5.39115,"is_reserved":false,"is_disabled":false,"rental_uris":{"android":"levelo://app?vid=735b4eef-5ed2-47aa-ab59-36616a810357","ios":"levelo://app?vid=735b4eef-5ed2-47aa-ab59-36616a810357"},"vehicle_type_id":"4","last_reported":1758967725,"current_range_meters":11200,"station_id":"","pricing_plan_id":"cebpf4jnsgd1na2vs0mg"},{"bike_id":"98a0ec2d-882d-4776-a084-a78899ae3202","system_id":"levelo_inurba_marseille","lat":43.26202,"lon":5.37928,"is_reserved":false,"is_disabled":false,"rental_uris":{"android":"levelo://app?vid=98a0ec2d-882d-4776-a084-a78899ae3202","ios":"levelo://app?vid=98a0ec2d-882d-4776-a084-a78899ae3202"},"vehicle_type_id":"4","last_reported":1758967725,"current_range_meters":11200,"station_id":"ce4bhjp2rcd13ifvqg90","pricing_plan_id":"cebpf4jnsgd1na2vs0mg"},{"bike_id":"84576be0-79e2-4501-b565-989bebdccf2d","system_id":"levelo_inurba_marseille","lat":43.25091,"lon":5.39513,"is_reserved":false,"is_disabled":false,"rental_uris":{"android":"levelo://app?vid=84576be0-79e2-4501-b565-989bebdccf2d","ios":"levelo://app?vid=84576be0-79e2-4501-b565-989bebdccf2d"},"vehicle_type_id":"4","last_reported":1758967725,"current_range_meters":11200,"station_id":"ce4bhm12rcd13ifvqgkg","pricing_plan_id":"cebpf4jnsgd1na2vs0mg"},{"bike_id":"85782661-163d-4a8b-b5a4-1f0a766faaa2","system_id":"levelo_inurba_marseille","lat":43.24651,"lon":5.43139,"is_reserved":false,"is_disabled":false,"rental_uris":{"android":"levelo://app?vid=85782661-163d-4a8b-b5a4-1f0a766faaa2","ios":"levelo://app?vid=85782661-163d-4a8b-b5a4-1f0a766faaa2"},"vehicle_type_id":"4","last_reported":1758967725,"current_range_meters":11200,"station_id":"st_d2m6c4gdas8pm72e190g","pricing_plan_id":"cebpf4jnsgd1na2vs0mg"},{"bike_id":"2630ccf6-e40c-4f19-931a-898dee1411ab","system_id":"levelo_inurba_marseille","lat":43.29376,"lon":5.37854,"is_reserved":false,"is_disabled":false,"rental_uris":{"android":"levelo://app?vid=2630ccf6-e40c-4f19-931a-898dee1411ab","ios":"levelo://app?vid=2630ccf6-e40c-4f19-931a-898dee1411ab"},"vehicle_type_id":"4","last_reported":1758967725,"current_range_meters":11200,"station_id":"ce4bgjh2rcd13ifvqbf0","pricing_plan_id":"cebpf4jnsgd1na2vs0mg"},{"bike_id":"5f20a66d-3b6e-4123-bd6f-eb1c1a31c815","system_id":"levelo_inurba_marseille","lat":43.299411,"lon":5.385201,"is_reserved":false,"is_disabled":false,"rental_uris":{"android":"levelo://app?vid=5f20a66d-3b6e-4123-bd6f-eb1c1a31c815","ios":"levelo://app?vid=5f20a66d-3b6e-4123-bd6f-eb1c1a31c815"},"vehicle_type_id":"4","last_reported":1758967725,"current_range_meters":11200,"station_id":"","pricing_plan_id":"cebpf4jnsgd1na2vs0mg"},{"bike_id":"5f132b34-5594-4c78-b770-e0a589857e3c","system_id":"levelo_inurba_marseille","lat":43.30645,"lon":5.40102,"is_reserved":false,"is_disabled":false,"rental_uris":{"android":"levelo://app?vid=5f132b34-5594-4c78-b770-e0a589857e3c","ios":"levelo://app?vid=5f132b34-5594-4c78-b770-e0a589857e3c"},"vehicle_type_id":"4","last_reported":1758967725,"current_range_meters":10800,"station_id":"ce4bh112rcd13ifvqda0","pricing_plan_id":"cebpf4jnsgd1na2vs0mg"},{"bike_id":"ab915236-e4e0-43d4-b3d0-7dc20b4ec838","system_id":"levelo_inurba_marseille","lat":43.313324,"lon":5.367146,"is_reserved":false,"is_disabled":false,"rental_uris":{"android":"levelo://app?vid=ab915236-e4e0-43d4-b3d0-7dc20b4ec838","ios":"levelo://app?vid=ab915236-e4e0-43d4-b3d0-7dc20b4ec838"},"vehicle_type_id":"4","last_reported":1758967725,"current_range_meters":11200,"station_id":"ce4bgr92rcd13ifvqc6g","pricing_plan_id":"cebpf4jnsgd1na2vs0mg"},{"bike_id":"c6a06dfb-71c5-437a-9994-4542dd052e9d","system_id":"levelo_inurba_marseille","lat":43.290765,"lon":5.381328,"is_reserved":false,"is_disabled":false,"rental_uris":{"android":"levelo://app?vid=c6a06dfb-71c5-437a-9994-4542dd052e9d","ios":"levelo://app?vid=c6a06dfb-71c5-437a-9994-4542dd052e9d"},"vehicle_type_id":"4","last_reported":1758967725,"current_range_meters":11200,"station_id":"ce4bh512rcd13ifvqe2g","pricing_plan_id":"cebpf4jnsgd1na2vs0mg"},{"bike_id":"a6187c30-1c11-4309-be70-335b3ca8c646","system_id":"levelo_inurba_marseille","lat":43.21195,"lon":5.35087,"is_reserved":false,"is_disabled":false,"rental_uris":{"android":"levelo://app?vid=a6187c30-1c11-4309-be70-335b3ca8c646","ios":"levelo://app?vid=a6187c30-1c11-4309-be70-335b3ca8c646"},"vehicle_type_id":"4","last_reported":1758967725,"current_range_meters":11600,"station_id":"","pricing_plan_id":"cebpf4jnsgd1na2vs0mg"},{"bike_id":"21e37fa7-8771-440c-b1a0-0dfbf5102e1c","system_id":"levelo_inurba_marseille","lat":43.23062,"lon":5.35491,"is_reserved":false,"is_disabled":false,"rental_uris":{"android":"levelo://app?vid=21e37fa7-8771-440c-b1a0-0dfbf5102e1c","ios":"levelo://app?vid=21e37fa7-8771-440c-b1a0-0dfbf5102e1c"},"vehicle_type_id":"4","last_reported":1758967725,"current_range_meters":11600,"station_id":"cpo3342slgdg3j2ifvpg","pricing_plan_id":"cebpf4jnsgd1na2vs0mg"},{"bike_id":"cd52d724-6e36-4c8e-9efa-f35ff15b1a8b","system_id":"levelo_inurba_marseille","lat":43.317167,"lon":5.424076,"is_reserved":false,"is_disabled":false,"rental_uris":{"android":"levelo://app?vid=cd52d724-6e36-4c8e-9efa-f35ff15b1a8b","ios":"levelo://app?vid=cd52d724-6e36-4c8e-9efa-f35ff15b1a8b"},"vehicle_type_id":"4","last_reported":1758967725,"current_range_meters":11600,"station_id":"ce4bhp92rcd13ifvqhbg","pricing_plan_id":"cebpf4jnsgd1na2vs0mg"},{"bike_id":"d068cbd0-50c8-499e-9ba1-96cea7665b52","system_id":"levelo_inurba_marseille","lat":43.293655,"lon":5.378486,"is_reserved":false,"is_disabled":false,"rental_uris":{"android":"levelo://app?vid=d068cbd0-50c8-499e-9ba1-96cea7665b52","ios":"levelo://app?vid=d068cbd0-50c8-499e-9ba1-96cea7665b52"},"vehicle_type_id":"4","last_reported":1758967725,"current_range_meters":11600,"station_id":"ce4bgjh2rcd13ifvqbf0","pricing_plan_id":"cebpf4jnsgd1na2vs0mg"},{"bike_id":"39e73ceb-60a7-4264-8736-2fb1b49c7fb4","system_id":"levelo_inurba_marseille","lat":43.25004,"lon":5.38875,"is_reserved":false,"is_disabled":false,"rental_uris":{"android":"levelo://app?vid=39e73ceb-60a7-4264-8736-2fb1b49c7fb4","ios":"levelo://app?vid=39e73ceb-60a7-4264-8736-2fb1b49c7fb4"},"vehicle_type_id":"4","last_reported":1758967725,"current_range_meters":11600,"station_id":"ce4bhgp2rcd13ifvqfd0","pricing_plan_id":"cebpf4jnsgd1na2vs0mg"},{"bike_id":"2a416e7a-1803-402e-9523-74bfe690bd54","system_id":"levelo_inurba_marseille","lat":43.32365,"lon":5.36767,"is_reserved":false,"is_disabled":false,"rental_uris":{"android":"levelo://app?vid=2a416e7a-1803-402e-9523-74bfe690bd54","ios":"levelo://app?vid=2a416e7a-1803-402e-9523-74bfe690bd54"},"vehicle_type_id":"4","last_reported":1758967725,"current_range_meters":11600,"station_id":"ce4bhsh2rcd13ifvqi2g","pricing_plan_id":"cebpf4jnsgd1na2vs0mg"},{"bike_id":"42ca528a-85fa-475a-abe7-3eacedb896a7","system_id":"levelo_inurba_marseille","lat":43.2706,"lon":5.40273,"is_reserved":false,"is_disabled":false,"rental_uris":{"android":"levelo://app?vid=42ca528a-85fa-475a-abe7-3eacedb896a7","ios":"levelo://app?vid=42ca528a-85fa-475a-abe7-3eacedb896a7"},"vehicle_type_id":"4","last_reported":1758967725,"current_range_meters":12000,"station_id":"ce4bhk92rcd13ifvqgc0","pricing_plan_id":"cebpf4jnsgd1na2vs0mg"},{"bike_id":"59de883b-8db6-40e7-9f1d-35e7af8ef204","system_id":"levelo_inurba_marseille","lat":43.29711,"lon":5.37699,"is_reserved":false,"is_disabled":false,"rental_uris":{"android":"levelo://app?vid=59de883b-8db6-40e7-9f1d-35e7af8ef204","ios":"levelo://app?vid=59de883b-8db6-40e7-9f1d-35e7af8ef204"},"vehicle_type_id":"4","last_reported":1758967725,"current_range_meters":11600,"station_id":"ce4bgkh2rcd13ifvqbl0","pricing_plan_id":"cebpf4jnsgd1na2vs0mg"},{"bike_id":"7266fb39-452a-4e7f-aafa-8725c9c5d955","system_id":"levelo_inurba_marseille","lat":43.27194,"lon":5.40968,"is_reserved":false,"is_disabled":false,"rental_uris":{"android":"levelo://app?vid=7266fb39-452a-4e7f-aafa-8725c9c5d955","ios":"levelo://app?vid=7266fb39-452a-4e7f-aafa-8725c9c5d955"},"vehicle_type_id":"4","last_reported":1758967725,"current_range_meters":12000,"station_id":"ce4bhl12rcd13ifvqgf0","pricing_plan_id":"cebpf4jnsgd1na2vs0mg"},{"bike_id":"63d52c35-c9c9-44eb-9780-1b2f9145123b","system_id":"levelo_inurba_marseille","lat":43.29627,"lon":5.377037,"is_reserved":false,"is_disabled":false,"rental_uris":{"android":"levelo://app?vid=63d52c35-c9c9-44eb-9780-1b2f9145123b","ios":"levelo://app?vid=63d52c35-c9c9-44eb-9780-1b2f9145123b"},"vehicle_type_id":"4","last_reported":1758967725,"current_range_meters":12000,"station_id":"","pricing_plan_id":"cebpf4jnsgd1na2vs0mg"},{"bike_id":"9bb4db31-0bf9-4171-bca1-76cb045f53a3","system_id":"levelo_inurba_marseille","lat":43.26924,"lon":5.389081,"is_reserved":false,"is_disabled":false,"rental_uris":{"android":"levelo://app?vid=9bb4db31-0bf9-4171-bca1-76cb045f53a3","ios":"levelo://app?vid=9bb4db31-0bf9-4171-bca1-76cb045f53a3"},"vehicle_type_id":"4","last_reported":1758967725,"current_range_meters":12000,"station_id":"ce4bhhh2rcd13ifvqfl0","pricing_plan_id":"cebpf4jnsgd1na2vs0mg"},{"bike_id":"01bf55f2-4ac6-46f6-8504-3267bf31e1a6","system_id":"levelo_inurba_marseille","lat":43.2973,"lon":5.381787,"is_reserved":false,"is_disabled":false,"rental_uris":{"android":"levelo://app?vid=01bf55f2-4ac6-46f6-8504-3267bf31e1a6","ios":"levelo://app?vid=01bf55f2-4ac6-46f6-8504-3267bf31e1a6"},"vehicle_type_id":"4","last_reported":1758967725,"current_range_meters":12000,"station_id":"","pricing_plan_id":"cebpf4jnsgd1na2vs0mg"},{"bike_id":"324275b1-4d42-4245-8ad9-267242ffd0d0","system_id":"levelo_inurba_marseille","lat":43.298797,"lon":5.397248,"is_reserved":false,"is_disabled":false,"rental_uris":{"android":"levelo://app?vid=324275b1-4d42-4245-8ad9-267242ffd0d0","ios":"levelo://app?vid=324275b1-4d42-4245-8ad9-267242ffd0d0"},"vehicle_type_id":"4","last_reported":1758967725,"current_range_meters":11600,"station_id":"ce4bh0h2rcd13ifvqd50","pricing_plan_id":"cebpf4jnsgd1na2vs0mg"},{"bike_id":"b12bf4c8-499a-4a63-aa8f-f0a0bdbba76e","system_id":"levelo_inurba_marseille","lat":43.2621,"lon":5.37915,"is_reserved":false,"is_disabled":false,"rental_uris":{"android":"levelo://app?vid=b12bf4c8-499a-4a63-aa8f-f0a0bdbba76e","ios":"levelo://app?vid=b12bf4c8-499a-4a63-aa8f-f0a0bdbba76e"},"vehicle_type_id":"4","last_reported":1758967725,"current_range_meters":12000,"station_id":"ce4bhjp2rcd13ifvqg90","pricing_plan_id":"cebpf4jnsgd1na2vs0mg"},{"bike_id":"09ed86ec-f8e1-41a0-94d3-e2f53d3d037a","system_id":"levelo_inurba_marseille","lat":43.25004,"lon":5.38931,"is_reserved":false,"is_disabled":false,"rental_uris":{"android":"levelo://app?vid=09ed86ec-f8e1-41a0-94d3-e2f53d3d037a","ios":"levelo://app?vid=09ed86ec-f8e1-41a0-94d3-e2f53d3d037a"},"vehicle_type_id":"4","last_reported":1758967725,"current_range_meters":12000,"station_id":"ce4bhgp2rcd13ifvqfd0","pricing_plan_id":"cebpf4jnsgd1na2vs0mg"},{"bike_id":"b5d12c62-3cf3-4c58-ba24-f7d0834f6415","system_id":"levelo_inurba_marseille","lat":43.2707,"lon":5.42274,"is_reserved":false,"is_disabled":false,"rental_uris":{"android":"levelo://app?vid=b5d12c62-3cf3-4c58-ba24-f7d0834f6415","ios":"levelo://app?vid=b5d12c62-3cf3-4c58-ba24-f7d0834f6415"},"vehicle_type_id":"4","last_reported":1758967725,"current_range_meters":12000,"station_id":"ce4bhk92rcd13ifvqgb0","pricing_plan_id":"cebpf4jnsgd1na2vs0mg"},{"bike_id":"ec348589-ff91-45a4-84f8-96a0dc2abb69","system_id":"levelo_inurba_marseille","lat":43.32712,"lon":5.39295,"is_reserved":false,"is_disabled":false,"rental_uris":{"android":"levelo://app?vid=ec348589-ff91-45a4-84f8-96a0dc2abb69","ios":"levelo://app?vid=ec348589-ff91-45a4-84f8-96a0dc2abb69"},"vehicle_type_id":"4","last_reported":1758967725,"current_range_meters":12000,"station_id":"","pricing_plan_id":"cebpf4jnsgd1na2vs0mg"},{"bike_id":"26293089-e827-4a91-b336-c1833ecbc843","system_id":"levelo_inurba_marseille","lat":43.21744,"lon":5.34609,"is_reserved":false,"is_disabled":false,"rental_uris":{"android":"levelo://app?vid=26293089-e827-4a91-b336-c1833ecbc843","ios":"levelo://app?vid=26293089-e827-4a91-b336-c1833ecbc843"},"vehicle_type_id":"4","last_reported":1758967725,"current_range_meters":12400,"station_id":"st_cvj6r9ubvosntc0bgbag","pricing_plan_id":"cebpf4jnsgd1na2vs0mg"},{"bike_id":"0725469e-ab3e-45f9-98fe-b89f6d9f6262","system_id":"levelo_inurba_marseille","lat":43.262,"lon":5.37924,"is_reserved":false,"is_disabled":false,"rental_uris":{"android":"levelo://app?vid=0725469e-ab3e-45f9-98fe-b89f6d9f6262","ios":"levelo://app?vid=0725469e-ab3e-45f9-98fe-b89f6d9f6262"},"vehicle_type_id":"4","last_reported":1758967725,"current_range_meters":12400,"station_id":"ce4bhjp2rcd13ifvqg90","pricing_plan_id":"cebpf4jnsgd1na2vs0mg"},{"bike_id":"1c14f608-9eb0-4b58-8221-e6e5ed28265b","system_id":"levelo_inurba_marseille","lat":43.24433,"lon":5.37055,"is_reserved":false,"is_disabled":false,"rental_uris":{"android":"levelo://app?vid=1c14f608-9eb0-4b58-8221-e6e5ed28265b","ios":"levelo://app?vid=1c14f608-9eb0-4b58-8221-e6e5ed28265b"},"vehicle_type_id":"4","last_reported":1758967725,"current_range_meters":12400,"station_id":"","pricing_plan_id":"cebpf4jnsgd1na2vs0mg"},{"bike_id":"3433df18-1a70-4854-9ff0-12e2f2df7228","system_id":"levelo_inurba_marseille","lat":43.30614,"lon":5.37211,"is_reserved":false,"is_disabled":false,"rental_uris":{"android":"levelo://app?vid=3433df18-1a70-4854-9ff0-12e2f2df7228","ios":"levelo://app?vid=3433df18-1a70-4854-9ff0-12e2f2df7228"},"vehicle_type_id":"4","last_reported":1758967725,"current_range_meters":12000,"station_id":"ce4bgqh2rcd13ifvqc4g","pricing_plan_id":"cebpf4jnsgd1na2vs0mg"},{"bike_id":"963794a7-cd03-4b6c-b677-33c88373cadb","system_id":"levelo_inurba_marseille","lat":43.2973,"lon":5.37699,"is_reserved":false,"is_disabled":false,"rental_uris":{"android":"levelo://app?vid=963794a7-cd03-4b6c-b677-33c88373cadb","ios":"levelo://app?vid=963794a7-cd03-4b6c-b677-33c88373cadb"},"vehicle_type_id":"4","last_reported":1758967725,"current_range_meters":12800,"station_id":"ce4bgkh2rcd13ifvqbl0","pricing_plan_id":"cebpf4jnsgd1na2vs0mg"},{"bike_id":"5913558a-8cbc-4403-b263-9d31e07299d3","system_id":"levelo_inurba_marseille","lat":43.243888,"lon":5.370551,"is_reserved":false,"is_disabled":false,"rental_uris":{"android":"levelo://app?vid=5913558a-8cbc-4403-b263-9d31e07299d3","ios":"levelo://app?vid=5913558a-8cbc-4403-b263-9d31e07299d3"},"vehicle_type_id":"4","last_reported":1758967725,"current_range_meters":12800,"station_id":"ce4bhhh2rcd13ifvqfk0","pricing_plan_id":"cebpf4jnsgd1na2vs0mg"},{"bike_id":"d4dff8d0-2951-4630-a457-48af9158349a","system_id":"levelo_inurba_marseille","lat":43.30629,"lon":5.40087,"is_reserved":false,"is_disabled":false,"rental_uris":{"android":"levelo://app?vid=d4dff8d0-2951-4630-a457-48af9158349a","ios":"levelo://app?vid=d4dff8d0-2951-4630-a457-48af9158349a"},"vehicle_type_id":"4","last_reported":1758967725,"current_range_meters":12800,"station_id":"ce4bh112rcd13ifvqda0","pricing_plan_id":"cebpf4jnsgd1na2vs0mg"},{"bike_id":"f994e9ac-cad3-4ca1-ad2b-af49a93bb968","system_id":"levelo_inurba_marseille","lat":43.25003,"lon":5.38933,"is_reserved":false,"is_disabled":false,"rental_uris":{"android":"levelo://app?vid=f994e9ac-cad3-4ca1-ad2b-af49a93bb968","ios":"levelo://app?vid=f994e9ac-cad3-4ca1-ad2b-af49a93bb968"},"vehicle_type_id":"4","last_reported":1758967725,"current_range_meters":12800,"station_id":"ce4bhgp2rcd13ifvqfd0","pricing_plan_id":"cebpf4jnsgd1na2vs0mg"},{"bike_id":"e8c51c17-19f3-4a36-b51c-2f9ea4777522","system_id":"levelo_inurba_marseille","lat":43.2656,"lon":5.39027,"is_reserved":false,"is_disabled":false,"rental_uris":{"android":"levelo://app?vid=e8c51c17-19f3-4a36-b51c-2f9ea4777522","ios":"levelo://app?vid=e8c51c17-19f3-4a36-b51c-2f9ea4777522"},"vehicle_type_id":"4","last_reported":1758967725,"current_range_meters":12800,"station_id":"ce4bhe12rcd13ifvqf30","pricing_plan_id":"cebpf4jnsgd1na2vs0mg"},{"bike_id":"100b589b-9f72-42c8-85e4-56e4255c325e","system_id":"levelo_inurba_marseille","lat":43.312291,"lon":5.368596,"is_reserved":false,"is_disabled":false,"rental_uris":{"android":"levelo://app?vid=100b589b-9f72-42c8-85e4-56e4255c325e","ios":"levelo://app?vid=100b589b-9f72-42c8-85e4-56e4255c325e"},"vehicle_type_id":"4","last_reported":1758967725,"current_range_meters":12800,"station_id":"ce4bgl92rcd13ifvqbq0","pricing_plan_id":"cebpf4jnsgd1na2vs0mg"},{"bike_id":"8fb6b312-30ed-4765-90d6-32ed783bc889","system_id":"levelo_inurba_marseille","lat":43.29975,"lon":5.41341,"is_reserved":false,"is_disabled":false,"rental_uris":{"android":"levelo://app?vid=8fb6b312-30ed-4765-90d6-32ed783bc889","ios":"levelo://app?vid=8fb6b312-30ed-4765-90d6-32ed783bc889"},"vehicle_type_id":"4","last_reported":1758967725,"current_range_meters":12800,"station_id":"ce4bhp12rcd13ifvqh9g","pricing_plan_id":"cebpf4jnsgd1na2vs0mg"},{"bike_id":"052c59a7-1cc4-4bbc-97f5-180981a63118","system_id":"levelo_inurba_marseille","lat":43.24638,"lon":5.43129,"is_reserved":false,"is_disabled":false,"rental_uris":{"android":"levelo://app?vid=052c59a7-1cc4-4bbc-97f5-180981a63118","ios":"levelo://app?vid=052c59a7-1cc4-4bbc-97f5-180981a63118"},"vehicle_type_id":"4","last_reported":1758967725,"current_range_meters":12800,"station_id":"st_d2m6c4gdas8pm72e190g","pricing_plan_id":"cebpf4jnsgd1na2vs0mg"},{"bike_id":"80bdba63-46f3-4274-b0d9-d9711409b6a8","system_id":"levelo_inurba_marseille","lat":43.270752,"lon":5.402497,"is_reserved":false,"is_disabled":false,"rental_uris":{"android":"levelo://app?vid=80bdba63-46f3-4274-b0d9-d9711409b6a8","ios":"levelo://app?vid=80bdba63-46f3-4274-b0d9-d9711409b6a8"},"vehicle_type_id":"4","last_reported":1758967725,"current_range_meters":12800,"station_id":"","pricing_plan_id":"cebpf4jnsgd1na2vs0mg"},{"bike_id":"03db419c-b1d8-46f6-8471-6a77cc59de0c","system_id":"levelo_inurba_marseille","lat":43.25094,"lon":5.39519,"is_reserved":false,"is_disabled":false,"rental_uris":{"android":"levelo://app?vid=03db419c-b1d8-46f6-8471-6a77cc59de0c","ios":"levelo://app?vid=03db419c-b1d8-46f6-8471-6a77cc59de0c"},"vehicle_type_id":"4","last_reported":1758967725,"current_range_meters":12800,"station_id":"ce4bhm12rcd13ifvqgkg","pricing_plan_id":"cebpf4jnsgd1na2vs0mg"},{"bike_id":"934ea1ec-b7f6-49a1-9efa-287317d4eb22","system_id":"levelo_inurba_marseille","lat":43.29048,"lon":5.35914,"is_reserved":false,"is_disabled":false,"rental_uris":{"android":"levelo://app?vid=934ea1ec-b7f6-49a1-9efa-287317d4eb22","ios":"levelo://app?vid=934ea1ec-b7f6-49a1-9efa-287317d4eb22"},"vehicle_type_id":"4","last_reported":1758967725,"current_range_meters":13600,"station_id":"","pricing_plan_id":"cebpf4jnsgd1na2vs0mg"},{"bike_id":"f3385bd8-368a-4c05-a5f5-46bdac53388d","system_id":"levelo_inurba_marseille","lat":43.30423,"lon":5.38884,"is_reserved":false,"is_disabled":false,"rental_uris":{"android":"levelo://app?vid=f3385bd8-368a-4c05-a5f5-46bdac53388d","ios":"levelo://app?vid=f3385bd8-368a-4c05-a5f5-46bdac53388d"},"vehicle_type_id":"4","last_reported":1758967725,"current_range_meters":14000,"station_id":"ce4bgk12rcd13ifvqbi0","pricing_plan_id":"cebpf4jnsgd1na2vs0mg"},{"bike_id":"9de5eb4a-2bba-4d94-b5d2-50807c7d8cc2","system_id":"levelo_inurba_marseille","lat":43.22534,"lon":5.34839,"is_reserved":false,"is_disabled":false,"rental_uris":{"android":"levelo://app?vid=9de5eb4a-2bba-4d94-b5d2-50807c7d8cc2","ios":"levelo://app?vid=9de5eb4a-2bba-4d94-b5d2-50807c7d8cc2"},"vehicle_type_id":"4","last_reported":1758967725,"current_range_meters":14000,"station_id":"","pricing_plan_id":"cebpf4jnsgd1na2vs0mg"},{"bike_id":"5bb42022-0e19-48bc-a5b4-218bb1d7482e","system_id":"levelo_inurba_marseille","lat":43.31264,"lon":5.37736,"is_reserved":false,"is_disabled":false,"rental_uris":{"android":"levelo://app?vid=5bb42022-0e19-48bc-a5b4-218bb1d7482e","ios":"levelo://app?vid=5bb42022-0e19-48bc-a5b4-218bb1d7482e"},"vehicle_type_id":"4","last_reported":1758967725,"current_range_meters":14000,"station_id":"","pricing_plan_id":"cebpf4jnsgd1na2vs0mg"},{"bike_id":"702d6a50-33f4-4753-a48d-9cbeba9f4fe3","system_id":"levelo_inurba_marseille","lat":43.26216,"lon":5.37927,"is_reserved":false,"is_disabled":false,"rental_uris":{"android":"levelo://app?vid=702d6a50-33f4-4753-a48d-9cbeba9f4fe3","ios":"levelo://app?vid=702d6a50-33f4-4753-a48d-9cbeba9f4fe3"},"vehicle_type_id":"4","last_reported":1758967725,"current_range_meters":14000,"station_id":"ce4bhjp2rcd13ifvqg90","pricing_plan_id":"cebpf4jnsgd1na2vs0mg"},{"bike_id":"a79771f7-9547-42c9-9edd-e8630ba14d95","system_id":"levelo_inurba_marseille","lat":43.23214,"lon":5.35557,"is_reserved":false,"is_disabled":false,"rental_uris":{"android":"levelo://app?vid=a79771f7-9547-42c9-9edd-e8630ba14d95","ios":"levelo://app?vid=a79771f7-9547-42c9-9edd-e8630ba14d95"},"vehicle_type_id":"4","last_reported":1758967725,"current_range_meters":14000,"station_id":"ce4bhu92rcd13ifvqi70","pricing_plan_id":"cebpf4jnsgd1na2vs0mg"},{"bike_id":"1bbec73e-735a-40c9-b255-6556d4358716","system_id":"levelo_inurba_marseille","lat":43.29801,"lon":5.38108,"is_reserved":false,"is_disabled":false,"rental_uris":{"android":"levelo://app?vid=1bbec73e-735a-40c9-b255-6556d4358716","ios":"levelo://app?vid=1bbec73e-735a-40c9-b255-6556d4358716"},"vehicle_type_id":"4","last_reported":1758967725,"current_range_meters":13600,"station_id":"ce4bgip2rcd13ifvqbb0","pricing_plan_id":"cebpf4jnsgd1na2vs0mg"},{"bike_id":"dd9ae6dd-1fca-4727-93f3-8a065c3cbd0d","system_id":"levelo_inurba_marseille","lat":43.30138,"lon":5.39846,"is_reserved":false,"is_disabled":false,"rental_uris":{"android":"levelo://app?vid=dd9ae6dd-1fca-4727-93f3-8a065c3cbd0d","ios":"levelo://app?vid=dd9ae6dd-1fca-4727-93f3-8a065c3cbd0d"},"vehicle_type_id":"4","last_reported":1758967725,"current_range_meters":14400,"station_id":"ce4bh0h2rcd13ifvqd40","pricing_plan_id":"cebpf4jnsgd1na2vs0mg"},{"bike_id":"3717cca2-a001-4194-89af-444715bc65f0","system_id":"levelo_inurba_marseille","lat":43.29606,"lon":5.37727,"is_reserved":false,"is_disabled":false,"rental_uris":{"android":"levelo://app?vid=3717cca2-a001-4194-89af-444715bc65f0","ios":"levelo://app?vid=3717cca2-a001-4194-89af-444715bc65f0"},"vehicle_type_id":"4","last_reported":1758967725,"current_range_meters":14400,"station_id":"ce4bgi92rcd13ifvqb90","pricing_plan_id":"cebpf4jnsgd1na2vs0mg"},{"bike_id":"01e260f5-828c-4df2-9bc4-ca80e799f979","system_id":"levelo_inurba_marseille","lat":43.21747,"lon":5.34605,"is_reserved":false,"is_disabled":true,"rental_uris":{"android":"levelo://app?vid=01e260f5-828c-4df2-9bc4-ca80e799f979","ios":"levelo://app?vid=01e260f5-828c-4df2-9bc4-ca80e799f979"},"vehicle_type_id":"4","last_reported":1758967725,"current_range_meters":14400,"station_id":"st_cvj6r9ubvosntc0bgbag","pricing_plan_id":"cebpf4jnsgd1na2vs0mg"},{"bike_id":"665db91b-dd1b-4912-8590-8678ef4e8928","system_id":"levelo_inurba_marseille","lat":43.25121,"lon":5.40315,"is_reserved":false,"is_disabled":false,"rental_uris":{"android":"levelo://app?vid=665db91b-dd1b-4912-8590-8678ef4e8928","ios":"levelo://app?vid=665db91b-dd1b-4912-8590-8678ef4e8928"},"vehicle_type_id":"4","last_reported":1758967725,"current_range_meters":14800,"station_id":"ce4bhlh2rcd13ifvqgig","pricing_plan_id":"cebpf4jnsgd1na2vs0mg"},{"bike_id":"1c3e2cf7-7039-483f-bd2a-6943b321f854","system_id":"levelo_inurba_marseille","lat":43.26428,"lon":5.41104,"is_reserved":false,"is_disabled":false,"rental_uris":{"android":"levelo://app?vid=1c3e2cf7-7039-483f-bd2a-6943b321f854","ios":"levelo://app?vid=1c3e2cf7-7039-483f-bd2a-6943b321f854"},"vehicle_type_id":"4","last_reported":1758967725,"current_range_meters":14400,"station_id":"","pricing_plan_id":"cebpf4jnsgd1na2vs0mg"},{"bike_id":"e57bad28-f358-4f60-8fc1-1c0f072c7016","system_id":"levelo_inurba_marseille","lat":43.24424,"lon":5.37048,"is_reserved":false,"is_disabled":false,"rental_uris":{"android":"levelo://app?vid=e57bad28-f358-4f60-8fc1-1c0f072c7016","ios":"levelo://app?vid=e57bad28-f358-4f60-8fc1-1c0f072c7016"},"vehicle_type_id":"4","last_reported":1758967725,"current_range_meters":14400,"station_id":"ce4bhhh2rcd13ifvqfk0","pricing_plan_id":"cebpf4jnsgd1na2vs0mg"},{"bike_id":"46ac5fb6-ac2e-43e8-84c9-c4e46889ea29","system_id":"levelo_inurba_marseille","lat":43.21193,"lon":5.35072,"is_reserved":false,"is_disabled":false,"rental_uris":{"android":"levelo://app?vid=46ac5fb6-ac2e-43e8-84c9-c4e46889ea29","ios":"levelo://app?vid=46ac5fb6-ac2e-43e8-84c9-c4e46889ea29"},"vehicle_type_id":"4","last_reported":1758967725,"current_range_meters":14400,"station_id":"st_cvj6sg6p6f1abm77japg","pricing_plan_id":"cebpf4jnsgd1na2vs0mg"},{"bike_id":"367cc5de-fbd0-47d1-8fa2-cb83d9fcf585","system_id":"levelo_inurba_marseille","lat":43.25847,"lon":5.39425,"is_reserved":false,"is_disabled":false,"rental_uris":{"android":"levelo://app?vid=367cc5de-fbd0-47d1-8fa2-cb83d9fcf585","ios":"levelo://app?vid=367cc5de-fbd0-47d1-8fa2-cb83d9fcf585"},"vehicle_type_id":"4","last_reported":1758967725,"current_range_meters":14400,"station_id":"ce4bhip2rcd13ifvqft0","pricing_plan_id":"cebpf4jnsgd1na2vs0mg"},{"bike_id":"03350417-1098-4d6c-b8fe-9e64358744bf","system_id":"levelo_inurba_marseille","lat":43.31069,"lon":5.37594,"is_reserved":false,"is_disabled":false,"rental_uris":{"android":"levelo://app?vid=03350417-1098-4d6c-b8fe-9e64358744bf","ios":"levelo://app?vid=03350417-1098-4d6c-b8fe-9e64358744bf"},"vehicle_type_id":"4","last_reported":1758967725,"current_range_meters":14400,"station_id":"","pricing_plan_id":"cebpf4jnsgd1na2vs0mg"},{"bike_id":"71649b2c-48f8-4b8a-b9c0-477bd83fa14b","system_id":"levelo_inurba_marseille","lat":43.28432,"lon":5.34984,"is_reserved":false,"is_disabled":false,"rental_uris":{"android":"levelo://app?vid=71649b2c-48f8-4b8a-b9c0-477bd83fa14b","ios":"levelo://app?vid=71649b2c-48f8-4b8a-b9c0-477bd83fa14b"},"vehicle_type_id":"4","last_reported":1758967725,"current_range_meters":14800,"station_id":"ce4bhbh2rcd13ifvqepg","pricing_plan_id":"cebpf4jnsgd1na2vs0mg"},{"bike_id":"a73de0de-3f37-4157-90a0-3b873c167b76","system_id":"levelo_inurba_marseille","lat":43.2922,"lon":5.36053,"is_reserved":false,"is_disabled":false,"rental_uris":{"android":"levelo://app?vid=a73de0de-3f37-4157-90a0-3b873c167b76","ios":"levelo://app?vid=a73de0de-3f37-4157-90a0-3b873c167b76"},"vehicle_type_id":"4","last_reported":1758967725,"current_range_meters":14800,"station_id":"ce4bhbh2rcd13ifvqeqg","pricing_plan_id":"cebpf4jnsgd1na2vs0mg"},{"bike_id":"9feae468-b8bd-422a-8fcb-2d68fc5ee82c","system_id":"levelo_inurba_marseille","lat":43.33383,"lon":5.42032,"is_reserved":false,"is_disabled":false,"rental_uris":{"android":"levelo://app?vid=9feae468-b8bd-422a-8fcb-2d68fc5ee82c","ios":"levelo://app?vid=9feae468-b8bd-422a-8fcb-2d68fc5ee82c"},"vehicle_type_id":"4","last_reported":1758967725,"current_range_meters":14800,"station_id":"","pricing_plan_id":"cebpf4jnsgd1na2vs0mg"},{"bike_id":"327c041e-5c9e-4b0d-a97c-a2dbaab036ae","system_id":"levelo_inurba_marseille","lat":43.32813,"lon":5.4113,"is_reserved":false,"is_disabled":false,"rental_uris":{"android":"levelo://app?vid=327c041e-5c9e-4b0d-a97c-a2dbaab036ae","ios":"levelo://app?vid=327c041e-5c9e-4b0d-a97c-a2dbaab036ae"},"vehicle_type_id":"4","last_reported":1758967725,"current_range_meters":14800,"station_id":"","pricing_plan_id":"cebpf4jnsgd1na2vs0mg"},{"bike_id":"cd119ae5-1417-41f1-a8e2-920696e70b86","system_id":"levelo_inurba_marseille","lat":43.22564,"lon":5.41623,"is_reserved":false,"is_disabled":false,"rental_uris":{"android":"levelo://app?vid=cd119ae5-1417-41f1-a8e2-920696e70b86","ios":"levelo://app?vid=cd119ae5-1417-41f1-a8e2-920696e70b86"},"vehicle_type_id":"4","last_reported":1758967725,"current_range_meters":14800,"station_id":"st_d2o4gvlbi1j2169b742g","pricing_plan_id":"cebpf4jnsgd1na2vs0mg"},{"bike_id":"10aaa4bd-7b69-46e5-9c91-cc8ea0d3aac7","system_id":"levelo_inurba_marseille","lat":43.21191,"lon":5.35072,"is_reserved":false,"is_disabled":false,"rental_uris":{"android":"levelo://app?vid=10aaa4bd-7b69-46e5-9c91-cc8ea0d3aac7","ios":"levelo://app?vid=10aaa4bd-7b69-46e5-9c91-cc8ea0d3aac7"},"vehicle_type_id":"4","last_reported":1758967725,"current_range_meters":14800,"station_id":"st_cvj6sg6p6f1abm77japg","pricing_plan_id":"cebpf4jnsgd1na2vs0mg"},{"bike_id":"2a7adc97-2b29-41e1-8a87-0ddee422e867","system_id":"levelo_inurba_marseille","lat":43.3236,"lon":5.36753,"is_reserved":false,"is_disabled":false,"rental_uris":{"android":"levelo://app?vid=2a7adc97-2b29-41e1-8a87-0ddee422e867","ios":"levelo://app?vid=2a7adc97-2b29-41e1-8a87-0ddee422e867"},"vehicle_type_id":"4","last_reported":1758967725,"current_range_meters":14800,"station_id":"ce4bhsh2rcd13ifvqi2g","pricing_plan_id":"cebpf4jnsgd1na2vs0mg"},{"bike_id":"64cc1307-c25f-4161-867b-045c95035a6a","system_id":"levelo_inurba_marseille","lat":43.27207,"lon":5.39176,"is_reserved":false,"is_disabled":false,"rental_uris":{"android":"levelo://app?vid=64cc1307-c25f-4161-867b-045c95035a6a","ios":"levelo://app?vid=64cc1307-c25f-4161-867b-045c95035a6a"},"vehicle_type_id":"4","last_reported":1758967725,"current_range_meters":14800,"station_id":"ce4bhhp2rcd13ifvqfm0","pricing_plan_id":"cebpf4jnsgd1na2vs0mg"},{"bike_id":"938ab958-a551-4fbc-91b1-af1bdb3dcf6b","system_id":"levelo_inurba_marseille","lat":43.26202,"lon":5.37928,"is_reserved":false,"is_disabled":false,"rental_uris":{"android":"levelo://app?vid=938ab958-a551-4fbc-91b1-af1bdb3dcf6b","ios":"levelo://app?vid=938ab958-a551-4fbc-91b1-af1bdb3dcf6b"},"vehicle_type_id":"4","last_reported":1758967725,"current_range_meters":14800,"station_id":"ce4bhjp2rcd13ifvqg90","pricing_plan_id":"cebpf4jnsgd1na2vs0mg"},{"bike_id":"58c5d8d8-e7b2-499f-9416-b45356fd9694","system_id":"levelo_inurba_marseille","lat":43.24409,"lon":5.37068,"is_reserved":false,"is_disabled":false,"rental_uris":{"android":"levelo://app?vid=58c5d8d8-e7b2-499f-9416-b45356fd9694","ios":"levelo://app?vid=58c5d8d8-e7b2-499f-9416-b45356fd9694"},"vehicle_type_id":"4","last_reported":1758967725,"current_range_meters":15200,"station_id":"ce4bhhh2rcd13ifvqfk0","pricing_plan_id":"cebpf4jnsgd1na2vs0mg"},{"bike_id":"d57c181a-9cda-46da-bcdf-3e6c8eb3968a","system_id":"levelo_inurba_marseille","lat":43.30153,"lon":5.38086,"is_reserved":false,"is_disabled":false,"rental_uris":{"android":"levelo://app?vid=d57c181a-9cda-46da-bcdf-3e6c8eb3968a","ios":"levelo://app?vid=d57c181a-9cda-46da-bcdf-3e6c8eb3968a"},"vehicle_type_id":"4","last_reported":1758967725,"current_range_meters":15200,"station_id":"ce4bgjp2rcd13ifvqbh0","pricing_plan_id":"cebpf4jnsgd1na2vs0mg"},{"bike_id":"a5ff59a1-1644-4b76-9136-59d47ea9f820","system_id":"levelo_inurba_marseille","lat":43.30927,"lon":5.37829,"is_reserved":false,"is_disabled":false,"rental_uris":{"android":"levelo://app?vid=a5ff59a1-1644-4b76-9136-59d47ea9f820","ios":"levelo://app?vid=a5ff59a1-1644-4b76-9136-59d47ea9f820"},"vehicle_type_id":"4","last_reported":1758967725,"current_range_meters":16000,"station_id":"","pricing_plan_id":"cebpf4jnsgd1na2vs0mg"},{"bike_id":"398ee6a3-1ca0-4a39-b8ef-9410f4339bd9","system_id":"levelo_inurba_marseille","lat":43.24159,"lon":5.36415,"is_reserved":false,"is_disabled":false,"rental_uris":{"android":"levelo://app?vid=398ee6a3-1ca0-4a39-b8ef-9410f4339bd9","ios":"levelo://app?vid=398ee6a3-1ca0-4a39-b8ef-9410f4339bd9"},"vehicle_type_id":"4","last_reported":1758967725,"current_range_meters":15200,"station_id":"cpo36qri1sfpv3e86is0","pricing_plan_id":"cebpf4jnsgd1na2vs0mg"},{"bike_id":"a88abc01-bd09-49d9-8ee8-c5e73bdbbfa5","system_id":"levelo_inurba_marseille","lat":43.26502,"lon":5.39539,"is_reserved":false,"is_disabled":false,"rental_uris":{"android":"levelo://app?vid=a88abc01-bd09-49d9-8ee8-c5e73bdbbfa5","ios":"levelo://app?vid=a88abc01-bd09-49d9-8ee8-c5e73bdbbfa5"},"vehicle_type_id":"4","last_reported":1758967725,"current_range_meters":15200,"station_id":"ce4bhi12rcd13ifvqfq0","pricing_plan_id":"cebpf4jnsgd1na2vs0mg"},{"bike_id":"071bc3a5-4a03-46da-a8d6-b7aa12cea887","system_id":"levelo_inurba_marseille","lat":43.2119,"lon":5.35065,"is_reserved":false,"is_disabled":false,"rental_uris":{"android":"levelo://app?vid=071bc3a5-4a03-46da-a8d6-b7aa12cea887","ios":"levelo://app?vid=071bc3a5-4a03-46da-a8d6-b7aa12cea887"},"vehicle_type_id":"4","last_reported":1758967725,"current_range_meters":16000,"station_id":"st_cvj6sg6p6f1abm77japg","pricing_plan_id":"cebpf4jnsgd1na2vs0mg"},{"bike_id":"a4ba26dc-2f32-48e5-bf18-4cc12ac5d755","system_id":"levelo_inurba_marseille","lat":43.27085,"lon":5.42286,"is_reserved":false,"is_disabled":false,"rental_uris":{"android":"levelo://app?vid=a4ba26dc-2f32-48e5-bf18-4cc12ac5d755","ios":"levelo://app?vid=a4ba26dc-2f32-48e5-bf18-4cc12ac5d755"},"vehicle_type_id":"4","last_reported":1758967725,"current_range_meters":16000,"station_id":"ce4bhk92rcd13ifvqgb0","pricing_plan_id":"cebpf4jnsgd1na2vs0mg"},{"bike_id":"fcb0dfdd-6489-42c2-ab3c-795071f603c3","system_id":"levelo_inurba_marseille","lat":43.28692,"lon":5.39988,"is_reserved":false,"is_disabled":false,"rental_uris":{"android":"levelo://app?vid=fcb0dfdd-6489-42c2-ab3c-795071f603c3","ios":"levelo://app?vid=fcb0dfdd-6489-42c2-ab3c-795071f603c3"},"vehicle_type_id":"4","last_reported":1758967725,"current_range_meters":15200,"station_id":"ce4bho92rcd13ifvqh3g","pricing_plan_id":"cebpf4jnsgd1na2vs0mg"},{"bike_id":"349977c5-2efd-48ed-8dd8-9cfd0d464679","system_id":"levelo_inurba_marseille","lat":43.21205,"lon":5.35067,"is_reserved":false,"is_disabled":false,"rental_uris":{"android":"levelo://app?vid=349977c5-2efd-48ed-8dd8-9cfd0d464679","ios":"levelo://app?vid=349977c5-2efd-48ed-8dd8-9cfd0d464679"},"vehicle_type_id":"4","last_reported":1758967725,"current_range_meters":16000,"station_id":"st_cvj6sg6p6f1abm77japg","pricing_plan_id":"cebpf4jnsgd1na2vs0mg"},{"bike_id":"60ef707f-22ce-4566-aae4-8970d2991590","system_id":"levelo_inurba_marseille","lat":43.304231,"lon":5.397434,"is_reserved":false,"is_disabled":false,"rental_uris":{"android":"levelo://app?vid=60ef707f-22ce-4566-aae4-8970d2991590","ios":"levelo://app?vid=60ef707f-22ce-4566-aae4-8970d2991590"},"vehicle_type_id":"4","last_reported":1758967725,"current_range_meters":16000,"station_id":"","pricing_plan_id":"cebpf4jnsgd1na2vs0mg"},{"bike_id":"6d4fa21f-0f41-49ae-93a6-059b63d3c466","system_id":"levelo_inurba_marseille","lat":43.23959,"lon":5.36656,"is_reserved":false,"is_disabled":false,"rental_uris":{"android":"levelo://app?vid=6d4fa21f-0f41-49ae-93a6-059b63d3c466","ios":"levelo://app?vid=6d4fa21f-0f41-49ae-93a6-059b63d3c466"},"vehicle_type_id":"4","last_reported":1758967725,"current_range_meters":16000,"station_id":"ce4bhi12rcd13ifvqfp0","pricing_plan_id":"cebpf4jnsgd1na2vs0mg"},{"bike_id":"1ede22e8-9278-4880-9ee2-98c681db0805","system_id":"levelo_inurba_marseille","lat":43.29275,"lon":5.3685,"is_reserved":false,"is_disabled":false,"rental_uris":{"android":"levelo://app?vid=1ede22e8-9278-4880-9ee2-98c681db0805","ios":"levelo://app?vid=1ede22e8-9278-4880-9ee2-98c681db0805"},"vehicle_type_id":"4","last_reported":1758967725,"current_range_meters":16000,"station_id":"ce4bhbp2rcd13ifvqesg","pricing_plan_id":"cebpf4jnsgd1na2vs0mg"},{"bike_id":"aa1ef45f-f323-4723-9180-ea0318bf8a28","system_id":"levelo_inurba_marseille","lat":43.32344,"lon":5.40622,"is_reserved":false,"is_disabled":false,"rental_uris":{"android":"levelo://app?vid=aa1ef45f-f323-4723-9180-ea0318bf8a28","ios":"levelo://app?vid=aa1ef45f-f323-4723-9180-ea0318bf8a28"},"vehicle_type_id":"4","last_reported":1758967725,"current_range_meters":16400,"station_id":"ce4bhq92rcd13ifvqhjg","pricing_plan_id":"cebpf4jnsgd1na2vs0mg"},{"bike_id":"85c7ac65-0172-4766-8977-f4ba34ed9c93","system_id":"levelo_inurba_marseille","lat":43.25334,"lon":5.42183,"is_reserved":false,"is_disabled":false,"rental_uris":{"android":"levelo://app?vid=85c7ac65-0172-4766-8977-f4ba34ed9c93","ios":"levelo://app?vid=85c7ac65-0172-4766-8977-f4ba34ed9c93"},"vehicle_type_id":"4","last_reported":1758967725,"current_range_meters":16400,"station_id":"st_d2m65c5bi1j21697t3ng","pricing_plan_id":"cebpf4jnsgd1na2vs0mg"},{"bike_id":"cb0a43cc-2f6b-482a-91bb-c383cccf5be4","system_id":"levelo_inurba_marseille","lat":43.31972,"lon":5.38021,"is_reserved":false,"is_disabled":false,"rental_uris":{"android":"levelo://app?vid=cb0a43cc-2f6b-482a-91bb-c383cccf5be4","ios":"levelo://app?vid=cb0a43cc-2f6b-482a-91bb-c383cccf5be4"},"vehicle_type_id":"4","last_reported":1758967725,"current_range_meters":16400,"station_id":"","pricing_plan_id":"cebpf4jnsgd1na2vs0mg"},{"bike_id":"4c02c545-ad59-45b1-9b9c-d3678a5922c7","system_id":"levelo_inurba_marseille","lat":43.337444,"lon":5.374475,"is_reserved":false,"is_disabled":false,"rental_uris":{"android":"levelo://app?vid=4c02c545-ad59-45b1-9b9c-d3678a5922c7","ios":"levelo://app?vid=4c02c545-ad59-45b1-9b9c-d3678a5922c7"},"vehicle_type_id":"4","last_reported":1758967725,"current_range_meters":16400,"station_id":"","pricing_plan_id":"cebpf4jnsgd1na2vs0mg"},{"bike_id":"3244558e-d808-4029-a90c-362f98e492ab","system_id":"levelo_inurba_marseille","lat":43.25575,"lon":5.38241,"is_reserved":false,"is_disabled":false,"rental_uris":{"android":"levelo://app?vid=3244558e-d808-4029-a90c-362f98e492ab","ios":"levelo://app?vid=3244558e-d808-4029-a90c-362f98e492ab"},"vehicle_type_id":"4","last_reported":1758967725,"current_range_meters":16400,"station_id":"ce4bhih2rcd13ifvqfs0","pricing_plan_id":"cebpf4jnsgd1na2vs0mg"},{"bike_id":"642dfdb7-95c7-4811-a6fe-5a04535eeb40","system_id":"levelo_inurba_marseille","lat":43.245516,"lon":5.395149,"is_reserved":false,"is_disabled":false,"rental_uris":{"android":"levelo://app?vid=642dfdb7-95c7-4811-a6fe-5a04535eeb40","ios":"levelo://app?vid=642dfdb7-95c7-4811-a6fe-5a04535eeb40"},"vehicle_type_id":"4","last_reported":1758967725,"current_range_meters":16400,"station_id":"ce4bhlp2rcd13ifvqgjg","pricing_plan_id":"cebpf4jnsgd1na2vs0mg"},{"bike_id":"28ee8c09-1dd8-4072-8a3e-fbfd6fb6b45b","system_id":"levelo_inurba_marseille","lat":43.31888,"lon":5.40729,"is_reserved":false,"is_disabled":false,"rental_uris":{"android":"levelo://app?vid=28ee8c09-1dd8-4072-8a3e-fbfd6fb6b45b","ios":"levelo://app?vid=28ee8c09-1dd8-4072-8a3e-fbfd6fb6b45b"},"vehicle_type_id":"4","last_reported":1758967725,"current_range_meters":16800,"station_id":"ce4bhq12rcd13ifvqhig","pricing_plan_id":"cebpf4jnsgd1na2vs0mg"},{"bike_id":"69e09fd5-25fc-442f-a32f-95c7c593089c","system_id":"levelo_inurba_marseille","lat":43.24984,"lon":5.38939,"is_reserved":false,"is_disabled":false,"rental_uris":{"android":"levelo://app?vid=69e09fd5-25fc-442f-a32f-95c7c593089c","ios":"levelo://app?vid=69e09fd5-25fc-442f-a32f-95c7c593089c"},"vehicle_type_id":"4","last_reported":1758967725,"current_range_meters":16800,"station_id":"ce4bhgp2rcd13ifvqfd0","pricing_plan_id":"cebpf4jnsgd1na2vs0mg"},{"bike_id":"af4790ed-cf58-49e2-a321-671f5da0b340","system_id":"levelo_inurba_marseille","lat":43.29596,"lon":5.37713,"is_reserved":false,"is_disabled":false,"rental_uris":{"android":"levelo://app?vid=af4790ed-cf58-49e2-a321-671f5da0b340","ios":"levelo://app?vid=af4790ed-cf58-49e2-a321-671f5da0b340"},"vehicle_type_id":"4","last_reported":1758967725,"current_range_meters":16800,"station_id":"","pricing_plan_id":"cebpf4jnsgd1na2vs0mg"},{"bike_id":"2d967268-bf6e-4120-9c7c-f7aae6350590","system_id":"levelo_inurba_marseille","lat":43.31712,"lon":5.40452,"is_reserved":false,"is_disabled":false,"rental_uris":{"android":"levelo://app?vid=2d967268-bf6e-4120-9c7c-f7aae6350590","ios":"levelo://app?vid=2d967268-bf6e-4120-9c7c-f7aae6350590"},"vehicle_type_id":"4","last_reported":1758967725,"current_range_meters":16800,"station_id":"ce4bh012rcd13ifvqd00","pricing_plan_id":"cebpf4jnsgd1na2vs0mg"},{"bike_id":"730927d7-ba62-43cb-9b05-a4197664bc74","system_id":"levelo_inurba_marseille","lat":43.21191,"lon":5.35069,"is_reserved":false,"is_disabled":false,"rental_uris":{"android":"levelo://app?vid=730927d7-ba62-43cb-9b05-a4197664bc74","ios":"levelo://app?vid=730927d7-ba62-43cb-9b05-a4197664bc74"},"vehicle_type_id":"4","last_reported":1758967725,"current_range_meters":16800,"station_id":"st_cvj6sg6p6f1abm77japg","pricing_plan_id":"cebpf4jnsgd1na2vs0mg"},{"bike_id":"6fbef51e-815f-44f1-844b-e8c9d10753b8","system_id":"levelo_inurba_marseille","lat":43.27178,"lon":5.40989,"is_reserved":false,"is_disabled":false,"rental_uris":{"android":"levelo://app?vid=6fbef51e-815f-44f1-844b-e8c9d10753b8","ios":"levelo://app?vid=6fbef51e-815f-44f1-844b-e8c9d10753b8"},"vehicle_type_id":"4","last_reported":1758967725,"current_range_meters":16800,"station_id":"ce4bhl12rcd13ifvqgf0","pricing_plan_id":"cebpf4jnsgd1na2vs0mg"},{"bike_id":"75db234a-3ace-4564-bd37-cc190112aa7b","system_id":"levelo_inurba_marseille","lat":43.29634,"lon":5.40598,"is_reserved":false,"is_disabled":false,"rental_uris":{"android":"levelo://app?vid=75db234a-3ace-4564-bd37-cc190112aa7b","ios":"levelo://app?vid=75db234a-3ace-4564-bd37-cc190112aa7b"},"vehicle_type_id":"4","last_reported":1758967725,"current_range_meters":16800,"station_id":"ce4bh0h2rcd13ifvqd60","pricing_plan_id":"cebpf4jnsgd1na2vs0mg"},{"bike_id":"352a4a66-ccc9-4878-8bb1-4c59bc6fbdd1","system_id":"levelo_inurba_marseille","lat":43.231506,"lon":5.437166,"is_reserved":false,"is_disabled":false,"rental_uris":{"android":"levelo://app?vid=352a4a66-ccc9-4878-8bb1-4c59bc6fbdd1","ios":"levelo://app?vid=352a4a66-ccc9-4878-8bb1-4c59bc6fbdd1"},"vehicle_type_id":"4","last_reported":1758967725,"current_range_meters":16800,"station_id":"ce4bhmp2rcd13ifvqgog","pricing_plan_id":"cebpf4jnsgd1na2vs0mg"},{"bike_id":"d66cd03b-dbeb-4aa4-961e-bd97aeefe4a4","system_id":"levelo_inurba_marseille","lat":43.2595,"lon":5.41375,"is_reserved":false,"is_disabled":false,"rental_uris":{"android":"levelo://app?vid=d66cd03b-dbeb-4aa4-961e-bd97aeefe4a4","ios":"levelo://app?vid=d66cd03b-dbeb-4aa4-961e-bd97aeefe4a4"},"vehicle_type_id":"4","last_reported":1758967725,"current_range_meters":16800,"station_id":"","pricing_plan_id":"cebpf4jnsgd1na2vs0mg"},{"bike_id":"7aac2627-6b70-4df7-ad8a-6082bb89c0b7","system_id":"levelo_inurba_marseille","lat":43.2509,"lon":5.40304,"is_reserved":false,"is_disabled":false,"rental_uris":{"android":"levelo://app?vid=7aac2627-6b70-4df7-ad8a-6082bb89c0b7","ios":"levelo://app?vid=7aac2627-6b70-4df7-ad8a-6082bb89c0b7"},"vehicle_type_id":"4","last_reported":1758967725,"current_range_meters":16800,"station_id":"ce4bhlh2rcd13ifvqgig","pricing_plan_id":"cebpf4jnsgd1na2vs0mg"},{"bike_id":"976fd36e-2f5c-424c-baa8-068b37f1eb42","system_id":"levelo_inurba_marseille","lat":43.27558,"lon":5.38445,"is_reserved":false,"is_disabled":false,"rental_uris":{"android":"levelo://app?vid=976fd36e-2f5c-424c-baa8-068b37f1eb42","ios":"levelo://app?vid=976fd36e-2f5c-424c-baa8-068b37f1eb42"},"vehicle_type_id":"4","last_reported":1758967725,"current_range_meters":17200,"station_id":"ce4bhh92rcd13ifvqfi0","pricing_plan_id":"cebpf4jnsgd1na2vs0mg"},{"bike_id":"75a1808b-f036-45a0-9b9e-d8442cdf8f90","system_id":"levelo_inurba_marseille","lat":43.25004,"lon":5.3891,"is_reserved":false,"is_disabled":false,"rental_uris":{"android":"levelo://app?vid=75a1808b-f036-45a0-9b9e-d8442cdf8f90","ios":"levelo://app?vid=75a1808b-f036-45a0-9b9e-d8442cdf8f90"},"vehicle_type_id":"4","last_reported":1758967725,"current_range_meters":17200,"station_id":"ce4bhgp2rcd13ifvqfd0","pricing_plan_id":"cebpf4jnsgd1na2vs0mg"},{"bike_id":"19a02f4a-9e57-4325-97c8-e1800ddd69c2","system_id":"levelo_inurba_marseille","lat":43.241757,"lon":5.397241,"is_reserved":false,"is_disabled":false,"rental_uris":{"android":"levelo://app?vid=19a02f4a-9e57-4325-97c8-e1800ddd69c2","ios":"levelo://app?vid=19a02f4a-9e57-4325-97c8-e1800ddd69c2"},"vehicle_type_id":"4","last_reported":1758967725,"current_range_meters":17200,"station_id":"ce4bhn12rcd13ifvqgpg","pricing_plan_id":"cebpf4jnsgd1na2vs0mg"},{"bike_id":"c19a096d-6bfd-4347-9445-ece358d57b77","system_id":"levelo_inurba_marseille","lat":43.30704,"lon":5.40234,"is_reserved":false,"is_disabled":false,"rental_uris":{"android":"levelo://app?vid=c19a096d-6bfd-4347-9445-ece358d57b77","ios":"levelo://app?vid=c19a096d-6bfd-4347-9445-ece358d57b77"},"vehicle_type_id":"4","last_reported":1758967725,"current_range_meters":17200,"station_id":"","pricing_plan_id":"cebpf4jnsgd1na2vs0mg"},{"bike_id":"dc4883ea-8f06-44d1-8b3d-6660e39a87ec","system_id":"levelo_inurba_marseille","lat":43.2177,"lon":5.34599,"is_reserved":false,"is_disabled":true,"rental_uris":{"android":"levelo://app?vid=dc4883ea-8f06-44d1-8b3d-6660e39a87ec","ios":"levelo://app?vid=dc4883ea-8f06-44d1-8b3d-6660e39a87ec"},"vehicle_type_id":"4","last_reported":1758967725,"current_range_meters":17200,"station_id":"st_cvj6r9ubvosntc0bgbag","pricing_plan_id":"cebpf4jnsgd1na2vs0mg"},{"bike_id":"a2185f37-5e50-467c-b5bc-77836aff0d11","system_id":"levelo_inurba_marseille","lat":43.2827,"lon":5.35057,"is_reserved":false,"is_disabled":false,"rental_uris":{"android":"levelo://app?vid=a2185f37-5e50-467c-b5bc-77836aff0d11","ios":"levelo://app?vid=a2185f37-5e50-467c-b5bc-77836aff0d11"},"vehicle_type_id":"4","last_reported":1758967725,"current_range_meters":17200,"station_id":"","pricing_plan_id":"cebpf4jnsgd1na2vs0mg"},{"bike_id":"9a3e4136-7b62-494d-a9a0-7aed380c7e85","system_id":"levelo_inurba_marseille","lat":43.289357,"lon":5.396288,"is_reserved":false,"is_disabled":false,"rental_uris":{"android":"levelo://app?vid=9a3e4136-7b62-494d-a9a0-7aed380c7e85","ios":"levelo://app?vid=9a3e4136-7b62-494d-a9a0-7aed380c7e85"},"vehicle_type_id":"4","last_reported":1758967725,"current_range_meters":19600,"station_id":"ce4bh3h2rcd13ifvqdn0","pricing_plan_id":"cebpf4jnsgd1na2vs0mg"},{"bike_id":"809498ec-17c7-4be3-af91-40663913f97a","system_id":"levelo_inurba_marseille","lat":43.2514,"lon":5.4029,"is_reserved":false,"is_disabled":false,"rental_uris":{"android":"levelo://app?vid=809498ec-17c7-4be3-af91-40663913f97a","ios":"levelo://app?vid=809498ec-17c7-4be3-af91-40663913f97a"},"vehicle_type_id":"4","last_reported":1758967725,"current_range_meters":17200,"station_id":"ce4bhlh2rcd13ifvqgig","pricing_plan_id":"cebpf4jnsgd1na2vs0mg"},{"bike_id":"c081d6ac-5788-49e0-94f1-f96219519e58","system_id":"levelo_inurba_marseille","lat":43.24639,"lon":5.38906,"is_reserved":false,"is_disabled":false,"rental_uris":{"android":"levelo://app?vid=c081d6ac-5788-49e0-94f1-f96219519e58","ios":"levelo://app?vid=c081d6ac-5788-49e0-94f1-f96219519e58"},"vehicle_type_id":"4","last_reported":1758967725,"current_range_meters":17200,"station_id":"ce4bhg12rcd13ifvqf60","pricing_plan_id":"cebpf4jnsgd1na2vs0mg"},{"bike_id":"61f72c81-84af-4d24-903d-9a7cb27e68a1","system_id":"levelo_inurba_marseille","lat":43.24634,"lon":5.43147,"is_reserved":false,"is_disabled":false,"rental_uris":{"android":"levelo://app?vid=61f72c81-84af-4d24-903d-9a7cb27e68a1","ios":"levelo://app?vid=61f72c81-84af-4d24-903d-9a7cb27e68a1"},"vehicle_type_id":"4","last_reported":1758967725,"current_range_meters":17200,"station_id":"st_d2m6c4gdas8pm72e190g","pricing_plan_id":"cebpf4jnsgd1na2vs0mg"},{"bike_id":"9dd3af0b-b842-464a-afc1-1f8491351a21","system_id":"levelo_inurba_marseille","lat":43.29534,"lon":5.37498,"is_reserved":false,"is_disabled":false,"rental_uris":{"android":"levelo://app?vid=9dd3af0b-b842-464a-afc1-1f8491351a21","ios":"levelo://app?vid=9dd3af0b-b842-464a-afc1-1f8491351a21"},"vehicle_type_id":"4","last_reported":1758967725,"current_range_meters":17600,"station_id":"ce4bgkp2rcd13ifvqbmg","pricing_plan_id":"cebpf4jnsgd1na2vs0mg"},{"bike_id":"80a1468f-cd11-4e7d-a7a1-61a690ce0617","system_id":"levelo_inurba_marseille","lat":43.27074,"lon":5.42265,"is_reserved":false,"is_disabled":false,"rental_uris":{"android":"levelo://app?vid=80a1468f-cd11-4e7d-a7a1-61a690ce0617","ios":"levelo://app?vid=80a1468f-cd11-4e7d-a7a1-61a690ce0617"},"vehicle_type_id":"4","last_reported":1758967725,"current_range_meters":17600,"station_id":"ce4bhk92rcd13ifvqgb0","pricing_plan_id":"cebpf4jnsgd1na2vs0mg"},{"bike_id":"2243febf-ebaf-474b-8e3e-799410e4c867","system_id":"levelo_inurba_marseille","lat":43.32573,"lon":5.36348,"is_reserved":false,"is_disabled":false,"rental_uris":{"android":"levelo://app?vid=2243febf-ebaf-474b-8e3e-799410e4c867","ios":"levelo://app?vid=2243febf-ebaf-474b-8e3e-799410e4c867"},"vehicle_type_id":"4","last_reported":1758967725,"current_range_meters":17600,"station_id":"","pricing_plan_id":"cebpf4jnsgd1na2vs0mg"},{"bike_id":"7f4cc649-7ef3-4145-9afd-aaece63c0fab","system_id":"levelo_inurba_marseille","lat":43.25123,"lon":5.40322,"is_reserved":false,"is_disabled":false,"rental_uris":{"android":"levelo://app?vid=7f4cc649-7ef3-4145-9afd-aaece63c0fab","ios":"levelo://app?vid=7f4cc649-7ef3-4145-9afd-aaece63c0fab"},"vehicle_type_id":"4","last_reported":1758967725,"current_range_meters":17600,"station_id":"ce4bhlh2rcd13ifvqgig","pricing_plan_id":"cebpf4jnsgd1na2vs0mg"},{"bike_id":"d753618e-83c9-4154-a6f0-8f9d7aab3bc8","system_id":"levelo_inurba_marseille","lat":43.26031,"lon":5.37547,"is_reserved":false,"is_disabled":false,"rental_uris":{"android":"levelo://app?vid=d753618e-83c9-4154-a6f0-8f9d7aab3bc8","ios":"levelo://app?vid=d753618e-83c9-4154-a6f0-8f9d7aab3bc8"},"vehicle_type_id":"4","last_reported":1758967725,"current_range_meters":17600,"station_id":"ce4bhgh2rcd13ifvqfa0","pricing_plan_id":"cebpf4jnsgd1na2vs0mg"},{"bike_id":"54fff988-c74f-45fc-a0eb-29489bfa1777","system_id":"levelo_inurba_marseille","lat":43.24642,"lon":5.38899,"is_reserved":false,"is_disabled":false,"rental_uris":{"android":"levelo://app?vid=54fff988-c74f-45fc-a0eb-29489bfa1777","ios":"levelo://app?vid=54fff988-c74f-45fc-a0eb-29489bfa1777"},"vehicle_type_id":"4","last_reported":1758967725,"current_range_meters":17600,"station_id":"ce4bhg12rcd13ifvqf60","pricing_plan_id":"cebpf4jnsgd1na2vs0mg"},{"bike_id":"f32e51b1-e26c-49c6-bcf7-c0b348416661","system_id":"levelo_inurba_marseille","lat":43.264949,"lon":5.39539,"is_reserved":false,"is_disabled":false,"rental_uris":{"android":"levelo://app?vid=f32e51b1-e26c-49c6-bcf7-c0b348416661","ios":"levelo://app?vid=f32e51b1-e26c-49c6-bcf7-c0b348416661"},"vehicle_type_id":"4","last_reported":1758967725,"current_range_meters":17600,"station_id":"ce4bhi12rcd13ifvqfq0","pricing_plan_id":"cebpf4jnsgd1na2vs0mg"},{"bike_id":"88417ecf-3b45-4a85-b3ba-a098b1b6b1ed","system_id":"levelo_inurba_marseille","lat":43.27332,"lon":5.38554,"is_reserved":false,"is_disabled":false,"rental_uris":{"android":"levelo://app?vid=88417ecf-3b45-4a85-b3ba-a098b1b6b1ed","ios":"levelo://app?vid=88417ecf-3b45-4a85-b3ba-a098b1b6b1ed"},"vehicle_type_id":"4","last_reported":1758967725,"current_range_meters":17600,"station_id":"","pricing_plan_id":"cebpf4jnsgd1na2vs0mg"},{"bike_id":"91f03681-11bd-4a24-811a-6c09a89c8efe","system_id":"levelo_inurba_marseille","lat":43.25011,"lon":5.38923,"is_reserved":false,"is_disabled":false,"rental_uris":{"android":"levelo://app?vid=91f03681-11bd-4a24-811a-6c09a89c8efe","ios":"levelo://app?vid=91f03681-11bd-4a24-811a-6c09a89c8efe"},"vehicle_type_id":"4","last_reported":1758967725,"current_range_meters":17600,"station_id":"ce4bhgp2rcd13ifvqfd0","pricing_plan_id":"cebpf4jnsgd1na2vs0mg"},{"bike_id":"8ba5e33b-48f1-42b5-a531-76085f7229c8","system_id":"levelo_inurba_marseille","lat":43.24649,"lon":5.43153,"is_reserved":false,"is_disabled":false,"rental_uris":{"android":"levelo://app?vid=8ba5e33b-48f1-42b5-a531-76085f7229c8","ios":"levelo://app?vid=8ba5e33b-48f1-42b5-a531-76085f7229c8"},"vehicle_type_id":"4","last_reported":1758967725,"current_range_meters":17600,"station_id":"st_d2m6c4gdas8pm72e190g","pricing_plan_id":"cebpf4jnsgd1na2vs0mg"},{"bike_id":"fe0a203d-0305-4779-8d8c-89d42f186356","system_id":"levelo_inurba_marseille","lat":43.29573,"lon":5.37519,"is_reserved":false,"is_disabled":false,"rental_uris":{"android":"levelo://app?vid=fe0a203d-0305-4779-8d8c-89d42f186356","ios":"levelo://app?vid=fe0a203d-0305-4779-8d8c-89d42f186356"},"vehicle_type_id":"4","last_reported":1758967725,"current_range_meters":17600,"station_id":"ce4bgh92rcd13ifvqb50","pricing_plan_id":"cebpf4jnsgd1na2vs0mg"},{"bike_id":"258ab053-1083-4ca9-a32a-1e85f085fc22","system_id":"levelo_inurba_marseille","lat":43.337444,"lon":5.374475,"is_reserved":false,"is_disabled":false,"rental_uris":{"android":"levelo://app?vid=258ab053-1083-4ca9-a32a-1e85f085fc22","ios":"levelo://app?vid=258ab053-1083-4ca9-a32a-1e85f085fc22"},"vehicle_type_id":"4","last_reported":1758967725,"current_range_meters":17600,"station_id":"","pricing_plan_id":"cebpf4jnsgd1na2vs0mg"},{"bike_id":"d911952c-1da0-41c9-8981-895f0ace27de","system_id":"levelo_inurba_marseille","lat":43.29318,"lon":5.37176,"is_reserved":false,"is_disabled":false,"rental_uris":{"android":"levelo://app?vid=d911952c-1da0-41c9-8981-895f0ace27de","ios":"levelo://app?vid=d911952c-1da0-41c9-8981-895f0ace27de"},"vehicle_type_id":"4","last_reported":1758967725,"current_range_meters":18000,"station_id":"ce4bgh92rcd13ifvqb40","pricing_plan_id":"cebpf4jnsgd1na2vs0mg"},{"bike_id":"9750d591-ffd1-4c98-b4ed-273c6227d829","system_id":"levelo_inurba_marseille","lat":43.29007,"lon":5.3561,"is_reserved":false,"is_disabled":false,"rental_uris":{"android":"levelo://app?vid=9750d591-ffd1-4c98-b4ed-273c6227d829","ios":"levelo://app?vid=9750d591-ffd1-4c98-b4ed-273c6227d829"},"vehicle_type_id":"4","last_reported":1758967725,"current_range_meters":18000,"station_id":"ce4bhb92rcd13ifvqen0","pricing_plan_id":"cebpf4jnsgd1na2vs0mg"},{"bike_id":"aa6dcf2c-8d76-4320-84e6-a8f9e1b80811","system_id":"levelo_inurba_marseille","lat":43.23959,"lon":5.36632,"is_reserved":false,"is_disabled":false,"rental_uris":{"android":"levelo://app?vid=aa6dcf2c-8d76-4320-84e6-a8f9e1b80811","ios":"levelo://app?vid=aa6dcf2c-8d76-4320-84e6-a8f9e1b80811"},"vehicle_type_id":"4","last_reported":1758967725,"current_range_meters":18000,"station_id":"ce4bhi12rcd13ifvqfp0","pricing_plan_id":"cebpf4jnsgd1na2vs0mg"},{"bike_id":"85281e4f-a640-4e95-9ed3-f61c9f551e60","system_id":"levelo_inurba_marseille","lat":43.2256,"lon":5.4163,"is_reserved":false,"is_disabled":false,"rental_uris":{"android":"levelo://app?vid=85281e4f-a640-4e95-9ed3-f61c9f551e60","ios":"levelo://app?vid=85281e4f-a640-4e95-9ed3-f61c9f551e60"},"vehicle_type_id":"4","last_reported":1758967725,"current_range_meters":18000,"station_id":"st_d2o4gvlbi1j2169b742g","pricing_plan_id":"cebpf4jnsgd1na2vs0mg"},{"bike_id":"47d30fe3-9901-48e6-b2c2-67fe4423c65d","system_id":"levelo_inurba_marseille","lat":43.2975,"lon":5.37664,"is_reserved":false,"is_disabled":false,"rental_uris":{"android":"levelo://app?vid=47d30fe3-9901-48e6-b2c2-67fe4423c65d","ios":"levelo://app?vid=47d30fe3-9901-48e6-b2c2-67fe4423c65d"},"vehicle_type_id":"4","last_reported":1758967725,"current_range_meters":18000,"station_id":"ce4bgkh2rcd13ifvqbl0","pricing_plan_id":"cebpf4jnsgd1na2vs0mg"},{"bike_id":"970fc09e-887f-4add-9204-dd7f240a0fb1","system_id":"levelo_inurba_marseille","lat":43.258623,"lon":5.399008,"is_reserved":false,"is_disabled":false,"rental_uris":{"android":"levelo://app?vid=970fc09e-887f-4add-9204-dd7f240a0fb1","ios":"levelo://app?vid=970fc09e-887f-4add-9204-dd7f240a0fb1"},"vehicle_type_id":"4","last_reported":1758967725,"current_range_meters":18000,"station_id":"ce4bhl92rcd13ifvqghg","pricing_plan_id":"cebpf4jnsgd1na2vs0mg"},{"bike_id":"ce90b0c1-6c36-4837-a050-6c45b26dd091","system_id":"levelo_inurba_marseille","lat":43.23204,"lon":5.35575,"is_reserved":false,"is_disabled":false,"rental_uris":{"android":"levelo://app?vid=ce90b0c1-6c36-4837-a050-6c45b26dd091","ios":"levelo://app?vid=ce90b0c1-6c36-4837-a050-6c45b26dd091"},"vehicle_type_id":"4","last_reported":1758967725,"current_range_meters":18000,"station_id":"ce4bhu92rcd13ifvqi70","pricing_plan_id":"cebpf4jnsgd1na2vs0mg"},{"bike_id":"16e25168-8e51-478d-81ec-8ab80be0c075","system_id":"levelo_inurba_marseille","lat":43.29735,"lon":5.377,"is_reserved":false,"is_disabled":false,"rental_uris":{"android":"levelo://app?vid=16e25168-8e51-478d-81ec-8ab80be0c075","ios":"levelo://app?vid=16e25168-8e51-478d-81ec-8ab80be0c075"},"vehicle_type_id":"4","last_reported":1758967725,"current_range_meters":18000,"station_id":"ce4bgkh2rcd13ifvqbl0","pricing_plan_id":"cebpf4jnsgd1na2vs0mg"},{"bike_id":"0d0352bf-f394-45c0-baef-aa15dd4a4c38","system_id":"levelo_inurba_marseille","lat":43.24642,"lon":5.43145,"is_reserved":false,"is_disabled":false,"rental_uris":{"android":"levelo://app?vid=0d0352bf-f394-45c0-baef-aa15dd4a4c38","ios":"levelo://app?vid=0d0352bf-f394-45c0-baef-aa15dd4a4c38"},"vehicle_type_id":"4","last_reported":1758967725,"current_range_meters":18000,"station_id":"st_d2m6c4gdas8pm72e190g","pricing_plan_id":"cebpf4jnsgd1na2vs0mg"},{"bike_id":"a709973b-47e3-4942-88bd-f9706d2222eb","system_id":"levelo_inurba_marseille","lat":43.21218,"lon":5.35087,"is_reserved":false,"is_disabled":false,"rental_uris":{"android":"levelo://app?vid=a709973b-47e3-4942-88bd-f9706d2222eb","ios":"levelo://app?vid=a709973b-47e3-4942-88bd-f9706d2222eb"},"vehicle_type_id":"4","last_reported":1758967725,"current_range_meters":18000,"station_id":"st_cvj6sg6p6f1abm77japg","pricing_plan_id":"cebpf4jnsgd1na2vs0mg"},{"bike_id":"d02b558e-758e-4a0b-b868-d8421befd034","system_id":"levelo_inurba_marseille","lat":43.324768,"lon":5.365595,"is_reserved":false,"is_disabled":false,"rental_uris":{"android":"levelo://app?vid=d02b558e-758e-4a0b-b868-d8421befd034","ios":"levelo://app?vid=d02b558e-758e-4a0b-b868-d8421befd034"},"vehicle_type_id":"4","last_reported":1758967725,"current_range_meters":18000,"station_id":"ce4bhs12rcd13ifvqhvg","pricing_plan_id":"cebpf4jnsgd1na2vs0mg"},{"bike_id":"95bafeb0-6c7b-407a-a73b-a6569ff5cb66","system_id":"levelo_inurba_marseille","lat":43.29702,"lon":5.36277,"is_reserved":false,"is_disabled":false,"rental_uris":{"android":"levelo://app?vid=95bafeb0-6c7b-407a-a73b-a6569ff5cb66","ios":"levelo://app?vid=95bafeb0-6c7b-407a-a73b-a6569ff5cb66"},"vehicle_type_id":"4","last_reported":1758967725,"current_range_meters":18800,"station_id":"","pricing_plan_id":"cebpf4jnsgd1na2vs0mg"},{"bike_id":"2c6518be-b3f0-42d2-93c9-c1de9e54885f","system_id":"levelo_inurba_marseille","lat":43.29227,"lon":5.38219,"is_reserved":false,"is_disabled":false,"rental_uris":{"android":"levelo://app?vid=2c6518be-b3f0-42d2-93c9-c1de9e54885f","ios":"levelo://app?vid=2c6518be-b3f0-42d2-93c9-c1de9e54885f"},"vehicle_type_id":"4","last_reported":1758967725,"current_range_meters":18800,"station_id":"","pricing_plan_id":"cebpf4jnsgd1na2vs0mg"},{"bike_id":"0edfd017-f425-46b5-a8b2-9e31129a2ef6","system_id":"levelo_inurba_marseille","lat":43.2962,"lon":5.37727,"is_reserved":false,"is_disabled":false,"rental_uris":{"android":"levelo://app?vid=0edfd017-f425-46b5-a8b2-9e31129a2ef6","ios":"levelo://app?vid=0edfd017-f425-46b5-a8b2-9e31129a2ef6"},"vehicle_type_id":"4","last_reported":1758967725,"current_range_meters":19200,"station_id":"ce4bgi92rcd13ifvqb90","pricing_plan_id":"cebpf4jnsgd1na2vs0mg"},{"bike_id":"d1737a43-e20d-4048-9685-1cdf7cb86fbe","system_id":"levelo_inurba_marseille","lat":43.21748,"lon":5.34602,"is_reserved":false,"is_disabled":false,"rental_uris":{"android":"levelo://app?vid=d1737a43-e20d-4048-9685-1cdf7cb86fbe","ios":"levelo://app?vid=d1737a43-e20d-4048-9685-1cdf7cb86fbe"},"vehicle_type_id":"4","last_reported":1758967725,"current_range_meters":18800,"station_id":"","pricing_plan_id":"cebpf4jnsgd1na2vs0mg"},{"bike_id":"d15ab4b0-88ac-4a2f-96b6-8adca8dc45ed","system_id":"levelo_inurba_marseille","lat":43.23178,"lon":5.40009,"is_reserved":false,"is_disabled":false,"rental_uris":{"android":"levelo://app?vid=d15ab4b0-88ac-4a2f-96b6-8adca8dc45ed","ios":"levelo://app?vid=d15ab4b0-88ac-4a2f-96b6-8adca8dc45ed"},"vehicle_type_id":"4","last_reported":1758967725,"current_range_meters":18800,"station_id":"ce4bhn12rcd13ifvqgqg","pricing_plan_id":"cebpf4jnsgd1na2vs0mg"},{"bike_id":"5fe7f407-3191-4d84-bcf8-5bce6d58e56d","system_id":"levelo_inurba_marseille","lat":43.22983,"lon":5.35452,"is_reserved":false,"is_disabled":false,"rental_uris":{"android":"levelo://app?vid=5fe7f407-3191-4d84-bcf8-5bce6d58e56d","ios":"levelo://app?vid=5fe7f407-3191-4d84-bcf8-5bce6d58e56d"},"vehicle_type_id":"4","last_reported":1758967725,"current_range_meters":18800,"station_id":"cpo3342slgdg3j2ifvpg","pricing_plan_id":"cebpf4jnsgd1na2vs0mg"},{"bike_id":"7ac81eae-aed2-4f3f-a100-b35f399befc9","system_id":"levelo_inurba_marseille","lat":43.25084,"lon":5.40346,"is_reserved":false,"is_disabled":false,"rental_uris":{"android":"levelo://app?vid=7ac81eae-aed2-4f3f-a100-b35f399befc9","ios":"levelo://app?vid=7ac81eae-aed2-4f3f-a100-b35f399befc9"},"vehicle_type_id":"4","last_reported":1758967725,"current_range_meters":18800,"station_id":"ce4bhlh2rcd13ifvqgig","pricing_plan_id":"cebpf4jnsgd1na2vs0mg"},{"bike_id":"a011d2ea-a4cf-401c-b4ba-53223c215ff3","system_id":"levelo_inurba_marseille","lat":43.27498,"lon":5.42446,"is_reserved":false,"is_disabled":false,"rental_uris":{"android":"levelo://app?vid=a011d2ea-a4cf-401c-b4ba-53223c215ff3","ios":"levelo://app?vid=a011d2ea-a4cf-401c-b4ba-53223c215ff3"},"vehicle_type_id":"4","last_reported":1758967725,"current_range_meters":18800,"station_id":"ce4bhn92rcd13ifvqgrg","pricing_plan_id":"cebpf4jnsgd1na2vs0mg"},{"bike_id":"a938d35e-65f3-4d42-b164-197702b1b5bd","system_id":"levelo_inurba_marseille","lat":43.33747,"lon":5.37453,"is_reserved":false,"is_disabled":false,"rental_uris":{"android":"levelo://app?vid=a938d35e-65f3-4d42-b164-197702b1b5bd","ios":"levelo://app?vid=a938d35e-65f3-4d42-b164-197702b1b5bd"},"vehicle_type_id":"4","last_reported":1758967725,"current_range_meters":18800,"station_id":"","pricing_plan_id":"cebpf4jnsgd1na2vs0mg"},{"bike_id":"1dad2113-89e2-44fc-a0b6-ddd6a09baff1","system_id":"levelo_inurba_marseille","lat":43.337444,"lon":5.374475,"is_reserved":false,"is_disabled":false,"rental_uris":{"android":"levelo://app?vid=1dad2113-89e2-44fc-a0b6-ddd6a09baff1","ios":"levelo://app?vid=1dad2113-89e2-44fc-a0b6-ddd6a09baff1"},"vehicle_type_id":"4","last_reported":1758967725,"current_range_meters":18800,"station_id":"","pricing_plan_id":"cebpf4jnsgd1na2vs0mg"},{"bike_id":"b8ed05fe-79e0-4c32-857b-6ff12081a4a0","system_id":"levelo_inurba_marseille","lat":43.301518,"lon":5.380767,"is_reserved":false,"is_disabled":false,"rental_uris":{"android":"levelo://app?vid=b8ed05fe-79e0-4c32-857b-6ff12081a4a0","ios":"levelo://app?vid=b8ed05fe-79e0-4c32-857b-6ff12081a4a0"},"vehicle_type_id":"4","last_reported":1758967725,"current_range_meters":19200,"station_id":"ce4bgjp2rcd13ifvqbh0","pricing_plan_id":"cebpf4jnsgd1na2vs0mg"},{"bike_id":"3cb1dae7-6bcd-41e5-b1b7-c1d25c751a99","system_id":"levelo_inurba_marseille","lat":43.337635,"lon":5.374385,"is_reserved":false,"is_disabled":false,"rental_uris":{"android":"levelo://app?vid=3cb1dae7-6bcd-41e5-b1b7-c1d25c751a99","ios":"levelo://app?vid=3cb1dae7-6bcd-41e5-b1b7-c1d25c751a99"},"vehicle_type_id":"4","last_reported":1758967725,"current_range_meters":19200,"station_id":"","pricing_plan_id":"cebpf4jnsgd1na2vs0mg"},{"bike_id":"224456f7-755b-48c3-be3b-f5ee7830c7bc","system_id":"levelo_inurba_marseille","lat":43.3209,"lon":5.41534,"is_reserved":false,"is_disabled":false,"rental_uris":{"android":"levelo://app?vid=224456f7-755b-48c3-be3b-f5ee7830c7bc","ios":"levelo://app?vid=224456f7-755b-48c3-be3b-f5ee7830c7bc"},"vehicle_type_id":"4","last_reported":1758967725,"current_range_meters":19200,"station_id":"","pricing_plan_id":"cebpf4jnsgd1na2vs0mg"},{"bike_id":"da4b66b4-175a-41f6-b313-ee0e97067709","system_id":"levelo_inurba_marseille","lat":43.25726,"lon":5.41108,"is_reserved":false,"is_disabled":false,"rental_uris":{"android":"levelo://app?vid=da4b66b4-175a-41f6-b313-ee0e97067709","ios":"levelo://app?vid=da4b66b4-175a-41f6-b313-ee0e97067709"},"vehicle_type_id":"4","last_reported":1758967725,"current_range_meters":19200,"station_id":"ce4bhkp2rcd13ifvqgd0","pricing_plan_id":"cebpf4jnsgd1na2vs0mg"},{"bike_id":"b53508c1-dce5-4ab2-9c43-ca3ed2936e25","system_id":"levelo_inurba_marseille","lat":43.30192,"lon":5.36625,"is_reserved":false,"is_disabled":false,"rental_uris":{"android":"levelo://app?vid=b53508c1-dce5-4ab2-9c43-ca3ed2936e25","ios":"levelo://app?vid=b53508c1-dce5-4ab2-9c43-ca3ed2936e25"},"vehicle_type_id":"4","last_reported":1758967725,"current_range_meters":18800,"station_id":"ce4bgrh2rcd13ifvqc8g","pricing_plan_id":"cebpf4jnsgd1na2vs0mg"},{"bike_id":"4607229b-9676-4cf7-92f3-1a01a7549c85","system_id":"levelo_inurba_marseille","lat":43.30321,"lon":5.40433,"is_reserved":false,"is_disabled":false,"rental_uris":{"android":"levelo://app?vid=4607229b-9676-4cf7-92f3-1a01a7549c85","ios":"levelo://app?vid=4607229b-9676-4cf7-92f3-1a01a7549c85"},"vehicle_type_id":"4","last_reported":1758967725,"current_range_meters":19200,"station_id":"ce4bh012rcd13ifvqd10","pricing_plan_id":"cebpf4jnsgd1na2vs0mg"},{"bike_id":"7744ea2d-a5a9-422b-b516-f44b35c883d5","system_id":"levelo_inurba_marseille","lat":43.24645,"lon":5.38919,"is_reserved":false,"is_disabled":false,"rental_uris":{"android":"levelo://app?vid=7744ea2d-a5a9-422b-b516-f44b35c883d5","ios":"levelo://app?vid=7744ea2d-a5a9-422b-b516-f44b35c883d5"},"vehicle_type_id":"4","last_reported":1758967725,"current_range_meters":19200,"station_id":"ce4bhg12rcd13ifvqf60","pricing_plan_id":"cebpf4jnsgd1na2vs0mg"},{"bike_id":"fa444261-70fb-417f-b891-827040619726","system_id":"levelo_inurba_marseille","lat":43.267305,"lon":5.372134,"is_reserved":false,"is_disabled":false,"rental_uris":{"android":"levelo://app?vid=fa444261-70fb-417f-b891-827040619726","ios":"levelo://app?vid=fa444261-70fb-417f-b891-827040619726"},"vehicle_type_id":"4","last_reported":1758967725,"current_range_meters":19200,"station_id":"","pricing_plan_id":"cebpf4jnsgd1na2vs0mg"},{"bike_id":"b594403e-e370-44fa-9fe1-2b821c4a7c30","system_id":"levelo_inurba_marseille","lat":43.3117,"lon":5.38712,"is_reserved":false,"is_disabled":false,"rental_uris":{"android":"levelo://app?vid=b594403e-e370-44fa-9fe1-2b821c4a7c30","ios":"levelo://app?vid=b594403e-e370-44fa-9fe1-2b821c4a7c30"},"vehicle_type_id":"4","last_reported":1758967725,"current_range_meters":19200,"station_id":"ce4bgv12rcd13ifvqcp0","pricing_plan_id":"cebpf4jnsgd1na2vs0mg"},{"bike_id":"151d75a0-434c-41d6-a3a8-42bc6a9a604c","system_id":"levelo_inurba_marseille","lat":43.31757,"lon":5.39017,"is_reserved":false,"is_disabled":false,"rental_uris":{"android":"levelo://app?vid=151d75a0-434c-41d6-a3a8-42bc6a9a604c","ios":"levelo://app?vid=151d75a0-434c-41d6-a3a8-42bc6a9a604c"},"vehicle_type_id":"4","last_reported":1758967725,"current_range_meters":19600,"station_id":"ce4bgt92rcd13ifvqcf0","pricing_plan_id":"cebpf4jnsgd1na2vs0mg"},{"bike_id":"754395f6-375e-4291-a8b2-4fce4437eca1","system_id":"levelo_inurba_marseille","lat":43.305386,"lon":5.367459,"is_reserved":false,"is_disabled":false,"rental_uris":{"android":"levelo://app?vid=754395f6-375e-4291-a8b2-4fce4437eca1","ios":"levelo://app?vid=754395f6-375e-4291-a8b2-4fce4437eca1"},"vehicle_type_id":"4","last_reported":1758967725,"current_range_meters":18800,"station_id":"ce4bgrp2rcd13ifvqc9g","pricing_plan_id":"cebpf4jnsgd1na2vs0mg"},{"bike_id":"646f0f8c-16c8-42a4-ac83-c3b6e75ee5de","system_id":"levelo_inurba_marseille","lat":43.26208,"lon":5.37918,"is_reserved":false,"is_disabled":false,"rental_uris":{"android":"levelo://app?vid=646f0f8c-16c8-42a4-ac83-c3b6e75ee5de","ios":"levelo://app?vid=646f0f8c-16c8-42a4-ac83-c3b6e75ee5de"},"vehicle_type_id":"4","last_reported":1758967725,"current_range_meters":19600,"station_id":"ce4bhjp2rcd13ifvqg90","pricing_plan_id":"cebpf4jnsgd1na2vs0mg"},{"bike_id":"e13879f9-51e4-4a36-9fe7-e3a961f626c1","system_id":"levelo_inurba_marseille","lat":43.27559,"lon":5.38423,"is_reserved":false,"is_disabled":false,"rental_uris":{"android":"levelo://app?vid=e13879f9-51e4-4a36-9fe7-e3a961f626c1","ios":"levelo://app?vid=e13879f9-51e4-4a36-9fe7-e3a961f626c1"},"vehicle_type_id":"4","last_reported":1758967725,"current_range_meters":18000,"station_id":"ce4bhh92rcd13ifvqfi0","pricing_plan_id":"cebpf4jnsgd1na2vs0mg"},{"bike_id":"35e8f722-b82a-4247-beb8-7e2827829ce6","system_id":"levelo_inurba_marseille","lat":43.3241,"lon":5.39039,"is_reserved":false,"is_disabled":false,"rental_uris":{"android":"levelo://app?vid=35e8f722-b82a-4247-beb8-7e2827829ce6","ios":"levelo://app?vid=35e8f722-b82a-4247-beb8-7e2827829ce6"},"vehicle_type_id":"4","last_reported":1758967725,"current_range_meters":19600,"station_id":"","pricing_plan_id":"cebpf4jnsgd1na2vs0mg"},{"bike_id":"8328bf54-f31f-4f3d-9bb0-655f691d04bb","system_id":"levelo_inurba_marseille","lat":43.26026,"lon":5.3755,"is_reserved":false,"is_disabled":false,"rental_uris":{"android":"levelo://app?vid=8328bf54-f31f-4f3d-9bb0-655f691d04bb","ios":"levelo://app?vid=8328bf54-f31f-4f3d-9bb0-655f691d04bb"},"vehicle_type_id":"4","last_reported":1758967725,"current_range_meters":19600,"station_id":"ce4bhgh2rcd13ifvqfa0","pricing_plan_id":"cebpf4jnsgd1na2vs0mg"},{"bike_id":"0656741e-4baa-4804-921b-3ed5233045aa","system_id":"levelo_inurba_marseille","lat":43.24633,"lon":5.43146,"is_reserved":false,"is_disabled":false,"rental_uris":{"android":"levelo://app?vid=0656741e-4baa-4804-921b-3ed5233045aa","ios":"levelo://app?vid=0656741e-4baa-4804-921b-3ed5233045aa"},"vehicle_type_id":"4","last_reported":1758967725,"current_range_meters":19600,"station_id":"st_d2m6c4gdas8pm72e190g","pricing_plan_id":"cebpf4jnsgd1na2vs0mg"},{"bike_id":"f02c4c36-0415-4cfd-a9f5-b399ca3fa4ef","system_id":"levelo_inurba_marseille","lat":43.27898,"lon":5.38003,"is_reserved":false,"is_disabled":false,"rental_uris":{"android":"levelo://app?vid=f02c4c36-0415-4cfd-a9f5-b399ca3fa4ef","ios":"levelo://app?vid=f02c4c36-0415-4cfd-a9f5-b399ca3fa4ef"},"vehicle_type_id":"4","last_reported":1758967725,"current_range_meters":19200,"station_id":"ce4bhf92rcd13ifvqf50","pricing_plan_id":"cebpf4jnsgd1na2vs0mg"},{"bike_id":"e5378695-fba9-432a-9cfb-3b5b05e40fec","system_id":"levelo_inurba_marseille","lat":43.337986,"lon":5.374304,"is_reserved":false,"is_disabled":false,"rental_uris":{"android":"levelo://app?vid=e5378695-fba9-432a-9cfb-3b5b05e40fec","ios":"levelo://app?vid=e5378695-fba9-432a-9cfb-3b5b05e40fec"},"vehicle_type_id":"4","last_reported":1758967725,"current_range_meters":19600,"station_id":"","pricing_plan_id":"cebpf4jnsgd1na2vs0mg"},{"bike_id":"8ffd742c-309e-41ae-b703-db1250276a0f","system_id":"levelo_inurba_marseille","lat":43.25006,"lon":5.38934,"is_reserved":false,"is_disabled":false,"rental_uris":{"android":"levelo://app?vid=8ffd742c-309e-41ae-b703-db1250276a0f","ios":"levelo://app?vid=8ffd742c-309e-41ae-b703-db1250276a0f"},"vehicle_type_id":"4","last_reported":1758967725,"current_range_meters":20000,"station_id":"ce4bhgp2rcd13ifvqfd0","pricing_plan_id":"cebpf4jnsgd1na2vs0mg"},{"bike_id":"a100ac61-b177-462f-b822-d2ad03758b31","system_id":"levelo_inurba_marseille","lat":43.26204,"lon":5.37927,"is_reserved":false,"is_disabled":false,"rental_uris":{"android":"levelo://app?vid=a100ac61-b177-462f-b822-d2ad03758b31","ios":"levelo://app?vid=a100ac61-b177-462f-b822-d2ad03758b31"},"vehicle_type_id":"4","last_reported":1758967725,"current_range_meters":20000,"station_id":"ce4bhjp2rcd13ifvqg90","pricing_plan_id":"cebpf4jnsgd1na2vs0mg"},{"bike_id":"f026bb75-2dd8-4eed-a3d6-56a0a0397e0a","system_id":"levelo_inurba_marseille","lat":43.31405,"lon":5.38494,"is_reserved":false,"is_disabled":false,"rental_uris":{"android":"levelo://app?vid=f026bb75-2dd8-4eed-a3d6-56a0a0397e0a","ios":"levelo://app?vid=f026bb75-2dd8-4eed-a3d6-56a0a0397e0a"},"vehicle_type_id":"4","last_reported":1758967725,"current_range_meters":19600,"station_id":"ce4bgt92rcd13ifvqcf0","pricing_plan_id":"cebpf4jnsgd1na2vs0mg"},{"bike_id":"8fab9d31-a535-4f59-ae8d-c48990fbca57","system_id":"levelo_inurba_marseille","lat":43.2467,"lon":5.43178,"is_reserved":false,"is_disabled":false,"rental_uris":{"android":"levelo://app?vid=8fab9d31-a535-4f59-ae8d-c48990fbca57","ios":"levelo://app?vid=8fab9d31-a535-4f59-ae8d-c48990fbca57"},"vehicle_type_id":"4","last_reported":1758967725,"current_range_meters":20000,"station_id":"st_d2m6c4gdas8pm72e190g","pricing_plan_id":"cebpf4jnsgd1na2vs0mg"},{"bike_id":"ce4c07e0-2f7b-462c-9158-300d4fc20c33","system_id":"levelo_inurba_marseille","lat":43.26034,"lon":5.37544,"is_reserved":false,"is_disabled":false,"rental_uris":{"android":"levelo://app?vid=ce4c07e0-2f7b-462c-9158-300d4fc20c33","ios":"levelo://app?vid=ce4c07e0-2f7b-462c-9158-300d4fc20c33"},"vehicle_type_id":"4","last_reported":1758967725,"current_range_meters":20000,"station_id":"ce4bhgh2rcd13ifvqfa0","pricing_plan_id":"cebpf4jnsgd1na2vs0mg"},{"bike_id":"a93a11de-25ad-47bc-9c93-48868e72a851","system_id":"levelo_inurba_marseille","lat":43.24181,"lon":5.36409,"is_reserved":false,"is_disabled":false,"rental_uris":{"android":"levelo://app?vid=a93a11de-25ad-47bc-9c93-48868e72a851","ios":"levelo://app?vid=a93a11de-25ad-47bc-9c93-48868e72a851"},"vehicle_type_id":"4","last_reported":1758967725,"current_range_meters":20400,"station_id":"cpo36qri1sfpv3e86is0","pricing_plan_id":"cebpf4jnsgd1na2vs0mg"},{"bike_id":"be6f489c-cf76-420c-9de5-003ef8165a4d","system_id":"levelo_inurba_marseille","lat":43.24105,"lon":5.37803,"is_reserved":false,"is_disabled":false,"rental_uris":{"android":"levelo://app?vid=be6f489c-cf76-420c-9de5-003ef8165a4d","ios":"levelo://app?vid=be6f489c-cf76-420c-9de5-003ef8165a4d"},"vehicle_type_id":"4","last_reported":1758967725,"current_range_meters":20400,"station_id":"","pricing_plan_id":"cebpf4jnsgd1na2vs0mg"},{"bike_id":"23874af1-2ec0-4c4b-ad5d-89f7a60616c0","system_id":"levelo_inurba_marseille","lat":43.26021,"lon":5.37552,"is_reserved":false,"is_disabled":false,"rental_uris":{"android":"levelo://app?vid=23874af1-2ec0-4c4b-ad5d-89f7a60616c0","ios":"levelo://app?vid=23874af1-2ec0-4c4b-ad5d-89f7a60616c0"},