{"last_updated":1732040007,"ttl":60,"version":"2.2","data":{"bikes":[{"bike_id":"cacde89c-5086-4b87-8bcd-a2b586b3345d","system_id":"levelo_inurba_marseille","lat":43.30153,"lon":5.381,"is_reserved":false,"is_disabled":true,"rental_uris":{"android":"levelo://app?vid=cacde89c-5086-4b87-8bcd-a2b586b3345d","ios":"levelo://app?vid=cacde89c-5086-4b87-8bcd-a2b586b3345d"},"vehicle_type_id":"4","last_reported":1732040007,"current_range_meters":39200,"station_id":"ce4bgjp2rcd13ifvqbh0","pricing_plan_id":"cebpf4jnsgd1na2vs0mg"},{"bike_id":"46c6d75a-6f02-4f33-9930-3f2ae43c6e0c","system_id":"levelo_inurba_marseille","lat":43.25586,"lon":5.38233,"is_reserved":false,"is_disabled":false,"rental_uris":{"android":"levelo://app?vid=46c6d75a-6f02-4f33-9930-3f2ae43c6e0c","ios":"levelo://app?vid=46c6d75a-6f02-4f33-9930-3f2ae43c6e0c"},"vehicle_type_id":"4","last_reported":1732040007,"current_range_meters":29600,"station_id":"ce4bhih2rcd13ifvqfs0","pricing_plan_id":"cebpf4jnsgd1na2vs0mg"},{"bike_id":"b21da081-9879-40dd-84c5-23f42e6f5e53","system_id":"levelo_inurba_marseille","lat":43.27948,"lon":5.41053,"is_reserved":false,"is_disabled":true,"rental_uris":{"android":"levelo://app?vid=b21da081-9879-40dd-84c5-23f42e6f5e53","ios":"levelo://app?vid=b21da081-9879-40dd-84c5-23f42e6f5e53"},"vehicle_type_id":"4","last_reported":1732040007,"current_range_meters":18000,"station_id":"ce4bhnp2rcd13ifvqh0g","pricing_plan_id":"cebpf4jnsgd1na2vs0mg"},{"bike_id":"766b31e0-6823-407a-8d7b-82dd9311fabe","system_id":"levelo_inurba_marseille","lat":43.28983,"lon":5.37825,"is_reserved":false,"is_disabled":false,"rental_uris":{"android":"levelo://app?vid=766b31e0-6823-407a-8d7b-82dd9311fabe","ios":"levelo://app?vid=766b31e0-6823-407a-8d7b-82dd9311fabe"},"vehicle_type_id":"4","last_reported":1732040007,"current_range_meters":9600,"station_id":"ce4bh9p2rcd13ifvqed0","pricing_plan_id":"cebpf4jnsgd1na2vs0mg"},{"bike_id":"dc94fd26-5f8e-4f9c-bc63-4eeb71a922dd","system_id":"levelo_inurba_marseille","lat":43.25007,"lon":5.38925,"is_reserved":false,"is_disabled":false,"rental_uris":{"android":"levelo://app?vid=dc94fd26-5f8e-4f9c-bc63-4eeb71a922dd","ios":"levelo://app?vid=dc94fd26-5f8e-4f9c-bc63-4eeb71a922dd"},"vehicle_type_id":"4","last_reported":1732040007,"current_range_meters":38800,"station_id":"ce4bhgp2rcd13ifvqfd0","pricing_plan_id":"cebpf4jnsgd1na2vs0mg"},{"bike_id":"bb9ea763-6e93-4922-b0c2-ce9421dca49b","system_id":"levelo_inurba_marseille","lat":43.2593,"lon":5.40904,"is_reserved":false,"is_disabled":true,"rental_uris":{"android":"levelo://app?vid=bb9ea763-6e93-4922-b0c2-ce9421dca49b","ios":"levelo://app?vid=bb9ea763-6e93-4922-b0c2-ce9421dca49b"},"vehicle_type_id":"4","last_reported":1732040007,"current_range_meters":0,"station_id":"ce4bhm92rcd13ifvqglg","pricing_plan_id":"cebpf4jnsgd1na2vs0mg"},{"bike_id":"df89f28d-09ef-4d95-998a-b310ab3afea0","system_id":"levelo_inurba_marseille","lat":43.33021,"lon":5.39048,"is_reserved":false,"is_disabled":false,"rental_uris":{"android":"levelo://app?vid=df89f28d-09ef-4d95-998a-b310ab3afea0","ios":"levelo://app?vid=df89f28d-09ef-4d95-998a-b310ab3afea0"},"vehicle_type_id":"4","last_reported":1732040007,"current_range_meters":10800,"station_id":"ce4bhr92rcd13ifvqhrg","pricing_plan_id":"cebpf4jnsgd1na2vs0mg"},{"bike_id":"d14a7ddb-b42d-4188-b31e-0cecff53a7b3","system_id":"levelo_inurba_marseille","lat":43.28724,"lon":5.37923,"is_reserved":false,"is_disabled":true,"rental_uris":{"android":"levelo://app?vid=d14a7ddb-b42d-4188-b31e-0cecff53a7b3","ios":"levelo://app?vid=d14a7ddb-b42d-4188-b31e-0cecff53a7b3"},"vehicle_type_id":"4","last_reported":1732040007,"current_range_meters":1600,"station_id":"ce4bh9p2rcd13ifvqec0","pricing_plan_id":"cebpf4jnsgd1na2vs0mg"},{"bike_id":"5000ae5d-7ab8-4bff-ad5c-2f97a33df1a7","system_id":"levelo_inurba_marseille","lat":43.29194,"lon":5.35801,"is_reserved":false,"is_disabled":true,"rental_uris":{"android":"levelo://app?vid=5000ae5d-7ab8-4bff-ad5c-2f97a33df1a7","ios":"levelo://app?vid=5000ae5d-7ab8-4bff-ad5c-2f97a33df1a7"},"vehicle_type_id":"4","last_reported":1732040007,"current_range_meters":0,"station_id":"ce4bhb12rcd13ifvqel0","pricing_plan_id":"cebpf4jnsgd1na2vs0mg"},{"bike_id":"95b42f38-298e-488f-9a6a-75f685391bd0","system_id":"levelo_inurba_marseille","lat":43.30657,"lon":5.40098,"is_reserved":false,"is_disabled":false,"rental_uris":{"android":"levelo://app?vid=95b42f38-298e-488f-9a6a-75f685391bd0","ios":"levelo://app?vid=95b42f38-298e-488f-9a6a-75f685391bd0"},"vehicle_type_id":"4","last_reported":1732040007,"current_range_meters":38400,"station_id":"ce4bh112rcd13ifvqda0","pricing_plan_id":"cebpf4jnsgd1na2vs0mg"},{"bike_id":"0ea93326-5034-4b5e-97b8-0a33b4d38611","system_id":"levelo_inurba_marseille","lat":43.30151,"lon":5.38103,"is_reserved":false,"is_disabled":true,"rental_uris":{"android":"levelo://app?vid=0ea93326-5034-4b5e-97b8-0a33b4d38611","ios":"levelo://app?vid=0ea93326-5034-4b5e-97b8-0a33b4d38611"},"vehicle_type_id":"4","last_reported":1732040007,"current_range_meters":0,"station_id":"ce4bgjp2rcd13ifvqbh0","pricing_plan_id":"cebpf4jnsgd1na2vs0mg"},{"bike_id":"067b4e0f-3ae9-465f-9e73-6899b54fe1eb","system_id":"levelo_inurba_marseille","lat":43.28752,"lon":5.38004,"is_reserved":false,"is_disabled":true,"rental_uris":{"android":"levelo://app?vid=067b4e0f-3ae9-465f-9e73-6899b54fe1eb","ios":"levelo://app?vid=067b4e0f-3ae9-465f-9e73-6899b54fe1eb"},"vehicle_type_id":"4","last_reported":1732040007,"current_range_meters":0,"station_id":"","pricing_plan_id":"cebpf4jnsgd1na2vs0mg"},{"bike_id":"44cb57a0-ffe9-421a-b72f-ba510ee31367","system_id":"levelo_inurba_marseille","lat":43.33031,"lon":5.39041,"is_reserved":false,"is_disabled":false,"rental_uris":{"android":"levelo://app?vid=44cb57a0-ffe9-421a-b72f-ba510ee31367","ios":"levelo://app?vid=44cb57a0-ffe9-421a-b72f-ba510ee31367"},"vehicle_type_id":"4","last_reported":1732040007,"current_range_meters":18800,"station_id":"ce4bhr92rcd13ifvqhrg","pricing_plan_id":"cebpf4jnsgd1na2vs0mg"},{"bike_id":"3515f9ea-1025-48e1-b470-a1ead3569e1e","system_id":"levelo_inurba_marseille","lat":43.295215,"lon":5.390431,"is_reserved":false,"is_disabled":false,"rental_uris":{"android":"levelo://app?vid=3515f9ea-1025-48e1-b470-a1ead3569e1e","ios":"levelo://app?vid=3515f9ea-1025-48e1-b470-a1ead3569e1e"},"vehicle_type_id":"4","last_reported":1732040007,"current_range_meters":23200,"station_id":"ce4bh3p2rcd13ifvqdp0","pricing_plan_id":"cebpf4jnsgd1na2vs0mg"},{"bike_id":"92ed161b-7532-4432-a194-1fd992bd18c4","system_id":"levelo_inurba_marseille","lat":43.28458,"lon":5.35884,"is_reserved":false,"is_disabled":false,"rental_uris":{"android":"levelo://app?vid=92ed161b-7532-4432-a194-1fd992bd18c4","ios":"levelo://app?vid=92ed161b-7532-4432-a194-1fd992bd18c4"},"vehicle_type_id":"4","last_reported":1732040007,"current_range_meters":38800,"station_id":"ce4bhah2rcd13ifvqei0","pricing_plan_id":"cebpf4jnsgd1na2vs0mg"},{"bike_id":"8171ab48-0b48-453b-a8d6-52e9b0c56fa5","system_id":"levelo_inurba_marseille","lat":43.30779,"lon":5.37646,"is_reserved":false,"is_disabled":false,"rental_uris":{"android":"levelo://app?vid=8171ab48-0b48-453b-a8d6-52e9b0c56fa5","ios":"levelo://app?vid=8171ab48-0b48-453b-a8d6-52e9b0c56fa5"},"vehicle_type_id":"4","last_reported":1732040007,"current_range_meters":37600,"station_id":"ce4bgv92rcd13ifvqcq0","pricing_plan_id":"cebpf4jnsgd1na2vs0mg"},{"bike_id":"befe88e4-12d3-42a9-9602-54a0ae6623c7","system_id":"levelo_inurba_marseille","lat":43.30954,"lon":5.39036,"is_reserved":false,"is_disabled":true,"rental_uris":{"android":"levelo://app?vid=befe88e4-12d3-42a9-9602-54a0ae6623c7","ios":"levelo://app?vid=befe88e4-12d3-42a9-9602-54a0ae6623c7"},"vehicle_type_id":"4","last_reported":1732040007,"current_range_meters":0,"station_id":"ce4bgup2rcd13ifvqco0","pricing_plan_id":"cebpf4jnsgd1na2vs0mg"},{"bike_id":"dbe74249-58cd-403e-a63d-5e0a1c17b552","system_id":"levelo_inurba_marseille","lat":43.24093,"lon":5.37745,"is_reserved":false,"is_disabled":true,"rental_uris":{"android":"levelo://app?vid=dbe74249-58cd-403e-a63d-5e0a1c17b552","ios":"levelo://app?vid=dbe74249-58cd-403e-a63d-5e0a1c17b552"},"vehicle_type_id":"4","last_reported":1732040007,"current_range_meters":0,"station_id":"","pricing_plan_id":"cebpf4jnsgd1na2vs0mg"},{"bike_id":"c85666ef-4eaa-47a5-b89b-259bc40468c0","system_id":"levelo_inurba_marseille","lat":43.3304,"lon":5.39038,"is_reserved":false,"is_disabled":false,"rental_uris":{"android":"levelo://app?vid=c85666ef-4eaa-47a5-b89b-259bc40468c0","ios":"levelo://app?vid=c85666ef-4eaa-47a5-b89b-259bc40468c0"},"vehicle_type_id":"4","last_reported":1732040007,"current_range_meters":38800,"station_id":"ce4bhr92rcd13ifvqhrg","pricing_plan_id":"cebpf4jnsgd1na2vs0mg"},{"bike_id":"2992429b-91ac-449d-a558-6319c1a88ffe","system_id":"levelo_inurba_marseille","lat":43.31704,"lon":5.37752,"is_reserved":false,"is_disabled":false,"rental_uris":{"android":"levelo://app?vid=2992429b-91ac-449d-a558-6319c1a88ffe","ios":"levelo://app?vid=2992429b-91ac-449d-a558-6319c1a88ffe"},"vehicle_type_id":"4","last_reported":1732040007,"current_range_meters":31200,"station_id":"ce4bgth2rcd13ifvqch0","pricing_plan_id":"cebpf4jnsgd1na2vs0mg"},{"bike_id":"37c25020-deb6-498e-bf04-433057082765","system_id":"levelo_inurba_marseille","lat":43.295179,"lon":5.393974,"is_reserved":false,"is_disabled":false,"rental_uris":{"android":"levelo://app?vid=37c25020-deb6-498e-bf04-433057082765","ios":"levelo://app?vid=37c25020-deb6-498e-bf04-433057082765"},"vehicle_type_id":"4","last_reported":1732040007,"current_range_meters":29600,"station_id":"ce4bh292rcd13ifvqdf0","pricing_plan_id":"cebpf4jnsgd1na2vs0mg"},{"bike_id":"9ac62003-6c46-4ae2-b70d-62e764553f72","system_id":"levelo_inurba_marseille","lat":43.27944,"lon":5.41045,"is_reserved":false,"is_disabled":false,"rental_uris":{"android":"levelo://app?vid=9ac62003-6c46-4ae2-b70d-62e764553f72","ios":"levelo://app?vid=9ac62003-6c46-4ae2-b70d-62e764553f72"},"vehicle_type_id":"4","last_reported":1732040007,"current_range_meters":19600,"station_id":"ce4bhnp2rcd13ifvqh0g","pricing_plan_id":"cebpf4jnsgd1na2vs0mg"},{"bike_id":"4f17ca83-5b56-46c8-9eb1-44219ca2b9a0","system_id":"levelo_inurba_marseille","lat":43.29854,"lon":5.38342,"is_reserved":false,"is_disabled":false,"rental_uris":{"android":"levelo://app?vid=4f17ca83-5b56-46c8-9eb1-44219ca2b9a0","ios":"levelo://app?vid=4f17ca83-5b56-46c8-9eb1-44219ca2b9a0"},"vehicle_type_id":"4","last_reported":1732040007,"current_range_meters":22000,"station_id":"","pricing_plan_id":"cebpf4jnsgd1na2vs0mg"},{"bike_id":"e2ebda6a-fd38-47bd-b424-bff5ff14f98f","system_id":"levelo_inurba_marseille","lat":43.31117,"lon":5.37766,"is_reserved":false,"is_disabled":false,"rental_uris":{"android":"levelo://app?vid=e2ebda6a-fd38-47bd-b424-bff5ff14f98f","ios":"levelo://app?vid=e2ebda6a-fd38-47bd-b424-bff5ff14f98f"},"vehicle_type_id":"4","last_reported":1732040007,"current_range_meters":30400,"station_id":"ce4bgt92rcd13ifvqcg0","pricing_plan_id":"cebpf4jnsgd1na2vs0mg"},{"bike_id":"00a1a503-9c09-4ad8-b902-939375f95d2a","system_id":"levelo_inurba_marseille","lat":43.30144,"lon":5.39867,"is_reserved":false,"is_disabled":false,"rental_uris":{"android":"levelo://app?vid=00a1a503-9c09-4ad8-b902-939375f95d2a","ios":"levelo://app?vid=00a1a503-9c09-4ad8-b902-939375f95d2a"},"vehicle_type_id":"4","last_reported":1732040007,"current_range_meters":38800,"station_id":"ce4bh0h2rcd13ifvqd40","pricing_plan_id":"cebpf4jnsgd1na2vs0mg"},{"bike_id":"fbb4b4f9-7c68-4597-a73e-783c8cb74271","system_id":"levelo_inurba_marseille","lat":43.30784,"lon":5.37652,"is_reserved":false,"is_disabled":false,"rental_uris":{"android":"levelo://app?vid=fbb4b4f9-7c68-4597-a73e-783c8cb74271","ios":"levelo://app?vid=fbb4b4f9-7c68-4597-a73e-783c8cb74271"},"vehicle_type_id":"4","last_reported":1732040007,"current_range_meters":34000,"station_id":"ce4bgv92rcd13ifvqcq0","pricing_plan_id":"cebpf4jnsgd1na2vs0mg"},{"bike_id":"a1de63aa-f178-478b-9e3a-fe8edfd64d29","system_id":"levelo_inurba_marseille","lat":43.31274,"lon":5.3843,"is_reserved":false,"is_disabled":true,"rental_uris":{"android":"levelo://app?vid=a1de63aa-f178-478b-9e3a-fe8edfd64d29","ios":"levelo://app?vid=a1de63aa-f178-478b-9e3a-fe8edfd64d29"},"vehicle_type_id":"4","last_reported":1732040007,"current_range_meters":0,"station_id":"","pricing_plan_id":"cebpf4jnsgd1na2vs0mg"},{"bike_id":"2997ad01-bfd4-4cb3-91c8-60d9c02670d7","system_id":"levelo_inurba_marseille","lat":43.28696,"lon":5.39992,"is_reserved":false,"is_disabled":true,"rental_uris":{"android":"levelo://app?vid=2997ad01-bfd4-4cb3-91c8-60d9c02670d7","ios":"levelo://app?vid=2997ad01-bfd4-4cb3-91c8-60d9c02670d7"},"vehicle_type_id":"4","last_reported":1732040007,"current_range_meters":0,"station_id":"ce4bho92rcd13ifvqh3g","pricing_plan_id":"cebpf4jnsgd1na2vs0mg"},{"bike_id":"85308c21-24d3-4ff7-9073-790d239a9901","system_id":"levelo_inurba_marseille","lat":43.31067,"lon":5.38353,"is_reserved":false,"is_disabled":true,"rental_uris":{"android":"levelo://app?vid=85308c21-24d3-4ff7-9073-790d239a9901","ios":"levelo://app?vid=85308c21-24d3-4ff7-9073-790d239a9901"},"vehicle_type_id":"4","last_reported":1732040007,"current_range_meters":36000,"station_id":"ce4bgv92rcd13ifvqcr0","pricing_plan_id":"cebpf4jnsgd1na2vs0mg"},{"bike_id":"de208543-9b1f-469d-95ed-a601b777cb16","system_id":"levelo_inurba_marseille","lat":43.24185,"lon":5.3972,"is_reserved":false,"is_disabled":true,"rental_uris":{"android":"levelo://app?vid=de208543-9b1f-469d-95ed-a601b777cb16","ios":"levelo://app?vid=de208543-9b1f-469d-95ed-a601b777cb16"},"vehicle_type_id":"4","last_reported":1732040007,"current_range_meters":0,"station_id":"ce4bhn12rcd13ifvqgpg","pricing_plan_id":"cebpf4jnsgd1na2vs0mg"},{"bike_id":"87f9d603-d423-49b4-b079-4d962031ad6f","system_id":"levelo_inurba_marseille","lat":43.28157,"lon":5.3788,"is_reserved":false,"is_disabled":false,"rental_uris":{"android":"levelo://app?vid=87f9d603-d423-49b4-b079-4d962031ad6f","ios":"levelo://app?vid=87f9d603-d423-49b4-b079-4d962031ad6f"},"vehicle_type_id":"4","last_reported":1732040007,"current_range_meters":39200,"station_id":"ce4bha12rcd13ifvqee0","pricing_plan_id":"cebpf4jnsgd1na2vs0mg"},{"bike_id":"d36b75cb-d1d5-45a8-8d2d-99575e96e94c","system_id":"levelo_inurba_marseille","lat":43.239486,"lon":5.366125,"is_reserved":false,"is_disabled":false,"rental_uris":{"android":"levelo://app?vid=d36b75cb-d1d5-45a8-8d2d-99575e96e94c","ios":"levelo://app?vid=d36b75cb-d1d5-45a8-8d2d-99575e96e94c"},"vehicle_type_id":"4","last_reported":1732040007,"current_range_meters":30800,"station_id":"ce4bhi12rcd13ifvqfp0","pricing_plan_id":"cebpf4jnsgd1na2vs0mg"},{"bike_id":"645e3cc3-5d53-4fad-b652-8da2295d3996","system_id":"levelo_inurba_marseille","lat":43.31756,"lon":5.39015,"is_reserved":false,"is_disabled":false,"rental_uris":{"android":"levelo://app?vid=645e3cc3-5d53-4fad-b652-8da2295d3996","ios":"levelo://app?vid=645e3cc3-5d53-4fad-b652-8da2295d3996"},"vehicle_type_id":"4","last_reported":1732040007,"current_range_meters":26000,"station_id":"ce4bhqp2rcd13ifvqhng","pricing_plan_id":"cebpf4jnsgd1na2vs0mg"},{"bike_id":"95e17bc1-03e4-4277-80a9-c1c375af07f4","system_id":"levelo_inurba_marseille","lat":43.25721,"lon":5.4111,"is_reserved":false,"is_disabled":true,"rental_uris":{"android":"levelo://app?vid=95e17bc1-03e4-4277-80a9-c1c375af07f4","ios":"levelo://app?vid=95e17bc1-03e4-4277-80a9-c1c375af07f4"},"vehicle_type_id":"4","last_reported":1732040007,"current_range_meters":1600,"station_id":"ce4bhkp2rcd13ifvqgd0","pricing_plan_id":"cebpf4jnsgd1na2vs0mg"},{"bike_id":"e3511c0c-eb2b-4100-bb2d-c5ebcd644bea","system_id":"levelo_inurba_marseille","lat":43.23969,"lon":5.3662,"is_reserved":false,"is_disabled":true,"rental_uris":{"android":"levelo://app?vid=e3511c0c-eb2b-4100-bb2d-c5ebcd644bea","ios":"levelo://app?vid=e3511c0c-eb2b-4100-bb2d-c5ebcd644bea"},"vehicle_type_id":"4","last_reported":1732040007,"current_range_meters":35200,"station_id":"ce4bhi12rcd13ifvqfp0","pricing_plan_id":"cebpf4jnsgd1na2vs0mg"},{"bike_id":"7dc2540e-5c15-49cc-843d-b22dafd2ded0","system_id":"levelo_inurba_marseille","lat":43.3378,"lon":5.37429,"is_reserved":false,"is_disabled":false,"rental_uris":{"android":"levelo://app?vid=7dc2540e-5c15-49cc-843d-b22dafd2ded0","ios":"levelo://app?vid=7dc2540e-5c15-49cc-843d-b22dafd2ded0"},"vehicle_type_id":"4","last_reported":1732040007,"current_range_meters":35600,"station_id":"","pricing_plan_id":"cebpf4jnsgd1na2vs0mg"},{"bike_id":"5917a06d-1a89-42ee-9c96-70b3e49f2520","system_id":"levelo_inurba_marseille","lat":43.31688,"lon":5.40475,"is_reserved":false,"is_disabled":true,"rental_uris":{"android":"levelo://app?vid=5917a06d-1a89-42ee-9c96-70b3e49f2520","ios":"levelo://app?vid=5917a06d-1a89-42ee-9c96-70b3e49f2520"},"vehicle_type_id":"4","last_reported":1732040007,"current_range_meters":10800,"station_id":"ce4bh012rcd13ifvqd00","pricing_plan_id":"cebpf4jnsgd1na2vs0mg"},{"bike_id":"752e2327-7cfe-4fa8-a4be-78b0588f0510","system_id":"levelo_inurba_marseille","lat":43.27559,"lon":5.38428,"is_reserved":false,"is_disabled":false,"rental_uris":{"android":"levelo://app?vid=752e2327-7cfe-4fa8-a4be-78b0588f0510","ios":"levelo://app?vid=752e2327-7cfe-4fa8-a4be-78b0588f0510"},"vehicle_type_id":"4","last_reported":1732040007,"current_range_meters":30400,"station_id":"ce4bhh92rcd13ifvqfi0","pricing_plan_id":"cebpf4jnsgd1na2vs0mg"},{"bike_id":"497454ce-e4eb-4dce-94e8-18190e4c429b","system_id":"levelo_inurba_marseille","lat":43.27815,"lon":5.4072,"is_reserved":false,"is_disabled":true,"rental_uris":{"android":"levelo://app?vid=497454ce-e4eb-4dce-94e8-18190e4c429b","ios":"levelo://app?vid=497454ce-e4eb-4dce-94e8-18190e4c429b"},"vehicle_type_id":"4","last_reported":1732040007,"current_range_meters":0,"station_id":"ce4bhnh2rcd13ifvqgtg","pricing_plan_id":"cebpf4jnsgd1na2vs0mg"},{"bike_id":"55f95fd1-6acd-4347-bb4c-6a144aacc036","system_id":"levelo_inurba_marseille","lat":43.28461,"lon":5.35884,"is_reserved":false,"is_disabled":false,"rental_uris":{"android":"levelo://app?vid=55f95fd1-6acd-4347-bb4c-6a144aacc036","ios":"levelo://app?vid=55f95fd1-6acd-4347-bb4c-6a144aacc036"},"vehicle_type_id":"4","last_reported":1732040007,"current_range_meters":38800,"station_id":"ce4bhah2rcd13ifvqei0","pricing_plan_id":"cebpf4jnsgd1na2vs0mg"},{"bike_id":"8e749b97-647f-422f-be5c-cb45efd0ee31","system_id":"levelo_inurba_marseille","lat":43.24997,"lon":5.38933,"is_reserved":false,"is_disabled":false,"rental_uris":{"android":"levelo://app?vid=8e749b97-647f-422f-be5c-cb45efd0ee31","ios":"levelo://app?vid=8e749b97-647f-422f-be5c-cb45efd0ee31"},"vehicle_type_id":"4","last_reported":1732040007,"current_range_meters":12800,"station_id":"ce4bhgp2rcd13ifvqfd0","pricing_plan_id":"cebpf4jnsgd1na2vs0mg"},{"bike_id":"3c885cf1-0cce-4ad4-b825-06394af6c46e","system_id":"levelo_inurba_marseille","lat":43.29584,"lon":5.36748,"is_reserved":false,"is_disabled":false,"rental_uris":{"android":"levelo://app?vid=3c885cf1-0cce-4ad4-b825-06394af6c46e","ios":"levelo://app?vid=3c885cf1-0cce-4ad4-b825-06394af6c46e"},"vehicle_type_id":"4","last_reported":1732040007,"current_range_meters":18800,"station_id":"ce4bgph2rcd13ifvqc2g","pricing_plan_id":"cebpf4jnsgd1na2vs0mg"},{"bike_id":"b4cf88d3-3422-45c2-9693-c4fdaec1559b","system_id":"levelo_inurba_marseille","lat":43.29299,"lon":5.37461,"is_reserved":false,"is_disabled":false,"rental_uris":{"android":"levelo://app?vid=b4cf88d3-3422-45c2-9693-c4fdaec1559b","ios":"levelo://app?vid=b4cf88d3-3422-45c2-9693-c4fdaec1559b"},"vehicle_type_id":"4","last_reported":1732040007,"current_range_meters":36800,"station_id":"ce4bgi12rcd13ifvqb70","pricing_plan_id":"cebpf4jnsgd1na2vs0mg"},{"bike_id":"dc164298-2222-4ca7-92b0-fbbc273ecb2a","system_id":"levelo_inurba_marseille","lat":43.26787,"lon":5.39412,"is_reserved":false,"is_disabled":true,"rental_uris":{"android":"levelo://app?vid=dc164298-2222-4ca7-92b0-fbbc273ecb2a","ios":"levelo://app?vid=dc164298-2222-4ca7-92b0-fbbc273ecb2a"},"vehicle_type_id":"4","last_reported":1732040007,"current_range_meters":0,"station_id":"ce4bhh12rcd13ifvqfg0","pricing_plan_id":"cebpf4jnsgd1na2vs0mg"},{"bike_id":"25073dac-1c4b-4235-88f2-ba7b09ca22ac","system_id":"levelo_inurba_marseille","lat":43.32294,"lon":5.38268,"is_reserved":false,"is_disabled":false,"rental_uris":{"android":"levelo://app?vid=25073dac-1c4b-4235-88f2-ba7b09ca22ac","ios":"levelo://app?vid=25073dac-1c4b-4235-88f2-ba7b09ca22ac"},"vehicle_type_id":"4","last_reported":1732040007,"current_range_meters":20800,"station_id":"ce4bhr12rcd13ifvqhqg","pricing_plan_id":"cebpf4jnsgd1na2vs0mg"},{"bike_id":"e9309fe7-7295-4231-ab7b-a4fba7fac0dc","system_id":"levelo_inurba_marseille","lat":43.29581,"lon":5.36732,"is_reserved":false,"is_disabled":false,"rental_uris":{"android":"levelo://app?vid=e9309fe7-7295-4231-ab7b-a4fba7fac0dc","ios":"levelo://app?vid=e9309fe7-7295-4231-ab7b-a4fba7fac0dc"},"vehicle_type_id":"4","last_reported":1732040007,"current_range_meters":30800,"station_id":"ce4bgph2rcd13ifvqc2g","pricing_plan_id":"cebpf4jnsgd1na2vs0mg"},{"bike_id":"37f14134-d611-451c-9aaa-25a59bd49fe3","system_id":"levelo_inurba_marseille","lat":43.29882,"lon":5.39746,"is_reserved":false,"is_disabled":true,"rental_uris":{"android":"levelo://app?vid=37f14134-d611-451c-9aaa-25a59bd49fe3","ios":"levelo://app?vid=37f14134-d611-451c-9aaa-25a59bd49fe3"},"vehicle_type_id":"4","last_reported":1732040007,"current_range_meters":38800,"station_id":"ce4bh0h2rcd13ifvqd50","pricing_plan_id":"cebpf4jnsgd1na2vs0mg"},{"bike_id":"ac989d89-72e2-48a7-bd53-507aab3b7e56","system_id":"levelo_inurba_marseille","lat":43.30544,"lon":5.38425,"is_reserved":false,"is_disabled":false,"rental_uris":{"android":"levelo://app?vid=ac989d89-72e2-48a7-bd53-507aab3b7e56","ios":"levelo://app?vid=ac989d89-72e2-48a7-bd53-507aab3b7e56"},"vehicle_type_id":"4","last_reported":1732040007,"current_range_meters":38400,"station_id":"ce4bgg92rcd13ifvqb30","pricing_plan_id":"cebpf4jnsgd1na2vs0mg"},{"bike_id":"dc7fa527-4def-471c-bced-6291e149d306","system_id":"levelo_inurba_marseille","lat":43.27821,"lon":5.40715,"is_reserved":false,"is_disabled":true,"rental_uris":{"android":"levelo://app?vid=dc7fa527-4def-471c-bced-6291e149d306","ios":"levelo://app?vid=dc7fa527-4def-471c-bced-6291e149d306"},"vehicle_type_id":"4","last_reported":1732040007,"current_range_meters":400,"station_id":"ce4bhnh2rcd13ifvqgtg","pricing_plan_id":"cebpf4jnsgd1na2vs0mg"},{"bike_id":"fe466b38-f08e-4c08-bae1-f457152e4063","system_id":"levelo_inurba_marseille","lat":43.29423,"lon":5.38609,"is_reserved":false,"is_disabled":true,"rental_uris":{"android":"levelo://app?vid=fe466b38-f08e-4c08-bae1-f457152e4063","ios":"levelo://app?vid=fe466b38-f08e-4c08-bae1-f457152e4063"},"vehicle_type_id":"4","last_reported":1732040007,"current_range_meters":2800,"station_id":"ce4bh2h2rcd13ifvqdh0","pricing_plan_id":"cebpf4jnsgd1na2vs0mg"},{"bike_id":"d674a550-723f-4e20-a0c2-89aa344c2ade","system_id":"levelo_inurba_marseille","lat":43.28207,"lon":5.4438,"is_reserved":false,"is_disabled":true,"rental_uris":{"android":"levelo://app?vid=d674a550-723f-4e20-a0c2-89aa344c2ade","ios":"levelo://app?vid=d674a550-723f-4e20-a0c2-89aa344c2ade"},"vehicle_type_id":"4","last_reported":1732040007,"current_range_meters":800,"station_id":"","pricing_plan_id":"cebpf4jnsgd1na2vs0mg"},{"bike_id":"6e55fa94-0650-46dc-b3d6-7295a897b350","system_id":"levelo_inurba_marseille","lat":43.30814,"lon":5.38134,"is_reserved":false,"is_disabled":false,"rental_uris":{"android":"levelo://app?vid=6e55fa94-0650-46dc-b3d6-7295a897b350","ios":"levelo://app?vid=6e55fa94-0650-46dc-b3d6-7295a897b350"},"vehicle_type_id":"4","last_reported":1732040007,"current_range_meters":22000,"station_id":"ce4bgt12rcd13ifvqce0","pricing_plan_id":"cebpf4jnsgd1na2vs0mg"},{"bike_id":"5da9245e-c5dc-4fb9-938e-559a8fb10869","system_id":"levelo_inurba_marseille","lat":43.30467,"lon":5.37906,"is_reserved":false,"is_disabled":true,"rental_uris":{"android":"levelo://app?vid=5da9245e-c5dc-4fb9-938e-559a8fb10869","ios":"levelo://app?vid=5da9245e-c5dc-4fb9-938e-559a8fb10869"},"vehicle_type_id":"4","last_reported":1732040007,"current_range_meters":0,"station_id":"ce4bgup2rcd13ifvqcn0","pricing_plan_id":"cebpf4jnsgd1na2vs0mg"},{"bike_id":"73de2cc8-4db3-417a-9abb-3cffa18feca4","system_id":"levelo_inurba_marseille","lat":43.28419,"lon":5.37517,"is_reserved":false,"is_disabled":false,"rental_uris":{"android":"levelo://app?vid=73de2cc8-4db3-417a-9abb-3cffa18feca4","ios":"levelo://app?vid=73de2cc8-4db3-417a-9abb-3cffa18feca4"},"vehicle_type_id":"4","last_reported":1732040007,"current_range_meters":8800,"station_id":"ce4bh412rcd13ifvqds0","pricing_plan_id":"cebpf4jnsgd1na2vs0mg"},{"bike_id":"f5cf085e-8694-4c6f-ba9c-aa6e0d3c58c6","system_id":"levelo_inurba_marseille","lat":43.34614,"lon":5.35458,"is_reserved":false,"is_disabled":true,"rental_uris":{"android":"levelo://app?vid=f5cf085e-8694-4c6f-ba9c-aa6e0d3c58c6","ios":"levelo://app?vid=f5cf085e-8694-4c6f-ba9c-aa6e0d3c58c6"},"vehicle_type_id":"4","last_reported":1732040007,"current_range_meters":16800,"station_id":"","pricing_plan_id":"cebpf4jnsgd1na2vs0mg"},{"bike_id":"3d2beca7-eef0-4bae-98e1-8b3de347272c","system_id":"levelo_inurba_marseille","lat":43.23192,"lon":5.35556,"is_reserved":false,"is_disabled":true,"rental_uris":{"android":"levelo://app?vid=3d2beca7-eef0-4bae-98e1-8b3de347272c","ios":"levelo://app?vid=3d2beca7-eef0-4bae-98e1-8b3de347272c"},"vehicle_type_id":"4","last_reported":1732040007,"current_range_meters":0,"station_id":"ce4bhu92rcd13ifvqi70","pricing_plan_id":"cebpf4jnsgd1na2vs0mg"},{"bike_id":"7e91a984-1e17-4e55-b6f1-8c8832c3ffba","system_id":"levelo_inurba_marseille","lat":43.31884,"lon":5.40736,"is_reserved":false,"is_disabled":false,"rental_uris":{"android":"levelo://app?vid=7e91a984-1e17-4e55-b6f1-8c8832c3ffba","ios":"levelo://app?vid=7e91a984-1e17-4e55-b6f1-8c8832c3ffba"},"vehicle_type_id":"4","last_reported":1732040007,"current_range_meters":16000,"station_id":"ce4bhq12rcd13ifvqhig","pricing_plan_id":"cebpf4jnsgd1na2vs0mg"},{"bike_id":"30d059e4-e852-4431-8f1b-567978470ee4","system_id":"levelo_inurba_marseille","lat":43.29043,"lon":5.35907,"is_reserved":false,"is_disabled":false,"rental_uris":{"android":"levelo://app?vid=30d059e4-e852-4431-8f1b-567978470ee4","ios":"levelo://app?vid=30d059e4-e852-4431-8f1b-567978470ee4"},"vehicle_type_id":"4","last_reported":1732040007,"current_range_meters":28000,"station_id":"ce4bha92rcd13ifvqeg0","pricing_plan_id":"cebpf4jnsgd1na2vs0mg"},{"bike_id":"bd4a772f-74de-4528-ae45-171c28be203c","system_id":"levelo_inurba_marseille","lat":43.30426,"lon":5.4128,"is_reserved":false,"is_disabled":false,"rental_uris":{"android":"levelo://app?vid=bd4a772f-74de-4528-ae45-171c28be203c","ios":"levelo://app?vid=bd4a772f-74de-4528-ae45-171c28be203c"},"vehicle_type_id":"4","last_reported":1732040007,"current_range_meters":27200,"station_id":"ce4bhop2rcd13ifvqh8g","pricing_plan_id":"cebpf4jnsgd1na2vs0mg"},{"bike_id":"60b1c339-fd1c-4965-90dc-90e310c665f7","system_id":"levelo_inurba_marseille","lat":43.28717,"lon":5.37928,"is_reserved":false,"is_disabled":false,"rental_uris":{"android":"levelo://app?vid=60b1c339-fd1c-4965-90dc-90e310c665f7","ios":"levelo://app?vid=60b1c339-fd1c-4965-90dc-90e310c665f7"},"vehicle_type_id":"4","last_reported":1732040007,"current_range_meters":38800,"station_id":"ce4bh9p2rcd13ifvqec0","pricing_plan_id":"cebpf4jnsgd1na2vs0mg"},{"bike_id":"b6a04b1c-7b98-4f3d-a396-63442add7485","system_id":"levelo_inurba_marseille","lat":43.29802,"lon":5.40401,"is_reserved":false,"is_disabled":false,"rental_uris":{"android":"levelo://app?vid=b6a04b1c-7b98-4f3d-a396-63442add7485","ios":"levelo://app?vid=b6a04b1c-7b98-4f3d-a396-63442add7485"},"vehicle_type_id":"4","last_reported":1732040007,"current_range_meters":38800,"station_id":"ce4bh112rcd13ifvqd90","pricing_plan_id":"cebpf4jnsgd1na2vs0mg"},{"bike_id":"b025ac42-87a5-4dd9-9db1-d22342e3b716","system_id":"levelo_inurba_marseille","lat":43.30422,"lon":5.41275,"is_reserved":false,"is_disabled":false,"rental_uris":{"android":"levelo://app?vid=b025ac42-87a5-4dd9-9db1-d22342e3b716","ios":"levelo://app?vid=b025ac42-87a5-4dd9-9db1-d22342e3b716"},"vehicle_type_id":"4","last_reported":1732040007,"current_range_meters":12000,"station_id":"ce4bhop2rcd13ifvqh8g","pricing_plan_id":"cebpf4jnsgd1na2vs0mg"},{"bike_id":"fd0dcb29-5d6e-4eb5-ab09-4999cff9d7eb","system_id":"levelo_inurba_marseille","lat":43.28843,"lon":5.39306,"is_reserved":false,"is_disabled":false,"rental_uris":{"android":"levelo://app?vid=fd0dcb29-5d6e-4eb5-ab09-4999cff9d7eb","ios":"levelo://app?vid=fd0dcb29-5d6e-4eb5-ab09-4999cff9d7eb"},"vehicle_type_id":"4","last_reported":1732040007,"current_range_meters":26800,"station_id":"ce4bh2p2rcd13ifvqdi0","pricing_plan_id":"cebpf4jnsgd1na2vs0mg"},{"bike_id":"b50b8c1f-9262-4f89-852b-dba8f037d6c5","system_id":"levelo_inurba_marseille","lat":43.32665,"lon":5.40991,"is_reserved":false,"is_disabled":false,"rental_uris":{"android":"levelo://app?vid=b50b8c1f-9262-4f89-852b-dba8f037d6c5","ios":"levelo://app?vid=b50b8c1f-9262-4f89-852b-dba8f037d6c5"},"vehicle_type_id":"4","last_reported":1732040007,"current_range_meters":27600,"station_id":"ce4bhpp2rcd13ifvqhgg","pricing_plan_id":"cebpf4jnsgd1na2vs0mg"},{"bike_id":"21b3c4ac-7c5a-436a-bec1-d682e40ad2b2","system_id":"levelo_inurba_marseille","lat":43.28124,"lon":5.37842,"is_reserved":false,"is_disabled":false,"rental_uris":{"android":"levelo://app?vid=21b3c4ac-7c5a-436a-bec1-d682e40ad2b2","ios":"levelo://app?vid=21b3c4ac-7c5a-436a-bec1-d682e40ad2b2"},"vehicle_type_id":"4","last_reported":1732040007,"current_range_meters":28000,"station_id":"ce4bha12rcd13ifvqee0","pricing_plan_id":"cebpf4jnsgd1na2vs0mg"},{"bike_id":"1769703b-9903-454d-ac38-a754f724b036","system_id":"levelo_inurba_marseille","lat":43.25584,"lon":5.38228,"is_reserved":false,"is_disabled":true,"rental_uris":{"android":"levelo://app?vid=1769703b-9903-454d-ac38-a754f724b036","ios":"levelo://app?vid=1769703b-9903-454d-ac38-a754f724b036"},"vehicle_type_id":"4","last_reported":1732040007,"current_range_meters":0,"station_id":"ce4bhih2rcd13ifvqfs0","pricing_plan_id":"cebpf4jnsgd1na2vs0mg"},{"bike_id":"bc249293-6395-4334-b84a-652f70f197fc","system_id":"levelo_inurba_marseille","lat":43.2763,"lon":5.42656,"is_reserved":false,"is_disabled":true,"rental_uris":{"android":"levelo://app?vid=bc249293-6395-4334-b84a-652f70f197fc","ios":"levelo://app?vid=bc249293-6395-4334-b84a-652f70f197fc"},"vehicle_type_id":"4","last_reported":1732040007,"current_range_meters":0,"station_id":"","pricing_plan_id":"cebpf4jnsgd1na2vs0mg"},{"bike_id":"99c01702-242f-4981-b834-7f6d8c15299b","system_id":"levelo_inurba_marseille","lat":43.29262,"lon":5.38442,"is_reserved":false,"is_disabled":false,"rental_uris":{"android":"levelo://app?vid=99c01702-242f-4981-b834-7f6d8c15299b","ios":"levelo://app?vid=99c01702-242f-4981-b834-7f6d8c15299b"},"vehicle_type_id":"4","last_reported":1732040007,"current_range_meters":24400,"station_id":"ce4bh692rcd13ifvqea0","pricing_plan_id":"cebpf4jnsgd1na2vs0mg"},{"bike_id":"be1dd5f8-91fc-4786-8461-76cd869dae13","system_id":"levelo_inurba_marseille","lat":43.31982,"lon":5.41584,"is_reserved":false,"is_disabled":true,"rental_uris":{"android":"levelo://app?vid=be1dd5f8-91fc-4786-8461-76cd869dae13","ios":"levelo://app?vid=be1dd5f8-91fc-4786-8461-76cd869dae13"},"vehicle_type_id":"4","last_reported":1732040007,"current_range_meters":25200,"station_id":"","pricing_plan_id":"cebpf4jnsgd1na2vs0mg"},{"bike_id":"4135cabc-55a1-42b5-b651-006ecfbbc797","system_id":"levelo_inurba_marseille","lat":43.28668,"lon":5.36344,"is_reserved":false,"is_disabled":false,"rental_uris":{"android":"levelo://app?vid=4135cabc-55a1-42b5-b651-006ecfbbc797","ios":"levelo://app?vid=4135cabc-55a1-42b5-b651-006ecfbbc797"},"vehicle_type_id":"4","last_reported":1732040007,"current_range_meters":38800,"station_id":"ce4bhah2rcd13ifvqej0","pricing_plan_id":"cebpf4jnsgd1na2vs0mg"},{"bike_id":"b2fd8faf-d8de-465a-828e-5c6dc8dcbed5","system_id":"levelo_inurba_marseille","lat":43.29257,"lon":5.38433,"is_reserved":false,"is_disabled":false,"rental_uris":{"android":"levelo://app?vid=b2fd8faf-d8de-465a-828e-5c6dc8dcbed5","ios":"levelo://app?vid=b2fd8faf-d8de-465a-828e-5c6dc8dcbed5"},"vehicle_type_id":"4","last_reported":1732040007,"current_range_meters":25600,"station_id":"ce4bh692rcd13ifvqea0","pricing_plan_id":"cebpf4jnsgd1na2vs0mg"},{"bike_id":"3d506a14-01d8-4d60-beee-0e92a38005f7","system_id":"levelo_inurba_marseille","lat":43.30909,"lon":5.36849,"is_reserved":false,"is_disabled":false,"rental_uris":{"android":"levelo://app?vid=3d506a14-01d8-4d60-beee-0e92a38005f7","ios":"levelo://app?vid=3d506a14-01d8-4d60-beee-0e92a38005f7"},"vehicle_type_id":"4","last_reported":1732040007,"current_range_meters":28400,"station_id":"ce4bgn92rcd13ifvqbvg","pricing_plan_id":"cebpf4jnsgd1na2vs0mg"},{"bike_id":"e66b3893-e484-4770-b68a-af41eaf5f646","system_id":"levelo_inurba_marseille","lat":43.29276,"lon":5.40131,"is_reserved":false,"is_disabled":false,"rental_uris":{"android":"levelo://app?vid=e66b3893-e484-4770-b68a-af41eaf5f646","ios":"levelo://app?vid=e66b3893-e484-4770-b68a-af41eaf5f646"},"vehicle_type_id":"4","last_reported":1732040007,"current_range_meters":32400,"station_id":"ce4bh312rcd13ifvqdk0","pricing_plan_id":"cebpf4jnsgd1na2vs0mg"},{"bike_id":"80ed2145-0455-4da8-ae4a-e36065982ce3","system_id":"levelo_inurba_marseille","lat":43.32367,"lon":5.38886,"is_reserved":false,"is_disabled":false,"rental_uris":{"android":"levelo://app?vid=80ed2145-0455-4da8-ae4a-e36065982ce3","ios":"levelo://app?vid=80ed2145-0455-4da8-ae4a-e36065982ce3"},"vehicle_type_id":"4","last_reported":1732040007,"current_range_meters":11600,"station_id":"ce4bhqp2rcd13ifvqhog","pricing_plan_id":"cebpf4jnsgd1na2vs0mg"},{"bike_id":"f198b97b-88d4-49aa-b205-4610520421a6","system_id":"levelo_inurba_marseille","lat":43.33022,"lon":5.39037,"is_reserved":false,"is_disabled":false,"rental_uris":{"android":"levelo://app?vid=f198b97b-88d4-49aa-b205-4610520421a6","ios":"levelo://app?vid=f198b97b-88d4-49aa-b205-4610520421a6"},"vehicle_type_id":"4","last_reported":1732040007,"current_range_meters":33200,"station_id":"ce4bhr92rcd13ifvqhrg","pricing_plan_id":"cebpf4jnsgd1na2vs0mg"},{"bike_id":"6fe65320-959e-41bb-8132-72e6c31cb31d","system_id":"levelo_inurba_marseille","lat":43.28081,"lon":5.39652,"is_reserved":false,"is_disabled":true,"rental_uris":{"android":"levelo://app?vid=6fe65320-959e-41bb-8132-72e6c31cb31d","ios":"levelo://app?vid=6fe65320-959e-41bb-8132-72e6c31cb31d"},"vehicle_type_id":"4","last_reported":1732040007,"current_range_meters":38800,"station_id":"ce4bho12rcd13ifvqh2g","pricing_plan_id":"cebpf4jnsgd1na2vs0mg"},{"bike_id":"abf2e417-7fd0-4f5e-9afa-64af93f85e22","system_id":"levelo_inurba_marseille","lat":43.31993,"lon":5.38146,"is_reserved":false,"is_disabled":false,"rental_uris":{"android":"levelo://app?vid=abf2e417-7fd0-4f5e-9afa-64af93f85e22","ios":"levelo://app?vid=abf2e417-7fd0-4f5e-9afa-64af93f85e22"},"vehicle_type_id":"4","last_reported":1732040007,"current_range_meters":35200,"station_id":"ce4bhr12rcd13ifvqhpg","pricing_plan_id":"cebpf4jnsgd1na2vs0mg"},{"bike_id":"e7f24bf0-eae1-41a8-93bb-91453789a04a","system_id":"levelo_inurba_marseille","lat":43.28455,"lon":5.35881,"is_reserved":false,"is_disabled":false,"rental_uris":{"android":"levelo://app?vid=e7f24bf0-eae1-41a8-93bb-91453789a04a","ios":"levelo://app?vid=e7f24bf0-eae1-41a8-93bb-91453789a04a"},"vehicle_type_id":"4","last_reported":1732040007,"current_range_meters":15200,"station_id":"ce4bhah2rcd13ifvqei0","pricing_plan_id":"cebpf4jnsgd1na2vs0mg"},{"bike_id":"0cdb8512-6540-4117-8917-ed82390a8a1b","system_id":"levelo_inurba_marseille","lat":43.29079,"lon":5.37206,"is_reserved":false,"is_disabled":true,"rental_uris":{"android":"levelo://app?vid=0cdb8512-6540-4117-8917-ed82390a8a1b","ios":"levelo://app?vid=0cdb8512-6540-4117-8917-ed82390a8a1b"},"vehicle_type_id":"4","last_reported":1732040007,"current_range_meters":0,"station_id":"ce4bh692rcd13ifvqe90","pricing_plan_id":"cebpf4jnsgd1na2vs0mg"},{"bike_id":"5fe20d58-65ac-4c8a-b149-a2e6de20044d","system_id":"levelo_inurba_marseille","lat":43.2937,"lon":5.37867,"is_reserved":false,"is_disabled":true,"rental_uris":{"android":"levelo://app?vid=5fe20d58-65ac-4c8a-b149-a2e6de20044d","ios":"levelo://app?vid=5fe20d58-65ac-4c8a-b149-a2e6de20044d"},"vehicle_type_id":"4","last_reported":1732040007,"current_range_meters":31200,"station_id":"ce4bgjh2rcd13ifvqbf0","pricing_plan_id":"cebpf4jnsgd1na2vs0mg"},{"bike_id":"f26b0fba-1797-4283-965c-0f6bb262c548","system_id":"levelo_inurba_marseille","lat":43.29583,"lon":5.37513,"is_reserved":false,"is_disabled":true,"rental_uris":{"android":"levelo://app?vid=f26b0fba-1797-4283-965c-0f6bb262c548","ios":"levelo://app?vid=f26b0fba-1797-4283-965c-0f6bb262c548"},"vehicle_type_id":"4","last_reported":1732040007,"current_range_meters":0,"station_id":"ce4bgh92rcd13ifvqb50","pricing_plan_id":"cebpf4jnsgd1na2vs0mg"},{"bike_id":"1ff8d342-969b-4f99-8acc-2de2d4695842","system_id":"levelo_inurba_marseille","lat":43.29559,"lon":5.42272,"is_reserved":false,"is_disabled":false,"rental_uris":{"android":"levelo://app?vid=1ff8d342-969b-4f99-8acc-2de2d4695842","ios":"levelo://app?vid=1ff8d342-969b-4f99-8acc-2de2d4695842"},"vehicle_type_id":"4","last_reported":1732040007,"current_range_meters":25200,"station_id":"ce4bhph2rcd13ifvqhdg","pricing_plan_id":"cebpf4jnsgd1na2vs0mg"},{"bike_id":"2b891c5b-63d3-46d5-b15a-a179dad84936","system_id":"levelo_inurba_marseille","lat":43.24549,"lon":5.39525,"is_reserved":false,"is_disabled":true,"rental_uris":{"android":"levelo://app?vid=2b891c5b-63d3-46d5-b15a-a179dad84936","ios":"levelo://app?vid=2b891c5b-63d3-46d5-b15a-a179dad84936"},"vehicle_type_id":"4","last_reported":1732040007,"current_range_meters":0,"station_id":"ce4bhlp2rcd13ifvqgjg","pricing_plan_id":"cebpf4jnsgd1na2vs0mg"},{"bike_id":"47f9a1e8-ec9f-4aa6-b350-19dd3c8a6b95","system_id":"levelo_inurba_marseille","lat":43.28678,"lon":5.38663,"is_reserved":false,"is_disabled":false,"rental_uris":{"android":"levelo://app?vid=47f9a1e8-ec9f-4aa6-b350-19dd3c8a6b95","ios":"levelo://app?vid=47f9a1e8-ec9f-4aa6-b350-19dd3c8a6b95"},"vehicle_type_id":"4","last_reported":1732040007,"current_range_meters":38800,"station_id":"ce4bh492rcd13ifvqdug","pricing_plan_id":"cebpf4jnsgd1na2vs0mg"},{"bike_id":"998f9107-227e-4af7-b8a7-b3d44f83d0f9","system_id":"levelo_inurba_marseille","lat":43.29708,"lon":5.36586,"is_reserved":false,"is_disabled":true,"rental_uris":{"android":"levelo://app?vid=998f9107-227e-4af7-b8a7-b3d44f83d0f9","ios":"levelo://app?vid=998f9107-227e-4af7-b8a7-b3d44f83d0f9"},"vehicle_type_id":"4","last_reported":1732040007,"current_range_meters":1200,"station_id":"ce4bgn12rcd13ifvqbt0","pricing_plan_id":"cebpf4jnsgd1na2vs0mg"},{"bike_id":"e9741062-77ad-4426-a4b7-85e55a1a1a4d","system_id":"levelo_inurba_marseille","lat":43.28947,"lon":5.36622,"is_reserved":false,"is_disabled":true,"rental_uris":{"android":"levelo://app?vid=e9741062-77ad-4426-a4b7-85e55a1a1a4d","ios":"levelo://app?vid=e9741062-77ad-4426-a4b7-85e55a1a1a4d"},"vehicle_type_id":"4","last_reported":1732040007,"current_range_meters":1200,"station_id":"ce4bhap2rcd13ifvqek0","pricing_plan_id":"cebpf4jnsgd1na2vs0mg"},{"bike_id":"24b2c3eb-8b9b-40a7-8aad-177c7a5a5f47","system_id":"levelo_inurba_marseille","lat":43.26939,"lon":5.38919,"is_reserved":false,"is_disabled":true,"rental_uris":{"android":"levelo://app?vid=24b2c3eb-8b9b-40a7-8aad-177c7a5a5f47","ios":"levelo://app?vid=24b2c3eb-8b9b-40a7-8aad-177c7a5a5f47"},"vehicle_type_id":"4","last_reported":1732040007,"current_range_meters":0,"station_id":"ce4bhhh2rcd13ifvqfl0","pricing_plan_id":"cebpf4jnsgd1na2vs0mg"},{"bike_id":"086fcbc2-fdab-406c-8a6c-dd3927463377","system_id":"levelo_inurba_marseille","lat":43.28724,"lon":5.36081,"is_reserved":false,"is_disabled":false,"rental_uris":{"android":"levelo://app?vid=086fcbc2-fdab-406c-8a6c-dd3927463377","ios":"levelo://app?vid=086fcbc2-fdab-406c-8a6c-dd3927463377"},"vehicle_type_id":"4","last_reported":1732040007,"current_range_meters":18800,"station_id":"cki0cbj6b192h4jlfktg","pricing_plan_id":"cebpf4jnsgd1na2vs0mg"},{"bike_id":"0c21866d-64a6-48bd-84ec-2cdb016bb953","system_id":"levelo_inurba_marseille","lat":43.24394,"lon":5.37064,"is_reserved":false,"is_disabled":true,"rental_uris":{"android":"levelo://app?vid=0c21866d-64a6-48bd-84ec-2cdb016bb953","ios":"levelo://app?vid=0c21866d-64a6-48bd-84ec-2cdb016bb953"},"vehicle_type_id":"4","last_reported":1732040007,"current_range_meters":0,"station_id":"ce4bhhh2rcd13ifvqfk0","pricing_plan_id":"cebpf4jnsgd1na2vs0mg"},{"bike_id":"a78bc1fa-f508-4cab-a5e8-89111600fa30","system_id":"levelo_inurba_marseille","lat":43.34144,"lon":5.40906,"is_reserved":false,"is_disabled":false,"rental_uris":{"android":"levelo://app?vid=a78bc1fa-f508-4cab-a5e8-89111600fa30","ios":"levelo://app?vid=a78bc1fa-f508-4cab-a5e8-89111600fa30"},"vehicle_type_id":"4","last_reported":1732040007,"current_range_meters":12000,"station_id":"ce4bhqh2rcd13ifvqhlg","pricing_plan_id":"cebpf4jnsgd1na2vs0mg"},{"bike_id":"9b4d52a8-a22b-418c-a556-65afaca3a235","system_id":"levelo_inurba_marseille","lat":43.33769,"lon":5.3745,"is_reserved":false,"is_disabled":false,"rental_uris":{"android":"levelo://app?vid=9b4d52a8-a22b-418c-a556-65afaca3a235","ios":"levelo://app?vid=9b4d52a8-a22b-418c-a556-65afaca3a235"},"vehicle_type_id":"4","last_reported":1732040007,"current_range_meters":21600,"station_id":"","pricing_plan_id":"cebpf4jnsgd1na2vs0mg"},{"bike_id":"1891ccd6-df66-4d14-b8ae-38e9bc6fac1b","system_id":"levelo_inurba_marseille","lat":43.31354,"lon":5.38491,"is_reserved":false,"is_disabled":false,"rental_uris":{"android":"levelo://app?vid=1891ccd6-df66-4d14-b8ae-38e9bc6fac1b","ios":"levelo://app?vid=1891ccd6-df66-4d14-b8ae-38e9bc6fac1b"},"vehicle_type_id":"4","last_reported":1732040007,"current_range_meters":35600,"station_id":"ce4bgt92rcd13ifvqcf0","pricing_plan_id":"cebpf4jnsgd1na2vs0mg"},{"bike_id":"a12d6d5f-0f23-4ede-a12b-384b4925b55d","system_id":"levelo_inurba_marseille","lat":43.28406,"lon":5.37506,"is_reserved":false,"is_disabled":false,"rental_uris":{"android":"levelo://app?vid=a12d6d5f-0f23-4ede-a12b-384b4925b55d","ios":"levelo://app?vid=a12d6d5f-0f23-4ede-a12b-384b4925b55d"},"vehicle_type_id":"4","last_reported":1732040007,"current_range_meters":38800,"station_id":"ce4bh412rcd13ifvqds0","pricing_plan_id":"cebpf4jnsgd1na2vs0mg"},{"bike_id":"5c215695-7517-4c59-b4ed-3d09ca94c869","system_id":"levelo_inurba_marseille","lat":43.24803,"lon":5.3745,"is_reserved":false,"is_disabled":true,"rental_uris":{"android":"levelo://app?vid=5c215695-7517-4c59-b4ed-3d09ca94c869","ios":"levelo://app?vid=5c215695-7517-4c59-b4ed-3d09ca94c869"},"vehicle_type_id":"4","last_reported":1732040007,"current_range_meters":0,"station_id":"ce4bhgh2rcd13ifvqfb0","pricing_plan_id":"cebpf4jnsgd1na2vs0mg"},{"bike_id":"e74e8692-56b5-455e-b107-3674a73c30f0","system_id":"levelo_inurba_marseille","lat":43.29278,"lon":5.36846,"is_reserved":false,"is_disabled":true,"rental_uris":{"android":"levelo://app?vid=e74e8692-56b5-455e-b107-3674a73c30f0","ios":"levelo://app?vid=e74e8692-56b5-455e-b107-3674a73c30f0"},"vehicle_type_id":"4","last_reported":1732040007,"current_range_meters":3600,"station_id":"ce4bhbp2rcd13ifvqesg","pricing_plan_id":"cebpf4jnsgd1na2vs0mg"},{"bike_id":"b8e0ff19-cfbf-49c3-a9f8-f8dcefd4b613","system_id":"levelo_inurba_marseille","lat":43.27674,"lon":5.38905,"is_reserved":false,"is_disabled":true,"rental_uris":{"android":"levelo://app?vid=b8e0ff19-cfbf-49c3-a9f8-f8dcefd4b613","ios":"levelo://app?vid=b8e0ff19-cfbf-49c3-a9f8-f8dcefd4b613"},"vehicle_type_id":"4","last_reported":1732040007,"current_range_meters":36800,"station_id":"ce4bhi12rcd13ifvqfo0","pricing_plan_id":"cebpf4jnsgd1na2vs0mg"},{"bike_id":"eaa42bfa-9e14-44cc-8771-e7142d3132b3","system_id":"levelo_inurba_marseille","lat":43.30799,"lon":5.43532,"is_reserved":false,"is_disabled":false,"rental_uris":{"android":"levelo://app?vid=eaa42bfa-9e14-44cc-8771-e7142d3132b3","ios":"levelo://app?vid=eaa42bfa-9e14-44cc-8771-e7142d3132b3"},"vehicle_type_id":"4","last_reported":1732040007,"current_range_meters":21600,"station_id":"ce4bhph2rcd13ifvqheg","pricing_plan_id":"cebpf4jnsgd1na2vs0mg"},{"bike_id":"37b24709-6d24-4a8a-9042-df6c7ed8be72","system_id":"levelo_inurba_marseille","lat":43.2936,"lon":5.37845,"is_reserved":false,"is_disabled":false,"rental_uris":{"android":"levelo://app?vid=37b24709-6d24-4a8a-9042-df6c7ed8be72","ios":"levelo://app?vid=37b24709-6d24-4a8a-9042-df6c7ed8be72"},"vehicle_type_id":"4","last_reported":1732040007,"current_range_meters":14800,"station_id":"ce4bgjh2rcd13ifvqbf0","pricing_plan_id":"cebpf4jnsgd1na2vs0mg"},{"bike_id":"1462f68e-113f-431d-9d5b-f4d7f987f2b8","system_id":"levelo_inurba_marseille","lat":43.28488,"lon":5.38424,"is_reserved":false,"is_disabled":true,"rental_uris":{"android":"levelo://app?vid=1462f68e-113f-431d-9d5b-f4d7f987f2b8","ios":"levelo://app?vid=1462f68e-113f-431d-9d5b-f4d7f987f2b8"},"vehicle_type_id":"4","last_reported":1732040007,"current_range_meters":12800,"station_id":"ce4bh512rcd13ifvqe3g","pricing_plan_id":"cebpf4jnsgd1na2vs0mg"},{"bike_id":"d8ce9c91-d4a5-4416-bd09-67594cf7e7ae","system_id":"levelo_inurba_marseille","lat":43.27943,"lon":5.41041,"is_reserved":false,"is_disabled":false,"rental_uris":{"android":"levelo://app?vid=d8ce9c91-d4a5-4416-bd09-67594cf7e7ae","ios":"levelo://app?vid=d8ce9c91-d4a5-4416-bd09-67594cf7e7ae"},"vehicle_type_id":"4","last_reported":1732040007,"current_range_meters":9600,"station_id":"ce4bhnp2rcd13ifvqh0g","pricing_plan_id":"cebpf4jnsgd1na2vs0mg"},{"bike_id":"0b733133-03c9-4766-961e-92b775b50bbc","system_id":"levelo_inurba_marseille","lat":43.28193,"lon":5.44272,"is_reserved":false,"is_disabled":true,"rental_uris":{"android":"levelo://app?vid=0b733133-03c9-4766-961e-92b775b50bbc","ios":"levelo://app?vid=0b733133-03c9-4766-961e-92b775b50bbc"},"vehicle_type_id":"4","last_reported":1732040007,"current_range_meters":0,"station_id":"","pricing_plan_id":"cebpf4jnsgd1na2vs0mg"},{"bike_id":"87f72484-0dd8-4a5a-8b7f-bb079e67d618","system_id":"levelo_inurba_marseille","lat":43.29586,"lon":5.3675,"is_reserved":false,"is_disabled":false,"rental_uris":{"android":"levelo://app?vid=87f72484-0dd8-4a5a-8b7f-bb079e67d618","ios":"levelo://app?vid=87f72484-0dd8-4a5a-8b7f-bb079e67d618"},"vehicle_type_id":"4","last_reported":1732040007,"current_range_meters":27600,"station_id":"ce4bgph2rcd13ifvqc2g","pricing_plan_id":"cebpf4jnsgd1na2vs0mg"},{"bike_id":"d5d0953f-aaa7-48f1-9236-5696dd0b1d26","system_id":"levelo_inurba_marseille","lat":43.31493,"lon":5.37309,"is_reserved":false,"is_disabled":false,"rental_uris":{"android":"levelo://app?vid=d5d0953f-aaa7-48f1-9236-5696dd0b1d26","ios":"levelo://app?vid=d5d0953f-aaa7-48f1-9236-5696dd0b1d26"},"vehicle_type_id":"4","last_reported":1732040007,"current_range_meters":19600,"station_id":"ce4bgt12rcd13ifvqcd0","pricing_plan_id":"cebpf4jnsgd1na2vs0mg"},{"bike_id":"7d02f161-c4ab-430d-be6a-e052ba68aacf","system_id":"levelo_inurba_marseille","lat":43.3097,"lon":5.3903,"is_reserved":false,"is_disabled":true,"rental_uris":{"android":"levelo://app?vid=7d02f161-c4ab-430d-be6a-e052ba68aacf","ios":"levelo://app?vid=7d02f161-c4ab-430d-be6a-e052ba68aacf"},"vehicle_type_id":"4","last_reported":1732040007,"current_range_meters":10000,"station_id":"ce4bgup2rcd13ifvqco0","pricing_plan_id":"cebpf4jnsgd1na2vs0mg"},{"bike_id":"18bae530-aaa2-4974-b894-9ca6e4e90971","system_id":"levelo_inurba_marseille","lat":43.30422,"lon":5.39746,"is_reserved":false,"is_disabled":false,"rental_uris":{"android":"levelo://app?vid=18bae530-aaa2-4974-b894-9ca6e4e90971","ios":"levelo://app?vid=18bae530-aaa2-4974-b894-9ca6e4e90971"},"vehicle_type_id":"4","last_reported":1732040007,"current_range_meters":37600,"station_id":"ce4bh092rcd13ifvqd20","pricing_plan_id":"cebpf4jnsgd1na2vs0mg"},{"bike_id":"e65461e3-d425-4dee-a20c-933c7023442e","system_id":"levelo_inurba_marseille","lat":43.30256,"lon":5.40069,"is_reserved":false,"is_disabled":true,"rental_uris":{"android":"levelo://app?vid=e65461e3-d425-4dee-a20c-933c7023442e","ios":"levelo://app?vid=e65461e3-d425-4dee-a20c-933c7023442e"},"vehicle_type_id":"4","last_reported":1732040007,"current_range_meters":37600,"station_id":"ce4bgvh2rcd13ifvqcs0","pricing_plan_id":"cebpf4jnsgd1na2vs0mg"},{"bike_id":"3e12f580-f958-4a94-b9c3-0bd0b35a80fc","system_id":"levelo_inurba_marseille","lat":43.29438,"lon":5.39751,"is_reserved":false,"is_disabled":false,"rental_uris":{"android":"levelo://app?vid=3e12f580-f958-4a94-b9c3-0bd0b35a80fc","ios":"levelo://app?vid=3e12f580-f958-4a94-b9c3-0bd0b35a80fc"},"vehicle_type_id":"4","last_reported":1732040007,"current_range_meters":26000,"station_id":"ce4bh3h2rcd13ifvqdo0","pricing_plan_id":"cebpf4jnsgd1na2vs0mg"},{"bike_id":"333d61dc-cfcb-4a1d-b326-912ac72eabfe","system_id":"levelo_inurba_marseille","lat":43.31187,"lon":5.38718,"is_reserved":false,"is_disabled":false,"rental_uris":{"android":"levelo://app?vid=333d61dc-cfcb-4a1d-b326-912ac72eabfe","ios":"levelo://app?vid=333d61dc-cfcb-4a1d-b326-912ac72eabfe"},"vehicle_type_id":"4","last_reported":1732040007,"current_range_meters":32400,"station_id":"ce4bgv12rcd13ifvqcp0","pricing_plan_id":"cebpf4jnsgd1na2vs0mg"},{"bike_id":"00394e63-2b07-4196-9161-5e50cd5a3404","system_id":"levelo_inurba_marseille","lat":43.28416,"lon":5.37512,"is_reserved":false,"is_disabled":false,"rental_uris":{"android":"levelo://app?vid=00394e63-2b07-4196-9161-5e50cd5a3404","ios":"levelo://app?vid=00394e63-2b07-4196-9161-5e50cd5a3404"},"vehicle_type_id":"4","last_reported":1732040007,"current_range_meters":9600,"station_id":"ce4bh412rcd13ifvqds0","pricing_plan_id":"cebpf4jnsgd1na2vs0mg"},{"bike_id":"3d7b9976-e0e6-48f3-ac42-578ef9513901","system_id":"levelo_inurba_marseille","lat":43.27998,"lon":5.40028,"is_reserved":false,"is_disabled":false,"rental_uris":{"android":"levelo://app?vid=3d7b9976-e0e6-48f3-ac42-578ef9513901","ios":"levelo://app?vid=3d7b9976-e0e6-48f3-ac42-578ef9513901"},"vehicle_type_id":"4","last_reported":1732040007,"current_range_meters":29600,"station_id":"ce4bho92rcd13ifvqh4g","pricing_plan_id":"cebpf4jnsgd1na2vs0mg"},{"bike_id":"894d1fa3-4046-45d6-bab2-de26487a6c66","system_id":"levelo_inurba_marseille","lat":43.31078,"lon":5.42434,"is_reserved":false,"is_disabled":false,"rental_uris":{"android":"levelo://app?vid=894d1fa3-4046-45d6-bab2-de26487a6c66","ios":"levelo://app?vid=894d1fa3-4046-45d6-bab2-de26487a6c66"},"vehicle_type_id":"4","last_reported":1732040007,"current_range_meters":17200,"station_id":"ce4bhp92rcd13ifvqhag","pricing_plan_id":"cebpf4jnsgd1na2vs0mg"},{"bike_id":"e66bd9f6-4c69-423d-9872-ec69ed3c8fb2","system_id":"levelo_inurba_marseille","lat":43.28458,"lon":5.35889,"is_reserved":false,"is_disabled":false,"rental_uris":{"android":"levelo://app?vid=e66bd9f6-4c69-423d-9872-ec69ed3c8fb2","ios":"levelo://app?vid=e66bd9f6-4c69-423d-9872-ec69ed3c8fb2"},"vehicle_type_id":"4","last_reported":1732040007,"current_range_meters":10000,"station_id":"ce4bhah2rcd13ifvqei0","pricing_plan_id":"cebpf4jnsgd1na2vs0mg"},{"bike_id":"3e6a4ee6-93f5-4722-b2b5-2092fb5a123c","system_id":"levelo_inurba_marseille","lat":43.25005,"lon":5.38919,"is_reserved":false,"is_disabled":false,"rental_uris":{"android":"levelo://app?vid=3e6a4ee6-93f5-4722-b2b5-2092fb5a123c","ios":"levelo://app?vid=3e6a4ee6-93f5-4722-b2b5-2092fb5a123c"},"vehicle_type_id":"4","last_reported":1732040007,"current_range_meters":26800,"station_id":"ce4bhgp2rcd13ifvqfd0","pricing_plan_id":"cebpf4jnsgd1na2vs0mg"},{"bike_id":"6ac38c08-263b-4dbc-9230-678d7993bb91","system_id":"levelo_inurba_marseille","lat":43.29317,"lon":5.37187,"is_reserved":false,"is_disabled":true,"rental_uris":{"android":"levelo://app?vid=6ac38c08-263b-4dbc-9230-678d7993bb91","ios":"levelo://app?vid=6ac38c08-263b-4dbc-9230-678d7993bb91"},"vehicle_type_id":"4","last_reported":1732040007,"current_range_meters":28000,"station_id":"ce4bgh92rcd13ifvqb40","pricing_plan_id":"cebpf4jnsgd1na2vs0mg"},{"bike_id":"c5ebf6b2-bb19-4342-9cbf-2499dc2fe9e7","system_id":"levelo_inurba_marseille","lat":43.29445,"lon":5.39758,"is_reserved":false,"is_disabled":false,"rental_uris":{"android":"levelo://app?vid=c5ebf6b2-bb19-4342-9cbf-2499dc2fe9e7","ios":"levelo://app?vid=c5ebf6b2-bb19-4342-9cbf-2499dc2fe9e7"},"vehicle_type_id":"4","last_reported":1732040007,"current_range_meters":38800,"station_id":"ce4bh3h2rcd13ifvqdo0","pricing_plan_id":"cebpf4jnsgd1na2vs0mg"},{"bike_id":"9f3572b0-c0a7-43aa-8c1e-c100148af63b","system_id":"levelo_inurba_marseille","lat":43.29189,"lon":5.35798,"is_reserved":false,"is_disabled":true,"rental_uris":{"android":"levelo://app?vid=9f3572b0-c0a7-43aa-8c1e-c100148af63b","ios":"levelo://app?vid=9f3572b0-c0a7-43aa-8c1e-c100148af63b"},"vehicle_type_id":"4","last_reported":1732040007,"current_range_meters":38800,"station_id":"ce4bhb12rcd13ifvqel0","pricing_plan_id":"cebpf4jnsgd1na2vs0mg"},{"bike_id":"954054ad-77ac-46c3-a1b5-c8fc266a522b","system_id":"levelo_inurba_marseille","lat":43.31725,"lon":5.42397,"is_reserved":false,"is_disabled":false,"rental_uris":{"android":"levelo://app?vid=954054ad-77ac-46c3-a1b5-c8fc266a522b","ios":"levelo://app?vid=954054ad-77ac-46c3-a1b5-c8fc266a522b"},"vehicle_type_id":"4","last_reported":1732040007,"current_range_meters":39200,"station_id":"ce4bhp92rcd13ifvqhbg","pricing_plan_id":"cebpf4jnsgd1na2vs0mg"},{"bike_id":"b94b3063-babf-49c9-b320-48352507c0ca","system_id":"levelo_inurba_marseille","lat":43.29309,"lon":5.37165,"is_reserved":false,"is_disabled":false,"rental_uris":{"android":"levelo://app?vid=b94b3063-babf-49c9-b320-48352507c0ca","ios":"levelo://app?vid=b94b3063-babf-49c9-b320-48352507c0ca"},"vehicle_type_id":"4","last_reported":1732040007,"current_range_meters":9200,"station_id":"ce4bgh92rcd13ifvqb40","pricing_plan_id":"cebpf4jnsgd1na2vs0mg"},{"bike_id":"a068dc40-1862-43fc-975c-c8329fcb1c80","system_id":"levelo_inurba_marseille","lat":43.27325,"lon":5.39103,"is_reserved":false,"is_disabled":true,"rental_uris":{"android":"levelo://app?vid=a068dc40-1862-43fc-975c-c8329fcb1c80","ios":"levelo://app?vid=a068dc40-1862-43fc-975c-c8329fcb1c80"},"vehicle_type_id":"4","last_reported":1732040007,"current_range_meters":400,"station_id":"ce4bhgp2rcd13ifvqfe0","pricing_plan_id":"cebpf4jnsgd1na2vs0mg"},{"bike_id":"9c4a655e-2680-4a60-a844-6a2ea62fb4b1","system_id":"levelo_inurba_marseille","lat":43.26063,"lon":5.39394,"is_reserved":false,"is_disabled":true,"rental_uris":{"android":"levelo://app?vid=9c4a655e-2680-4a60-a844-6a2ea62fb4b1","ios":"levelo://app?vid=9c4a655e-2680-4a60-a844-6a2ea62fb4b1"},"vehicle_type_id":"4","last_reported":1732040007,"current_range_meters":28000,"station_id":"ce4bhh92rcd13ifvqfj0","pricing_plan_id":"cebpf4jnsgd1na2vs0mg"},{"bike_id":"2d983866-913c-4390-ae48-1873d10c9730","system_id":"levelo_inurba_marseille","lat":43.24813,"lon":5.37458,"is_reserved":false,"is_disabled":true,"rental_uris":{"android":"levelo://app?vid=2d983866-913c-4390-ae48-1873d10c9730","ios":"levelo://app?vid=2d983866-913c-4390-ae48-1873d10c9730"},"vehicle_type_id":"4","last_reported":1732040007,"current_range_meters":14400,"station_id":"ce4bhgh2rcd13ifvqfb0","pricing_plan_id":"cebpf4jnsgd1na2vs0mg"},{"bike_id":"e0f2d464-e856-4a2b-b26c-1674907834d7","system_id":"levelo_inurba_marseille","lat":43.29314,"lon":5.37175,"is_reserved":false,"is_disabled":true,"rental_uris":{"android":"levelo://app?vid=e0f2d464-e856-4a2b-b26c-1674907834d7","ios":"levelo://app?vid=e0f2d464-e856-4a2b-b26c-1674907834d7"},"vehicle_type_id":"4","last_reported":1732040007,"current_range_meters":38800,"station_id":"ce4bgh92rcd13ifvqb40","pricing_plan_id":"cebpf4jnsgd1na2vs0mg"},{"bike_id":"ada08269-fd0c-4046-bf21-25ab1000c736","system_id":"levelo_inurba_marseille","lat":43.31521,"lon":5.38036,"is_reserved":false,"is_disabled":false,"rental_uris":{"android":"levelo://app?vid=ada08269-fd0c-4046-bf21-25ab1000c736","ios":"levelo://app?vid=ada08269-fd0c-4046-bf21-25ab1000c736"},"vehicle_type_id":"4","last_reported":1732040007,"current_range_meters":14400,"station_id":"ce4bhsp2rcd13ifvqi50","pricing_plan_id":"cebpf4jnsgd1na2vs0mg"},{"bike_id":"be0057d7-36ed-4552-93a5-d26a01d6fce9","system_id":"levelo_inurba_marseille","lat":43.31702,"lon":5.37759,"is_reserved":false,"is_disabled":false,"rental_uris":{"android":"levelo://app?vid=be0057d7-36ed-4552-93a5-d26a01d6fce9","ios":"levelo://app?vid=be0057d7-36ed-4552-93a5-d26a01d6fce9"},"vehicle_type_id":"4","last_reported":1732040007,"current_range_meters":30000,"station_id":"ce4bgth2rcd13ifvqch0","pricing_plan_id":"cebpf4jnsgd1na2vs0mg"},{"bike_id":"e840fe4f-47a0-4d31-8133-7c332a3d517a","system_id":"levelo_inurba_marseille","lat":43.31082,"lon":5.42432,"is_reserved":false,"is_disabled":true,"rental_uris":{"android":"levelo://app?vid=e840fe4f-47a0-4d31-8133-7c332a3d517a","ios":"levelo://app?vid=e840fe4f-47a0-4d31-8133-7c332a3d517a"},"vehicle_type_id":"4","last_reported":1732040007,"current_range_meters":16800,"station_id":"ce4bhp92rcd13ifvqhag","pricing_plan_id":"cebpf4jnsgd1na2vs0mg"},{"bike_id":"b1f1f917-fbca-4468-807a-dad63fe9cf93","system_id":"levelo_inurba_marseille","lat":43.28078,"lon":5.39659,"is_reserved":false,"is_disabled":false,"rental_uris":{"android":"levelo://app?vid=b1f1f917-fbca-4468-807a-dad63fe9cf93","ios":"levelo://app?vid=b1f1f917-fbca-4468-807a-dad63fe9cf93"},"vehicle_type_id":"4","last_reported":1732040007,"current_range_meters":22800,"station_id":"ce4bho12rcd13ifvqh2g","pricing_plan_id":"cebpf4jnsgd1na2vs0mg"},{"bike_id":"7db3e109-59af-4df6-ad20-7ea41f506454","system_id":"levelo_inurba_marseille","lat":43.33027,"lon":5.39043,"is_reserved":false,"is_disabled":false,"rental_uris":{"android":"levelo://app?vid=7db3e109-59af-4df6-ad20-7ea41f506454","ios":"levelo://app?vid=7db3e109-59af-4df6-ad20-7ea41f506454"},"vehicle_type_id":"4","last_reported":1732040007,"current_range_meters":10000,"station_id":"ce4bhr92rcd13ifvqhrg","pricing_plan_id":"cebpf4jnsgd1na2vs0mg"},{"bike_id":"bce6c4b1-d5ca-43f0-853f-bd1c89b23a22","system_id":"levelo_inurba_marseille","lat":43.28078,"lon":5.39653,"is_reserved":false,"is_disabled":false,"rental_uris":{"android":"levelo://app?vid=bce6c4b1-d5ca-43f0-853f-bd1c89b23a22","ios":"levelo://app?vid=bce6c4b1-d5ca-43f0-853f-bd1c89b23a22"},"vehicle_type_id":"4","last_reported":1732040007,"current_range_meters":27600,"station_id":"ce4bho12rcd13ifvqh2g","pricing_plan_id":"cebpf4jnsgd1na2vs0mg"},{"bike_id":"e264033a-f915-4b27-a08a-2f42cfcf052a","system_id":"levelo_inurba_marseille","lat":43.33766,"lon":5.37439,"is_reserved":false,"is_disabled":false,"rental_uris":{"android":"levelo://app?vid=e264033a-f915-4b27-a08a-2f42cfcf052a","ios":"levelo://app?vid=e264033a-f915-4b27-a08a-2f42cfcf052a"},"vehicle_type_id":"4","last_reported":1732040007,"current_range_meters":30800,"station_id":"","pricing_plan_id":"cebpf4jnsgd1na2vs0mg"},{"bike_id":"c7281c22-d843-43e3-84da-959dc127222a","system_id":"levelo_inurba_marseille","lat":43.3171,"lon":5.43707,"is_reserved":false,"is_disabled":false,"rental_uris":{"android":"levelo://app?vid=c7281c22-d843-43e3-84da-959dc127222a","ios":"levelo://app?vid=c7281c22-d843-43e3-84da-959dc127222a"},"vehicle_type_id":"4","last_reported":1732040007,"current_range_meters":34800,"station_id":"ce4bhp92rcd13ifvqhcg","pricing_plan_id":"cebpf4jnsgd1na2vs0mg"},{"bike_id":"51a42607-9bfa-4679-970d-2f85e27b0ac1","system_id":"levelo_inurba_marseille","lat":43.27913,"lon":5.3958,"is_reserved":false,"is_disabled":false,"rental_uris":{"android":"levelo://app?vid=51a42607-9bfa-4679-970d-2f85e27b0ac1","ios":"levelo://app?vid=51a42607-9bfa-4679-970d-2f85e27b0ac1"},"vehicle_type_id":"4","last_reported":1732040007,"current_range_meters":9600,"station_id":"ce4bhf92rcd13ifvqf40","pricing_plan_id":"cebpf4jnsgd1na2vs0mg"},{"bike_id":"478111c5-9ee8-4ccc-a30a-cc58cbff7345","system_id":"levelo_inurba_marseille","lat":43.29547,"lon":5.385446,"is_reserved":false,"is_disabled":false,"rental_uris":{"android":"levelo://app?vid=478111c5-9ee8-4ccc-a30a-cc58cbff7345","ios":"levelo://app?vid=478111c5-9ee8-4ccc-a30a-cc58cbff7345"},"vehicle_type_id":"4","last_reported":1732040007,"current_range_meters":38000,"station_id":"ce4bgih2rcd13ifvqba0","pricing_plan_id":"cebpf4jnsgd1na2vs0mg"},{"bike_id":"65e9dabb-330e-46f7-9f89-3fb6c70ec3b8","system_id":"levelo_inurba_marseille","lat":43.26031,"lon":5.39807,"is_reserved":false,"is_disabled":false,"rental_uris":{"android":"levelo://app?vid=65e9dabb-330e-46f7-9f89-3fb6c70ec3b8","ios":"levelo://app?vid=65e9dabb-330e-46f7-9f89-3fb6c70ec3b8"},"vehicle_type_id":"4","last_reported":1732040007,"current_range_meters":38800,"station_id":"","pricing_plan_id":"cebpf4jnsgd1na2vs0mg"},{"bike_id":"123862ba-68e2-48f6-a477-31ab9dae8bd5","system_id":"levelo_inurba_marseille","lat":43.337444,"lon":5.374475,"is_reserved":false,"is_disabled":true,"rental_uris":{"android":"levelo://app?vid=123862ba-68e2-48f6-a477-31ab9dae8bd5","ios":"levelo://app?vid=123862ba-68e2-48f6-a477-31ab9dae8bd5"},"vehicle_type_id":"4","last_reported":1732040007,"current_range_meters":14800,"station_id":"","pricing_plan_id":"cebpf4jnsgd1na2vs0mg"},{"bike_id":"645dfe69-ce99-488e-92d8-a5ac9be9890b","system_id":"levelo_inurba_marseille","lat":43.29581,"lon":5.39969,"is_reserved":false,"is_disabled":false,"rental_uris":{"android":"levelo://app?vid=645dfe69-ce99-488e-92d8-a5ac9be9890b","ios":"levelo://app?vid=645dfe69-ce99-488e-92d8-a5ac9be9890b"},"vehicle_type_id":"4","last_reported":1732040007,"current_range_meters":39200,"station_id":"ce4bh312rcd13ifvqdj0","pricing_plan_id":"cebpf4jnsgd1na2vs0mg"},{"bike_id":"e09f5bd3-1d6d-4c2b-8ba5-e78c43cdb728","system_id":"levelo_inurba_marseille","lat":43.29557,"lon":5.42274,"is_reserved":false,"is_disabled":false,"rental_uris":{"android":"levelo://app?vid=e09f5bd3-1d6d-4c2b-8ba5-e78c43cdb728","ios":"levelo://app?vid=e09f5bd3-1d6d-4c2b-8ba5-e78c43cdb728"},"vehicle_type_id":"4","last_reported":1732040007,"current_range_meters":36800,"station_id":"ce4bhph2rcd13ifvqhdg","pricing_plan_id":"cebpf4jnsgd1na2vs0mg"},{"bike_id":"290aef3b-2c8e-4755-bda2-fd2073005376","system_id":"levelo_inurba_marseille","lat":43.26063,"lon":5.39401,"is_reserved":false,"is_disabled":false,"rental_uris":{"android":"levelo://app?vid=290aef3b-2c8e-4755-bda2-fd2073005376","ios":"levelo://app?vid=290aef3b-2c8e-4755-bda2-fd2073005376"},"vehicle_type_id":"4","last_reported":1732040007,"current_range_meters":3600,"station_id":"ce4bhh92rcd13ifvqfj0","pricing_plan_id":"cebpf4jnsgd1na2vs0mg"},{"bike_id":"c0414705-628e-4ecb-a390-6a6747dfe975","system_id":"levelo_inurba_marseille","lat":43.30454,"lon":5.36746,"is_reserved":false,"is_disabled":false,"rental_uris":{"android":"levelo://app?vid=c0414705-628e-4ecb-a390-6a6747dfe975","ios":"levelo://app?vid=c0414705-628e-4ecb-a390-6a6747dfe975"},"vehicle_type_id":"4","last_reported":1732040007,"current_range_meters":35200,"station_id":"","pricing_plan_id":"cebpf4jnsgd1na2vs0mg"},{"bike_id":"e856f989-d4db-4c6b-86ff-ef8cd6ff9131","system_id":"levelo_inurba_marseille","lat":43.30641,"lon":5.40087,"is_reserved":false,"is_disabled":false,"rental_uris":{"android":"levelo://app?vid=e856f989-d4db-4c6b-86ff-ef8cd6ff9131","ios":"levelo://app?vid=e856f989-d4db-4c6b-86ff-ef8cd6ff9131"},"vehicle_type_id":"4","last_reported":1732040007,"current_range_meters":38800,"station_id":"ce4bh112rcd13ifvqda0","pricing_plan_id":"cebpf4jnsgd1na2vs0mg"},{"bike_id":"9fa0e7a5-4987-48d6-a9cb-59bfd00d0406","system_id":"levelo_inurba_marseille","lat":43.2954,"lon":5.38552,"is_reserved":false,"is_disabled":false,"rental_uris":{"android":"levelo://app?vid=9fa0e7a5-4987-48d6-a9cb-59bfd00d0406","ios":"levelo://app?vid=9fa0e7a5-4987-48d6-a9cb-59bfd00d0406"},"vehicle_type_id":"4","last_reported":1732040007,"current_range_meters":36000,"station_id":"ce4bgih2rcd13ifvqba0","pricing_plan_id":"cebpf4jnsgd1na2vs0mg"},{"bike_id":"9a0f8073-9fc4-477f-af62-f52952da19ac","system_id":"levelo_inurba_marseille","lat":43.284667,"lon":5.35895,"is_reserved":false,"is_disabled":false,"rental_uris":{"android":"levelo://app?vid=9a0f8073-9fc4-477f-af62-f52952da19ac","ios":"levelo://app?vid=9a0f8073-9fc4-477f-af62-f52952da19ac"},"vehicle_type_id":"4","last_reported":1732040007,"current_range_meters":19200,"station_id":"ce4bhah2rcd13ifvqei0","pricing_plan_id":"cebpf4jnsgd1na2vs0mg"},{"bike_id":"b424f510-b71a-4b13-8a9f-73ec19b0fd2f","system_id":"levelo_inurba_marseille","lat":43.27221,"lon":5.39103,"is_reserved":false,"is_disabled":false,"rental_uris":{"android":"levelo://app?vid=b424f510-b71a-4b13-8a9f-73ec19b0fd2f","ios":"levelo://app?vid=b424f510-b71a-4b13-8a9f-73ec19b0fd2f"},"vehicle_type_id":"4","last_reported":1732040007,"current_range_meters":4800,"station_id":"ce4bhgp2rcd13ifvqfe0","pricing_plan_id":"cebpf4jnsgd1na2vs0mg"},{"bike_id":"efaa20f7-d2fb-4778-9ca3-b17e9193d440","system_id":"levelo_inurba_marseille","lat":43.33723,"lon":5.39174,"is_reserved":false,"is_disabled":false,"rental_uris":{"android":"levelo://app?vid=efaa20f7-d2fb-4778-9ca3-b17e9193d440","ios":"levelo://app?vid=efaa20f7-d2fb-4778-9ca3-b17e9193d440"},"vehicle_type_id":"4","last_reported":1732040007,"current_range_meters":37600,"station_id":"ce4bhr92rcd13ifvqhsg","pricing_plan_id":"cebpf4jnsgd1na2vs0mg"},{"bike_id":"dca6b0db-332a-4f9e-b2ae-0ab6ae9012da","system_id":"levelo_inurba_marseille","lat":43.29254,"lon":5.40902,"is_reserved":false,"is_disabled":false,"rental_uris":{"android":"levelo://app?vid=dca6b0db-332a-4f9e-b2ae-0ab6ae9012da","ios":"levelo://app?vid=dca6b0db-332a-4f9e-b2ae-0ab6ae9012da"},"vehicle_type_id":"4","last_reported":1732040007,"current_range_meters":10800,"station_id":"ce4bh192rcd13ifvqdc0","pricing_plan_id":"cebpf4jnsgd1na2vs0mg"},{"bike_id":"cbb19e09-aa20-4763-8e71-dc123172ec07","system_id":"levelo_inurba_marseille","lat":43.23159,"lon":5.43703,"is_reserved":false,"is_disabled":true,"rental_uris":{"android":"levelo://app?vid=cbb19e09-aa20-4763-8e71-dc123172ec07","ios":"levelo://app?vid=cbb19e09-aa20-4763-8e71-dc123172ec07"},"vehicle_type_id":"4","last_reported":1732040007,"current_range_meters":21600,"station_id":"ce4bhmp2rcd13ifvqgog","pricing_plan_id":"cebpf4jnsgd1na2vs0mg"},{"bike_id":"028e5427-36e2-49e1-b3db-260058fffb58","system_id":"levelo_inurba_marseille","lat":43.2558,"lon":5.38241,"is_reserved":false,"is_disabled":false,"rental_uris":{"android":"levelo://app?vid=028e5427-36e2-49e1-b3db-260058fffb58","ios":"levelo://app?vid=028e5427-36e2-49e1-b3db-260058fffb58"},"vehicle_type_id":"4","last_reported":1732040007,"current_range_meters":31200,"station_id":"ce4bhih2rcd13ifvqfs0","pricing_plan_id":"cebpf4jnsgd1na2vs0mg"},{"bike_id":"fbf50743-a751-4d22-8d7f-9047b9d72787","system_id":"levelo_inurba_marseille","lat":43.33338,"lon":5.41843,"is_reserved":false,"is_disabled":false,"rental_uris":{"android":"levelo://app?vid=fbf50743-a751-4d22-8d7f-9047b9d72787","ios":"levelo://app?vid=fbf50743-a751-4d22-8d7f-9047b9d72787"},"vehicle_type_id":"4","last_reported":1732040007,"current_range_meters":26800,"station_id":"","pricing_plan_id":"cebpf4jnsgd1na2vs0mg"},{"bike_id":"c7a50e20-2113-422a-a738-37725f12a17a","system_id":"levelo_inurba_marseille","lat":43.31231,"lon":5.36854,"is_reserved":false,"is_disabled":false,"rental_uris":{"android":"levelo://app?vid=c7a50e20-2113-422a-a738-37725f12a17a","ios":"levelo://app?vid=c7a50e20-2113-422a-a738-37725f12a17a"},"vehicle_type_id":"4","last_reported":1732040007,"current_range_meters":11600,"station_id":"ce4bgl92rcd13ifvqbq0","pricing_plan_id":"cebpf4jnsgd1na2vs0mg"},{"bike_id":"56af11bc-cc37-43d6-99b5-a146ef7aeedc","system_id":"levelo_inurba_marseille","lat":43.29721,"lon":5.36604,"is_reserved":false,"is_disabled":false,"rental_uris":{"android":"levelo://app?vid=56af11bc-cc37-43d6-99b5-a146ef7aeedc","ios":"levelo://app?vid=56af11bc-cc37-43d6-99b5-a146ef7aeedc"},"vehicle_type_id":"4","last_reported":1732040007,"current_range_meters":38800,"station_id":"ce4bgn12rcd13ifvqbt0","pricing_plan_id":"cebpf4jnsgd1na2vs0mg"},{"bike_id":"1bbc3019-2930-4f65-9a53-9c72d10c9d75","system_id":"levelo_inurba_marseille","lat":43.28707,"lon":5.37376,"is_reserved":false,"is_disabled":false,"rental_uris":{"android":"levelo://app?vid=1bbc3019-2930-4f65-9a53-9c72d10c9d75","ios":"levelo://app?vid=1bbc3019-2930-4f65-9a53-9c72d10c9d75"},"vehicle_type_id":"4","last_reported":1732040007,"current_range_meters":16000,"station_id":"ce4bh3p2rcd13ifvqdq0","pricing_plan_id":"cebpf4jnsgd1na2vs0mg"},{"bike_id":"1ea9d202-7235-44ff-a808-1a87a3b9cfc1","system_id":"levelo_inurba_marseille","lat":43.25578,"lon":5.38242,"is_reserved":false,"is_disabled":false,"rental_uris":{"android":"levelo://app?vid=1ea9d202-7235-44ff-a808-1a87a3b9cfc1","ios":"levelo://app?vid=1ea9d202-7235-44ff-a808-1a87a3b9cfc1"},"vehicle_type_id":"4","last_reported":1732040007,"current_range_meters":13600,"station_id":"ce4bhih2rcd13ifvqfs0","pricing_plan_id":"cebpf4jnsgd1na2vs0mg"},{"bike_id":"d0a8d1e0-8de9-4df8-bcae-ad9cbd74d90d","system_id":"levelo_inurba_marseille","lat":43.32368,"lon":5.38886,"is_reserved":false,"is_disabled":false,"rental_uris":{"android":"levelo://app?vid=d0a8d1e0-8de9-4df8-bcae-ad9cbd74d90d","ios":"levelo://app?vid=d0a8d1e0-8de9-4df8-bcae-ad9cbd74d90d"},"vehicle_type_id":"4","last_reported":1732040007,"current_range_meters":20800,"station_id":"ce4bhqp2rcd13ifvqhog","pricing_plan_id":"cebpf4jnsgd1na2vs0mg"},{"bike_id":"0c5bbd39-2535-4e1b-896c-c0aa5772961e","system_id":"levelo_inurba_marseille","lat":43.33024,"lon":5.39043,"is_reserved":false,"is_disabled":false,"rental_uris":{"android":"levelo://app?vid=0c5bbd39-2535-4e1b-896c-c0aa5772961e","ios":"levelo://app?vid=0c5bbd39-2535-4e1b-896c-c0aa5772961e"},"vehicle_type_id":"4","last_reported":1732040007,"current_range_meters":6000,"station_id":"ce4bhr92rcd13ifvqhrg","pricing_plan_id":"cebpf4jnsgd1na2vs0mg"},{"bike_id":"ea3698ba-4aa8-4712-b521-18ff56838777","system_id":"levelo_inurba_marseille","lat":43.25495,"lon":5.3765,"is_reserved":false,"is_disabled":true,"rental_uris":{"android":"levelo://app?vid=ea3698ba-4aa8-4712-b521-18ff56838777","ios":"levelo://app?vid=ea3698ba-4aa8-4712-b521-18ff56838777"},"vehicle_type_id":"4","last_reported":1732040007,"current_range_meters":800,"station_id":"ce4bhh12rcd13ifvqff0","pricing_plan_id":"cebpf4jnsgd1na2vs0mg"},{"bike_id":"1642d660-bb62-41f2-b684-69e9ce90e8cf","system_id":"levelo_inurba_marseille","lat":43.294345,"lon":5.397383,"is_reserved":false,"is_disabled":false,"rental_uris":{"android":"levelo://app?vid=1642d660-bb62-41f2-b684-69e9ce90e8cf","ios":"levelo://app?vid=1642d660-bb62-41f2-b684-69e9ce90e8cf"},"vehicle_type_id":"4","last_reported":1732040007,"current_range_meters":17600,"station_id":"ce4bh3h2rcd13ifvqdo0","pricing_plan_id":"cebpf4jnsgd1na2vs0mg"},{"bike_id":"7a74f50b-fe40-4106-9f5d-13731ba6b393","system_id":"levelo_inurba_marseille","lat":43.32374,"lon":5.38877,"is_reserved":false,"is_disabled":false,"rental_uris":{"android":"levelo://app?vid=7a74f50b-fe40-4106-9f5d-13731ba6b393","ios":"levelo://app?vid=7a74f50b-fe40-4106-9f5d-13731ba6b393"},"vehicle_type_id":"4","last_reported":1732040007,"current_range_meters":33600,"station_id":"ce4bhqp2rcd13ifvqhog","pricing_plan_id":"cebpf4jnsgd1na2vs0mg"},{"bike_id":"e5951ee3-4a5a-4ebb-b469-096c5188dfa3","system_id":"levelo_inurba_marseille","lat":43.24029,"lon":5.36612,"is_reserved":false,"is_disabled":true,"rental_uris":{"android":"levelo://app?vid=e5951ee3-4a5a-4ebb-b469-096c5188dfa3","ios":"levelo://app?vid=e5951ee3-4a5a-4ebb-b469-096c5188dfa3"},"vehicle_type_id":"4","last_reported":1732040007,"current_range_meters":1200,"station_id":"","pricing_plan_id":"cebpf4jnsgd1na2vs0mg"},{"bike_id":"b2f6b9cf-69db-40ab-8230-689c41a2c16c","system_id":"levelo_inurba_marseille","lat":43.24169,"lon":5.36393,"is_reserved":false,"is_disabled":true,"rental_uris":{"android":"levelo://app?vid=b2f6b9cf-69db-40ab-8230-689c41a2c16c","ios":"levelo://app?vid=b2f6b9cf-69db-40ab-8230-689c41a2c16c"},"vehicle_type_id":"4","last_reported":1732040007,"current_range_meters":1200,"station_id":"cpo36qri1sfpv3e86is0","pricing_plan_id":"cebpf4jnsgd1na2vs0mg"},{"bike_id":"ee58c0c2-c7d8-4d0f-91e5-095566050b2d","system_id":"levelo_inurba_marseille","lat":43.2857,"lon":5.39494,"is_reserved":false,"is_disabled":false,"rental_uris":{"android":"levelo://app?vid=ee58c0c2-c7d8-4d0f-91e5-095566050b2d","ios":"levelo://app?vid=ee58c0c2-c7d8-4d0f-91e5-095566050b2d"},"vehicle_type_id":"4","last_reported":1732040007,"current_range_meters":38800,"station_id":"ce4bh292rcd13ifvqdg0","pricing_plan_id":"cebpf4jnsgd1na2vs0mg"},{"bike_id":"2910f69a-6dac-4d69-a60d-e4f1b8cce200","system_id":"levelo_inurba_marseille","lat":43.27815,"lon":5.40714,"is_reserved":false,"is_disabled":true,"rental_uris":{"android":"levelo://app?vid=2910f69a-6dac-4d69-a60d-e4f1b8cce200","ios":"levelo://app?vid=2910f69a-6dac-4d69-a60d-e4f1b8cce200"},"vehicle_type_id":"4","last_reported":1732040007,"current_range_meters":18000,"station_id":"ce4bhnh2rcd13ifvqgtg","pricing_plan_id":"cebpf4jnsgd1na2vs0mg"},{"bike_id":"8097b6c0-a886-443b-b4f6-f8a6c9a4ca26","system_id":"levelo_inurba_marseille","lat":43.31222,"lon":5.36843,"is_reserved":false,"is_disabled":false,"rental_uris":{"android":"levelo://app?vid=8097b6c0-a886-443b-b4f6-f8a6c9a4ca26","ios":"levelo://app?vid=8097b6c0-a886-443b-b4f6-f8a6c9a4ca26"},"vehicle_type_id":"4","last_reported":1732040007,"current_range_meters":38800,"station_id":"ce4bgl92rcd13ifvqbq0","pricing_plan_id":"cebpf4jnsgd1na2vs0mg"},{"bike_id":"d5318989-29f7-4e05-a4bf-545faad41c9e","system_id":"levelo_inurba_marseille","lat":43.29934,"lon":5.36536,"is_reserved":false,"is_disabled":false,"rental_uris":{"android":"levelo://app?vid=d5318989-29f7-4e05-a4bf-545faad41c9e","ios":"levelo://app?vid=d5318989-29f7-4e05-a4bf-545faad41c9e"},"vehicle_type_id":"4","last_reported":1732040007,"current_range_meters":24800,"station_id":"ce4bgm92rcd13ifvqbr0","pricing_plan_id":"cebpf4jnsgd1na2vs0mg"},{"bike_id":"83e9074c-3856-4e78-ab3f-5dd6e856ddc6","system_id":"levelo_inurba_marseille","lat":43.26501,"lon":5.39536,"is_reserved":false,"is_disabled":false,"rental_uris":{"android":"levelo://app?vid=83e9074c-3856-4e78-ab3f-5dd6e856ddc6","ios":"levelo://app?vid=83e9074c-3856-4e78-ab3f-5dd6e856ddc6"},"vehicle_type_id":"4","last_reported":1732040007,"current_range_meters":38000,"station_id":"ce4bhi12rcd13ifvqfq0","pricing_plan_id":"cebpf4jnsgd1na2vs0mg"},{"bike_id":"da118503-6ab7-4c94-98bc-2b63accd50d2","system_id":"levelo_inurba_marseille","lat":43.31083,"lon":5.42432,"is_reserved":false,"is_disabled":false,"rental_uris":{"android":"levelo://app?vid=da118503-6ab7-4c94-98bc-2b63accd50d2","ios":"levelo://app?vid=da118503-6ab7-4c94-98bc-2b63accd50d2"},"vehicle_type_id":"4","last_reported":1732040007,"current_range_meters":38800,"station_id":"ce4bhp92rcd13ifvqhag","pricing_plan_id":"cebpf4jnsgd1na2vs0mg"},{"bike_id":"d4d6be5e-7a21-465d-86e5-cfd407160d99","system_id":"levelo_inurba_marseille","lat":43.26941,"lon":5.40246,"is_reserved":false,"is_disabled":true,"rental_uris":{"android":"levelo://app?vid=d4d6be5e-7a21-465d-86e5-cfd407160d99","ios":"levelo://app?vid=d4d6be5e-7a21-465d-86e5-cfd407160d99"},"vehicle_type_id":"4","last_reported":1732040007,"current_range_meters":0,"station_id":"cjm6bp8fraef2m0cb0m0","pricing_plan_id":"cebpf4jnsgd1na2vs0mg"},{"bike_id":"e5769bc3-9170-4d3d-bdb8-3c8bd454c717","system_id":"levelo_inurba_marseille","lat":43.31113,"lon":5.37773,"is_reserved":false,"is_disabled":false,"rental_uris":{"android":"levelo://app?vid=e5769bc3-9170-4d3d-bdb8-3c8bd454c717","ios":"levelo://app?vid=e5769bc3-9170-4d3d-bdb8-3c8bd454c717"},"vehicle_type_id":"4","last_reported":1732040007,"current_range_meters":12800,"station_id":"ce4bgt92rcd13ifvqcg0","pricing_plan_id":"cebpf4jnsgd1na2vs0mg"},{"bike_id":"7ccf2f24-0143-407d-973b-322d37cb2794","system_id":"levelo_inurba_marseille","lat":43.32107,"lon":5.36768,"is_reserved":false,"is_disabled":false,"rental_uris":{"android":"levelo://app?vid=7ccf2f24-0143-407d-973b-322d37cb2794","ios":"levelo://app?vid=7ccf2f24-0143-407d-973b-322d37cb2794"},"vehicle_type_id":"4","last_reported":1732040007,"current_range_meters":28800,"station_id":"ce4bhrh2rcd13ifvqhug","pricing_plan_id":"cebpf4jnsgd1na2vs0mg"},{"bike_id":"20c7c610-8c6e-4ce5-ab40-d5683509c8e6","system_id":"levelo_inurba_marseille","lat":43.30087,"lon":5.39071,"is_reserved":false,"is_disabled":false,"rental_uris":{"android":"levelo://app?vid=20c7c610-8c6e-4ce5-ab40-d5683509c8e6","ios":"levelo://app?vid=20c7c610-8c6e-4ce5-ab40-d5683509c8e6"},"vehicle_type_id":"4","last_reported":1732040007,"current_range_meters":8000,"station_id":"ce4bh192rcd13ifvqdb0","pricing_plan_id":"cebpf4jnsgd1na2vs0mg"},{"bike_id":"ad142e48-0964-413b-b6c6-2a15c9a22e3c","system_id":"levelo_inurba_marseille","lat":43.30348,"lon":5.4187,"is_reserved":false,"is_disabled":false,"rental_uris":{"android":"levelo://app?vid=ad142e48-0964-413b-b6c6-2a15c9a22e3c","ios":"levelo://app?vid=ad142e48-0964-413b-b6c6-2a15c9a22e3c"},"vehicle_type_id":"4","last_reported":1732040007,"current_range_meters":18000,"station_id":"ce4bhop2rcd13ifvqh7g","pricing_plan_id":"cebpf4jnsgd1na2vs0mg"},{"bike_id":"58f63648-9353-4761-b18c-0835f9ba8bbb","system_id":"levelo_inurba_marseille","lat":43.29566,"lon":5.42293,"is_reserved":false,"is_disabled":false,"rental_uris":{"android":"levelo://app?vid=58f63648-9353-4761-b18c-0835f9ba8bbb","ios":"levelo://app?vid=58f63648-9353-4761-b18c-0835f9ba8bbb"},"vehicle_type_id":"4","last_reported":1732040007,"current_range_meters":31200,"station_id":"ce4bhph2rcd13ifvqhdg","pricing_plan_id":"cebpf4jnsgd1na2vs0mg"},{"bike_id":"7e35deb2-0950-494e-a5fc-48886e723f0a","system_id":"levelo_inurba_marseille","lat":43.290368,"lon":5.37561,"is_reserved":false,"is_disabled":true,"rental_uris":{"android":"levelo://app?vid=7e35deb2-0950-494e-a5fc-48886e723f0a","ios":"levelo://app?vid=7e35deb2-0950-494e-a5fc-48886e723f0a"},"vehicle_type_id":"4","last_reported":1732040007,"current_range_meters":8400,"station_id":"ce4bh692rcd13ifvqe90","pricing_plan_id":"cebpf4jnsgd1na2vs0mg"},{"bike_id":"d482b473-8011-43d1-9203-ef428f8af553","system_id":"levelo_inurba_marseille","lat":43.29554,"lon":5.42285,"is_reserved":false,"is_disabled":false,"rental_uris":{"android":"levelo://app?vid=d482b473-8011-43d1-9203-ef428f8af553","ios":"levelo://app?vid=d482b473-8011-43d1-9203-ef428f8af553"},"vehicle_type_id":"4","last_reported":1732040007,"current_range_meters":38800,"station_id":"ce4bhph2rcd13ifvqhdg","pricing_plan_id":"cebpf4jnsgd1na2vs0mg"},{"bike_id":"1985f0ad-5fec-4017-9c67-4c18c8f68667","system_id":"levelo_inurba_marseille","lat":43.29585,"lon":5.36734,"is_reserved":false,"is_disabled":false,"rental_uris":{"android":"levelo://app?vid=1985f0ad-5fec-4017-9c67-4c18c8f68667","ios":"levelo://app?vid=1985f0ad-5fec-4017-9c67-4c18c8f68667"},"vehicle_type_id":"4","last_reported":1732040007,"current_range_meters":38800,"station_id":"ce4bgph2rcd13ifvqc2g","pricing_plan_id":"cebpf4jnsgd1na2vs0mg"},{"bike_id":"0a690411-2da6-43ac-bbcb-f54957de9ee2","system_id":"levelo_inurba_marseille","lat":43.295977,"lon":5.381007,"is_reserved":false,"is_disabled":false,"rental_uris":{"android":"levelo://app?vid=0a690411-2da6-43ac-bbcb-f54957de9ee2","ios":"levelo://app?vid=0a690411-2da6-43ac-bbcb-f54957de9ee2"},"vehicle_type_id":"4","last_reported":1732040007,"current_range_meters":3200,"station_id":"ce4bgl12rcd13ifvqbo0","pricing_plan_id":"cebpf4jnsgd1na2vs0mg"},{"bike_id":"cde5eb04-35f5-4971-aec4-8004f9b2dcd9","system_id":"levelo_inurba_marseille","lat":43.28279,"lon":5.35063,"is_reserved":false,"is_disabled":true,"rental_uris":{"android":"levelo://app?vid=cde5eb04-35f5-4971-aec4-8004f9b2dcd9","ios":"levelo://app?vid=cde5eb04-35f5-4971-aec4-8004f9b2dcd9"},"vehicle_type_id":"4","last_reported":1732040007,"current_range_meters":32800,"station_id":"ce4bhbp2rcd13ifvqerg","pricing_plan_id":"cebpf4jnsgd1na2vs0mg"},{"bike_id":"e63fa20f-859b-43dc-995d-a32935dd2a71","system_id":"levelo_inurba_marseille","lat":43.2761,"lon":5.36111,"is_reserved":false,"is_disabled":false,"rental_uris":{"android":"levelo://app?vid=e63fa20f-859b-43dc-995d-a32935dd2a71","ios":"levelo://app?vid=e63fa20f-859b-43dc-995d-a32935dd2a71"},"vehicle_type_id":"4","last_reported":1732040007,"current_range_meters":16800,"station_id":"ce4bgj92rcd13ifvqbe0","pricing_plan_id":"cebpf4jnsgd1na2vs0mg"},{"bike_id":"cc32451c-19e5-4315-a085-6ee45923b208","system_id":"levelo_inurba_marseille","lat":43.29257,"lon":5.40904,"is_reserved":false,"is_disabled":false,"rental_uris":{"android":"levelo://app?vid=cc32451c-19e5-4315-a085-6ee45923b208","ios":"levelo://app?vid=cc32451c-19e5-4315-a085-6ee45923b208"},"vehicle_type_id":"4","last_reported":1732040007,"current_range_meters":16800,"station_id":"ce4bh192rcd13ifvqdc0","pricing_plan_id":"cebpf4jnsgd1na2vs0mg"},{"bike_id":"95847fec-7d4e-4203-9906-b2cd26dae74c","system_id":"levelo_inurba_marseille","lat":43.27818,"lon":5.40718,"is_reserved":false,"is_disabled":false,"rental_uris":{"android":"levelo://app?vid=95847fec-7d4e-4203-9906-b2cd26dae74c","ios":"levelo://app?vid=95847fec-7d4e-4203-9906-b2cd26dae74c"},"vehicle_type_id":"4","last_reported":1732040007,"current_range_meters":2000,"station_id":"ce4bhnh2rcd13ifvqgtg","pricing_plan_id":"cebpf4jnsgd1na2vs0mg"},{"bike_id":"7fc71c05-3421-4424-ba9e-625cdcc2e2d9","system_id":"levelo_inurba_marseille","lat":43.33028,"lon":5.39038,"is_reserved":false,"is_disabled":false,"rental_uris":{"android":"levelo://app?vid=7fc71c05-3421-4424-ba9e-625cdcc2e2d9","ios":"levelo://app?vid=7fc71c05-3421-4424-ba9e-625cdcc2e2d9"},"vehicle_type_id":"4","last_reported":1732040007,"current_range_meters":37600,"station_id":"ce4bhr92rcd13ifvqhrg","pricing_plan_id":"cebpf4jnsgd1na2vs0mg"},{"bike_id":"ead3bac6-973e-44aa-8bff-deee76c330b0","system_id":"levelo_inurba_marseille","lat":43.27948,"lon":5.41048,"is_reserved":false,"is_disabled":false,"rental_uris":{"android":"levelo://app?vid=ead3bac6-973e-44aa-8bff-deee76c330b0","ios":"levelo://app?vid=ead3bac6-973e-44aa-8bff-deee76c330b0"},"vehicle_type_id":"4","last_reported":1732040007,"current_range_meters":14000,"station_id":"ce4bhnp2rcd13ifvqh0g","pricing_plan_id":"cebpf4jnsgd1na2vs0mg"},{"bike_id":"0e2bbe61-8f31-47ba-b582-6a82d0b052e0","system_id":"levelo_inurba_marseille","lat":43.290268,"lon":5.38355,"is_reserved":false,"is_disabled":false,"rental_uris":{"android":"levelo://app?vid=0e2bbe61-8f31-47ba-b582-6a82d0b052e0","ios":"levelo://app?vid=0e2bbe61-8f31-47ba-b582-6a82d0b052e0"},"vehicle_type_id":"4","last_reported":1732040007,"current_range_meters":28000,"station_id":"ce4bgip2rcd13ifvqbb0","pricing_plan_id":"cebpf4jnsgd1na2vs0mg"},{"bike_id":"c3bc0f64-f384-48a7-9517-04f95522a7e3","system_id":"levelo_inurba_marseille","lat":43.318242,"lon":5.37611,"is_reserved":false,"is_disabled":true,"rental_uris":{"android":"levelo://app?vid=c3bc0f64-f384-48a7-9517-04f95522a7e3","ios":"levelo://app?vid=c3bc0f64-f384-48a7-9517-04f95522a7e3"},"vehicle_type_id":"4","last_reported":1732040007,"current_range_meters":14400,"station_id":"","pricing_plan_id":"cebpf4jnsgd1na2vs0mg"},{"bike_id":"bf64883e-0a72-494f-b2ae-b8c0411513e6","system_id":"levelo_inurba_marseille","lat":43.2846,"lon":5.35876,"is_reserved":false,"is_disabled":false,"rental_uris":{"android":"levelo://app?vid=bf64883e-0a72-494f-b2ae-b8c0411513e6","ios":"levelo://app?vid=bf64883e-0a72-494f-b2ae-b8c0411513e6"},"vehicle_type_id":"4","last_reported":1732040007,"current_range_meters":4400,"station_id":"ce4bhah2rcd13ifvqei0","pricing_plan_id":"cebpf4jnsgd1na2vs0mg"},{"bike_id":"44ee0950-3528-490a-948e-7f3976ab238c","system_id":"levelo_inurba_marseille","lat":43.32365,"lon":5.38888,"is_reserved":false,"is_disabled":false,"rental_uris":{"android":"levelo://app?vid=44ee0950-3528-490a-948e-7f3976ab238c","ios":"levelo://app?vid=44ee0950-3528-490a-948e-7f3976ab238c"},"vehicle_type_id":"4","last_reported":1732040007,"current_range_meters":30000,"station_id":"ce4bhqp2rcd13ifvqhog","pricing_plan_id":"cebpf4jnsgd1na2vs0mg"},{"bike_id":"b0e105d9-9f4c-4aac-ad98-aa479f2fe03e","system_id":"levelo_inurba_marseille","lat":43.31169,"lon":5.38715,"is_reserved":false,"is_disabled":false,"rental_uris":{"android":"levelo://app?vid=b0e105d9-9f4c-4aac-ad98-aa479f2fe03e","ios":"levelo://app?vid=b0e105d9-9f4c-4aac-ad98-aa479f2fe03e"},"vehicle_type_id":"4","last_reported":1732040007,"current_range_meters":29600,"station_id":"ce4bgv12rcd13ifvqcp0","pricing_plan_id":"cebpf4jnsgd1na2vs0mg"},{"bike_id":"ce27fe64-e773-48c7-8be0-dcaf49f06d43","system_id":"levelo_inurba_marseille","lat":43.2408,"lon":5.37725,"is_reserved":false,"is_disabled":true,"rental_uris":{"android":"levelo://app?vid=ce27fe64-e773-48c7-8be0-dcaf49f06d43","ios":"levelo://app?vid=ce27fe64-e773-48c7-8be0-dcaf49f06d43"},"vehicle_type_id":"4","last_reported":1732040007,"current_range_meters":0,"station_id":"ce4bhnp2rcd13ifvqgvg","pricing_plan_id":"cebpf4jnsgd1na2vs0mg"},{"bike_id":"21ab1e79-7cdd-4c16-96bc-733e87b1f8aa","system_id":"levelo_inurba_marseille","lat":43.29976,"lon":5.37178,"is_reserved":false,"is_disabled":true,"rental_uris":{"android":"levelo://app?vid=21ab1e79-7cdd-4c16-96bc-733e87b1f8aa","ios":"levelo://app?vid=21ab1e79-7cdd-4c16-96bc-733e87b1f8aa"},"vehicle_type_id":"4","last_reported":1732040007,"current_range_meters":0,"station_id":"ce4bgr92rcd13ifvqc7g","pricing_plan_id":"cebpf4jnsgd1na2vs0mg"},{"bike_id":"a288582f-e609-4b1f-9e1f-4b407176785e","system_id":"levelo_inurba_marseille","lat":43.29915,"lon":5.37459,"is_reserved":false,"is_disabled":true,"rental_uris":{"android":"levelo://app?vid=a288582f-e609-4b1f-9e1f-4b407176785e","ios":"levelo://app?vid=a288582f-e609-4b1f-9e1f-4b407176785e"},"vehicle_type_id":"4","last_reported":1732040007,"current_range_meters":19600,"station_id":"ce4bgjh2rcd13ifvqbg0","pricing_plan_id":"cebpf4jnsgd1na2vs0mg"},{"bike_id":"729f081d-5184-4f31-801f-2b41f23e3a17","system_id":"levelo_inurba_marseille","lat":43.33115,"lon":5.38205,"is_reserved":false,"is_disabled":true,"rental_uris":{"android":"levelo://app?vid=729f081d-5184-4f31-801f-2b41f23e3a17","ios":"levelo://app?vid=729f081d-5184-4f31-801f-2b41f23e3a17"},"vehicle_type_id":"4","last_reported":1732040007,"current_range_meters":33200,"station_id":"","pricing_plan_id":"cebpf4jnsgd1na2vs0mg"},{"bike_id":"7770b1cc-2a54-4d08-8255-6bed2fc397aa","system_id":"levelo_inurba_marseille","lat":43.23191,"lon":5.35546,"is_reserved":false,"is_disabled":false,"rental_uris":{"android":"levelo://app?vid=7770b1cc-2a54-4d08-8255-6bed2fc397aa","ios":"levelo://app?vid=7770b1cc-2a54-4d08-8255-6bed2fc397aa"},"vehicle_type_id":"4","last_reported":1732040007,"current_range_meters":29600,"station_id":"ce4bhu92rcd13ifvqi70","pricing_plan_id":"cebpf4jnsgd1na2vs0mg"},{"bike_id":"f8610b55-6663-430e-98ea-6d5e1d1b43cc","system_id":"levelo_inurba_marseille","lat":43.32379,"lon":5.38881,"is_reserved":false,"is_disabled":false,"rental_uris":{"android":"levelo://app?vid=f8610b55-6663-430e-98ea-6d5e1d1b43cc","ios":"levelo://app?vid=f8610b55-6663-430e-98ea-6d5e1d1b43cc"},"vehicle_type_id":"4","last_reported":1732040007,"current_range_meters":28000,"station_id":"ce4bhqp2rcd13ifvqhog","pricing_plan_id":"cebpf4jnsgd1na2vs0mg"},{"bike_id":"b321c3f8-cfeb-49c2-9411-946d91e0b750","system_id":"levelo_inurba_marseille","lat":43.2956,"lon":5.4228,"is_reserved":false,"is_disabled":false,"rental_uris":{"android":"levelo://app?vid=b321c3f8-cfeb-49c2-9411-946d91e0b750","ios":"levelo://app?vid=b321c3f8-cfeb-49c2-9411-946d91e0b750"},"vehicle_type_id":"4","last_reported":1732040007,"current_range_meters":16400,"station_id":"ce4bhph2rcd13ifvqhdg","pricing_plan_id":"cebpf4jnsgd1na2vs0mg"},{"bike_id":"398dce58-bab0-43b6-a091-a0ac34e95bd0","system_id":"levelo_inurba_marseille","lat":43.32662,"lon":5.40991,"is_reserved":false,"is_disabled":false,"rental_uris":{"android":"levelo://app?vid=398dce58-bab0-43b6-a091-a0ac34e95bd0","ios":"levelo://app?vid=398dce58-bab0-43b6-a091-a0ac34e95bd0"},"vehicle_type_id":"4","last_reported":1732040007,"current_range_meters":30000,"station_id":"ce4bhpp2rcd13ifvqhgg","pricing_plan_id":"cebpf4jnsgd1na2vs0mg"},{"bike_id":"cec92269-603b-4091-94e4-0c18d9114ad9","system_id":"levelo_inurba_marseille","lat":43.29525,"lon":5.394,"is_reserved":false,"is_disabled":false,"rental_uris":{"android":"levelo://app?vid=cec92269-603b-4091-94e4-0c18d9114ad9","ios":"levelo://app?vid=cec92269-603b-4091-94e4-0c18d9114ad9"},"vehicle_type_id":"4","last_reported":1732040007,"current_range_meters":24000,"station_id":"ce4bh292rcd13ifvqdf0","pricing_plan_id":"cebpf4jnsgd1na2vs0mg"},{"bike_id":"3d25d818-80cf-415a-996a-afc2d01ce97b","system_id":"levelo_inurba_marseille","lat":43.27788,"lon":5.4073,"is_reserved":false,"is_disabled":false,"rental_uris":{"android":"levelo://app?vid=3d25d818-80cf-415a-996a-afc2d01ce97b","ios":"levelo://app?vid=3d25d818-80cf-415a-996a-afc2d01ce97b"},"vehicle_type_id":"4","last_reported":1732040007,"current_range_meters":14400,"station_id":"ce4bhnh2rcd13ifvqgtg","pricing_plan_id":"cebpf4jnsgd1na2vs0mg"},{"bike_id":"ccaa169d-5ada-4aa5-b366-fb402269887e","system_id":"levelo_inurba_marseille","lat":43.24551,"lon":5.39525,"is_reserved":false,"is_disabled":false,"rental_uris":{"android":"levelo://app?vid=ccaa169d-5ada-4aa5-b366-fb402269887e","ios":"levelo://app?vid=ccaa169d-5ada-4aa5-b366-fb402269887e"},"vehicle_type_id":"4","last_reported":1732040007,"current_range_meters":4400,"station_id":"ce4bhlp2rcd13ifvqgjg","pricing_plan_id":"cebpf4jnsgd1na2vs0mg"},{"bike_id":"64ed23a0-3533-4dca-8fb9-650aaf2586c1","system_id":"levelo_inurba_marseille","lat":43.31721,"lon":5.42406,"is_reserved":false,"is_disabled":false,"rental_uris":{"android":"levelo://app?vid=64ed23a0-3533-4dca-8fb9-650aaf2586c1","ios":"levelo://app?vid=64ed23a0-3533-4dca-8fb9-650aaf2586c1"},"vehicle_type_id":"4","last_reported":1732040007,"current_range_meters":39200,"station_id":"ce4bhp92rcd13ifvqhbg","pricing_plan_id":"cebpf4jnsgd1na2vs0mg"},{"bike_id":"50b44e30-7bf5-4e2e-be3f-0e38514d5052","system_id":"levelo_inurba_marseille","lat":43.23155,"lon":5.43703,"is_reserved":false,"is_disabled":true,"rental_uris":{"android":"levelo://app?vid=50b44e30-7bf5-4e2e-be3f-0e38514d5052","ios":"levelo://app?vid=50b44e30-7bf5-4e2e-be3f-0e38514d5052"},"vehicle_type_id":"4","last_reported":1732040007,"current_range_meters":0,"station_id":"ce4bhmp2rcd13ifvqgog","pricing_plan_id":"cebpf4jnsgd1na2vs0mg"},{"bike_id":"05cb8c05-637f-4c7a-bca1-c79035ebecd4","system_id":"levelo_inurba_marseille","lat":43.26208,"lon":5.37444,"is_reserved":false,"is_disabled":false,"rental_uris":{"android":"levelo://app?vid=05cb8c05-637f-4c7a-bca1-c79035ebecd4","ios":"levelo://app?vid=05cb8c05-637f-4c7a-bca1-c79035ebecd4"},"vehicle_type_id":"4","last_reported":1732040007,"current_range_meters":27200,"station_id":"ce4bhgp2rcd13ifvqfc0","pricing_plan_id":"cebpf4jnsgd1na2vs0mg"},{"bike_id":"03624f7d-f25e-4ca6-82bf-9bdcb0d27757","system_id":"levelo_inurba_marseille","lat":43.30627,"lon":5.36749,"is_reserved":false,"is_disabled":true,"rental_uris":{"android":"levelo://app?vid=03624f7d-f25e-4ca6-82bf-9bdcb0d27757","ios":"levelo://app?vid=03624f7d-f25e-4ca6-82bf-9bdcb0d27757"},"vehicle_type_id":"4","last_reported":1732040007,"current_range_meters":0,"station_id":"","pricing_plan_id":"cebpf4jnsgd1na2vs0mg"},{"bike_id":"bb3c6be4-cc86-41bf-86c1-66cf2d6b242d","system_id":"levelo_inurba_marseille","lat":43.2872,"lon":5.37935,"is_reserved":false,"is_disabled":true,"rental_uris":{"android":"levelo://app?vid=bb3c6be4-cc86-41bf-86c1-66cf2d6b242d","ios":"levelo://app?vid=bb3c6be4-cc86-41bf-86c1-66cf2d6b242d"},"vehicle_type_id":"4","last_reported":1732040007,"current_range_meters":0,"station_id":"ce4bh9p2rcd13ifvqec0","pricing_plan_id":"cebpf4jnsgd1na2vs0mg"},{"bike_id":"85687187-a08b-4af3-9f03-097c35620f61","system_id":"levelo_inurba_marseille","lat":43.28998,"lon":5.35609,"is_reserved":false,"is_disabled":false,"rental_uris":{"android":"levelo://app?vid=85687187-a08b-4af3-9f03-097c35620f61","ios":"levelo://app?vid=85687187-a08b-4af3-9f03-097c35620f61"},"vehicle_type_id":"4","last_reported":1732040007,"current_range_meters":16000,"station_id":"ce4bhb92rcd13ifvqen0","pricing_plan_id":"cebpf4jnsgd1na2vs0mg"},{"bike_id":"c6623bb0-f692-407d-853b-d2ee9390c3ed","system_id":"levelo_inurba_marseille","lat":43.30152,"lon":5.39862,"is_reserved":false,"is_disabled":true,"rental_uris":{"android":"levelo://app?vid=c6623bb0-f692-407d-853b-d2ee9390c3ed","ios":"levelo://app?vid=c6623bb0-f692-407d-853b-d2ee9390c3ed"},"vehicle_type_id":"4","last_reported":1732040007,"current_range_meters":38800,"station_id":"ce4bh0h2rcd13ifvqd40","pricing_plan_id":"cebpf4jnsgd1na2vs0mg"},{"bike_id":"4c691e66-4872-4053-bf7d-59f73f00e050","system_id":"levelo_inurba_marseille","lat":43.28718,"lon":5.3792,"is_reserved":false,"is_disabled":false,"rental_uris":{"android":"levelo://app?vid=4c691e66-4872-4053-bf7d-59f73f00e050","ios":"levelo://app?vid=4c691e66-4872-4053-bf7d-59f73f00e050"},"vehicle_type_id":"4","last_reported":1732040007,"current_range_meters":32400,"station_id":"ce4bh9p2rcd13ifvqec0","pricing_plan_id":"cebpf4jnsgd1na2vs0mg"},{"bike_id":"965fc34d-d680-4969-8533-e6295c2a995c","system_id":"levelo_inurba_marseille","lat":43.25119,"lon":5.40321,"is_reserved":false,"is_disabled":true,"rental_uris":{"android":"levelo://app?vid=965fc34d-d680-4969-8533-e6295c2a995c","ios":"levelo://app?vid=965fc34d-d680-4969-8533-e6295c2a995c"},"vehicle_type_id":"4","last_reported":1732040007,"current_range_meters":0,"station_id":"ce4bhlh2rcd13ifvqgig","pricing_plan_id":"cebpf4jnsgd1na2vs0mg"},{"bike_id":"34fbb780-c0fa-45cf-bcf9-ca38bcd2e858","system_id":"levelo_inurba_marseille","lat":43.33027,"lon":5.3904,"is_reserved":false,"is_disabled":false,"rental_uris":{"android":"levelo://app?vid=34fbb780-c0fa-45cf-bcf9-ca38bcd2e858","ios":"levelo://app?vid=34fbb780-c0fa-45cf-bcf9-ca38bcd2e858"},"vehicle_type_id":"4","last_reported":1732040007,"current_range_meters":10800,"station_id":"ce4bhr92rcd13ifvqhrg","pricing_plan_id":"cebpf4jnsgd1na2vs0mg"},{"bike_id":"3721bf3a-cd39-48e9-976a-eaf7e01ea65a","system_id":"levelo_inurba_marseille","lat":43.24389,"lon":5.37057,"is_reserved":false,"is_disabled":true,"rental_uris":{"android":"levelo://app?vid=3721bf3a-cd39-48e9-976a-eaf7e01ea65a","ios":"levelo://app?vid=3721bf3a-cd39-48e9-976a-eaf7e01ea65a"},"vehicle_type_id":"4","last_reported":1732040007,"current_range_meters":0,"station_id":"ce4bhhh2rcd13ifvqfk0","pricing_plan_id":"cebpf4jnsgd1na2vs0mg"},{"bike_id":"bd16b953-352b-4737-8d86-d92d1e84dea2","system_id":"levelo_inurba_marseille","lat":43.26799,"lon":5.39421,"is_reserved":false,"is_disabled":false,"rental_uris":{"android":"levelo://app?vid=bd16b953-352b-4737-8d86-d92d1e84dea2","ios":"levelo://app?vid=bd16b953-352b-4737-8d86-d92d1e84dea2"},"vehicle_type_id":"4","last_reported":1732040007,"current_range_meters":39200,"station_id":"ce4bhh12rcd13ifvqfg0","pricing_plan_id":"cebpf4jnsgd1na2vs0mg"},{"bike_id":"64423f55-bd58-4e5f-98b5-ff5d7b2b74e7","system_id":"levelo_inurba_marseille","lat":43.3118,"lon":5.38718,"is_reserved":false,"is_disabled":false,"rental_uris":{"android":"levelo://app?vid=64423f55-bd58-4e5f-98b5-ff5d7b2b74e7","ios":"levelo://app?vid=64423f55-bd58-4e5f-98b5-ff5d7b2b74e7"},"vehicle_type_id":"4","last_reported":1732040007,"current_range_meters":37600,"station_id":"ce4bgv12rcd13ifvqcp0","pricing_plan_id":"cebpf4jnsgd1na2vs0mg"},{"bike_id":"500e7cee-65e0-4e97-840b-fb96a15b4e73","system_id":"levelo_inurba_marseille","lat":43.2679,"lon":5.3941,"is_reserved":false,"is_disabled":false,"rental_uris":{"android":"levelo://app?vid=500e7cee-65e0-4e97-840b-fb96a15b4e73","ios":"levelo://app?vid=500e7cee-65e0-4e97-840b-fb96a15b4e73"},"vehicle_type_id":"4","last_reported":1732040007,"current_range_meters":30400,"station_id":"ce4bhh12rcd13ifvqfg0","pricing_plan_id":"cebpf4jnsgd1na2vs0mg"},{"bike_id":"18b8f091-c34a-472c-8dc3-5f3caf056c58","system_id":"levelo_inurba_marseille","lat":43.337444,"lon":5.374475,"is_reserved":false,"is_disabled":false,"rental_uris":{"android":"levelo://app?vid=18b8f091-c34a-472c-8dc3-5f3caf056c58","ios":"levelo://app?vid=18b8f091-c34a-472c-8dc3-5f3caf056c58"},"vehicle_type_id":"4","last_reported":1732040007,"current_range_meters":38400,"station_id":"","pricing_plan_id":"cebpf4jnsgd1na2vs0mg"},{"bike_id":"9044f75c-15b5-4f34-bbd2-226c9f41adac","system_id":"levelo_inurba_marseille","lat":43.27615,"lon":5.361,"is_reserved":false,"is_disabled":true,"rental_uris":{"android":"levelo://app?vid=9044f75c-15b5-4f34-bbd2-226c9f41adac","ios":"levelo://app?vid=9044f75c-15b5-4f34-bbd2-226c9f41adac"},"vehicle_type_id":"4","last_reported":1732040007,"current_range_meters":32400,"station_id":"ce4bgj92rcd13ifvqbe0","pricing_plan_id":"cebpf4jnsgd1na2vs0mg"},{"bike_id":"e03a06b6-df6d-487f-8834-4cdb03f56f47","system_id":"levelo_inurba_marseille","lat":43.281145,"lon":5.440875,"is_reserved":false,"is_disabled":true,"rental_uris":{"android":"levelo://app?vid=e03a06b6-df6d-487f-8834-4cdb03f56f47","ios":"levelo://app?vid=e03a06b6-df6d-487f-8834-4cdb03f56f47"},"vehicle_type_id":"4","last_reported":1732040007,"current_range_meters":0,"station_id":"","pricing_plan_id":"cebpf4jnsgd1na2vs0mg"},{"bike_id":"f5557847-0cf1-4ada-bcd6-c7726194655d","system_id":"levelo_inurba_marseille","lat":43.3377,"lon":5.37436,"is_reserved":false,"is_disabled":false,"rental_uris":{"android":"levelo://app?vid=f5557847-0cf1-4ada-bcd6-c7726194655d","ios":"levelo://app?vid=f5557847-0cf1-4ada-bcd6-c7726194655d"},"vehicle_type_id":"4","last_reported":1732040007,"current_range_meters":36400,"station_id":"","pricing_plan_id":"cebpf4jnsgd1na2vs0mg"},{"bike_id":"932e21f6-5130-42ef-af5c-4ef3ee2b31bd","system_id":"levelo_inurba_marseille","lat":43.2873,"lon":5.37925,"is_reserved":false,"is_disabled":false,"rental_uris":{"android":"levelo://app?vid=932e21f6-5130-42ef-af5c-4ef3ee2b31bd","ios":"levelo://app?vid=932e21f6-5130-42ef-af5c-4ef3ee2b31bd"},"vehicle_type_id":"4","last_reported":1732040007,"current_range_meters":18800,"station_id":"ce4bh9p2rcd13ifvqec0","pricing_plan_id":"cebpf4jnsgd1na2vs0mg"},{"bike_id":"79511df2-b072-4a83-b5fb-62b31b8c5f1e","system_id":"levelo_inurba_marseille","lat":43.30531,"lon":5.367,"is_reserved":false,"is_disabled":true,"rental_uris":{"android":"levelo://app?vid=79511df2-b072-4a83-b5fb-62b31b8c5f1e","ios":"levelo://app?vid=79511df2-b072-4a83-b5fb-62b31b8c5f1e"},"vehicle_type_id":"4","last_reported":1732040007,"current_range_meters":17200,"station_id":"ce4bgrp2rcd13ifvqc9g","pricing_plan_id":"cebpf4jnsgd1na2vs0mg"},{"bike_id":"87a1679d-aa59-41b4-bd56-bc5165abd16a","system_id":"levelo_inurba_marseille","lat":43.27901,"lon":5.38006,"is_reserved":false,"is_disabled":true,"rental_uris":{"android":"levelo://app?vid=87a1679d-aa59-41b4-bd56-bc5165abd16a","ios":"levelo://app?vid=87a1679d-aa59-41b4-bd56-bc5165abd16a"},"vehicle_type_id":"4","last_reported":1732040007,"current_range_meters":0,"station_id":"","pricing_plan_id":"cebpf4jnsgd1na2vs0mg"},{"bike_id":"ccf5e94a-251f-4f68-a88b-51e5313a6d6e","system_id":"levelo_inurba_marseille","lat":43.32375,"lon":5.38874,"is_reserved":false,"is_disabled":false,"rental_uris":{"android":"levelo://app?vid=ccf5e94a-251f-4f68-a88b-51e5313a6d6e","ios":"levelo://app?vid=ccf5e94a-251f-4f68-a88b-51e5313a6d6e"},"vehicle_type_id":"4","last_reported":1732040007,"current_range_meters":10800,"station_id":"ce4bhqp2rcd13ifvqhog","pricing_plan_id":"cebpf4jnsgd1na2vs0mg"},{"bike_id":"6e127729-f661-4a28-b0b0-5227e578dc95","system_id":"levelo_inurba_marseille","lat":43.31714,"lon":5.3775,"is_reserved":false,"is_disabled":false,"rental_uris":{"android":"levelo://app?vid=6e127729-f661-4a28-b0b0-5227e578dc95","ios":"levelo://app?vid=6e127729-f661-4a28-b0b0-5227e578dc95"},"vehicle_type_id":"4","last_reported":1732040007,"current_range_meters":36400,"station_id":"ce4bgth2rcd13ifvqch0","pricing_plan_id":"cebpf4jnsgd1na2vs0mg"},{"bike_id":"a0d19315-a342-4396-a3e6-6b3b248adc45","system_id":"levelo_inurba_marseille","lat":43.28165,"lon":5.42637,"is_reserved":false,"is_disabled":false,"rental_uris":{"android":"levelo://app?vid=a0d19315-a342-4396-a3e6-6b3b248adc45","ios":"levelo://app?vid=a0d19315-a342-4396-a3e6-6b3b248adc45"},"vehicle_type_id":"4","last_reported":1732040007,"current_range_meters":37600,"station_id":"ce4bhnh2rcd13ifvqgug","pricing_plan_id":"cebpf4jnsgd1na2vs0mg"},