{"last_updated":1770208522,"ttl":60,"version":"2.2","data":{"bikes":[{"bike_id":"9524f3a1-79a1-42d1-a517-6e497b346b07","system_id":"levelo_inurba_marseille","lat":43.26559,"lon":5.37308,"is_reserved":false,"is_disabled":false,"rental_uris":{"android":"levelo://app?vid=9524f3a1-79a1-42d1-a517-6e497b346b07","ios":"levelo://app?vid=9524f3a1-79a1-42d1-a517-6e497b346b07"},"vehicle_type_id":"4","last_reported":1770208522,"current_range_meters":2800,"station_id":"ce4bhg12rcd13ifvqf70","pricing_plan_id":"cebpf4jnsgd1na2vs0mg"},{"bike_id":"8094b498-d987-426c-9fbb-fd85d0665cb8","system_id":"levelo_inurba_marseille","lat":43.30949,"lon":5.39023,"is_reserved":false,"is_disabled":false,"rental_uris":{"android":"levelo://app?vid=8094b498-d987-426c-9fbb-fd85d0665cb8","ios":"levelo://app?vid=8094b498-d987-426c-9fbb-fd85d0665cb8"},"vehicle_type_id":"4","last_reported":1770208522,"current_range_meters":2800,"station_id":"ce4bgup2rcd13ifvqco0","pricing_plan_id":"cebpf4jnsgd1na2vs0mg"},{"bike_id":"ec641dac-65dc-4442-939a-813e2e5c4c75","system_id":"levelo_inurba_marseille","lat":43.30538,"lon":5.36528,"is_reserved":false,"is_disabled":false,"rental_uris":{"android":"levelo://app?vid=ec641dac-65dc-4442-939a-813e2e5c4c75","ios":"levelo://app?vid=ec641dac-65dc-4442-939a-813e2e5c4c75"},"vehicle_type_id":"4","last_reported":1770208522,"current_range_meters":2800,"station_id":"ce4bgs12rcd13ifvqcag","pricing_plan_id":"cebpf4jnsgd1na2vs0mg"},{"bike_id":"c3ba0fed-3d29-4191-b8a3-c899b1e9e5ad","system_id":"levelo_inurba_marseille","lat":43.25566,"lon":5.38242,"is_reserved":false,"is_disabled":false,"rental_uris":{"android":"levelo://app?vid=c3ba0fed-3d29-4191-b8a3-c899b1e9e5ad","ios":"levelo://app?vid=c3ba0fed-3d29-4191-b8a3-c899b1e9e5ad"},"vehicle_type_id":"4","last_reported":1770208522,"current_range_meters":2800,"station_id":"ce4bhih2rcd13ifvqfs0","pricing_plan_id":"cebpf4jnsgd1na2vs0mg"},{"bike_id":"ef30bb24-f45f-400c-9967-a2a3b2da1488","system_id":"levelo_inurba_marseille","lat":43.28287,"lon":5.39445,"is_reserved":false,"is_disabled":false,"rental_uris":{"android":"levelo://app?vid=ef30bb24-f45f-400c-9967-a2a3b2da1488","ios":"levelo://app?vid=ef30bb24-f45f-400c-9967-a2a3b2da1488"},"vehicle_type_id":"4","last_reported":1770208522,"current_range_meters":2800,"station_id":"","pricing_plan_id":"cebpf4jnsgd1na2vs0mg"},{"bike_id":"b83491b2-cbe6-4c96-be7c-2c63febb4278","system_id":"levelo_inurba_marseille","lat":43.271727,"lon":5.409931,"is_reserved":false,"is_disabled":false,"rental_uris":{"android":"levelo://app?vid=b83491b2-cbe6-4c96-be7c-2c63febb4278","ios":"levelo://app?vid=b83491b2-cbe6-4c96-be7c-2c63febb4278"},"vehicle_type_id":"4","last_reported":1770208522,"current_range_meters":2800,"station_id":"ce4bhl12rcd13ifvqgf0","pricing_plan_id":"cebpf4jnsgd1na2vs0mg"},{"bike_id":"6d518216-f8a9-4e4a-8bcd-55396fdfb405","system_id":"levelo_inurba_marseille","lat":43.26773,"lon":5.39414,"is_reserved":false,"is_disabled":false,"rental_uris":{"android":"levelo://app?vid=6d518216-f8a9-4e4a-8bcd-55396fdfb405","ios":"levelo://app?vid=6d518216-f8a9-4e4a-8bcd-55396fdfb405"},"vehicle_type_id":"4","last_reported":1770208522,"current_range_meters":2800,"station_id":"ce4bhh12rcd13ifvqfg0","pricing_plan_id":"cebpf4jnsgd1na2vs0mg"},{"bike_id":"f8e7e4d9-f87a-42a2-9144-b6886b943f25","system_id":"levelo_inurba_marseille","lat":43.24981,"lon":5.38933,"is_reserved":false,"is_disabled":false,"rental_uris":{"android":"levelo://app?vid=f8e7e4d9-f87a-42a2-9144-b6886b943f25","ios":"levelo://app?vid=f8e7e4d9-f87a-42a2-9144-b6886b943f25"},"vehicle_type_id":"4","last_reported":1770208522,"current_range_meters":3200,"station_id":"ce4bhgp2rcd13ifvqfd0","pricing_plan_id":"cebpf4jnsgd1na2vs0mg"},{"bike_id":"151047fe-b117-41cf-9416-4f91d0d3c1a9","system_id":"levelo_inurba_marseille","lat":43.31856,"lon":5.36908,"is_reserved":false,"is_disabled":false,"rental_uris":{"android":"levelo://app?vid=151047fe-b117-41cf-9416-4f91d0d3c1a9","ios":"levelo://app?vid=151047fe-b117-41cf-9416-4f91d0d3c1a9"},"vehicle_type_id":"4","last_reported":1770208522,"current_range_meters":3200,"station_id":"","pricing_plan_id":"cebpf4jnsgd1na2vs0mg"},{"bike_id":"dcaa4a8f-eeeb-4a65-b90b-db85565e00da","system_id":"levelo_inurba_marseille","lat":43.24187,"lon":5.36371,"is_reserved":false,"is_disabled":false,"rental_uris":{"android":"levelo://app?vid=dcaa4a8f-eeeb-4a65-b90b-db85565e00da","ios":"levelo://app?vid=dcaa4a8f-eeeb-4a65-b90b-db85565e00da"},"vehicle_type_id":"4","last_reported":1770208522,"current_range_meters":3200,"station_id":"cpo36qri1sfpv3e86is0","pricing_plan_id":"cebpf4jnsgd1na2vs0mg"},{"bike_id":"6b23fa73-9bf1-48f5-805c-e4e804aac182","system_id":"levelo_inurba_marseille","lat":43.24393,"lon":5.37033,"is_reserved":false,"is_disabled":false,"rental_uris":{"android":"levelo://app?vid=6b23fa73-9bf1-48f5-805c-e4e804aac182","ios":"levelo://app?vid=6b23fa73-9bf1-48f5-805c-e4e804aac182"},"vehicle_type_id":"4","last_reported":1770208522,"current_range_meters":3200,"station_id":"ce4bhhh2rcd13ifvqfk0","pricing_plan_id":"cebpf4jnsgd1na2vs0mg"},{"bike_id":"27dea1ae-7fec-494d-ad3e-27f10de6e20e","system_id":"levelo_inurba_marseille","lat":43.29561,"lon":5.42257,"is_reserved":false,"is_disabled":false,"rental_uris":{"android":"levelo://app?vid=27dea1ae-7fec-494d-ad3e-27f10de6e20e","ios":"levelo://app?vid=27dea1ae-7fec-494d-ad3e-27f10de6e20e"},"vehicle_type_id":"4","last_reported":1770208522,"current_range_meters":3200,"station_id":"ce4bhph2rcd13ifvqhdg","pricing_plan_id":"cebpf4jnsgd1na2vs0mg"},{"bike_id":"09dac929-9f41-465e-a067-c7854d903423","system_id":"levelo_inurba_marseille","lat":43.30176,"lon":5.37411,"is_reserved":false,"is_disabled":false,"rental_uris":{"android":"levelo://app?vid=09dac929-9f41-465e-a067-c7854d903423","ios":"levelo://app?vid=09dac929-9f41-465e-a067-c7854d903423"},"vehicle_type_id":"4","last_reported":1770208522,"current_range_meters":3200,"station_id":"ce4bgs92rcd13ifvqcc0","pricing_plan_id":"cebpf4jnsgd1na2vs0mg"},{"bike_id":"2bf19671-0061-46e9-83e3-55d71bb70148","system_id":"levelo_inurba_marseille","lat":43.22931,"lon":5.35388,"is_reserved":false,"is_disabled":false,"rental_uris":{"android":"levelo://app?vid=2bf19671-0061-46e9-83e3-55d71bb70148","ios":"levelo://app?vid=2bf19671-0061-46e9-83e3-55d71bb70148"},"vehicle_type_id":"4","last_reported":1770208522,"current_range_meters":3600,"station_id":"cpo3532slgdg3j2ikp40","pricing_plan_id":"cebpf4jnsgd1na2vs0mg"},{"bike_id":"9e057795-08d0-428c-a4d6-14e223435515","system_id":"levelo_inurba_marseille","lat":43.24586,"lon":5.37366,"is_reserved":false,"is_disabled":false,"rental_uris":{"android":"levelo://app?vid=9e057795-08d0-428c-a4d6-14e223435515","ios":"levelo://app?vid=9e057795-08d0-428c-a4d6-14e223435515"},"vehicle_type_id":"4","last_reported":1770208522,"current_range_meters":3600,"station_id":"","pricing_plan_id":"cebpf4jnsgd1na2vs0mg"},{"bike_id":"f855d74b-e8d1-4e22-b7ab-ea0e87fdb7b7","system_id":"levelo_inurba_marseille","lat":43.23152,"lon":5.43719,"is_reserved":false,"is_disabled":false,"rental_uris":{"android":"levelo://app?vid=f855d74b-e8d1-4e22-b7ab-ea0e87fdb7b7","ios":"levelo://app?vid=f855d74b-e8d1-4e22-b7ab-ea0e87fdb7b7"},"vehicle_type_id":"4","last_reported":1770208522,"current_range_meters":3600,"station_id":"ce4bhmp2rcd13ifvqgog","pricing_plan_id":"cebpf4jnsgd1na2vs0mg"},{"bike_id":"bcbaa8a6-886f-4091-ae26-8ec7b68ef274","system_id":"levelo_inurba_marseille","lat":43.23788,"lon":5.3663,"is_reserved":false,"is_disabled":false,"rental_uris":{"android":"levelo://app?vid=bcbaa8a6-886f-4091-ae26-8ec7b68ef274","ios":"levelo://app?vid=bcbaa8a6-886f-4091-ae26-8ec7b68ef274"},"vehicle_type_id":"4","last_reported":1770208522,"current_range_meters":3600,"station_id":"st_d3nk18o9ro0c73en2l3g","pricing_plan_id":"cebpf4jnsgd1na2vs0mg"},{"bike_id":"40954e61-dd73-4b29-8cc4-cc138532c8aa","system_id":"levelo_inurba_marseille","lat":43.29228,"lon":5.42519,"is_reserved":false,"is_disabled":false,"rental_uris":{"android":"levelo://app?vid=40954e61-dd73-4b29-8cc4-cc138532c8aa","ios":"levelo://app?vid=40954e61-dd73-4b29-8cc4-cc138532c8aa"},"vehicle_type_id":"4","last_reported":1770208522,"current_range_meters":3600,"station_id":"","pricing_plan_id":"cebpf4jnsgd1na2vs0mg"},{"bike_id":"5396fda1-c3a0-4d51-8ba0-cfe497a166d7","system_id":"levelo_inurba_marseille","lat":43.26557,"lon":5.38986,"is_reserved":false,"is_disabled":false,"rental_uris":{"android":"levelo://app?vid=5396fda1-c3a0-4d51-8ba0-cfe497a166d7","ios":"levelo://app?vid=5396fda1-c3a0-4d51-8ba0-cfe497a166d7"},"vehicle_type_id":"4","last_reported":1770208522,"current_range_meters":3600,"station_id":"ce4bhe12rcd13ifvqf30","pricing_plan_id":"cebpf4jnsgd1na2vs0mg"},{"bike_id":"95648f98-f685-4cd2-91a0-d120472b20a3","system_id":"levelo_inurba_marseille","lat":43.3053,"lon":5.36498,"is_reserved":false,"is_disabled":false,"rental_uris":{"android":"levelo://app?vid=95648f98-f685-4cd2-91a0-d120472b20a3","ios":"levelo://app?vid=95648f98-f685-4cd2-91a0-d120472b20a3"},"vehicle_type_id":"4","last_reported":1770208522,"current_range_meters":3600,"station_id":"","pricing_plan_id":"cebpf4jnsgd1na2vs0mg"},{"bike_id":"45bbbf8e-f178-4741-93f5-90636312bdf2","system_id":"levelo_inurba_marseille","lat":43.30438,"lon":5.38896,"is_reserved":false,"is_disabled":false,"rental_uris":{"android":"levelo://app?vid=45bbbf8e-f178-4741-93f5-90636312bdf2","ios":"levelo://app?vid=45bbbf8e-f178-4741-93f5-90636312bdf2"},"vehicle_type_id":"4","last_reported":1770208522,"current_range_meters":4000,"station_id":"ce4bgk12rcd13ifvqbi0","pricing_plan_id":"cebpf4jnsgd1na2vs0mg"},{"bike_id":"e5e09432-51e2-4e4c-90db-5548743d89de","system_id":"levelo_inurba_marseille","lat":43.29043,"lon":5.37575,"is_reserved":false,"is_disabled":false,"rental_uris":{"android":"levelo://app?vid=e5e09432-51e2-4e4c-90db-5548743d89de","ios":"levelo://app?vid=e5e09432-51e2-4e4c-90db-5548743d89de"},"vehicle_type_id":"4","last_reported":1770208522,"current_range_meters":4000,"station_id":"ce4bh692rcd13ifvqe90","pricing_plan_id":"cebpf4jnsgd1na2vs0mg"},{"bike_id":"e1b3cad6-dccc-4f80-892b-59b83fe43b75","system_id":"levelo_inurba_marseille","lat":43.29572,"lon":5.36721,"is_reserved":false,"is_disabled":false,"rental_uris":{"android":"levelo://app?vid=e1b3cad6-dccc-4f80-892b-59b83fe43b75","ios":"levelo://app?vid=e1b3cad6-dccc-4f80-892b-59b83fe43b75"},"vehicle_type_id":"4","last_reported":1770208522,"current_range_meters":4000,"station_id":"ce4bgph2rcd13ifvqc2g","pricing_plan_id":"cebpf4jnsgd1na2vs0mg"},{"bike_id":"7f77f6a6-911c-44cf-97f5-71224b3633e0","system_id":"levelo_inurba_marseille","lat":43.252247,"lon":5.380331,"is_reserved":false,"is_disabled":false,"rental_uris":{"android":"levelo://app?vid=7f77f6a6-911c-44cf-97f5-71224b3633e0","ios":"levelo://app?vid=7f77f6a6-911c-44cf-97f5-71224b3633e0"},"vehicle_type_id":"4","last_reported":1770208522,"current_range_meters":4000,"station_id":"","pricing_plan_id":"cebpf4jnsgd1na2vs0mg"},{"bike_id":"de8bb1b1-68b5-432a-8270-80a8b925ef6a","system_id":"levelo_inurba_marseille","lat":43.32508,"lon":5.38273,"is_reserved":false,"is_disabled":false,"rental_uris":{"android":"levelo://app?vid=de8bb1b1-68b5-432a-8270-80a8b925ef6a","ios":"levelo://app?vid=de8bb1b1-68b5-432a-8270-80a8b925ef6a"},"vehicle_type_id":"4","last_reported":1770208522,"current_range_meters":4000,"station_id":"st_d4asgbiv49dc73anf9m0","pricing_plan_id":"cebpf4jnsgd1na2vs0mg"},{"bike_id":"30b0a66c-3c65-486d-80e4-7dd9acfc4ef3","system_id":"levelo_inurba_marseille","lat":43.26579,"lon":5.37299,"is_reserved":false,"is_disabled":false,"rental_uris":{"android":"levelo://app?vid=30b0a66c-3c65-486d-80e4-7dd9acfc4ef3","ios":"levelo://app?vid=30b0a66c-3c65-486d-80e4-7dd9acfc4ef3"},"vehicle_type_id":"4","last_reported":1770208522,"current_range_meters":4000,"station_id":"ce4bhg12rcd13ifvqf70","pricing_plan_id":"cebpf4jnsgd1na2vs0mg"},{"bike_id":"c6e323e3-4052-4940-8ba6-87e1847b0dcf","system_id":"levelo_inurba_marseille","lat":43.2595,"lon":5.40911,"is_reserved":false,"is_disabled":false,"rental_uris":{"android":"levelo://app?vid=c6e323e3-4052-4940-8ba6-87e1847b0dcf","ios":"levelo://app?vid=c6e323e3-4052-4940-8ba6-87e1847b0dcf"},"vehicle_type_id":"4","last_reported":1770208522,"current_range_meters":4000,"station_id":"ce4bhm92rcd13ifvqglg","pricing_plan_id":"cebpf4jnsgd1na2vs0mg"},{"bike_id":"bbb1adbf-088d-4a40-9e8d-3ca5fc6ba99f","system_id":"levelo_inurba_marseille","lat":43.25584,"lon":5.38224,"is_reserved":false,"is_disabled":false,"rental_uris":{"android":"levelo://app?vid=bbb1adbf-088d-4a40-9e8d-3ca5fc6ba99f","ios":"levelo://app?vid=bbb1adbf-088d-4a40-9e8d-3ca5fc6ba99f"},"vehicle_type_id":"4","last_reported":1770208522,"current_range_meters":4000,"station_id":"ce4bhih2rcd13ifvqfs0","pricing_plan_id":"cebpf4jnsgd1na2vs0mg"},{"bike_id":"2dbd75cf-8d6a-4b1e-8a51-8d38e5843da1","system_id":"levelo_inurba_marseille","lat":43.31064,"lon":5.37185,"is_reserved":false,"is_disabled":false,"rental_uris":{"android":"levelo://app?vid=2dbd75cf-8d6a-4b1e-8a51-8d38e5843da1","ios":"levelo://app?vid=2dbd75cf-8d6a-4b1e-8a51-8d38e5843da1"},"vehicle_type_id":"4","last_reported":1770208522,"current_range_meters":4400,"station_id":"st_d4kl2rp97mjs73e7tdfg","pricing_plan_id":"cebpf4jnsgd1na2vs0mg"},{"bike_id":"87d2aa69-0711-41e5-b394-fd12f493686e","system_id":"levelo_inurba_marseille","lat":43.28565,"lon":5.39492,"is_reserved":false,"is_disabled":false,"rental_uris":{"android":"levelo://app?vid=87d2aa69-0711-41e5-b394-fd12f493686e","ios":"levelo://app?vid=87d2aa69-0711-41e5-b394-fd12f493686e"},"vehicle_type_id":"4","last_reported":1770208522,"current_range_meters":4400,"station_id":"ce4bh292rcd13ifvqdg0","pricing_plan_id":"cebpf4jnsgd1na2vs0mg"},{"bike_id":"5de5e604-6504-4a1a-966a-dc6c49a789b3","system_id":"levelo_inurba_marseille","lat":43.295781,"lon":5.367544,"is_reserved":false,"is_disabled":false,"rental_uris":{"android":"levelo://app?vid=5de5e604-6504-4a1a-966a-dc6c49a789b3","ios":"levelo://app?vid=5de5e604-6504-4a1a-966a-dc6c49a789b3"},"vehicle_type_id":"4","last_reported":1770208522,"current_range_meters":4400,"station_id":"ce4bgph2rcd13ifvqc2g","pricing_plan_id":"cebpf4jnsgd1na2vs0mg"},{"bike_id":"5b3811ef-5681-4c18-aac4-a62920f9a85c","system_id":"levelo_inurba_marseille","lat":43.28455,"lon":5.51486,"is_reserved":false,"is_disabled":false,"rental_uris":{"android":"levelo://app?vid=5b3811ef-5681-4c18-aac4-a62920f9a85c","ios":"levelo://app?vid=5b3811ef-5681-4c18-aac4-a62920f9a85c"},"vehicle_type_id":"4","last_reported":1770208522,"current_range_meters":4400,"station_id":"","pricing_plan_id":"cebpf4jnsgd1na2vs0mg"},{"bike_id":"e1352ab9-941b-4648-8975-c50d5564767a","system_id":"levelo_inurba_marseille","lat":43.2998,"lon":5.4133,"is_reserved":false,"is_disabled":false,"rental_uris":{"android":"levelo://app?vid=e1352ab9-941b-4648-8975-c50d5564767a","ios":"levelo://app?vid=e1352ab9-941b-4648-8975-c50d5564767a"},"vehicle_type_id":"4","last_reported":1770208522,"current_range_meters":4400,"station_id":"ce4bhp12rcd13ifvqh9g","pricing_plan_id":"cebpf4jnsgd1na2vs0mg"},{"bike_id":"d01c0a83-dd8c-4c61-9890-600147020ac8","system_id":"levelo_inurba_marseille","lat":43.26924,"lon":5.38654,"is_reserved":false,"is_disabled":false,"rental_uris":{"android":"levelo://app?vid=d01c0a83-dd8c-4c61-9890-600147020ac8","ios":"levelo://app?vid=d01c0a83-dd8c-4c61-9890-600147020ac8"},"vehicle_type_id":"4","last_reported":1770208522,"current_range_meters":4800,"station_id":"ce4bhh92rcd13ifvqfh0","pricing_plan_id":"cebpf4jnsgd1na2vs0mg"},{"bike_id":"5db40262-c973-4b13-b2a9-ee1639ccf6b3","system_id":"levelo_inurba_marseille","lat":43.24814,"lon":5.37457,"is_reserved":false,"is_disabled":false,"rental_uris":{"android":"levelo://app?vid=5db40262-c973-4b13-b2a9-ee1639ccf6b3","ios":"levelo://app?vid=5db40262-c973-4b13-b2a9-ee1639ccf6b3"},"vehicle_type_id":"4","last_reported":1770208522,"current_range_meters":4800,"station_id":"ce4bhgh2rcd13ifvqfb0","pricing_plan_id":"cebpf4jnsgd1na2vs0mg"},{"bike_id":"2ac609ee-0449-449f-a5ec-493d35e659ec","system_id":"levelo_inurba_marseille","lat":43.30184,"lon":5.37404,"is_reserved":false,"is_disabled":false,"rental_uris":{"android":"levelo://app?vid=2ac609ee-0449-449f-a5ec-493d35e659ec","ios":"levelo://app?vid=2ac609ee-0449-449f-a5ec-493d35e659ec"},"vehicle_type_id":"4","last_reported":1770208522,"current_range_meters":4800,"station_id":"ce4bgpp2rcd13ifvqc3g","pricing_plan_id":"cebpf4jnsgd1na2vs0mg"},{"bike_id":"83031ca8-9a01-425b-992d-e4dc7237fe73","system_id":"levelo_inurba_marseille","lat":43.22934,"lon":5.35374,"is_reserved":false,"is_disabled":false,"rental_uris":{"android":"levelo://app?vid=83031ca8-9a01-425b-992d-e4dc7237fe73","ios":"levelo://app?vid=83031ca8-9a01-425b-992d-e4dc7237fe73"},"vehicle_type_id":"4","last_reported":1770208522,"current_range_meters":4800,"station_id":"cpo3532slgdg3j2ikp40","pricing_plan_id":"cebpf4jnsgd1na2vs0mg"},{"bike_id":"ff657589-8f0a-4e78-9e52-2ef3d0d63892","system_id":"levelo_inurba_marseille","lat":43.29573,"lon":5.37495,"is_reserved":false,"is_disabled":false,"rental_uris":{"android":"levelo://app?vid=ff657589-8f0a-4e78-9e52-2ef3d0d63892","ios":"levelo://app?vid=ff657589-8f0a-4e78-9e52-2ef3d0d63892"},"vehicle_type_id":"4","last_reported":1770208522,"current_range_meters":4800,"station_id":"ce4bgh92rcd13ifvqb50","pricing_plan_id":"cebpf4jnsgd1na2vs0mg"},{"bike_id":"42055a6f-a27c-491d-af18-a1993239f678","system_id":"levelo_inurba_marseille","lat":43.24648,"lon":5.38156,"is_reserved":false,"is_disabled":false,"rental_uris":{"android":"levelo://app?vid=42055a6f-a27c-491d-af18-a1993239f678","ios":"levelo://app?vid=42055a6f-a27c-491d-af18-a1993239f678"},"vehicle_type_id":"4","last_reported":1770208522,"current_range_meters":4800,"station_id":"ce4bhih2rcd13ifvqfr0","pricing_plan_id":"cebpf4jnsgd1na2vs0mg"},{"bike_id":"f57600aa-3553-4c5b-8eb9-2131032f6811","system_id":"levelo_inurba_marseille","lat":43.28224,"lon":5.39057,"is_reserved":false,"is_disabled":false,"rental_uris":{"android":"levelo://app?vid=f57600aa-3553-4c5b-8eb9-2131032f6811","ios":"levelo://app?vid=f57600aa-3553-4c5b-8eb9-2131032f6811"},"vehicle_type_id":"4","last_reported":1770208522,"current_range_meters":4800,"station_id":"ce4bhn92rcd13ifvqgsg","pricing_plan_id":"cebpf4jnsgd1na2vs0mg"},{"bike_id":"8e312380-e745-433d-90b9-ff07a309073d","system_id":"levelo_inurba_marseille","lat":43.247979,"lon":5.374499,"is_reserved":false,"is_disabled":false,"rental_uris":{"android":"levelo://app?vid=8e312380-e745-433d-90b9-ff07a309073d","ios":"levelo://app?vid=8e312380-e745-433d-90b9-ff07a309073d"},"vehicle_type_id":"4","last_reported":1770208522,"current_range_meters":5600,"station_id":"ce4bhgh2rcd13ifvqfb0","pricing_plan_id":"cebpf4jnsgd1na2vs0mg"},{"bike_id":"c056efdd-bfd4-4d90-a2c4-30f136ba140c","system_id":"levelo_inurba_marseille","lat":43.33499,"lon":5.37475,"is_reserved":false,"is_disabled":false,"rental_uris":{"android":"levelo://app?vid=c056efdd-bfd4-4d90-a2c4-30f136ba140c","ios":"levelo://app?vid=c056efdd-bfd4-4d90-a2c4-30f136ba140c"},"vehicle_type_id":"4","last_reported":1770208522,"current_range_meters":5600,"station_id":"","pricing_plan_id":"cebpf4jnsgd1na2vs0mg"},{"bike_id":"659b2fe8-8a06-4a27-93de-c9d7bd01e359","system_id":"levelo_inurba_marseille","lat":43.29704,"lon":5.37656,"is_reserved":false,"is_disabled":false,"rental_uris":{"android":"levelo://app?vid=659b2fe8-8a06-4a27-93de-c9d7bd01e359","ios":"levelo://app?vid=659b2fe8-8a06-4a27-93de-c9d7bd01e359"},"vehicle_type_id":"4","last_reported":1770208522,"current_range_meters":5600,"station_id":"ce4bgkh2rcd13ifvqbl0","pricing_plan_id":"cebpf4jnsgd1na2vs0mg"},{"bike_id":"ba3390f5-14ed-4160-abcf-8bea19885613","system_id":"levelo_inurba_marseille","lat":43.28479,"lon":5.48384,"is_reserved":false,"is_disabled":false,"rental_uris":{"android":"levelo://app?vid=ba3390f5-14ed-4160-abcf-8bea19885613","ios":"levelo://app?vid=ba3390f5-14ed-4160-abcf-8bea19885613"},"vehicle_type_id":"4","last_reported":1770208522,"current_range_meters":5600,"station_id":"","pricing_plan_id":"cebpf4jnsgd1na2vs0mg"},{"bike_id":"191a99ed-49ff-4737-8f82-7264bf56cc6c","system_id":"levelo_inurba_marseille","lat":43.249996,"lon":5.389376,"is_reserved":false,"is_disabled":false,"rental_uris":{"android":"levelo://app?vid=191a99ed-49ff-4737-8f82-7264bf56cc6c","ios":"levelo://app?vid=191a99ed-49ff-4737-8f82-7264bf56cc6c"},"vehicle_type_id":"4","last_reported":1770208522,"current_range_meters":5600,"station_id":"ce4bhgp2rcd13ifvqfd0","pricing_plan_id":"cebpf4jnsgd1na2vs0mg"},{"bike_id":"b4a2ae19-0151-403d-8263-c34165b4939a","system_id":"levelo_inurba_marseille","lat":43.29046,"lon":5.39977,"is_reserved":false,"is_disabled":false,"rental_uris":{"android":"levelo://app?vid=b4a2ae19-0151-403d-8263-c34165b4939a","ios":"levelo://app?vid=b4a2ae19-0151-403d-8263-c34165b4939a"},"vehicle_type_id":"4","last_reported":1770208522,"current_range_meters":5600,"station_id":"ce4bh392rcd13ifvqdm0","pricing_plan_id":"cebpf4jnsgd1na2vs0mg"},{"bike_id":"ccad5bb8-727e-4e27-b0cc-7b2f496ea109","system_id":"levelo_inurba_marseille","lat":43.29549,"lon":5.42307,"is_reserved":false,"is_disabled":false,"rental_uris":{"android":"levelo://app?vid=ccad5bb8-727e-4e27-b0cc-7b2f496ea109","ios":"levelo://app?vid=ccad5bb8-727e-4e27-b0cc-7b2f496ea109"},"vehicle_type_id":"4","last_reported":1770208522,"current_range_meters":5600,"station_id":"ce4bhph2rcd13ifvqhdg","pricing_plan_id":"cebpf4jnsgd1na2vs0mg"},{"bike_id":"11dc3c18-d7bb-4bad-aa8e-3cb3581b3322","system_id":"levelo_inurba_marseille","lat":43.27617,"lon":5.36117,"is_reserved":false,"is_disabled":false,"rental_uris":{"android":"levelo://app?vid=11dc3c18-d7bb-4bad-aa8e-3cb3581b3322","ios":"levelo://app?vid=11dc3c18-d7bb-4bad-aa8e-3cb3581b3322"},"vehicle_type_id":"4","last_reported":1770208522,"current_range_meters":5600,"station_id":"ce4bgj92rcd13ifvqbe0","pricing_plan_id":"cebpf4jnsgd1na2vs0mg"},{"bike_id":"7f543a01-3b58-4145-a8d7-30f35856f19d","system_id":"levelo_inurba_marseille","lat":43.27208,"lon":5.39181,"is_reserved":false,"is_disabled":false,"rental_uris":{"android":"levelo://app?vid=7f543a01-3b58-4145-a8d7-30f35856f19d","ios":"levelo://app?vid=7f543a01-3b58-4145-a8d7-30f35856f19d"},"vehicle_type_id":"4","last_reported":1770208522,"current_range_meters":5600,"station_id":"ce4bhhp2rcd13ifvqfm0","pricing_plan_id":"cebpf4jnsgd1na2vs0mg"},{"bike_id":"160c6749-e1da-4413-b6e4-f568a77a62dd","system_id":"levelo_inurba_marseille","lat":43.2378,"lon":5.36634,"is_reserved":false,"is_disabled":false,"rental_uris":{"android":"levelo://app?vid=160c6749-e1da-4413-b6e4-f568a77a62dd","ios":"levelo://app?vid=160c6749-e1da-4413-b6e4-f568a77a62dd"},"vehicle_type_id":"4","last_reported":1770208522,"current_range_meters":6000,"station_id":"st_d3nk18o9ro0c73en2l3g","pricing_plan_id":"cebpf4jnsgd1na2vs0mg"},{"bike_id":"ce6a297c-e38e-414b-9f51-17f2d75159f8","system_id":"levelo_inurba_marseille","lat":43.28703,"lon":5.37951,"is_reserved":false,"is_disabled":false,"rental_uris":{"android":"levelo://app?vid=ce6a297c-e38e-414b-9f51-17f2d75159f8","ios":"levelo://app?vid=ce6a297c-e38e-414b-9f51-17f2d75159f8"},"vehicle_type_id":"4","last_reported":1770208522,"current_range_meters":6000,"station_id":"ce4bh9p2rcd13ifvqec0","pricing_plan_id":"cebpf4jnsgd1na2vs0mg"},{"bike_id":"7f60859a-307e-490e-80ee-e6ffd1b2af38","system_id":"levelo_inurba_marseille","lat":43.28416,"lon":5.34988,"is_reserved":false,"is_disabled":false,"rental_uris":{"android":"levelo://app?vid=7f60859a-307e-490e-80ee-e6ffd1b2af38","ios":"levelo://app?vid=7f60859a-307e-490e-80ee-e6ffd1b2af38"},"vehicle_type_id":"4","last_reported":1770208522,"current_range_meters":6000,"station_id":"ce4bhbh2rcd13ifvqepg","pricing_plan_id":"cebpf4jnsgd1na2vs0mg"},{"bike_id":"242256f5-f0bd-4204-9565-2087ceacdda5","system_id":"levelo_inurba_marseille","lat":43.2256,"lon":5.41629,"is_reserved":false,"is_disabled":false,"rental_uris":{"android":"levelo://app?vid=242256f5-f0bd-4204-9565-2087ceacdda5","ios":"levelo://app?vid=242256f5-f0bd-4204-9565-2087ceacdda5"},"vehicle_type_id":"4","last_reported":1770208522,"current_range_meters":6000,"station_id":"st_d2o4gvlbi1j2169b742g","pricing_plan_id":"cebpf4jnsgd1na2vs0mg"},{"bike_id":"34dbfd91-7625-4bc5-9a5c-870b71f42353","system_id":"levelo_inurba_marseille","lat":43.266741,"lon":5.382747,"is_reserved":false,"is_disabled":false,"rental_uris":{"android":"levelo://app?vid=34dbfd91-7625-4bc5-9a5c-870b71f42353","ios":"levelo://app?vid=34dbfd91-7625-4bc5-9a5c-870b71f42353"},"vehicle_type_id":"4","last_reported":1770208522,"current_range_meters":6000,"station_id":"ce4bhg92rcd13ifvqf90","pricing_plan_id":"cebpf4jnsgd1na2vs0mg"},{"bike_id":"c214f81c-e58b-4475-ad7c-a9d63d7d79c5","system_id":"levelo_inurba_marseille","lat":43.29563,"lon":5.42285,"is_reserved":false,"is_disabled":false,"rental_uris":{"android":"levelo://app?vid=c214f81c-e58b-4475-ad7c-a9d63d7d79c5","ios":"levelo://app?vid=c214f81c-e58b-4475-ad7c-a9d63d7d79c5"},"vehicle_type_id":"4","last_reported":1770208522,"current_range_meters":6000,"station_id":"ce4bhph2rcd13ifvqhdg","pricing_plan_id":"cebpf4jnsgd1na2vs0mg"},{"bike_id":"8a572f97-bd4f-41ad-aafc-4182500530a4","system_id":"levelo_inurba_marseille","lat":43.2995,"lon":5.37727,"is_reserved":false,"is_disabled":true,"rental_uris":{"android":"levelo://app?vid=8a572f97-bd4f-41ad-aafc-4182500530a4","ios":"levelo://app?vid=8a572f97-bd4f-41ad-aafc-4182500530a4"},"vehicle_type_id":"4","last_reported":1770208522,"current_range_meters":6000,"station_id":"","pricing_plan_id":"cebpf4jnsgd1na2vs0mg"},{"bike_id":"865e398f-900e-4bcf-8abc-c622dca849dc","system_id":"levelo_inurba_marseille","lat":43.27216,"lon":5.39215,"is_reserved":false,"is_disabled":false,"rental_uris":{"android":"levelo://app?vid=865e398f-900e-4bcf-8abc-c622dca849dc","ios":"levelo://app?vid=865e398f-900e-4bcf-8abc-c622dca849dc"},"vehicle_type_id":"4","last_reported":1770208522,"current_range_meters":6000,"station_id":"ce4bhhp2rcd13ifvqfm0","pricing_plan_id":"cebpf4jnsgd1na2vs0mg"},{"bike_id":"fdc74734-8708-4513-9519-5478f60a2254","system_id":"levelo_inurba_marseille","lat":43.24823,"lon":5.3746,"is_reserved":false,"is_disabled":false,"rental_uris":{"android":"levelo://app?vid=fdc74734-8708-4513-9519-5478f60a2254","ios":"levelo://app?vid=fdc74734-8708-4513-9519-5478f60a2254"},"vehicle_type_id":"4","last_reported":1770208522,"current_range_meters":6000,"station_id":"ce4bhgh2rcd13ifvqfb0","pricing_plan_id":"cebpf4jnsgd1na2vs0mg"},{"bike_id":"692d5410-7bea-4ca1-910c-e9224d4fa1ea","system_id":"levelo_inurba_marseille","lat":43.28609,"lon":5.35105,"is_reserved":false,"is_disabled":false,"rental_uris":{"android":"levelo://app?vid=692d5410-7bea-4ca1-910c-e9224d4fa1ea","ios":"levelo://app?vid=692d5410-7bea-4ca1-910c-e9224d4fa1ea"},"vehicle_type_id":"4","last_reported":1770208522,"current_range_meters":6000,"station_id":"","pricing_plan_id":"cebpf4jnsgd1na2vs0mg"},{"bike_id":"03957cd6-ee2d-47d1-948d-c3da3284d226","system_id":"levelo_inurba_marseille","lat":43.28927,"lon":5.36398,"is_reserved":false,"is_disabled":false,"rental_uris":{"android":"levelo://app?vid=03957cd6-ee2d-47d1-948d-c3da3284d226","ios":"levelo://app?vid=03957cd6-ee2d-47d1-948d-c3da3284d226"},"vehicle_type_id":"4","last_reported":1770208522,"current_range_meters":6000,"station_id":"ce4bhc92rcd13ifvqetg","pricing_plan_id":"cebpf4jnsgd1na2vs0mg"},{"bike_id":"a1d40264-31fa-4368-a92c-3f50c8a64b96","system_id":"levelo_inurba_marseille","lat":43.23149,"lon":5.43719,"is_reserved":false,"is_disabled":false,"rental_uris":{"android":"levelo://app?vid=a1d40264-31fa-4368-a92c-3f50c8a64b96","ios":"levelo://app?vid=a1d40264-31fa-4368-a92c-3f50c8a64b96"},"vehicle_type_id":"4","last_reported":1770208522,"current_range_meters":6000,"station_id":"ce4bhmp2rcd13ifvqgog","pricing_plan_id":"cebpf4jnsgd1na2vs0mg"},{"bike_id":"26c3ff81-fcd0-462b-9c5c-12c8dcfb641f","system_id":"levelo_inurba_marseille","lat":43.29892,"lon":5.38897,"is_reserved":false,"is_disabled":false,"rental_uris":{"android":"levelo://app?vid=26c3ff81-fcd0-462b-9c5c-12c8dcfb641f","ios":"levelo://app?vid=26c3ff81-fcd0-462b-9c5c-12c8dcfb641f"},"vehicle_type_id":"4","last_reported":1770208522,"current_range_meters":6000,"station_id":"ce4bh392rcd13ifvqdl0","pricing_plan_id":"cebpf4jnsgd1na2vs0mg"},{"bike_id":"d863964b-1765-40d1-8b0c-d4f383cfb831","system_id":"levelo_inurba_marseille","lat":43.29943,"lon":5.36526,"is_reserved":false,"is_disabled":false,"rental_uris":{"android":"levelo://app?vid=d863964b-1765-40d1-8b0c-d4f383cfb831","ios":"levelo://app?vid=d863964b-1765-40d1-8b0c-d4f383cfb831"},"vehicle_type_id":"4","last_reported":1770208522,"current_range_meters":6000,"station_id":"ce4bgm92rcd13ifvqbr0","pricing_plan_id":"cebpf4jnsgd1na2vs0mg"},{"bike_id":"13792967-e84d-49d8-a084-62f8e2603bbd","system_id":"levelo_inurba_marseille","lat":43.24661,"lon":5.38884,"is_reserved":false,"is_disabled":false,"rental_uris":{"android":"levelo://app?vid=13792967-e84d-49d8-a084-62f8e2603bbd","ios":"levelo://app?vid=13792967-e84d-49d8-a084-62f8e2603bbd"},"vehicle_type_id":"4","last_reported":1770208522,"current_range_meters":6000,"station_id":"ce4bhg12rcd13ifvqf60","pricing_plan_id":"cebpf4jnsgd1na2vs0mg"},{"bike_id":"988afa8e-d306-4003-baf9-728102144f56","system_id":"levelo_inurba_marseille","lat":43.26752,"lon":5.38298,"is_reserved":false,"is_disabled":false,"rental_uris":{"android":"levelo://app?vid=988afa8e-d306-4003-baf9-728102144f56","ios":"levelo://app?vid=988afa8e-d306-4003-baf9-728102144f56"},"vehicle_type_id":"4","last_reported":1770208522,"current_range_meters":6400,"station_id":"","pricing_plan_id":"cebpf4jnsgd1na2vs0mg"},{"bike_id":"23d95b20-eb16-43ff-883a-9d567ff58e00","system_id":"levelo_inurba_marseille","lat":43.295161,"lon":5.389827,"is_reserved":false,"is_disabled":false,"rental_uris":{"android":"levelo://app?vid=23d95b20-eb16-43ff-883a-9d567ff58e00","ios":"levelo://app?vid=23d95b20-eb16-43ff-883a-9d567ff58e00"},"vehicle_type_id":"4","last_reported":1770208522,"current_range_meters":6400,"station_id":"ce4bh3p2rcd13ifvqdp0","pricing_plan_id":"cebpf4jnsgd1na2vs0mg"},{"bike_id":"93f4d712-ad08-479a-b0bf-bd98e32fd86e","system_id":"levelo_inurba_marseille","lat":43.30259,"lon":5.37181,"is_reserved":false,"is_disabled":false,"rental_uris":{"android":"levelo://app?vid=93f4d712-ad08-479a-b0bf-bd98e32fd86e","ios":"levelo://app?vid=93f4d712-ad08-479a-b0bf-bd98e32fd86e"},"vehicle_type_id":"4","last_reported":1770208522,"current_range_meters":6400,"station_id":"ce4bgs12rcd13ifvqcag","pricing_plan_id":"cebpf4jnsgd1na2vs0mg"},{"bike_id":"a8958dc7-b390-4d2c-8f23-2c2a741bf8a8","system_id":"levelo_inurba_marseille","lat":43.30853,"lon":5.36711,"is_reserved":false,"is_disabled":false,"rental_uris":{"android":"levelo://app?vid=a8958dc7-b390-4d2c-8f23-2c2a741bf8a8","ios":"levelo://app?vid=a8958dc7-b390-4d2c-8f23-2c2a741bf8a8"},"vehicle_type_id":"4","last_reported":1770208522,"current_range_meters":6400,"station_id":"","pricing_plan_id":"cebpf4jnsgd1na2vs0mg"},{"bike_id":"a0f9303d-7b30-488f-922c-f1f7006da446","system_id":"levelo_inurba_marseille","lat":43.27224,"lon":5.39179,"is_reserved":false,"is_disabled":false,"rental_uris":{"android":"levelo://app?vid=a0f9303d-7b30-488f-922c-f1f7006da446","ios":"levelo://app?vid=a0f9303d-7b30-488f-922c-f1f7006da446"},"vehicle_type_id":"4","last_reported":1770208522,"current_range_meters":6400,"station_id":"ce4bhhp2rcd13ifvqfm0","pricing_plan_id":"cebpf4jnsgd1na2vs0mg"},{"bike_id":"3335ea9f-1944-46df-9cbf-48c87d3c290b","system_id":"levelo_inurba_marseille","lat":43.24176,"lon":5.39736,"is_reserved":false,"is_disabled":false,"rental_uris":{"android":"levelo://app?vid=3335ea9f-1944-46df-9cbf-48c87d3c290b","ios":"levelo://app?vid=3335ea9f-1944-46df-9cbf-48c87d3c290b"},"vehicle_type_id":"4","last_reported":1770208522,"current_range_meters":6400,"station_id":"ce4bhn12rcd13ifvqgpg","pricing_plan_id":"cebpf4jnsgd1na2vs0mg"},{"bike_id":"e9fae1a1-52ee-4751-bbd4-1441429c87a5","system_id":"levelo_inurba_marseille","lat":43.23149,"lon":5.43717,"is_reserved":false,"is_disabled":false,"rental_uris":{"android":"levelo://app?vid=e9fae1a1-52ee-4751-bbd4-1441429c87a5","ios":"levelo://app?vid=e9fae1a1-52ee-4751-bbd4-1441429c87a5"},"vehicle_type_id":"4","last_reported":1770208522,"current_range_meters":6400,"station_id":"ce4bhmp2rcd13ifvqgog","pricing_plan_id":"cebpf4jnsgd1na2vs0mg"},{"bike_id":"9d79ec10-3ed1-4035-8609-ff591e4f54d3","system_id":"levelo_inurba_marseille","lat":43.25575,"lon":5.38248,"is_reserved":false,"is_disabled":false,"rental_uris":{"android":"levelo://app?vid=9d79ec10-3ed1-4035-8609-ff591e4f54d3","ios":"levelo://app?vid=9d79ec10-3ed1-4035-8609-ff591e4f54d3"},"vehicle_type_id":"4","last_reported":1770208522,"current_range_meters":6400,"station_id":"ce4bhih2rcd13ifvqfs0","pricing_plan_id":"cebpf4jnsgd1na2vs0mg"},{"bike_id":"9a41c992-8ec6-4c5f-9787-da9fbb815a48","system_id":"levelo_inurba_marseille","lat":43.25576,"lon":5.38256,"is_reserved":false,"is_disabled":false,"rental_uris":{"android":"levelo://app?vid=9a41c992-8ec6-4c5f-9787-da9fbb815a48","ios":"levelo://app?vid=9a41c992-8ec6-4c5f-9787-da9fbb815a48"},"vehicle_type_id":"4","last_reported":1770208522,"current_range_meters":6400,"station_id":"ce4bhih2rcd13ifvqfs0","pricing_plan_id":"cebpf4jnsgd1na2vs0mg"},{"bike_id":"444771e3-f21d-4bd0-860f-6e89f97f563d","system_id":"levelo_inurba_marseille","lat":43.29155,"lon":5.37154,"is_reserved":false,"is_disabled":false,"rental_uris":{"android":"levelo://app?vid=444771e3-f21d-4bd0-860f-6e89f97f563d","ios":"levelo://app?vid=444771e3-f21d-4bd0-860f-6e89f97f563d"},"vehicle_type_id":"4","last_reported":1770208522,"current_range_meters":6400,"station_id":"ce4bha92rcd13ifvqeh0","pricing_plan_id":"cebpf4jnsgd1na2vs0mg"},{"bike_id":"9b56e182-4134-4f9f-b48f-caf7dd28724d","system_id":"levelo_inurba_marseille","lat":43.28535,"lon":5.44092,"is_reserved":false,"is_disabled":false,"rental_uris":{"android":"levelo://app?vid=9b56e182-4134-4f9f-b48f-caf7dd28724d","ios":"levelo://app?vid=9b56e182-4134-4f9f-b48f-caf7dd28724d"},"vehicle_type_id":"4","last_reported":1770208522,"current_range_meters":6400,"station_id":"st_d3j3df2ikq2c7380ej80","pricing_plan_id":"cebpf4jnsgd1na2vs0mg"},{"bike_id":"ad0a9b73-79c6-46e9-8612-f7d363be0c07","system_id":"levelo_inurba_marseille","lat":43.29315,"lon":5.371548,"is_reserved":false,"is_disabled":false,"rental_uris":{"android":"levelo://app?vid=ad0a9b73-79c6-46e9-8612-f7d363be0c07","ios":"levelo://app?vid=ad0a9b73-79c6-46e9-8612-f7d363be0c07"},"vehicle_type_id":"4","last_reported":1770208522,"current_range_meters":6400,"station_id":"ce4bgh92rcd13ifvqb40","pricing_plan_id":"cebpf4jnsgd1na2vs0mg"},{"bike_id":"a8c22487-8662-4b4c-ad3e-edccba99e631","system_id":"levelo_inurba_marseille","lat":43.31359,"lon":5.38501,"is_reserved":false,"is_disabled":false,"rental_uris":{"android":"levelo://app?vid=a8c22487-8662-4b4c-ad3e-edccba99e631","ios":"levelo://app?vid=a8c22487-8662-4b4c-ad3e-edccba99e631"},"vehicle_type_id":"4","last_reported":1770208522,"current_range_meters":6400,"station_id":"ce4bgt92rcd13ifvqcf0","pricing_plan_id":"cebpf4jnsgd1na2vs0mg"},{"bike_id":"6af9c093-c8f8-4e82-9b76-84ead01f4f13","system_id":"levelo_inurba_marseille","lat":43.2657,"lon":5.40301,"is_reserved":false,"is_disabled":false,"rental_uris":{"android":"levelo://app?vid=6af9c093-c8f8-4e82-9b76-84ead01f4f13","ios":"levelo://app?vid=6af9c093-c8f8-4e82-9b76-84ead01f4f13"},"vehicle_type_id":"4","last_reported":1770208522,"current_range_meters":6400,"station_id":"ce4bhmp2rcd13ifvqgng","pricing_plan_id":"cebpf4jnsgd1na2vs0mg"},{"bike_id":"efea85db-b1c8-46f7-b3e0-9fa246910aa6","system_id":"levelo_inurba_marseille","lat":43.23219,"lon":5.40038,"is_reserved":false,"is_disabled":false,"rental_uris":{"android":"levelo://app?vid=efea85db-b1c8-46f7-b3e0-9fa246910aa6","ios":"levelo://app?vid=efea85db-b1c8-46f7-b3e0-9fa246910aa6"},"vehicle_type_id":"4","last_reported":1770208522,"current_range_meters":6400,"station_id":"","pricing_plan_id":"cebpf4jnsgd1na2vs0mg"},{"bike_id":"b0708c3d-d15e-436d-b150-bad5d386064d","system_id":"levelo_inurba_marseille","lat":43.309258,"lon":5.401589,"is_reserved":false,"is_disabled":false,"rental_uris":{"android":"levelo://app?vid=b0708c3d-d15e-436d-b150-bad5d386064d","ios":"levelo://app?vid=b0708c3d-d15e-436d-b150-bad5d386064d"},"vehicle_type_id":"4","last_reported":1770208522,"current_range_meters":6400,"station_id":"ce4bgvp2rcd13ifvqct0","pricing_plan_id":"cebpf4jnsgd1na2vs0mg"},{"bike_id":"d5d98457-3377-411c-bbd5-111f6add1380","system_id":"levelo_inurba_marseille","lat":43.259167,"lon":5.394293,"is_reserved":false,"is_disabled":false,"rental_uris":{"android":"levelo://app?vid=d5d98457-3377-411c-bbd5-111f6add1380","ios":"levelo://app?vid=d5d98457-3377-411c-bbd5-111f6add1380"},"vehicle_type_id":"4","last_reported":1770208522,"current_range_meters":6400,"station_id":"","pricing_plan_id":"cebpf4jnsgd1na2vs0mg"},{"bike_id":"71d627f4-7ec8-449a-a29d-435264410d26","system_id":"levelo_inurba_marseille","lat":43.2906,"lon":5.37159,"is_reserved":false,"is_disabled":false,"rental_uris":{"android":"levelo://app?vid=71d627f4-7ec8-449a-a29d-435264410d26","ios":"levelo://app?vid=71d627f4-7ec8-449a-a29d-435264410d26"},"vehicle_type_id":"4","last_reported":1770208522,"current_range_meters":6800,"station_id":"ce4bh5p2rcd13ifvqe4g","pricing_plan_id":"cebpf4jnsgd1na2vs0mg"},{"bike_id":"f5d17784-fa1f-4ae5-a527-02dd666d749b","system_id":"levelo_inurba_marseille","lat":43.30276,"lon":5.37697,"is_reserved":false,"is_disabled":false,"rental_uris":{"android":"levelo://app?vid=f5d17784-fa1f-4ae5-a527-02dd666d749b","ios":"levelo://app?vid=f5d17784-fa1f-4ae5-a527-02dd666d749b"},"vehicle_type_id":"4","last_reported":1770208522,"current_range_meters":6800,"station_id":"ce4bguh2rcd13ifvqcj0","pricing_plan_id":"cebpf4jnsgd1na2vs0mg"},{"bike_id":"1b876b25-6b22-4962-82d4-862e433d9f63","system_id":"levelo_inurba_marseille","lat":43.28667,"lon":5.38673,"is_reserved":false,"is_disabled":false,"rental_uris":{"android":"levelo://app?vid=1b876b25-6b22-4962-82d4-862e433d9f63","ios":"levelo://app?vid=1b876b25-6b22-4962-82d4-862e433d9f63"},"vehicle_type_id":"4","last_reported":1770208522,"current_range_meters":6800,"station_id":"","pricing_plan_id":"cebpf4jnsgd1na2vs0mg"},{"bike_id":"7b2df10f-d97d-4068-9983-8f53d0a78517","system_id":"levelo_inurba_marseille","lat":43.28873,"lon":5.4254,"is_reserved":false,"is_disabled":false,"rental_uris":{"android":"levelo://app?vid=7b2df10f-d97d-4068-9983-8f53d0a78517","ios":"levelo://app?vid=7b2df10f-d97d-4068-9983-8f53d0a78517"},"vehicle_type_id":"4","last_reported":1770208522,"current_range_meters":6800,"station_id":"st_d3b462108ojc7389ooeg","pricing_plan_id":"cebpf4jnsgd1na2vs0mg"},{"bike_id":"bd7a9ebd-6d60-4566-a4d9-c235c418ab65","system_id":"levelo_inurba_marseille","lat":43.28861,"lon":5.42523,"is_reserved":false,"is_disabled":false,"rental_uris":{"android":"levelo://app?vid=bd7a9ebd-6d60-4566-a4d9-c235c418ab65","ios":"levelo://app?vid=bd7a9ebd-6d60-4566-a4d9-c235c418ab65"},"vehicle_type_id":"4","last_reported":1770208522,"current_range_meters":6800,"station_id":"st_d3b462108ojc7389ooeg","pricing_plan_id":"cebpf4jnsgd1na2vs0mg"},{"bike_id":"0c0204e9-2e2c-4854-9498-c261c0135345","system_id":"levelo_inurba_marseille","lat":43.23796,"lon":5.36632,"is_reserved":false,"is_disabled":false,"rental_uris":{"android":"levelo://app?vid=0c0204e9-2e2c-4854-9498-c261c0135345","ios":"levelo://app?vid=0c0204e9-2e2c-4854-9498-c261c0135345"},"vehicle_type_id":"4","last_reported":1770208522,"current_range_meters":6800,"station_id":"st_d3nk18o9ro0c73en2l3g","pricing_plan_id":"cebpf4jnsgd1na2vs0mg"},{"bike_id":"8fb4838b-c5bd-4cb2-8c92-fceeea48a889","system_id":"levelo_inurba_marseille","lat":43.29556,"lon":5.4226,"is_reserved":false,"is_disabled":false,"rental_uris":{"android":"levelo://app?vid=8fb4838b-c5bd-4cb2-8c92-fceeea48a889","ios":"levelo://app?vid=8fb4838b-c5bd-4cb2-8c92-fceeea48a889"},"vehicle_type_id":"4","last_reported":1770208522,"current_range_meters":6800,"station_id":"ce4bhph2rcd13ifvqhdg","pricing_plan_id":"cebpf4jnsgd1na2vs0mg"},{"bike_id":"c3e77f90-af9b-4ac4-9b36-0c3e90510873","system_id":"levelo_inurba_marseille","lat":43.25723,"lon":5.41115,"is_reserved":false,"is_disabled":false,"rental_uris":{"android":"levelo://app?vid=c3e77f90-af9b-4ac4-9b36-0c3e90510873","ios":"levelo://app?vid=c3e77f90-af9b-4ac4-9b36-0c3e90510873"},"vehicle_type_id":"4","last_reported":1770208522,"current_range_meters":6800,"station_id":"ce4bhkp2rcd13ifvqgd0","pricing_plan_id":"cebpf4jnsgd1na2vs0mg"},{"bike_id":"ef4aafd7-31d8-4f9b-97f1-b8af2e53c15d","system_id":"levelo_inurba_marseille","lat":43.29891,"lon":5.43671,"is_reserved":false,"is_disabled":false,"rental_uris":{"android":"levelo://app?vid=ef4aafd7-31d8-4f9b-97f1-b8af2e53c15d","ios":"levelo://app?vid=ef4aafd7-31d8-4f9b-97f1-b8af2e53c15d"},"vehicle_type_id":"4","last_reported":1770208522,"current_range_meters":6800,"station_id":"ce4bhpp2rcd13ifvqhfg","pricing_plan_id":"cebpf4jnsgd1na2vs0mg"},{"bike_id":"ad450168-32bc-48e5-981d-10198d96911f","system_id":"levelo_inurba_marseille","lat":43.24178,"lon":5.36401,"is_reserved":false,"is_disabled":false,"rental_uris":{"android":"levelo://app?vid=ad450168-32bc-48e5-981d-10198d96911f","ios":"levelo://app?vid=ad450168-32bc-48e5-981d-10198d96911f"},"vehicle_type_id":"4","last_reported":1770208522,"current_range_meters":6800,"station_id":"cpo36qri1sfpv3e86is0","pricing_plan_id":"cebpf4jnsgd1na2vs0mg"},{"bike_id":"f3318fc5-517b-4379-ab99-0b3b1be2500a","system_id":"levelo_inurba_marseille","lat":43.23381,"lon":5.41245,"is_reserved":false,"is_disabled":false,"rental_uris":{"android":"levelo://app?vid=f3318fc5-517b-4379-ab99-0b3b1be2500a","ios":"levelo://app?vid=f3318fc5-517b-4379-ab99-0b3b1be2500a"},"vehicle_type_id":"4","last_reported":1770208522,"current_range_meters":6800,"station_id":"","pricing_plan_id":"cebpf4jnsgd1na2vs0mg"},{"bike_id":"c269eff6-7414-4fb8-b35a-8132e5c63b79","system_id":"levelo_inurba_marseille","lat":43.25023,"lon":5.38865,"is_reserved":false,"is_disabled":false,"rental_uris":{"android":"levelo://app?vid=c269eff6-7414-4fb8-b35a-8132e5c63b79","ios":"levelo://app?vid=c269eff6-7414-4fb8-b35a-8132e5c63b79"},"vehicle_type_id":"4","last_reported":1770208522,"current_range_meters":6800,"station_id":"ce4bhgp2rcd13ifvqfd0","pricing_plan_id":"cebpf4jnsgd1na2vs0mg"},{"bike_id":"458b1d5f-d114-467e-9088-6f35cf923bb2","system_id":"levelo_inurba_marseille","lat":43.29786,"lon":5.38107,"is_reserved":false,"is_disabled":true,"rental_uris":{"android":"levelo://app?vid=458b1d5f-d114-467e-9088-6f35cf923bb2","ios":"levelo://app?vid=458b1d5f-d114-467e-9088-6f35cf923bb2"},"vehicle_type_id":"4","last_reported":1770208522,"current_range_meters":6800,"station_id":"ce4bgip2rcd13ifvqbb0","pricing_plan_id":"cebpf4jnsgd1na2vs0mg"},{"bike_id":"2e5ecc25-77a5-480b-9b59-990ada3aef80","system_id":"levelo_inurba_marseille","lat":43.31355,"lon":5.36701,"is_reserved":false,"is_disabled":false,"rental_uris":{"android":"levelo://app?vid=2e5ecc25-77a5-480b-9b59-990ada3aef80","ios":"levelo://app?vid=2e5ecc25-77a5-480b-9b59-990ada3aef80"},"vehicle_type_id":"4","last_reported":1770208522,"current_range_meters":7200,"station_id":"ce4bgr92rcd13ifvqc6g","pricing_plan_id":"cebpf4jnsgd1na2vs0mg"},{"bike_id":"600069bf-5752-44a5-aac7-11741547e374","system_id":"levelo_inurba_marseille","lat":43.28825,"lon":5.39323,"is_reserved":false,"is_disabled":false,"rental_uris":{"android":"levelo://app?vid=600069bf-5752-44a5-aac7-11741547e374","ios":"levelo://app?vid=600069bf-5752-44a5-aac7-11741547e374"},"vehicle_type_id":"4","last_reported":1770208522,"current_range_meters":7200,"station_id":"ce4bh2p2rcd13ifvqdi0","pricing_plan_id":"cebpf4jnsgd1na2vs0mg"},{"bike_id":"73b6626a-125d-4b63-8d66-3e6a9851d390","system_id":"levelo_inurba_marseille","lat":43.22562,"lon":5.41631,"is_reserved":false,"is_disabled":false,"rental_uris":{"android":"levelo://app?vid=73b6626a-125d-4b63-8d66-3e6a9851d390","ios":"levelo://app?vid=73b6626a-125d-4b63-8d66-3e6a9851d390"},"vehicle_type_id":"4","last_reported":1770208522,"current_range_meters":7200,"station_id":"st_d2o4gvlbi1j2169b742g","pricing_plan_id":"cebpf4jnsgd1na2vs0mg"},{"bike_id":"7ab80b7e-a203-442c-b352-62055b06df4d","system_id":"levelo_inurba_marseille","lat":43.31032,"lon":5.37182,"is_reserved":false,"is_disabled":false,"rental_uris":{"android":"levelo://app?vid=7ab80b7e-a203-442c-b352-62055b06df4d","ios":"levelo://app?vid=7ab80b7e-a203-442c-b352-62055b06df4d"},"vehicle_type_id":"4","last_reported":1770208522,"current_range_meters":7200,"station_id":"st_d4kl2rp97mjs73e7tdfg","pricing_plan_id":"cebpf4jnsgd1na2vs0mg"},{"bike_id":"40876c26-127d-407e-adb0-83b88074f4ef","system_id":"levelo_inurba_marseille","lat":43.2928,"lon":5.37998,"is_reserved":false,"is_disabled":false,"rental_uris":{"android":"levelo://app?vid=40876c26-127d-407e-adb0-83b88074f4ef","ios":"levelo://app?vid=40876c26-127d-407e-adb0-83b88074f4ef"},"vehicle_type_id":"4","last_reported":1770208522,"current_range_meters":7200,"station_id":"","pricing_plan_id":"cebpf4jnsgd1na2vs0mg"},{"bike_id":"30018880-defb-4e1d-b4b9-524f673acfb8","system_id":"levelo_inurba_marseille","lat":43.29754,"lon":5.42775,"is_reserved":false,"is_disabled":false,"rental_uris":{"android":"levelo://app?vid=30018880-defb-4e1d-b4b9-524f673acfb8","ios":"levelo://app?vid=30018880-defb-4e1d-b4b9-524f673acfb8"},"vehicle_type_id":"4","last_reported":1770208522,"current_range_meters":7200,"station_id":"st_d3md5207bmas73dh9klg","pricing_plan_id":"cebpf4jnsgd1na2vs0mg"},{"bike_id":"5addcc29-5435-4f9f-8ead-83b0c4b9434c","system_id":"levelo_inurba_marseille","lat":43.246594,"lon":5.381618,"is_reserved":false,"is_disabled":false,"rental_uris":{"android":"levelo://app?vid=5addcc29-5435-4f9f-8ead-83b0c4b9434c","ios":"levelo://app?vid=5addcc29-5435-4f9f-8ead-83b0c4b9434c"},"vehicle_type_id":"4","last_reported":1770208522,"current_range_meters":7200,"station_id":"ce4bhih2rcd13ifvqfr0","pricing_plan_id":"cebpf4jnsgd1na2vs0mg"},{"bike_id":"52ca9a31-6feb-4c8a-a69c-578844bd46ac","system_id":"levelo_inurba_marseille","lat":43.27793,"lon":5.40692,"is_reserved":false,"is_disabled":false,"rental_uris":{"android":"levelo://app?vid=52ca9a31-6feb-4c8a-a69c-578844bd46ac","ios":"levelo://app?vid=52ca9a31-6feb-4c8a-a69c-578844bd46ac"},"vehicle_type_id":"4","last_reported":1770208522,"current_range_meters":7200,"station_id":"ce4bhnh2rcd13ifvqgtg","pricing_plan_id":"cebpf4jnsgd1na2vs0mg"},{"bike_id":"dbeef5c7-4028-4d99-a76c-21cebff9483e","system_id":"levelo_inurba_marseille","lat":43.3356,"lon":5.3745,"is_reserved":false,"is_disabled":false,"rental_uris":{"android":"levelo://app?vid=dbeef5c7-4028-4d99-a76c-21cebff9483e","ios":"levelo://app?vid=dbeef5c7-4028-4d99-a76c-21cebff9483e"},"vehicle_type_id":"4","last_reported":1770208522,"current_range_meters":7200,"station_id":"st_d46tts09ee8s73dlu43g","pricing_plan_id":"cebpf4jnsgd1na2vs0mg"},{"bike_id":"efea97cf-ff85-47aa-a6fd-26dd39fdf16c","system_id":"levelo_inurba_marseille","lat":43.30533,"lon":5.36707,"is_reserved":false,"is_disabled":false,"rental_uris":{"android":"levelo://app?vid=efea97cf-ff85-47aa-a6fd-26dd39fdf16c","ios":"levelo://app?vid=efea97cf-ff85-47aa-a6fd-26dd39fdf16c"},"vehicle_type_id":"4","last_reported":1770208522,"current_range_meters":7200,"station_id":"ce4bgrp2rcd13ifvqc9g","pricing_plan_id":"cebpf4jnsgd1na2vs0mg"},{"bike_id":"c5d5e076-fb2a-4fc0-811f-59309aa4d1c3","system_id":"levelo_inurba_marseille","lat":43.33544,"lon":5.37457,"is_reserved":false,"is_disabled":false,"rental_uris":{"android":"levelo://app?vid=c5d5e076-fb2a-4fc0-811f-59309aa4d1c3","ios":"levelo://app?vid=c5d5e076-fb2a-4fc0-811f-59309aa4d1c3"},"vehicle_type_id":"4","last_reported":1770208522,"current_range_meters":7200,"station_id":"st_d46tts09ee8s73dlu43g","pricing_plan_id":"cebpf4jnsgd1na2vs0mg"},{"bike_id":"498be069-ed40-4b64-85da-440d26d36442","system_id":"levelo_inurba_marseille","lat":43.299457,"lon":5.365333,"is_reserved":false,"is_disabled":false,"rental_uris":{"android":"levelo://app?vid=498be069-ed40-4b64-85da-440d26d36442","ios":"levelo://app?vid=498be069-ed40-4b64-85da-440d26d36442"},"vehicle_type_id":"4","last_reported":1770208522,"current_range_meters":7200,"station_id":"ce4bgm92rcd13ifvqbr0","pricing_plan_id":"cebpf4jnsgd1na2vs0mg"},{"bike_id":"54c3f246-f2ba-43d6-a39a-f70edfa6074e","system_id":"levelo_inurba_marseille","lat":43.291199,"lon":5.387363,"is_reserved":false,"is_disabled":false,"rental_uris":{"android":"levelo://app?vid=54c3f246-f2ba-43d6-a39a-f70edfa6074e","ios":"levelo://app?vid=54c3f246-f2ba-43d6-a39a-f70edfa6074e"},"vehicle_type_id":"4","last_reported":1770208522,"current_range_meters":7200,"station_id":"","pricing_plan_id":"cebpf4jnsgd1na2vs0mg"},{"bike_id":"42829a79-7186-467f-811e-737540bca2fc","system_id":"levelo_inurba_marseille","lat":43.312471,"lon":5.368573,"is_reserved":false,"is_disabled":false,"rental_uris":{"android":"levelo://app?vid=42829a79-7186-467f-811e-737540bca2fc","ios":"levelo://app?vid=42829a79-7186-467f-811e-737540bca2fc"},"vehicle_type_id":"4","last_reported":1770208522,"current_range_meters":7200,"station_id":"ce4bgl92rcd13ifvqbq0","pricing_plan_id":"cebpf4jnsgd1na2vs0mg"},{"bike_id":"7dec47d5-4305-4a5b-949f-a277b252d9c5","system_id":"levelo_inurba_marseille","lat":43.2911,"lon":5.38147,"is_reserved":false,"is_disabled":false,"rental_uris":{"android":"levelo://app?vid=7dec47d5-4305-4a5b-949f-a277b252d9c5","ios":"levelo://app?vid=7dec47d5-4305-4a5b-949f-a277b252d9c5"},"vehicle_type_id":"4","last_reported":1770208522,"current_range_meters":7200,"station_id":"ce4bh512rcd13ifvqe2g","pricing_plan_id":"cebpf4jnsgd1na2vs0mg"},{"bike_id":"316d096a-f444-4337-a221-a661ab7259b5","system_id":"levelo_inurba_marseille","lat":43.28456,"lon":5.35901,"is_reserved":false,"is_disabled":false,"rental_uris":{"android":"levelo://app?vid=316d096a-f444-4337-a221-a661ab7259b5","ios":"levelo://app?vid=316d096a-f444-4337-a221-a661ab7259b5"},"vehicle_type_id":"4","last_reported":1770208522,"current_range_meters":7200,"station_id":"ce4bhah2rcd13ifvqei0","pricing_plan_id":"cebpf4jnsgd1na2vs0mg"},{"bike_id":"5ffc162c-3876-4a49-af02-3661f44effbb","system_id":"levelo_inurba_marseille","lat":43.28491,"lon":5.48394,"is_reserved":false,"is_disabled":false,"rental_uris":{"android":"levelo://app?vid=5ffc162c-3876-4a49-af02-3661f44effbb","ios":"levelo://app?vid=5ffc162c-3876-4a49-af02-3661f44effbb"},"vehicle_type_id":"4","last_reported":1770208522,"current_range_meters":7200,"station_id":"st_d3svhcjqgbts73a3dn0g","pricing_plan_id":"cebpf4jnsgd1na2vs0mg"},{"bike_id":"6be43c1f-db2c-43c9-a648-234cc72c5193","system_id":"levelo_inurba_marseille","lat":43.31451,"lon":5.4034,"is_reserved":false,"is_disabled":false,"rental_uris":{"android":"levelo://app?vid=6be43c1f-db2c-43c9-a648-234cc72c5193","ios":"levelo://app?vid=6be43c1f-db2c-43c9-a648-234cc72c5193"},"vehicle_type_id":"4","last_reported":1770208522,"current_range_meters":7200,"station_id":"","pricing_plan_id":"cebpf4jnsgd1na2vs0mg"},{"bike_id":"626974d3-ace9-41dd-9dbe-f4621ca953aa","system_id":"levelo_inurba_marseille","lat":43.29483,"lon":5.4097,"is_reserved":false,"is_disabled":false,"rental_uris":{"android":"levelo://app?vid=626974d3-ace9-41dd-9dbe-f4621ca953aa","ios":"levelo://app?vid=626974d3-ace9-41dd-9dbe-f4621ca953aa"},"vehicle_type_id":"4","last_reported":1770208522,"current_range_meters":8000,"station_id":"","pricing_plan_id":"cebpf4jnsgd1na2vs0mg"},{"bike_id":"d94e6c0c-d482-4ce0-af37-49bee4e61853","system_id":"levelo_inurba_marseille","lat":43.23197,"lon":5.43727,"is_reserved":false,"is_disabled":false,"rental_uris":{"android":"levelo://app?vid=d94e6c0c-d482-4ce0-af37-49bee4e61853","ios":"levelo://app?vid=d94e6c0c-d482-4ce0-af37-49bee4e61853"},"vehicle_type_id":"4","last_reported":1770208522,"current_range_meters":8000,"station_id":"","pricing_plan_id":"cebpf4jnsgd1na2vs0mg"},{"bike_id":"2ed67164-fca5-4b47-ab72-aed5bb6ac602","system_id":"levelo_inurba_marseille","lat":43.27914,"lon":5.39584,"is_reserved":false,"is_disabled":false,"rental_uris":{"android":"levelo://app?vid=2ed67164-fca5-4b47-ab72-aed5bb6ac602","ios":"levelo://app?vid=2ed67164-fca5-4b47-ab72-aed5bb6ac602"},"vehicle_type_id":"4","last_reported":1770208522,"current_range_meters":8000,"station_id":"ce4bhf92rcd13ifvqf40","pricing_plan_id":"cebpf4jnsgd1na2vs0mg"},{"bike_id":"91c21601-5efe-4644-9a24-675b91c6816e","system_id":"levelo_inurba_marseille","lat":43.24669,"lon":5.38875,"is_reserved":false,"is_disabled":false,"rental_uris":{"android":"levelo://app?vid=91c21601-5efe-4644-9a24-675b91c6816e","ios":"levelo://app?vid=91c21601-5efe-4644-9a24-675b91c6816e"},"vehicle_type_id":"4","last_reported":1770208522,"current_range_meters":8000,"station_id":"ce4bhg12rcd13ifvqf60","pricing_plan_id":"cebpf4jnsgd1na2vs0mg"},{"bike_id":"a88d27dd-2e88-45f0-b7d9-e4fc96fabd57","system_id":"levelo_inurba_marseille","lat":43.240688,"lon":5.377651,"is_reserved":false,"is_disabled":false,"rental_uris":{"android":"levelo://app?vid=a88d27dd-2e88-45f0-b7d9-e4fc96fabd57","ios":"levelo://app?vid=a88d27dd-2e88-45f0-b7d9-e4fc96fabd57"},"vehicle_type_id":"4","last_reported":1770208522,"current_range_meters":8000,"station_id":"ce4bhnp2rcd13ifvqgvg","pricing_plan_id":"cebpf4jnsgd1na2vs0mg"},{"bike_id":"61c4cbe2-eed4-41e6-a6ff-be907a5d72ed","system_id":"levelo_inurba_marseille","lat":43.25012,"lon":5.38939,"is_reserved":false,"is_disabled":false,"rental_uris":{"android":"levelo://app?vid=61c4cbe2-eed4-41e6-a6ff-be907a5d72ed","ios":"levelo://app?vid=61c4cbe2-eed4-41e6-a6ff-be907a5d72ed"},"vehicle_type_id":"4","last_reported":1770208522,"current_range_meters":8000,"station_id":"ce4bhgp2rcd13ifvqfd0","pricing_plan_id":"cebpf4jnsgd1na2vs0mg"},{"bike_id":"88769ecf-9b66-4c19-91d3-0990c3039e9d","system_id":"levelo_inurba_marseille","lat":43.28225,"lon":5.39074,"is_reserved":false,"is_disabled":false,"rental_uris":{"android":"levelo://app?vid=88769ecf-9b66-4c19-91d3-0990c3039e9d","ios":"levelo://app?vid=88769ecf-9b66-4c19-91d3-0990c3039e9d"},"vehicle_type_id":"4","last_reported":1770208522,"current_range_meters":8000,"station_id":"ce4bhn92rcd13ifvqgsg","pricing_plan_id":"cebpf4jnsgd1na2vs0mg"},{"bike_id":"522d748c-7700-4a9e-9665-197613ae3ea1","system_id":"levelo_inurba_marseille","lat":43.2257,"lon":5.41637,"is_reserved":false,"is_disabled":false,"rental_uris":{"android":"levelo://app?vid=522d748c-7700-4a9e-9665-197613ae3ea1","ios":"levelo://app?vid=522d748c-7700-4a9e-9665-197613ae3ea1"},"vehicle_type_id":"4","last_reported":1770208522,"current_range_meters":8000,"station_id":"st_d2o4gvlbi1j2169b742g","pricing_plan_id":"cebpf4jnsgd1na2vs0mg"},{"bike_id":"936c281e-a30f-4824-89f2-bc31d859ce18","system_id":"levelo_inurba_marseille","lat":43.30188,"lon":5.38153,"is_reserved":false,"is_disabled":false,"rental_uris":{"android":"levelo://app?vid=936c281e-a30f-4824-89f2-bc31d859ce18","ios":"levelo://app?vid=936c281e-a30f-4824-89f2-bc31d859ce18"},"vehicle_type_id":"4","last_reported":1770208522,"current_range_meters":8000,"station_id":"","pricing_plan_id":"cebpf4jnsgd1na2vs0mg"},{"bike_id":"708d8107-a502-4715-8ee8-97e259938ef7","system_id":"levelo_inurba_marseille","lat":43.24164,"lon":5.36406,"is_reserved":false,"is_disabled":false,"rental_uris":{"android":"levelo://app?vid=708d8107-a502-4715-8ee8-97e259938ef7","ios":"levelo://app?vid=708d8107-a502-4715-8ee8-97e259938ef7"},"vehicle_type_id":"4","last_reported":1770208522,"current_range_meters":8000,"station_id":"cpo36qri1sfpv3e86is0","pricing_plan_id":"cebpf4jnsgd1na2vs0mg"},{"bike_id":"ce4bc8cb-8dfb-4c32-9767-9ee3791934a7","system_id":"levelo_inurba_marseille","lat":43.29799,"lon":5.38112,"is_reserved":false,"is_disabled":false,"rental_uris":{"android":"levelo://app?vid=ce4bc8cb-8dfb-4c32-9767-9ee3791934a7","ios":"levelo://app?vid=ce4bc8cb-8dfb-4c32-9767-9ee3791934a7"},"vehicle_type_id":"4","last_reported":1770208522,"current_range_meters":8000,"station_id":"ce4bgip2rcd13ifvqbb0","pricing_plan_id":"cebpf4jnsgd1na2vs0mg"},{"bike_id":"605a645e-761d-4a85-acd6-fe955761eefa","system_id":"levelo_inurba_marseille","lat":43.29599,"lon":5.38347,"is_reserved":false,"is_disabled":false,"rental_uris":{"android":"levelo://app?vid=605a645e-761d-4a85-acd6-fe955761eefa","ios":"levelo://app?vid=605a645e-761d-4a85-acd6-fe955761eefa"},"vehicle_type_id":"4","last_reported":1770208522,"current_range_meters":8000,"station_id":"","pricing_plan_id":"cebpf4jnsgd1na2vs0mg"},{"bike_id":"16c34f42-9a66-4fd5-8689-2fc8478b1531","system_id":"levelo_inurba_marseille","lat":43.22945,"lon":5.35386,"is_reserved":false,"is_disabled":false,"rental_uris":{"android":"levelo://app?vid=16c34f42-9a66-4fd5-8689-2fc8478b1531","ios":"levelo://app?vid=16c34f42-9a66-4fd5-8689-2fc8478b1531"},"vehicle_type_id":"4","last_reported":1770208522,"current_range_meters":8000,"station_id":"cpo3532slgdg3j2ikp40","pricing_plan_id":"cebpf4jnsgd1na2vs0mg"},{"bike_id":"97259061-f08f-497c-ad93-5a24dc67386d","system_id":"levelo_inurba_marseille","lat":43.29932,"lon":5.36549,"is_reserved":false,"is_disabled":false,"rental_uris":{"android":"levelo://app?vid=97259061-f08f-497c-ad93-5a24dc67386d","ios":"levelo://app?vid=97259061-f08f-497c-ad93-5a24dc67386d"},"vehicle_type_id":"4","last_reported":1770208522,"current_range_meters":8000,"station_id":"ce4bgm92rcd13ifvqbr0","pricing_plan_id":"cebpf4jnsgd1na2vs0mg"},{"bike_id":"7dd2f124-2aaf-4737-971c-9813abba497c","system_id":"levelo_inurba_marseille","lat":43.287021,"lon":5.373717,"is_reserved":false,"is_disabled":false,"rental_uris":{"android":"levelo://app?vid=7dd2f124-2aaf-4737-971c-9813abba497c","ios":"levelo://app?vid=7dd2f124-2aaf-4737-971c-9813abba497c"},"vehicle_type_id":"4","last_reported":1770208522,"current_range_meters":8000,"station_id":"ce4bh3p2rcd13ifvqdq0","pricing_plan_id":"cebpf4jnsgd1na2vs0mg"},{"bike_id":"da4d19a5-63fa-471e-bc87-bb23db14643b","system_id":"levelo_inurba_marseille","lat":43.29556,"lon":5.42503,"is_reserved":false,"is_disabled":false,"rental_uris":{"android":"levelo://app?vid=da4d19a5-63fa-471e-bc87-bb23db14643b","ios":"levelo://app?vid=da4d19a5-63fa-471e-bc87-bb23db14643b"},"vehicle_type_id":"4","last_reported":1770208522,"current_range_meters":8000,"station_id":"","pricing_plan_id":"cebpf4jnsgd1na2vs0mg"},{"bike_id":"a3d08b76-87ef-486d-bd9a-ae2408e2d316","system_id":"levelo_inurba_marseille","lat":43.29974,"lon":5.37186,"is_reserved":false,"is_disabled":false,"rental_uris":{"android":"levelo://app?vid=a3d08b76-87ef-486d-bd9a-ae2408e2d316","ios":"levelo://app?vid=a3d08b76-87ef-486d-bd9a-ae2408e2d316"},"vehicle_type_id":"4","last_reported":1770208522,"current_range_meters":8000,"station_id":"ce4bgr92rcd13ifvqc7g","pricing_plan_id":"cebpf4jnsgd1na2vs0mg"},{"bike_id":"a5c1703c-0b2d-4e6b-b820-25e716f1e211","system_id":"levelo_inurba_marseille","lat":43.28502,"lon":5.48389,"is_reserved":false,"is_disabled":false,"rental_uris":{"android":"levelo://app?vid=a5c1703c-0b2d-4e6b-b820-25e716f1e211","ios":"levelo://app?vid=a5c1703c-0b2d-4e6b-b820-25e716f1e211"},"vehicle_type_id":"4","last_reported":1770208522,"current_range_meters":8000,"station_id":"st_d3svhcjqgbts73a3dn0g","pricing_plan_id":"cebpf4jnsgd1na2vs0mg"},{"bike_id":"20018888-cad0-49c2-af66-2f678713cb8f","system_id":"levelo_inurba_marseille","lat":43.29589,"lon":5.3773,"is_reserved":false,"is_disabled":false,"rental_uris":{"android":"levelo://app?vid=20018888-cad0-49c2-af66-2f678713cb8f","ios":"levelo://app?vid=20018888-cad0-49c2-af66-2f678713cb8f"},"vehicle_type_id":"4","last_reported":1770208522,"current_range_meters":8000,"station_id":"ce4bgi92rcd13ifvqb90","pricing_plan_id":"cebpf4jnsgd1na2vs0mg"},{"bike_id":"ef64cb18-c8a8-4251-87f8-703e259c4330","system_id":"levelo_inurba_marseille","lat":43.47654,"lon":5.48969,"is_reserved":false,"is_disabled":false,"rental_uris":{"android":"levelo://app?vid=ef64cb18-c8a8-4251-87f8-703e259c4330","ios":"levelo://app?vid=ef64cb18-c8a8-4251-87f8-703e259c4330"},"vehicle_type_id":"4","last_reported":1770208522,"current_range_meters":8000,"station_id":"","pricing_plan_id":"cebpf4jnsgd1na2vs0mg"},{"bike_id":"c2931c9f-d2fe-4ac1-980f-aec9ebbff72f","system_id":"levelo_inurba_marseille","lat":43.32011,"lon":5.3817,"is_reserved":false,"is_disabled":false,"rental_uris":{"android":"levelo://app?vid=c2931c9f-d2fe-4ac1-980f-aec9ebbff72f","ios":"levelo://app?vid=c2931c9f-d2fe-4ac1-980f-aec9ebbff72f"},"vehicle_type_id":"4","last_reported":1770208522,"current_range_meters":8000,"station_id":"ce4bhr12rcd13ifvqhpg","pricing_plan_id":"cebpf4jnsgd1na2vs0mg"},{"bike_id":"c5cff992-53ec-4d00-9c16-443240fd0d04","system_id":"levelo_inurba_marseille","lat":43.25576,"lon":5.38236,"is_reserved":false,"is_disabled":false,"rental_uris":{"android":"levelo://app?vid=c5cff992-53ec-4d00-9c16-443240fd0d04","ios":"levelo://app?vid=c5cff992-53ec-4d00-9c16-443240fd0d04"},"vehicle_type_id":"4","last_reported":1770208522,"current_range_meters":8400,"station_id":"ce4bhih2rcd13ifvqfs0","pricing_plan_id":"cebpf4jnsgd1na2vs0mg"},{"bike_id":"0421d7ea-5489-4199-a385-3ab425d86243","system_id":"levelo_inurba_marseille","lat":43.29275,"lon":5.35691,"is_reserved":false,"is_disabled":false,"rental_uris":{"android":"levelo://app?vid=0421d7ea-5489-4199-a385-3ab425d86243","ios":"levelo://app?vid=0421d7ea-5489-4199-a385-3ab425d86243"},"vehicle_type_id":"4","last_reported":1770208522,"current_range_meters":8400,"station_id":"","pricing_plan_id":"cebpf4jnsgd1na2vs0mg"},{"bike_id":"85f809a7-4937-473c-b5d3-364e2bce9de9","system_id":"levelo_inurba_marseille","lat":43.29916,"lon":5.43663,"is_reserved":false,"is_disabled":false,"rental_uris":{"android":"levelo://app?vid=85f809a7-4937-473c-b5d3-364e2bce9de9","ios":"levelo://app?vid=85f809a7-4937-473c-b5d3-364e2bce9de9"},"vehicle_type_id":"4","last_reported":1770208522,"current_range_meters":8400,"station_id":"ce4bhpp2rcd13ifvqhfg","pricing_plan_id":"cebpf4jnsgd1na2vs0mg"},{"bike_id":"8e443969-89bd-46f6-a10f-2e1233840320","system_id":"levelo_inurba_marseille","lat":43.24666,"lon":5.38158,"is_reserved":false,"is_disabled":false,"rental_uris":{"android":"levelo://app?vid=8e443969-89bd-46f6-a10f-2e1233840320","ios":"levelo://app?vid=8e443969-89bd-46f6-a10f-2e1233840320"},"vehicle_type_id":"4","last_reported":1770208522,"current_range_meters":8400,"station_id":"ce4bhih2rcd13ifvqfr0","pricing_plan_id":"cebpf4jnsgd1na2vs0mg"},{"bike_id":"8e7f7dcc-7fc1-4fa3-8f7a-9b4596de5459","system_id":"levelo_inurba_marseille","lat":43.28472,"lon":5.35901,"is_reserved":false,"is_disabled":true,"rental_uris":{"android":"levelo://app?vid=8e7f7dcc-7fc1-4fa3-8f7a-9b4596de5459","ios":"levelo://app?vid=8e7f7dcc-7fc1-4fa3-8f7a-9b4596de5459"},"vehicle_type_id":"4","last_reported":1770208522,"current_range_meters":8400,"station_id":"ce4bhah2rcd13ifvqei0","pricing_plan_id":"cebpf4jnsgd1na2vs0mg"},{"bike_id":"6c6ad622-ac93-4344-8f55-d96bb012b50c","system_id":"levelo_inurba_marseille","lat":43.31712,"lon":5.4045,"is_reserved":false,"is_disabled":false,"rental_uris":{"android":"levelo://app?vid=6c6ad622-ac93-4344-8f55-d96bb012b50c","ios":"levelo://app?vid=6c6ad622-ac93-4344-8f55-d96bb012b50c"},"vehicle_type_id":"4","last_reported":1770208522,"current_range_meters":8400,"station_id":"ce4bh012rcd13ifvqd00","pricing_plan_id":"cebpf4jnsgd1na2vs0mg"},{"bike_id":"941d0b03-9ae1-4106-9296-775ca1406222","system_id":"levelo_inurba_marseille","lat":43.28297,"lon":5.42399,"is_reserved":false,"is_disabled":false,"rental_uris":{"android":"levelo://app?vid=941d0b03-9ae1-4106-9296-775ca1406222","ios":"levelo://app?vid=941d0b03-9ae1-4106-9296-775ca1406222"},"vehicle_type_id":"4","last_reported":1770208522,"current_range_meters":8400,"station_id":"","pricing_plan_id":"cebpf4jnsgd1na2vs0mg"},{"bike_id":"d72c8d0b-6864-4eb2-b074-4484e5b3c2c1","system_id":"levelo_inurba_marseille","lat":43.28477,"lon":5.48397,"is_reserved":false,"is_disabled":false,"rental_uris":{"android":"levelo://app?vid=d72c8d0b-6864-4eb2-b074-4484e5b3c2c1","ios":"levelo://app?vid=d72c8d0b-6864-4eb2-b074-4484e5b3c2c1"},"vehicle_type_id":"4","last_reported":1770208522,"current_range_meters":8400,"station_id":"st_d3svhcjqgbts73a3dn0g","pricing_plan_id":"cebpf4jnsgd1na2vs0mg"},{"bike_id":"1faaf7fa-60de-4bb6-92b3-0795b13166b5","system_id":"levelo_inurba_marseille","lat":43.30147,"lon":5.37418,"is_reserved":false,"is_disabled":false,"rental_uris":{"android":"levelo://app?vid=1faaf7fa-60de-4bb6-92b3-0795b13166b5","ios":"levelo://app?vid=1faaf7fa-60de-4bb6-92b3-0795b13166b5"},"vehicle_type_id":"4","last_reported":1770208522,"current_range_meters":8400,"station_id":"ce4bgs92rcd13ifvqcc0","pricing_plan_id":"cebpf4jnsgd1na2vs0mg"},{"bike_id":"ae9e6eb5-b58b-4eee-b5c1-4ce893811d8d","system_id":"levelo_inurba_marseille","lat":43.243589,"lon":5.396556,"is_reserved":false,"is_disabled":false,"rental_uris":{"android":"levelo://app?vid=ae9e6eb5-b58b-4eee-b5c1-4ce893811d8d","ios":"levelo://app?vid=ae9e6eb5-b58b-4eee-b5c1-4ce893811d8d"},"vehicle_type_id":"4","last_reported":1770208522,"current_range_meters":8400,"station_id":"ce4bha12rcd13ifvqee0","pricing_plan_id":"cebpf4jnsgd1na2vs0mg"},{"bike_id":"75311247-48e2-41dc-b8e6-f9b892cd0d97","system_id":"levelo_inurba_marseille","lat":43.25018,"lon":5.38937,"is_reserved":false,"is_disabled":false,"rental_uris":{"android":"levelo://app?vid=75311247-48e2-41dc-b8e6-f9b892cd0d97","ios":"levelo://app?vid=75311247-48e2-41dc-b8e6-f9b892cd0d97"},"vehicle_type_id":"4","last_reported":1770208522,"current_range_meters":8400,"station_id":"ce4bhgp2rcd13ifvqfd0","pricing_plan_id":"cebpf4jnsgd1na2vs0mg"},{"bike_id":"d3871e89-0460-4362-a662-d1b35a3e162d","system_id":"levelo_inurba_marseille","lat":43.29256,"lon":5.38442,"is_reserved":false,"is_disabled":false,"rental_uris":{"android":"levelo://app?vid=d3871e89-0460-4362-a662-d1b35a3e162d","ios":"levelo://app?vid=d3871e89-0460-4362-a662-d1b35a3e162d"},"vehicle_type_id":"4","last_reported":1770208522,"current_range_meters":8400,"station_id":"ce4bh692rcd13ifvqea0","pricing_plan_id":"cebpf4jnsgd1na2vs0mg"},{"bike_id":"8984abd8-16ee-4588-a707-465ec729f5ce","system_id":"levelo_inurba_marseille","lat":43.3028,"lon":5.37692,"is_reserved":false,"is_disabled":false,"rental_uris":{"android":"levelo://app?vid=8984abd8-16ee-4588-a707-465ec729f5ce","ios":"levelo://app?vid=8984abd8-16ee-4588-a707-465ec729f5ce"},"vehicle_type_id":"4","last_reported":1770208522,"current_range_meters":8400,"station_id":"ce4bguh2rcd13ifvqcj0","pricing_plan_id":"cebpf4jnsgd1na2vs0mg"},{"bike_id":"0ea29824-ad31-4b2f-8732-8df7a85d07cc","system_id":"levelo_inurba_marseille","lat":43.29897,"lon":5.37875,"is_reserved":false,"is_disabled":false,"rental_uris":{"android":"levelo://app?vid=0ea29824-ad31-4b2f-8732-8df7a85d07cc","ios":"levelo://app?vid=0ea29824-ad31-4b2f-8732-8df7a85d07cc"},"vehicle_type_id":"4","last_reported":1770208522,"current_range_meters":8400,"station_id":"","pricing_plan_id":"cebpf4jnsgd1na2vs0mg"},{"bike_id":"ae31df1c-c3f6-4879-abd7-99d899c9ca05","system_id":"levelo_inurba_marseille","lat":43.31083,"lon":5.38445,"is_reserved":false,"is_disabled":false,"rental_uris":{"android":"levelo://app?vid=ae31df1c-c3f6-4879-abd7-99d899c9ca05","ios":"levelo://app?vid=ae31df1c-c3f6-4879-abd7-99d899c9ca05"},"vehicle_type_id":"4","last_reported":1770208522,"current_range_meters":8400,"station_id":"","pricing_plan_id":"cebpf4jnsgd1na2vs0mg"},{"bike_id":"809dfd22-afa1-4754-8327-1cac66519aa2","system_id":"levelo_inurba_marseille","lat":43.28261,"lon":5.35058,"is_reserved":false,"is_disabled":false,"rental_uris":{"android":"levelo://app?vid=809dfd22-afa1-4754-8327-1cac66519aa2","ios":"levelo://app?vid=809dfd22-afa1-4754-8327-1cac66519aa2"},"vehicle_type_id":"4","last_reported":1770208522,"current_range_meters":8400,"station_id":"ce4bhbp2rcd13ifvqerg","pricing_plan_id":"cebpf4jnsgd1na2vs0mg"},{"bike_id":"e55375b7-3afd-47f8-a340-f83f485617be","system_id":"levelo_inurba_marseille","lat":43.29939,"lon":5.36549,"is_reserved":false,"is_disabled":false,"rental_uris":{"android":"levelo://app?vid=e55375b7-3afd-47f8-a340-f83f485617be","ios":"levelo://app?vid=e55375b7-3afd-47f8-a340-f83f485617be"},"vehicle_type_id":"4","last_reported":1770208522,"current_range_meters":8400,"station_id":"ce4bgm92rcd13ifvqbr0","pricing_plan_id":"cebpf4jnsgd1na2vs0mg"},{"bike_id":"b77e51a5-a5aa-41ce-98a9-04ca605b47ff","system_id":"levelo_inurba_marseille","lat":43.2928,"lon":5.36849,"is_reserved":false,"is_disabled":false,"rental_uris":{"android":"levelo://app?vid=b77e51a5-a5aa-41ce-98a9-04ca605b47ff","ios":"levelo://app?vid=b77e51a5-a5aa-41ce-98a9-04ca605b47ff"},"vehicle_type_id":"4","last_reported":1770208522,"current_range_meters":8800,"station_id":"ce4bhbp2rcd13ifvqesg","pricing_plan_id":"cebpf4jnsgd1na2vs0mg"},{"bike_id":"1794fc4b-f1e9-4439-acd6-7a3c137a2b38","system_id":"levelo_inurba_marseille","lat":43.23764,"lon":5.36515,"is_reserved":false,"is_disabled":false,"rental_uris":{"android":"levelo://app?vid=1794fc4b-f1e9-4439-acd6-7a3c137a2b38","ios":"levelo://app?vid=1794fc4b-f1e9-4439-acd6-7a3c137a2b38"},"vehicle_type_id":"4","last_reported":1770208522,"current_range_meters":8800,"station_id":"st_d3nk18o9ro0c73en2l3g","pricing_plan_id":"cebpf4jnsgd1na2vs0mg"},{"bike_id":"6b048488-fc75-44d3-98b7-f849cb862bd4","system_id":"levelo_inurba_marseille","lat":43.24654,"lon":5.3884,"is_reserved":false,"is_disabled":false,"rental_uris":{"android":"levelo://app?vid=6b048488-fc75-44d3-98b7-f849cb862bd4","ios":"levelo://app?vid=6b048488-fc75-44d3-98b7-f849cb862bd4"},"vehicle_type_id":"4","last_reported":1770208522,"current_range_meters":8800,"station_id":"ce4bhg12rcd13ifvqf60","pricing_plan_id":"cebpf4jnsgd1na2vs0mg"},{"bike_id":"11aa1c9e-21cb-43f1-b614-ec36e0115f83","system_id":"levelo_inurba_marseille","lat":43.30425,"lon":5.38886,"is_reserved":false,"is_disabled":false,"rental_uris":{"android":"levelo://app?vid=11aa1c9e-21cb-43f1-b614-ec36e0115f83","ios":"levelo://app?vid=11aa1c9e-21cb-43f1-b614-ec36e0115f83"},"vehicle_type_id":"4","last_reported":1770208522,"current_range_meters":8800,"station_id":"ce4bgk12rcd13ifvqbi0","pricing_plan_id":"cebpf4jnsgd1na2vs0mg"},{"bike_id":"06fb4933-1daf-40d9-9496-d925952f5bef","system_id":"levelo_inurba_marseille","lat":43.30206,"lon":5.38672,"is_reserved":false,"is_disabled":false,"rental_uris":{"android":"levelo://app?vid=06fb4933-1daf-40d9-9496-d925952f5bef","ios":"levelo://app?vid=06fb4933-1daf-40d9-9496-d925952f5bef"},"vehicle_type_id":"4","last_reported":1770208522,"current_range_meters":8800,"station_id":"","pricing_plan_id":"cebpf4jnsgd1na2vs0mg"},{"bike_id":"8565b715-b328-42ac-a521-214aed9a02f1","system_id":"levelo_inurba_marseille","lat":43.24085,"lon":5.37752,"is_reserved":false,"is_disabled":false,"rental_uris":{"android":"levelo://app?vid=8565b715-b328-42ac-a521-214aed9a02f1","ios":"levelo://app?vid=8565b715-b328-42ac-a521-214aed9a02f1"},"vehicle_type_id":"4","last_reported":1770208522,"current_range_meters":8800,"station_id":"ce4bhnp2rcd13ifvqgvg","pricing_plan_id":"cebpf4jnsgd1na2vs0mg"},{"bike_id":"3a4b7fad-d353-4ccb-8488-6ee8991487ab","system_id":"levelo_inurba_marseille","lat":43.2319,"lon":5.35555,"is_reserved":false,"is_disabled":false,"rental_uris":{"android":"levelo://app?vid=3a4b7fad-d353-4ccb-8488-6ee8991487ab","ios":"levelo://app?vid=3a4b7fad-d353-4ccb-8488-6ee8991487ab"},"vehicle_type_id":"4","last_reported":1770208522,"current_range_meters":8800,"station_id":"ce4bhu92rcd13ifvqi70","pricing_plan_id":"cebpf4jnsgd1na2vs0mg"},{"bike_id":"c1e71f14-e91f-49b0-9bb2-6c712963da21","system_id":"levelo_inurba_marseille","lat":43.29899,"lon":5.43667,"is_reserved":false,"is_disabled":false,"rental_uris":{"android":"levelo://app?vid=c1e71f14-e91f-49b0-9bb2-6c712963da21","ios":"levelo://app?vid=c1e71f14-e91f-49b0-9bb2-6c712963da21"},"vehicle_type_id":"4","last_reported":1770208522,"current_range_meters":8800,"station_id":"ce4bhpp2rcd13ifvqhfg","pricing_plan_id":"cebpf4jnsgd1na2vs0mg"},{"bike_id":"9c97ed08-c8de-49a9-b037-9c50c2f5044c","system_id":"levelo_inurba_marseille","lat":43.29421,"lon":5.4133,"is_reserved":false,"is_disabled":false,"rental_uris":{"android":"levelo://app?vid=9c97ed08-c8de-49a9-b037-9c50c2f5044c","ios":"levelo://app?vid=9c97ed08-c8de-49a9-b037-9c50c2f5044c"},"vehicle_type_id":"4","last_reported":1770208522,"current_range_meters":8800,"station_id":"","pricing_plan_id":"cebpf4jnsgd1na2vs0mg"},{"bike_id":"99a66080-122e-4423-acbd-d9f279044375","system_id":"levelo_inurba_marseille","lat":43.24372,"lon":5.37002,"is_reserved":false,"is_disabled":false,"rental_uris":{"android":"levelo://app?vid=99a66080-122e-4423-acbd-d9f279044375","ios":"levelo://app?vid=99a66080-122e-4423-acbd-d9f279044375"},"vehicle_type_id":"4","last_reported":1770208522,"current_range_meters":8800,"station_id":"","pricing_plan_id":"cebpf4jnsgd1na2vs0mg"},{"bike_id":"0d59add4-4b56-4ced-b456-94533a67403b","system_id":"levelo_inurba_marseille","lat":43.23195,"lon":5.35524,"is_reserved":false,"is_disabled":false,"rental_uris":{"android":"levelo://app?vid=0d59add4-4b56-4ced-b456-94533a67403b","ios":"levelo://app?vid=0d59add4-4b56-4ced-b456-94533a67403b"},"vehicle_type_id":"4","last_reported":1770208522,"current_range_meters":9200,"station_id":"ce4bhu92rcd13ifvqi70","pricing_plan_id":"cebpf4jnsgd1na2vs0mg"},{"bike_id":"6b2f8803-9c28-4df8-a226-517617e199e5","system_id":"levelo_inurba_marseille","lat":43.27998,"lon":5.4167,"is_reserved":false,"is_disabled":false,"rental_uris":{"android":"levelo://app?vid=6b2f8803-9c28-4df8-a226-517617e199e5","ios":"levelo://app?vid=6b2f8803-9c28-4df8-a226-517617e199e5"},"vehicle_type_id":"4","last_reported":1770208522,"current_range_meters":9200,"station_id":"ce4bho12rcd13ifvqh1g","pricing_plan_id":"cebpf4jnsgd1na2vs0mg"},{"bike_id":"35b85e13-b656-4d5f-8d99-0eb657e1727a","system_id":"levelo_inurba_marseille","lat":43.24548,"lon":5.39526,"is_reserved":false,"is_disabled":false,"rental_uris":{"android":"levelo://app?vid=35b85e13-b656-4d5f-8d99-0eb657e1727a","ios":"levelo://app?vid=35b85e13-b656-4d5f-8d99-0eb657e1727a"},"vehicle_type_id":"4","last_reported":1770208522,"current_range_meters":9200,"station_id":"ce4bhlp2rcd13ifvqgjg","pricing_plan_id":"cebpf4jnsgd1na2vs0mg"},{"bike_id":"b1427b24-6b11-4fd2-8c00-a854c244ac08","system_id":"levelo_inurba_marseille","lat":43.33542,"lon":5.37447,"is_reserved":false,"is_disabled":false,"rental_uris":{"android":"levelo://app?vid=b1427b24-6b11-4fd2-8c00-a854c244ac08","ios":"levelo://app?vid=b1427b24-6b11-4fd2-8c00-a854c244ac08"},"vehicle_type_id":"4","last_reported":1770208522,"current_range_meters":9200,"station_id":"st_d46tts09ee8s73dlu43g","pricing_plan_id":"cebpf4jnsgd1na2vs0mg"},{"bike_id":"9b493a99-8588-4d85-b141-8dfd5ca4d134","system_id":"levelo_inurba_marseille","lat":43.30604,"lon":5.37223,"is_reserved":false,"is_disabled":false,"rental_uris":{"android":"levelo://app?vid=9b493a99-8588-4d85-b141-8dfd5ca4d134","ios":"levelo://app?vid=9b493a99-8588-4d85-b141-8dfd5ca4d134"},"vehicle_type_id":"4","last_reported":1770208522,"current_range_meters":9200,"station_id":"ce4bgqh2rcd13ifvqc4g","pricing_plan_id":"cebpf4jnsgd1na2vs0mg"},{"bike_id":"eb47f48d-6c09-41c8-ae6e-8a7103314f13","system_id":"levelo_inurba_marseille","lat":43.29916,"lon":5.4285,"is_reserved":false,"is_disabled":false,"rental_uris":{"android":"levelo://app?vid=eb47f48d-6c09-41c8-ae6e-8a7103314f13","ios":"levelo://app?vid=eb47f48d-6c09-41c8-ae6e-8a7103314f13"},"vehicle_type_id":"4","last_reported":1770208522,"current_range_meters":9200,"station_id":"","pricing_plan_id":"cebpf4jnsgd1na2vs0mg"},{"bike_id":"c9cf1bda-a378-4513-8aed-b2dba30c86f7","system_id":"levelo_inurba_marseille","lat":43.29544,"lon":5.42286,"is_reserved":false,"is_disabled":false,"rental_uris":{"android":"levelo://app?vid=c9cf1bda-a378-4513-8aed-b2dba30c86f7","ios":"levelo://app?vid=c9cf1bda-a378-4513-8aed-b2dba30c86f7"},"vehicle_type_id":"4","last_reported":1770208522,"current_range_meters":9200,"station_id":"ce4bhph2rcd13ifvqhdg","pricing_plan_id":"cebpf4jnsgd1na2vs0mg"},{"bike_id":"38712b4b-754b-41b9-9f4d-8f2f4069c5f1","system_id":"levelo_inurba_marseille","lat":43.29876,"lon":5.37464,"is_reserved":false,"is_disabled":false,"rental_uris":{"android":"levelo://app?vid=38712b4b-754b-41b9-9f4d-8f2f4069c5f1","ios":"levelo://app?vid=38712b4b-754b-41b9-9f4d-8f2f4069c5f1"},"vehicle_type_id":"4","last_reported":1770208522,"current_range_meters":9200,"station_id":"","pricing_plan_id":"cebpf4jnsgd1na2vs0mg"},{"bike_id":"574dea72-f718-4b48-a2a2-aa632a66a0c5","system_id":"levelo_inurba_marseille","lat":43.30712,"lon":5.39221,"is_reserved":false,"is_disabled":false,"rental_uris":{"android":"levelo://app?vid=574dea72-f718-4b48-a2a2-aa632a66a0c5","ios":"levelo://app?vid=574dea72-f718-4b48-a2a2-aa632a66a0c5"},"vehicle_type_id":"4","last_reported":1770208522,"current_range_meters":9200,"station_id":"","pricing_plan_id":"cebpf4jnsgd1na2vs0mg"},{"bike_id":"414a8b03-e90f-44bb-9107-2350a066f066","system_id":"levelo_inurba_marseille","lat":43.30715,"lon":5.39287,"is_reserved":false,"is_disabled":false,"rental_uris":{"android":"levelo://app?vid=414a8b03-e90f-44bb-9107-2350a066f066","ios":"levelo://app?vid=414a8b03-e90f-44bb-9107-2350a066f066"},"vehicle_type_id":"4","last_reported":1770208522,"current_range_meters":9200,"station_id":"ce4bh0p2rcd13ifvqd80","pricing_plan_id":"cebpf4jnsgd1na2vs0mg"},{"bike_id":"52c5e029-0e2a-4e71-8973-674c07954cbb","system_id":"levelo_inurba_marseille","lat":43.29043,"lon":5.36979,"is_reserved":false,"is_disabled":false,"rental_uris":{"android":"levelo://app?vid=52c5e029-0e2a-4e71-8973-674c07954cbb","ios":"levelo://app?vid=52c5e029-0e2a-4e71-8973-674c07954cbb"},"vehicle_type_id":"4","last_reported":1770208522,"current_range_meters":9200,"station_id":"","pricing_plan_id":"cebpf4jnsgd1na2vs0mg"},{"bike_id":"0c979525-85d0-408b-ab55-925246a787cc","system_id":"levelo_inurba_marseille","lat":43.23158,"lon":5.4373,"is_reserved":false,"is_disabled":false,"rental_uris":{"android":"levelo://app?vid=0c979525-85d0-408b-ab55-925246a787cc","ios":"levelo://app?vid=0c979525-85d0-408b-ab55-925246a787cc"},"vehicle_type_id":"4","last_reported":1770208522,"current_range_meters":9200,"station_id":"ce4bhmp2rcd13ifvqgog","pricing_plan_id":"cebpf4jnsgd1na2vs0mg"},{"bike_id":"9df72779-080e-440f-a5f5-74667115769a","system_id":"levelo_inurba_marseille","lat":43.3135,"lon":5.36703,"is_reserved":false,"is_disabled":false,"rental_uris":{"android":"levelo://app?vid=9df72779-080e-440f-a5f5-74667115769a","ios":"levelo://app?vid=9df72779-080e-440f-a5f5-74667115769a"},"vehicle_type_id":"4","last_reported":1770208522,"current_range_meters":9200,"station_id":"ce4bgr92rcd13ifvqc6g","pricing_plan_id":"cebpf4jnsgd1na2vs0mg"},{"bike_id":"99727a05-398f-43fe-b852-52a7afd5cf39","system_id":"levelo_inurba_marseille","lat":43.25959,"lon":5.40905,"is_reserved":false,"is_disabled":false,"rental_uris":{"android":"levelo://app?vid=99727a05-398f-43fe-b852-52a7afd5cf39","ios":"levelo://app?vid=99727a05-398f-43fe-b852-52a7afd5cf39"},"vehicle_type_id":"4","last_reported":1770208522,"current_range_meters":9200,"station_id":"ce4bhm92rcd13ifvqglg","pricing_plan_id":"cebpf4jnsgd1na2vs0mg"},{"bike_id":"975d126b-89e4-4613-9114-c70ad14b4ed6","system_id":"levelo_inurba_marseille","lat":43.22564,"lon":5.41631,"is_reserved":false,"is_disabled":false,"rental_uris":{"android":"levelo://app?vid=975d126b-89e4-4613-9114-c70ad14b4ed6","ios":"levelo://app?vid=975d126b-89e4-4613-9114-c70ad14b4ed6"},"vehicle_type_id":"4","last_reported":1770208522,"current_range_meters":9200,"station_id":"st_d2o4gvlbi1j2169b742g","pricing_plan_id":"cebpf4jnsgd1na2vs0mg"},{"bike_id":"fb65a596-60d7-4cda-a71c-6e0e8dd27289","system_id":"levelo_inurba_marseille","lat":43.31062,"lon":5.37205,"is_reserved":false,"is_disabled":false,"rental_uris":{"android":"levelo://app?vid=fb65a596-60d7-4cda-a71c-6e0e8dd27289","ios":"levelo://app?vid=fb65a596-60d7-4cda-a71c-6e0e8dd27289"},"vehicle_type_id":"4","last_reported":1770208522,"current_range_meters":9600,"station_id":"st_d4kl2rp97mjs73e7tdfg","pricing_plan_id":"cebpf4jnsgd1na2vs0mg"},{"bike_id":"3376af0a-2c8a-4f7e-ab86-0856914ff72b","system_id":"levelo_inurba_marseille","lat":43.29528,"lon":5.38536,"is_reserved":false,"is_disabled":false,"rental_uris":{"android":"levelo://app?vid=3376af0a-2c8a-4f7e-ab86-0856914ff72b","ios":"levelo://app?vid=3376af0a-2c8a-4f7e-ab86-0856914ff72b"},"vehicle_type_id":"4","last_reported":1770208522,"current_range_meters":9600,"station_id":"ce4bgih2rcd13ifvqba0","pricing_plan_id":"cebpf4jnsgd1na2vs0mg"},{"bike_id":"b55cf58b-0b2d-45d8-b9da-9cab3935aa03","system_id":"levelo_inurba_marseille","lat":43.2305,"lon":5.35474,"is_reserved":false,"is_disabled":false,"rental_uris":{"android":"levelo://app?vid=b55cf58b-0b2d-45d8-b9da-9cab3935aa03","ios":"levelo://app?vid=b55cf58b-0b2d-45d8-b9da-9cab3935aa03"},"vehicle_type_id":"4","last_reported":1770208522,"current_range_meters":9600,"station_id":"cpo3342slgdg3j2ifvpg","pricing_plan_id":"cebpf4jnsgd1na2vs0mg"},{"bike_id":"27b91125-8725-4db7-bbdb-0b7821e21970","system_id":"levelo_inurba_marseille","lat":43.23387,"lon":5.41255,"is_reserved":false,"is_disabled":false,"rental_uris":{"android":"levelo://app?vid=27b91125-8725-4db7-bbdb-0b7821e21970","ios":"levelo://app?vid=27b91125-8725-4db7-bbdb-0b7821e21970"},"vehicle_type_id":"4","last_reported":1770208522,"current_range_meters":9600,"station_id":"","pricing_plan_id":"cebpf4jnsgd1na2vs0mg"},{"bike_id":"9a7bfa9b-59a7-479f-9353-d73803ebe331","system_id":"levelo_inurba_marseille","lat":43.23184,"lon":5.43704,"is_reserved":false,"is_disabled":false,"rental_uris":{"android":"levelo://app?vid=9a7bfa9b-59a7-479f-9353-d73803ebe331","ios":"levelo://app?vid=9a7bfa9b-59a7-479f-9353-d73803ebe331"},"vehicle_type_id":"4","last_reported":1770208522,"current_range_meters":9600,"station_id":"ce4bhmp2rcd13ifvqgog","pricing_plan_id":"cebpf4jnsgd1na2vs0mg"},{"bike_id":"a7567e82-d309-4c4f-a36d-cd305df0b6c3","system_id":"levelo_inurba_marseille","lat":43.27496,"lon":5.42453,"is_reserved":false,"is_disabled":false,"rental_uris":{"android":"levelo://app?vid=a7567e82-d309-4c4f-a36d-cd305df0b6c3","ios":"levelo://app?vid=a7567e82-d309-4c4f-a36d-cd305df0b6c3"},"vehicle_type_id":"4","last_reported":1770208522,"current_range_meters":9600,"station_id":"ce4bhn92rcd13ifvqgrg","pricing_plan_id":"cebpf4jnsgd1na2vs0mg"},{"bike_id":"2f9a2dd0-d6aa-48ac-9014-45e1c2c02c94","system_id":"levelo_inurba_marseille","lat":43.29715,"lon":5.3661,"is_reserved":false,"is_disabled":false,"rental_uris":{"android":"levelo://app?vid=2f9a2dd0-d6aa-48ac-9014-45e1c2c02c94","ios":"levelo://app?vid=2f9a2dd0-d6aa-48ac-9014-45e1c2c02c94"},"vehicle_type_id":"4","last_reported":1770208522,"current_range_meters":9600,"station_id":"ce4bgn12rcd13ifvqbt0","pricing_plan_id":"cebpf4jnsgd1na2vs0mg"},{"bike_id":"f4a75214-cfba-4971-88ae-7d55a50a300c","system_id":"levelo_inurba_marseille","lat":43.24075,"lon":5.37757,"is_reserved":false,"is_disabled":false,"rental_uris":{"android":"levelo://app?vid=f4a75214-cfba-4971-88ae-7d55a50a300c","ios":"levelo://app?vid=f4a75214-cfba-4971-88ae-7d55a50a300c"},"vehicle_type_id":"4","last_reported":1770208522,"current_range_meters":9600,"station_id":"ce4bhnp2rcd13ifvqgvg","pricing_plan_id":"cebpf4jnsgd1na2vs0mg"},{"bike_id":"82026f6c-9d07-4663-9912-25f5d62833ed","system_id":"levelo_inurba_marseille","lat":43.26185,"lon":5.37463,"is_reserved":false,"is_disabled":false,"rental_uris":{"android":"levelo://app?vid=82026f6c-9d07-4663-9912-25f5d62833ed","ios":"levelo://app?vid=82026f6c-9d07-4663-9912-25f5d62833ed"},"vehicle_type_id":"4","last_reported":1770208522,"current_range_meters":9600,"station_id":"ce4bhgp2rcd13ifvqfc0","pricing_plan_id":"cebpf4jnsgd1na2vs0mg"},{"bike_id":"1a4b8253-62ed-44b9-864e-5531e02860df","system_id":"levelo_inurba_marseille","lat":43.30364,"lon":5.41872,"is_reserved":false,"is_disabled":false,"rental_uris":{"android":"levelo://app?vid=1a4b8253-62ed-44b9-864e-5531e02860df","ios":"levelo://app?vid=1a4b8253-62ed-44b9-864e-5531e02860df"},"vehicle_type_id":"4","last_reported":1770208522,"current_range_meters":9600,"station_id":"ce4bhop2rcd13ifvqh7g","pricing_plan_id":"cebpf4jnsgd1na2vs0mg"},{"bike_id":"9e80ef4a-4cde-4e0e-8511-fdb1f747a28b","system_id":"levelo_inurba_marseille","lat":43.29554,"lon":5.37524,"is_reserved":false,"is_disabled":false,"rental_uris":{"android":"levelo://app?vid=9e80ef4a-4cde-4e0e-8511-fdb1f747a28b","ios":"levelo://app?vid=9e80ef4a-4cde-4e0e-8511-fdb1f747a28b"},"vehicle_type_id":"4","last_reported":1770208522,"current_range_meters":9600,"station_id":"ce4bgh92rcd13ifvqb50","pricing_plan_id":"cebpf4jnsgd1na2vs0mg"},{"bike_id":"d2a7dfba-86f8-4261-8e6e-383074957fc7","system_id":"levelo_inurba_marseille","lat":43.24935,"lon":5.40526,"is_reserved":false,"is_disabled":false,"rental_uris":{"android":"levelo://app?vid=d2a7dfba-86f8-4261-8e6e-383074957fc7","ios":"levelo://app?vid=d2a7dfba-86f8-4261-8e6e-383074957fc7"},"vehicle_type_id":"4","last_reported":1770208522,"current_range_meters":9600,"station_id":"st_d2ngiaodas8pm72gd1h0","pricing_plan_id":"cebpf4jnsgd1na2vs0mg"},{"bike_id":"9f694826-fc95-4f6a-8601-fad7ebd925ce","system_id":"levelo_inurba_marseille","lat":43.22815,"lon":5.43495,"is_reserved":false,"is_disabled":false,"rental_uris":{"android":"levelo://app?vid=9f694826-fc95-4f6a-8601-fad7ebd925ce","ios":"levelo://app?vid=9f694826-fc95-4f6a-8601-fad7ebd925ce"},"vehicle_type_id":"4","last_reported":1770208522,"current_range_meters":9600,"station_id":"","pricing_plan_id":"cebpf4jnsgd1na2vs0mg"},{"bike_id":"a03a0587-26a0-4743-94df-85cf192becc0","system_id":"levelo_inurba_marseille","lat":43.33541,"lon":5.37494,"is_reserved":false,"is_disabled":false,"rental_uris":{"android":"levelo://app?vid=a03a0587-26a0-4743-94df-85cf192becc0","ios":"levelo://app?vid=a03a0587-26a0-4743-94df-85cf192becc0"},"vehicle_type_id":"4","last_reported":1770208522,"current_range_meters":9600,"station_id":"st_d46tts09ee8s73dlu43g","pricing_plan_id":"cebpf4jnsgd1na2vs0mg"},{"bike_id":"063f2c68-dee1-48bf-b16a-277ba9e23cac","system_id":"levelo_inurba_marseille","lat":43.25949,"lon":5.40867,"is_reserved":false,"is_disabled":false,"rental_uris":{"android":"levelo://app?vid=063f2c68-dee1-48bf-b16a-277ba9e23cac","ios":"levelo://app?vid=063f2c68-dee1-48bf-b16a-277ba9e23cac"},"vehicle_type_id":"4","last_reported":1770208522,"current_range_meters":9600,"station_id":"ce4bhm92rcd13ifvqglg","pricing_plan_id":"cebpf4jnsgd1na2vs0mg"},{"bike_id":"8d3e7d7f-fadb-4171-a139-ea9d29aba2b7","system_id":"levelo_inurba_marseille","lat":43.283971,"lon":5.434911,"is_reserved":false,"is_disabled":false,"rental_uris":{"android":"levelo://app?vid=8d3e7d7f-fadb-4171-a139-ea9d29aba2b7","ios":"levelo://app?vid=8d3e7d7f-fadb-4171-a139-ea9d29aba2b7"},"vehicle_type_id":"4","last_reported":1770208522,"current_range_meters":10000,"station_id":"","pricing_plan_id":"cebpf4jnsgd1na2vs0mg"},{"bike_id":"49bc0ac4-ec4c-46b4-bcba-c5b87d948aa1","system_id":"levelo_inurba_marseille","lat":43.23964,"lon":5.36628,"is_reserved":false,"is_disabled":false,"rental_uris":{"android":"levelo://app?vid=49bc0ac4-ec4c-46b4-bcba-c5b87d948aa1","ios":"levelo://app?vid=49bc0ac4-ec4c-46b4-bcba-c5b87d948aa1"},"vehicle_type_id":"4","last_reported":1770208522,"current_range_meters":10000,"station_id":"ce4bhi12rcd13ifvqfp0","pricing_plan_id":"cebpf4jnsgd1na2vs0mg"},{"bike_id":"c54292e3-065f-4936-9d5e-2b6c416dceb3","system_id":"levelo_inurba_marseille","lat":43.23172,"lon":5.43682,"is_reserved":false,"is_disabled":false,"rental_uris":{"android":"levelo://app?vid=c54292e3-065f-4936-9d5e-2b6c416dceb3","ios":"levelo://app?vid=c54292e3-065f-4936-9d5e-2b6c416dceb3"},"vehicle_type_id":"4","last_reported":1770208522,"current_range_meters":10000,"station_id":"ce4bhmp2rcd13ifvqgog","pricing_plan_id":"cebpf4jnsgd1na2vs0mg"},{"bike_id":"f73bf0ee-9df1-47ae-be36-5758f33adaf5","system_id":"levelo_inurba_marseille","lat":43.33367,"lon":5.41023,"is_reserved":false,"is_disabled":false,"rental_uris":{"android":"levelo://app?vid=f73bf0ee-9df1-47ae-be36-5758f33adaf5","ios":"levelo://app?vid=f73bf0ee-9df1-47ae-be36-5758f33adaf5"},"vehicle_type_id":"4","last_reported":1770208522,"current_range_meters":10000,"station_id":"","pricing_plan_id":"cebpf4jnsgd1na2vs0mg"},{"bike_id":"c26de9f0-aea6-437d-a752-448502a27f69","system_id":"levelo_inurba_marseille","lat":43.25941,"lon":5.40904,"is_reserved":false,"is_disabled":false,"rental_uris":{"android":"levelo://app?vid=c26de9f0-aea6-437d-a752-448502a27f69","ios":"levelo://app?vid=c26de9f0-aea6-437d-a752-448502a27f69"},"vehicle_type_id":"4","last_reported":1770208522,"current_range_meters":10000,"station_id":"ce4bhm92rcd13ifvqglg","pricing_plan_id":"cebpf4jnsgd1na2vs0mg"},{"bike_id":"81843b81-dc05-4822-ac46-ea3aebd24a78","system_id":"levelo_inurba_marseille","lat":43.32362,"lon":5.36707,"is_reserved":false,"is_disabled":false,"rental_uris":{"android":"levelo://app?vid=81843b81-dc05-4822-ac46-ea3aebd24a78","ios":"levelo://app?vid=81843b81-dc05-4822-ac46-ea3aebd24a78"},"vehicle_type_id":"4","last_reported":1770208522,"current_range_meters":10000,"station_id":"ce4bhsh2rcd13ifvqi2g","pricing_plan_id":"cebpf4jnsgd1na2vs0mg"},{"bike_id":"e1f399ec-b59b-481c-8da3-14c9b357064c","system_id":"levelo_inurba_marseille","lat":43.294908,"lon":5.433065,"is_reserved":false,"is_disabled":false,"rental_uris":{"android":"levelo://app?vid=e1f399ec-b59b-481c-8da3-14c9b357064c","ios":"levelo://app?vid=e1f399ec-b59b-481c-8da3-14c9b357064c"},"vehicle_type_id":"4","last_reported":1770208522,"current_range_meters":10000,"station_id":"st_d3j5ugp08ojc73fj9d10","pricing_plan_id":"cebpf4jnsgd1na2vs0mg"},{"bike_id":"14d29e34-9030-4ebb-b26b-b9968049d1ce","system_id":"levelo_inurba_marseille","lat":43.24175,"lon":5.36396,"is_reserved":false,"is_disabled":false,"rental_uris":{"android":"levelo://app?vid=14d29e34-9030-4ebb-b26b-b9968049d1ce","ios":"levelo://app?vid=14d29e34-9030-4ebb-b26b-b9968049d1ce"},"vehicle_type_id":"4","last_reported":1770208522,"current_range_meters":10000,"station_id":"cpo36qri1sfpv3e86is0","pricing_plan_id":"cebpf4jnsgd1na2vs0mg"},{"bike_id":"9253969d-f639-49b4-b9e7-72d38bffc271","system_id":"levelo_inurba_marseille","lat":43.30132,"lon":5.43111,"is_reserved":false,"is_disabled":false,"rental_uris":{"android":"levelo://app?vid=9253969d-f639-49b4-b9e7-72d38bffc271","ios":"levelo://app?vid=9253969d-f639-49b4-b9e7-72d38bffc271"},"vehicle_type_id":"4","last_reported":1770208522,"current_range_meters":10000,"station_id":"st_d3js3co5814s73ftftug","pricing_plan_id":"cebpf4jnsgd1na2vs0mg"},{"bike_id":"5f2dbbc6-733d-43ff-b615-17be4e5bee26","system_id":"levelo_inurba_marseille","lat":43.29111,"lon":5.38161,"is_reserved":false,"is_disabled":false,"rental_uris":{"android":"levelo://app?vid=5f2dbbc6-733d-43ff-b615-17be4e5bee26","ios":"levelo://app?vid=5f2dbbc6-733d-43ff-b615-17be4e5bee26"},"vehicle_type_id":"4","last_reported":1770208522,"current_range_meters":10000,"station_id":"ce4bh512rcd13ifvqe2g","pricing_plan_id":"cebpf4jnsgd1na2vs0mg"},{"bike_id":"b48ed2cb-2c8f-487c-8d2e-8948202f478f","system_id":"levelo_inurba_marseille","lat":43.28113,"lon":5.38967,"is_reserved":false,"is_disabled":false,"rental_uris":{"android":"levelo://app?vid=b48ed2cb-2c8f-487c-8d2e-8948202f478f","ios":"levelo://app?vid=b48ed2cb-2c8f-487c-8d2e-8948202f478f"},"vehicle_type_id":"4","last_reported":1770208522,"current_range_meters":10000,"station_id":"","pricing_plan_id":"cebpf4jnsgd1na2vs0mg"},{"bike_id":"f7d0906b-23c2-4d3f-bf41-7c900c058085","system_id":"levelo_inurba_marseille","lat":43.2803,"lon":5.42208,"is_reserved":false,"is_disabled":false,"rental_uris":{"android":"levelo://app?vid=f7d0906b-23c2-4d3f-bf41-7c900c058085","ios":"levelo://app?vid=f7d0906b-23c2-4d3f-bf41-7c900c058085"},"vehicle_type_id":"4","last_reported":1770208522,"current_range_meters":10000,"station_id":"","pricing_plan_id":"cebpf4jnsgd1na2vs0mg"},{"bike_id":"c1141524-5343-4555-9ca5-2692a3456421","system_id":"levelo_inurba_marseille","lat":43.22922,"lon":5.35327,"is_reserved":false,"is_disabled":false,"rental_uris":{"android":"levelo://app?vid=c1141524-5343-4555-9ca5-2692a3456421","ios":"levelo://app?vid=c1141524-5343-4555-9ca5-2692a3456421"},"vehicle_type_id":"4","last_reported":1770208522,"current_range_meters":10000,"station_id":"cpo3532slgdg3j2ikp40","pricing_plan_id":"cebpf4jnsgd1na2vs0mg"},{"bike_id":"11c6296e-a3df-4055-a0f0-bf74e81177a5","system_id":"levelo_inurba_marseille","lat":43.28438,"lon":5.38752,"is_reserved":false,"is_disabled":false,"rental_uris":{"android":"levelo://app?vid=11c6296e-a3df-4055-a0f0-bf74e81177a5","ios":"levelo://app?vid=11c6296e-a3df-4055-a0f0-bf74e81177a5"},"vehicle_type_id":"4","last_reported":1770208522,"current_range_meters":10000,"station_id":"","pricing_plan_id":"cebpf4jnsgd1na2vs0mg"},{"bike_id":"9b2bbdd1-4d6e-455d-be47-2fb2a336879e","system_id":"levelo_inurba_marseille","lat":43.2927,"lon":5.3762,"is_reserved":false,"is_disabled":false,"rental_uris":{"android":"levelo://app?vid=9b2bbdd1-4d6e-455d-be47-2fb2a336879e","ios":"levelo://app?vid=9b2bbdd1-4d6e-455d-be47-2fb2a336879e"},"vehicle_type_id":"4","last_reported":1770208522,"current_range_meters":10000,"station_id":"ce4bgi12rcd13ifvqb80","pricing_plan_id":"cebpf4jnsgd1na2vs0mg"},{"bike_id":"70c8b52d-957c-4472-8705-221aa81f537c","system_id":"levelo_inurba_marseille","lat":43.29099,"lon":5.38124,"is_reserved":false,"is_disabled":false,"rental_uris":{"android":"levelo://app?vid=70c8b52d-957c-4472-8705-221aa81f537c","ios":"levelo://app?vid=70c8b52d-957c-4472-8705-221aa81f537c"},"vehicle_type_id":"4","last_reported":1770208522,"current_range_meters":10000,"station_id":"ce4bh512rcd13ifvqe2g","pricing_plan_id":"cebpf4jnsgd1na2vs0mg"},{"bike_id":"e89b42f3-9ad9-40cd-a65c-98400cb11139","system_id":"levelo_inurba_marseille","lat":43.23159,"lon":5.43696,"is_reserved":false,"is_disabled":false,"rental_uris":{"android":"levelo://app?vid=e89b42f3-9ad9-40cd-a65c-98400cb11139","ios":"levelo://app?vid=e89b42f3-9ad9-40cd-a65c-98400cb11139"},"vehicle_type_id":"4","last_reported":1770208522,"current_range_meters":10000,"station_id":"ce4bhmp2rcd13ifvqgog","pricing_plan_id":"cebpf4jnsgd1na2vs0mg"},{"bike_id":"aa547980-ac4e-4ab2-a533-addd34706cb0","system_id":"levelo_inurba_marseille","lat":43.30903,"lon":5.3684,"is_reserved":false,"is_disabled":false,"rental_uris":{"android":"levelo://app?vid=aa547980-ac4e-4ab2-a533-addd34706cb0","ios":"levelo://app?vid=aa547980-ac4e-4ab2-a533-addd34706cb0"},"vehicle_type_id":"4","last_reported":1770208522,"current_range_meters":10000,"station_id":"ce4bgn92rcd13ifvqbvg","pricing_plan_id":"cebpf4jnsgd1na2vs0mg"},{"bike_id":"e6a8d107-474e-4bd0-93a1-be01cb57e963","system_id":"levelo_inurba_marseille","lat":43.30135,"lon":5.37444,"is_reserved":false,"is_disabled":false,"rental_uris":{"android":"levelo://app?vid=e6a8d107-474e-4bd0-93a1-be01cb57e963","ios":"levelo://app?vid=e6a8d107-474e-4bd0-93a1-be01cb57e963"},"vehicle_type_id":"4","last_reported":1770208522,"current_range_meters":10800,"station_id":"ce4bgs92rcd13ifvqcc0","pricing_plan_id":"cebpf4jnsgd1na2vs0mg"},{"bike_id":"c6738f60-f964-49ea-bf2c-3bacd4ce0d33","system_id":"levelo_inurba_marseille","lat":43.336228,"lon":5.410318,"is_reserved":false,"is_disabled":false,"rental_uris":{"android":"levelo://app?vid=c6738f60-f964-49ea-bf2c-3bacd4ce0d33","ios":"levelo://app?vid=c6738f60-f964-49ea-bf2c-3bacd4ce0d33"},"vehicle_type_id":"4","last_reported":1770208522,"current_range_meters":10800,"station_id":"ce4bhqh2rcd13ifvqhmg","pricing_plan_id":"cebpf4jnsgd1na2vs0mg"},{"bike_id":"6655b68c-34d5-4976-9b6b-2354fa7ac20f","system_id":"levelo_inurba_marseille","lat":43.28871,"lon":5.4253,"is_reserved":false,"is_disabled":false,"rental_uris":{"android":"levelo://app?vid=6655b68c-34d5-4976-9b6b-2354fa7ac20f","ios":"levelo://app?vid=6655b68c-34d5-4976-9b6b-2354fa7ac20f"},"vehicle_type_id":"4","last_reported":1770208522,"current_range_meters":10800,"station_id":"st_d3b462108ojc7389ooeg","pricing_plan_id":"cebpf4jnsgd1na2vs0mg"},{"bike_id":"34654d40-d9c4-4861-9a25-3c2d379d8dbe","system_id":"levelo_inurba_marseille","lat":43.24108,"lon":5.37731,"is_reserved":false,"is_disabled":false,"rental_uris":{"android":"levelo://app?vid=34654d40-d9c4-4861-9a25-3c2d379d8dbe","ios":"levelo://app?vid=34654d40-d9c4-4861-9a25-3c2d379d8dbe"},"vehicle_type_id":"4","last_reported":1770208522,"current_range_meters":10800,"station_id":"ce4bhnp2rcd13ifvqgvg","pricing_plan_id":"cebpf4jnsgd1na2vs0mg"},{"bike_id":"b8a50ea7-d715-4e3d-a781-e5a31b47fd95","system_id":"levelo_inurba_marseille","lat":43.3108,"lon":5.37187,"is_reserved":false,"is_disabled":false,"rental_uris":{"android":"levelo://app?vid=b8a50ea7-d715-4e3d-a781-e5a31b47fd95","ios":"levelo://app?vid=b8a50ea7-d715-4e3d-a781-e5a31b47fd95"},"vehicle_type_id":"4","last_reported":1770208522,"current_range_meters":10800,"station_id":"st_d4kl2rp97mjs73e7tdfg","pricing_plan_id":"cebpf4jnsgd1na2vs0mg"},{"bike_id":"1c9fdc21-be7b-4a77-b37b-b67982adff04","system_id":"levelo_inurba_marseille","lat":43.28944,"lon":5.36418,"is_reserved":false,"is_disabled":false,"rental_uris":{"android":"levelo://app?vid=1c9fdc21-be7b-4a77-b37b-b67982adff04","ios":"levelo://app?vid=1c9fdc21-be7b-4a77-b37b-b67982adff04"},"vehicle_type_id":"4","last_reported":1770208522,"current_range_meters":10800,"station_id":"ce4bhc92rcd13ifvqetg","pricing_plan_id":"cebpf4jnsgd1na2vs0mg"},{"bike_id":"b59c6ef1-67ce-4d90-b0c1-56665a370fbd","system_id":"levelo_inurba_marseille","lat":43.27519,"lon":5.4247,"is_reserved":false,"is_disabled":false,"rental_uris":{"android":"levelo://app?vid=b59c6ef1-67ce-4d90-b0c1-56665a370fbd","ios":"levelo://app?vid=b59c6ef1-67ce-4d90-b0c1-56665a370fbd"},"vehicle_type_id":"4","last_reported":1770208522,"current_range_meters":10800,"station_id":"ce4bhn92rcd13ifvqgrg","pricing_plan_id":"cebpf4jnsgd1na2vs0mg"},{"bike_id":"85ea35d2-3956-47f8-af2a-f5d40ff2980c","system_id":"levelo_inurba_marseille","lat":43.284757,"lon":5.48399,"is_reserved":false,"is_disabled":false,"rental_uris":{"android":"levelo://app?vid=85ea35d2-3956-47f8-af2a-f5d40ff2980c","ios":"levelo://app?vid=85ea35d2-3956-47f8-af2a-f5d40ff2980c"},"vehicle_type_id":"4","last_reported":1770208522,"current_range_meters":10800,"station_id":"st_d3svhcjqgbts73a3dn0g","pricing_plan_id":"cebpf4jnsgd1na2vs0mg"},{"bike_id":"a274440f-016e-44dc-945b-23db4ffa94bc","system_id":"levelo_inurba_marseille","lat":43.30224,"lon":5.36587,"is_reserved":false,"is_disabled":false,"rental_uris":{"android":"levelo://app?vid=a274440f-016e-44dc-945b-23db4ffa94bc","ios":"levelo://app?vid=a274440f-016e-44dc-945b-23db4ffa94bc"},"vehicle_type_id":"4","last_reported":1770208522,"current_range_meters":10800,"station_id":"ce4bgrh2rcd13ifvqc8g","pricing_plan_id":"cebpf4jnsgd1na2vs0mg"},{"bike_id":"b03f7bdc-cb67-472a-8c70-89a0d03f3d4b","system_id":"levelo_inurba_marseille","lat":43.2931,"lon":5.37446,"is_reserved":false,"is_disabled":false,"rental_uris":{"android":"levelo://app?vid=b03f7bdc-cb67-472a-8c70-89a0d03f3d4b","ios":"levelo://app?vid=b03f7bdc-cb67-472a-8c70-89a0d03f3d4b"},"vehicle_type_id":"4","last_reported":1770208522,"current_range_meters":10800,"station_id":"ce4bgi12rcd13ifvqb70","pricing_plan_id":"cebpf4jnsgd1na2vs0mg"},{"bike_id":"c2d345dc-048a-4672-889b-b57bcb9e295c","system_id":"levelo_inurba_marseille","lat":43.28623,"lon":5.3508,"is_reserved":false,"is_disabled":false,"rental_uris":{"android":"levelo://app?vid=c2d345dc-048a-4672-889b-b57bcb9e295c","ios":"levelo://app?vid=c2d345dc-048a-4672-889b-b57bcb9e295c"},"vehicle_type_id":"4","last_reported":1770208522,"current_range_meters":10800,"station_id":"ce4bhch2rcd13ifvqeug","pricing_plan_id":"cebpf4jnsgd1na2vs0mg"},{"bike_id":"dd780350-ddcb-406a-806d-5c4fe9137031","system_id":"levelo_inurba_marseille","lat":43.27223,"lon":5.39186,"is_reserved":false,"is_disabled":false,"rental_uris":{"android":"levelo://app?vid=dd780350-ddcb-406a-806d-5c4fe9137031","ios":"levelo://app?vid=dd780350-ddcb-406a-806d-5c4fe9137031"},"vehicle_type_id":"4","last_reported":1770208522,"current_range_meters":10800,"station_id":"ce4bhhp2rcd13ifvqfm0","pricing_plan_id":"cebpf4jnsgd1na2vs0mg"},{"bike_id":"d3d63c27-06f0-4b77-9ac5-a9069aedd324","system_id":"levelo_inurba_marseille","lat":43.24097,"lon":5.37718,"is_reserved":false,"is_disabled":false,"rental_uris":{"android":"levelo://app?vid=d3d63c27-06f0-4b77-9ac5-a9069aedd324","ios":"levelo://app?vid=d3d63c27-06f0-4b77-9ac5-a9069aedd324"},