{"last_updated":1742825395,"ttl":60,"version":"2.2","data":{"bikes":[{"bike_id":"43459da5-0b5a-479e-806f-033b7a91f61b","system_id":"levelo_inurba_marseille","lat":43.2306,"lon":5.35496,"is_reserved":false,"is_disabled":false,"rental_uris":{"android":"levelo://app?vid=43459da5-0b5a-479e-806f-033b7a91f61b","ios":"levelo://app?vid=43459da5-0b5a-479e-806f-033b7a91f61b"},"vehicle_type_id":"4","last_reported":1742825395,"current_range_meters":2800,"station_id":"cpo3342slgdg3j2ifvpg","pricing_plan_id":"cebpf4jnsgd1na2vs0mg"},{"bike_id":"fbaba96f-fff3-42d8-8786-f6a72f5041a3","system_id":"levelo_inurba_marseille","lat":43.30969,"lon":5.39026,"is_reserved":false,"is_disabled":true,"rental_uris":{"android":"levelo://app?vid=fbaba96f-fff3-42d8-8786-f6a72f5041a3","ios":"levelo://app?vid=fbaba96f-fff3-42d8-8786-f6a72f5041a3"},"vehicle_type_id":"4","last_reported":1742825395,"current_range_meters":2800,"station_id":"ce4bgup2rcd13ifvqco0","pricing_plan_id":"cebpf4jnsgd1na2vs0mg"},{"bike_id":"016416fc-574c-48fe-aebc-8c4368326bdc","system_id":"levelo_inurba_marseille","lat":43.2306,"lon":5.35492,"is_reserved":false,"is_disabled":false,"rental_uris":{"android":"levelo://app?vid=016416fc-574c-48fe-aebc-8c4368326bdc","ios":"levelo://app?vid=016416fc-574c-48fe-aebc-8c4368326bdc"},"vehicle_type_id":"4","last_reported":1742825395,"current_range_meters":3200,"station_id":"cpo3342slgdg3j2ifvpg","pricing_plan_id":"cebpf4jnsgd1na2vs0mg"},{"bike_id":"32d529b4-10cc-4a3c-a585-d2b3faf345e2","system_id":"levelo_inurba_marseille","lat":43.27404,"lon":5.42371,"is_reserved":false,"is_disabled":false,"rental_uris":{"android":"levelo://app?vid=32d529b4-10cc-4a3c-a585-d2b3faf345e2","ios":"levelo://app?vid=32d529b4-10cc-4a3c-a585-d2b3faf345e2"},"vehicle_type_id":"4","last_reported":1742825395,"current_range_meters":3200,"station_id":"","pricing_plan_id":"cebpf4jnsgd1na2vs0mg"},{"bike_id":"c9c503e6-ef3a-42aa-b006-a4c84a5974fc","system_id":"levelo_inurba_marseille","lat":43.28571,"lon":5.39664,"is_reserved":false,"is_disabled":false,"rental_uris":{"android":"levelo://app?vid=c9c503e6-ef3a-42aa-b006-a4c84a5974fc","ios":"levelo://app?vid=c9c503e6-ef3a-42aa-b006-a4c84a5974fc"},"vehicle_type_id":"4","last_reported":1742825395,"current_range_meters":3200,"station_id":"ce4bho92rcd13ifvqh3g","pricing_plan_id":"cebpf4jnsgd1na2vs0mg"},{"bike_id":"ede58492-dd1c-4907-8d37-9b3d48eb8d5f","system_id":"levelo_inurba_marseille","lat":43.27952,"lon":5.41056,"is_reserved":false,"is_disabled":false,"rental_uris":{"android":"levelo://app?vid=ede58492-dd1c-4907-8d37-9b3d48eb8d5f","ios":"levelo://app?vid=ede58492-dd1c-4907-8d37-9b3d48eb8d5f"},"vehicle_type_id":"4","last_reported":1742825395,"current_range_meters":4000,"station_id":"ce4bhnp2rcd13ifvqh0g","pricing_plan_id":"cebpf4jnsgd1na2vs0mg"},{"bike_id":"29d1d332-8a34-4cb8-8d6c-26b46b6da8c9","system_id":"levelo_inurba_marseille","lat":43.29195,"lon":5.39315,"is_reserved":false,"is_disabled":false,"rental_uris":{"android":"levelo://app?vid=29d1d332-8a34-4cb8-8d6c-26b46b6da8c9","ios":"levelo://app?vid=29d1d332-8a34-4cb8-8d6c-26b46b6da8c9"},"vehicle_type_id":"4","last_reported":1742825395,"current_range_meters":4400,"station_id":"ce4bh192rcd13ifvqdd0","pricing_plan_id":"cebpf4jnsgd1na2vs0mg"},{"bike_id":"6ef41f3b-90d4-4ea7-8721-0acca25021c5","system_id":"levelo_inurba_marseille","lat":43.29786,"lon":5.37117,"is_reserved":false,"is_disabled":false,"rental_uris":{"android":"levelo://app?vid=6ef41f3b-90d4-4ea7-8721-0acca25021c5","ios":"levelo://app?vid=6ef41f3b-90d4-4ea7-8721-0acca25021c5"},"vehicle_type_id":"4","last_reported":1742825395,"current_range_meters":4400,"station_id":"ce4bgop2rcd13ifvqc1g","pricing_plan_id":"cebpf4jnsgd1na2vs0mg"},{"bike_id":"abbabf8b-80e6-43c6-9364-5564071dcd59","system_id":"levelo_inurba_marseille","lat":43.27186,"lon":5.40983,"is_reserved":false,"is_disabled":false,"rental_uris":{"android":"levelo://app?vid=abbabf8b-80e6-43c6-9364-5564071dcd59","ios":"levelo://app?vid=abbabf8b-80e6-43c6-9364-5564071dcd59"},"vehicle_type_id":"4","last_reported":1742825395,"current_range_meters":4800,"station_id":"ce4bhl12rcd13ifvqgf0","pricing_plan_id":"cebpf4jnsgd1na2vs0mg"},{"bike_id":"95d2b868-681c-4581-9f44-67da9da54337","system_id":"levelo_inurba_marseille","lat":43.29792,"lon":5.38092,"is_reserved":false,"is_disabled":false,"rental_uris":{"android":"levelo://app?vid=95d2b868-681c-4581-9f44-67da9da54337","ios":"levelo://app?vid=95d2b868-681c-4581-9f44-67da9da54337"},"vehicle_type_id":"4","last_reported":1742825395,"current_range_meters":4800,"station_id":"ce4bgip2rcd13ifvqbb0","pricing_plan_id":"cebpf4jnsgd1na2vs0mg"},{"bike_id":"4d86d5e0-9e17-481f-b592-c6ebb1d3b8a0","system_id":"levelo_inurba_marseille","lat":43.29717,"lon":5.377,"is_reserved":false,"is_disabled":false,"rental_uris":{"android":"levelo://app?vid=4d86d5e0-9e17-481f-b592-c6ebb1d3b8a0","ios":"levelo://app?vid=4d86d5e0-9e17-481f-b592-c6ebb1d3b8a0"},"vehicle_type_id":"4","last_reported":1742825395,"current_range_meters":4800,"station_id":"ce4bgkh2rcd13ifvqbl0","pricing_plan_id":"cebpf4jnsgd1na2vs0mg"},{"bike_id":"dfea4a3f-e7d1-48b9-902b-928f0bfaf02f","system_id":"levelo_inurba_marseille","lat":43.28447,"lon":5.37477,"is_reserved":false,"is_disabled":false,"rental_uris":{"android":"levelo://app?vid=dfea4a3f-e7d1-48b9-902b-928f0bfaf02f","ios":"levelo://app?vid=dfea4a3f-e7d1-48b9-902b-928f0bfaf02f"},"vehicle_type_id":"4","last_reported":1742825395,"current_range_meters":5600,"station_id":"ce4bh412rcd13ifvqds0","pricing_plan_id":"cebpf4jnsgd1na2vs0mg"},{"bike_id":"3dc255a4-229f-4e25-a8b4-e1c4459d7c84","system_id":"levelo_inurba_marseille","lat":43.25967,"lon":5.40873,"is_reserved":false,"is_disabled":false,"rental_uris":{"android":"levelo://app?vid=3dc255a4-229f-4e25-a8b4-e1c4459d7c84","ios":"levelo://app?vid=3dc255a4-229f-4e25-a8b4-e1c4459d7c84"},"vehicle_type_id":"4","last_reported":1742825395,"current_range_meters":5600,"station_id":"ce4bhm92rcd13ifvqglg","pricing_plan_id":"cebpf4jnsgd1na2vs0mg"},{"bike_id":"3c4613d7-e6d3-483c-b535-86ecd575b38e","system_id":"levelo_inurba_marseille","lat":43.26813,"lon":5.40217,"is_reserved":false,"is_disabled":false,"rental_uris":{"android":"levelo://app?vid=3c4613d7-e6d3-483c-b535-86ecd575b38e","ios":"levelo://app?vid=3c4613d7-e6d3-483c-b535-86ecd575b38e"},"vehicle_type_id":"4","last_reported":1742825395,"current_range_meters":6000,"station_id":"ce501612rcd8frsf0b60","pricing_plan_id":"cebpf4jnsgd1na2vs0mg"},{"bike_id":"870f505c-4634-4f93-9b8b-17c0c8ea54b8","system_id":"levelo_inurba_marseille","lat":43.26782,"lon":5.39485,"is_reserved":false,"is_disabled":true,"rental_uris":{"android":"levelo://app?vid=870f505c-4634-4f93-9b8b-17c0c8ea54b8","ios":"levelo://app?vid=870f505c-4634-4f93-9b8b-17c0c8ea54b8"},"vehicle_type_id":"4","last_reported":1742825395,"current_range_meters":6000,"station_id":"ce4bhh12rcd13ifvqfg0","pricing_plan_id":"cebpf4jnsgd1na2vs0mg"},{"bike_id":"35792fe3-e8af-4d0b-9783-c3a67ba5f43a","system_id":"levelo_inurba_marseille","lat":43.2866,"lon":5.38669,"is_reserved":false,"is_disabled":false,"rental_uris":{"android":"levelo://app?vid=35792fe3-e8af-4d0b-9783-c3a67ba5f43a","ios":"levelo://app?vid=35792fe3-e8af-4d0b-9783-c3a67ba5f43a"},"vehicle_type_id":"4","last_reported":1742825395,"current_range_meters":6000,"station_id":"ce4bh492rcd13ifvqdug","pricing_plan_id":"cebpf4jnsgd1na2vs0mg"},{"bike_id":"217589cc-6d6b-4c93-be2c-3a260f0ed08c","system_id":"levelo_inurba_marseille","lat":43.2594,"lon":5.40913,"is_reserved":false,"is_disabled":false,"rental_uris":{"android":"levelo://app?vid=217589cc-6d6b-4c93-be2c-3a260f0ed08c","ios":"levelo://app?vid=217589cc-6d6b-4c93-be2c-3a260f0ed08c"},"vehicle_type_id":"4","last_reported":1742825395,"current_range_meters":6000,"station_id":"ce4bhm92rcd13ifvqglg","pricing_plan_id":"cebpf4jnsgd1na2vs0mg"},{"bike_id":"785a399d-c218-46a3-9a25-f2de4b702f01","system_id":"levelo_inurba_marseille","lat":43.26212,"lon":5.37448,"is_reserved":false,"is_disabled":false,"rental_uris":{"android":"levelo://app?vid=785a399d-c218-46a3-9a25-f2de4b702f01","ios":"levelo://app?vid=785a399d-c218-46a3-9a25-f2de4b702f01"},"vehicle_type_id":"4","last_reported":1742825395,"current_range_meters":6000,"station_id":"ce4bhgp2rcd13ifvqfc0","pricing_plan_id":"cebpf4jnsgd1na2vs0mg"},{"bike_id":"2ba46124-a093-4345-928b-13702ad74f31","system_id":"levelo_inurba_marseille","lat":43.23066,"lon":5.35488,"is_reserved":false,"is_disabled":false,"rental_uris":{"android":"levelo://app?vid=2ba46124-a093-4345-928b-13702ad74f31","ios":"levelo://app?vid=2ba46124-a093-4345-928b-13702ad74f31"},"vehicle_type_id":"4","last_reported":1742825395,"current_range_meters":6400,"station_id":"cpo3342slgdg3j2ifvpg","pricing_plan_id":"cebpf4jnsgd1na2vs0mg"},{"bike_id":"6affd26d-3c2f-4482-bc96-2275240556ec","system_id":"levelo_inurba_marseille","lat":43.26237,"lon":5.40427,"is_reserved":false,"is_disabled":false,"rental_uris":{"android":"levelo://app?vid=6affd26d-3c2f-4482-bc96-2275240556ec","ios":"levelo://app?vid=6affd26d-3c2f-4482-bc96-2275240556ec"},"vehicle_type_id":"4","last_reported":1742825395,"current_range_meters":6400,"station_id":"ce4bhmh2rcd13ifvqgmg","pricing_plan_id":"cebpf4jnsgd1na2vs0mg"},{"bike_id":"ca7ca978-1fef-4a0e-9aa2-95e430214d5b","system_id":"levelo_inurba_marseille","lat":43.2417,"lon":5.36409,"is_reserved":false,"is_disabled":false,"rental_uris":{"android":"levelo://app?vid=ca7ca978-1fef-4a0e-9aa2-95e430214d5b","ios":"levelo://app?vid=ca7ca978-1fef-4a0e-9aa2-95e430214d5b"},"vehicle_type_id":"4","last_reported":1742825395,"current_range_meters":6400,"station_id":"cpo36qri1sfpv3e86is0","pricing_plan_id":"cebpf4jnsgd1na2vs0mg"},{"bike_id":"a8054457-ef9c-4293-879f-1eab83000740","system_id":"levelo_inurba_marseille","lat":43.2417,"lon":5.364,"is_reserved":false,"is_disabled":false,"rental_uris":{"android":"levelo://app?vid=a8054457-ef9c-4293-879f-1eab83000740","ios":"levelo://app?vid=a8054457-ef9c-4293-879f-1eab83000740"},"vehicle_type_id":"4","last_reported":1742825395,"current_range_meters":6800,"station_id":"cpo36qri1sfpv3e86is0","pricing_plan_id":"cebpf4jnsgd1na2vs0mg"},{"bike_id":"2fd4d927-0f70-4f4e-9269-8cd3b232bcd8","system_id":"levelo_inurba_marseille","lat":43.25936,"lon":5.40907,"is_reserved":false,"is_disabled":false,"rental_uris":{"android":"levelo://app?vid=2fd4d927-0f70-4f4e-9269-8cd3b232bcd8","ios":"levelo://app?vid=2fd4d927-0f70-4f4e-9269-8cd3b232bcd8"},"vehicle_type_id":"4","last_reported":1742825395,"current_range_meters":6800,"station_id":"ce4bhm92rcd13ifvqglg","pricing_plan_id":"cebpf4jnsgd1na2vs0mg"},{"bike_id":"3556a587-7292-4a36-8d20-c63d70eb91dd","system_id":"levelo_inurba_marseille","lat":43.24547,"lon":5.39526,"is_reserved":false,"is_disabled":false,"rental_uris":{"android":"levelo://app?vid=3556a587-7292-4a36-8d20-c63d70eb91dd","ios":"levelo://app?vid=3556a587-7292-4a36-8d20-c63d70eb91dd"},"vehicle_type_id":"4","last_reported":1742825395,"current_range_meters":6800,"station_id":"ce4bhlp2rcd13ifvqgjg","pricing_plan_id":"cebpf4jnsgd1na2vs0mg"},{"bike_id":"0457f128-7608-4673-8ac6-81ef7302f29f","system_id":"levelo_inurba_marseille","lat":43.24078,"lon":5.3776,"is_reserved":false,"is_disabled":false,"rental_uris":{"android":"levelo://app?vid=0457f128-7608-4673-8ac6-81ef7302f29f","ios":"levelo://app?vid=0457f128-7608-4673-8ac6-81ef7302f29f"},"vehicle_type_id":"4","last_reported":1742825395,"current_range_meters":6800,"station_id":"ce4bhnp2rcd13ifvqgvg","pricing_plan_id":"cebpf4jnsgd1na2vs0mg"},{"bike_id":"fd71515f-8533-4716-babe-e5fc67610b94","system_id":"levelo_inurba_marseille","lat":43.30284,"lon":5.37701,"is_reserved":false,"is_disabled":false,"rental_uris":{"android":"levelo://app?vid=fd71515f-8533-4716-babe-e5fc67610b94","ios":"levelo://app?vid=fd71515f-8533-4716-babe-e5fc67610b94"},"vehicle_type_id":"4","last_reported":1742825395,"current_range_meters":6800,"station_id":"ce4bguh2rcd13ifvqcj0","pricing_plan_id":"cebpf4jnsgd1na2vs0mg"},{"bike_id":"dbc04d02-91d4-42f5-86c3-6000f6a3d30b","system_id":"levelo_inurba_marseille","lat":43.30422,"lon":5.41286,"is_reserved":false,"is_disabled":false,"rental_uris":{"android":"levelo://app?vid=dbc04d02-91d4-42f5-86c3-6000f6a3d30b","ios":"levelo://app?vid=dbc04d02-91d4-42f5-86c3-6000f6a3d30b"},"vehicle_type_id":"4","last_reported":1742825395,"current_range_meters":9200,"station_id":"ce4bhop2rcd13ifvqh8g","pricing_plan_id":"cebpf4jnsgd1na2vs0mg"},{"bike_id":"844fb439-b3e0-4e93-9e65-895fbb76ff73","system_id":"levelo_inurba_marseille","lat":43.30092,"lon":5.39099,"is_reserved":false,"is_disabled":false,"rental_uris":{"android":"levelo://app?vid=844fb439-b3e0-4e93-9e65-895fbb76ff73","ios":"levelo://app?vid=844fb439-b3e0-4e93-9e65-895fbb76ff73"},"vehicle_type_id":"4","last_reported":1742825395,"current_range_meters":7200,"station_id":"ce4bh192rcd13ifvqdb0","pricing_plan_id":"cebpf4jnsgd1na2vs0mg"},{"bike_id":"64e23f9f-45f1-4171-8990-2bc4bd11122c","system_id":"levelo_inurba_marseille","lat":43.30776,"lon":5.3766,"is_reserved":false,"is_disabled":false,"rental_uris":{"android":"levelo://app?vid=64e23f9f-45f1-4171-8990-2bc4bd11122c","ios":"levelo://app?vid=64e23f9f-45f1-4171-8990-2bc4bd11122c"},"vehicle_type_id":"4","last_reported":1742825395,"current_range_meters":7200,"station_id":"ce4bgv92rcd13ifvqcq0","pricing_plan_id":"cebpf4jnsgd1na2vs0mg"},{"bike_id":"3139b39d-c4b4-4380-a511-1b4e3bcf0669","system_id":"levelo_inurba_marseille","lat":43.24184,"lon":5.39732,"is_reserved":false,"is_disabled":false,"rental_uris":{"android":"levelo://app?vid=3139b39d-c4b4-4380-a511-1b4e3bcf0669","ios":"levelo://app?vid=3139b39d-c4b4-4380-a511-1b4e3bcf0669"},"vehicle_type_id":"4","last_reported":1742825395,"current_range_meters":7200,"station_id":"ce4bhn12rcd13ifvqgpg","pricing_plan_id":"cebpf4jnsgd1na2vs0mg"},{"bike_id":"07541760-82c4-4d38-b58c-85ffff07e965","system_id":"levelo_inurba_marseille","lat":43.23954,"lon":5.36619,"is_reserved":false,"is_disabled":false,"rental_uris":{"android":"levelo://app?vid=07541760-82c4-4d38-b58c-85ffff07e965","ios":"levelo://app?vid=07541760-82c4-4d38-b58c-85ffff07e965"},"vehicle_type_id":"4","last_reported":1742825395,"current_range_meters":7200,"station_id":"ce4bhi12rcd13ifvqfp0","pricing_plan_id":"cebpf4jnsgd1na2vs0mg"},{"bike_id":"d954b141-3cee-4de0-9c29-d5babd11cd82","system_id":"levelo_inurba_marseille","lat":43.25099,"lon":5.39547,"is_reserved":false,"is_disabled":false,"rental_uris":{"android":"levelo://app?vid=d954b141-3cee-4de0-9c29-d5babd11cd82","ios":"levelo://app?vid=d954b141-3cee-4de0-9c29-d5babd11cd82"},"vehicle_type_id":"4","last_reported":1742825395,"current_range_meters":7200,"station_id":"ce4bhm12rcd13ifvqgkg","pricing_plan_id":"cebpf4jnsgd1na2vs0mg"},{"bike_id":"0bdcf116-4ba9-495a-860f-b8bd175bed9c","system_id":"levelo_inurba_marseille","lat":43.25941,"lon":5.4092,"is_reserved":false,"is_disabled":false,"rental_uris":{"android":"levelo://app?vid=0bdcf116-4ba9-495a-860f-b8bd175bed9c","ios":"levelo://app?vid=0bdcf116-4ba9-495a-860f-b8bd175bed9c"},"vehicle_type_id":"4","last_reported":1742825395,"current_range_meters":8000,"station_id":"ce4bhm92rcd13ifvqglg","pricing_plan_id":"cebpf4jnsgd1na2vs0mg"},{"bike_id":"c5fb10ae-e883-40e9-b431-e01db349d53b","system_id":"levelo_inurba_marseille","lat":43.28676,"lon":5.38674,"is_reserved":false,"is_disabled":false,"rental_uris":{"android":"levelo://app?vid=c5fb10ae-e883-40e9-b431-e01db349d53b","ios":"levelo://app?vid=c5fb10ae-e883-40e9-b431-e01db349d53b"},"vehicle_type_id":"4","last_reported":1742825395,"current_range_meters":8000,"station_id":"ce4bh492rcd13ifvqdug","pricing_plan_id":"cebpf4jnsgd1na2vs0mg"},{"bike_id":"41df3a31-33ea-4040-995c-6a70579c4ca3","system_id":"levelo_inurba_marseille","lat":43.28714,"lon":5.3997,"is_reserved":false,"is_disabled":false,"rental_uris":{"android":"levelo://app?vid=41df3a31-33ea-4040-995c-6a70579c4ca3","ios":"levelo://app?vid=41df3a31-33ea-4040-995c-6a70579c4ca3"},"vehicle_type_id":"4","last_reported":1742825395,"current_range_meters":8000,"station_id":"ce4bho92rcd13ifvqh3g","pricing_plan_id":"cebpf4jnsgd1na2vs0mg"},{"bike_id":"a048f7b0-61a1-4fb1-b7c7-effd82faf05a","system_id":"levelo_inurba_marseille","lat":43.26792,"lon":5.39412,"is_reserved":false,"is_disabled":false,"rental_uris":{"android":"levelo://app?vid=a048f7b0-61a1-4fb1-b7c7-effd82faf05a","ios":"levelo://app?vid=a048f7b0-61a1-4fb1-b7c7-effd82faf05a"},"vehicle_type_id":"4","last_reported":1742825395,"current_range_meters":8000,"station_id":"ce4bhh12rcd13ifvqfg0","pricing_plan_id":"cebpf4jnsgd1na2vs0mg"},{"bike_id":"d56adfe4-71b8-4296-a347-e43ee3f50c5b","system_id":"levelo_inurba_marseille","lat":43.29196,"lon":5.39331,"is_reserved":false,"is_disabled":true,"rental_uris":{"android":"levelo://app?vid=d56adfe4-71b8-4296-a347-e43ee3f50c5b","ios":"levelo://app?vid=d56adfe4-71b8-4296-a347-e43ee3f50c5b"},"vehicle_type_id":"4","last_reported":1742825395,"current_range_meters":8400,"station_id":"ce4bh192rcd13ifvqdd0","pricing_plan_id":"cebpf4jnsgd1na2vs0mg"},{"bike_id":"b11bd984-001e-4d91-ab77-4081da90830d","system_id":"levelo_inurba_marseille","lat":43.26562,"lon":5.39014,"is_reserved":false,"is_disabled":false,"rental_uris":{"android":"levelo://app?vid=b11bd984-001e-4d91-ab77-4081da90830d","ios":"levelo://app?vid=b11bd984-001e-4d91-ab77-4081da90830d"},"vehicle_type_id":"4","last_reported":1742825395,"current_range_meters":8400,"station_id":"ce4bhe12rcd13ifvqf30","pricing_plan_id":"cebpf4jnsgd1na2vs0mg"},{"bike_id":"5cdc8471-04c3-43c8-b0c2-0b51cf5f5a85","system_id":"levelo_inurba_marseille","lat":43.27373,"lon":5.36246,"is_reserved":false,"is_disabled":false,"rental_uris":{"android":"levelo://app?vid=5cdc8471-04c3-43c8-b0c2-0b51cf5f5a85","ios":"levelo://app?vid=5cdc8471-04c3-43c8-b0c2-0b51cf5f5a85"},"vehicle_type_id":"4","last_reported":1742825395,"current_range_meters":8400,"station_id":"ce4bhbh2rcd13ifvqeo0","pricing_plan_id":"cebpf4jnsgd1na2vs0mg"},{"bike_id":"4baf8c5d-e0fe-4a6c-97de-a71e960c5338","system_id":"levelo_inurba_marseille","lat":43.24167,"lon":5.36402,"is_reserved":false,"is_disabled":false,"rental_uris":{"android":"levelo://app?vid=4baf8c5d-e0fe-4a6c-97de-a71e960c5338","ios":"levelo://app?vid=4baf8c5d-e0fe-4a6c-97de-a71e960c5338"},"vehicle_type_id":"4","last_reported":1742825395,"current_range_meters":8400,"station_id":"cpo36qri1sfpv3e86is0","pricing_plan_id":"cebpf4jnsgd1na2vs0mg"},{"bike_id":"8ac76298-3375-4b96-8a90-9315b1510fa4","system_id":"levelo_inurba_marseille","lat":43.27833,"lon":5.40724,"is_reserved":false,"is_disabled":false,"rental_uris":{"android":"levelo://app?vid=8ac76298-3375-4b96-8a90-9315b1510fa4","ios":"levelo://app?vid=8ac76298-3375-4b96-8a90-9315b1510fa4"},"vehicle_type_id":"4","last_reported":1742825395,"current_range_meters":8400,"station_id":"ce4bhnh2rcd13ifvqgtg","pricing_plan_id":"cebpf4jnsgd1na2vs0mg"},{"bike_id":"901ad870-67db-4efd-a3cc-2d5ce9510114","system_id":"levelo_inurba_marseille","lat":43.26737,"lon":5.39285,"is_reserved":false,"is_disabled":false,"rental_uris":{"android":"levelo://app?vid=901ad870-67db-4efd-a3cc-2d5ce9510114","ios":"levelo://app?vid=901ad870-67db-4efd-a3cc-2d5ce9510114"},"vehicle_type_id":"4","last_reported":1742825395,"current_range_meters":8400,"station_id":"","pricing_plan_id":"cebpf4jnsgd1na2vs0mg"},{"bike_id":"daf705b5-817b-4bbc-bd5a-5101c6aa000f","system_id":"levelo_inurba_marseille","lat":43.27816,"lon":5.40728,"is_reserved":false,"is_disabled":true,"rental_uris":{"android":"levelo://app?vid=daf705b5-817b-4bbc-bd5a-5101c6aa000f","ios":"levelo://app?vid=daf705b5-817b-4bbc-bd5a-5101c6aa000f"},"vehicle_type_id":"4","last_reported":1742825395,"current_range_meters":8400,"station_id":"ce4bhnh2rcd13ifvqgtg","pricing_plan_id":"cebpf4jnsgd1na2vs0mg"},{"bike_id":"0f695239-c866-4a2b-88c6-8844266ee6b8","system_id":"levelo_inurba_marseille","lat":43.33727,"lon":5.39218,"is_reserved":false,"is_disabled":false,"rental_uris":{"android":"levelo://app?vid=0f695239-c866-4a2b-88c6-8844266ee6b8","ios":"levelo://app?vid=0f695239-c866-4a2b-88c6-8844266ee6b8"},"vehicle_type_id":"4","last_reported":1742825395,"current_range_meters":8800,"station_id":"ce4bhr92rcd13ifvqhsg","pricing_plan_id":"cebpf4jnsgd1na2vs0mg"},{"bike_id":"034718de-67f9-4b03-9b14-13a8fc4858ac","system_id":"levelo_inurba_marseille","lat":43.23187,"lon":5.35587,"is_reserved":false,"is_disabled":false,"rental_uris":{"android":"levelo://app?vid=034718de-67f9-4b03-9b14-13a8fc4858ac","ios":"levelo://app?vid=034718de-67f9-4b03-9b14-13a8fc4858ac"},"vehicle_type_id":"4","last_reported":1742825395,"current_range_meters":8800,"station_id":"ce4bhu92rcd13ifvqi70","pricing_plan_id":"cebpf4jnsgd1na2vs0mg"},{"bike_id":"83749387-4504-4259-a6ca-3b74b7ae7717","system_id":"levelo_inurba_marseille","lat":43.23151,"lon":5.43697,"is_reserved":false,"is_disabled":false,"rental_uris":{"android":"levelo://app?vid=83749387-4504-4259-a6ca-3b74b7ae7717","ios":"levelo://app?vid=83749387-4504-4259-a6ca-3b74b7ae7717"},"vehicle_type_id":"4","last_reported":1742825395,"current_range_meters":8800,"station_id":"ce4bhmp2rcd13ifvqgog","pricing_plan_id":"cebpf4jnsgd1na2vs0mg"},{"bike_id":"46c8c0a1-5c8c-4bff-9dae-9c53c65642f4","system_id":"levelo_inurba_marseille","lat":43.27207,"lon":5.39188,"is_reserved":false,"is_disabled":false,"rental_uris":{"android":"levelo://app?vid=46c8c0a1-5c8c-4bff-9dae-9c53c65642f4","ios":"levelo://app?vid=46c8c0a1-5c8c-4bff-9dae-9c53c65642f4"},"vehicle_type_id":"4","last_reported":1742825395,"current_range_meters":8800,"station_id":"ce4bhhp2rcd13ifvqfm0","pricing_plan_id":"cebpf4jnsgd1na2vs0mg"},{"bike_id":"184fbd4c-5a2e-4865-b1ab-0f65577b7822","system_id":"levelo_inurba_marseille","lat":43.26504,"lon":5.39558,"is_reserved":false,"is_disabled":false,"rental_uris":{"android":"levelo://app?vid=184fbd4c-5a2e-4865-b1ab-0f65577b7822","ios":"levelo://app?vid=184fbd4c-5a2e-4865-b1ab-0f65577b7822"},"vehicle_type_id":"4","last_reported":1742825395,"current_range_meters":8800,"station_id":"ce4bhi12rcd13ifvqfq0","pricing_plan_id":"cebpf4jnsgd1na2vs0mg"},{"bike_id":"90cda2f0-22fd-43de-9112-912f036781a7","system_id":"levelo_inurba_marseille","lat":43.26202,"lon":5.37942,"is_reserved":false,"is_disabled":false,"rental_uris":{"android":"levelo://app?vid=90cda2f0-22fd-43de-9112-912f036781a7","ios":"levelo://app?vid=90cda2f0-22fd-43de-9112-912f036781a7"},"vehicle_type_id":"4","last_reported":1742825395,"current_range_meters":8800,"station_id":"ce4bhjp2rcd13ifvqg90","pricing_plan_id":"cebpf4jnsgd1na2vs0mg"},{"bike_id":"598195f6-491a-403e-865b-529e114a6746","system_id":"levelo_inurba_marseille","lat":43.30445,"lon":5.39752,"is_reserved":false,"is_disabled":false,"rental_uris":{"android":"levelo://app?vid=598195f6-491a-403e-865b-529e114a6746","ios":"levelo://app?vid=598195f6-491a-403e-865b-529e114a6746"},"vehicle_type_id":"4","last_reported":1742825395,"current_range_meters":8800,"station_id":"ce4bh092rcd13ifvqd20","pricing_plan_id":"cebpf4jnsgd1na2vs0mg"},{"bike_id":"527babbd-c3bb-4101-a519-377e052bb1e2","system_id":"levelo_inurba_marseille","lat":43.28923,"lon":5.38388,"is_reserved":false,"is_disabled":false,"rental_uris":{"android":"levelo://app?vid=527babbd-c3bb-4101-a519-377e052bb1e2","ios":"levelo://app?vid=527babbd-c3bb-4101-a519-377e052bb1e2"},"vehicle_type_id":"4","last_reported":1742825395,"current_range_meters":9200,"station_id":"ce4bh612rcd13ifvqe6g","pricing_plan_id":"cebpf4jnsgd1na2vs0mg"},{"bike_id":"fe5432e5-60a1-498a-b3df-abcacf9bfffd","system_id":"levelo_inurba_marseille","lat":43.308,"lon":5.3815,"is_reserved":false,"is_disabled":false,"rental_uris":{"android":"levelo://app?vid=fe5432e5-60a1-498a-b3df-abcacf9bfffd","ios":"levelo://app?vid=fe5432e5-60a1-498a-b3df-abcacf9bfffd"},"vehicle_type_id":"4","last_reported":1742825395,"current_range_meters":9200,"station_id":"ce4bgt12rcd13ifvqce0","pricing_plan_id":"cebpf4jnsgd1na2vs0mg"},{"bike_id":"b9379432-0e96-4d9f-a7ed-12d7d124db3e","system_id":"levelo_inurba_marseille","lat":43.25932,"lon":5.40902,"is_reserved":false,"is_disabled":false,"rental_uris":{"android":"levelo://app?vid=b9379432-0e96-4d9f-a7ed-12d7d124db3e","ios":"levelo://app?vid=b9379432-0e96-4d9f-a7ed-12d7d124db3e"},"vehicle_type_id":"4","last_reported":1742825395,"current_range_meters":9200,"station_id":"ce4bhm92rcd13ifvqglg","pricing_plan_id":"cebpf4jnsgd1na2vs0mg"},{"bike_id":"73f24004-486a-42ce-8b4c-437345158989","system_id":"levelo_inurba_marseille","lat":43.25929,"lon":5.40914,"is_reserved":false,"is_disabled":false,"rental_uris":{"android":"levelo://app?vid=73f24004-486a-42ce-8b4c-437345158989","ios":"levelo://app?vid=73f24004-486a-42ce-8b4c-437345158989"},"vehicle_type_id":"4","last_reported":1742825395,"current_range_meters":9200,"station_id":"ce4bhm92rcd13ifvqglg","pricing_plan_id":"cebpf4jnsgd1na2vs0mg"},{"bike_id":"6a8fb34b-1c2c-4e30-9fa4-a23fcf3c6317","system_id":"levelo_inurba_marseille","lat":43.25937,"lon":5.40901,"is_reserved":false,"is_disabled":false,"rental_uris":{"android":"levelo://app?vid=6a8fb34b-1c2c-4e30-9fa4-a23fcf3c6317","ios":"levelo://app?vid=6a8fb34b-1c2c-4e30-9fa4-a23fcf3c6317"},"vehicle_type_id":"4","last_reported":1742825395,"current_range_meters":9200,"station_id":"ce4bhm92rcd13ifvqglg","pricing_plan_id":"cebpf4jnsgd1na2vs0mg"},{"bike_id":"c6ef6d01-d4bc-4ed0-bd94-6224a848ca23","system_id":"levelo_inurba_marseille","lat":43.24173,"lon":5.39733,"is_reserved":false,"is_disabled":false,"rental_uris":{"android":"levelo://app?vid=c6ef6d01-d4bc-4ed0-bd94-6224a848ca23","ios":"levelo://app?vid=c6ef6d01-d4bc-4ed0-bd94-6224a848ca23"},"vehicle_type_id":"4","last_reported":1742825395,"current_range_meters":9600,"station_id":"ce4bhn12rcd13ifvqgpg","pricing_plan_id":"cebpf4jnsgd1na2vs0mg"},{"bike_id":"b4fe017e-054c-4371-a0e5-2283eb07af54","system_id":"levelo_inurba_marseille","lat":43.30307,"lon":5.40452,"is_reserved":false,"is_disabled":false,"rental_uris":{"android":"levelo://app?vid=b4fe017e-054c-4371-a0e5-2283eb07af54","ios":"levelo://app?vid=b4fe017e-054c-4371-a0e5-2283eb07af54"},"vehicle_type_id":"4","last_reported":1742825395,"current_range_meters":9200,"station_id":"ce4bh012rcd13ifvqd10","pricing_plan_id":"cebpf4jnsgd1na2vs0mg"},{"bike_id":"b4033be0-5b35-45ca-9979-c7890f6c888e","system_id":"levelo_inurba_marseille","lat":43.311677,"lon":5.387185,"is_reserved":false,"is_disabled":false,"rental_uris":{"android":"levelo://app?vid=b4033be0-5b35-45ca-9979-c7890f6c888e","ios":"levelo://app?vid=b4033be0-5b35-45ca-9979-c7890f6c888e"},"vehicle_type_id":"4","last_reported":1742825395,"current_range_meters":9200,"station_id":"ce4bgv12rcd13ifvqcp0","pricing_plan_id":"cebpf4jnsgd1na2vs0mg"},{"bike_id":"1b394434-446b-4e99-96e8-6b484aad715a","system_id":"levelo_inurba_marseille","lat":43.27836,"lon":5.39218,"is_reserved":false,"is_disabled":false,"rental_uris":{"android":"levelo://app?vid=1b394434-446b-4e99-96e8-6b484aad715a","ios":"levelo://app?vid=1b394434-446b-4e99-96e8-6b484aad715a"},"vehicle_type_id":"4","last_reported":1742825395,"current_range_meters":8800,"station_id":"ce4bhjp2rcd13ifvqga0","pricing_plan_id":"cebpf4jnsgd1na2vs0mg"},{"bike_id":"a0d35c22-9747-4009-b077-f71b7595a0a7","system_id":"levelo_inurba_marseille","lat":43.3093,"lon":5.36838,"is_reserved":false,"is_disabled":false,"rental_uris":{"android":"levelo://app?vid=a0d35c22-9747-4009-b077-f71b7595a0a7","ios":"levelo://app?vid=a0d35c22-9747-4009-b077-f71b7595a0a7"},"vehicle_type_id":"4","last_reported":1742825395,"current_range_meters":9200,"station_id":"ce4bgn92rcd13ifvqbvg","pricing_plan_id":"cebpf4jnsgd1na2vs0mg"},{"bike_id":"b5a4adaa-9461-4e66-89ac-3ed86a25f3a8","system_id":"levelo_inurba_marseille","lat":43.28659,"lon":5.38671,"is_reserved":false,"is_disabled":false,"rental_uris":{"android":"levelo://app?vid=b5a4adaa-9461-4e66-89ac-3ed86a25f3a8","ios":"levelo://app?vid=b5a4adaa-9461-4e66-89ac-3ed86a25f3a8"},"vehicle_type_id":"4","last_reported":1742825395,"current_range_meters":9600,"station_id":"ce4bh492rcd13ifvqdug","pricing_plan_id":"cebpf4jnsgd1na2vs0mg"},{"bike_id":"311afd1c-19fc-4a0a-801b-ddc2ed0a66c3","system_id":"levelo_inurba_marseille","lat":43.26498,"lon":5.39542,"is_reserved":false,"is_disabled":false,"rental_uris":{"android":"levelo://app?vid=311afd1c-19fc-4a0a-801b-ddc2ed0a66c3","ios":"levelo://app?vid=311afd1c-19fc-4a0a-801b-ddc2ed0a66c3"},"vehicle_type_id":"4","last_reported":1742825395,"current_range_meters":9600,"station_id":"ce4bhi12rcd13ifvqfq0","pricing_plan_id":"cebpf4jnsgd1na2vs0mg"},{"bike_id":"f52d578c-2e92-468c-8d0d-6b48faf8734d","system_id":"levelo_inurba_marseille","lat":43.298657,"lon":5.389101,"is_reserved":false,"is_disabled":true,"rental_uris":{"android":"levelo://app?vid=f52d578c-2e92-468c-8d0d-6b48faf8734d","ios":"levelo://app?vid=f52d578c-2e92-468c-8d0d-6b48faf8734d"},"vehicle_type_id":"4","last_reported":1742825395,"current_range_meters":9600,"station_id":"ce4bh392rcd13ifvqdl0","pricing_plan_id":"cebpf4jnsgd1na2vs0mg"},{"bike_id":"d7817668-80da-45bc-af23-0998fd3f86dc","system_id":"levelo_inurba_marseille","lat":43.3046,"lon":5.37915,"is_reserved":false,"is_disabled":false,"rental_uris":{"android":"levelo://app?vid=d7817668-80da-45bc-af23-0998fd3f86dc","ios":"levelo://app?vid=d7817668-80da-45bc-af23-0998fd3f86dc"},"vehicle_type_id":"4","last_reported":1742825395,"current_range_meters":9600,"station_id":"ce4bgup2rcd13ifvqcn0","pricing_plan_id":"cebpf4jnsgd1na2vs0mg"},{"bike_id":"a9d2a090-bcde-49c4-af6e-5403cbd1eac9","system_id":"levelo_inurba_marseille","lat":43.3017,"lon":5.39918,"is_reserved":false,"is_disabled":false,"rental_uris":{"android":"levelo://app?vid=a9d2a090-bcde-49c4-af6e-5403cbd1eac9","ios":"levelo://app?vid=a9d2a090-bcde-49c4-af6e-5403cbd1eac9"},"vehicle_type_id":"4","last_reported":1742825395,"current_range_meters":9600,"station_id":"ce4bh0h2rcd13ifvqd40","pricing_plan_id":"cebpf4jnsgd1na2vs0mg"},{"bike_id":"df71e60d-9738-4a38-9a53-57e77ee84d52","system_id":"levelo_inurba_marseille","lat":43.25578,"lon":5.38253,"is_reserved":false,"is_disabled":false,"rental_uris":{"android":"levelo://app?vid=df71e60d-9738-4a38-9a53-57e77ee84d52","ios":"levelo://app?vid=df71e60d-9738-4a38-9a53-57e77ee84d52"},"vehicle_type_id":"4","last_reported":1742825395,"current_range_meters":9600,"station_id":"ce4bhih2rcd13ifvqfs0","pricing_plan_id":"cebpf4jnsgd1na2vs0mg"},{"bike_id":"ee6fc7b6-56d3-4535-8678-6e6790cdf64f","system_id":"levelo_inurba_marseille","lat":43.29714,"lon":5.36615,"is_reserved":false,"is_disabled":false,"rental_uris":{"android":"levelo://app?vid=ee6fc7b6-56d3-4535-8678-6e6790cdf64f","ios":"levelo://app?vid=ee6fc7b6-56d3-4535-8678-6e6790cdf64f"},"vehicle_type_id":"4","last_reported":1742825395,"current_range_meters":9600,"station_id":"ce4bgn12rcd13ifvqbt0","pricing_plan_id":"cebpf4jnsgd1na2vs0mg"},{"bike_id":"ee70574a-534d-4a70-bf83-cac277c9a895","system_id":"levelo_inurba_marseille","lat":43.2894,"lon":5.36643,"is_reserved":false,"is_disabled":false,"rental_uris":{"android":"levelo://app?vid=ee70574a-534d-4a70-bf83-cac277c9a895","ios":"levelo://app?vid=ee70574a-534d-4a70-bf83-cac277c9a895"},"vehicle_type_id":"4","last_reported":1742825395,"current_range_meters":9600,"station_id":"ce4bhap2rcd13ifvqek0","pricing_plan_id":"cebpf4jnsgd1na2vs0mg"},{"bike_id":"23481fdb-7a77-420d-bbe3-85b153a6c50c","system_id":"levelo_inurba_marseille","lat":43.28484,"lon":5.38422,"is_reserved":false,"is_disabled":false,"rental_uris":{"android":"levelo://app?vid=23481fdb-7a77-420d-bbe3-85b153a6c50c","ios":"levelo://app?vid=23481fdb-7a77-420d-bbe3-85b153a6c50c"},"vehicle_type_id":"4","last_reported":1742825395,"current_range_meters":9600,"station_id":"ce4bh512rcd13ifvqe3g","pricing_plan_id":"cebpf4jnsgd1na2vs0mg"},{"bike_id":"defcb603-7d06-420a-a2bd-5e646c21e7e7","system_id":"levelo_inurba_marseille","lat":43.25565,"lon":5.38214,"is_reserved":false,"is_disabled":false,"rental_uris":{"android":"levelo://app?vid=defcb603-7d06-420a-a2bd-5e646c21e7e7","ios":"levelo://app?vid=defcb603-7d06-420a-a2bd-5e646c21e7e7"},"vehicle_type_id":"4","last_reported":1742825395,"current_range_meters":9600,"station_id":"ce4bhih2rcd13ifvqfs0","pricing_plan_id":"cebpf4jnsgd1na2vs0mg"},{"bike_id":"587c4b09-c6c3-4755-8011-d820e3904490","system_id":"levelo_inurba_marseille","lat":43.23952,"lon":5.36649,"is_reserved":false,"is_disabled":false,"rental_uris":{"android":"levelo://app?vid=587c4b09-c6c3-4755-8011-d820e3904490","ios":"levelo://app?vid=587c4b09-c6c3-4755-8011-d820e3904490"},"vehicle_type_id":"4","last_reported":1742825395,"current_range_meters":9600,"station_id":"ce4bhi12rcd13ifvqfp0","pricing_plan_id":"cebpf4jnsgd1na2vs0mg"},{"bike_id":"8ed9d653-c269-40c9-80aa-2f82d1497f07","system_id":"levelo_inurba_marseille","lat":43.32219,"lon":5.394386,"is_reserved":false,"is_disabled":false,"rental_uris":{"android":"levelo://app?vid=8ed9d653-c269-40c9-80aa-2f82d1497f07","ios":"levelo://app?vid=8ed9d653-c269-40c9-80aa-2f82d1497f07"},"vehicle_type_id":"4","last_reported":1742825395,"current_range_meters":10000,"station_id":"ce4bgt12rcd13ifvqcd0","pricing_plan_id":"cebpf4jnsgd1na2vs0mg"},{"bike_id":"f30771e1-73d8-4d02-b97c-d48620cc6958","system_id":"levelo_inurba_marseille","lat":43.30559,"lon":5.36547,"is_reserved":false,"is_disabled":false,"rental_uris":{"android":"levelo://app?vid=f30771e1-73d8-4d02-b97c-d48620cc6958","ios":"levelo://app?vid=f30771e1-73d8-4d02-b97c-d48620cc6958"},"vehicle_type_id":"4","last_reported":1742825395,"current_range_meters":10000,"station_id":"ce4bgs12rcd13ifvqcag","pricing_plan_id":"cebpf4jnsgd1na2vs0mg"},{"bike_id":"e28667e8-d047-454c-b06f-47b7e51ffd9c","system_id":"levelo_inurba_marseille","lat":43.25864,"lon":5.39902,"is_reserved":false,"is_disabled":false,"rental_uris":{"android":"levelo://app?vid=e28667e8-d047-454c-b06f-47b7e51ffd9c","ios":"levelo://app?vid=e28667e8-d047-454c-b06f-47b7e51ffd9c"},"vehicle_type_id":"4","last_reported":1742825395,"current_range_meters":11200,"station_id":"ce4bhl92rcd13ifvqghg","pricing_plan_id":"cebpf4jnsgd1na2vs0mg"},{"bike_id":"f9da06e6-d642-4ac3-857b-2ba6296eabca","system_id":"levelo_inurba_marseille","lat":43.30194,"lon":5.3946,"is_reserved":false,"is_disabled":false,"rental_uris":{"android":"levelo://app?vid=f9da06e6-d642-4ac3-857b-2ba6296eabca","ios":"levelo://app?vid=f9da06e6-d642-4ac3-857b-2ba6296eabca"},"vehicle_type_id":"4","last_reported":1742825395,"current_range_meters":10000,"station_id":"ce4bh0p2rcd13ifvqd70","pricing_plan_id":"cebpf4jnsgd1na2vs0mg"},{"bike_id":"2e719bf8-edfc-4002-a9f7-e00a30dc3571","system_id":"levelo_inurba_marseille","lat":43.23142,"lon":5.43708,"is_reserved":false,"is_disabled":false,"rental_uris":{"android":"levelo://app?vid=2e719bf8-edfc-4002-a9f7-e00a30dc3571","ios":"levelo://app?vid=2e719bf8-edfc-4002-a9f7-e00a30dc3571"},"vehicle_type_id":"4","last_reported":1742825395,"current_range_meters":10000,"station_id":"ce4bhmp2rcd13ifvqgog","pricing_plan_id":"cebpf4jnsgd1na2vs0mg"},{"bike_id":"e84ac7b2-32d6-4122-ab9b-198abcfd0a6f","system_id":"levelo_inurba_marseille","lat":43.29901,"lon":5.38155,"is_reserved":false,"is_disabled":false,"rental_uris":{"android":"levelo://app?vid=e84ac7b2-32d6-4122-ab9b-198abcfd0a6f","ios":"levelo://app?vid=e84ac7b2-32d6-4122-ab9b-198abcfd0a6f"},"vehicle_type_id":"4","last_reported":1742825395,"current_range_meters":10800,"station_id":"ce4bgj12rcd13ifvqbc0","pricing_plan_id":"cebpf4jnsgd1na2vs0mg"},{"bike_id":"d1f7ca60-4bb4-4dd9-9c90-e8069ceefa40","system_id":"levelo_inurba_marseille","lat":43.2417,"lon":5.36421,"is_reserved":false,"is_disabled":false,"rental_uris":{"android":"levelo://app?vid=d1f7ca60-4bb4-4dd9-9c90-e8069ceefa40","ios":"levelo://app?vid=d1f7ca60-4bb4-4dd9-9c90-e8069ceefa40"},"vehicle_type_id":"4","last_reported":1742825395,"current_range_meters":10800,"station_id":"cpo36qri1sfpv3e86is0","pricing_plan_id":"cebpf4jnsgd1na2vs0mg"},{"bike_id":"f953ed5e-1b9c-420a-be71-70e8e6c905d5","system_id":"levelo_inurba_marseille","lat":43.29899,"lon":5.38146,"is_reserved":false,"is_disabled":false,"rental_uris":{"android":"levelo://app?vid=f953ed5e-1b9c-420a-be71-70e8e6c905d5","ios":"levelo://app?vid=f953ed5e-1b9c-420a-be71-70e8e6c905d5"},"vehicle_type_id":"4","last_reported":1742825395,"current_range_meters":10800,"station_id":"ce4bgj12rcd13ifvqbc0","pricing_plan_id":"cebpf4jnsgd1na2vs0mg"},{"bike_id":"76757220-d8a3-400d-93c0-947089c24c8c","system_id":"levelo_inurba_marseille","lat":43.29905,"lon":5.43672,"is_reserved":false,"is_disabled":false,"rental_uris":{"android":"levelo://app?vid=76757220-d8a3-400d-93c0-947089c24c8c","ios":"levelo://app?vid=76757220-d8a3-400d-93c0-947089c24c8c"},"vehicle_type_id":"4","last_reported":1742825395,"current_range_meters":10800,"station_id":"ce4bhpp2rcd13ifvqhfg","pricing_plan_id":"cebpf4jnsgd1na2vs0mg"},{"bike_id":"98dc0ae7-ada2-4a72-862c-0c04e7811a88","system_id":"levelo_inurba_marseille","lat":43.25084,"lon":5.39523,"is_reserved":false,"is_disabled":false,"rental_uris":{"android":"levelo://app?vid=98dc0ae7-ada2-4a72-862c-0c04e7811a88","ios":"levelo://app?vid=98dc0ae7-ada2-4a72-862c-0c04e7811a88"},"vehicle_type_id":"4","last_reported":1742825395,"current_range_meters":10800,"station_id":"ce4bhm12rcd13ifvqgkg","pricing_plan_id":"cebpf4jnsgd1na2vs0mg"},{"bike_id":"2ce2029b-4cb6-4887-9b95-9dbf07c99a19","system_id":"levelo_inurba_marseille","lat":43.30322,"lon":5.36905,"is_reserved":false,"is_disabled":false,"rental_uris":{"android":"levelo://app?vid=2ce2029b-4cb6-4887-9b95-9dbf07c99a19","ios":"levelo://app?vid=2ce2029b-4cb6-4887-9b95-9dbf07c99a19"},"vehicle_type_id":"4","last_reported":1742825395,"current_range_meters":10800,"station_id":"ce4bgqh2rcd13ifvqc5g","pricing_plan_id":"cebpf4jnsgd1na2vs0mg"},{"bike_id":"e68f39a4-b1c9-4500-a984-f338c20cee46","system_id":"levelo_inurba_marseille","lat":43.24168,"lon":5.39719,"is_reserved":false,"is_disabled":false,"rental_uris":{"android":"levelo://app?vid=e68f39a4-b1c9-4500-a984-f338c20cee46","ios":"levelo://app?vid=e68f39a4-b1c9-4500-a984-f338c20cee46"},"vehicle_type_id":"4","last_reported":1742825395,"current_range_meters":10800,"station_id":"ce4bhn12rcd13ifvqgpg","pricing_plan_id":"cebpf4jnsgd1na2vs0mg"},{"bike_id":"79b45876-5bfa-447b-b147-40329c1ecc54","system_id":"levelo_inurba_marseille","lat":43.30543,"lon":5.36549,"is_reserved":false,"is_disabled":false,"rental_uris":{"android":"levelo://app?vid=79b45876-5bfa-447b-b147-40329c1ecc54","ios":"levelo://app?vid=79b45876-5bfa-447b-b147-40329c1ecc54"},"vehicle_type_id":"4","last_reported":1742825395,"current_range_meters":11200,"station_id":"ce4bgs12rcd13ifvqcag","pricing_plan_id":"cebpf4jnsgd1na2vs0mg"},{"bike_id":"5b325468-7d7e-43bf-ad8c-857e76615080","system_id":"levelo_inurba_marseille","lat":43.26687,"lon":5.3827,"is_reserved":false,"is_disabled":false,"rental_uris":{"android":"levelo://app?vid=5b325468-7d7e-43bf-ad8c-857e76615080","ios":"levelo://app?vid=5b325468-7d7e-43bf-ad8c-857e76615080"},"vehicle_type_id":"4","last_reported":1742825395,"current_range_meters":11200,"station_id":"ce4bhg92rcd13ifvqf90","pricing_plan_id":"cebpf4jnsgd1na2vs0mg"},{"bike_id":"55b86800-4bfb-4509-b486-5706fe5277fd","system_id":"levelo_inurba_marseille","lat":43.28719,"lon":5.40019,"is_reserved":false,"is_disabled":true,"rental_uris":{"android":"levelo://app?vid=55b86800-4bfb-4509-b486-5706fe5277fd","ios":"levelo://app?vid=55b86800-4bfb-4509-b486-5706fe5277fd"},"vehicle_type_id":"4","last_reported":1742825395,"current_range_meters":11200,"station_id":"ce4bho92rcd13ifvqh3g","pricing_plan_id":"cebpf4jnsgd1na2vs0mg"},{"bike_id":"c460cb60-3591-4b3b-a81d-8509f802e1c6","system_id":"levelo_inurba_marseille","lat":43.25935,"lon":5.40912,"is_reserved":false,"is_disabled":false,"rental_uris":{"android":"levelo://app?vid=c460cb60-3591-4b3b-a81d-8509f802e1c6","ios":"levelo://app?vid=c460cb60-3591-4b3b-a81d-8509f802e1c6"},"vehicle_type_id":"4","last_reported":1742825395,"current_range_meters":11200,"station_id":"ce4bhm92rcd13ifvqglg","pricing_plan_id":"cebpf4jnsgd1na2vs0mg"},{"bike_id":"37b395f1-9644-4ffc-babf-15a85003b55e","system_id":"levelo_inurba_marseille","lat":43.29628,"lon":5.37758,"is_reserved":false,"is_disabled":false,"rental_uris":{"android":"levelo://app?vid=37b395f1-9644-4ffc-babf-15a85003b55e","ios":"levelo://app?vid=37b395f1-9644-4ffc-babf-15a85003b55e"},"vehicle_type_id":"4","last_reported":1742825395,"current_range_meters":10800,"station_id":"ce4bgi92rcd13ifvqb90","pricing_plan_id":"cebpf4jnsgd1na2vs0mg"},{"bike_id":"ff115929-c6de-44b7-af5a-167422ef7f12","system_id":"levelo_inurba_marseille","lat":43.30136,"lon":5.38787,"is_reserved":false,"is_disabled":false,"rental_uris":{"android":"levelo://app?vid=ff115929-c6de-44b7-af5a-167422ef7f12","ios":"levelo://app?vid=ff115929-c6de-44b7-af5a-167422ef7f12"},"vehicle_type_id":"4","last_reported":1742825395,"current_range_meters":11600,"station_id":"ce4bghh2rcd13ifvqb60","pricing_plan_id":"cebpf4jnsgd1na2vs0mg"},{"bike_id":"d165aa9a-0ab6-49ba-8245-810b97c92e03","system_id":"levelo_inurba_marseille","lat":43.29608,"lon":5.3811,"is_reserved":false,"is_disabled":false,"rental_uris":{"android":"levelo://app?vid=d165aa9a-0ab6-49ba-8245-810b97c92e03","ios":"levelo://app?vid=d165aa9a-0ab6-49ba-8245-810b97c92e03"},"vehicle_type_id":"4","last_reported":1742825395,"current_range_meters":11600,"station_id":"ce4bgl12rcd13ifvqbo0","pricing_plan_id":"cebpf4jnsgd1na2vs0mg"},{"bike_id":"5007369b-251d-4e37-a32d-438f1f1421e9","system_id":"levelo_inurba_marseille","lat":43.32543,"lon":5.41419,"is_reserved":false,"is_disabled":false,"rental_uris":{"android":"levelo://app?vid=5007369b-251d-4e37-a32d-438f1f1421e9","ios":"levelo://app?vid=5007369b-251d-4e37-a32d-438f1f1421e9"},"vehicle_type_id":"4","last_reported":1742825395,"current_range_meters":11600,"station_id":"ce4bhq12rcd13ifvqhhg","pricing_plan_id":"cebpf4jnsgd1na2vs0mg"},{"bike_id":"07c4f7bd-f59b-4860-81ce-ad8c89c5b634","system_id":"levelo_inurba_marseille","lat":43.26553,"lon":5.37287,"is_reserved":false,"is_disabled":false,"rental_uris":{"android":"levelo://app?vid=07c4f7bd-f59b-4860-81ce-ad8c89c5b634","ios":"levelo://app?vid=07c4f7bd-f59b-4860-81ce-ad8c89c5b634"},"vehicle_type_id":"4","last_reported":1742825395,"current_range_meters":11600,"station_id":"ce4bhg12rcd13ifvqf70","pricing_plan_id":"cebpf4jnsgd1na2vs0mg"},{"bike_id":"41c8b74c-362a-4ace-a8be-a871abb3ef89","system_id":"levelo_inurba_marseille","lat":43.26169,"lon":5.4055,"is_reserved":false,"is_disabled":false,"rental_uris":{"android":"levelo://app?vid=41c8b74c-362a-4ace-a8be-a871abb3ef89","ios":"levelo://app?vid=41c8b74c-362a-4ace-a8be-a871abb3ef89"},"vehicle_type_id":"4","last_reported":1742825395,"current_range_meters":11600,"station_id":"","pricing_plan_id":"cebpf4jnsgd1na2vs0mg"},{"bike_id":"64da6105-406b-402f-b4c9-ed2c19fbf402","system_id":"levelo_inurba_marseille","lat":43.292725,"lon":5.384452,"is_reserved":false,"is_disabled":true,"rental_uris":{"android":"levelo://app?vid=64da6105-406b-402f-b4c9-ed2c19fbf402","ios":"levelo://app?vid=64da6105-406b-402f-b4c9-ed2c19fbf402"},"vehicle_type_id":"4","last_reported":1742825395,"current_range_meters":12000,"station_id":"","pricing_plan_id":"cebpf4jnsgd1na2vs0mg"},{"bike_id":"fc88defb-c5ea-48ea-aa23-da6f0532c57b","system_id":"levelo_inurba_marseille","lat":43.30882,"lon":5.36828,"is_reserved":false,"is_disabled":false,"rental_uris":{"android":"levelo://app?vid=fc88defb-c5ea-48ea-aa23-da6f0532c57b","ios":"levelo://app?vid=fc88defb-c5ea-48ea-aa23-da6f0532c57b"},"vehicle_type_id":"4","last_reported":1742825395,"current_range_meters":12000,"station_id":"ce4bgn92rcd13ifvqbvg","pricing_plan_id":"cebpf4jnsgd1na2vs0mg"},{"bike_id":"11f4a5ee-676e-429f-8679-1776cbfb5777","system_id":"levelo_inurba_marseille","lat":43.23959,"lon":5.36623,"is_reserved":false,"is_disabled":false,"rental_uris":{"android":"levelo://app?vid=11f4a5ee-676e-429f-8679-1776cbfb5777","ios":"levelo://app?vid=11f4a5ee-676e-429f-8679-1776cbfb5777"},"vehicle_type_id":"4","last_reported":1742825395,"current_range_meters":12000,"station_id":"ce4bhi12rcd13ifvqfp0","pricing_plan_id":"cebpf4jnsgd1na2vs0mg"},{"bike_id":"970d529d-4367-470d-9fea-8f86ec8f95a0","system_id":"levelo_inurba_marseille","lat":43.30276,"lon":5.37693,"is_reserved":false,"is_disabled":false,"rental_uris":{"android":"levelo://app?vid=970d529d-4367-470d-9fea-8f86ec8f95a0","ios":"levelo://app?vid=970d529d-4367-470d-9fea-8f86ec8f95a0"},"vehicle_type_id":"4","last_reported":1742825395,"current_range_meters":12000,"station_id":"ce4bguh2rcd13ifvqcj0","pricing_plan_id":"cebpf4jnsgd1na2vs0mg"},{"bike_id":"ba298775-8350-4b57-9be0-99308773b5b4","system_id":"levelo_inurba_marseille","lat":43.2816,"lon":5.42654,"is_reserved":false,"is_disabled":false,"rental_uris":{"android":"levelo://app?vid=ba298775-8350-4b57-9be0-99308773b5b4","ios":"levelo://app?vid=ba298775-8350-4b57-9be0-99308773b5b4"},"vehicle_type_id":"4","last_reported":1742825395,"current_range_meters":12000,"station_id":"ce4bhnh2rcd13ifvqgug","pricing_plan_id":"cebpf4jnsgd1na2vs0mg"},{"bike_id":"b8c55d8a-dbd2-455d-921a-196c9c89183e","system_id":"levelo_inurba_marseille","lat":43.30956,"lon":5.39026,"is_reserved":false,"is_disabled":true,"rental_uris":{"android":"levelo://app?vid=b8c55d8a-dbd2-455d-921a-196c9c89183e","ios":"levelo://app?vid=b8c55d8a-dbd2-455d-921a-196c9c89183e"},"vehicle_type_id":"4","last_reported":1742825395,"current_range_meters":12000,"station_id":"ce4bgup2rcd13ifvqco0","pricing_plan_id":"cebpf4jnsgd1na2vs0mg"},{"bike_id":"f69ded22-f741-438b-870a-0690076e501a","system_id":"levelo_inurba_marseille","lat":43.25501,"lon":5.37655,"is_reserved":false,"is_disabled":false,"rental_uris":{"android":"levelo://app?vid=f69ded22-f741-438b-870a-0690076e501a","ios":"levelo://app?vid=f69ded22-f741-438b-870a-0690076e501a"},"vehicle_type_id":"4","last_reported":1742825395,"current_range_meters":14400,"station_id":"ce4bhh12rcd13ifvqff0","pricing_plan_id":"cebpf4jnsgd1na2vs0mg"},{"bike_id":"0aa0e9d5-c201-41b6-acda-6c06909b62b3","system_id":"levelo_inurba_marseille","lat":43.279788,"lon":5.387528,"is_reserved":false,"is_disabled":false,"rental_uris":{"android":"levelo://app?vid=0aa0e9d5-c201-41b6-acda-6c06909b62b3","ios":"levelo://app?vid=0aa0e9d5-c201-41b6-acda-6c06909b62b3"},"vehicle_type_id":"4","last_reported":1742825395,"current_range_meters":12400,"station_id":"ce4bhlp2rcd13ifvqgjg","pricing_plan_id":"cebpf4jnsgd1na2vs0mg"},{"bike_id":"ecce5ef5-fffb-4551-b35f-ad8ad47e8d82","system_id":"levelo_inurba_marseille","lat":43.268092,"lon":5.402562,"is_reserved":false,"is_disabled":false,"rental_uris":{"android":"levelo://app?vid=ecce5ef5-fffb-4551-b35f-ad8ad47e8d82","ios":"levelo://app?vid=ecce5ef5-fffb-4551-b35f-ad8ad47e8d82"},"vehicle_type_id":"4","last_reported":1742825395,"current_range_meters":12400,"station_id":"ce501612rcd8frsf0b60","pricing_plan_id":"cebpf4jnsgd1na2vs0mg"},{"bike_id":"1f1dd20b-fe66-4fc7-8ce7-b5754801904f","system_id":"levelo_inurba_marseille","lat":43.30955,"lon":5.39048,"is_reserved":false,"is_disabled":false,"rental_uris":{"android":"levelo://app?vid=1f1dd20b-fe66-4fc7-8ce7-b5754801904f","ios":"levelo://app?vid=1f1dd20b-fe66-4fc7-8ce7-b5754801904f"},"vehicle_type_id":"4","last_reported":1742825395,"current_range_meters":12400,"station_id":"ce4bgup2rcd13ifvqco0","pricing_plan_id":"cebpf4jnsgd1na2vs0mg"},{"bike_id":"32c52765-d7d0-4271-9921-e60cde98e516","system_id":"levelo_inurba_marseille","lat":43.30919,"lon":5.40162,"is_reserved":false,"is_disabled":true,"rental_uris":{"android":"levelo://app?vid=32c52765-d7d0-4271-9921-e60cde98e516","ios":"levelo://app?vid=32c52765-d7d0-4271-9921-e60cde98e516"},"vehicle_type_id":"4","last_reported":1742825395,"current_range_meters":12400,"station_id":"ce4bgvp2rcd13ifvqct0","pricing_plan_id":"cebpf4jnsgd1na2vs0mg"},{"bike_id":"5834dfcf-f290-419a-acc0-1e4a34af5222","system_id":"levelo_inurba_marseille","lat":43.239618,"lon":5.366369,"is_reserved":false,"is_disabled":false,"rental_uris":{"android":"levelo://app?vid=5834dfcf-f290-419a-acc0-1e4a34af5222","ios":"levelo://app?vid=5834dfcf-f290-419a-acc0-1e4a34af5222"},"vehicle_type_id":"4","last_reported":1742825395,"current_range_meters":12400,"station_id":"ce4bhi12rcd13ifvqfp0","pricing_plan_id":"cebpf4jnsgd1na2vs0mg"},{"bike_id":"b97b8876-d969-4576-b7ab-db9b2177d974","system_id":"levelo_inurba_marseille","lat":43.27624,"lon":5.38913,"is_reserved":false,"is_disabled":false,"rental_uris":{"android":"levelo://app?vid=b97b8876-d969-4576-b7ab-db9b2177d974","ios":"levelo://app?vid=b97b8876-d969-4576-b7ab-db9b2177d974"},"vehicle_type_id":"4","last_reported":1742825395,"current_range_meters":12400,"station_id":"","pricing_plan_id":"cebpf4jnsgd1na2vs0mg"},{"bike_id":"9295d75b-addf-47bf-a384-c5a21ac97a85","system_id":"levelo_inurba_marseille","lat":43.32574,"lon":5.41457,"is_reserved":false,"is_disabled":false,"rental_uris":{"android":"levelo://app?vid=9295d75b-addf-47bf-a384-c5a21ac97a85","ios":"levelo://app?vid=9295d75b-addf-47bf-a384-c5a21ac97a85"},"vehicle_type_id":"4","last_reported":1742825395,"current_range_meters":12400,"station_id":"ce4bhq12rcd13ifvqhhg","pricing_plan_id":"cebpf4jnsgd1na2vs0mg"},{"bike_id":"45b24853-412b-406f-a456-c930caa99d0b","system_id":"levelo_inurba_marseille","lat":43.32091,"lon":5.36798,"is_reserved":false,"is_disabled":false,"rental_uris":{"android":"levelo://app?vid=45b24853-412b-406f-a456-c930caa99d0b","ios":"levelo://app?vid=45b24853-412b-406f-a456-c930caa99d0b"},"vehicle_type_id":"4","last_reported":1742825395,"current_range_meters":12400,"station_id":"ce4bhrh2rcd13ifvqhug","pricing_plan_id":"cebpf4jnsgd1na2vs0mg"},{"bike_id":"5362e564-49a1-4afb-a12b-05ced5661eaa","system_id":"levelo_inurba_marseille","lat":43.30539,"lon":5.36526,"is_reserved":false,"is_disabled":false,"rental_uris":{"android":"levelo://app?vid=5362e564-49a1-4afb-a12b-05ced5661eaa","ios":"levelo://app?vid=5362e564-49a1-4afb-a12b-05ced5661eaa"},"vehicle_type_id":"4","last_reported":1742825395,"current_range_meters":12400,"station_id":"ce4bgs12rcd13ifvqcag","pricing_plan_id":"cebpf4jnsgd1na2vs0mg"},{"bike_id":"d68dd08e-fa23-4565-a7b6-7a97edfe2ce9","system_id":"levelo_inurba_marseille","lat":43.28924,"lon":5.38393,"is_reserved":false,"is_disabled":true,"rental_uris":{"android":"levelo://app?vid=d68dd08e-fa23-4565-a7b6-7a97edfe2ce9","ios":"levelo://app?vid=d68dd08e-fa23-4565-a7b6-7a97edfe2ce9"},"vehicle_type_id":"4","last_reported":1742825395,"current_range_meters":12800,"station_id":"ce4bh612rcd13ifvqe6g","pricing_plan_id":"cebpf4jnsgd1na2vs0mg"},{"bike_id":"074ef621-2343-421e-9821-ea27910008f6","system_id":"levelo_inurba_marseille","lat":43.23651,"lon":5.37755,"is_reserved":false,"is_disabled":false,"rental_uris":{"android":"levelo://app?vid=074ef621-2343-421e-9821-ea27910008f6","ios":"levelo://app?vid=074ef621-2343-421e-9821-ea27910008f6"},"vehicle_type_id":"4","last_reported":1742825395,"current_range_meters":12800,"station_id":"","pricing_plan_id":"cebpf4jnsgd1na2vs0mg"},{"bike_id":"dbbd636e-a5cb-462f-9394-b160e90ed820","system_id":"levelo_inurba_marseille","lat":43.259448,"lon":5.409094,"is_reserved":false,"is_disabled":false,"rental_uris":{"android":"levelo://app?vid=dbbd636e-a5cb-462f-9394-b160e90ed820","ios":"levelo://app?vid=dbbd636e-a5cb-462f-9394-b160e90ed820"},"vehicle_type_id":"4","last_reported":1742825395,"current_range_meters":12800,"station_id":"ce4bhm92rcd13ifvqglg","pricing_plan_id":"cebpf4jnsgd1na2vs0mg"},{"bike_id":"3bdebdf2-56ae-437c-b382-19775de32079","system_id":"levelo_inurba_marseille","lat":43.298551,"lon":5.36292,"is_reserved":false,"is_disabled":false,"rental_uris":{"android":"levelo://app?vid=3bdebdf2-56ae-437c-b382-19775de32079","ios":"levelo://app?vid=3bdebdf2-56ae-437c-b382-19775de32079"},"vehicle_type_id":"4","last_reported":1742825395,"current_range_meters":12800,"station_id":"ce4bgpp2rcd13ifvqc3g","pricing_plan_id":"cebpf4jnsgd1na2vs0mg"},{"bike_id":"217245de-e7cd-4623-8453-212cdf8cdf19","system_id":"levelo_inurba_marseille","lat":43.2952,"lon":5.39031,"is_reserved":false,"is_disabled":false,"rental_uris":{"android":"levelo://app?vid=217245de-e7cd-4623-8453-212cdf8cdf19","ios":"levelo://app?vid=217245de-e7cd-4623-8453-212cdf8cdf19"},"vehicle_type_id":"4","last_reported":1742825395,"current_range_meters":12800,"station_id":"ce4bh3p2rcd13ifvqdp0","pricing_plan_id":"cebpf4jnsgd1na2vs0mg"},{"bike_id":"5aa0b45f-be4e-4023-b733-8ed860543228","system_id":"levelo_inurba_marseille","lat":43.23094,"lon":5.35487,"is_reserved":false,"is_disabled":false,"rental_uris":{"android":"levelo://app?vid=5aa0b45f-be4e-4023-b733-8ed860543228","ios":"levelo://app?vid=5aa0b45f-be4e-4023-b733-8ed860543228"},"vehicle_type_id":"4","last_reported":1742825395,"current_range_meters":12800,"station_id":"cpo3342slgdg3j2ifvpg","pricing_plan_id":"cebpf4jnsgd1na2vs0mg"},{"bike_id":"7693ecee-8d6e-455f-b5ec-ea4ac1b115de","system_id":"levelo_inurba_marseille","lat":43.31231,"lon":5.36839,"is_reserved":false,"is_disabled":false,"rental_uris":{"android":"levelo://app?vid=7693ecee-8d6e-455f-b5ec-ea4ac1b115de","ios":"levelo://app?vid=7693ecee-8d6e-455f-b5ec-ea4ac1b115de"},"vehicle_type_id":"4","last_reported":1742825395,"current_range_meters":12800,"station_id":"ce4bgl92rcd13ifvqbq0","pricing_plan_id":"cebpf4jnsgd1na2vs0mg"},{"bike_id":"989306f0-ec00-4c5a-a143-c730bd5bb983","system_id":"levelo_inurba_marseille","lat":43.26513,"lon":5.37322,"is_reserved":false,"is_disabled":false,"rental_uris":{"android":"levelo://app?vid=989306f0-ec00-4c5a-a143-c730bd5bb983","ios":"levelo://app?vid=989306f0-ec00-4c5a-a143-c730bd5bb983"},"vehicle_type_id":"4","last_reported":1742825395,"current_range_meters":12800,"station_id":"","pricing_plan_id":"cebpf4jnsgd1na2vs0mg"},{"bike_id":"b2909559-40bf-409b-bdb6-84866edafb00","system_id":"levelo_inurba_marseille","lat":43.25927,"lon":5.40916,"is_reserved":false,"is_disabled":false,"rental_uris":{"android":"levelo://app?vid=b2909559-40bf-409b-bdb6-84866edafb00","ios":"levelo://app?vid=b2909559-40bf-409b-bdb6-84866edafb00"},"vehicle_type_id":"4","last_reported":1742825395,"current_range_meters":13600,"station_id":"ce4bhm92rcd13ifvqglg","pricing_plan_id":"cebpf4jnsgd1na2vs0mg"},{"bike_id":"852c7ab4-befe-4a3d-aff6-4bbcf658193c","system_id":"levelo_inurba_marseille","lat":43.23963,"lon":5.36627,"is_reserved":false,"is_disabled":false,"rental_uris":{"android":"levelo://app?vid=852c7ab4-befe-4a3d-aff6-4bbcf658193c","ios":"levelo://app?vid=852c7ab4-befe-4a3d-aff6-4bbcf658193c"},"vehicle_type_id":"4","last_reported":1742825395,"current_range_meters":13600,"station_id":"ce4bhi12rcd13ifvqfp0","pricing_plan_id":"cebpf4jnsgd1na2vs0mg"},{"bike_id":"d11de4c1-d51e-41f6-93e2-2d551c690135","system_id":"levelo_inurba_marseille","lat":43.2842,"lon":5.34983,"is_reserved":false,"is_disabled":false,"rental_uris":{"android":"levelo://app?vid=d11de4c1-d51e-41f6-93e2-2d551c690135","ios":"levelo://app?vid=d11de4c1-d51e-41f6-93e2-2d551c690135"},"vehicle_type_id":"4","last_reported":1742825395,"current_range_meters":14000,"station_id":"ce4bhbh2rcd13ifvqepg","pricing_plan_id":"cebpf4jnsgd1na2vs0mg"},{"bike_id":"09970276-bc89-434d-91a0-c6dee7402bba","system_id":"levelo_inurba_marseille","lat":43.24156,"lon":5.39687,"is_reserved":false,"is_disabled":false,"rental_uris":{"android":"levelo://app?vid=09970276-bc89-434d-91a0-c6dee7402bba","ios":"levelo://app?vid=09970276-bc89-434d-91a0-c6dee7402bba"},"vehicle_type_id":"4","last_reported":1742825395,"current_range_meters":13600,"station_id":"ce4bhn12rcd13ifvqgpg","pricing_plan_id":"cebpf4jnsgd1na2vs0mg"},{"bike_id":"ce942f3c-c8bc-45ca-9166-50ef7d5bca2c","system_id":"levelo_inurba_marseille","lat":43.23067,"lon":5.35488,"is_reserved":false,"is_disabled":false,"rental_uris":{"android":"levelo://app?vid=ce942f3c-c8bc-45ca-9166-50ef7d5bca2c","ios":"levelo://app?vid=ce942f3c-c8bc-45ca-9166-50ef7d5bca2c"},"vehicle_type_id":"4","last_reported":1742825395,"current_range_meters":13600,"station_id":"cpo3342slgdg3j2ifvpg","pricing_plan_id":"cebpf4jnsgd1na2vs0mg"},{"bike_id":"b91e64e7-d25b-41c3-a6a4-73a829fb9e24","system_id":"levelo_inurba_marseille","lat":43.24205,"lon":5.39714,"is_reserved":false,"is_disabled":false,"rental_uris":{"android":"levelo://app?vid=b91e64e7-d25b-41c3-a6a4-73a829fb9e24","ios":"levelo://app?vid=b91e64e7-d25b-41c3-a6a4-73a829fb9e24"},"vehicle_type_id":"4","last_reported":1742825395,"current_range_meters":13600,"station_id":"ce4bhn12rcd13ifvqgpg","pricing_plan_id":"cebpf4jnsgd1na2vs0mg"},{"bike_id":"8b0044fa-37e4-42fc-bb47-64dd5d739dae","system_id":"levelo_inurba_marseille","lat":43.2306,"lon":5.35489,"is_reserved":false,"is_disabled":false,"rental_uris":{"android":"levelo://app?vid=8b0044fa-37e4-42fc-bb47-64dd5d739dae","ios":"levelo://app?vid=8b0044fa-37e4-42fc-bb47-64dd5d739dae"},"vehicle_type_id":"4","last_reported":1742825395,"current_range_meters":13600,"station_id":"cpo3342slgdg3j2ifvpg","pricing_plan_id":"cebpf4jnsgd1na2vs0mg"},{"bike_id":"ef12f1df-58a7-44f9-a515-abbc046895de","system_id":"levelo_inurba_marseille","lat":43.24178,"lon":5.39734,"is_reserved":false,"is_disabled":false,"rental_uris":{"android":"levelo://app?vid=ef12f1df-58a7-44f9-a515-abbc046895de","ios":"levelo://app?vid=ef12f1df-58a7-44f9-a515-abbc046895de"},"vehicle_type_id":"4","last_reported":1742825395,"current_range_meters":14000,"station_id":"ce4bhn12rcd13ifvqgpg","pricing_plan_id":"cebpf4jnsgd1na2vs0mg"},{"bike_id":"8fb3ef26-baf2-49b9-9566-0016ff6493a3","system_id":"levelo_inurba_marseille","lat":43.29715,"lon":5.36618,"is_reserved":false,"is_disabled":false,"rental_uris":{"android":"levelo://app?vid=8fb3ef26-baf2-49b9-9566-0016ff6493a3","ios":"levelo://app?vid=8fb3ef26-baf2-49b9-9566-0016ff6493a3"},"vehicle_type_id":"4","last_reported":1742825395,"current_range_meters":14000,"station_id":"ce4bgn12rcd13ifvqbt0","pricing_plan_id":"cebpf4jnsgd1na2vs0mg"},{"bike_id":"60751046-2911-4e43-ad33-f58f383419a3","system_id":"levelo_inurba_marseille","lat":43.25075,"lon":5.39503,"is_reserved":false,"is_disabled":false,"rental_uris":{"android":"levelo://app?vid=60751046-2911-4e43-ad33-f58f383419a3","ios":"levelo://app?vid=60751046-2911-4e43-ad33-f58f383419a3"},"vehicle_type_id":"4","last_reported":1742825395,"current_range_meters":14000,"station_id":"ce4bhm12rcd13ifvqgkg","pricing_plan_id":"cebpf4jnsgd1na2vs0mg"},{"bike_id":"0d18da83-7b6f-45de-a283-67cd4cd514df","system_id":"levelo_inurba_marseille","lat":43.29791,"lon":5.38108,"is_reserved":false,"is_disabled":false,"rental_uris":{"android":"levelo://app?vid=0d18da83-7b6f-45de-a283-67cd4cd514df","ios":"levelo://app?vid=0d18da83-7b6f-45de-a283-67cd4cd514df"},"vehicle_type_id":"4","last_reported":1742825395,"current_range_meters":14800,"station_id":"ce4bgip2rcd13ifvqbb0","pricing_plan_id":"cebpf4jnsgd1na2vs0mg"},{"bike_id":"de5ee395-27b0-47e4-ad82-2ba579efa4a0","system_id":"levelo_inurba_marseille","lat":43.24548,"lon":5.39531,"is_reserved":false,"is_disabled":false,"rental_uris":{"android":"levelo://app?vid=de5ee395-27b0-47e4-ad82-2ba579efa4a0","ios":"levelo://app?vid=de5ee395-27b0-47e4-ad82-2ba579efa4a0"},"vehicle_type_id":"4","last_reported":1742825395,"current_range_meters":14000,"station_id":"ce4bhlp2rcd13ifvqgjg","pricing_plan_id":"cebpf4jnsgd1na2vs0mg"},{"bike_id":"60fc9dc0-aa89-46d1-a71a-98cd30570cb9","system_id":"levelo_inurba_marseille","lat":43.25718,"lon":5.41112,"is_reserved":false,"is_disabled":false,"rental_uris":{"android":"levelo://app?vid=60fc9dc0-aa89-46d1-a71a-98cd30570cb9","ios":"levelo://app?vid=60fc9dc0-aa89-46d1-a71a-98cd30570cb9"},"vehicle_type_id":"4","last_reported":1742825395,"current_range_meters":14400,"station_id":"ce4bhkp2rcd13ifvqgd0","pricing_plan_id":"cebpf4jnsgd1na2vs0mg"},{"bike_id":"e07ea2d7-5b46-4660-b60c-44f8cf6d528d","system_id":"levelo_inurba_marseille","lat":43.23142,"lon":5.43721,"is_reserved":false,"is_disabled":false,"rental_uris":{"android":"levelo://app?vid=e07ea2d7-5b46-4660-b60c-44f8cf6d528d","ios":"levelo://app?vid=e07ea2d7-5b46-4660-b60c-44f8cf6d528d"},"vehicle_type_id":"4","last_reported":1742825395,"current_range_meters":14400,"station_id":"ce4bhmp2rcd13ifvqgog","pricing_plan_id":"cebpf4jnsgd1na2vs0mg"},{"bike_id":"9bb158ed-5b72-4841-9717-ad293670fe14","system_id":"levelo_inurba_marseille","lat":43.2993,"lon":5.36553,"is_reserved":false,"is_disabled":false,"rental_uris":{"android":"levelo://app?vid=9bb158ed-5b72-4841-9717-ad293670fe14","ios":"levelo://app?vid=9bb158ed-5b72-4841-9717-ad293670fe14"},"vehicle_type_id":"4","last_reported":1742825395,"current_range_meters":14400,"station_id":"ce4bgm92rcd13ifvqbr0","pricing_plan_id":"cebpf4jnsgd1na2vs0mg"},{"bike_id":"8b342900-a7a0-4299-a84a-dbd75d66fba5","system_id":"levelo_inurba_marseille","lat":43.30316,"lon":5.36915,"is_reserved":false,"is_disabled":false,"rental_uris":{"android":"levelo://app?vid=8b342900-a7a0-4299-a84a-dbd75d66fba5","ios":"levelo://app?vid=8b342900-a7a0-4299-a84a-dbd75d66fba5"},"vehicle_type_id":"4","last_reported":1742825395,"current_range_meters":14400,"station_id":"ce4bgqh2rcd13ifvqc5g","pricing_plan_id":"cebpf4jnsgd1na2vs0mg"},{"bike_id":"b07ecbce-1301-4838-bb41-af7073924d4d","system_id":"levelo_inurba_marseille","lat":43.30145,"lon":5.37414,"is_reserved":false,"is_disabled":false,"rental_uris":{"android":"levelo://app?vid=b07ecbce-1301-4838-bb41-af7073924d4d","ios":"levelo://app?vid=b07ecbce-1301-4838-bb41-af7073924d4d"},"vehicle_type_id":"4","last_reported":1742825395,"current_range_meters":14400,"station_id":"ce4bgs92rcd13ifvqcc0","pricing_plan_id":"cebpf4jnsgd1na2vs0mg"},{"bike_id":"081e44b0-2c60-4883-9932-b29fc6244fea","system_id":"levelo_inurba_marseille","lat":43.29569,"lon":5.39976,"is_reserved":false,"is_disabled":false,"rental_uris":{"android":"levelo://app?vid=081e44b0-2c60-4883-9932-b29fc6244fea","ios":"levelo://app?vid=081e44b0-2c60-4883-9932-b29fc6244fea"},"vehicle_type_id":"4","last_reported":1742825395,"current_range_meters":14400,"station_id":"ce4bh312rcd13ifvqdj0","pricing_plan_id":"cebpf4jnsgd1na2vs0mg"},{"bike_id":"483665c8-12c5-4a1b-919a-2c2403bc5537","system_id":"levelo_inurba_marseille","lat":43.28488,"lon":5.38559,"is_reserved":false,"is_disabled":false,"rental_uris":{"android":"levelo://app?vid=483665c8-12c5-4a1b-919a-2c2403bc5537","ios":"levelo://app?vid=483665c8-12c5-4a1b-919a-2c2403bc5537"},"vehicle_type_id":"4","last_reported":1742825395,"current_range_meters":14800,"station_id":"ce4bh8p2rcd13ifvqeb0","pricing_plan_id":"cebpf4jnsgd1na2vs0mg"},{"bike_id":"ef796b4a-2faf-4c64-8bd6-ffa715eb5c20","system_id":"levelo_inurba_marseille","lat":43.30916,"lon":5.36874,"is_reserved":false,"is_disabled":false,"rental_uris":{"android":"levelo://app?vid=ef796b4a-2faf-4c64-8bd6-ffa715eb5c20","ios":"levelo://app?vid=ef796b4a-2faf-4c64-8bd6-ffa715eb5c20"},"vehicle_type_id":"4","last_reported":1742825395,"current_range_meters":14800,"station_id":"ce4bgn92rcd13ifvqbvg","pricing_plan_id":"cebpf4jnsgd1na2vs0mg"},{"bike_id":"8a7dc508-8681-48c4-8b3e-c86f5ffcc977","system_id":"levelo_inurba_marseille","lat":43.30092,"lon":5.39079,"is_reserved":false,"is_disabled":false,"rental_uris":{"android":"levelo://app?vid=8a7dc508-8681-48c4-8b3e-c86f5ffcc977","ios":"levelo://app?vid=8a7dc508-8681-48c4-8b3e-c86f5ffcc977"},"vehicle_type_id":"4","last_reported":1742825395,"current_range_meters":14800,"station_id":"ce4bh192rcd13ifvqdb0","pricing_plan_id":"cebpf4jnsgd1na2vs0mg"},{"bike_id":"eb2f1c63-a6bf-4f4f-ace0-d238b89048be","system_id":"levelo_inurba_marseille","lat":43.30177,"lon":5.36622,"is_reserved":false,"is_disabled":false,"rental_uris":{"android":"levelo://app?vid=eb2f1c63-a6bf-4f4f-ace0-d238b89048be","ios":"levelo://app?vid=eb2f1c63-a6bf-4f4f-ace0-d238b89048be"},"vehicle_type_id":"4","last_reported":1742825395,"current_range_meters":14800,"station_id":"ce4bgrh2rcd13ifvqc8g","pricing_plan_id":"cebpf4jnsgd1na2vs0mg"},{"bike_id":"11a49c7b-5038-411f-a240-88e098d89f73","system_id":"levelo_inurba_marseille","lat":43.26549,"lon":5.38985,"is_reserved":false,"is_disabled":true,"rental_uris":{"android":"levelo://app?vid=11a49c7b-5038-411f-a240-88e098d89f73","ios":"levelo://app?vid=11a49c7b-5038-411f-a240-88e098d89f73"},"vehicle_type_id":"4","last_reported":1742825395,"current_range_meters":14800,"station_id":"ce4bhe12rcd13ifvqf30","pricing_plan_id":"cebpf4jnsgd1na2vs0mg"},{"bike_id":"c50996aa-2dd9-4b3b-899a-248cae761c9a","system_id":"levelo_inurba_marseille","lat":43.30882,"lon":5.39651,"is_reserved":false,"is_disabled":false,"rental_uris":{"android":"levelo://app?vid=c50996aa-2dd9-4b3b-899a-248cae761c9a","ios":"levelo://app?vid=c50996aa-2dd9-4b3b-899a-248cae761c9a"},"vehicle_type_id":"4","last_reported":1742825395,"current_range_meters":14800,"station_id":"ce4bh012rcd13ifvqcv0","pricing_plan_id":"cebpf4jnsgd1na2vs0mg"},{"bike_id":"86e9e32d-1fee-4890-b6e2-0f472056c799","system_id":"levelo_inurba_marseille","lat":43.30467,"lon":5.37909,"is_reserved":false,"is_disabled":false,"rental_uris":{"android":"levelo://app?vid=86e9e32d-1fee-4890-b6e2-0f472056c799","ios":"levelo://app?vid=86e9e32d-1fee-4890-b6e2-0f472056c799"},"vehicle_type_id":"4","last_reported":1742825395,"current_range_meters":14800,"station_id":"ce4bgup2rcd13ifvqcn0","pricing_plan_id":"cebpf4jnsgd1na2vs0mg"},{"bike_id":"29e912ac-0d47-4410-96d1-4b643a1b9031","system_id":"levelo_inurba_marseille","lat":43.30279,"lon":5.37691,"is_reserved":false,"is_disabled":false,"rental_uris":{"android":"levelo://app?vid=29e912ac-0d47-4410-96d1-4b643a1b9031","ios":"levelo://app?vid=29e912ac-0d47-4410-96d1-4b643a1b9031"},"vehicle_type_id":"4","last_reported":1742825395,"current_range_meters":14800,"station_id":"ce4bguh2rcd13ifvqcj0","pricing_plan_id":"cebpf4jnsgd1na2vs0mg"},{"bike_id":"cbc1e719-a426-446f-ba4e-9eb03658ff6d","system_id":"levelo_inurba_marseille","lat":43.31356,"lon":5.36715,"is_reserved":false,"is_disabled":false,"rental_uris":{"android":"levelo://app?vid=cbc1e719-a426-446f-ba4e-9eb03658ff6d","ios":"levelo://app?vid=cbc1e719-a426-446f-ba4e-9eb03658ff6d"},"vehicle_type_id":"4","last_reported":1742825395,"current_range_meters":15200,"station_id":"ce4bgr92rcd13ifvqc6g","pricing_plan_id":"cebpf4jnsgd1na2vs0mg"},{"bike_id":"d1adfc43-e43c-4f7c-aa18-df37eb15e88e","system_id":"levelo_inurba_marseille","lat":43.29959,"lon":5.41326,"is_reserved":false,"is_disabled":true,"rental_uris":{"android":"levelo://app?vid=d1adfc43-e43c-4f7c-aa18-df37eb15e88e","ios":"levelo://app?vid=d1adfc43-e43c-4f7c-aa18-df37eb15e88e"},"vehicle_type_id":"4","last_reported":1742825395,"current_range_meters":15200,"station_id":"ce4bhp12rcd13ifvqh9g","pricing_plan_id":"cebpf4jnsgd1na2vs0mg"},{"bike_id":"560ab0d8-3b35-4c64-9245-e610608dd5c6","system_id":"levelo_inurba_marseille","lat":43.31716,"lon":5.43707,"is_reserved":false,"is_disabled":false,"rental_uris":{"android":"levelo://app?vid=560ab0d8-3b35-4c64-9245-e610608dd5c6","ios":"levelo://app?vid=560ab0d8-3b35-4c64-9245-e610608dd5c6"},"vehicle_type_id":"4","last_reported":1742825395,"current_range_meters":15200,"station_id":"ce4bhp92rcd13ifvqhcg","pricing_plan_id":"cebpf4jnsgd1na2vs0mg"},{"bike_id":"2f7b72eb-9b7b-4bff-b859-07ea9fe6bf90","system_id":"levelo_inurba_marseille","lat":43.2979,"lon":5.38097,"is_reserved":false,"is_disabled":false,"rental_uris":{"android":"levelo://app?vid=2f7b72eb-9b7b-4bff-b859-07ea9fe6bf90","ios":"levelo://app?vid=2f7b72eb-9b7b-4bff-b859-07ea9fe6bf90"},"vehicle_type_id":"4","last_reported":1742825395,"current_range_meters":15200,"station_id":"ce4bgip2rcd13ifvqbb0","pricing_plan_id":"cebpf4jnsgd1na2vs0mg"},{"bike_id":"db1bdb3e-e103-4ce6-a59c-c9f01d3f3da5","system_id":"levelo_inurba_marseille","lat":43.260973,"lon":5.393759,"is_reserved":false,"is_disabled":false,"rental_uris":{"android":"levelo://app?vid=db1bdb3e-e103-4ce6-a59c-c9f01d3f3da5","ios":"levelo://app?vid=db1bdb3e-e103-4ce6-a59c-c9f01d3f3da5"},"vehicle_type_id":"4","last_reported":1742825395,"current_range_meters":15200,"station_id":"ce4bhh92rcd13ifvqfj0","pricing_plan_id":"cebpf4jnsgd1na2vs0mg"},{"bike_id":"25c5c95b-9937-4dae-a668-32d69aad81e6","system_id":"levelo_inurba_marseille","lat":43.29702,"lon":5.36602,"is_reserved":false,"is_disabled":false,"rental_uris":{"android":"levelo://app?vid=25c5c95b-9937-4dae-a668-32d69aad81e6","ios":"levelo://app?vid=25c5c95b-9937-4dae-a668-32d69aad81e6"},"vehicle_type_id":"4","last_reported":1742825395,"current_range_meters":16000,"station_id":"ce4bgn12rcd13ifvqbt0","pricing_plan_id":"cebpf4jnsgd1na2vs0mg"},{"bike_id":"a3c59bbb-2b48-4a2f-b611-29ed058dac5c","system_id":"levelo_inurba_marseille","lat":43.28445,"lon":5.39204,"is_reserved":false,"is_disabled":false,"rental_uris":{"android":"levelo://app?vid=a3c59bbb-2b48-4a2f-b611-29ed058dac5c","ios":"levelo://app?vid=a3c59bbb-2b48-4a2f-b611-29ed058dac5c"},"vehicle_type_id":"4","last_reported":1742825395,"current_range_meters":15200,"station_id":"ce4bhoh2rcd13ifvqh5g","pricing_plan_id":"cebpf4jnsgd1na2vs0mg"},{"bike_id":"57b83645-2987-4346-ae33-23cd851c6c26","system_id":"levelo_inurba_marseille","lat":43.25933,"lon":5.40899,"is_reserved":false,"is_disabled":false,"rental_uris":{"android":"levelo://app?vid=57b83645-2987-4346-ae33-23cd851c6c26","ios":"levelo://app?vid=57b83645-2987-4346-ae33-23cd851c6c26"},"vehicle_type_id":"4","last_reported":1742825395,"current_range_meters":16000,"station_id":"ce4bhm92rcd13ifvqglg","pricing_plan_id":"cebpf4jnsgd1na2vs0mg"},{"bike_id":"a7f9950f-ebc6-4851-81c4-04ef9c0afc6f","system_id":"levelo_inurba_marseille","lat":43.28446,"lon":5.39208,"is_reserved":false,"is_disabled":false,"rental_uris":{"android":"levelo://app?vid=a7f9950f-ebc6-4851-81c4-04ef9c0afc6f","ios":"levelo://app?vid=a7f9950f-ebc6-4851-81c4-04ef9c0afc6f"},"vehicle_type_id":"4","last_reported":1742825395,"current_range_meters":15200,"station_id":"ce4bhoh2rcd13ifvqh5g","pricing_plan_id":"cebpf4jnsgd1na2vs0mg"},{"bike_id":"f82ce32a-633d-40ca-8982-a296341dd8bb","system_id":"levelo_inurba_marseille","lat":43.2896,"lon":5.36402,"is_reserved":false,"is_disabled":false,"rental_uris":{"android":"levelo://app?vid=f82ce32a-633d-40ca-8982-a296341dd8bb","ios":"levelo://app?vid=f82ce32a-633d-40ca-8982-a296341dd8bb"},"vehicle_type_id":"4","last_reported":1742825395,"current_range_meters":16000,"station_id":"ce4bhc92rcd13ifvqetg","pricing_plan_id":"cebpf4jnsgd1na2vs0mg"},{"bike_id":"ea7cde4d-2353-4207-9f0d-08689e8d76d1","system_id":"levelo_inurba_marseille","lat":43.26823,"lon":5.40264,"is_reserved":false,"is_disabled":false,"rental_uris":{"android":"levelo://app?vid=ea7cde4d-2353-4207-9f0d-08689e8d76d1","ios":"levelo://app?vid=ea7cde4d-2353-4207-9f0d-08689e8d76d1"},"vehicle_type_id":"4","last_reported":1742825395,"current_range_meters":16000,"station_id":"ce501612rcd8frsf0b60","pricing_plan_id":"cebpf4jnsgd1na2vs0mg"},{"bike_id":"460e9d34-dd4f-4996-b7cd-d16b7b25a465","system_id":"levelo_inurba_marseille","lat":43.30362,"lon":5.4188,"is_reserved":false,"is_disabled":false,"rental_uris":{"android":"levelo://app?vid=460e9d34-dd4f-4996-b7cd-d16b7b25a465","ios":"levelo://app?vid=460e9d34-dd4f-4996-b7cd-d16b7b25a465"},"vehicle_type_id":"4","last_reported":1742825395,"current_range_meters":16000,"station_id":"ce4bhop2rcd13ifvqh7g","pricing_plan_id":"cebpf4jnsgd1na2vs0mg"},{"bike_id":"a5446fa9-b2f7-45f6-bfb4-1335cb6018ff","system_id":"levelo_inurba_marseille","lat":43.23064,"lon":5.35515,"is_reserved":false,"is_disabled":false,"rental_uris":{"android":"levelo://app?vid=a5446fa9-b2f7-45f6-bfb4-1335cb6018ff","ios":"levelo://app?vid=a5446fa9-b2f7-45f6-bfb4-1335cb6018ff"},"vehicle_type_id":"4","last_reported":1742825395,"current_range_meters":16000,"station_id":"cpo3342slgdg3j2ifvpg","pricing_plan_id":"cebpf4jnsgd1na2vs0mg"},{"bike_id":"dd2282a4-2c75-4306-900a-b2d6d3263d72","system_id":"levelo_inurba_marseille","lat":43.27495,"lon":5.42454,"is_reserved":false,"is_disabled":false,"rental_uris":{"android":"levelo://app?vid=dd2282a4-2c75-4306-900a-b2d6d3263d72","ios":"levelo://app?vid=dd2282a4-2c75-4306-900a-b2d6d3263d72"},"vehicle_type_id":"4","last_reported":1742825395,"current_range_meters":16000,"station_id":"ce4bhn92rcd13ifvqgrg","pricing_plan_id":"cebpf4jnsgd1na2vs0mg"},{"bike_id":"24423e9c-e334-4cc2-91ba-3cefc9fccd4b","system_id":"levelo_inurba_marseille","lat":43.31172,"lon":5.38712,"is_reserved":false,"is_disabled":false,"rental_uris":{"android":"levelo://app?vid=24423e9c-e334-4cc2-91ba-3cefc9fccd4b","ios":"levelo://app?vid=24423e9c-e334-4cc2-91ba-3cefc9fccd4b"},"vehicle_type_id":"4","last_reported":1742825395,"current_range_meters":17200,"station_id":"ce4bgv12rcd13ifvqcp0","pricing_plan_id":"cebpf4jnsgd1na2vs0mg"},{"bike_id":"0588399f-c86f-433c-b4af-e8e4e2319b08","system_id":"levelo_inurba_marseille","lat":43.32102,"lon":5.36786,"is_reserved":false,"is_disabled":false,"rental_uris":{"android":"levelo://app?vid=0588399f-c86f-433c-b4af-e8e4e2319b08","ios":"levelo://app?vid=0588399f-c86f-433c-b4af-e8e4e2319b08"},"vehicle_type_id":"4","last_reported":1742825395,"current_range_meters":16000,"station_id":"ce4bhrh2rcd13ifvqhug","pricing_plan_id":"cebpf4jnsgd1na2vs0mg"},{"bike_id":"95f5f0d7-5156-49d2-9039-98fae8fd0711","system_id":"levelo_inurba_marseille","lat":43.3117,"lon":5.38715,"is_reserved":false,"is_disabled":false,"rental_uris":{"android":"levelo://app?vid=95f5f0d7-5156-49d2-9039-98fae8fd0711","ios":"levelo://app?vid=95f5f0d7-5156-49d2-9039-98fae8fd0711"},"vehicle_type_id":"4","last_reported":1742825395,"current_range_meters":16000,"station_id":"ce4bgv12rcd13ifvqcp0","pricing_plan_id":"cebpf4jnsgd1na2vs0mg"},{"bike_id":"d03366b8-a781-4d10-af08-08765a0e7afe","system_id":"levelo_inurba_marseille","lat":43.29842,"lon":5.3627,"is_reserved":false,"is_disabled":false,"rental_uris":{"android":"levelo://app?vid=d03366b8-a781-4d10-af08-08765a0e7afe","ios":"levelo://app?vid=d03366b8-a781-4d10-af08-08765a0e7afe"},"vehicle_type_id":"4","last_reported":1742825395,"current_range_meters":16000,"station_id":"ce4bgpp2rcd13ifvqc3g","pricing_plan_id":"cebpf4jnsgd1na2vs0mg"},{"bike_id":"8b111a93-3c09-43f4-b666-c300125a3e5d","system_id":"levelo_inurba_marseille","lat":43.28725,"lon":5.36094,"is_reserved":false,"is_disabled":false,"rental_uris":{"android":"levelo://app?vid=8b111a93-3c09-43f4-b666-c300125a3e5d","ios":"levelo://app?vid=8b111a93-3c09-43f4-b666-c300125a3e5d"},"vehicle_type_id":"4","last_reported":1742825395,"current_range_meters":16000,"station_id":"cki0cbj6b192h4jlfktg","pricing_plan_id":"cebpf4jnsgd1na2vs0mg"},{"bike_id":"68bf77d1-f7b2-4f13-a7d4-868a5c8aaa5b","system_id":"levelo_inurba_marseille","lat":43.24649,"lon":5.38892,"is_reserved":false,"is_disabled":false,"rental_uris":{"android":"levelo://app?vid=68bf77d1-f7b2-4f13-a7d4-868a5c8aaa5b","ios":"levelo://app?vid=68bf77d1-f7b2-4f13-a7d4-868a5c8aaa5b"},"vehicle_type_id":"4","last_reported":1742825395,"current_range_meters":16000,"station_id":"ce4bhg12rcd13ifvqf60","pricing_plan_id":"cebpf4jnsgd1na2vs0mg"},{"bike_id":"d0378c28-2ab6-47f3-9248-f012c7b13062","system_id":"levelo_inurba_marseille","lat":43.2767,"lon":5.38885,"is_reserved":false,"is_disabled":true,"rental_uris":{"android":"levelo://app?vid=d0378c28-2ab6-47f3-9248-f012c7b13062","ios":"levelo://app?vid=d0378c28-2ab6-47f3-9248-f012c7b13062"},"vehicle_type_id":"4","last_reported":1742825395,"current_range_meters":16400,"station_id":"ce4bhi12rcd13ifvqfo0","pricing_plan_id":"cebpf4jnsgd1na2vs0mg"},{"bike_id":"2ba0f073-e0c1-4981-8b66-b0ecda6f1fe8","system_id":"levelo_inurba_marseille","lat":43.27823,"lon":5.40688,"is_reserved":false,"is_disabled":true,"rental_uris":{"android":"levelo://app?vid=2ba0f073-e0c1-4981-8b66-b0ecda6f1fe8","ios":"levelo://app?vid=2ba0f073-e0c1-4981-8b66-b0ecda6f1fe8"},"vehicle_type_id":"4","last_reported":1742825395,"current_range_meters":16400,"station_id":"ce4bhnh2rcd13ifvqgtg","pricing_plan_id":"cebpf4jnsgd1na2vs0mg"},{"bike_id":"7f869988-23aa-407e-80d8-3b578867d0d0","system_id":"levelo_inurba_marseille","lat":43.31224,"lon":5.36865,"is_reserved":false,"is_disabled":false,"rental_uris":{"android":"levelo://app?vid=7f869988-23aa-407e-80d8-3b578867d0d0","ios":"levelo://app?vid=7f869988-23aa-407e-80d8-3b578867d0d0"},"vehicle_type_id":"4","last_reported":1742825395,"current_range_meters":16400,"station_id":"ce4bgl92rcd13ifvqbq0","pricing_plan_id":"cebpf4jnsgd1na2vs0mg"},{"bike_id":"24b7e06e-62b1-41ed-b097-ecdf295adb8a","system_id":"levelo_inurba_marseille","lat":43.27495,"lon":5.42454,"is_reserved":false,"is_disabled":false,"rental_uris":{"android":"levelo://app?vid=24b7e06e-62b1-41ed-b097-ecdf295adb8a","ios":"levelo://app?vid=24b7e06e-62b1-41ed-b097-ecdf295adb8a"},"vehicle_type_id":"4","last_reported":1742825395,"current_range_meters":16400,"station_id":"ce4bhn92rcd13ifvqgrg","pricing_plan_id":"cebpf4jnsgd1na2vs0mg"},{"bike_id":"141983d1-11a2-4b8e-ba40-0a57758a27c1","system_id":"levelo_inurba_marseille","lat":43.33023,"lon":5.39065,"is_reserved":false,"is_disabled":false,"rental_uris":{"android":"levelo://app?vid=141983d1-11a2-4b8e-ba40-0a57758a27c1","ios":"levelo://app?vid=141983d1-11a2-4b8e-ba40-0a57758a27c1"},"vehicle_type_id":"4","last_reported":1742825395,"current_range_meters":16000,"station_id":"ce4bhr92rcd13ifvqhrg","pricing_plan_id":"cebpf4jnsgd1na2vs0mg"},{"bike_id":"71a0dc20-d26b-4d99-a306-0fcb263b6e66","system_id":"levelo_inurba_marseille","lat":43.31242,"lon":5.36887,"is_reserved":false,"is_disabled":false,"rental_uris":{"android":"levelo://app?vid=71a0dc20-d26b-4d99-a306-0fcb263b6e66","ios":"levelo://app?vid=71a0dc20-d26b-4d99-a306-0fcb263b6e66"},"vehicle_type_id":"4","last_reported":1742825395,"current_range_meters":16400,"station_id":"ce4bgl92rcd13ifvqbq0","pricing_plan_id":"cebpf4jnsgd1na2vs0mg"},{"bike_id":"82f07b90-b4ea-45bc-9117-3b0a0b315f4e","system_id":"levelo_inurba_marseille","lat":43.25009,"lon":5.38929,"is_reserved":false,"is_disabled":false,"rental_uris":{"android":"levelo://app?vid=82f07b90-b4ea-45bc-9117-3b0a0b315f4e","ios":"levelo://app?vid=82f07b90-b4ea-45bc-9117-3b0a0b315f4e"},"vehicle_type_id":"4","last_reported":1742825395,"current_range_meters":16400,"station_id":"ce4bhgp2rcd13ifvqfd0","pricing_plan_id":"cebpf4jnsgd1na2vs0mg"},{"bike_id":"fee39e01-d6bc-47a1-8d0e-c44fd363a305","system_id":"levelo_inurba_marseille","lat":43.23965,"lon":5.36632,"is_reserved":false,"is_disabled":false,"rental_uris":{"android":"levelo://app?vid=fee39e01-d6bc-47a1-8d0e-c44fd363a305","ios":"levelo://app?vid=fee39e01-d6bc-47a1-8d0e-c44fd363a305"},"vehicle_type_id":"4","last_reported":1742825395,"current_range_meters":16400,"station_id":"ce4bhi12rcd13ifvqfp0","pricing_plan_id":"cebpf4jnsgd1na2vs0mg"},{"bike_id":"0d052b9d-ee0e-4ced-8964-60aaa9554e1c","system_id":"levelo_inurba_marseille","lat":43.26798,"lon":5.40242,"is_reserved":false,"is_disabled":false,"rental_uris":{"android":"levelo://app?vid=0d052b9d-ee0e-4ced-8964-60aaa9554e1c","ios":"levelo://app?vid=0d052b9d-ee0e-4ced-8964-60aaa9554e1c"},"vehicle_type_id":"4","last_reported":1742825395,"current_range_meters":16400,"station_id":"ce501612rcd8frsf0b60","pricing_plan_id":"cebpf4jnsgd1na2vs0mg"},{"bike_id":"b51e0d84-4c93-490e-aa9e-a5cc8e5fc145","system_id":"levelo_inurba_marseille","lat":43.27809,"lon":5.40711,"is_reserved":false,"is_disabled":false,"rental_uris":{"android":"levelo://app?vid=b51e0d84-4c93-490e-aa9e-a5cc8e5fc145","ios":"levelo://app?vid=b51e0d84-4c93-490e-aa9e-a5cc8e5fc145"},"vehicle_type_id":"4","last_reported":1742825395,"current_range_meters":16000,"station_id":"ce4bhnh2rcd13ifvqgtg","pricing_plan_id":"cebpf4jnsgd1na2vs0mg"},{"bike_id":"067c4189-50ff-4e88-8d1d-d5468d7c6bf8","system_id":"levelo_inurba_marseille","lat":43.27187,"lon":5.40988,"is_reserved":false,"is_disabled":false,"rental_uris":{"android":"levelo://app?vid=067c4189-50ff-4e88-8d1d-d5468d7c6bf8","ios":"levelo://app?vid=067c4189-50ff-4e88-8d1d-d5468d7c6bf8"},"vehicle_type_id":"4","last_reported":1742825395,"current_range_meters":16400,"station_id":"ce4bhl12rcd13ifvqgf0","pricing_plan_id":"cebpf4jnsgd1na2vs0mg"},{"bike_id":"62ef2966-e11f-423c-abd1-24f1b092bd95","system_id":"levelo_inurba_marseille","lat":43.25828,"lon":5.39436,"is_reserved":false,"is_disabled":false,"rental_uris":{"android":"levelo://app?vid=62ef2966-e11f-423c-abd1-24f1b092bd95","ios":"levelo://app?vid=62ef2966-e11f-423c-abd1-24f1b092bd95"},"vehicle_type_id":"4","last_reported":1742825395,"current_range_meters":16400,"station_id":"ce4bhip2rcd13ifvqft0","pricing_plan_id":"cebpf4jnsgd1na2vs0mg"},{"bike_id":"1989f9c3-6156-47a7-8f6e-689a009b64a2","system_id":"levelo_inurba_marseille","lat":43.31222,"lon":5.36854,"is_reserved":false,"is_disabled":false,"rental_uris":{"android":"levelo://app?vid=1989f9c3-6156-47a7-8f6e-689a009b64a2","ios":"levelo://app?vid=1989f9c3-6156-47a7-8f6e-689a009b64a2"},"vehicle_type_id":"4","last_reported":1742825395,"current_range_meters":16800,"station_id":"ce4bgl92rcd13ifvqbq0","pricing_plan_id":"cebpf4jnsgd1na2vs0mg"},{"bike_id":"ded8e1f2-1ca9-4ddd-be61-1d44046c16e6","system_id":"levelo_inurba_marseille","lat":43.24074,"lon":5.37755,"is_reserved":false,"is_disabled":false,"rental_uris":{"android":"levelo://app?vid=ded8e1f2-1ca9-4ddd-be61-1d44046c16e6","ios":"levelo://app?vid=ded8e1f2-1ca9-4ddd-be61-1d44046c16e6"},"vehicle_type_id":"4","last_reported":1742825395,"current_range_meters":16800,"station_id":"ce4bhnp2rcd13ifvqgvg","pricing_plan_id":"cebpf4jnsgd1na2vs0mg"},{"bike_id":"63efce5d-ac8d-4433-9526-275c7a7c737d","system_id":"levelo_inurba_marseille","lat":43.24579,"lon":5.39486,"is_reserved":false,"is_disabled":false,"rental_uris":{"android":"levelo://app?vid=63efce5d-ac8d-4433-9526-275c7a7c737d","ios":"levelo://app?vid=63efce5d-ac8d-4433-9526-275c7a7c737d"},"vehicle_type_id":"4","last_reported":1742825395,"current_range_meters":16800,"station_id":"ce4bhlp2rcd13ifvqgjg","pricing_plan_id":"cebpf4jnsgd1na2vs0mg"},{"bike_id":"383b41dd-c341-4f7d-838a-afaa41cfc49a","system_id":"levelo_inurba_marseille","lat":43.30129,"lon":5.38783,"is_reserved":false,"is_disabled":false,"rental_uris":{"android":"levelo://app?vid=383b41dd-c341-4f7d-838a-afaa41cfc49a","ios":"levelo://app?vid=383b41dd-c341-4f7d-838a-afaa41cfc49a"},"vehicle_type_id":"4","last_reported":1742825395,"current_range_meters":16800,"station_id":"ce4bghh2rcd13ifvqb60","pricing_plan_id":"cebpf4jnsgd1na2vs0mg"},{"bike_id":"96911444-878d-45f8-995d-0547c2f4ed09","system_id":"levelo_inurba_marseille","lat":43.30489,"lon":5.36608,"is_reserved":false,"is_disabled":false,"rental_uris":{"android":"levelo://app?vid=96911444-878d-45f8-995d-0547c2f4ed09","ios":"levelo://app?vid=96911444-878d-45f8-995d-0547c2f4ed09"},"vehicle_type_id":"4","last_reported":1742825395,"current_range_meters":16800,"station_id":"","pricing_plan_id":"cebpf4jnsgd1na2vs0mg"},{"bike_id":"06c01661-941d-454f-be36-d4c733526995","system_id":"levelo_inurba_marseille","lat":43.24171,"lon":5.36423,"is_reserved":false,"is_disabled":false,"rental_uris":{"android":"levelo://app?vid=06c01661-941d-454f-be36-d4c733526995","ios":"levelo://app?vid=06c01661-941d-454f-be36-d4c733526995"},"vehicle_type_id":"4","last_reported":1742825395,"current_range_meters":16800,"station_id":"cpo36qri1sfpv3e86is0","pricing_plan_id":"cebpf4jnsgd1na2vs0mg"},{"bike_id":"33fcddcc-43ee-449f-8136-08f4b0a5738b","system_id":"levelo_inurba_marseille","lat":43.306,"lon":5.39357,"is_reserved":false,"is_disabled":true,"rental_uris":{"android":"levelo://app?vid=33fcddcc-43ee-449f-8136-08f4b0a5738b","ios":"levelo://app?vid=33fcddcc-43ee-449f-8136-08f4b0a5738b"},"vehicle_type_id":"4","last_reported":1742825395,"current_range_meters":16800,"station_id":"ce4bh0p2rcd13ifvqd80","pricing_plan_id":"cebpf4jnsgd1na2vs0mg"},{"bike_id":"5cc87d66-2226-4fa1-87e7-ca4951166f3b","system_id":"levelo_inurba_marseille","lat":43.28924,"lon":5.38393,"is_reserved":false,"is_disabled":false,"rental_uris":{"android":"levelo://app?vid=5cc87d66-2226-4fa1-87e7-ca4951166f3b","ios":"levelo://app?vid=5cc87d66-2226-4fa1-87e7-ca4951166f3b"},"vehicle_type_id":"4","last_reported":1742825395,"current_range_meters":16800,"station_id":"ce4bh612rcd13ifvqe6g","pricing_plan_id":"cebpf4jnsgd1na2vs0mg"},{"bike_id":"5da44ac7-7d34-4350-b77b-cd7a17330f8d","system_id":"levelo_inurba_marseille","lat":43.281521,"lon":5.426456,"is_reserved":false,"is_disabled":false,"rental_uris":{"android":"levelo://app?vid=5da44ac7-7d34-4350-b77b-cd7a17330f8d","ios":"levelo://app?vid=5da44ac7-7d34-4350-b77b-cd7a17330f8d"},"vehicle_type_id":"4","last_reported":1742825395,"current_range_meters":16800,"station_id":"ce4bhnh2rcd13ifvqgug","pricing_plan_id":"cebpf4jnsgd1na2vs0mg"},{"bike_id":"6d2b811a-9175-4f6a-8eab-9e25f99d5847","system_id":"levelo_inurba_marseille","lat":43.30959,"lon":5.3904,"is_reserved":false,"is_disabled":false,"rental_uris":{"android":"levelo://app?vid=6d2b811a-9175-4f6a-8eab-9e25f99d5847","ios":"levelo://app?vid=6d2b811a-9175-4f6a-8eab-9e25f99d5847"},"vehicle_type_id":"4","last_reported":1742825395,"current_range_meters":16800,"station_id":"ce4bgup2rcd13ifvqco0","pricing_plan_id":"cebpf4jnsgd1na2vs0mg"},{"bike_id":"fb7a185f-7de9-4e66-b150-f4dd3549937c","system_id":"levelo_inurba_marseille","lat":43.23966,"lon":5.36634,"is_reserved":false,"is_disabled":false,"rental_uris":{"android":"levelo://app?vid=fb7a185f-7de9-4e66-b150-f4dd3549937c","ios":"levelo://app?vid=fb7a185f-7de9-4e66-b150-f4dd3549937c"},"vehicle_type_id":"4","last_reported":1742825395,"current_range_meters":16800,"station_id":"ce4bhi12rcd13ifvqfp0","pricing_plan_id":"cebpf4jnsgd1na2vs0mg"},{"bike_id":"a22c2858-704c-4ec2-9334-7973effa915c","system_id":"levelo_inurba_marseille","lat":43.32044,"lon":5.41543,"is_reserved":false,"is_disabled":false,"rental_uris":{"android":"levelo://app?vid=a22c2858-704c-4ec2-9334-7973effa915c","ios":"levelo://app?vid=a22c2858-704c-4ec2-9334-7973effa915c"},"vehicle_type_id":"4","last_reported":1742825395,"current_range_meters":16800,"station_id":"ce4bhq92rcd13ifvqhkg","pricing_plan_id":"cebpf4jnsgd1na2vs0mg"},{"bike_id":"3dedad80-7f61-45ea-94f3-947378b69c7d","system_id":"levelo_inurba_marseille","lat":43.25825,"lon":5.39425,"is_reserved":false,"is_disabled":false,"rental_uris":{"android":"levelo://app?vid=3dedad80-7f61-45ea-94f3-947378b69c7d","ios":"levelo://app?vid=3dedad80-7f61-45ea-94f3-947378b69c7d"},"vehicle_type_id":"4","last_reported":1742825395,"current_range_meters":16800,"station_id":"ce4bhip2rcd13ifvqft0","pricing_plan_id":"cebpf4jnsgd1na2vs0mg"},{"bike_id":"25d68fac-ea64-470a-bd08-a1944af8fefd","system_id":"levelo_inurba_marseille","lat":43.28476,"lon":5.38415,"is_reserved":false,"is_disabled":false,"rental_uris":{"android":"levelo://app?vid=25d68fac-ea64-470a-bd08-a1944af8fefd","ios":"levelo://app?vid=25d68fac-ea64-470a-bd08-a1944af8fefd"},"vehicle_type_id":"4","last_reported":1742825395,"current_range_meters":16800,"station_id":"ce4bh512rcd13ifvqe3g","pricing_plan_id":"cebpf4jnsgd1na2vs0mg"},{"bike_id":"e246959c-006c-4734-9362-62ca6d0116b2","system_id":"levelo_inurba_marseille","lat":43.24186,"lon":5.39746,"is_reserved":false,"is_disabled":false,"rental_uris":{"android":"levelo://app?vid=e246959c-006c-4734-9362-62ca6d0116b2","ios":"levelo://app?vid=e246959c-006c-4734-9362-62ca6d0116b2"},"vehicle_type_id":"4","last_reported":1742825395,"current_range_meters":16800,"station_id":"ce4bhn12rcd13ifvqgpg","pricing_plan_id":"cebpf4jnsgd1na2vs0mg"},{"bike_id":"eb34b20c-5b70-463d-9a28-e620bb255ca6","system_id":"levelo_inurba_marseille","lat":43.28974,"lon":5.37839,"is_reserved":false,"is_disabled":false,"rental_uris":{"android":"levelo://app?vid=eb34b20c-5b70-463d-9a28-e620bb255ca6","ios":"levelo://app?vid=eb34b20c-5b70-463d-9a28-e620bb255ca6"},"vehicle_type_id":"4","last_reported":1742825395,"current_range_meters":17200,"station_id":"ce4bh9p2rcd13ifvqed0","pricing_plan_id":"cebpf4jnsgd1na2vs0mg"},{"bike_id":"becb4612-2f98-4959-8df7-48a8119d178d","system_id":"levelo_inurba_marseille","lat":43.30165,"lon":5.37475,"is_reserved":false,"is_disabled":false,"rental_uris":{"android":"levelo://app?vid=becb4612-2f98-4959-8df7-48a8119d178d","ios":"levelo://app?vid=becb4612-2f98-4959-8df7-48a8119d178d"},"vehicle_type_id":"4","last_reported":1742825395,"current_range_meters":17200,"station_id":"","pricing_plan_id":"cebpf4jnsgd1na2vs0mg"},{"bike_id":"7c5e495e-a4fe-44d2-8a9d-3caa1e3e3f04","system_id":"levelo_inurba_marseille","lat":43.3247,"lon":5.36571,"is_reserved":false,"is_disabled":false,"rental_uris":{"android":"levelo://app?vid=7c5e495e-a4fe-44d2-8a9d-3caa1e3e3f04","ios":"levelo://app?vid=7c5e495e-a4fe-44d2-8a9d-3caa1e3e3f04"},"vehicle_type_id":"4","last_reported":1742825395,"current_range_meters":17200,"station_id":"ce4bhs12rcd13ifvqhvg","pricing_plan_id":"cebpf4jnsgd1na2vs0mg"},{"bike_id":"73df5009-8c69-4d32-b702-8e047109578a","system_id":"levelo_inurba_marseille","lat":43.31274,"lon":5.40181,"is_reserved":false,"is_disabled":false,"rental_uris":{"android":"levelo://app?vid=73df5009-8c69-4d32-b702-8e047109578a","ios":"levelo://app?vid=73df5009-8c69-4d32-b702-8e047109578a"},"vehicle_type_id":"4","last_reported":1742825395,"current_range_meters":17200,"station_id":"ce4bh092rcd13ifvqd30","pricing_plan_id":"cebpf4jnsgd1na2vs0mg"},{"bike_id":"bce4b30a-0a18-4698-abd9-5e6f80153fc9","system_id":"levelo_inurba_marseille","lat":43.303,"lon":5.39208,"is_reserved":false,"is_disabled":true,"rental_uris":{"android":"levelo://app?vid=bce4b30a-0a18-4698-abd9-5e6f80153fc9","ios":"levelo://app?vid=bce4b30a-0a18-4698-abd9-5e6f80153fc9"},"vehicle_type_id":"4","last_reported":1742825395,"current_range_meters":17200,"station_id":"ce4bgkh2rcd13ifvqbk0","pricing_plan_id":"cebpf4jnsgd1na2vs0mg"},{"bike_id":"0b0ee516-9548-4263-8624-2bee9a8e06f3","system_id":"levelo_inurba_marseille","lat":43.289185,"lon":5.383922,"is_reserved":false,"is_disabled":false,"rental_uris":{"android":"levelo://app?vid=0b0ee516-9548-4263-8624-2bee9a8e06f3","ios":"levelo://app?vid=0b0ee516-9548-4263-8624-2bee9a8e06f3"},"vehicle_type_id":"4","last_reported":1742825395,"current_range_meters":16800,"station_id":"ce4bgg92rcd13ifvqb30","pricing_plan_id":"cebpf4jnsgd1na2vs0mg"},{"bike_id":"2297f5bf-3c14-4e90-ab67-2063438c798b","system_id":"levelo_inurba_marseille","lat":43.2815,"lon":5.42645,"is_reserved":false,"is_disabled":false,"rental_uris":{"android":"levelo://app?vid=2297f5bf-3c14-4e90-ab67-2063438c798b","ios":"levelo://app?vid=2297f5bf-3c14-4e90-ab67-2063438c798b"},"vehicle_type_id":"4","last_reported":1742825395,"current_range_meters":17200,"station_id":"ce4bhnh2rcd13ifvqgug","pricing_plan_id":"cebpf4jnsgd1na2vs0mg"},{"bike_id":"24bf3895-921c-4337-95f0-7d1f0f3e28b3","system_id":"levelo_inurba_marseille","lat":43.28495,"lon":5.38554,"is_reserved":false,"is_disabled":true,"rental_uris":{"android":"levelo://app?vid=24bf3895-921c-4337-95f0-7d1f0f3e28b3","ios":"levelo://app?vid=24bf3895-921c-4337-95f0-7d1f0f3e28b3"},"vehicle_type_id":"4","last_reported":1742825395,"current_range_meters":17200,"station_id":"ce4bh8p2rcd13ifvqeb0","pricing_plan_id":"cebpf4jnsgd1na2vs0mg"},{"bike_id":"7273206e-33c7-427f-8bc4-129346bd94ce","system_id":"levelo_inurba_marseille","lat":43.24073,"lon":5.3774,"is_reserved":false,"is_disabled":false,"rental_uris":{"android":"levelo://app?vid=7273206e-33c7-427f-8bc4-129346bd94ce","ios":"levelo://app?vid=7273206e-33c7-427f-8bc4-129346bd94ce"},"vehicle_type_id":"4","last_reported":1742825395,"current_range_meters":17200,"station_id":"ce4bhnp2rcd13ifvqgvg","pricing_plan_id":"cebpf4jnsgd1na2vs0mg"},{"bike_id":"561841e4-7a39-4bac-862d-f6bc9db81142","system_id":"levelo_inurba_marseille","lat":43.29271,"lon":5.37609,"is_reserved":false,"is_disabled":false,"rental_uris":{"android":"levelo://app?vid=561841e4-7a39-4bac-862d-f6bc9db81142","ios":"levelo://app?vid=561841e4-7a39-4bac-862d-f6bc9db81142"},"vehicle_type_id":"4","last_reported":1742825395,"current_range_meters":17200,"station_id":"ce4bgi12rcd13ifvqb80","pricing_plan_id":"cebpf4jnsgd1na2vs0mg"},{"bike_id":"767a4e7d-df85-43ef-9c2d-d4f5f297e1a3","system_id":"levelo_inurba_marseille","lat":43.30129,"lon":5.39837,"is_reserved":false,"is_disabled":true,"rental_uris":{"android":"levelo://app?vid=767a4e7d-df85-43ef-9c2d-d4f5f297e1a3","ios":"levelo://app?vid=767a4e7d-df85-43ef-9c2d-d4f5f297e1a3"},"vehicle_type_id":"4","last_reported":1742825395,"current_range_meters":17600,"station_id":"ce4bh0h2rcd13ifvqd40","pricing_plan_id":"cebpf4jnsgd1na2vs0mg"},{"bike_id":"587e2a89-dc1d-44e9-a2ab-cfb48ce7378a","system_id":"levelo_inurba_marseille","lat":43.29587,"lon":5.37496,"is_reserved":false,"is_disabled":false,"rental_uris":{"android":"levelo://app?vid=587e2a89-dc1d-44e9-a2ab-cfb48ce7378a","ios":"levelo://app?vid=587e2a89-dc1d-44e9-a2ab-cfb48ce7378a"},"vehicle_type_id":"4","last_reported":1742825395,"current_range_meters":17600,"station_id":"ce4bgh92rcd13ifvqb50","pricing_plan_id":"cebpf4jnsgd1na2vs0mg"},{"bike_id":"ab9fc36e-245a-459d-ae14-01d0d586253d","system_id":"levelo_inurba_marseille","lat":43.3137,"lon":5.36743,"is_reserved":false,"is_disabled":false,"rental_uris":{"android":"levelo://app?vid=ab9fc36e-245a-459d-ae14-01d0d586253d","ios":"levelo://app?vid=ab9fc36e-245a-459d-ae14-01d0d586253d"},"vehicle_type_id":"4","last_reported":1742825395,"current_range_meters":17600,"station_id":"ce4bgr92rcd13ifvqc6g","pricing_plan_id":"cebpf4jnsgd1na2vs0mg"},{"bike_id":"9415d95c-ced3-4360-af14-acf811d78ccb","system_id":"levelo_inurba_marseille","lat":43.3031,"lon":5.36895,"is_reserved":false,"is_disabled":false,"rental_uris":{"android":"levelo://app?vid=9415d95c-ced3-4360-af14-acf811d78ccb","ios":"levelo://app?vid=9415d95c-ced3-4360-af14-acf811d78ccb"},"vehicle_type_id":"4","last_reported":1742825395,"current_range_meters":17600,"station_id":"ce4bgqh2rcd13ifvqc5g","pricing_plan_id":"cebpf4jnsgd1na2vs0mg"},{"bike_id":"d53eb015-e86f-4c83-97d8-d92a212c77e8","system_id":"levelo_inurba_marseille","lat":43.29368,"lon":5.37848,"is_reserved":false,"is_disabled":false,"rental_uris":{"android":"levelo://app?vid=d53eb015-e86f-4c83-97d8-d92a212c77e8","ios":"levelo://app?vid=d53eb015-e86f-4c83-97d8-d92a212c77e8"},"vehicle_type_id":"4","last_reported":1742825395,"current_range_meters":17600,"station_id":"ce4bgjh2rcd13ifvqbf0","pricing_plan_id":"cebpf4jnsgd1na2vs0mg"},{"bike_id":"b8c2b2ea-056d-47e2-88f5-2615798f7568","system_id":"levelo_inurba_marseille","lat":43.24187,"lon":5.39743,"is_reserved":false,"is_disabled":false,"rental_uris":{"android":"levelo://app?vid=b8c2b2ea-056d-47e2-88f5-2615798f7568","ios":"levelo://app?vid=b8c2b2ea-056d-47e2-88f5-2615798f7568"},"vehicle_type_id":"4","last_reported":1742825395,"current_range_meters":17600,"station_id":"ce4bhn12rcd13ifvqgpg","pricing_plan_id":"cebpf4jnsgd1na2vs0mg"},{"bike_id":"faf3b294-166d-405c-89de-3d1d03d29225","system_id":"levelo_inurba_marseille","lat":43.30209,"lon":5.39473,"is_reserved":false,"is_disabled":false,"rental_uris":{"android":"levelo://app?vid=faf3b294-166d-405c-89de-3d1d03d29225","ios":"levelo://app?vid=faf3b294-166d-405c-89de-3d1d03d29225"},"vehicle_type_id":"4","last_reported":1742825395,"current_range_meters":17600,"station_id":"ce4bh0p2rcd13ifvqd70","pricing_plan_id":"cebpf4jnsgd1na2vs0mg"},{"bike_id":"60ab1ae3-b7ef-4607-8efa-708c76a4049b","system_id":"levelo_inurba_marseille","lat":43.32469,"lon":5.36583,"is_reserved":false,"is_disabled":false,"rental_uris":{"android":"levelo://app?vid=60ab1ae3-b7ef-4607-8efa-708c76a4049b","ios":"levelo://app?vid=60ab1ae3-b7ef-4607-8efa-708c76a4049b"},"vehicle_type_id":"4","last_reported":1742825395,"current_range_meters":17600,"station_id":"ce4bhs12rcd13ifvqhvg","pricing_plan_id":"cebpf4jnsgd1na2vs0mg"},{"bike_id":"a0ba2c0d-3b24-46f1-a332-1e52883fe89b","system_id":"levelo_inurba_marseille","lat":43.27996,"lon":5.40022,"is_reserved":false,"is_disabled":false,"rental_uris":{"android":"levelo://app?vid=a0ba2c0d-3b24-46f1-a332-1e52883fe89b","ios":"levelo://app?vid=a0ba2c0d-3b24-46f1-a332-1e52883fe89b"},"vehicle_type_id":"4","last_reported":1742825395,"current_range_meters":18000,"station_id":"ce4bho92rcd13ifvqh4g","pricing_plan_id":"cebpf4jnsgd1na2vs0mg"},{"bike_id":"ccd720af-e91c-41fe-bf62-827088335c6a","system_id":"levelo_inurba_marseille","lat":43.3046,"lon":5.37912,"is_reserved":false,"is_disabled":false,"rental_uris":{"android":"levelo://app?vid=ccd720af-e91c-41fe-bf62-827088335c6a","ios":"levelo://app?vid=ccd720af-e91c-41fe-bf62-827088335c6a"},"vehicle_type_id":"4","last_reported":1742825395,"current_range_meters":18000,"station_id":"ce4bgup2rcd13ifvqcn0","pricing_plan_id":"cebpf4jnsgd1na2vs0mg"},{"bike_id":"b4a865ef-5407-4b97-a61f-e52939005fe4","system_id":"levelo_inurba_marseille","lat":43.3093,"lon":5.3683,"is_reserved":false,"is_disabled":false,"rental_uris":{"android":"levelo://app?vid=b4a865ef-5407-4b97-a61f-e52939005fe4","ios":"levelo://app?vid=b4a865ef-5407-4b97-a61f-e52939005fe4"},"vehicle_type_id":"4","last_reported":1742825395,"current_range_meters":18000,"station_id":"ce4bgn92rcd13ifvqbvg","pricing_plan_id":"cebpf4jnsgd1na2vs0mg"},{"bike_id":"9e0aa70d-46be-49fd-ac8d-9cad19ef0031","system_id":"levelo_inurba_marseille","lat":43.30609,"lon":5.37232,"is_reserved":false,"is_disabled":false,"rental_uris":{"android":"levelo://app?vid=9e0aa70d-46be-49fd-ac8d-9cad19ef0031","ios":"levelo://app?vid=9e0aa70d-46be-49fd-ac8d-9cad19ef0031"},"vehicle_type_id":"4","last_reported":1742825395,"current_range_meters":18000,"station_id":"ce4bgqh2rcd13ifvqc4g","pricing_plan_id":"cebpf4jnsgd1na2vs0mg"},{"bike_id":"7f02626e-9bbd-470e-b3dc-453ef879960b","system_id":"levelo_inurba_marseille","lat":43.29901,"lon":5.43652,"is_reserved":false,"is_disabled":false,"rental_uris":{"android":"levelo://app?vid=7f02626e-9bbd-470e-b3dc-453ef879960b","ios":"levelo://app?vid=7f02626e-9bbd-470e-b3dc-453ef879960b"},"vehicle_type_id":"4","last_reported":1742825395,"current_range_meters":18000,"station_id":"ce4bhpp2rcd13ifvqhfg","pricing_plan_id":"cebpf4jnsgd1na2vs0mg"},{"bike_id":"8a46fc4c-0371-4401-bd78-d224ace29d9d","system_id":"levelo_inurba_marseille","lat":43.27126,"lon":5.41695,"is_reserved":false,"is_disabled":false,"rental_uris":{"android":"levelo://app?vid=8a46fc4c-0371-4401-bd78-d224ace29d9d","ios":"levelo://app?vid=8a46fc4c-0371-4401-bd78-d224ace29d9d"},"vehicle_type_id":"4","last_reported":1742825395,"current_range_meters":18000,"station_id":"","pricing_plan_id":"cebpf4jnsgd1na2vs0mg"},{"bike_id":"1a8891bf-2d65-47e4-897c-1b4f42e51215","system_id":"levelo_inurba_marseille","lat":43.25927,"lon":5.40892,"is_reserved":false,"is_disabled":false,"rental_uris":{"android":"levelo://app?vid=1a8891bf-2d65-47e4-897c-1b4f42e51215","ios":"levelo://app?vid=1a8891bf-2d65-47e4-897c-1b4f42e51215"},"vehicle_type_id":"4","last_reported":1742825395,"current_range_meters":18000,"station_id":"ce4bhm92rcd13ifvqglg","pricing_plan_id":"cebpf4jnsgd1na2vs0mg"},{"bike_id":"e7c12649-b507-4a31-b459-5de93f676a93","system_id":"levelo_inurba_marseille","lat":43.2315,"lon":5.43703,"is_reserved":false,"is_disabled":false,"rental_uris":{"android":"levelo://app?vid=e7c12649-b507-4a31-b459-5de93f676a93","ios":"levelo://app?vid=e7c12649-b507-4a31-b459-5de93f676a93"},"vehicle_type_id":"4","last_reported":1742825395,"current_range_meters":18000,"station_id":"ce4bhmp2rcd13ifvqgog","pricing_plan_id":"cebpf4jnsgd1na2vs0mg"},{"bike_id":"45b6f647-b368-4c38-9613-c32af26d4e1e","system_id":"levelo_inurba_marseille","lat":43.30898,"lon":5.36848,"is_reserved":false,"is_disabled":false,"rental_uris":{"android":"levelo://app?vid=45b6f647-b368-4c38-9613-c32af26d4e1e","ios":"levelo://app?vid=45b6f647-b368-4c38-9613-c32af26d4e1e"},"vehicle_type_id":"4","last_reported":1742825395,"current_range_meters":18800,"station_id":"ce4bgn92rcd13ifvqbvg","pricing_plan_id":"cebpf4jnsgd1na2vs0mg"},{"bike_id":"fbbd8f9f-9422-41d3-bad3-5c37d3c9d56d","system_id":"levelo_inurba_marseille","lat":43.23158,"lon":5.43705,"is_reserved":false,"is_disabled":false,"rental_uris":{"android":"levelo://app?vid=fbbd8f9f-9422-41d3-bad3-5c37d3c9d56d","ios":"levelo://app?vid=fbbd8f9f-9422-41d3-bad3-5c37d3c9d56d"},"vehicle_type_id":"4","last_reported":1742825395,"current_range_meters":18800,"station_id":"ce4bhmp2rcd13ifvqgog","pricing_plan_id":"cebpf4jnsgd1na2vs0mg"},{"bike_id":"5981c656-838e-4f66-9e82-74e4ceff7fba","system_id":"levelo_inurba_marseille","lat":43.32536,"lon":5.41455,"is_reserved":false,"is_disabled":false,"rental_uris":{"android":"levelo://app?vid=5981c656-838e-4f66-9e82-74e4ceff7fba","ios":"levelo://app?vid=5981c656-838e-4f66-9e82-74e4ceff7fba"},"vehicle_type_id":"4","last_reported":1742825395,"current_range_meters":18800,"station_id":"ce4bhq12rcd13ifvqhhg","pricing_plan_id":"cebpf4jnsgd1na2vs0mg"},