{"last_updated":1726124929,"ttl":30,"version":"2.2","data":{"bikes":[{"bike_id":"32279b1d-cff3-4f88-9715-5709ec6d5cbb","system_id":"levelo_inurba_marseille","lat":43.27501,"lon":5.42448,"is_reserved":false,"is_disabled":false,"rental_uris":{"android":"levelo://app?vid=32279b1d-cff3-4f88-9715-5709ec6d5cbb","ios":"levelo://app?vid=32279b1d-cff3-4f88-9715-5709ec6d5cbb"},"vehicle_type_id":"4","last_reported":1726124930,"current_range_meters":18800,"station_id":"","pricing_plan_id":"cebpf4jnsgd1na2vs0mg"},{"bike_id":"61cb553e-f45a-43a2-aaeb-c759faa4adb0","system_id":"levelo_inurba_marseille","lat":43.25918,"lon":5.40858,"is_reserved":false,"is_disabled":false,"rental_uris":{"android":"levelo://app?vid=61cb553e-f45a-43a2-aaeb-c759faa4adb0","ios":"levelo://app?vid=61cb553e-f45a-43a2-aaeb-c759faa4adb0"},"vehicle_type_id":"4","last_reported":1726124930,"current_range_meters":24800,"station_id":"ce4bhm92rcd13ifvqglg","pricing_plan_id":"cebpf4jnsgd1na2vs0mg"},{"bike_id":"4d507ab7-8f45-47c6-bb23-de44566d1ed0","system_id":"levelo_inurba_marseille","lat":43.305929,"lon":5.372463,"is_reserved":false,"is_disabled":false,"rental_uris":{"android":"levelo://app?vid=4d507ab7-8f45-47c6-bb23-de44566d1ed0","ios":"levelo://app?vid=4d507ab7-8f45-47c6-bb23-de44566d1ed0"},"vehicle_type_id":"4","last_reported":1726124930,"current_range_meters":25600,"station_id":"ce4bgqh2rcd13ifvqc4g","pricing_plan_id":"cebpf4jnsgd1na2vs0mg"},{"bike_id":"f72ede0a-438e-4eb2-9ccd-07c552028339","system_id":"levelo_inurba_marseille","lat":43.24393,"lon":5.37064,"is_reserved":false,"is_disabled":false,"rental_uris":{"android":"levelo://app?vid=f72ede0a-438e-4eb2-9ccd-07c552028339","ios":"levelo://app?vid=f72ede0a-438e-4eb2-9ccd-07c552028339"},"vehicle_type_id":"4","last_reported":1726124930,"current_range_meters":34800,"station_id":"ce4bhhh2rcd13ifvqfk0","pricing_plan_id":"cebpf4jnsgd1na2vs0mg"},{"bike_id":"13313f69-80e1-449d-8590-2eec7df09b21","system_id":"levelo_inurba_marseille","lat":43.22929,"lon":5.35372,"is_reserved":false,"is_disabled":false,"rental_uris":{"android":"levelo://app?vid=13313f69-80e1-449d-8590-2eec7df09b21","ios":"levelo://app?vid=13313f69-80e1-449d-8590-2eec7df09b21"},"vehicle_type_id":"4","last_reported":1726124930,"current_range_meters":2000,"station_id":"cpo3532slgdg3j2ikp40","pricing_plan_id":"cebpf4jnsgd1na2vs0mg"},{"bike_id":"6ac7e527-2923-423d-a2c8-afd44907786c","system_id":"levelo_inurba_marseille","lat":43.240814,"lon":5.377546,"is_reserved":false,"is_disabled":false,"rental_uris":{"android":"levelo://app?vid=6ac7e527-2923-423d-a2c8-afd44907786c","ios":"levelo://app?vid=6ac7e527-2923-423d-a2c8-afd44907786c"},"vehicle_type_id":"4","last_reported":1726124930,"current_range_meters":24000,"station_id":"ce4bhnp2rcd13ifvqgvg","pricing_plan_id":"cebpf4jnsgd1na2vs0mg"},{"bike_id":"e9f4c15b-f437-4a7a-8b9d-49738bb9f1f7","system_id":"levelo_inurba_marseille","lat":43.2621,"lon":5.37442,"is_reserved":false,"is_disabled":false,"rental_uris":{"android":"levelo://app?vid=e9f4c15b-f437-4a7a-8b9d-49738bb9f1f7","ios":"levelo://app?vid=e9f4c15b-f437-4a7a-8b9d-49738bb9f1f7"},"vehicle_type_id":"4","last_reported":1726124930,"current_range_meters":36800,"station_id":"ce4bhgp2rcd13ifvqfc0","pricing_plan_id":"cebpf4jnsgd1na2vs0mg"},{"bike_id":"c5c3bd44-3118-4ce0-afbd-fd0c81275852","system_id":"levelo_inurba_marseille","lat":43.3109,"lon":5.42431,"is_reserved":false,"is_disabled":false,"rental_uris":{"android":"levelo://app?vid=c5c3bd44-3118-4ce0-afbd-fd0c81275852","ios":"levelo://app?vid=c5c3bd44-3118-4ce0-afbd-fd0c81275852"},"vehicle_type_id":"4","last_reported":1726124930,"current_range_meters":20400,"station_id":"ce4bhp92rcd13ifvqhag","pricing_plan_id":"cebpf4jnsgd1na2vs0mg"},{"bike_id":"2e3a80ac-1202-4ede-be1c-23af14716ca8","system_id":"levelo_inurba_marseille","lat":43.22931,"lon":5.35386,"is_reserved":false,"is_disabled":false,"rental_uris":{"android":"levelo://app?vid=2e3a80ac-1202-4ede-be1c-23af14716ca8","ios":"levelo://app?vid=2e3a80ac-1202-4ede-be1c-23af14716ca8"},"vehicle_type_id":"4","last_reported":1726124930,"current_range_meters":36000,"station_id":"cpo3532slgdg3j2ikp40","pricing_plan_id":"cebpf4jnsgd1na2vs0mg"},{"bike_id":"74d0b289-ffe3-4ee7-a22d-d4514b15a414","system_id":"levelo_inurba_marseille","lat":43.31496,"lon":5.37309,"is_reserved":false,"is_disabled":false,"rental_uris":{"android":"levelo://app?vid=74d0b289-ffe3-4ee7-a22d-d4514b15a414","ios":"levelo://app?vid=74d0b289-ffe3-4ee7-a22d-d4514b15a414"},"vehicle_type_id":"4","last_reported":1726124930,"current_range_meters":12000,"station_id":"ce4bgt12rcd13ifvqcd0","pricing_plan_id":"cebpf4jnsgd1na2vs0mg"},{"bike_id":"fffd6d98-9aa9-4c52-8fec-a8c210be0600","system_id":"levelo_inurba_marseille","lat":43.30799,"lon":5.43529,"is_reserved":false,"is_disabled":false,"rental_uris":{"android":"levelo://app?vid=fffd6d98-9aa9-4c52-8fec-a8c210be0600","ios":"levelo://app?vid=fffd6d98-9aa9-4c52-8fec-a8c210be0600"},"vehicle_type_id":"4","last_reported":1726124930,"current_range_meters":20000,"station_id":"ce4bhph2rcd13ifvqheg","pricing_plan_id":"cebpf4jnsgd1na2vs0mg"},{"bike_id":"032cca34-153b-4a2a-88a7-b47b5003aec0","system_id":"levelo_inurba_marseille","lat":43.30908,"lon":5.36851,"is_reserved":false,"is_disabled":false,"rental_uris":{"android":"levelo://app?vid=032cca34-153b-4a2a-88a7-b47b5003aec0","ios":"levelo://app?vid=032cca34-153b-4a2a-88a7-b47b5003aec0"},"vehicle_type_id":"4","last_reported":1726124930,"current_range_meters":35200,"station_id":"ce4bgn92rcd13ifvqbvg","pricing_plan_id":"cebpf4jnsgd1na2vs0mg"},{"bike_id":"82e92ab4-4087-4bfd-90db-64e2b92bc3e0","system_id":"levelo_inurba_marseille","lat":43.27983,"lon":5.38733,"is_reserved":false,"is_disabled":false,"rental_uris":{"android":"levelo://app?vid=82e92ab4-4087-4bfd-90db-64e2b92bc3e0","ios":"levelo://app?vid=82e92ab4-4087-4bfd-90db-64e2b92bc3e0"},"vehicle_type_id":"4","last_reported":1726124930,"current_range_meters":32800,"station_id":"ce4bhg12rcd13ifvqf80","pricing_plan_id":"cebpf4jnsgd1na2vs0mg"},{"bike_id":"765b4fe0-1711-4f89-9b01-cbc0adb86c30","system_id":"levelo_inurba_marseille","lat":43.26682,"lon":5.38267,"is_reserved":false,"is_disabled":false,"rental_uris":{"android":"levelo://app?vid=765b4fe0-1711-4f89-9b01-cbc0adb86c30","ios":"levelo://app?vid=765b4fe0-1711-4f89-9b01-cbc0adb86c30"},"vehicle_type_id":"4","last_reported":1726124930,"current_range_meters":22000,"station_id":"ce4bhg92rcd13ifvqf90","pricing_plan_id":"cebpf4jnsgd1na2vs0mg"},{"bike_id":"10d4c428-e318-42ae-8126-5211f249afd6","system_id":"levelo_inurba_marseille","lat":43.30554,"lon":5.3654,"is_reserved":false,"is_disabled":false,"rental_uris":{"android":"levelo://app?vid=10d4c428-e318-42ae-8126-5211f249afd6","ios":"levelo://app?vid=10d4c428-e318-42ae-8126-5211f249afd6"},"vehicle_type_id":"4","last_reported":1726124930,"current_range_meters":12400,"station_id":"ce4bgs12rcd13ifvqcag","pricing_plan_id":"cebpf4jnsgd1na2vs0mg"},{"bike_id":"bdfc1a84-07d9-42db-ab50-437821cce26d","system_id":"levelo_inurba_marseille","lat":43.3054,"lon":5.36715,"is_reserved":false,"is_disabled":false,"rental_uris":{"android":"levelo://app?vid=bdfc1a84-07d9-42db-ab50-437821cce26d","ios":"levelo://app?vid=bdfc1a84-07d9-42db-ab50-437821cce26d"},"vehicle_type_id":"4","last_reported":1726124930,"current_range_meters":6800,"station_id":"ce4bgrp2rcd13ifvqc9g","pricing_plan_id":"cebpf4jnsgd1na2vs0mg"},{"bike_id":"06e452c5-602a-42e4-9d83-6c80c59a1335","system_id":"levelo_inurba_marseille","lat":43.2928,"lon":5.40122,"is_reserved":false,"is_disabled":false,"rental_uris":{"android":"levelo://app?vid=06e452c5-602a-42e4-9d83-6c80c59a1335","ios":"levelo://app?vid=06e452c5-602a-42e4-9d83-6c80c59a1335"},"vehicle_type_id":"4","last_reported":1726124930,"current_range_meters":30400,"station_id":"ce4bh312rcd13ifvqdk0","pricing_plan_id":"cebpf4jnsgd1na2vs0mg"},{"bike_id":"3a2febd7-2d6a-449f-9b95-10e7f4fbe7f3","system_id":"levelo_inurba_marseille","lat":43.27569,"lon":5.38416,"is_reserved":false,"is_disabled":false,"rental_uris":{"android":"levelo://app?vid=3a2febd7-2d6a-449f-9b95-10e7f4fbe7f3","ios":"levelo://app?vid=3a2febd7-2d6a-449f-9b95-10e7f4fbe7f3"},"vehicle_type_id":"4","last_reported":1726124930,"current_range_meters":12400,"station_id":"ce4bhh92rcd13ifvqfi0","pricing_plan_id":"cebpf4jnsgd1na2vs0mg"},{"bike_id":"9e0b801e-5e69-49f7-9046-a0346f58d51e","system_id":"levelo_inurba_marseille","lat":43.27069,"lon":5.42278,"is_reserved":false,"is_disabled":false,"rental_uris":{"android":"levelo://app?vid=9e0b801e-5e69-49f7-9046-a0346f58d51e","ios":"levelo://app?vid=9e0b801e-5e69-49f7-9046-a0346f58d51e"},"vehicle_type_id":"4","last_reported":1726124930,"current_range_meters":35200,"station_id":"ce4bhk92rcd13ifvqgb0","pricing_plan_id":"cebpf4jnsgd1na2vs0mg"},{"bike_id":"acb7a154-2c4a-4a8c-8b78-d20c225e7a06","system_id":"levelo_inurba_marseille","lat":43.30541,"lon":5.36713,"is_reserved":false,"is_disabled":false,"rental_uris":{"android":"levelo://app?vid=acb7a154-2c4a-4a8c-8b78-d20c225e7a06","ios":"levelo://app?vid=acb7a154-2c4a-4a8c-8b78-d20c225e7a06"},"vehicle_type_id":"4","last_reported":1726124930,"current_range_meters":17600,"station_id":"ce4bgrp2rcd13ifvqc9g","pricing_plan_id":"cebpf4jnsgd1na2vs0mg"},{"bike_id":"13ec4916-f0ea-4897-8afc-596425b42c42","system_id":"levelo_inurba_marseille","lat":43.23193,"lon":5.35557,"is_reserved":false,"is_disabled":false,"rental_uris":{"android":"levelo://app?vid=13ec4916-f0ea-4897-8afc-596425b42c42","ios":"levelo://app?vid=13ec4916-f0ea-4897-8afc-596425b42c42"},"vehicle_type_id":"4","last_reported":1726124930,"current_range_meters":36000,"station_id":"ce4bhu92rcd13ifvqi70","pricing_plan_id":"cebpf4jnsgd1na2vs0mg"},{"bike_id":"0bde007d-76b4-48ff-bf92-40a46d18b8dd","system_id":"levelo_inurba_marseille","lat":43.31343,"lon":5.36721,"is_reserved":false,"is_disabled":false,"rental_uris":{"android":"levelo://app?vid=0bde007d-76b4-48ff-bf92-40a46d18b8dd","ios":"levelo://app?vid=0bde007d-76b4-48ff-bf92-40a46d18b8dd"},"vehicle_type_id":"4","last_reported":1726124930,"current_range_meters":8800,"station_id":"","pricing_plan_id":"cebpf4jnsgd1na2vs0mg"},{"bike_id":"456c41c7-f41f-4bc7-97f6-a3711e077994","system_id":"levelo_inurba_marseille","lat":43.26031,"lon":5.37549,"is_reserved":false,"is_disabled":false,"rental_uris":{"android":"levelo://app?vid=456c41c7-f41f-4bc7-97f6-a3711e077994","ios":"levelo://app?vid=456c41c7-f41f-4bc7-97f6-a3711e077994"},"vehicle_type_id":"4","last_reported":1726124930,"current_range_meters":18800,"station_id":"ce4bhgh2rcd13ifvqfa0","pricing_plan_id":"cebpf4jnsgd1na2vs0mg"},{"bike_id":"e00ecfc5-39cd-44d4-82a2-857babfa6066","system_id":"levelo_inurba_marseille","lat":43.31484,"lon":5.37307,"is_reserved":false,"is_disabled":false,"rental_uris":{"android":"levelo://app?vid=e00ecfc5-39cd-44d4-82a2-857babfa6066","ios":"levelo://app?vid=e00ecfc5-39cd-44d4-82a2-857babfa6066"},"vehicle_type_id":"4","last_reported":1726124930,"current_range_meters":35200,"station_id":"ce4bgt12rcd13ifvqcd0","pricing_plan_id":"cebpf4jnsgd1na2vs0mg"},{"bike_id":"8f1994d1-01e1-4dd7-98fe-ffede7321f06","system_id":"levelo_inurba_marseille","lat":43.32285,"lon":5.38278,"is_reserved":false,"is_disabled":false,"rental_uris":{"android":"levelo://app?vid=8f1994d1-01e1-4dd7-98fe-ffede7321f06","ios":"levelo://app?vid=8f1994d1-01e1-4dd7-98fe-ffede7321f06"},"vehicle_type_id":"4","last_reported":1726124930,"current_range_meters":33200,"station_id":"ce4bhr12rcd13ifvqhqg","pricing_plan_id":"cebpf4jnsgd1na2vs0mg"},{"bike_id":"0f91d877-641e-414e-a620-6dbaf08191c2","system_id":"levelo_inurba_marseille","lat":43.26206,"lon":5.37923,"is_reserved":false,"is_disabled":false,"rental_uris":{"android":"levelo://app?vid=0f91d877-641e-414e-a620-6dbaf08191c2","ios":"levelo://app?vid=0f91d877-641e-414e-a620-6dbaf08191c2"},"vehicle_type_id":"4","last_reported":1726124930,"current_range_meters":37600,"station_id":"ce4bhjp2rcd13ifvqg90","pricing_plan_id":"cebpf4jnsgd1na2vs0mg"},{"bike_id":"f0c3d3f5-6e56-48c0-b6e4-4e0b8919e7cb","system_id":"levelo_inurba_marseille","lat":43.28712,"lon":5.37934,"is_reserved":false,"is_disabled":false,"rental_uris":{"android":"levelo://app?vid=f0c3d3f5-6e56-48c0-b6e4-4e0b8919e7cb","ios":"levelo://app?vid=f0c3d3f5-6e56-48c0-b6e4-4e0b8919e7cb"},"vehicle_type_id":"4","last_reported":1726124930,"current_range_meters":25600,"station_id":"ce4bh9p2rcd13ifvqec0","pricing_plan_id":"cebpf4jnsgd1na2vs0mg"},{"bike_id":"3e296cc1-ec6e-46fd-8488-87ab674609c8","system_id":"levelo_inurba_marseille","lat":43.30954,"lon":5.401403,"is_reserved":false,"is_disabled":false,"rental_uris":{"android":"levelo://app?vid=3e296cc1-ec6e-46fd-8488-87ab674609c8","ios":"levelo://app?vid=3e296cc1-ec6e-46fd-8488-87ab674609c8"},"vehicle_type_id":"4","last_reported":1726124930,"current_range_meters":28400,"station_id":"ce4bgvp2rcd13ifvqct0","pricing_plan_id":"cebpf4jnsgd1na2vs0mg"},{"bike_id":"80a6c1c7-17ef-4a10-b866-719e736d8134","system_id":"levelo_inurba_marseille","lat":43.24077,"lon":5.37758,"is_reserved":false,"is_disabled":false,"rental_uris":{"android":"levelo://app?vid=80a6c1c7-17ef-4a10-b866-719e736d8134","ios":"levelo://app?vid=80a6c1c7-17ef-4a10-b866-719e736d8134"},"vehicle_type_id":"4","last_reported":1726124930,"current_range_meters":34800,"station_id":"ce4bhnp2rcd13ifvqgvg","pricing_plan_id":"cebpf4jnsgd1na2vs0mg"},{"bike_id":"74c67d55-8a5f-40c9-8066-d68354718f8c","system_id":"levelo_inurba_marseille","lat":43.23188,"lon":5.35553,"is_reserved":false,"is_disabled":false,"rental_uris":{"android":"levelo://app?vid=74c67d55-8a5f-40c9-8066-d68354718f8c","ios":"levelo://app?vid=74c67d55-8a5f-40c9-8066-d68354718f8c"},"vehicle_type_id":"4","last_reported":1726124930,"current_range_meters":32800,"station_id":"ce4bhu92rcd13ifvqi70","pricing_plan_id":"cebpf4jnsgd1na2vs0mg"},{"bike_id":"8c778480-3aec-4905-9f95-39ffc7f00a7f","system_id":"levelo_inurba_marseille","lat":43.32484,"lon":5.36566,"is_reserved":false,"is_disabled":false,"rental_uris":{"android":"levelo://app?vid=8c778480-3aec-4905-9f95-39ffc7f00a7f","ios":"levelo://app?vid=8c778480-3aec-4905-9f95-39ffc7f00a7f"},"vehicle_type_id":"4","last_reported":1726124930,"current_range_meters":28800,"station_id":"ce4bhs12rcd13ifvqhvg","pricing_plan_id":"cebpf4jnsgd1na2vs0mg"},{"bike_id":"e7a5839c-8fe9-4805-a0e8-ec1c242be023","system_id":"levelo_inurba_marseille","lat":43.29881,"lon":5.38077,"is_reserved":false,"is_disabled":false,"rental_uris":{"android":"levelo://app?vid=e7a5839c-8fe9-4805-a0e8-ec1c242be023","ios":"levelo://app?vid=e7a5839c-8fe9-4805-a0e8-ec1c242be023"},"vehicle_type_id":"4","last_reported":1726124930,"current_range_meters":7200,"station_id":"ce4bgj12rcd13ifvqbc0","pricing_plan_id":"cebpf4jnsgd1na2vs0mg"},{"bike_id":"f26c1504-1d02-4a96-9cce-a8d8d09650ab","system_id":"levelo_inurba_marseille","lat":43.31222,"lon":5.36852,"is_reserved":false,"is_disabled":false,"rental_uris":{"android":"levelo://app?vid=f26c1504-1d02-4a96-9cce-a8d8d09650ab","ios":"levelo://app?vid=f26c1504-1d02-4a96-9cce-a8d8d09650ab"},"vehicle_type_id":"4","last_reported":1726124930,"current_range_meters":36400,"station_id":"ce4bgl92rcd13ifvqbq0","pricing_plan_id":"cebpf4jnsgd1na2vs0mg"},{"bike_id":"eb685eeb-f508-4424-9ea7-a6e3d7e8091e","system_id":"levelo_inurba_marseille","lat":43.25933,"lon":5.40912,"is_reserved":false,"is_disabled":false,"rental_uris":{"android":"levelo://app?vid=eb685eeb-f508-4424-9ea7-a6e3d7e8091e","ios":"levelo://app?vid=eb685eeb-f508-4424-9ea7-a6e3d7e8091e"},"vehicle_type_id":"4","last_reported":1726124930,"current_range_meters":30000,"station_id":"ce4bhm92rcd13ifvqglg","pricing_plan_id":"cebpf4jnsgd1na2vs0mg"},{"bike_id":"6984be2b-04bc-4812-a824-12befbf977b9","system_id":"levelo_inurba_marseille","lat":43.28414,"lon":5.37497,"is_reserved":false,"is_disabled":false,"rental_uris":{"android":"levelo://app?vid=6984be2b-04bc-4812-a824-12befbf977b9","ios":"levelo://app?vid=6984be2b-04bc-4812-a824-12befbf977b9"},"vehicle_type_id":"4","last_reported":1726124930,"current_range_meters":8000,"station_id":"ce4bh412rcd13ifvqds0","pricing_plan_id":"cebpf4jnsgd1na2vs0mg"},{"bike_id":"a5305621-0742-402c-9ef7-730246504798","system_id":"levelo_inurba_marseille","lat":43.277904,"lon":5.388186,"is_reserved":false,"is_disabled":false,"rental_uris":{"android":"levelo://app?vid=a5305621-0742-402c-9ef7-730246504798","ios":"levelo://app?vid=a5305621-0742-402c-9ef7-730246504798"},"vehicle_type_id":"4","last_reported":1726124930,"current_range_meters":22000,"station_id":"ce4bhi12rcd13ifvqfo0","pricing_plan_id":"cebpf4jnsgd1na2vs0mg"},{"bike_id":"a75cbbd7-8dc5-4f16-afb9-6ea5c2c4ffda","system_id":"levelo_inurba_marseille","lat":43.29852,"lon":5.36282,"is_reserved":false,"is_disabled":false,"rental_uris":{"android":"levelo://app?vid=a75cbbd7-8dc5-4f16-afb9-6ea5c2c4ffda","ios":"levelo://app?vid=a75cbbd7-8dc5-4f16-afb9-6ea5c2c4ffda"},"vehicle_type_id":"4","last_reported":1726124930,"current_range_meters":22000,"station_id":"ce4bgpp2rcd13ifvqc3g","pricing_plan_id":"cebpf4jnsgd1na2vs0mg"},{"bike_id":"4ac7d9cf-87af-4520-808f-51401e432325","system_id":"levelo_inurba_marseille","lat":43.32544,"lon":5.41441,"is_reserved":false,"is_disabled":false,"rental_uris":{"android":"levelo://app?vid=4ac7d9cf-87af-4520-808f-51401e432325","ios":"levelo://app?vid=4ac7d9cf-87af-4520-808f-51401e432325"},"vehicle_type_id":"4","last_reported":1726124930,"current_range_meters":16800,"station_id":"ce4bhq12rcd13ifvqhhg","pricing_plan_id":"cebpf4jnsgd1na2vs0mg"},{"bike_id":"8b3a98fe-a428-4311-a1cd-a7f11f45c1eb","system_id":"levelo_inurba_marseille","lat":43.23155,"lon":5.43709,"is_reserved":false,"is_disabled":false,"rental_uris":{"android":"levelo://app?vid=8b3a98fe-a428-4311-a1cd-a7f11f45c1eb","ios":"levelo://app?vid=8b3a98fe-a428-4311-a1cd-a7f11f45c1eb"},"vehicle_type_id":"4","last_reported":1726124930,"current_range_meters":8000,"station_id":"ce4bhmp2rcd13ifvqgog","pricing_plan_id":"cebpf4jnsgd1na2vs0mg"},{"bike_id":"286b7ced-97f5-44da-942a-5b007929bb7f","system_id":"levelo_inurba_marseille","lat":43.31487,"lon":5.37305,"is_reserved":false,"is_disabled":false,"rental_uris":{"android":"levelo://app?vid=286b7ced-97f5-44da-942a-5b007929bb7f","ios":"levelo://app?vid=286b7ced-97f5-44da-942a-5b007929bb7f"},"vehicle_type_id":"4","last_reported":1726124930,"current_range_meters":37600,"station_id":"ce4bgt12rcd13ifvqcd0","pricing_plan_id":"cebpf4jnsgd1na2vs0mg"},{"bike_id":"f3e9fb72-97c1-4ee2-b1d1-e2d99af572a4","system_id":"levelo_inurba_marseille","lat":43.32539,"lon":5.41441,"is_reserved":false,"is_disabled":false,"rental_uris":{"android":"levelo://app?vid=f3e9fb72-97c1-4ee2-b1d1-e2d99af572a4","ios":"levelo://app?vid=f3e9fb72-97c1-4ee2-b1d1-e2d99af572a4"},"vehicle_type_id":"4","last_reported":1726124930,"current_range_meters":39200,"station_id":"ce4bhq12rcd13ifvqhhg","pricing_plan_id":"cebpf4jnsgd1na2vs0mg"},{"bike_id":"399e11e5-05e9-413c-9d9f-0f6fa5bc8030","system_id":"levelo_inurba_marseille","lat":43.30555,"lon":5.36556,"is_reserved":false,"is_disabled":false,"rental_uris":{"android":"levelo://app?vid=399e11e5-05e9-413c-9d9f-0f6fa5bc8030","ios":"levelo://app?vid=399e11e5-05e9-413c-9d9f-0f6fa5bc8030"},"vehicle_type_id":"4","last_reported":1726124930,"current_range_meters":10800,"station_id":"ce4bgs12rcd13ifvqcag","pricing_plan_id":"cebpf4jnsgd1na2vs0mg"},{"bike_id":"6b129dd1-941b-4edb-94da-a8957eaed5b6","system_id":"levelo_inurba_marseille","lat":43.29884,"lon":5.39735,"is_reserved":false,"is_disabled":false,"rental_uris":{"android":"levelo://app?vid=6b129dd1-941b-4edb-94da-a8957eaed5b6","ios":"levelo://app?vid=6b129dd1-941b-4edb-94da-a8957eaed5b6"},"vehicle_type_id":"4","last_reported":1726124930,"current_range_meters":32400,"station_id":"ce4bh0h2rcd13ifvqd50","pricing_plan_id":"cebpf4jnsgd1na2vs0mg"},{"bike_id":"3203158c-ba5a-4569-8d5d-a3eeab16fc77","system_id":"levelo_inurba_marseille","lat":43.295609,"lon":5.422868,"is_reserved":false,"is_disabled":false,"rental_uris":{"android":"levelo://app?vid=3203158c-ba5a-4569-8d5d-a3eeab16fc77","ios":"levelo://app?vid=3203158c-ba5a-4569-8d5d-a3eeab16fc77"},"vehicle_type_id":"4","last_reported":1726124930,"current_range_meters":37600,"station_id":"ce4bhph2rcd13ifvqhdg","pricing_plan_id":"cebpf4jnsgd1na2vs0mg"},{"bike_id":"90ff98e3-5e3d-456c-96b2-0d3fda81560c","system_id":"levelo_inurba_marseille","lat":43.33604,"lon":5.41033,"is_reserved":false,"is_disabled":false,"rental_uris":{"android":"levelo://app?vid=90ff98e3-5e3d-456c-96b2-0d3fda81560c","ios":"levelo://app?vid=90ff98e3-5e3d-456c-96b2-0d3fda81560c"},"vehicle_type_id":"4","last_reported":1726124930,"current_range_meters":14000,"station_id":"ce4bhqh2rcd13ifvqhmg","pricing_plan_id":"cebpf4jnsgd1na2vs0mg"},{"bike_id":"c3a84de0-e074-45d2-96a4-3ff17abba9fe","system_id":"levelo_inurba_marseille","lat":43.24079,"lon":5.37735,"is_reserved":false,"is_disabled":false,"rental_uris":{"android":"levelo://app?vid=c3a84de0-e074-45d2-96a4-3ff17abba9fe","ios":"levelo://app?vid=c3a84de0-e074-45d2-96a4-3ff17abba9fe"},"vehicle_type_id":"4","last_reported":1726124930,"current_range_meters":10800,"station_id":"ce4bhnp2rcd13ifvqgvg","pricing_plan_id":"cebpf4jnsgd1na2vs0mg"},{"bike_id":"0645ceb8-465a-4e46-a43b-01fa179ef93c","system_id":"levelo_inurba_marseille","lat":43.30148,"lon":5.38054,"is_reserved":false,"is_disabled":false,"rental_uris":{"android":"levelo://app?vid=0645ceb8-465a-4e46-a43b-01fa179ef93c","ios":"levelo://app?vid=0645ceb8-465a-4e46-a43b-01fa179ef93c"},"vehicle_type_id":"4","last_reported":1726124930,"current_range_meters":21600,"station_id":"ce4bgjp2rcd13ifvqbh0","pricing_plan_id":"cebpf4jnsgd1na2vs0mg"},{"bike_id":"e06fa896-dd06-42d7-b340-a22a3b6b3ac8","system_id":"levelo_inurba_marseille","lat":43.266934,"lon":5.382526,"is_reserved":false,"is_disabled":false,"rental_uris":{"android":"levelo://app?vid=e06fa896-dd06-42d7-b340-a22a3b6b3ac8","ios":"levelo://app?vid=e06fa896-dd06-42d7-b340-a22a3b6b3ac8"},"vehicle_type_id":"4","last_reported":1726124930,"current_range_meters":27200,"station_id":"ce4bhg92rcd13ifvqf90","pricing_plan_id":"cebpf4jnsgd1na2vs0mg"},{"bike_id":"cbea37b8-74f6-4f23-abb4-a0183d8eb5a0","system_id":"levelo_inurba_marseille","lat":43.30544,"lon":5.384295,"is_reserved":false,"is_disabled":false,"rental_uris":{"android":"levelo://app?vid=cbea37b8-74f6-4f23-abb4-a0183d8eb5a0","ios":"levelo://app?vid=cbea37b8-74f6-4f23-abb4-a0183d8eb5a0"},"vehicle_type_id":"4","last_reported":1726124930,"current_range_meters":11600,"station_id":"ce4bgg92rcd13ifvqb30","pricing_plan_id":"cebpf4jnsgd1na2vs0mg"},{"bike_id":"bf2d2172-be9c-4d8b-b2a9-e8472749e9f2","system_id":"levelo_inurba_marseille","lat":43.24549,"lon":5.39519,"is_reserved":false,"is_disabled":false,"rental_uris":{"android":"levelo://app?vid=bf2d2172-be9c-4d8b-b2a9-e8472749e9f2","ios":"levelo://app?vid=bf2d2172-be9c-4d8b-b2a9-e8472749e9f2"},"vehicle_type_id":"4","last_reported":1726124930,"current_range_meters":28800,"station_id":"ce4bhlp2rcd13ifvqgjg","pricing_plan_id":"cebpf4jnsgd1na2vs0mg"},{"bike_id":"0a1f63c4-8197-4edd-9c0f-886e05340093","system_id":"levelo_inurba_marseille","lat":43.2622,"lon":5.37433,"is_reserved":false,"is_disabled":false,"rental_uris":{"android":"levelo://app?vid=0a1f63c4-8197-4edd-9c0f-886e05340093","ios":"levelo://app?vid=0a1f63c4-8197-4edd-9c0f-886e05340093"},"vehicle_type_id":"4","last_reported":1726124930,"current_range_meters":37600,"station_id":"ce4bhgp2rcd13ifvqfc0","pricing_plan_id":"cebpf4jnsgd1na2vs0mg"},{"bike_id":"7bd85fe2-5a52-46cc-9361-71802133f681","system_id":"levelo_inurba_marseille","lat":43.283417,"lon":5.381098,"is_reserved":false,"is_disabled":false,"rental_uris":{"android":"levelo://app?vid=7bd85fe2-5a52-46cc-9361-71802133f681","ios":"levelo://app?vid=7bd85fe2-5a52-46cc-9361-71802133f681"},"vehicle_type_id":"4","last_reported":1726124930,"current_range_meters":32400,"station_id":"ce4bhip2rcd13ifvqft0","pricing_plan_id":"cebpf4jnsgd1na2vs0mg"},{"bike_id":"fe54d2c4-eff0-4540-9bb2-07f1b144e817","system_id":"levelo_inurba_marseille","lat":43.29844,"lon":5.36274,"is_reserved":false,"is_disabled":false,"rental_uris":{"android":"levelo://app?vid=fe54d2c4-eff0-4540-9bb2-07f1b144e817","ios":"levelo://app?vid=fe54d2c4-eff0-4540-9bb2-07f1b144e817"},"vehicle_type_id":"4","last_reported":1726124930,"current_range_meters":36000,"station_id":"ce4bgpp2rcd13ifvqc3g","pricing_plan_id":"cebpf4jnsgd1na2vs0mg"},{"bike_id":"01ba2752-3c74-4829-8e18-e4bb3e8dbaee","system_id":"levelo_inurba_marseille","lat":43.3148,"lon":5.37301,"is_reserved":false,"is_disabled":false,"rental_uris":{"android":"levelo://app?vid=01ba2752-3c74-4829-8e18-e4bb3e8dbaee","ios":"levelo://app?vid=01ba2752-3c74-4829-8e18-e4bb3e8dbaee"},"vehicle_type_id":"4","last_reported":1726124930,"current_range_meters":38800,"station_id":"ce4bgt12rcd13ifvqcd0","pricing_plan_id":"cebpf4jnsgd1na2vs0mg"},{"bike_id":"721fa92c-defe-4678-b6eb-96834f836f63","system_id":"levelo_inurba_marseille","lat":43.30521,"lon":5.36534,"is_reserved":false,"is_disabled":false,"rental_uris":{"android":"levelo://app?vid=721fa92c-defe-4678-b6eb-96834f836f63","ios":"levelo://app?vid=721fa92c-defe-4678-b6eb-96834f836f63"},"vehicle_type_id":"4","last_reported":1726124930,"current_range_meters":36400,"station_id":"ce4bgs12rcd13ifvqcag","pricing_plan_id":"cebpf4jnsgd1na2vs0mg"},{"bike_id":"603ae7c3-fefc-4b49-aadb-f4baf642c313","system_id":"levelo_inurba_marseille","lat":43.337444,"lon":5.374475,"is_reserved":false,"is_disabled":false,"rental_uris":{"android":"levelo://app?vid=603ae7c3-fefc-4b49-aadb-f4baf642c313","ios":"levelo://app?vid=603ae7c3-fefc-4b49-aadb-f4baf642c313"},"vehicle_type_id":"4","last_reported":1726124930,"current_range_meters":33200,"station_id":"","pricing_plan_id":"cebpf4jnsgd1na2vs0mg"},{"bike_id":"a52ae3d9-58a5-4929-a1fa-7958ae557e7d","system_id":"levelo_inurba_marseille","lat":43.25939,"lon":5.40904,"is_reserved":false,"is_disabled":false,"rental_uris":{"android":"levelo://app?vid=a52ae3d9-58a5-4929-a1fa-7958ae557e7d","ios":"levelo://app?vid=a52ae3d9-58a5-4929-a1fa-7958ae557e7d"},"vehicle_type_id":"4","last_reported":1726124930,"current_range_meters":15200,"station_id":"ce4bhm92rcd13ifvqglg","pricing_plan_id":"cebpf4jnsgd1na2vs0mg"},{"bike_id":"554beb7c-19ba-440e-a211-532f35657004","system_id":"levelo_inurba_marseille","lat":43.29562,"lon":5.42292,"is_reserved":false,"is_disabled":false,"rental_uris":{"android":"levelo://app?vid=554beb7c-19ba-440e-a211-532f35657004","ios":"levelo://app?vid=554beb7c-19ba-440e-a211-532f35657004"},"vehicle_type_id":"4","last_reported":1726124930,"current_range_meters":22800,"station_id":"ce4bhph2rcd13ifvqhdg","pricing_plan_id":"cebpf4jnsgd1na2vs0mg"},{"bike_id":"dd6d94c7-f35e-4acc-863e-4063ec5abc48","system_id":"levelo_inurba_marseille","lat":43.32354,"lon":5.38872,"is_reserved":false,"is_disabled":false,"rental_uris":{"android":"levelo://app?vid=dd6d94c7-f35e-4acc-863e-4063ec5abc48","ios":"levelo://app?vid=dd6d94c7-f35e-4acc-863e-4063ec5abc48"},"vehicle_type_id":"4","last_reported":1726124930,"current_range_meters":37600,"station_id":"ce4bhqp2rcd13ifvqhog","pricing_plan_id":"cebpf4jnsgd1na2vs0mg"},{"bike_id":"c07d9cfb-a36c-4f68-8f63-1240164180b8","system_id":"levelo_inurba_marseille","lat":43.30463,"lon":5.37913,"is_reserved":false,"is_disabled":false,"rental_uris":{"android":"levelo://app?vid=c07d9cfb-a36c-4f68-8f63-1240164180b8","ios":"levelo://app?vid=c07d9cfb-a36c-4f68-8f63-1240164180b8"},"vehicle_type_id":"4","last_reported":1726124930,"current_range_meters":32000,"station_id":"ce4bgup2rcd13ifvqcn0","pricing_plan_id":"cebpf4jnsgd1na2vs0mg"},{"bike_id":"352085d8-a232-4bdb-94c4-7e4bc5d644a1","system_id":"levelo_inurba_marseille","lat":43.25932,"lon":5.40909,"is_reserved":false,"is_disabled":false,"rental_uris":{"android":"levelo://app?vid=352085d8-a232-4bdb-94c4-7e4bc5d644a1","ios":"levelo://app?vid=352085d8-a232-4bdb-94c4-7e4bc5d644a1"},"vehicle_type_id":"4","last_reported":1726124930,"current_range_meters":30000,"station_id":"ce4bhm92rcd13ifvqglg","pricing_plan_id":"cebpf4jnsgd1na2vs0mg"},{"bike_id":"cf5a6d6a-12c1-45cd-b415-051d5156920d","system_id":"levelo_inurba_marseille","lat":43.33614,"lon":5.41026,"is_reserved":false,"is_disabled":false,"rental_uris":{"android":"levelo://app?vid=cf5a6d6a-12c1-45cd-b415-051d5156920d","ios":"levelo://app?vid=cf5a6d6a-12c1-45cd-b415-051d5156920d"},"vehicle_type_id":"4","last_reported":1726124930,"current_range_meters":32800,"station_id":"ce4bhqh2rcd13ifvqhmg","pricing_plan_id":"cebpf4jnsgd1na2vs0mg"},{"bike_id":"cba42c11-45cd-46ee-9381-36c4233a2d6d","system_id":"levelo_inurba_marseille","lat":43.29073,"lon":5.37171,"is_reserved":false,"is_disabled":false,"rental_uris":{"android":"levelo://app?vid=cba42c11-45cd-46ee-9381-36c4233a2d6d","ios":"levelo://app?vid=cba42c11-45cd-46ee-9381-36c4233a2d6d"},"vehicle_type_id":"4","last_reported":1726124930,"current_range_meters":20800,"station_id":"ce4bh5p2rcd13ifvqe4g","pricing_plan_id":"cebpf4jnsgd1na2vs0mg"},{"bike_id":"a36a6131-7175-4d21-afcf-16a3b952996a","system_id":"levelo_inurba_marseille","lat":43.30804,"lon":5.37666,"is_reserved":false,"is_disabled":false,"rental_uris":{"android":"levelo://app?vid=a36a6131-7175-4d21-afcf-16a3b952996a","ios":"levelo://app?vid=a36a6131-7175-4d21-afcf-16a3b952996a"},"vehicle_type_id":"4","last_reported":1726124930,"current_range_meters":6400,"station_id":"ce4bgv92rcd13ifvqcq0","pricing_plan_id":"cebpf4jnsgd1na2vs0mg"},{"bike_id":"dd6313df-d56d-4aab-9b2a-ea8492734cb7","system_id":"levelo_inurba_marseille","lat":43.26194,"lon":5.37452,"is_reserved":false,"is_disabled":false,"rental_uris":{"android":"levelo://app?vid=dd6313df-d56d-4aab-9b2a-ea8492734cb7","ios":"levelo://app?vid=dd6313df-d56d-4aab-9b2a-ea8492734cb7"},"vehicle_type_id":"4","last_reported":1726124930,"current_range_meters":37600,"station_id":"ce4bhgp2rcd13ifvqfc0","pricing_plan_id":"cebpf4jnsgd1na2vs0mg"},{"bike_id":"18133a1b-df7b-42d0-89d1-ccdedf5f5524","system_id":"levelo_inurba_marseille","lat":43.30529,"lon":5.3655,"is_reserved":false,"is_disabled":false,"rental_uris":{"android":"levelo://app?vid=18133a1b-df7b-42d0-89d1-ccdedf5f5524","ios":"levelo://app?vid=18133a1b-df7b-42d0-89d1-ccdedf5f5524"},"vehicle_type_id":"4","last_reported":1726124930,"current_range_meters":28400,"station_id":"ce4bgs12rcd13ifvqcag","pricing_plan_id":"cebpf4jnsgd1na2vs0mg"},{"bike_id":"df4b2802-380e-4294-83b5-1679afb45ac3","system_id":"levelo_inurba_marseille","lat":43.30459,"lon":5.37915,"is_reserved":false,"is_disabled":false,"rental_uris":{"android":"levelo://app?vid=df4b2802-380e-4294-83b5-1679afb45ac3","ios":"levelo://app?vid=df4b2802-380e-4294-83b5-1679afb45ac3"},"vehicle_type_id":"4","last_reported":1726124930,"current_range_meters":40000,"station_id":"ce4bgup2rcd13ifvqcn0","pricing_plan_id":"cebpf4jnsgd1na2vs0mg"},{"bike_id":"1adeb06d-bc22-4b15-929d-237307356de8","system_id":"levelo_inurba_marseille","lat":43.28003,"lon":5.4166,"is_reserved":false,"is_disabled":false,"rental_uris":{"android":"levelo://app?vid=1adeb06d-bc22-4b15-929d-237307356de8","ios":"levelo://app?vid=1adeb06d-bc22-4b15-929d-237307356de8"},"vehicle_type_id":"4","last_reported":1726124930,"current_range_meters":11200,"station_id":"ce4bho12rcd13ifvqh1g","pricing_plan_id":"cebpf4jnsgd1na2vs0mg"},{"bike_id":"521ac9eb-aeb3-4716-a5c7-40c1c5dfc1ab","system_id":"levelo_inurba_marseille","lat":43.28032,"lon":5.36936,"is_reserved":false,"is_disabled":false,"rental_uris":{"android":"levelo://app?vid=521ac9eb-aeb3-4716-a5c7-40c1c5dfc1ab","ios":"levelo://app?vid=521ac9eb-aeb3-4716-a5c7-40c1c5dfc1ab"},"vehicle_type_id":"4","last_reported":1726124930,"current_range_meters":37600,"station_id":"ce4bha12rcd13ifvqef0","pricing_plan_id":"cebpf4jnsgd1na2vs0mg"},{"bike_id":"2e8be033-0f30-4e45-8860-99070234de00","system_id":"levelo_inurba_marseille","lat":43.29843,"lon":5.36266,"is_reserved":false,"is_disabled":false,"rental_uris":{"android":"levelo://app?vid=2e8be033-0f30-4e45-8860-99070234de00","ios":"levelo://app?vid=2e8be033-0f30-4e45-8860-99070234de00"},"vehicle_type_id":"4","last_reported":1726124930,"current_range_meters":6800,"station_id":"ce4bgpp2rcd13ifvqc3g","pricing_plan_id":"cebpf4jnsgd1na2vs0mg"},{"bike_id":"b413d41f-7993-42f5-a3cc-daaaeaf22886","system_id":"levelo_inurba_marseille","lat":43.32481,"lon":5.36553,"is_reserved":false,"is_disabled":false,"rental_uris":{"android":"levelo://app?vid=b413d41f-7993-42f5-a3cc-daaaeaf22886","ios":"levelo://app?vid=b413d41f-7993-42f5-a3cc-daaaeaf22886"},"vehicle_type_id":"4","last_reported":1726124930,"current_range_meters":28400,"station_id":"ce4bhs12rcd13ifvqhvg","pricing_plan_id":"cebpf4jnsgd1na2vs0mg"},{"bike_id":"aa9d0a87-5dc4-48d3-a566-a5c21fdea9dd","system_id":"levelo_inurba_marseille","lat":43.28619,"lon":5.35099,"is_reserved":false,"is_disabled":false,"rental_uris":{"android":"levelo://app?vid=aa9d0a87-5dc4-48d3-a566-a5c21fdea9dd","ios":"levelo://app?vid=aa9d0a87-5dc4-48d3-a566-a5c21fdea9dd"},"vehicle_type_id":"4","last_reported":1726124930,"current_range_meters":35600,"station_id":"ce4bhch2rcd13ifvqeug","pricing_plan_id":"cebpf4jnsgd1na2vs0mg"},{"bike_id":"52f1836d-392d-4622-a275-2542bf0d56b3","system_id":"levelo_inurba_marseille","lat":43.26202,"lon":5.37924,"is_reserved":false,"is_disabled":false,"rental_uris":{"android":"levelo://app?vid=52f1836d-392d-4622-a275-2542bf0d56b3","ios":"levelo://app?vid=52f1836d-392d-4622-a275-2542bf0d56b3"},"vehicle_type_id":"4","last_reported":1726124930,"current_range_meters":27600,"station_id":"ce4bhjp2rcd13ifvqg90","pricing_plan_id":"cebpf4jnsgd1na2vs0mg"},{"bike_id":"ce436c74-8382-49a0-9037-30b6397e19af","system_id":"levelo_inurba_marseille","lat":43.24087,"lon":5.37744,"is_reserved":false,"is_disabled":false,"rental_uris":{"android":"levelo://app?vid=ce436c74-8382-49a0-9037-30b6397e19af","ios":"levelo://app?vid=ce436c74-8382-49a0-9037-30b6397e19af"},"vehicle_type_id":"4","last_reported":1726124930,"current_range_meters":31200,"station_id":"ce4bhnp2rcd13ifvqgvg","pricing_plan_id":"cebpf4jnsgd1na2vs0mg"},{"bike_id":"36f1b8ec-0bfe-4b1b-ace9-e26308dc78a6","system_id":"levelo_inurba_marseille","lat":43.2315,"lon":5.43717,"is_reserved":false,"is_disabled":false,"rental_uris":{"android":"levelo://app?vid=36f1b8ec-0bfe-4b1b-ace9-e26308dc78a6","ios":"levelo://app?vid=36f1b8ec-0bfe-4b1b-ace9-e26308dc78a6"},"vehicle_type_id":"4","last_reported":1726124930,"current_range_meters":4800,"station_id":"ce4bhmp2rcd13ifvqgog","pricing_plan_id":"cebpf4jnsgd1na2vs0mg"},{"bike_id":"5a63f196-f7f7-4e13-8b6f-a53931836065","system_id":"levelo_inurba_marseille","lat":43.28937,"lon":5.39639,"is_reserved":false,"is_disabled":false,"rental_uris":{"android":"levelo://app?vid=5a63f196-f7f7-4e13-8b6f-a53931836065","ios":"levelo://app?vid=5a63f196-f7f7-4e13-8b6f-a53931836065"},"vehicle_type_id":"4","last_reported":1726124930,"current_range_meters":22800,"station_id":"ce4bh3h2rcd13ifvqdn0","pricing_plan_id":"cebpf4jnsgd1na2vs0mg"},{"bike_id":"9ef210a0-e69f-4e7c-87d4-f261b78e965e","system_id":"levelo_inurba_marseille","lat":43.30535,"lon":5.38426,"is_reserved":false,"is_disabled":false,"rental_uris":{"android":"levelo://app?vid=9ef210a0-e69f-4e7c-87d4-f261b78e965e","ios":"levelo://app?vid=9ef210a0-e69f-4e7c-87d4-f261b78e965e"},"vehicle_type_id":"4","last_reported":1726124930,"current_range_meters":33200,"station_id":"ce4bgg92rcd13ifvqb30","pricing_plan_id":"cebpf4jnsgd1na2vs0mg"},{"bike_id":"d9e90bf4-e064-45c6-800d-e632f7006f05","system_id":"levelo_inurba_marseille","lat":43.3136,"lon":5.3671,"is_reserved":false,"is_disabled":false,"rental_uris":{"android":"levelo://app?vid=d9e90bf4-e064-45c6-800d-e632f7006f05","ios":"levelo://app?vid=d9e90bf4-e064-45c6-800d-e632f7006f05"},"vehicle_type_id":"4","last_reported":1726124930,"current_range_meters":27600,"station_id":"","pricing_plan_id":"cebpf4jnsgd1na2vs0mg"},{"bike_id":"9e174faa-7d45-43cd-8426-ec9a102f5d04","system_id":"levelo_inurba_marseille","lat":43.23187,"lon":5.39981,"is_reserved":false,"is_disabled":false,"rental_uris":{"android":"levelo://app?vid=9e174faa-7d45-43cd-8426-ec9a102f5d04","ios":"levelo://app?vid=9e174faa-7d45-43cd-8426-ec9a102f5d04"},"vehicle_type_id":"4","last_reported":1726124930,"current_range_meters":38800,"station_id":"ce4bhn12rcd13ifvqgqg","pricing_plan_id":"cebpf4jnsgd1na2vs0mg"},{"bike_id":"ca33d2bf-c9f2-4944-aec8-d1b6204ec37b","system_id":"levelo_inurba_marseille","lat":43.29548,"lon":5.42281,"is_reserved":false,"is_disabled":false,"rental_uris":{"android":"levelo://app?vid=ca33d2bf-c9f2-4944-aec8-d1b6204ec37b","ios":"levelo://app?vid=ca33d2bf-c9f2-4944-aec8-d1b6204ec37b"},"vehicle_type_id":"4","last_reported":1726124930,"current_range_meters":24800,"station_id":"ce4bhph2rcd13ifvqhdg","pricing_plan_id":"cebpf4jnsgd1na2vs0mg"},{"bike_id":"89697812-612a-4075-be97-7b90fbade5ea","system_id":"levelo_inurba_marseille","lat":43.24999,"lon":5.38926,"is_reserved":false,"is_disabled":false,"rental_uris":{"android":"levelo://app?vid=89697812-612a-4075-be97-7b90fbade5ea","ios":"levelo://app?vid=89697812-612a-4075-be97-7b90fbade5ea"},"vehicle_type_id":"4","last_reported":1726124930,"current_range_meters":33600,"station_id":"ce4bhgp2rcd13ifvqfd0","pricing_plan_id":"cebpf4jnsgd1na2vs0mg"},{"bike_id":"e4a5e406-b72a-4f07-9791-f4133102a158","system_id":"levelo_inurba_marseille","lat":43.32487,"lon":5.36567,"is_reserved":false,"is_disabled":false,"rental_uris":{"android":"levelo://app?vid=e4a5e406-b72a-4f07-9791-f4133102a158","ios":"levelo://app?vid=e4a5e406-b72a-4f07-9791-f4133102a158"},"vehicle_type_id":"4","last_reported":1726124930,"current_range_meters":14000,"station_id":"ce4bhs12rcd13ifvqhvg","pricing_plan_id":"cebpf4jnsgd1na2vs0mg"},{"bike_id":"c14e8674-4b11-4bef-acf7-925519f6e5ff","system_id":"levelo_inurba_marseille","lat":43.3014,"lon":5.37418,"is_reserved":false,"is_disabled":false,"rental_uris":{"android":"levelo://app?vid=c14e8674-4b11-4bef-acf7-925519f6e5ff","ios":"levelo://app?vid=c14e8674-4b11-4bef-acf7-925519f6e5ff"},"vehicle_type_id":"4","last_reported":1726124930,"current_range_meters":40000,"station_id":"ce4bgs92rcd13ifvqcc0","pricing_plan_id":"cebpf4jnsgd1na2vs0mg"},{"bike_id":"25d751f7-8dda-4903-bdc2-e23d4d494216","system_id":"levelo_inurba_marseille","lat":43.23155,"lon":5.43703,"is_reserved":false,"is_disabled":false,"rental_uris":{"android":"levelo://app?vid=25d751f7-8dda-4903-bdc2-e23d4d494216","ios":"levelo://app?vid=25d751f7-8dda-4903-bdc2-e23d4d494216"},"vehicle_type_id":"4","last_reported":1726124930,"current_range_meters":4000,"station_id":"ce4bhmp2rcd13ifvqgog","pricing_plan_id":"cebpf4jnsgd1na2vs0mg"},{"bike_id":"7cb7dac9-baac-4728-82e9-9056859e5ebe","system_id":"levelo_inurba_marseille","lat":43.299225,"lon":5.374405,"is_reserved":false,"is_disabled":false,"rental_uris":{"android":"levelo://app?vid=7cb7dac9-baac-4728-82e9-9056859e5ebe","ios":"levelo://app?vid=7cb7dac9-baac-4728-82e9-9056859e5ebe"},"vehicle_type_id":"4","last_reported":1726124930,"current_range_meters":3600,"station_id":"ce4bgjh2rcd13ifvqbg0","pricing_plan_id":"cebpf4jnsgd1na2vs0mg"},{"bike_id":"0c2cf416-853d-481f-a843-c8ef5e4b26a5","system_id":"levelo_inurba_marseille","lat":43.3047,"lon":5.3791,"is_reserved":false,"is_disabled":false,"rental_uris":{"android":"levelo://app?vid=0c2cf416-853d-481f-a843-c8ef5e4b26a5","ios":"levelo://app?vid=0c2cf416-853d-481f-a843-c8ef5e4b26a5"},"vehicle_type_id":"4","last_reported":1726124930,"current_range_meters":25600,"station_id":"ce4bgup2rcd13ifvqcn0","pricing_plan_id":"cebpf4jnsgd1na2vs0mg"},{"bike_id":"81f07673-dfe5-435a-a081-ff73a26a9256","system_id":"levelo_inurba_marseille","lat":43.24079,"lon":5.37754,"is_reserved":false,"is_disabled":false,"rental_uris":{"android":"levelo://app?vid=81f07673-dfe5-435a-a081-ff73a26a9256","ios":"levelo://app?vid=81f07673-dfe5-435a-a081-ff73a26a9256"},"vehicle_type_id":"4","last_reported":1726124930,"current_range_meters":11600,"station_id":"ce4bhnp2rcd13ifvqgvg","pricing_plan_id":"cebpf4jnsgd1na2vs0mg"},{"bike_id":"7ce587b3-eff6-4385-aed2-96acfc8e123a","system_id":"levelo_inurba_marseille","lat":43.30913,"lon":5.36852,"is_reserved":false,"is_disabled":false,"rental_uris":{"android":"levelo://app?vid=7ce587b3-eff6-4385-aed2-96acfc8e123a","ios":"levelo://app?vid=7ce587b3-eff6-4385-aed2-96acfc8e123a"},"vehicle_type_id":"4","last_reported":1726124930,"current_range_meters":35600,"station_id":"ce4bgn92rcd13ifvqbvg","pricing_plan_id":"cebpf4jnsgd1na2vs0mg"},{"bike_id":"fba8f175-7328-4134-90d1-1bb559f8afa7","system_id":"levelo_inurba_marseille","lat":43.33772,"lon":5.37435,"is_reserved":false,"is_disabled":false,"rental_uris":{"android":"levelo://app?vid=fba8f175-7328-4134-90d1-1bb559f8afa7","ios":"levelo://app?vid=fba8f175-7328-4134-90d1-1bb559f8afa7"},"vehicle_type_id":"4","last_reported":1726124930,"current_range_meters":36800,"station_id":"","pricing_plan_id":"cebpf4jnsgd1na2vs0mg"},{"bike_id":"8a3075b8-1b9b-48a9-9df3-b52b60a36057","system_id":"levelo_inurba_marseille","lat":43.27376,"lon":5.36261,"is_reserved":false,"is_disabled":false,"rental_uris":{"android":"levelo://app?vid=8a3075b8-1b9b-48a9-9df3-b52b60a36057","ios":"levelo://app?vid=8a3075b8-1b9b-48a9-9df3-b52b60a36057"},"vehicle_type_id":"4","last_reported":1726124930,"current_range_meters":38800,"station_id":"ce4bhbh2rcd13ifvqeo0","pricing_plan_id":"cebpf4jnsgd1na2vs0mg"},{"bike_id":"d645200a-3d43-4392-b1d5-92a7191e9ca0","system_id":"levelo_inurba_marseille","lat":43.31362,"lon":5.36706,"is_reserved":false,"is_disabled":false,"rental_uris":{"android":"levelo://app?vid=d645200a-3d43-4392-b1d5-92a7191e9ca0","ios":"levelo://app?vid=d645200a-3d43-4392-b1d5-92a7191e9ca0"},"vehicle_type_id":"4","last_reported":1726124930,"current_range_meters":30000,"station_id":"","pricing_plan_id":"cebpf4jnsgd1na2vs0mg"},{"bike_id":"2f51a789-eea0-44dd-98f7-aa48c80747d9","system_id":"levelo_inurba_marseille","lat":43.275,"lon":5.42447,"is_reserved":false,"is_disabled":false,"rental_uris":{"android":"levelo://app?vid=2f51a789-eea0-44dd-98f7-aa48c80747d9","ios":"levelo://app?vid=2f51a789-eea0-44dd-98f7-aa48c80747d9"},"vehicle_type_id":"4","last_reported":1726124930,"current_range_meters":27200,"station_id":"","pricing_plan_id":"cebpf4jnsgd1na2vs0mg"},{"bike_id":"2f10cceb-7c16-4011-b586-4b493cfa220d","system_id":"levelo_inurba_marseille","lat":43.23195,"lon":5.35552,"is_reserved":false,"is_disabled":false,"rental_uris":{"android":"levelo://app?vid=2f10cceb-7c16-4011-b586-4b493cfa220d","ios":"levelo://app?vid=2f10cceb-7c16-4011-b586-4b493cfa220d"},"vehicle_type_id":"4","last_reported":1726124930,"current_range_meters":17200,"station_id":"ce4bhu92rcd13ifvqi70","pricing_plan_id":"cebpf4jnsgd1na2vs0mg"},{"bike_id":"53ebaa0e-ac89-4925-bb1f-3449ad168899","system_id":"levelo_inurba_marseille","lat":43.30146,"lon":5.37412,"is_reserved":false,"is_disabled":false,"rental_uris":{"android":"levelo://app?vid=53ebaa0e-ac89-4925-bb1f-3449ad168899","ios":"levelo://app?vid=53ebaa0e-ac89-4925-bb1f-3449ad168899"},"vehicle_type_id":"4","last_reported":1726124930,"current_range_meters":33600,"station_id":"ce4bgs92rcd13ifvqcc0","pricing_plan_id":"cebpf4jnsgd1na2vs0mg"},{"bike_id":"8e06870f-59b1-4019-8c4e-0fd97a649554","system_id":"levelo_inurba_marseille","lat":43.27999,"lon":5.40015,"is_reserved":false,"is_disabled":false,"rental_uris":{"android":"levelo://app?vid=8e06870f-59b1-4019-8c4e-0fd97a649554","ios":"levelo://app?vid=8e06870f-59b1-4019-8c4e-0fd97a649554"},"vehicle_type_id":"4","last_reported":1726124930,"current_range_meters":10800,"station_id":"ce4bho92rcd13ifvqh4g","pricing_plan_id":"cebpf4jnsgd1na2vs0mg"},{"bike_id":"2c4577b3-3689-495e-a3c3-a78eafd4dc43","system_id":"levelo_inurba_marseille","lat":43.26556,"lon":5.37288,"is_reserved":false,"is_disabled":false,"rental_uris":{"android":"levelo://app?vid=2c4577b3-3689-495e-a3c3-a78eafd4dc43","ios":"levelo://app?vid=2c4577b3-3689-495e-a3c3-a78eafd4dc43"},"vehicle_type_id":"4","last_reported":1726124930,"current_range_meters":28000,"station_id":"ce4bhg12rcd13ifvqf70","pricing_plan_id":"cebpf4jnsgd1na2vs0mg"},{"bike_id":"346a4867-7127-4394-a91f-072ebe2776ab","system_id":"levelo_inurba_marseille","lat":43.292944,"lon":5.401185,"is_reserved":false,"is_disabled":false,"rental_uris":{"android":"levelo://app?vid=346a4867-7127-4394-a91f-072ebe2776ab","ios":"levelo://app?vid=346a4867-7127-4394-a91f-072ebe2776ab"},"vehicle_type_id":"4","last_reported":1726124930,"current_range_meters":30000,"station_id":"ce4bh312rcd13ifvqdk0","pricing_plan_id":"cebpf4jnsgd1na2vs0mg"},{"bike_id":"c3baa9f4-1a80-441e-aae4-6876a6aba553","system_id":"levelo_inurba_marseille","lat":43.32292,"lon":5.38257,"is_reserved":false,"is_disabled":false,"rental_uris":{"android":"levelo://app?vid=c3baa9f4-1a80-441e-aae4-6876a6aba553","ios":"levelo://app?vid=c3baa9f4-1a80-441e-aae4-6876a6aba553"},"vehicle_type_id":"4","last_reported":1726124930,"current_range_meters":36000,"station_id":"ce4bhr12rcd13ifvqhqg","pricing_plan_id":"cebpf4jnsgd1na2vs0mg"},{"bike_id":"23bd3d86-63c7-42b5-a092-7d3c80361062","system_id":"levelo_inurba_marseille","lat":43.30914,"lon":5.36841,"is_reserved":false,"is_disabled":false,"rental_uris":{"android":"levelo://app?vid=23bd3d86-63c7-42b5-a092-7d3c80361062","ios":"levelo://app?vid=23bd3d86-63c7-42b5-a092-7d3c80361062"},"vehicle_type_id":"4","last_reported":1726124930,"current_range_meters":17200,"station_id":"ce4bgn92rcd13ifvqbvg","pricing_plan_id":"cebpf4jnsgd1na2vs0mg"},{"bike_id":"d561423b-c6d2-45b3-a0cc-a68a640706d9","system_id":"levelo_inurba_marseille","lat":43.29842,"lon":5.36264,"is_reserved":false,"is_disabled":false,"rental_uris":{"android":"levelo://app?vid=d561423b-c6d2-45b3-a0cc-a68a640706d9","ios":"levelo://app?vid=d561423b-c6d2-45b3-a0cc-a68a640706d9"},"vehicle_type_id":"4","last_reported":1726124930,"current_range_meters":20400,"station_id":"ce4bgpp2rcd13ifvqc3g","pricing_plan_id":"cebpf4jnsgd1na2vs0mg"},{"bike_id":"90d2ae2a-3f15-4312-bd91-fd2f61cefe49","system_id":"levelo_inurba_marseille","lat":43.325378,"lon":5.414267,"is_reserved":false,"is_disabled":false,"rental_uris":{"android":"levelo://app?vid=90d2ae2a-3f15-4312-bd91-fd2f61cefe49","ios":"levelo://app?vid=90d2ae2a-3f15-4312-bd91-fd2f61cefe49"},"vehicle_type_id":"4","last_reported":1726124930,"current_range_meters":23200,"station_id":"ce4bhq12rcd13ifvqhhg","pricing_plan_id":"cebpf4jnsgd1na2vs0mg"},{"bike_id":"d970b38c-7387-43bd-989f-d6f74d17f57e","system_id":"levelo_inurba_marseille","lat":43.30537,"lon":5.36545,"is_reserved":false,"is_disabled":false,"rental_uris":{"android":"levelo://app?vid=d970b38c-7387-43bd-989f-d6f74d17f57e","ios":"levelo://app?vid=d970b38c-7387-43bd-989f-d6f74d17f57e"},"vehicle_type_id":"4","last_reported":1726124930,"current_range_meters":35200,"station_id":"ce4bgs12rcd13ifvqcag","pricing_plan_id":"cebpf4jnsgd1na2vs0mg"},{"bike_id":"d958eab7-a1f6-4e60-85c2-29a1898c5ad2","system_id":"levelo_inurba_marseille","lat":43.24077,"lon":5.37756,"is_reserved":false,"is_disabled":false,"rental_uris":{"android":"levelo://app?vid=d958eab7-a1f6-4e60-85c2-29a1898c5ad2","ios":"levelo://app?vid=d958eab7-a1f6-4e60-85c2-29a1898c5ad2"},"vehicle_type_id":"4","last_reported":1726124930,"current_range_meters":34800,"station_id":"ce4bhnp2rcd13ifvqgvg","pricing_plan_id":"cebpf4jnsgd1na2vs0mg"},{"bike_id":"8e6ba7fb-d1eb-4b20-86cf-c338d9091623","system_id":"levelo_inurba_marseille","lat":43.26203,"lon":5.37925,"is_reserved":false,"is_disabled":false,"rental_uris":{"android":"levelo://app?vid=8e6ba7fb-d1eb-4b20-86cf-c338d9091623","ios":"levelo://app?vid=8e6ba7fb-d1eb-4b20-86cf-c338d9091623"},"vehicle_type_id":"4","last_reported":1726124930,"current_range_meters":34800,"station_id":"ce4bhjp2rcd13ifvqg90","pricing_plan_id":"cebpf4jnsgd1na2vs0mg"},{"bike_id":"f657fd88-6956-4b9e-987b-07745f983ac4","system_id":"levelo_inurba_marseille","lat":43.28849,"lon":5.35832,"is_reserved":false,"is_disabled":false,"rental_uris":{"android":"levelo://app?vid=f657fd88-6956-4b9e-987b-07745f983ac4","ios":"levelo://app?vid=f657fd88-6956-4b9e-987b-07745f983ac4"},"vehicle_type_id":"4","last_reported":1726124930,"current_range_meters":26800,"station_id":"ce4bhb12rcd13ifvqem0","pricing_plan_id":"cebpf4jnsgd1na2vs0mg"},{"bike_id":"ac61b3d5-4a9a-4e8e-8909-e3b91f61a358","system_id":"levelo_inurba_marseille","lat":43.3028,"lon":5.37701,"is_reserved":false,"is_disabled":false,"rental_uris":{"android":"levelo://app?vid=ac61b3d5-4a9a-4e8e-8909-e3b91f61a358","ios":"levelo://app?vid=ac61b3d5-4a9a-4e8e-8909-e3b91f61a358"},"vehicle_type_id":"4","last_reported":1726124930,"current_range_meters":22800,"station_id":"ce4bguh2rcd13ifvqcj0","pricing_plan_id":"cebpf4jnsgd1na2vs0mg"},{"bike_id":"dd99ab3d-cb76-4b60-b553-275a65eef40e","system_id":"levelo_inurba_marseille","lat":43.25936,"lon":5.40908,"is_reserved":false,"is_disabled":false,"rental_uris":{"android":"levelo://app?vid=dd99ab3d-cb76-4b60-b553-275a65eef40e","ios":"levelo://app?vid=dd99ab3d-cb76-4b60-b553-275a65eef40e"},"vehicle_type_id":"4","last_reported":1726124930,"current_range_meters":34000,"station_id":"ce4bhm92rcd13ifvqglg","pricing_plan_id":"cebpf4jnsgd1na2vs0mg"},{"bike_id":"a794bbd9-e83e-4910-83a4-566ea7e762eb","system_id":"levelo_inurba_marseille","lat":43.24995,"lon":5.38935,"is_reserved":false,"is_disabled":false,"rental_uris":{"android":"levelo://app?vid=a794bbd9-e83e-4910-83a4-566ea7e762eb","ios":"levelo://app?vid=a794bbd9-e83e-4910-83a4-566ea7e762eb"},"vehicle_type_id":"4","last_reported":1726124930,"current_range_meters":8000,"station_id":"ce4bhgp2rcd13ifvqfd0","pricing_plan_id":"cebpf4jnsgd1na2vs0mg"},{"bike_id":"df071e90-56a8-4cf3-a7d6-f5bb1dc1591e","system_id":"levelo_inurba_marseille","lat":43.30495,"lon":5.3678,"is_reserved":false,"is_disabled":false,"rental_uris":{"android":"levelo://app?vid=df071e90-56a8-4cf3-a7d6-f5bb1dc1591e","ios":"levelo://app?vid=df071e90-56a8-4cf3-a7d6-f5bb1dc1591e"},"vehicle_type_id":"4","last_reported":1726124930,"current_range_meters":26000,"station_id":"ce4bgrp2rcd13ifvqc9g","pricing_plan_id":"cebpf4jnsgd1na2vs0mg"},{"bike_id":"52b1637a-8ab4-4195-a7c9-3937f2702917","system_id":"levelo_inurba_marseille","lat":43.29923,"lon":5.37468,"is_reserved":false,"is_disabled":false,"rental_uris":{"android":"levelo://app?vid=52b1637a-8ab4-4195-a7c9-3937f2702917","ios":"levelo://app?vid=52b1637a-8ab4-4195-a7c9-3937f2702917"},"vehicle_type_id":"4","last_reported":1726124930,"current_range_meters":12000,"station_id":"ce4bgjh2rcd13ifvqbg0","pricing_plan_id":"cebpf4jnsgd1na2vs0mg"},{"bike_id":"e4ec4183-1a99-4648-ad08-a8dade0ae11f","system_id":"levelo_inurba_marseille","lat":43.23159,"lon":5.39998,"is_reserved":false,"is_disabled":false,"rental_uris":{"android":"levelo://app?vid=e4ec4183-1a99-4648-ad08-a8dade0ae11f","ios":"levelo://app?vid=e4ec4183-1a99-4648-ad08-a8dade0ae11f"},"vehicle_type_id":"4","last_reported":1726124930,"current_range_meters":36400,"station_id":"ce4bhn12rcd13ifvqgqg","pricing_plan_id":"cebpf4jnsgd1na2vs0mg"},{"bike_id":"b8324de4-567a-4314-b3f9-5495bd79ec2e","system_id":"levelo_inurba_marseille","lat":43.27069,"lon":5.42278,"is_reserved":false,"is_disabled":false,"rental_uris":{"android":"levelo://app?vid=b8324de4-567a-4314-b3f9-5495bd79ec2e","ios":"levelo://app?vid=b8324de4-567a-4314-b3f9-5495bd79ec2e"},"vehicle_type_id":"4","last_reported":1726124930,"current_range_meters":34000,"station_id":"ce4bhk92rcd13ifvqgb0","pricing_plan_id":"cebpf4jnsgd1na2vs0mg"},{"bike_id":"cb16290f-1b68-4ac4-897a-62170d60528d","system_id":"levelo_inurba_marseille","lat":43.33768,"lon":5.37438,"is_reserved":false,"is_disabled":false,"rental_uris":{"android":"levelo://app?vid=cb16290f-1b68-4ac4-897a-62170d60528d","ios":"levelo://app?vid=cb16290f-1b68-4ac4-897a-62170d60528d"},"vehicle_type_id":"4","last_reported":1726124930,"current_range_meters":34800,"station_id":"","pricing_plan_id":"cebpf4jnsgd1na2vs0mg"},{"bike_id":"b279d8db-d104-4fc0-b94c-7e2dd0443742","system_id":"levelo_inurba_marseille","lat":43.32532,"lon":5.41443,"is_reserved":false,"is_disabled":false,"rental_uris":{"android":"levelo://app?vid=b279d8db-d104-4fc0-b94c-7e2dd0443742","ios":"levelo://app?vid=b279d8db-d104-4fc0-b94c-7e2dd0443742"},"vehicle_type_id":"4","last_reported":1726124930,"current_range_meters":11600,"station_id":"ce4bhq12rcd13ifvqhhg","pricing_plan_id":"cebpf4jnsgd1na2vs0mg"},{"bike_id":"42c3c439-9a8f-471f-a712-7745f4795fe2","system_id":"levelo_inurba_marseille","lat":43.2454,"lon":5.39527,"is_reserved":false,"is_disabled":false,"rental_uris":{"android":"levelo://app?vid=42c3c439-9a8f-471f-a712-7745f4795fe2","ios":"levelo://app?vid=42c3c439-9a8f-471f-a712-7745f4795fe2"},"vehicle_type_id":"4","last_reported":1726124930,"current_range_meters":6800,"station_id":"ce4bhlp2rcd13ifvqgjg","pricing_plan_id":"cebpf4jnsgd1na2vs0mg"},{"bike_id":"c8d291f1-0c46-4e09-8e79-c7c2d106ea12","system_id":"levelo_inurba_marseille","lat":43.30457,"lon":5.37901,"is_reserved":false,"is_disabled":false,"rental_uris":{"android":"levelo://app?vid=c8d291f1-0c46-4e09-8e79-c7c2d106ea12","ios":"levelo://app?vid=c8d291f1-0c46-4e09-8e79-c7c2d106ea12"},"vehicle_type_id":"4","last_reported":1726124930,"current_range_meters":21600,"station_id":"ce4bgup2rcd13ifvqcn0","pricing_plan_id":"cebpf4jnsgd1na2vs0mg"},{"bike_id":"42f4c576-b9c9-451e-bb09-e9ba24f78231","system_id":"levelo_inurba_marseille","lat":43.24075,"lon":5.37756,"is_reserved":false,"is_disabled":false,"rental_uris":{"android":"levelo://app?vid=42f4c576-b9c9-451e-bb09-e9ba24f78231","ios":"levelo://app?vid=42f4c576-b9c9-451e-bb09-e9ba24f78231"},"vehicle_type_id":"4","last_reported":1726124930,"current_range_meters":35600,"station_id":"ce4bhnp2rcd13ifvqgvg","pricing_plan_id":"cebpf4jnsgd1na2vs0mg"},{"bike_id":"dfd604c4-221b-442d-8f0c-5524a0446526","system_id":"levelo_inurba_marseille","lat":43.30271,"lon":5.37707,"is_reserved":false,"is_disabled":false,"rental_uris":{"android":"levelo://app?vid=dfd604c4-221b-442d-8f0c-5524a0446526","ios":"levelo://app?vid=dfd604c4-221b-442d-8f0c-5524a0446526"},"vehicle_type_id":"4","last_reported":1726124930,"current_range_meters":34000,"station_id":"ce4bguh2rcd13ifvqcj0","pricing_plan_id":"cebpf4jnsgd1na2vs0mg"},{"bike_id":"7d348dd9-aba5-4535-bda9-b52ada6017ef","system_id":"levelo_inurba_marseille","lat":43.26191,"lon":5.37446,"is_reserved":false,"is_disabled":false,"rental_uris":{"android":"levelo://app?vid=7d348dd9-aba5-4535-bda9-b52ada6017ef","ios":"levelo://app?vid=7d348dd9-aba5-4535-bda9-b52ada6017ef"},"vehicle_type_id":"4","last_reported":1726124930,"current_range_meters":38000,"station_id":"ce4bhgp2rcd13ifvqfc0","pricing_plan_id":"cebpf4jnsgd1na2vs0mg"},{"bike_id":"665be21c-e0a7-4fb9-810b-286169028cef","system_id":"levelo_inurba_marseille","lat":43.24074,"lon":5.37751,"is_reserved":false,"is_disabled":false,"rental_uris":{"android":"levelo://app?vid=665be21c-e0a7-4fb9-810b-286169028cef","ios":"levelo://app?vid=665be21c-e0a7-4fb9-810b-286169028cef"},"vehicle_type_id":"4","last_reported":1726124930,"current_range_meters":36000,"station_id":"ce4bhnp2rcd13ifvqgvg","pricing_plan_id":"cebpf4jnsgd1na2vs0mg"},{"bike_id":"e842b449-9d9d-4dc5-85b0-06d4b88f6c0b","system_id":"levelo_inurba_marseille","lat":43.24549,"lon":5.3952,"is_reserved":false,"is_disabled":false,"rental_uris":{"android":"levelo://app?vid=e842b449-9d9d-4dc5-85b0-06d4b88f6c0b","ios":"levelo://app?vid=e842b449-9d9d-4dc5-85b0-06d4b88f6c0b"},"vehicle_type_id":"4","last_reported":1726124930,"current_range_meters":20000,"station_id":"ce4bhlp2rcd13ifvqgjg","pricing_plan_id":"cebpf4jnsgd1na2vs0mg"},{"bike_id":"02964caf-f190-471e-a530-d0fefedd8874","system_id":"levelo_inurba_marseille","lat":43.25932,"lon":5.40911,"is_reserved":false,"is_disabled":false,"rental_uris":{"android":"levelo://app?vid=02964caf-f190-471e-a530-d0fefedd8874","ios":"levelo://app?vid=02964caf-f190-471e-a530-d0fefedd8874"},"vehicle_type_id":"4","last_reported":1726124930,"current_range_meters":28000,"station_id":"ce4bhm92rcd13ifvqglg","pricing_plan_id":"cebpf4jnsgd1na2vs0mg"},{"bike_id":"b380955f-3789-4749-96eb-3f5702510c6a","system_id":"levelo_inurba_marseille","lat":43.33601,"lon":5.41033,"is_reserved":false,"is_disabled":false,"rental_uris":{"android":"levelo://app?vid=b380955f-3789-4749-96eb-3f5702510c6a","ios":"levelo://app?vid=b380955f-3789-4749-96eb-3f5702510c6a"},"vehicle_type_id":"4","last_reported":1726124930,"current_range_meters":40000,"station_id":"ce4bhqh2rcd13ifvqhmg","pricing_plan_id":"cebpf4jnsgd1na2vs0mg"},{"bike_id":"cd2104e9-fe8f-4a8d-a2d7-15eafb601787","system_id":"levelo_inurba_marseille","lat":43.31227,"lon":5.36845,"is_reserved":false,"is_disabled":false,"rental_uris":{"android":"levelo://app?vid=cd2104e9-fe8f-4a8d-a2d7-15eafb601787","ios":"levelo://app?vid=cd2104e9-fe8f-4a8d-a2d7-15eafb601787"},"vehicle_type_id":"4","last_reported":1726124930,"current_range_meters":38400,"station_id":"ce4bgl92rcd13ifvqbq0","pricing_plan_id":"cebpf4jnsgd1na2vs0mg"},{"bike_id":"b29b94f3-0fab-4b8a-8269-ae3cb36ff8e3","system_id":"levelo_inurba_marseille","lat":43.28349,"lon":5.38107,"is_reserved":false,"is_disabled":false,"rental_uris":{"android":"levelo://app?vid=b29b94f3-0fab-4b8a-8269-ae3cb36ff8e3","ios":"levelo://app?vid=b29b94f3-0fab-4b8a-8269-ae3cb36ff8e3"},"vehicle_type_id":"4","last_reported":1726124930,"current_range_meters":39200,"station_id":"ce4bh412rcd13ifvqdr0","pricing_plan_id":"cebpf4jnsgd1na2vs0mg"},{"bike_id":"e2765759-4e07-4974-b8a4-c45e517a9dd8","system_id":"levelo_inurba_marseille","lat":43.26214,"lon":5.37441,"is_reserved":false,"is_disabled":false,"rental_uris":{"android":"levelo://app?vid=e2765759-4e07-4974-b8a4-c45e517a9dd8","ios":"levelo://app?vid=e2765759-4e07-4974-b8a4-c45e517a9dd8"},"vehicle_type_id":"4","last_reported":1726124930,"current_range_meters":35600,"station_id":"ce4bhgp2rcd13ifvqfc0","pricing_plan_id":"cebpf4jnsgd1na2vs0mg"},{"bike_id":"ad293842-a5c3-4176-af30-c4c13092745b","system_id":"levelo_inurba_marseille","lat":43.28155,"lon":5.42638,"is_reserved":false,"is_disabled":false,"rental_uris":{"android":"levelo://app?vid=ad293842-a5c3-4176-af30-c4c13092745b","ios":"levelo://app?vid=ad293842-a5c3-4176-af30-c4c13092745b"},"vehicle_type_id":"4","last_reported":1726124930,"current_range_meters":28800,"station_id":"ce4bhnh2rcd13ifvqgug","pricing_plan_id":"cebpf4jnsgd1na2vs0mg"},{"bike_id":"deaeb920-23ab-4b51-a90a-3a4d369b9959","system_id":"levelo_inurba_marseille","lat":43.26552,"lon":5.37286,"is_reserved":false,"is_disabled":false,"rental_uris":{"android":"levelo://app?vid=deaeb920-23ab-4b51-a90a-3a4d369b9959","ios":"levelo://app?vid=deaeb920-23ab-4b51-a90a-3a4d369b9959"},"vehicle_type_id":"4","last_reported":1726124930,"current_range_meters":14000,"station_id":"ce4bhg12rcd13ifvqf70","pricing_plan_id":"cebpf4jnsgd1na2vs0mg"},{"bike_id":"fb9b5680-8cf2-4c97-8865-8f8c70102b1b","system_id":"levelo_inurba_marseille","lat":43.28613,"lon":5.35104,"is_reserved":false,"is_disabled":false,"rental_uris":{"android":"levelo://app?vid=fb9b5680-8cf2-4c97-8865-8f8c70102b1b","ios":"levelo://app?vid=fb9b5680-8cf2-4c97-8865-8f8c70102b1b"},"vehicle_type_id":"4","last_reported":1726124930,"current_range_meters":27200,"station_id":"ce4bhch2rcd13ifvqeug","pricing_plan_id":"cebpf4jnsgd1na2vs0mg"},{"bike_id":"b32a9a4d-2708-4b1a-907a-90b577567e4c","system_id":"levelo_inurba_marseille","lat":43.31331,"lon":5.36722,"is_reserved":false,"is_disabled":false,"rental_uris":{"android":"levelo://app?vid=b32a9a4d-2708-4b1a-907a-90b577567e4c","ios":"levelo://app?vid=b32a9a4d-2708-4b1a-907a-90b577567e4c"},"vehicle_type_id":"4","last_reported":1726124930,"current_range_meters":22000,"station_id":"","pricing_plan_id":"cebpf4jnsgd1na2vs0mg"},{"bike_id":"279dcc81-7d4f-4186-aa53-0bab692c2390","system_id":"levelo_inurba_marseille","lat":43.30542,"lon":5.38424,"is_reserved":false,"is_disabled":false,"rental_uris":{"android":"levelo://app?vid=279dcc81-7d4f-4186-aa53-0bab692c2390","ios":"levelo://app?vid=279dcc81-7d4f-4186-aa53-0bab692c2390"},"vehicle_type_id":"4","last_reported":1726124930,"current_range_meters":12000,"station_id":"ce4bgg92rcd13ifvqb30","pricing_plan_id":"cebpf4jnsgd1na2vs0mg"},{"bike_id":"7388bcdf-c056-430d-a30d-fc38727e4671","system_id":"levelo_inurba_marseille","lat":43.3153,"lon":5.38028,"is_reserved":false,"is_disabled":false,"rental_uris":{"android":"levelo://app?vid=7388bcdf-c056-430d-a30d-fc38727e4671","ios":"levelo://app?vid=7388bcdf-c056-430d-a30d-fc38727e4671"},"vehicle_type_id":"4","last_reported":1726124930,"current_range_meters":8400,"station_id":"ce4bhsp2rcd13ifvqi50","pricing_plan_id":"cebpf4jnsgd1na2vs0mg"},{"bike_id":"ba72e858-571b-4d91-a29b-a577f810152e","system_id":"levelo_inurba_marseille","lat":43.25727,"lon":5.41104,"is_reserved":false,"is_disabled":false,"rental_uris":{"android":"levelo://app?vid=ba72e858-571b-4d91-a29b-a577f810152e","ios":"levelo://app?vid=ba72e858-571b-4d91-a29b-a577f810152e"},"vehicle_type_id":"4","last_reported":1726124930,"current_range_meters":19600,"station_id":"ce4bhkp2rcd13ifvqgd0","pricing_plan_id":"cebpf4jnsgd1na2vs0mg"},{"bike_id":"8dbdcd08-5777-4453-9969-b641ace2027d","system_id":"levelo_inurba_marseille","lat":43.26775,"lon":5.39472,"is_reserved":false,"is_disabled":false,"rental_uris":{"android":"levelo://app?vid=8dbdcd08-5777-4453-9969-b641ace2027d","ios":"levelo://app?vid=8dbdcd08-5777-4453-9969-b641ace2027d"},"vehicle_type_id":"4","last_reported":1726124930,"current_range_meters":38800,"station_id":"ce4bhh12rcd13ifvqfg0","pricing_plan_id":"cebpf4jnsgd1na2vs0mg"},{"bike_id":"5b447c57-133e-42cd-827f-e526e0bfeef2","system_id":"levelo_inurba_marseille","lat":43.31362,"lon":5.36723,"is_reserved":false,"is_disabled":false,"rental_uris":{"android":"levelo://app?vid=5b447c57-133e-42cd-827f-e526e0bfeef2","ios":"levelo://app?vid=5b447c57-133e-42cd-827f-e526e0bfeef2"},"vehicle_type_id":"4","last_reported":1726124930,"current_range_meters":33600,"station_id":"ce4bgr92rcd13ifvqc6g","pricing_plan_id":"cebpf4jnsgd1na2vs0mg"},{"bike_id":"b339ada7-e3c9-4078-8ab9-62d2173286d7","system_id":"levelo_inurba_marseille","lat":43.30536,"lon":5.36549,"is_reserved":false,"is_disabled":false,"rental_uris":{"android":"levelo://app?vid=b339ada7-e3c9-4078-8ab9-62d2173286d7","ios":"levelo://app?vid=b339ada7-e3c9-4078-8ab9-62d2173286d7"},"vehicle_type_id":"4","last_reported":1726124930,"current_range_meters":25200,"station_id":"ce4bgs12rcd13ifvqcag","pricing_plan_id":"cebpf4jnsgd1na2vs0mg"},{"bike_id":"7a9db6cc-034f-4ca0-a824-db851afb7f24","system_id":"levelo_inurba_marseille","lat":43.31227,"lon":5.36866,"is_reserved":false,"is_disabled":false,"rental_uris":{"android":"levelo://app?vid=7a9db6cc-034f-4ca0-a824-db851afb7f24","ios":"levelo://app?vid=7a9db6cc-034f-4ca0-a824-db851afb7f24"},"vehicle_type_id":"4","last_reported":1726124930,"current_range_meters":28800,"station_id":"ce4bgl92rcd13ifvqbq0","pricing_plan_id":"cebpf4jnsgd1na2vs0mg"},{"bike_id":"8e53a3db-5c9b-4ac0-be14-c84953c51b50","system_id":"levelo_inurba_marseille","lat":43.28346,"lon":5.38104,"is_reserved":false,"is_disabled":false,"rental_uris":{"android":"levelo://app?vid=8e53a3db-5c9b-4ac0-be14-c84953c51b50","ios":"levelo://app?vid=8e53a3db-5c9b-4ac0-be14-c84953c51b50"},"vehicle_type_id":"4","last_reported":1726124930,"current_range_meters":30400,"station_id":"ce4bh412rcd13ifvqdr0","pricing_plan_id":"cebpf4jnsgd1na2vs0mg"},{"bike_id":"a78102a0-bfeb-4bfd-a176-51b3099f4535","system_id":"levelo_inurba_marseille","lat":43.24074,"lon":5.37753,"is_reserved":false,"is_disabled":false,"rental_uris":{"android":"levelo://app?vid=a78102a0-bfeb-4bfd-a176-51b3099f4535","ios":"levelo://app?vid=a78102a0-bfeb-4bfd-a176-51b3099f4535"},"vehicle_type_id":"4","last_reported":1726124930,"current_range_meters":26800,"station_id":"ce4bhnp2rcd13ifvqgvg","pricing_plan_id":"cebpf4jnsgd1na2vs0mg"},{"bike_id":"b3e31451-b409-4829-89f1-b5cfe9fb7e02","system_id":"levelo_inurba_marseille","lat":43.33606,"lon":5.41029,"is_reserved":false,"is_disabled":false,"rental_uris":{"android":"levelo://app?vid=b3e31451-b409-4829-89f1-b5cfe9fb7e02","ios":"levelo://app?vid=b3e31451-b409-4829-89f1-b5cfe9fb7e02"},"vehicle_type_id":"4","last_reported":1726124930,"current_range_meters":36400,"station_id":"ce4bhqh2rcd13ifvqhmg","pricing_plan_id":"cebpf4jnsgd1na2vs0mg"},{"bike_id":"128a2759-2986-4b03-8346-b4f40c82259b","system_id":"levelo_inurba_marseille","lat":43.24812,"lon":5.37463,"is_reserved":false,"is_disabled":false,"rental_uris":{"android":"levelo://app?vid=128a2759-2986-4b03-8346-b4f40c82259b","ios":"levelo://app?vid=128a2759-2986-4b03-8346-b4f40c82259b"},"vehicle_type_id":"4","last_reported":1726124930,"current_range_meters":36400,"station_id":"ce4bhgh2rcd13ifvqfb0","pricing_plan_id":"cebpf4jnsgd1na2vs0mg"},{"bike_id":"614beba6-d97a-4fdf-b745-944c926f65a6","system_id":"levelo_inurba_marseille","lat":43.29233,"lon":5.36053,"is_reserved":false,"is_disabled":false,"rental_uris":{"android":"levelo://app?vid=614beba6-d97a-4fdf-b745-944c926f65a6","ios":"levelo://app?vid=614beba6-d97a-4fdf-b745-944c926f65a6"},"vehicle_type_id":"4","last_reported":1726124930,"current_range_meters":8800,"station_id":"ce4bhbh2rcd13ifvqeqg","pricing_plan_id":"cebpf4jnsgd1na2vs0mg"},{"bike_id":"2cb3d90c-fc9a-4dd1-9dd4-57434ce9a98d","system_id":"levelo_inurba_marseille","lat":43.250031,"lon":5.389162,"is_reserved":false,"is_disabled":false,"rental_uris":{"android":"levelo://app?vid=2cb3d90c-fc9a-4dd1-9dd4-57434ce9a98d","ios":"levelo://app?vid=2cb3d90c-fc9a-4dd1-9dd4-57434ce9a98d"},"vehicle_type_id":"4","last_reported":1726124930,"current_range_meters":24000,"station_id":"ce4bhgp2rcd13ifvqfd0","pricing_plan_id":"cebpf4jnsgd1na2vs0mg"},{"bike_id":"c45eece6-266b-4ac3-948c-78fa647870d7","system_id":"levelo_inurba_marseille","lat":43.26065,"lon":5.39392,"is_reserved":false,"is_disabled":false,"rental_uris":{"android":"levelo://app?vid=c45eece6-266b-4ac3-948c-78fa647870d7","ios":"levelo://app?vid=c45eece6-266b-4ac3-948c-78fa647870d7"},"vehicle_type_id":"4","last_reported":1726124930,"current_range_meters":16400,"station_id":"ce4bhh92rcd13ifvqfj0","pricing_plan_id":"cebpf4jnsgd1na2vs0mg"},{"bike_id":"b5c74026-88c8-4590-abdf-fc90ab245935","system_id":"levelo_inurba_marseille","lat":43.31489,"lon":5.37306,"is_reserved":false,"is_disabled":false,"rental_uris":{"android":"levelo://app?vid=b5c74026-88c8-4590-abdf-fc90ab245935","ios":"levelo://app?vid=b5c74026-88c8-4590-abdf-fc90ab245935"},"vehicle_type_id":"4","last_reported":1726124930,"current_range_meters":33600,"station_id":"ce4bgt12rcd13ifvqcd0","pricing_plan_id":"cebpf4jnsgd1na2vs0mg"},{"bike_id":"29dcaee9-c81a-47dc-8145-4207c42e0a79","system_id":"levelo_inurba_marseille","lat":43.24999,"lon":5.38933,"is_reserved":false,"is_disabled":false,"rental_uris":{"android":"levelo://app?vid=29dcaee9-c81a-47dc-8145-4207c42e0a79","ios":"levelo://app?vid=29dcaee9-c81a-47dc-8145-4207c42e0a79"},"vehicle_type_id":"4","last_reported":1726124930,"current_range_meters":24000,"station_id":"ce4bhgp2rcd13ifvqfd0","pricing_plan_id":"cebpf4jnsgd1na2vs0mg"},{"bike_id":"898f248f-bed4-4f07-af87-c3bf97932698","system_id":"levelo_inurba_marseille","lat":43.29843,"lon":5.36268,"is_reserved":false,"is_disabled":false,"rental_uris":{"android":"levelo://app?vid=898f248f-bed4-4f07-af87-c3bf97932698","ios":"levelo://app?vid=898f248f-bed4-4f07-af87-c3bf97932698"},"vehicle_type_id":"4","last_reported":1726124930,"current_range_meters":31200,"station_id":"ce4bgpp2rcd13ifvqc3g","pricing_plan_id":"cebpf4jnsgd1na2vs0mg"},{"bike_id":"78008eda-3074-4d39-b72a-ad15150719aa","system_id":"levelo_inurba_marseille","lat":43.29789,"lon":5.38121,"is_reserved":false,"is_disabled":false,"rental_uris":{"android":"levelo://app?vid=78008eda-3074-4d39-b72a-ad15150719aa","ios":"levelo://app?vid=78008eda-3074-4d39-b72a-ad15150719aa"},"vehicle_type_id":"4","last_reported":1726124930,"current_range_meters":38800,"station_id":"ce4bgip2rcd13ifvqbb0","pricing_plan_id":"cebpf4jnsgd1na2vs0mg"},{"bike_id":"7467638d-e69b-486f-a102-30f19d08fa1f","system_id":"levelo_inurba_marseille","lat":43.298488,"lon":5.362817,"is_reserved":false,"is_disabled":false,"rental_uris":{"android":"levelo://app?vid=7467638d-e69b-486f-a102-30f19d08fa1f","ios":"levelo://app?vid=7467638d-e69b-486f-a102-30f19d08fa1f"},"vehicle_type_id":"4","last_reported":1726124930,"current_range_meters":25600,"station_id":"ce4bgpp2rcd13ifvqc3g","pricing_plan_id":"cebpf4jnsgd1na2vs0mg"},{"bike_id":"1d8d6d00-6659-420c-ac04-79ef823a7535","system_id":"levelo_inurba_marseille","lat":43.30314,"lon":5.36885,"is_reserved":false,"is_disabled":false,"rental_uris":{"android":"levelo://app?vid=1d8d6d00-6659-420c-ac04-79ef823a7535","ios":"levelo://app?vid=1d8d6d00-6659-420c-ac04-79ef823a7535"},"vehicle_type_id":"4","last_reported":1726124930,"current_range_meters":34800,"station_id":"ce4bgqh2rcd13ifvqc5g","pricing_plan_id":"cebpf4jnsgd1na2vs0mg"},{"bike_id":"39018a78-7a6b-4bb4-b06a-789f1088716a","system_id":"levelo_inurba_marseille","lat":43.3054,"lon":5.36533,"is_reserved":false,"is_disabled":false,"rental_uris":{"android":"levelo://app?vid=39018a78-7a6b-4bb4-b06a-789f1088716a","ios":"levelo://app?vid=39018a78-7a6b-4bb4-b06a-789f1088716a"},"vehicle_type_id":"4","last_reported":1726124930,"current_range_meters":22800,"station_id":"ce4bgs12rcd13ifvqcag","pricing_plan_id":"cebpf4jnsgd1na2vs0mg"},{"bike_id":"a4cc64e6-1763-4bc0-88c9-67055ccb6f9f","system_id":"levelo_inurba_marseille","lat":43.325358,"lon":5.414311,"is_reserved":false,"is_disabled":false,"rental_uris":{"android":"levelo://app?vid=a4cc64e6-1763-4bc0-88c9-67055ccb6f9f","ios":"levelo://app?vid=a4cc64e6-1763-4bc0-88c9-67055ccb6f9f"},"vehicle_type_id":"4","last_reported":1726124930,"current_range_meters":6000,"station_id":"ce4bhq12rcd13ifvqhhg","pricing_plan_id":"cebpf4jnsgd1na2vs0mg"},{"bike_id":"8dff30ed-bea6-490f-9a43-12ef94fb32fc","system_id":"levelo_inurba_marseille","lat":43.29849,"lon":5.3628,"is_reserved":false,"is_disabled":false,"rental_uris":{"android":"levelo://app?vid=8dff30ed-bea6-490f-9a43-12ef94fb32fc","ios":"levelo://app?vid=8dff30ed-bea6-490f-9a43-12ef94fb32fc"},"vehicle_type_id":"4","last_reported":1726124930,"current_range_meters":22000,"station_id":"ce4bgpp2rcd13ifvqc3g","pricing_plan_id":"cebpf4jnsgd1na2vs0mg"},{"bike_id":"2efe19d8-d411-42cd-aac8-19d00c64dea2","system_id":"levelo_inurba_marseille","lat":43.26681,"lon":5.38266,"is_reserved":false,"is_disabled":false,"rental_uris":{"android":"levelo://app?vid=2efe19d8-d411-42cd-aac8-19d00c64dea2","ios":"levelo://app?vid=2efe19d8-d411-42cd-aac8-19d00c64dea2"},"vehicle_type_id":"4","last_reported":1726124930,"current_range_meters":5600,"station_id":"ce4bhg92rcd13ifvqf90","pricing_plan_id":"cebpf4jnsgd1na2vs0mg"},{"bike_id":"dd2d66a6-976d-43e6-83be-d6211ff78acc","system_id":"levelo_inurba_marseille","lat":43.33726,"lon":5.39181,"is_reserved":false,"is_disabled":false,"rental_uris":{"android":"levelo://app?vid=dd2d66a6-976d-43e6-83be-d6211ff78acc","ios":"levelo://app?vid=dd2d66a6-976d-43e6-83be-d6211ff78acc"},"vehicle_type_id":"4","last_reported":1726124930,"current_range_meters":12800,"station_id":"ce4bhr92rcd13ifvqhsg","pricing_plan_id":"cebpf4jnsgd1na2vs0mg"},{"bike_id":"ad08391e-afd4-4a43-b8ed-69db504ec1d5","system_id":"levelo_inurba_marseille","lat":43.29554,"lon":5.4229,"is_reserved":false,"is_disabled":false,"rental_uris":{"android":"levelo://app?vid=ad08391e-afd4-4a43-b8ed-69db504ec1d5","ios":"levelo://app?vid=ad08391e-afd4-4a43-b8ed-69db504ec1d5"},"vehicle_type_id":"4","last_reported":1726124930,"current_range_meters":14800,"station_id":"ce4bhph2rcd13ifvqhdg","pricing_plan_id":"cebpf4jnsgd1na2vs0mg"},{"bike_id":"bc0aec1c-36ca-4914-9a58-92f6597bf3f9","system_id":"levelo_inurba_marseille","lat":43.289726,"lon":5.378307,"is_reserved":false,"is_disabled":false,"rental_uris":{"android":"levelo://app?vid=bc0aec1c-36ca-4914-9a58-92f6597bf3f9","ios":"levelo://app?vid=bc0aec1c-36ca-4914-9a58-92f6597bf3f9"},"vehicle_type_id":"4","last_reported":1726124930,"current_range_meters":4000,"station_id":"ce4bhah2rcd13ifvqej0","pricing_plan_id":"cebpf4jnsgd1na2vs0mg"},{"bike_id":"aefe4269-3d1c-498f-93b0-dded8b035811","system_id":"levelo_inurba_marseille","lat":43.27489,"lon":5.42454,"is_reserved":false,"is_disabled":false,"rental_uris":{"android":"levelo://app?vid=aefe4269-3d1c-498f-93b0-dded8b035811","ios":"levelo://app?vid=aefe4269-3d1c-498f-93b0-dded8b035811"},"vehicle_type_id":"4","last_reported":1726124930,"current_range_meters":9200,"station_id":"ce4bhn92rcd13ifvqgrg","pricing_plan_id":"cebpf4jnsgd1na2vs0mg"},{"bike_id":"d77ab7fd-9bd3-427d-992f-fc0984b68be8","system_id":"levelo_inurba_marseille","lat":43.27068,"lon":5.42278,"is_reserved":false,"is_disabled":false,"rental_uris":{"android":"levelo://app?vid=d77ab7fd-9bd3-427d-992f-fc0984b68be8","ios":"levelo://app?vid=d77ab7fd-9bd3-427d-992f-fc0984b68be8"},"vehicle_type_id":"4","last_reported":1726124930,"current_range_meters":11200,"station_id":"ce4bhk92rcd13ifvqgb0","pricing_plan_id":"cebpf4jnsgd1na2vs0mg"},{"bike_id":"1618dc88-6ab1-4471-be7f-3b1c5095c3c7","system_id":"levelo_inurba_marseille","lat":43.28699,"lon":5.37386,"is_reserved":false,"is_disabled":false,"rental_uris":{"android":"levelo://app?vid=1618dc88-6ab1-4471-be7f-3b1c5095c3c7","ios":"levelo://app?vid=1618dc88-6ab1-4471-be7f-3b1c5095c3c7"},"vehicle_type_id":"4","last_reported":1726124930,"current_range_meters":17600,"station_id":"ce4bh3p2rcd13ifvqdq0","pricing_plan_id":"cebpf4jnsgd1na2vs0mg"},{"bike_id":"ced9f75c-c3d1-4aec-9375-3d993adb7b7f","system_id":"levelo_inurba_marseille","lat":43.26787,"lon":5.39413,"is_reserved":false,"is_disabled":false,"rental_uris":{"android":"levelo://app?vid=ced9f75c-c3d1-4aec-9375-3d993adb7b7f","ios":"levelo://app?vid=ced9f75c-c3d1-4aec-9375-3d993adb7b7f"},"vehicle_type_id":"4","last_reported":1726124930,"current_range_meters":39200,"station_id":"ce4bhh12rcd13ifvqfg0","pricing_plan_id":"cebpf4jnsgd1na2vs0mg"},{"bike_id":"5876c5ef-9fac-478d-bd3c-ea1780c21005","system_id":"levelo_inurba_marseille","lat":43.33755,"lon":5.37446,"is_reserved":false,"is_disabled":false,"rental_uris":{"android":"levelo://app?vid=5876c5ef-9fac-478d-bd3c-ea1780c21005","ios":"levelo://app?vid=5876c5ef-9fac-478d-bd3c-ea1780c21005"},"vehicle_type_id":"4","last_reported":1726124930,"current_range_meters":36000,"station_id":"","pricing_plan_id":"cebpf4jnsgd1na2vs0mg"},{"bike_id":"d32c8681-5c25-4caa-8515-f43cd3d9d0d7","system_id":"levelo_inurba_marseille","lat":43.24082,"lon":5.37745,"is_reserved":false,"is_disabled":false,"rental_uris":{"android":"levelo://app?vid=d32c8681-5c25-4caa-8515-f43cd3d9d0d7","ios":"levelo://app?vid=d32c8681-5c25-4caa-8515-f43cd3d9d0d7"},"vehicle_type_id":"4","last_reported":1726124930,"current_range_meters":27200,"station_id":"ce4bhnp2rcd13ifvqgvg","pricing_plan_id":"cebpf4jnsgd1na2vs0mg"},{"bike_id":"6bdd5edb-41b1-493d-b28b-cd85c3b4335d","system_id":"levelo_inurba_marseille","lat":43.27373,"lon":5.36258,"is_reserved":false,"is_disabled":false,"rental_uris":{"android":"levelo://app?vid=6bdd5edb-41b1-493d-b28b-cd85c3b4335d","ios":"levelo://app?vid=6bdd5edb-41b1-493d-b28b-cd85c3b4335d"},"vehicle_type_id":"4","last_reported":1726124930,"current_range_meters":25600,"station_id":"ce4bhbh2rcd13ifvqeo0","pricing_plan_id":"cebpf4jnsgd1na2vs0mg"},{"bike_id":"908558fc-af51-49be-a019-0e16afa07ae8","system_id":"levelo_inurba_marseille","lat":43.27489,"lon":5.42459,"is_reserved":false,"is_disabled":false,"rental_uris":{"android":"levelo://app?vid=908558fc-af51-49be-a019-0e16afa07ae8","ios":"levelo://app?vid=908558fc-af51-49be-a019-0e16afa07ae8"},"vehicle_type_id":"4","last_reported":1726124930,"current_range_meters":9200,"station_id":"ce4bhn92rcd13ifvqgrg","pricing_plan_id":"cebpf4jnsgd1na2vs0mg"},{"bike_id":"ea089342-7e5a-4518-9e1c-0475d2f9e19e","system_id":"levelo_inurba_marseille","lat":43.30555,"lon":5.36535,"is_reserved":false,"is_disabled":false,"rental_uris":{"android":"levelo://app?vid=ea089342-7e5a-4518-9e1c-0475d2f9e19e","ios":"levelo://app?vid=ea089342-7e5a-4518-9e1c-0475d2f9e19e"},"vehicle_type_id":"4","last_reported":1726124930,"current_range_meters":24800,"station_id":"ce4bgs12rcd13ifvqcag","pricing_plan_id":"cebpf4jnsgd1na2vs0mg"},{"bike_id":"a7d93a31-6c57-4b55-8b32-55e3bf2ba30e","system_id":"levelo_inurba_marseille","lat":43.27492,"lon":5.42448,"is_reserved":false,"is_disabled":false,"rental_uris":{"android":"levelo://app?vid=a7d93a31-6c57-4b55-8b32-55e3bf2ba30e","ios":"levelo://app?vid=a7d93a31-6c57-4b55-8b32-55e3bf2ba30e"},"vehicle_type_id":"4","last_reported":1726124930,"current_range_meters":9200,"station_id":"ce4bhn92rcd13ifvqgrg","pricing_plan_id":"cebpf4jnsgd1na2vs0mg"},{"bike_id":"8c2900ff-896a-4004-bf6e-2b32ae5553f3","system_id":"levelo_inurba_marseille","lat":43.26193,"lon":5.37451,"is_reserved":false,"is_disabled":false,"rental_uris":{"android":"levelo://app?vid=8c2900ff-896a-4004-bf6e-2b32ae5553f3","ios":"levelo://app?vid=8c2900ff-896a-4004-bf6e-2b32ae5553f3"},"vehicle_type_id":"4","last_reported":1726124930,"current_range_meters":35200,"station_id":"ce4bhgp2rcd13ifvqfc0","pricing_plan_id":"cebpf4jnsgd1na2vs0mg"},{"bike_id":"dccadc39-7e75-4ff6-801e-d97b0e1812f2","system_id":"levelo_inurba_marseille","lat":43.33023,"lon":5.39036,"is_reserved":false,"is_disabled":false,"rental_uris":{"android":"levelo://app?vid=dccadc39-7e75-4ff6-801e-d97b0e1812f2","ios":"levelo://app?vid=dccadc39-7e75-4ff6-801e-d97b0e1812f2"},"vehicle_type_id":"4","last_reported":1726124930,"current_range_meters":30000,"station_id":"ce4bhr92rcd13ifvqhrg","pricing_plan_id":"cebpf4jnsgd1na2vs0mg"},{"bike_id":"fdf61fe0-808d-4b3c-8ecf-ba2ce204a4c9","system_id":"levelo_inurba_marseille","lat":43.29608,"lon":5.37727,"is_reserved":false,"is_disabled":false,"rental_uris":{"android":"levelo://app?vid=fdf61fe0-808d-4b3c-8ecf-ba2ce204a4c9","ios":"levelo://app?vid=fdf61fe0-808d-4b3c-8ecf-ba2ce204a4c9"},"vehicle_type_id":"4","last_reported":1726124930,"current_range_meters":28400,"station_id":"ce4bgi92rcd13ifvqb90","pricing_plan_id":"cebpf4jnsgd1na2vs0mg"},{"bike_id":"86bb6ee0-25ac-4065-9d7a-6dac66bf6557","system_id":"levelo_inurba_marseille","lat":43.28617,"lon":5.35099,"is_reserved":false,"is_disabled":false,"rental_uris":{"android":"levelo://app?vid=86bb6ee0-25ac-4065-9d7a-6dac66bf6557","ios":"levelo://app?vid=86bb6ee0-25ac-4065-9d7a-6dac66bf6557"},"vehicle_type_id":"4","last_reported":1726124930,"current_range_meters":31200,"station_id":"ce4bhch2rcd13ifvqeug","pricing_plan_id":"cebpf4jnsgd1na2vs0mg"},{"bike_id":"4b02a7e9-8265-4f92-8a5b-523194dc96fe","system_id":"levelo_inurba_marseille","lat":43.25825,"lon":5.39429,"is_reserved":false,"is_disabled":false,"rental_uris":{"android":"levelo://app?vid=4b02a7e9-8265-4f92-8a5b-523194dc96fe","ios":"levelo://app?vid=4b02a7e9-8265-4f92-8a5b-523194dc96fe"},"vehicle_type_id":"4","last_reported":1726124930,"current_range_meters":28400,"station_id":"ce4bhip2rcd13ifvqft0","pricing_plan_id":"cebpf4jnsgd1na2vs0mg"},{"bike_id":"38a4267e-afcf-4fe8-ba87-50fe34d69141","system_id":"levelo_inurba_marseille","lat":43.296366,"lon":5.40593,"is_reserved":false,"is_disabled":false,"rental_uris":{"android":"levelo://app?vid=38a4267e-afcf-4fe8-ba87-50fe34d69141","ios":"levelo://app?vid=38a4267e-afcf-4fe8-ba87-50fe34d69141"},"vehicle_type_id":"4","last_reported":1726124930,"current_range_meters":34000,"station_id":"ce4bgop2rcd13ifvqc1g","pricing_plan_id":"cebpf4jnsgd1na2vs0mg"},{"bike_id":"dd3fecec-0a50-4eb9-8dfc-5c61faf672e9","system_id":"levelo_inurba_marseille","lat":43.23148,"lon":5.43698,"is_reserved":false,"is_disabled":false,"rental_uris":{"android":"levelo://app?vid=dd3fecec-0a50-4eb9-8dfc-5c61faf672e9","ios":"levelo://app?vid=dd3fecec-0a50-4eb9-8dfc-5c61faf672e9"},"vehicle_type_id":"4","last_reported":1726124930,"current_range_meters":30000,"station_id":"ce4bhmp2rcd13ifvqgog","pricing_plan_id":"cebpf4jnsgd1na2vs0mg"},{"bike_id":"25128c6f-2ef1-4dd4-b689-d7ed582eca15","system_id":"levelo_inurba_marseille","lat":43.2679,"lon":5.39413,"is_reserved":false,"is_disabled":false,"rental_uris":{"android":"levelo://app?vid=25128c6f-2ef1-4dd4-b689-d7ed582eca15","ios":"levelo://app?vid=25128c6f-2ef1-4dd4-b689-d7ed582eca15"},"vehicle_type_id":"4","last_reported":1726124930,"current_range_meters":24800,"station_id":"ce4bhh12rcd13ifvqfg0","pricing_plan_id":"cebpf4jnsgd1na2vs0mg"},{"bike_id":"0ae4c82d-7bf7-4f75-9cfc-82f2792f9ace","system_id":"levelo_inurba_marseille","lat":43.30902,"lon":5.36846,"is_reserved":false,"is_disabled":false,"rental_uris":{"android":"levelo://app?vid=0ae4c82d-7bf7-4f75-9cfc-82f2792f9ace","ios":"levelo://app?vid=0ae4c82d-7bf7-4f75-9cfc-82f2792f9ace"},"vehicle_type_id":"4","last_reported":1726124930,"current_range_meters":17200,"station_id":"ce4bgn92rcd13ifvqbvg","pricing_plan_id":"cebpf4jnsgd1na2vs0mg"},{"bike_id":"7551d42d-8659-416d-896d-f767a7f37efa","system_id":"levelo_inurba_marseille","lat":43.24537,"lon":5.39521,"is_reserved":false,"is_disabled":false,"rental_uris":{"android":"levelo://app?vid=7551d42d-8659-416d-896d-f767a7f37efa","ios":"levelo://app?vid=7551d42d-8659-416d-896d-f767a7f37efa"},"vehicle_type_id":"4","last_reported":1726124930,"current_range_meters":38000,"station_id":"ce4bhlp2rcd13ifvqgjg","pricing_plan_id":"cebpf4jnsgd1na2vs0mg"},{"bike_id":"1293e70f-78fe-4c89-be70-2d287a3073a2","system_id":"levelo_inurba_marseille","lat":43.3047,"lon":5.37905,"is_reserved":false,"is_disabled":false,"rental_uris":{"android":"levelo://app?vid=1293e70f-78fe-4c89-be70-2d287a3073a2","ios":"levelo://app?vid=1293e70f-78fe-4c89-be70-2d287a3073a2"},"vehicle_type_id":"4","last_reported":1726124930,"current_range_meters":8400,"station_id":"ce4bgup2rcd13ifvqcn0","pricing_plan_id":"cebpf4jnsgd1na2vs0mg"},{"bike_id":"fad4f480-5e72-4610-8cac-b1ec2b4dc92e","system_id":"levelo_inurba_marseille","lat":43.33784,"lon":5.3742,"is_reserved":false,"is_disabled":false,"rental_uris":{"android":"levelo://app?vid=fad4f480-5e72-4610-8cac-b1ec2b4dc92e","ios":"levelo://app?vid=fad4f480-5e72-4610-8cac-b1ec2b4dc92e"},"vehicle_type_id":"4","last_reported":1726124930,"current_range_meters":17600,"station_id":"","pricing_plan_id":"cebpf4jnsgd1na2vs0mg"},{"bike_id":"8b8d7222-6586-44f5-bb0a-3e53390cb862","system_id":"levelo_inurba_marseille","lat":43.3361,"lon":5.41039,"is_reserved":false,"is_disabled":false,"rental_uris":{"android":"levelo://app?vid=8b8d7222-6586-44f5-bb0a-3e53390cb862","ios":"levelo://app?vid=8b8d7222-6586-44f5-bb0a-3e53390cb862"},"vehicle_type_id":"4","last_reported":1726124930,"current_range_meters":24800,"station_id":"ce4bhqh2rcd13ifvqhmg","pricing_plan_id":"cebpf4jnsgd1na2vs0mg"},{"bike_id":"f656f169-ab7a-447d-922f-fac2486664b9","system_id":"levelo_inurba_marseille","lat":43.24076,"lon":5.37758,"is_reserved":false,"is_disabled":false,"rental_uris":{"android":"levelo://app?vid=f656f169-ab7a-447d-922f-fac2486664b9","ios":"levelo://app?vid=f656f169-ab7a-447d-922f-fac2486664b9"},"vehicle_type_id":"4","last_reported":1726124930,"current_range_meters":28800,"station_id":"ce4bhnp2rcd13ifvqgvg","pricing_plan_id":"cebpf4jnsgd1na2vs0mg"},{"bike_id":"368d04a0-4bac-4f2a-9d3c-1420da4a7c23","system_id":"levelo_inurba_marseille","lat":43.28148,"lon":5.42652,"is_reserved":false,"is_disabled":false,"rental_uris":{"android":"levelo://app?vid=368d04a0-4bac-4f2a-9d3c-1420da4a7c23","ios":"levelo://app?vid=368d04a0-4bac-4f2a-9d3c-1420da4a7c23"},"vehicle_type_id":"4","last_reported":1726124930,"current_range_meters":38400,"station_id":"ce4bhnh2rcd13ifvqgug","pricing_plan_id":"cebpf4jnsgd1na2vs0mg"},{"bike_id":"bdabe23d-83ad-4a20-849d-27fb0a8cfa45","system_id":"levelo_inurba_marseille","lat":43.30277,"lon":5.37702,"is_reserved":false,"is_disabled":false,"rental_uris":{"android":"levelo://app?vid=bdabe23d-83ad-4a20-849d-27fb0a8cfa45","ios":"levelo://app?vid=bdabe23d-83ad-4a20-849d-27fb0a8cfa45"},"vehicle_type_id":"4","last_reported":1726124930,"current_range_meters":33600,"station_id":"ce4bguh2rcd13ifvqcj0","pricing_plan_id":"cebpf4jnsgd1na2vs0mg"},{"bike_id":"3c51cbb9-4e46-4e56-8647-db01c8c52176","system_id":"levelo_inurba_marseille","lat":43.24181,"lon":5.39725,"is_reserved":false,"is_disabled":false,"rental_uris":{"android":"levelo://app?vid=3c51cbb9-4e46-4e56-8647-db01c8c52176","ios":"levelo://app?vid=3c51cbb9-4e46-4e56-8647-db01c8c52176"},"vehicle_type_id":"4","last_reported":1726124930,"current_range_meters":28000,"station_id":"ce4bhn12rcd13ifvqgpg","pricing_plan_id":"cebpf4jnsgd1na2vs0mg"},{"bike_id":"94d26153-4c06-4e31-ad76-d12d44244a87","system_id":"levelo_inurba_marseille","lat":43.30929,"lon":5.40142,"is_reserved":false,"is_disabled":false,"rental_uris":{"android":"levelo://app?vid=94d26153-4c06-4e31-ad76-d12d44244a87","ios":"levelo://app?vid=94d26153-4c06-4e31-ad76-d12d44244a87"},"vehicle_type_id":"4","last_reported":1726124930,"current_range_meters":33600,"station_id":"ce4bgvp2rcd13ifvqct0","pricing_plan_id":"cebpf4jnsgd1na2vs0mg"},{"bike_id":"35e327a1-1955-4d12-a070-7da01b3f8826","system_id":"levelo_inurba_marseille","lat":43.30911,"lon":5.36844,"is_reserved":false,"is_disabled":false,"rental_uris":{"android":"levelo://app?vid=35e327a1-1955-4d12-a070-7da01b3f8826","ios":"levelo://app?vid=35e327a1-1955-4d12-a070-7da01b3f8826"},"vehicle_type_id":"4","last_reported":1726124930,"current_range_meters":32000,"station_id":"ce4bgn92rcd13ifvqbvg","pricing_plan_id":"cebpf4jnsgd1na2vs0mg"},{"bike_id":"522ce341-0abe-40c5-8aee-032d23d7344a","system_id":"levelo_inurba_marseille","lat":43.26558,"lon":5.39012,"is_reserved":false,"is_disabled":false,"rental_uris":{"android":"levelo://app?vid=522ce341-0abe-40c5-8aee-032d23d7344a","ios":"levelo://app?vid=522ce341-0abe-40c5-8aee-032d23d7344a"},"vehicle_type_id":"4","last_reported":1726124930,"current_range_meters":22000,"station_id":"ce4bhe12rcd13ifvqf30","pricing_plan_id":"cebpf4jnsgd1na2vs0mg"},{"bike_id":"cd4ecec2-24c2-4b1b-b56b-1f713e99a93e","system_id":"levelo_inurba_marseille","lat":43.29622,"lon":5.37152,"is_reserved":false,"is_disabled":false,"rental_uris":{"android":"levelo://app?vid=cd4ecec2-24c2-4b1b-b56b-1f713e99a93e","ios":"levelo://app?vid=cd4ecec2-24c2-4b1b-b56b-1f713e99a93e"},"vehicle_type_id":"4","last_reported":1726124930,"current_range_meters":12400,"station_id":"ce4bgnh2rcd13ifvqc0g","pricing_plan_id":"cebpf4jnsgd1na2vs0mg"},{"bike_id":"aa19fc99-f16a-4819-a418-d51a1a9bdec5","system_id":"levelo_inurba_marseille","lat":43.25506,"lon":5.37643,"is_reserved":false,"is_disabled":false,"rental_uris":{"android":"levelo://app?vid=aa19fc99-f16a-4819-a418-d51a1a9bdec5","ios":"levelo://app?vid=aa19fc99-f16a-4819-a418-d51a1a9bdec5"},"vehicle_type_id":"4","last_reported":1726124930,"current_range_meters":38800,"station_id":"ce4bhh12rcd13ifvqff0","pricing_plan_id":"cebpf4jnsgd1na2vs0mg"},{"bike_id":"1e570e58-0b37-41ec-9326-6a1eb25fcb6e","system_id":"levelo_inurba_marseille","lat":43.32537,"lon":5.41425,"is_reserved":false,"is_disabled":false,"rental_uris":{"android":"levelo://app?vid=1e570e58-0b37-41ec-9326-6a1eb25fcb6e","ios":"levelo://app?vid=1e570e58-0b37-41ec-9326-6a1eb25fcb6e"},"vehicle_type_id":"4","last_reported":1726124930,"current_range_meters":20000,"station_id":"ce4bhq12rcd13ifvqhhg","pricing_plan_id":"cebpf4jnsgd1na2vs0mg"},{"bike_id":"5330d3e0-0ea7-433a-a6aa-756d0786a518","system_id":"levelo_inurba_marseille","lat":43.26066,"lon":5.39395,"is_reserved":false,"is_disabled":false,"rental_uris":{"android":"levelo://app?vid=5330d3e0-0ea7-433a-a6aa-756d0786a518","ios":"levelo://app?vid=5330d3e0-0ea7-433a-a6aa-756d0786a518"},"vehicle_type_id":"4","last_reported":1726124930,"current_range_meters":2800,"station_id":"ce4bhh92rcd13ifvqfj0","pricing_plan_id":"cebpf4jnsgd1na2vs0mg"},{"bike_id":"f0ab1e44-8ac5-4033-a7ac-b3e3da389903","system_id":"levelo_inurba_marseille","lat":43.27069,"lon":5.42272,"is_reserved":false,"is_disabled":false,"rental_uris":{"android":"levelo://app?vid=f0ab1e44-8ac5-4033-a7ac-b3e3da389903","ios":"levelo://app?vid=f0ab1e44-8ac5-4033-a7ac-b3e3da389903"},"vehicle_type_id":"4","last_reported":1726124930,"current_range_meters":38800,"station_id":"ce4bhk92rcd13ifvqgb0","pricing_plan_id":"cebpf4jnsgd1na2vs0mg"},{"bike_id":"c5d6dd9e-0554-4a39-bb64-cae6f8033975","system_id":"levelo_inurba_marseille","lat":43.27501,"lon":5.42449,"is_reserved":false,"is_disabled":false,"rental_uris":{"android":"levelo://app?vid=c5d6dd9e-0554-4a39-bb64-cae6f8033975","ios":"levelo://app?vid=c5d6dd9e-0554-4a39-bb64-cae6f8033975"},"vehicle_type_id":"4","last_reported":1726124930,"current_range_meters":17600,"station_id":"ce4bhn92rcd13ifvqgrg","pricing_plan_id":"cebpf4jnsgd1na2vs0mg"},{"bike_id":"0812723c-bd87-43d9-ba80-42e1368ee507","system_id":"levelo_inurba_marseille","lat":43.25937,"lon":5.409,"is_reserved":false,"is_disabled":false,"rental_uris":{"android":"levelo://app?vid=0812723c-bd87-43d9-ba80-42e1368ee507","ios":"levelo://app?vid=0812723c-bd87-43d9-ba80-42e1368ee507"},"vehicle_type_id":"4","last_reported":1726124930,"current_range_meters":26000,"station_id":"ce4bhm92rcd13ifvqglg","pricing_plan_id":"cebpf4jnsgd1na2vs0mg"},{"bike_id":"534f6dc7-b587-4c11-a5f0-51babe099f5c","system_id":"levelo_inurba_marseille","lat":43.26691,"lon":5.38278,"is_reserved":false,"is_disabled":false,"rental_uris":{"android":"levelo://app?vid=534f6dc7-b587-4c11-a5f0-51babe099f5c","ios":"levelo://app?vid=534f6dc7-b587-4c11-a5f0-51babe099f5c"},"vehicle_type_id":"4","last_reported":1726124930,"current_range_meters":12000,"station_id":"ce4bhg92rcd13ifvqf90","pricing_plan_id":"cebpf4jnsgd1na2vs0mg"},{"bike_id":"3af1db4f-2286-4b22-9dcd-7aef72f41863","system_id":"levelo_inurba_marseille","lat":43.2559,"lon":5.38232,"is_reserved":false,"is_disabled":false,"rental_uris":{"android":"levelo://app?vid=3af1db4f-2286-4b22-9dcd-7aef72f41863","ios":"levelo://app?vid=3af1db4f-2286-4b22-9dcd-7aef72f41863"},"vehicle_type_id":"4","last_reported":1726124930,"current_range_meters":24400,"station_id":"ce4bhih2rcd13ifvqfs0","pricing_plan_id":"cebpf4jnsgd1na2vs0mg"},{"bike_id":"80080152-1a83-40ae-b754-a18a075c6b36","system_id":"levelo_inurba_marseille","lat":43.30536,"lon":5.36536,"is_reserved":false,"is_disabled":false,"rental_uris":{"android":"levelo://app?vid=80080152-1a83-40ae-b754-a18a075c6b36","ios":"levelo://app?vid=80080152-1a83-40ae-b754-a18a075c6b36"},"vehicle_type_id":"4","last_reported":1726124930,"current_range_meters":34800,"station_id":"ce4bgs12rcd13ifvqcag","pricing_plan_id":"cebpf4jnsgd1na2vs0mg"},{"bike_id":"579641ed-2c24-4796-a1d8-c864c4daf845","system_id":"levelo_inurba_marseille","lat":43.33021,"lon":5.39038,"is_reserved":false,"is_disabled":false,"rental_uris":{"android":"levelo://app?vid=579641ed-2c24-4796-a1d8-c864c4daf845","ios":"levelo://app?vid=579641ed-2c24-4796-a1d8-c864c4daf845"},"vehicle_type_id":"4","last_reported":1726124930,"current_range_meters":8400,"station_id":"ce4bhr92rcd13ifvqhrg","pricing_plan_id":"cebpf4jnsgd1na2vs0mg"},{"bike_id":"ecddde5f-2e3f-435c-b4d1-f22228605f5c","system_id":"levelo_inurba_marseille","lat":43.24806,"lon":5.37454,"is_reserved":false,"is_disabled":false,"rental_uris":{"android":"levelo://app?vid=ecddde5f-2e3f-435c-b4d1-f22228605f5c","ios":"levelo://app?vid=ecddde5f-2e3f-435c-b4d1-f22228605f5c"},"vehicle_type_id":"4","last_reported":1726124930,"current_range_meters":16400,"station_id":"ce4bhgh2rcd13ifvqfb0","pricing_plan_id":"cebpf4jnsgd1na2vs0mg"},{"bike_id":"e62d6517-3896-49d9-9c39-1b8177a5b72b","system_id":"levelo_inurba_marseille","lat":43.32537,"lon":5.41425,"is_reserved":false,"is_disabled":false,"rental_uris":{"android":"levelo://app?vid=e62d6517-3896-49d9-9c39-1b8177a5b72b","ios":"levelo://app?vid=e62d6517-3896-49d9-9c39-1b8177a5b72b"},"vehicle_type_id":"4","last_reported":1726124930,"current_range_meters":29600,"station_id":"ce4bhq12rcd13ifvqhhg","pricing_plan_id":"cebpf4jnsgd1na2vs0mg"},{"bike_id":"00c71482-f75f-430c-acd2-8a2ea8fd3dd0","system_id":"levelo_inurba_marseille","lat":43.30453,"lon":5.37903,"is_reserved":false,"is_disabled":false,"rental_uris":{"android":"levelo://app?vid=00c71482-f75f-430c-acd2-8a2ea8fd3dd0","ios":"levelo://app?vid=00c71482-f75f-430c-acd2-8a2ea8fd3dd0"},"vehicle_type_id":"4","last_reported":1726124930,"current_range_meters":29600,"station_id":"ce4bgup2rcd13ifvqcn0","pricing_plan_id":"cebpf4jnsgd1na2vs0mg"},{"bike_id":"f7383583-f6d9-4a1f-9651-744703bbb837","system_id":"levelo_inurba_marseille","lat":43.30794,"lon":5.43526,"is_reserved":false,"is_disabled":false,"rental_uris":{"android":"levelo://app?vid=f7383583-f6d9-4a1f-9651-744703bbb837","ios":"levelo://app?vid=f7383583-f6d9-4a1f-9651-744703bbb837"},"vehicle_type_id":"4","last_reported":1726124930,"current_range_meters":8800,"station_id":"ce4bhph2rcd13ifvqheg","pricing_plan_id":"cebpf4jnsgd1na2vs0mg"},{"bike_id":"429b8040-fede-4277-a8b8-480a97fd3c08","system_id":"levelo_inurba_marseille","lat":43.26215,"lon":5.37442,"is_reserved":false,"is_disabled":false,"rental_uris":{"android":"levelo://app?vid=429b8040-fede-4277-a8b8-480a97fd3c08","ios":"levelo://app?vid=429b8040-fede-4277-a8b8-480a97fd3c08"},"vehicle_type_id":"4","last_reported":1726124930,"current_range_meters":31200,"station_id":"ce4bhgp2rcd13ifvqfc0","pricing_plan_id":"cebpf4jnsgd1na2vs0mg"},{"bike_id":"2cf6c505-4850-445d-aa79-fecfcf094308","system_id":"levelo_inurba_marseille","lat":43.34144,"lon":5.40901,"is_reserved":false,"is_disabled":false,"rental_uris":{"android":"levelo://app?vid=2cf6c505-4850-445d-aa79-fecfcf094308","ios":"levelo://app?vid=2cf6c505-4850-445d-aa79-fecfcf094308"},"vehicle_type_id":"4","last_reported":1726124930,"current_range_meters":36800,"station_id":"ce4bhqh2rcd13ifvqhlg","pricing_plan_id":"cebpf4jnsgd1na2vs0mg"},{"bike_id":"2990fcc6-d23e-44af-b42a-9273d54dc1da","system_id":"levelo_inurba_marseille","lat":43.28929,"lon":5.36407,"is_reserved":false,"is_disabled":false,"rental_uris":{"android":"levelo://app?vid=2990fcc6-d23e-44af-b42a-9273d54dc1da","ios":"levelo://app?vid=2990fcc6-d23e-44af-b42a-9273d54dc1da"},"vehicle_type_id":"4","last_reported":1726124930,"current_range_meters":33600,"station_id":"ce4bhc92rcd13ifvqetg","pricing_plan_id":"cebpf4jnsgd1na2vs0mg"},{"bike_id":"86869976-ecff-4195-bafd-afcf61c729dc","system_id":"levelo_inurba_marseille","lat":43.28152,"lon":5.42644,"is_reserved":false,"is_disabled":false,"rental_uris":{"android":"levelo://app?vid=86869976-ecff-4195-bafd-afcf61c729dc","ios":"levelo://app?vid=86869976-ecff-4195-bafd-afcf61c729dc"},"vehicle_type_id":"4","last_reported":1726124930,"current_range_meters":38800,"station_id":"ce4bhnh2rcd13ifvqgug","pricing_plan_id":"cebpf4jnsgd1na2vs0mg"},{"bike_id":"ca67b363-fb8e-4b7b-8058-52b7e75e6e73","system_id":"levelo_inurba_marseille","lat":43.30529,"lon":5.36544,"is_reserved":false,"is_disabled":false,"rental_uris":{"android":"levelo://app?vid=ca67b363-fb8e-4b7b-8058-52b7e75e6e73","ios":"levelo://app?vid=ca67b363-fb8e-4b7b-8058-52b7e75e6e73"},"vehicle_type_id":"4","last_reported":1726124930,"current_range_meters":39200,"station_id":"ce4bgs12rcd13ifvqcag","pricing_plan_id":"cebpf4jnsgd1na2vs0mg"},{"bike_id":"f4a94560-b74f-49e2-aaa1-40adb5c41a8d","system_id":"levelo_inurba_marseille","lat":43.3122,"lon":5.36864,"is_reserved":false,"is_disabled":false,"rental_uris":{"android":"levelo://app?vid=f4a94560-b74f-49e2-aaa1-40adb5c41a8d","ios":"levelo://app?vid=f4a94560-b74f-49e2-aaa1-40adb5c41a8d"},"vehicle_type_id":"4","last_reported":1726124930,"current_range_meters":27600,"station_id":"ce4bgl92rcd13ifvqbq0","pricing_plan_id":"cebpf4jnsgd1na2vs0mg"},{"bike_id":"dc346b80-33dd-4e8d-bd17-85fcf95d706f","system_id":"levelo_inurba_marseille","lat":43.33607,"lon":5.41026,"is_reserved":false,"is_disabled":false,"rental_uris":{"android":"levelo://app?vid=dc346b80-33dd-4e8d-bd17-85fcf95d706f","ios":"levelo://app?vid=dc346b80-33dd-4e8d-bd17-85fcf95d706f"},"vehicle_type_id":"4","last_reported":1726124930,"current_range_meters":24800,"station_id":"ce4bhqh2rcd13ifvqhmg","pricing_plan_id":"cebpf4jnsgd1na2vs0mg"},{"bike_id":"7d9b015d-b98c-4530-9df1-feb9a2fee4a5","system_id":"levelo_inurba_marseille","lat":43.26027,"lon":5.37556,"is_reserved":false,"is_disabled":false,"rental_uris":{"android":"levelo://app?vid=7d9b015d-b98c-4530-9df1-feb9a2fee4a5","ios":"levelo://app?vid=7d9b015d-b98c-4530-9df1-feb9a2fee4a5"},"vehicle_type_id":"4","last_reported":1726124930,"current_range_meters":35200,"station_id":"ce4bhgh2rcd13ifvqfa0","pricing_plan_id":"cebpf4jnsgd1na2vs0mg"},{"bike_id":"af9421c8-e08e-45c9-9f79-72574fc04e9d","system_id":"levelo_inurba_marseille","lat":43.24165,"lon":5.36391,"is_reserved":false,"is_disabled":false,"rental_uris":{"android":"levelo://app?vid=af9421c8-e08e-45c9-9f79-72574fc04e9d","ios":"levelo://app?vid=af9421c8-e08e-45c9-9f79-72574fc04e9d"},"vehicle_type_id":"4","last_reported":1726124930,"current_range_meters":36400,"station_id":"cpo36qri1sfpv3e86is0","pricing_plan_id":"cebpf4jnsgd1na2vs0mg"},{"bike_id":"a3ee1f0d-3877-41e5-b242-6427a3abb73d","system_id":"levelo_inurba_marseille","lat":43.29551,"lon":5.42277,"is_reserved":false,"is_disabled":false,"rental_uris":{"android":"levelo://app?vid=a3ee1f0d-3877-41e5-b242-6427a3abb73d","ios":"levelo://app?vid=a3ee1f0d-3877-41e5-b242-6427a3abb73d"},"vehicle_type_id":"4","last_reported":1726124930,"current_range_meters":27200,"station_id":"ce4bhph2rcd13ifvqhdg","pricing_plan_id":"cebpf4jnsgd1na2vs0mg"},{"bike_id":"331b41e1-b007-4647-bd50-3ceb4c098820","system_id":"levelo_inurba_marseille","lat":43.2408,"lon":5.37758,"is_reserved":false,"is_disabled":false,"rental_uris":{"android":"levelo://app?vid=331b41e1-b007-4647-bd50-3ceb4c098820","ios":"levelo://app?vid=331b41e1-b007-4647-bd50-3ceb4c098820"},"vehicle_type_id":"4","last_reported":1726124930,"current_range_meters":13600,"station_id":"ce4bhnp2rcd13ifvqgvg","pricing_plan_id":"cebpf4jnsgd1na2vs0mg"},{"bike_id":"c2541d90-6e19-4c5d-abfd-21cc5ba64245","system_id":"levelo_inurba_marseille","lat":43.32536,"lon":5.41429,"is_reserved":false,"is_disabled":false,"rental_uris":{"android":"levelo://app?vid=c2541d90-6e19-4c5d-abfd-21cc5ba64245","ios":"levelo://app?vid=c2541d90-6e19-4c5d-abfd-21cc5ba64245"},"vehicle_type_id":"4","last_reported":1726124930,"current_range_meters":21600,"station_id":"ce4bhq12rcd13ifvqhhg","pricing_plan_id":"cebpf4jnsgd1na2vs0mg"},{"bike_id":"f400d370-a20e-4ced-86f0-64f62510749c","system_id":"levelo_inurba_marseille","lat":43.3237,"lon":5.38926,"is_reserved":false,"is_disabled":false,"rental_uris":{"android":"levelo://app?vid=f400d370-a20e-4ced-86f0-64f62510749c","ios":"levelo://app?vid=f400d370-a20e-4ced-86f0-64f62510749c"},"vehicle_type_id":"4","last_reported":1726124930,"current_range_meters":10800,"station_id":"","pricing_plan_id":"cebpf4jnsgd1na2vs0mg"},{"bike_id":"4ed619e6-0d11-4318-8808-0d4c3d0013bc","system_id":"levelo_inurba_marseille","lat":43.27489,"lon":5.42459,"is_reserved":false,"is_disabled":false,"rental_uris":{"android":"levelo://app?vid=4ed619e6-0d11-4318-8808-0d4c3d0013bc","ios":"levelo://app?vid=4ed619e6-0d11-4318-8808-0d4c3d0013bc"},"vehicle_type_id":"4","last_reported":1726124930,"current_range_meters":12400,"station_id":"ce4bhn92rcd13ifvqgrg","pricing_plan_id":"cebpf4jnsgd1na2vs0mg"},{"bike_id":"3eb582ea-9d41-4a9d-8561-81107fa2fcd0","system_id":"levelo_inurba_marseille","lat":43.27483,"lon":5.42455,"is_reserved":false,"is_disabled":false,"rental_uris":{"android":"levelo://app?vid=3eb582ea-9d41-4a9d-8561-81107fa2fcd0","ios":"levelo://app?vid=3eb582ea-9d41-4a9d-8561-81107fa2fcd0"},"vehicle_type_id":"4","last_reported":1726124930,"current_range_meters":31200,"station_id":"ce4bhn92rcd13ifvqgrg","pricing_plan_id":"cebpf4jnsgd1na2vs0mg"},{"bike_id":"6ca3740b-a088-4bce-b020-11fdd39341cb","system_id":"levelo_inurba_marseille","lat":43.25821,"lon":5.39438,"is_reserved":false,"is_disabled":false,"rental_uris":{"android":"levelo://app?vid=6ca3740b-a088-4bce-b020-11fdd39341cb","ios":"levelo://app?vid=6ca3740b-a088-4bce-b020-11fdd39341cb"},"vehicle_type_id":"4","last_reported":1726124930,"current_range_meters":14400,"station_id":"ce4bhip2rcd13ifvqft0","pricing_plan_id":"cebpf4jnsgd1na2vs0mg"},{"bike_id":"7e13e1ae-66b9-467f-8f4d-a54a20321b12","system_id":"levelo_inurba_marseille","lat":43.32472,"lon":5.36566,"is_reserved":false,"is_disabled":false,"rental_uris":{"android":"levelo://app?vid=7e13e1ae-66b9-467f-8f4d-a54a20321b12","ios":"levelo://app?vid=7e13e1ae-66b9-467f-8f4d-a54a20321b12"},"vehicle_type_id":"4","last_reported":1726124930,"current_range_meters":24000,"station_id":"ce4bhs12rcd13ifvqhvg","pricing_plan_id":"cebpf4jnsgd1na2vs0mg"},