{"last_updated":1751379023,"ttl":60,"version":"2.2","data":{"bikes":[{"bike_id":"3da29fb8-fc97-44c6-b9ac-31dd456b2fd4","system_id":"levelo_inurba_marseille","lat":43.33771,"lon":5.37424,"is_reserved":false,"is_disabled":true,"rental_uris":{"android":"levelo://app?vid=3da29fb8-fc97-44c6-b9ac-31dd456b2fd4","ios":"levelo://app?vid=3da29fb8-fc97-44c6-b9ac-31dd456b2fd4"},"vehicle_type_id":"4","last_reported":1751379024,"current_range_meters":0,"station_id":"","pricing_plan_id":"cebpf4jnsgd1na2vs0mg"},{"bike_id":"01861ad8-a8d7-4be6-816e-651927c87584","system_id":"levelo_inurba_marseille","lat":43.33751,"lon":5.37456,"is_reserved":false,"is_disabled":true,"rental_uris":{"android":"levelo://app?vid=01861ad8-a8d7-4be6-816e-651927c87584","ios":"levelo://app?vid=01861ad8-a8d7-4be6-816e-651927c87584"},"vehicle_type_id":"4","last_reported":1751379024,"current_range_meters":0,"station_id":"","pricing_plan_id":"cebpf4jnsgd1na2vs0mg"},{"bike_id":"3168b9fb-97d2-4a0e-b7ee-673bb8cf7525","system_id":"levelo_inurba_marseille","lat":43.27784,"lon":5.35563,"is_reserved":false,"is_disabled":true,"rental_uris":{"android":"levelo://app?vid=3168b9fb-97d2-4a0e-b7ee-673bb8cf7525","ios":"levelo://app?vid=3168b9fb-97d2-4a0e-b7ee-673bb8cf7525"},"vehicle_type_id":"4","last_reported":1751379024,"current_range_meters":0,"station_id":"","pricing_plan_id":"cebpf4jnsgd1na2vs0mg"},{"bike_id":"1d934d30-6a85-4b30-9a35-9bb4ad4cb2ca","system_id":"levelo_inurba_marseille","lat":43.327292,"lon":5.423498,"is_reserved":false,"is_disabled":true,"rental_uris":{"android":"levelo://app?vid=1d934d30-6a85-4b30-9a35-9bb4ad4cb2ca","ios":"levelo://app?vid=1d934d30-6a85-4b30-9a35-9bb4ad4cb2ca"},"vehicle_type_id":"4","last_reported":1751379024,"current_range_meters":0,"station_id":"","pricing_plan_id":"cebpf4jnsgd1na2vs0mg"},{"bike_id":"2850ea7e-df18-492b-825f-2053f060420f","system_id":"levelo_inurba_marseille","lat":43.29734,"lon":5.38209,"is_reserved":false,"is_disabled":true,"rental_uris":{"android":"levelo://app?vid=2850ea7e-df18-492b-825f-2053f060420f","ios":"levelo://app?vid=2850ea7e-df18-492b-825f-2053f060420f"},"vehicle_type_id":"4","last_reported":1751379024,"current_range_meters":0,"station_id":"","pricing_plan_id":"cebpf4jnsgd1na2vs0mg"},{"bike_id":"3378c13c-e4e0-45be-9bfe-f3a4bc2c600e","system_id":"levelo_inurba_marseille","lat":43.29783,"lon":5.46018,"is_reserved":false,"is_disabled":true,"rental_uris":{"android":"levelo://app?vid=3378c13c-e4e0-45be-9bfe-f3a4bc2c600e","ios":"levelo://app?vid=3378c13c-e4e0-45be-9bfe-f3a4bc2c600e"},"vehicle_type_id":"4","last_reported":1751379024,"current_range_meters":0,"station_id":"","pricing_plan_id":"cebpf4jnsgd1na2vs0mg"},{"bike_id":"2ccccc82-c8a9-4c3b-909d-52c0bf697aa3","system_id":"levelo_inurba_marseille","lat":43.27605,"lon":5.3586,"is_reserved":false,"is_disabled":true,"rental_uris":{"android":"levelo://app?vid=2ccccc82-c8a9-4c3b-909d-52c0bf697aa3","ios":"levelo://app?vid=2ccccc82-c8a9-4c3b-909d-52c0bf697aa3"},"vehicle_type_id":"4","last_reported":1751379024,"current_range_meters":0,"station_id":"","pricing_plan_id":"cebpf4jnsgd1na2vs0mg"},{"bike_id":"4e23a522-1745-493d-ba79-2666579155b6","system_id":"levelo_inurba_marseille","lat":43.307948,"lon":5.376486,"is_reserved":false,"is_disabled":true,"rental_uris":{"android":"levelo://app?vid=4e23a522-1745-493d-ba79-2666579155b6","ios":"levelo://app?vid=4e23a522-1745-493d-ba79-2666579155b6"},"vehicle_type_id":"4","last_reported":1751379024,"current_range_meters":0,"station_id":"","pricing_plan_id":"cebpf4jnsgd1na2vs0mg"},{"bike_id":"c9700359-7f1e-4ea5-8eb5-d9c4ea1b8ef7","system_id":"levelo_inurba_marseille","lat":43.26301,"lon":5.37406,"is_reserved":false,"is_disabled":true,"rental_uris":{"android":"levelo://app?vid=c9700359-7f1e-4ea5-8eb5-d9c4ea1b8ef7","ios":"levelo://app?vid=c9700359-7f1e-4ea5-8eb5-d9c4ea1b8ef7"},"vehicle_type_id":"4","last_reported":1751379024,"current_range_meters":0,"station_id":"","pricing_plan_id":"cebpf4jnsgd1na2vs0mg"},{"bike_id":"3035be0e-7c3d-4f7d-a1cb-7a1af59e497b","system_id":"levelo_inurba_marseille","lat":43.2967,"lon":5.36013,"is_reserved":false,"is_disabled":true,"rental_uris":{"android":"levelo://app?vid=3035be0e-7c3d-4f7d-a1cb-7a1af59e497b","ios":"levelo://app?vid=3035be0e-7c3d-4f7d-a1cb-7a1af59e497b"},"vehicle_type_id":"4","last_reported":1751379024,"current_range_meters":0,"station_id":"","pricing_plan_id":"cebpf4jnsgd1na2vs0mg"},{"bike_id":"21e22604-5e0c-4d30-8948-3b9e973844f0","system_id":"levelo_inurba_marseille","lat":43.30146,"lon":5.3807,"is_reserved":false,"is_disabled":true,"rental_uris":{"android":"levelo://app?vid=21e22604-5e0c-4d30-8948-3b9e973844f0","ios":"levelo://app?vid=21e22604-5e0c-4d30-8948-3b9e973844f0"},"vehicle_type_id":"4","last_reported":1751379024,"current_range_meters":0,"station_id":"ce4bgjp2rcd13ifvqbh0","pricing_plan_id":"cebpf4jnsgd1na2vs0mg"},{"bike_id":"9ffbddd5-da45-477b-a898-10c6c94f1b99","system_id":"levelo_inurba_marseille","lat":43.28478,"lon":5.38433,"is_reserved":false,"is_disabled":true,"rental_uris":{"android":"levelo://app?vid=9ffbddd5-da45-477b-a898-10c6c94f1b99","ios":"levelo://app?vid=9ffbddd5-da45-477b-a898-10c6c94f1b99"},"vehicle_type_id":"4","last_reported":1751379024,"current_range_meters":0,"station_id":"ce4bh512rcd13ifvqe3g","pricing_plan_id":"cebpf4jnsgd1na2vs0mg"},{"bike_id":"994dd081-f238-42ae-abac-6d0c99cc8ee3","system_id":"levelo_inurba_marseille","lat":43.29024,"lon":5.37562,"is_reserved":false,"is_disabled":true,"rental_uris":{"android":"levelo://app?vid=994dd081-f238-42ae-abac-6d0c99cc8ee3","ios":"levelo://app?vid=994dd081-f238-42ae-abac-6d0c99cc8ee3"},"vehicle_type_id":"4","last_reported":1751379024,"current_range_meters":0,"station_id":"ce4bh692rcd13ifvqe90","pricing_plan_id":"cebpf4jnsgd1na2vs0mg"},{"bike_id":"bb99217f-b54c-44c9-b007-c7f9996fde08","system_id":"levelo_inurba_marseille","lat":43.28839,"lon":5.35841,"is_reserved":false,"is_disabled":true,"rental_uris":{"android":"levelo://app?vid=bb99217f-b54c-44c9-b007-c7f9996fde08","ios":"levelo://app?vid=bb99217f-b54c-44c9-b007-c7f9996fde08"},"vehicle_type_id":"4","last_reported":1751379024,"current_range_meters":0,"station_id":"ce4bhb12rcd13ifvqem0","pricing_plan_id":"cebpf4jnsgd1na2vs0mg"},{"bike_id":"3fa3ca48-062b-48a2-ae43-feb1c10d6e4b","system_id":"levelo_inurba_marseille","lat":43.28269,"lon":5.35067,"is_reserved":false,"is_disabled":true,"rental_uris":{"android":"levelo://app?vid=3fa3ca48-062b-48a2-ae43-feb1c10d6e4b","ios":"levelo://app?vid=3fa3ca48-062b-48a2-ae43-feb1c10d6e4b"},"vehicle_type_id":"4","last_reported":1751379024,"current_range_meters":0,"station_id":"ce4bhbp2rcd13ifvqerg","pricing_plan_id":"cebpf4jnsgd1na2vs0mg"},{"bike_id":"be8bf179-54a4-4d94-943d-4dde830ff46d","system_id":"levelo_inurba_marseille","lat":43.29277,"lon":5.36841,"is_reserved":false,"is_disabled":true,"rental_uris":{"android":"levelo://app?vid=be8bf179-54a4-4d94-943d-4dde830ff46d","ios":"levelo://app?vid=be8bf179-54a4-4d94-943d-4dde830ff46d"},"vehicle_type_id":"4","last_reported":1751379024,"current_range_meters":0,"station_id":"ce4bhbp2rcd13ifvqesg","pricing_plan_id":"cebpf4jnsgd1na2vs0mg"},{"bike_id":"d92cac4d-0af8-4290-ab3b-255ed0c4576d","system_id":"levelo_inurba_marseille","lat":43.255,"lon":5.37654,"is_reserved":false,"is_disabled":true,"rental_uris":{"android":"levelo://app?vid=d92cac4d-0af8-4290-ab3b-255ed0c4576d","ios":"levelo://app?vid=d92cac4d-0af8-4290-ab3b-255ed0c4576d"},"vehicle_type_id":"4","last_reported":1751379024,"current_range_meters":0,"station_id":"ce4bhh12rcd13ifvqff0","pricing_plan_id":"cebpf4jnsgd1na2vs0mg"},{"bike_id":"816f05e8-ec23-4bf5-86cb-a39286c04e0e","system_id":"levelo_inurba_marseille","lat":43.24404,"lon":5.37057,"is_reserved":false,"is_disabled":true,"rental_uris":{"android":"levelo://app?vid=816f05e8-ec23-4bf5-86cb-a39286c04e0e","ios":"levelo://app?vid=816f05e8-ec23-4bf5-86cb-a39286c04e0e"},"vehicle_type_id":"4","last_reported":1751379024,"current_range_meters":0,"station_id":"ce4bhhh2rcd13ifvqfk0","pricing_plan_id":"cebpf4jnsgd1na2vs0mg"},{"bike_id":"37552715-d29e-4f5b-b79d-967e2fbfdfe3","system_id":"levelo_inurba_marseille","lat":43.231502,"lon":5.437217,"is_reserved":false,"is_disabled":true,"rental_uris":{"android":"levelo://app?vid=37552715-d29e-4f5b-b79d-967e2fbfdfe3","ios":"levelo://app?vid=37552715-d29e-4f5b-b79d-967e2fbfdfe3"},"vehicle_type_id":"4","last_reported":1751379024,"current_range_meters":0,"station_id":"ce4bhmp2rcd13ifvqgog","pricing_plan_id":"cebpf4jnsgd1na2vs0mg"},{"bike_id":"7c617506-95d5-4b87-8210-9fb58a8633f5","system_id":"levelo_inurba_marseille","lat":43.23146,"lon":5.43729,"is_reserved":false,"is_disabled":true,"rental_uris":{"android":"levelo://app?vid=7c617506-95d5-4b87-8210-9fb58a8633f5","ios":"levelo://app?vid=7c617506-95d5-4b87-8210-9fb58a8633f5"},"vehicle_type_id":"4","last_reported":1751379024,"current_range_meters":0,"station_id":"ce4bhmp2rcd13ifvqgog","pricing_plan_id":"cebpf4jnsgd1na2vs0mg"},{"bike_id":"660d3d60-831e-4822-9001-2a85c84bcca1","system_id":"levelo_inurba_marseille","lat":43.23153,"lon":5.43711,"is_reserved":false,"is_disabled":true,"rental_uris":{"android":"levelo://app?vid=660d3d60-831e-4822-9001-2a85c84bcca1","ios":"levelo://app?vid=660d3d60-831e-4822-9001-2a85c84bcca1"},"vehicle_type_id":"4","last_reported":1751379024,"current_range_meters":0,"station_id":"ce4bhmp2rcd13ifvqgog","pricing_plan_id":"cebpf4jnsgd1na2vs0mg"},{"bike_id":"b25745ce-7c24-4e4d-938b-4339e8175f38","system_id":"levelo_inurba_marseille","lat":43.23194,"lon":5.35551,"is_reserved":false,"is_disabled":true,"rental_uris":{"android":"levelo://app?vid=b25745ce-7c24-4e4d-938b-4339e8175f38","ios":"levelo://app?vid=b25745ce-7c24-4e4d-938b-4339e8175f38"},"vehicle_type_id":"4","last_reported":1751379024,"current_range_meters":0,"station_id":"ce4bhu92rcd13ifvqi70","pricing_plan_id":"cebpf4jnsgd1na2vs0mg"},{"bike_id":"64b1279f-0d7b-40eb-8449-37e325debd41","system_id":"levelo_inurba_marseille","lat":43.23196,"lon":5.35554,"is_reserved":false,"is_disabled":true,"rental_uris":{"android":"levelo://app?vid=64b1279f-0d7b-40eb-8449-37e325debd41","ios":"levelo://app?vid=64b1279f-0d7b-40eb-8449-37e325debd41"},"vehicle_type_id":"4","last_reported":1751379024,"current_range_meters":0,"station_id":"ce4bhu92rcd13ifvqi70","pricing_plan_id":"cebpf4jnsgd1na2vs0mg"},{"bike_id":"9e67eb4a-2020-4c9a-a358-98897cab6d55","system_id":"levelo_inurba_marseille","lat":43.31369,"lon":5.38507,"is_reserved":false,"is_disabled":true,"rental_uris":{"android":"levelo://app?vid=9e67eb4a-2020-4c9a-a358-98897cab6d55","ios":"levelo://app?vid=9e67eb4a-2020-4c9a-a358-98897cab6d55"},"vehicle_type_id":"4","last_reported":1751379024,"current_range_meters":400,"station_id":"ce4bgt92rcd13ifvqcf0","pricing_plan_id":"cebpf4jnsgd1na2vs0mg"},{"bike_id":"f3bb54e5-5710-469b-95d1-519f2df26e28","system_id":"levelo_inurba_marseille","lat":43.30251,"lon":5.38155,"is_reserved":false,"is_disabled":true,"rental_uris":{"android":"levelo://app?vid=f3bb54e5-5710-469b-95d1-519f2df26e28","ios":"levelo://app?vid=f3bb54e5-5710-469b-95d1-519f2df26e28"},"vehicle_type_id":"4","last_reported":1751379024,"current_range_meters":800,"station_id":"","pricing_plan_id":"cebpf4jnsgd1na2vs0mg"},{"bike_id":"46ed2b9f-1912-466e-b039-bc4b03b9c281","system_id":"levelo_inurba_marseille","lat":43.2378,"lon":5.3617,"is_reserved":false,"is_disabled":true,"rental_uris":{"android":"levelo://app?vid=46ed2b9f-1912-466e-b039-bc4b03b9c281","ios":"levelo://app?vid=46ed2b9f-1912-466e-b039-bc4b03b9c281"},"vehicle_type_id":"4","last_reported":1751379024,"current_range_meters":800,"station_id":"","pricing_plan_id":"cebpf4jnsgd1na2vs0mg"},{"bike_id":"d68cbffb-142d-48ec-96fe-d25ca5a579b1","system_id":"levelo_inurba_marseille","lat":43.29526,"lon":5.37504,"is_reserved":false,"is_disabled":true,"rental_uris":{"android":"levelo://app?vid=d68cbffb-142d-48ec-96fe-d25ca5a579b1","ios":"levelo://app?vid=d68cbffb-142d-48ec-96fe-d25ca5a579b1"},"vehicle_type_id":"4","last_reported":1751379024,"current_range_meters":800,"station_id":"ce4bgkp2rcd13ifvqbmg","pricing_plan_id":"cebpf4jnsgd1na2vs0mg"},{"bike_id":"93a8a016-fb9d-49e3-8b66-75d4b33019f2","system_id":"levelo_inurba_marseille","lat":43.23194,"lon":5.3555,"is_reserved":false,"is_disabled":true,"rental_uris":{"android":"levelo://app?vid=93a8a016-fb9d-49e3-8b66-75d4b33019f2","ios":"levelo://app?vid=93a8a016-fb9d-49e3-8b66-75d4b33019f2"},"vehicle_type_id":"4","last_reported":1751379024,"current_range_meters":800,"station_id":"ce4bhu92rcd13ifvqi70","pricing_plan_id":"cebpf4jnsgd1na2vs0mg"},{"bike_id":"aacf0286-b8b3-4dcc-99df-3c0d92efa356","system_id":"levelo_inurba_marseille","lat":43.28706,"lon":5.42503,"is_reserved":false,"is_disabled":true,"rental_uris":{"android":"levelo://app?vid=aacf0286-b8b3-4dcc-99df-3c0d92efa356","ios":"levelo://app?vid=aacf0286-b8b3-4dcc-99df-3c0d92efa356"},"vehicle_type_id":"4","last_reported":1751379024,"current_range_meters":1200,"station_id":"","pricing_plan_id":"cebpf4jnsgd1na2vs0mg"},{"bike_id":"366aaeda-d82e-47fa-bb4a-d581aed41099","system_id":"levelo_inurba_marseille","lat":43.29824,"lon":5.38277,"is_reserved":false,"is_disabled":true,"rental_uris":{"android":"levelo://app?vid=366aaeda-d82e-47fa-bb4a-d581aed41099","ios":"levelo://app?vid=366aaeda-d82e-47fa-bb4a-d581aed41099"},"vehicle_type_id":"4","last_reported":1751379024,"current_range_meters":1200,"station_id":"","pricing_plan_id":"cebpf4jnsgd1na2vs0mg"},{"bike_id":"5d7dd244-9d98-4b19-8976-f87418fea663","system_id":"levelo_inurba_marseille","lat":43.30142,"lon":5.37421,"is_reserved":false,"is_disabled":true,"rental_uris":{"android":"levelo://app?vid=5d7dd244-9d98-4b19-8976-f87418fea663","ios":"levelo://app?vid=5d7dd244-9d98-4b19-8976-f87418fea663"},"vehicle_type_id":"4","last_reported":1751379024,"current_range_meters":1200,"station_id":"ce4bgs92rcd13ifvqcc0","pricing_plan_id":"cebpf4jnsgd1na2vs0mg"},{"bike_id":"1dd34ad1-43db-43eb-9f98-489c702b92fe","system_id":"levelo_inurba_marseille","lat":43.28151,"lon":5.42646,"is_reserved":false,"is_disabled":true,"rental_uris":{"android":"levelo://app?vid=1dd34ad1-43db-43eb-9f98-489c702b92fe","ios":"levelo://app?vid=1dd34ad1-43db-43eb-9f98-489c702b92fe"},"vehicle_type_id":"4","last_reported":1751379024,"current_range_meters":1200,"station_id":"ce4bhnh2rcd13ifvqgug","pricing_plan_id":"cebpf4jnsgd1na2vs0mg"},{"bike_id":"fa73f5a0-0b67-4f78-bb31-5def4f2ff7c9","system_id":"levelo_inurba_marseille","lat":43.2842,"lon":5.37514,"is_reserved":false,"is_disabled":true,"rental_uris":{"android":"levelo://app?vid=fa73f5a0-0b67-4f78-bb31-5def4f2ff7c9","ios":"levelo://app?vid=fa73f5a0-0b67-4f78-bb31-5def4f2ff7c9"},"vehicle_type_id":"4","last_reported":1751379024,"current_range_meters":1600,"station_id":"ce4bh412rcd13ifvqds0","pricing_plan_id":"cebpf4jnsgd1na2vs0mg"},{"bike_id":"f03c7b99-20a2-4f3f-9840-be6b949a5ced","system_id":"levelo_inurba_marseille","lat":43.2928,"lon":5.38424,"is_reserved":false,"is_disabled":true,"rental_uris":{"android":"levelo://app?vid=f03c7b99-20a2-4f3f-9840-be6b949a5ced","ios":"levelo://app?vid=f03c7b99-20a2-4f3f-9840-be6b949a5ced"},"vehicle_type_id":"4","last_reported":1751379024,"current_range_meters":1600,"station_id":"ce4bh692rcd13ifvqea0","pricing_plan_id":"cebpf4jnsgd1na2vs0mg"},{"bike_id":"6346854d-967c-470e-9bcf-0ee9cbb31745","system_id":"levelo_inurba_marseille","lat":43.26899,"lon":5.42041,"is_reserved":false,"is_disabled":true,"rental_uris":{"android":"levelo://app?vid=6346854d-967c-470e-9bcf-0ee9cbb31745","ios":"levelo://app?vid=6346854d-967c-470e-9bcf-0ee9cbb31745"},"vehicle_type_id":"4","last_reported":1751379024,"current_range_meters":2000,"station_id":"","pricing_plan_id":"cebpf4jnsgd1na2vs0mg"},{"bike_id":"8824ae52-47bd-468f-be21-898d1173efa7","system_id":"levelo_inurba_marseille","lat":43.29015,"lon":5.38148,"is_reserved":false,"is_disabled":true,"rental_uris":{"android":"levelo://app?vid=8824ae52-47bd-468f-be21-898d1173efa7","ios":"levelo://app?vid=8824ae52-47bd-468f-be21-898d1173efa7"},"vehicle_type_id":"4","last_reported":1751379024,"current_range_meters":2000,"station_id":"ce4bh4p2rcd13ifvqe1g","pricing_plan_id":"cebpf4jnsgd1na2vs0mg"},{"bike_id":"fe595be8-7202-4822-b93b-2d1265a23644","system_id":"levelo_inurba_marseille","lat":43.3372,"lon":5.39189,"is_reserved":false,"is_disabled":true,"rental_uris":{"android":"levelo://app?vid=fe595be8-7202-4822-b93b-2d1265a23644","ios":"levelo://app?vid=fe595be8-7202-4822-b93b-2d1265a23644"},"vehicle_type_id":"4","last_reported":1751379024,"current_range_meters":2000,"station_id":"ce4bhr92rcd13ifvqhsg","pricing_plan_id":"cebpf4jnsgd1na2vs0mg"},{"bike_id":"dfbe92de-d134-4afd-ac68-d420bfbc26cb","system_id":"levelo_inurba_marseille","lat":43.29003,"lon":5.35607,"is_reserved":false,"is_disabled":false,"rental_uris":{"android":"levelo://app?vid=dfbe92de-d134-4afd-ac68-d420bfbc26cb","ios":"levelo://app?vid=dfbe92de-d134-4afd-ac68-d420bfbc26cb"},"vehicle_type_id":"4","last_reported":1751379024,"current_range_meters":2800,"station_id":"ce4bhb92rcd13ifvqen0","pricing_plan_id":"cebpf4jnsgd1na2vs0mg"},{"bike_id":"1247f6a1-53bc-4fc6-8166-8bb76ad4ea2e","system_id":"levelo_inurba_marseille","lat":43.28081,"lon":5.39663,"is_reserved":false,"is_disabled":false,"rental_uris":{"android":"levelo://app?vid=1247f6a1-53bc-4fc6-8166-8bb76ad4ea2e","ios":"levelo://app?vid=1247f6a1-53bc-4fc6-8166-8bb76ad4ea2e"},"vehicle_type_id":"4","last_reported":1751379024,"current_range_meters":2800,"station_id":"ce4bho12rcd13ifvqh2g","pricing_plan_id":"cebpf4jnsgd1na2vs0mg"},{"bike_id":"2066e932-3005-4aee-a3b5-537d831c96d3","system_id":"levelo_inurba_marseille","lat":43.243909,"lon":5.370665,"is_reserved":false,"is_disabled":false,"rental_uris":{"android":"levelo://app?vid=2066e932-3005-4aee-a3b5-537d831c96d3","ios":"levelo://app?vid=2066e932-3005-4aee-a3b5-537d831c96d3"},"vehicle_type_id":"4","last_reported":1751379024,"current_range_meters":3200,"station_id":"","pricing_plan_id":"cebpf4jnsgd1na2vs0mg"},{"bike_id":"7547e1e4-2d85-4907-971d-6c8e5c4cb529","system_id":"levelo_inurba_marseille","lat":43.2536,"lon":5.37512,"is_reserved":false,"is_disabled":false,"rental_uris":{"android":"levelo://app?vid=7547e1e4-2d85-4907-971d-6c8e5c4cb529","ios":"levelo://app?vid=7547e1e4-2d85-4907-971d-6c8e5c4cb529"},"vehicle_type_id":"4","last_reported":1751379024,"current_range_meters":3200,"station_id":"","pricing_plan_id":"cebpf4jnsgd1na2vs0mg"},{"bike_id":"e5a91c12-a9d1-463a-8abe-d0dd37cf3197","system_id":"levelo_inurba_marseille","lat":43.29804,"lon":5.37751,"is_reserved":false,"is_disabled":false,"rental_uris":{"android":"levelo://app?vid=e5a91c12-a9d1-463a-8abe-d0dd37cf3197","ios":"levelo://app?vid=e5a91c12-a9d1-463a-8abe-d0dd37cf3197"},"vehicle_type_id":"4","last_reported":1751379024,"current_range_meters":3200,"station_id":"","pricing_plan_id":"cebpf4jnsgd1na2vs0mg"},{"bike_id":"e72341e4-c3bb-42ca-956a-916b14a43ee3","system_id":"levelo_inurba_marseille","lat":43.308022,"lon":5.381473,"is_reserved":false,"is_disabled":false,"rental_uris":{"android":"levelo://app?vid=e72341e4-c3bb-42ca-956a-916b14a43ee3","ios":"levelo://app?vid=e72341e4-c3bb-42ca-956a-916b14a43ee3"},"vehicle_type_id":"4","last_reported":1751379024,"current_range_meters":3200,"station_id":"ce4bgt12rcd13ifvqce0","pricing_plan_id":"cebpf4jnsgd1na2vs0mg"},{"bike_id":"2fe07959-978b-4a37-96db-91c8e003c0b9","system_id":"levelo_inurba_marseille","lat":43.30805,"lon":5.38167,"is_reserved":false,"is_disabled":false,"rental_uris":{"android":"levelo://app?vid=2fe07959-978b-4a37-96db-91c8e003c0b9","ios":"levelo://app?vid=2fe07959-978b-4a37-96db-91c8e003c0b9"},"vehicle_type_id":"4","last_reported":1751379024,"current_range_meters":3200,"station_id":"ce4bgt12rcd13ifvqce0","pricing_plan_id":"cebpf4jnsgd1na2vs0mg"},{"bike_id":"43c9a3f6-0008-4d30-80d9-99c00093d23c","system_id":"levelo_inurba_marseille","lat":43.29875,"lon":5.3973,"is_reserved":false,"is_disabled":false,"rental_uris":{"android":"levelo://app?vid=43c9a3f6-0008-4d30-80d9-99c00093d23c","ios":"levelo://app?vid=43c9a3f6-0008-4d30-80d9-99c00093d23c"},"vehicle_type_id":"4","last_reported":1751379024,"current_range_meters":3200,"station_id":"ce4bh0h2rcd13ifvqd50","pricing_plan_id":"cebpf4jnsgd1na2vs0mg"},{"bike_id":"b35f5c11-46f9-46ce-81d6-71b3bd83abbd","system_id":"levelo_inurba_marseille","lat":43.27571,"lon":5.38421,"is_reserved":false,"is_disabled":false,"rental_uris":{"android":"levelo://app?vid=b35f5c11-46f9-46ce-81d6-71b3bd83abbd","ios":"levelo://app?vid=b35f5c11-46f9-46ce-81d6-71b3bd83abbd"},"vehicle_type_id":"4","last_reported":1751379024,"current_range_meters":3200,"station_id":"ce4bhh92rcd13ifvqfi0","pricing_plan_id":"cebpf4jnsgd1na2vs0mg"},{"bike_id":"eab77f98-b3d1-4c81-9017-81b3a5d739b3","system_id":"levelo_inurba_marseille","lat":43.25118,"lon":5.403166,"is_reserved":false,"is_disabled":false,"rental_uris":{"android":"levelo://app?vid=eab77f98-b3d1-4c81-9017-81b3a5d739b3","ios":"levelo://app?vid=eab77f98-b3d1-4c81-9017-81b3a5d739b3"},"vehicle_type_id":"4","last_reported":1751379024,"current_range_meters":3200,"station_id":"ce4bhlh2rcd13ifvqgig","pricing_plan_id":"cebpf4jnsgd1na2vs0mg"},{"bike_id":"fd852a15-c75b-42eb-b289-cd5db9869ef0","system_id":"levelo_inurba_marseille","lat":43.28154,"lon":5.42642,"is_reserved":false,"is_disabled":false,"rental_uris":{"android":"levelo://app?vid=fd852a15-c75b-42eb-b289-cd5db9869ef0","ios":"levelo://app?vid=fd852a15-c75b-42eb-b289-cd5db9869ef0"},"vehicle_type_id":"4","last_reported":1751379024,"current_range_meters":3200,"station_id":"ce4bhnh2rcd13ifvqgug","pricing_plan_id":"cebpf4jnsgd1na2vs0mg"},{"bike_id":"c6a8f2ad-003b-46c5-93bd-0e585344d628","system_id":"levelo_inurba_marseille","lat":43.279093,"lon":5.395781,"is_reserved":false,"is_disabled":false,"rental_uris":{"android":"levelo://app?vid=c6a8f2ad-003b-46c5-93bd-0e585344d628","ios":"levelo://app?vid=c6a8f2ad-003b-46c5-93bd-0e585344d628"},"vehicle_type_id":"4","last_reported":1751379024,"current_range_meters":3600,"station_id":"ce4bhf92rcd13ifvqf40","pricing_plan_id":"cebpf4jnsgd1na2vs0mg"},{"bike_id":"dbb1b3ad-a4b5-4647-a08d-5c04be355c5c","system_id":"levelo_inurba_marseille","lat":43.27208,"lon":5.39174,"is_reserved":false,"is_disabled":false,"rental_uris":{"android":"levelo://app?vid=dbb1b3ad-a4b5-4647-a08d-5c04be355c5c","ios":"levelo://app?vid=dbb1b3ad-a4b5-4647-a08d-5c04be355c5c"},"vehicle_type_id":"4","last_reported":1751379024,"current_range_meters":3600,"station_id":"ce4bhhp2rcd13ifvqfm0","pricing_plan_id":"cebpf4jnsgd1na2vs0mg"},{"bike_id":"cbecfc24-5ce4-44d2-bcdb-8ced60de9d6d","system_id":"levelo_inurba_marseille","lat":43.24185,"lon":5.39737,"is_reserved":false,"is_disabled":false,"rental_uris":{"android":"levelo://app?vid=cbecfc24-5ce4-44d2-bcdb-8ced60de9d6d","ios":"levelo://app?vid=cbecfc24-5ce4-44d2-bcdb-8ced60de9d6d"},"vehicle_type_id":"4","last_reported":1751379024,"current_range_meters":3600,"station_id":"ce4bhn12rcd13ifvqgpg","pricing_plan_id":"cebpf4jnsgd1na2vs0mg"},{"bike_id":"4f246c86-da38-40d0-ae0e-9a78491cc016","system_id":"levelo_inurba_marseille","lat":43.28072,"lon":5.39662,"is_reserved":false,"is_disabled":false,"rental_uris":{"android":"levelo://app?vid=4f246c86-da38-40d0-ae0e-9a78491cc016","ios":"levelo://app?vid=4f246c86-da38-40d0-ae0e-9a78491cc016"},"vehicle_type_id":"4","last_reported":1751379024,"current_range_meters":4000,"station_id":"ce4bho12rcd13ifvqh2g","pricing_plan_id":"cebpf4jnsgd1na2vs0mg"},{"bike_id":"e07e2efe-7ba9-49da-8a9d-baa865b83bb0","system_id":"levelo_inurba_marseille","lat":43.23191,"lon":5.35546,"is_reserved":false,"is_disabled":false,"rental_uris":{"android":"levelo://app?vid=e07e2efe-7ba9-49da-8a9d-baa865b83bb0","ios":"levelo://app?vid=e07e2efe-7ba9-49da-8a9d-baa865b83bb0"},"vehicle_type_id":"4","last_reported":1751379024,"current_range_meters":4000,"station_id":"ce4bhu92rcd13ifvqi70","pricing_plan_id":"cebpf4jnsgd1na2vs0mg"},{"bike_id":"bd9d3462-c56e-4ae3-8b0d-17211ea8a76e","system_id":"levelo_inurba_marseille","lat":43.2848,"lon":5.38408,"is_reserved":false,"is_disabled":false,"rental_uris":{"android":"levelo://app?vid=bd9d3462-c56e-4ae3-8b0d-17211ea8a76e","ios":"levelo://app?vid=bd9d3462-c56e-4ae3-8b0d-17211ea8a76e"},"vehicle_type_id":"4","last_reported":1751379024,"current_range_meters":4400,"station_id":"ce4bh512rcd13ifvqe3g","pricing_plan_id":"cebpf4jnsgd1na2vs0mg"},{"bike_id":"d9903b37-c257-43c5-bd32-dff47bb08ed1","system_id":"levelo_inurba_marseille","lat":43.248163,"lon":5.374664,"is_reserved":false,"is_disabled":false,"rental_uris":{"android":"levelo://app?vid=d9903b37-c257-43c5-bd32-dff47bb08ed1","ios":"levelo://app?vid=d9903b37-c257-43c5-bd32-dff47bb08ed1"},"vehicle_type_id":"4","last_reported":1751379024,"current_range_meters":4400,"station_id":"ce4bhgh2rcd13ifvqfb0","pricing_plan_id":"cebpf4jnsgd1na2vs0mg"},{"bike_id":"15055bb9-69f1-4bc1-83e5-48f8546df35f","system_id":"levelo_inurba_marseille","lat":43.25505,"lon":5.37649,"is_reserved":false,"is_disabled":false,"rental_uris":{"android":"levelo://app?vid=15055bb9-69f1-4bc1-83e5-48f8546df35f","ios":"levelo://app?vid=15055bb9-69f1-4bc1-83e5-48f8546df35f"},"vehicle_type_id":"4","last_reported":1751379024,"current_range_meters":4400,"station_id":"ce4bhh12rcd13ifvqff0","pricing_plan_id":"cebpf4jnsgd1na2vs0mg"},{"bike_id":"11590693-8f59-403f-8233-36266dcb0ddf","system_id":"levelo_inurba_marseille","lat":43.21753,"lon":5.34594,"is_reserved":false,"is_disabled":false,"rental_uris":{"android":"levelo://app?vid=11590693-8f59-403f-8233-36266dcb0ddf","ios":"levelo://app?vid=11590693-8f59-403f-8233-36266dcb0ddf"},"vehicle_type_id":"4","last_reported":1751379024,"current_range_meters":4400,"station_id":"st_cvj6r9ubvosntc0bgbag","pricing_plan_id":"cebpf4jnsgd1na2vs0mg"},{"bike_id":"4eaab12d-95c4-460e-9654-85fb5e830aaa","system_id":"levelo_inurba_marseille","lat":43.28038,"lon":5.3694,"is_reserved":false,"is_disabled":false,"rental_uris":{"android":"levelo://app?vid=4eaab12d-95c4-460e-9654-85fb5e830aaa","ios":"levelo://app?vid=4eaab12d-95c4-460e-9654-85fb5e830aaa"},"vehicle_type_id":"4","last_reported":1751379024,"current_range_meters":4800,"station_id":"ce4bha12rcd13ifvqef0","pricing_plan_id":"cebpf4jnsgd1na2vs0mg"},{"bike_id":"d731d72a-7173-4621-b2ce-b7a7f73efcb3","system_id":"levelo_inurba_marseille","lat":43.25503,"lon":5.37648,"is_reserved":false,"is_disabled":false,"rental_uris":{"android":"levelo://app?vid=d731d72a-7173-4621-b2ce-b7a7f73efcb3","ios":"levelo://app?vid=d731d72a-7173-4621-b2ce-b7a7f73efcb3"},"vehicle_type_id":"4","last_reported":1751379024,"current_range_meters":4800,"station_id":"ce4bhh12rcd13ifvqff0","pricing_plan_id":"cebpf4jnsgd1na2vs0mg"},{"bike_id":"9ede6e0f-1ebc-4195-9eac-b4f2d83ce473","system_id":"levelo_inurba_marseille","lat":43.25719,"lon":5.41111,"is_reserved":false,"is_disabled":false,"rental_uris":{"android":"levelo://app?vid=9ede6e0f-1ebc-4195-9eac-b4f2d83ce473","ios":"levelo://app?vid=9ede6e0f-1ebc-4195-9eac-b4f2d83ce473"},"vehicle_type_id":"4","last_reported":1751379024,"current_range_meters":5600,"station_id":"ce4bhkp2rcd13ifvqgd0","pricing_plan_id":"cebpf4jnsgd1na2vs0mg"},{"bike_id":"d6342b62-f426-498d-88aa-8323e6827c10","system_id":"levelo_inurba_marseille","lat":43.23149,"lon":5.4371,"is_reserved":false,"is_disabled":false,"rental_uris":{"android":"levelo://app?vid=d6342b62-f426-498d-88aa-8323e6827c10","ios":"levelo://app?vid=d6342b62-f426-498d-88aa-8323e6827c10"},"vehicle_type_id":"4","last_reported":1751379024,"current_range_meters":5600,"station_id":"ce4bhmp2rcd13ifvqgog","pricing_plan_id":"cebpf4jnsgd1na2vs0mg"},{"bike_id":"162af4e6-d224-4240-aeac-6cb0ae06de53","system_id":"levelo_inurba_marseille","lat":43.29929,"lon":5.37826,"is_reserved":false,"is_disabled":false,"rental_uris":{"android":"levelo://app?vid=162af4e6-d224-4240-aeac-6cb0ae06de53","ios":"levelo://app?vid=162af4e6-d224-4240-aeac-6cb0ae06de53"},"vehicle_type_id":"4","last_reported":1751379024,"current_range_meters":6000,"station_id":"","pricing_plan_id":"cebpf4jnsgd1na2vs0mg"},{"bike_id":"8a3ec917-52d1-48e2-8a6b-09417714040c","system_id":"levelo_inurba_marseille","lat":43.30541,"lon":5.38425,"is_reserved":false,"is_disabled":false,"rental_uris":{"android":"levelo://app?vid=8a3ec917-52d1-48e2-8a6b-09417714040c","ios":"levelo://app?vid=8a3ec917-52d1-48e2-8a6b-09417714040c"},"vehicle_type_id":"4","last_reported":1751379024,"current_range_meters":6000,"station_id":"ce4bgg92rcd13ifvqb30","pricing_plan_id":"cebpf4jnsgd1na2vs0mg"},{"bike_id":"e9e77f1b-84f6-4dcb-a63d-5d3b144deda2","system_id":"levelo_inurba_marseille","lat":43.30146,"lon":5.38772,"is_reserved":false,"is_disabled":false,"rental_uris":{"android":"levelo://app?vid=e9e77f1b-84f6-4dcb-a63d-5d3b144deda2","ios":"levelo://app?vid=e9e77f1b-84f6-4dcb-a63d-5d3b144deda2"},"vehicle_type_id":"4","last_reported":1751379024,"current_range_meters":6000,"station_id":"ce4bghh2rcd13ifvqb60","pricing_plan_id":"cebpf4jnsgd1na2vs0mg"},{"bike_id":"8a9b2033-a05c-4c19-9e77-673928ef9a1f","system_id":"levelo_inurba_marseille","lat":43.301502,"lon":5.380639,"is_reserved":false,"is_disabled":false,"rental_uris":{"android":"levelo://app?vid=8a9b2033-a05c-4c19-9e77-673928ef9a1f","ios":"levelo://app?vid=8a9b2033-a05c-4c19-9e77-673928ef9a1f"},"vehicle_type_id":"4","last_reported":1751379024,"current_range_meters":6000,"station_id":"ce4bgjp2rcd13ifvqbh0","pricing_plan_id":"cebpf4jnsgd1na2vs0mg"},{"bike_id":"89571b2f-d0be-4d39-9736-2e8bd90b5234","system_id":"levelo_inurba_marseille","lat":43.29531,"lon":5.39386,"is_reserved":false,"is_disabled":false,"rental_uris":{"android":"levelo://app?vid=89571b2f-d0be-4d39-9736-2e8bd90b5234","ios":"levelo://app?vid=89571b2f-d0be-4d39-9736-2e8bd90b5234"},"vehicle_type_id":"4","last_reported":1751379024,"current_range_meters":6000,"station_id":"ce4bh292rcd13ifvqdf0","pricing_plan_id":"cebpf4jnsgd1na2vs0mg"},{"bike_id":"3a50c819-d3ab-4b5e-89d2-f555356f64e7","system_id":"levelo_inurba_marseille","lat":43.318939,"lon":5.407337,"is_reserved":false,"is_disabled":false,"rental_uris":{"android":"levelo://app?vid=3a50c819-d3ab-4b5e-89d2-f555356f64e7","ios":"levelo://app?vid=3a50c819-d3ab-4b5e-89d2-f555356f64e7"},"vehicle_type_id":"4","last_reported":1751379024,"current_range_meters":6000,"station_id":"ce4bhq12rcd13ifvqhig","pricing_plan_id":"cebpf4jnsgd1na2vs0mg"},{"bike_id":"0d8df82f-5038-4f34-9ec9-e01bc5551915","system_id":"levelo_inurba_marseille","lat":43.26211,"lon":5.37438,"is_reserved":false,"is_disabled":false,"rental_uris":{"android":"levelo://app?vid=0d8df82f-5038-4f34-9ec9-e01bc5551915","ios":"levelo://app?vid=0d8df82f-5038-4f34-9ec9-e01bc5551915"},"vehicle_type_id":"4","last_reported":1751379024,"current_range_meters":6400,"station_id":"ce4bhgp2rcd13ifvqfc0","pricing_plan_id":"cebpf4jnsgd1na2vs0mg"},{"bike_id":"1e1cf85f-103a-43d2-8f04-64702e707dfe","system_id":"levelo_inurba_marseille","lat":43.21747,"lon":5.34599,"is_reserved":false,"is_disabled":false,"rental_uris":{"android":"levelo://app?vid=1e1cf85f-103a-43d2-8f04-64702e707dfe","ios":"levelo://app?vid=1e1cf85f-103a-43d2-8f04-64702e707dfe"},"vehicle_type_id":"4","last_reported":1751379024,"current_range_meters":6400,"station_id":"st_cvj6r9ubvosntc0bgbag","pricing_plan_id":"cebpf4jnsgd1na2vs0mg"},{"bike_id":"11c8b587-72b6-4f4a-8513-e5af96fc2e2d","system_id":"levelo_inurba_marseille","lat":43.2756,"lon":5.38431,"is_reserved":false,"is_disabled":false,"rental_uris":{"android":"levelo://app?vid=11c8b587-72b6-4f4a-8513-e5af96fc2e2d","ios":"levelo://app?vid=11c8b587-72b6-4f4a-8513-e5af96fc2e2d"},"vehicle_type_id":"4","last_reported":1751379024,"current_range_meters":6800,"station_id":"ce4bhh92rcd13ifvqfi0","pricing_plan_id":"cebpf4jnsgd1na2vs0mg"},{"bike_id":"eeca0981-6e6b-4cc4-992c-65a8b8bbec4c","system_id":"levelo_inurba_marseille","lat":43.22925,"lon":5.35389,"is_reserved":false,"is_disabled":false,"rental_uris":{"android":"levelo://app?vid=eeca0981-6e6b-4cc4-992c-65a8b8bbec4c","ios":"levelo://app?vid=eeca0981-6e6b-4cc4-992c-65a8b8bbec4c"},"vehicle_type_id":"4","last_reported":1751379024,"current_range_meters":6800,"station_id":"cpo3532slgdg3j2ikp40","pricing_plan_id":"cebpf4jnsgd1na2vs0mg"},{"bike_id":"f5c16f07-bc6f-4121-91a7-5ad90eec4f34","system_id":"levelo_inurba_marseille","lat":43.31189,"lon":5.37347,"is_reserved":false,"is_disabled":false,"rental_uris":{"android":"levelo://app?vid=f5c16f07-bc6f-4121-91a7-5ad90eec4f34","ios":"levelo://app?vid=f5c16f07-bc6f-4121-91a7-5ad90eec4f34"},"vehicle_type_id":"4","last_reported":1751379024,"current_range_meters":7200,"station_id":"","pricing_plan_id":"cebpf4jnsgd1na2vs0mg"},{"bike_id":"f8df2234-66e0-43f3-8e9d-38e442e3776d","system_id":"levelo_inurba_marseille","lat":43.31221,"lon":5.36854,"is_reserved":false,"is_disabled":false,"rental_uris":{"android":"levelo://app?vid=f8df2234-66e0-43f3-8e9d-38e442e3776d","ios":"levelo://app?vid=f8df2234-66e0-43f3-8e9d-38e442e3776d"},"vehicle_type_id":"4","last_reported":1751379024,"current_range_meters":7200,"station_id":"ce4bgl92rcd13ifvqbq0","pricing_plan_id":"cebpf4jnsgd1na2vs0mg"},{"bike_id":"87bedf78-06f7-4637-80a9-2c7cd4059167","system_id":"levelo_inurba_marseille","lat":43.29033,"lon":5.38638,"is_reserved":false,"is_disabled":false,"rental_uris":{"android":"levelo://app?vid=87bedf78-06f7-4637-80a9-2c7cd4059167","ios":"levelo://app?vid=87bedf78-06f7-4637-80a9-2c7cd4059167"},"vehicle_type_id":"4","last_reported":1751379024,"current_range_meters":7200,"station_id":"ce4bh4p2rcd13ifvqe0g","pricing_plan_id":"cebpf4jnsgd1na2vs0mg"},{"bike_id":"85df08e9-9f12-479e-be99-bcda9bd6bc1c","system_id":"levelo_inurba_marseille","lat":43.23967,"lon":5.36625,"is_reserved":false,"is_disabled":false,"rental_uris":{"android":"levelo://app?vid=85df08e9-9f12-479e-be99-bcda9bd6bc1c","ios":"levelo://app?vid=85df08e9-9f12-479e-be99-bcda9bd6bc1c"},"vehicle_type_id":"4","last_reported":1751379024,"current_range_meters":7200,"station_id":"ce4bhi12rcd13ifvqfp0","pricing_plan_id":"cebpf4jnsgd1na2vs0mg"},{"bike_id":"43fcb430-53f7-4349-b49c-62f8e6ea8db4","system_id":"levelo_inurba_marseille","lat":43.284592,"lon":5.43699,"is_reserved":false,"is_disabled":false,"rental_uris":{"android":"levelo://app?vid=43fcb430-53f7-4349-b49c-62f8e6ea8db4","ios":"levelo://app?vid=43fcb430-53f7-4349-b49c-62f8e6ea8db4"},"vehicle_type_id":"4","last_reported":1751379024,"current_range_meters":8000,"station_id":"","pricing_plan_id":"cebpf4jnsgd1na2vs0mg"},{"bike_id":"b05ac08d-847b-4f20-ac36-038a0d69d167","system_id":"levelo_inurba_marseille","lat":43.28129,"lon":5.35854,"is_reserved":false,"is_disabled":false,"rental_uris":{"android":"levelo://app?vid=b05ac08d-847b-4f20-ac36-038a0d69d167","ios":"levelo://app?vid=b05ac08d-847b-4f20-ac36-038a0d69d167"},"vehicle_type_id":"4","last_reported":1751379024,"current_range_meters":8000,"station_id":"","pricing_plan_id":"cebpf4jnsgd1na2vs0mg"},{"bike_id":"438b518e-69f3-42c0-972a-9c89d8526004","system_id":"levelo_inurba_marseille","lat":43.310768,"lon":5.383544,"is_reserved":false,"is_disabled":false,"rental_uris":{"android":"levelo://app?vid=438b518e-69f3-42c0-972a-9c89d8526004","ios":"levelo://app?vid=438b518e-69f3-42c0-972a-9c89d8526004"},"vehicle_type_id":"4","last_reported":1751379024,"current_range_meters":8000,"station_id":"ce4bgv92rcd13ifvqcr0","pricing_plan_id":"cebpf4jnsgd1na2vs0mg"},{"bike_id":"3ca5ed45-691f-4506-b843-0c5b9c5c0a97","system_id":"levelo_inurba_marseille","lat":43.29528,"lon":5.39387,"is_reserved":false,"is_disabled":false,"rental_uris":{"android":"levelo://app?vid=3ca5ed45-691f-4506-b843-0c5b9c5c0a97","ios":"levelo://app?vid=3ca5ed45-691f-4506-b843-0c5b9c5c0a97"},"vehicle_type_id":"4","last_reported":1751379024,"current_range_meters":8000,"station_id":"ce4bh292rcd13ifvqdf0","pricing_plan_id":"cebpf4jnsgd1na2vs0mg"},{"bike_id":"9cbf4a91-c8d8-4ccf-b6f7-d6a35cc74acb","system_id":"levelo_inurba_marseille","lat":43.25009,"lon":5.38913,"is_reserved":false,"is_disabled":false,"rental_uris":{"android":"levelo://app?vid=9cbf4a91-c8d8-4ccf-b6f7-d6a35cc74acb","ios":"levelo://app?vid=9cbf4a91-c8d8-4ccf-b6f7-d6a35cc74acb"},"vehicle_type_id":"4","last_reported":1751379024,"current_range_meters":8000,"station_id":"ce4bhgp2rcd13ifvqfd0","pricing_plan_id":"cebpf4jnsgd1na2vs0mg"},{"bike_id":"5adc0fac-dd1b-4ffc-8b87-69b682910333","system_id":"levelo_inurba_marseille","lat":43.27664,"lon":5.38875,"is_reserved":false,"is_disabled":false,"rental_uris":{"android":"levelo://app?vid=5adc0fac-dd1b-4ffc-8b87-69b682910333","ios":"levelo://app?vid=5adc0fac-dd1b-4ffc-8b87-69b682910333"},"vehicle_type_id":"4","last_reported":1751379024,"current_range_meters":8000,"station_id":"ce4bhi12rcd13ifvqfo0","pricing_plan_id":"cebpf4jnsgd1na2vs0mg"},{"bike_id":"238a8eda-a3e2-4879-bc01-340175e896e0","system_id":"levelo_inurba_marseille","lat":43.24539,"lon":5.39545,"is_reserved":false,"is_disabled":false,"rental_uris":{"android":"levelo://app?vid=238a8eda-a3e2-4879-bc01-340175e896e0","ios":"levelo://app?vid=238a8eda-a3e2-4879-bc01-340175e896e0"},"vehicle_type_id":"4","last_reported":1751379024,"current_range_meters":8000,"station_id":"ce4bhlp2rcd13ifvqgjg","pricing_plan_id":"cebpf4jnsgd1na2vs0mg"},{"bike_id":"6dd0ca80-b64e-4ca2-bd16-7d1f6648edee","system_id":"levelo_inurba_marseille","lat":43.28,"lon":5.40007,"is_reserved":false,"is_disabled":false,"rental_uris":{"android":"levelo://app?vid=6dd0ca80-b64e-4ca2-bd16-7d1f6648edee","ios":"levelo://app?vid=6dd0ca80-b64e-4ca2-bd16-7d1f6648edee"},"vehicle_type_id":"4","last_reported":1751379024,"current_range_meters":8000,"station_id":"ce4bho92rcd13ifvqh4g","pricing_plan_id":"cebpf4jnsgd1na2vs0mg"},{"bike_id":"371eda42-418f-4feb-8ef3-59c807caee57","system_id":"levelo_inurba_marseille","lat":43.31719,"lon":5.42406,"is_reserved":false,"is_disabled":false,"rental_uris":{"android":"levelo://app?vid=371eda42-418f-4feb-8ef3-59c807caee57","ios":"levelo://app?vid=371eda42-418f-4feb-8ef3-59c807caee57"},"vehicle_type_id":"4","last_reported":1751379024,"current_range_meters":8000,"station_id":"ce4bhp92rcd13ifvqhbg","pricing_plan_id":"cebpf4jnsgd1na2vs0mg"},{"bike_id":"9edc0125-be1c-4fb3-baf8-ef4a57c7d128","system_id":"levelo_inurba_marseille","lat":43.296021,"lon":5.377241,"is_reserved":false,"is_disabled":false,"rental_uris":{"android":"levelo://app?vid=9edc0125-be1c-4fb3-baf8-ef4a57c7d128","ios":"levelo://app?vid=9edc0125-be1c-4fb3-baf8-ef4a57c7d128"},"vehicle_type_id":"4","last_reported":1751379024,"current_range_meters":8400,"station_id":"ce4bgi92rcd13ifvqb90","pricing_plan_id":"cebpf4jnsgd1na2vs0mg"},{"bike_id":"b4c7bea2-a4b6-483a-bbf7-d1c248dd2e49","system_id":"levelo_inurba_marseille","lat":43.276195,"lon":5.361064,"is_reserved":false,"is_disabled":false,"rental_uris":{"android":"levelo://app?vid=b4c7bea2-a4b6-483a-bbf7-d1c248dd2e49","ios":"levelo://app?vid=b4c7bea2-a4b6-483a-bbf7-d1c248dd2e49"},"vehicle_type_id":"4","last_reported":1751379024,"current_range_meters":8400,"station_id":"ce4bgj92rcd13ifvqbe0","pricing_plan_id":"cebpf4jnsgd1na2vs0mg"},{"bike_id":"d0c2814f-4f38-4c70-9900-0ac08a877125","system_id":"levelo_inurba_marseille","lat":43.2847,"lon":5.38417,"is_reserved":false,"is_disabled":false,"rental_uris":{"android":"levelo://app?vid=d0c2814f-4f38-4c70-9900-0ac08a877125","ios":"levelo://app?vid=d0c2814f-4f38-4c70-9900-0ac08a877125"},"vehicle_type_id":"4","last_reported":1751379024,"current_range_meters":8400,"station_id":"ce4bh512rcd13ifvqe3g","pricing_plan_id":"cebpf4jnsgd1na2vs0mg"},{"bike_id":"e53cd685-39d1-4c93-8de6-37c882b3b42d","system_id":"levelo_inurba_marseille","lat":43.27382,"lon":5.3625,"is_reserved":false,"is_disabled":false,"rental_uris":{"android":"levelo://app?vid=e53cd685-39d1-4c93-8de6-37c882b3b42d","ios":"levelo://app?vid=e53cd685-39d1-4c93-8de6-37c882b3b42d"},"vehicle_type_id":"4","last_reported":1751379024,"current_range_meters":8800,"station_id":"ce4bhbh2rcd13ifvqeo0","pricing_plan_id":"cebpf4jnsgd1na2vs0mg"},{"bike_id":"860ecc02-a6d5-4fbe-ada6-b9197deada15","system_id":"levelo_inurba_marseille","lat":43.3255,"lon":5.3894,"is_reserved":false,"is_disabled":false,"rental_uris":{"android":"levelo://app?vid=860ecc02-a6d5-4fbe-ada6-b9197deada15","ios":"levelo://app?vid=860ecc02-a6d5-4fbe-ada6-b9197deada15"},"vehicle_type_id":"4","last_reported":1751379024,"current_range_meters":9200,"station_id":"","pricing_plan_id":"cebpf4jnsgd1na2vs0mg"},{"bike_id":"323288d9-bc4a-48fb-9666-330645a07053","system_id":"levelo_inurba_marseille","lat":43.30591,"lon":5.37211,"is_reserved":false,"is_disabled":false,"rental_uris":{"android":"levelo://app?vid=323288d9-bc4a-48fb-9666-330645a07053","ios":"levelo://app?vid=323288d9-bc4a-48fb-9666-330645a07053"},"vehicle_type_id":"4","last_reported":1751379024,"current_range_meters":9200,"station_id":"ce4bgqh2rcd13ifvqc4g","pricing_plan_id":"cebpf4jnsgd1na2vs0mg"},{"bike_id":"aaa86ae1-c78c-464a-bdfd-dbc6011e50c4","system_id":"levelo_inurba_marseille","lat":43.31352,"lon":5.36751,"is_reserved":false,"is_disabled":false,"rental_uris":{"android":"levelo://app?vid=aaa86ae1-c78c-464a-bdfd-dbc6011e50c4","ios":"levelo://app?vid=aaa86ae1-c78c-464a-bdfd-dbc6011e50c4"},"vehicle_type_id":"4","last_reported":1751379024,"current_range_meters":9200,"station_id":"ce4bgr92rcd13ifvqc6g","pricing_plan_id":"cebpf4jnsgd1na2vs0mg"},{"bike_id":"b0b9068a-8f5d-4080-bebf-fd83ac88a02e","system_id":"levelo_inurba_marseille","lat":43.30796,"lon":5.38158,"is_reserved":false,"is_disabled":false,"rental_uris":{"android":"levelo://app?vid=b0b9068a-8f5d-4080-bebf-fd83ac88a02e","ios":"levelo://app?vid=b0b9068a-8f5d-4080-bebf-fd83ac88a02e"},"vehicle_type_id":"4","last_reported":1751379024,"current_range_meters":9200,"station_id":"ce4bgt12rcd13ifvqce0","pricing_plan_id":"cebpf4jnsgd1na2vs0mg"},{"bike_id":"08b84975-b7d2-448d-88b7-aa5c59a5b3b6","system_id":"levelo_inurba_marseille","lat":43.28483,"lon":5.38418,"is_reserved":false,"is_disabled":false,"rental_uris":{"android":"levelo://app?vid=08b84975-b7d2-448d-88b7-aa5c59a5b3b6","ios":"levelo://app?vid=08b84975-b7d2-448d-88b7-aa5c59a5b3b6"},"vehicle_type_id":"4","last_reported":1751379024,"current_range_meters":9200,"station_id":"ce4bh512rcd13ifvqe3g","pricing_plan_id":"cebpf4jnsgd1na2vs0mg"},{"bike_id":"e11ffde0-d953-481d-a3c0-5c7782a8d5be","system_id":"levelo_inurba_marseille","lat":43.28041,"lon":5.36935,"is_reserved":false,"is_disabled":false,"rental_uris":{"android":"levelo://app?vid=e11ffde0-d953-481d-a3c0-5c7782a8d5be","ios":"levelo://app?vid=e11ffde0-d953-481d-a3c0-5c7782a8d5be"},"vehicle_type_id":"4","last_reported":1751379024,"current_range_meters":9200,"station_id":"ce4bha12rcd13ifvqef0","pricing_plan_id":"cebpf4jnsgd1na2vs0mg"},{"bike_id":"906bff2a-f275-451e-98ca-6b55fb1d56f7","system_id":"levelo_inurba_marseille","lat":43.260578,"lon":5.393943,"is_reserved":false,"is_disabled":false,"rental_uris":{"android":"levelo://app?vid=906bff2a-f275-451e-98ca-6b55fb1d56f7","ios":"levelo://app?vid=906bff2a-f275-451e-98ca-6b55fb1d56f7"},"vehicle_type_id":"4","last_reported":1751379024,"current_range_meters":9200,"station_id":"ce4bhh92rcd13ifvqfj0","pricing_plan_id":"cebpf4jnsgd1na2vs0mg"},{"bike_id":"321bf8da-a75f-4de2-ab64-8d68accfe5f6","system_id":"levelo_inurba_marseille","lat":43.259393,"lon":5.409072,"is_reserved":false,"is_disabled":false,"rental_uris":{"android":"levelo://app?vid=321bf8da-a75f-4de2-ab64-8d68accfe5f6","ios":"levelo://app?vid=321bf8da-a75f-4de2-ab64-8d68accfe5f6"},"vehicle_type_id":"4","last_reported":1751379024,"current_range_meters":9200,"station_id":"ce4bhm92rcd13ifvqglg","pricing_plan_id":"cebpf4jnsgd1na2vs0mg"},{"bike_id":"7f97088d-e474-4ed8-940b-bc4e90b6c422","system_id":"levelo_inurba_marseille","lat":43.28148,"lon":5.42649,"is_reserved":false,"is_disabled":false,"rental_uris":{"android":"levelo://app?vid=7f97088d-e474-4ed8-940b-bc4e90b6c422","ios":"levelo://app?vid=7f97088d-e474-4ed8-940b-bc4e90b6c422"},"vehicle_type_id":"4","last_reported":1751379024,"current_range_meters":9200,"station_id":"ce4bhnh2rcd13ifvqgug","pricing_plan_id":"cebpf4jnsgd1na2vs0mg"},{"bike_id":"3a33ebd2-49a2-4e39-92d7-f09d7dd08672","system_id":"levelo_inurba_marseille","lat":43.21748,"lon":5.34601,"is_reserved":false,"is_disabled":false,"rental_uris":{"android":"levelo://app?vid=3a33ebd2-49a2-4e39-92d7-f09d7dd08672","ios":"levelo://app?vid=3a33ebd2-49a2-4e39-92d7-f09d7dd08672"},"vehicle_type_id":"4","last_reported":1751379024,"current_range_meters":9200,"station_id":"st_cvj6r9ubvosntc0bgbag","pricing_plan_id":"cebpf4jnsgd1na2vs0mg"},{"bike_id":"8252b44a-d048-4379-9209-2efa2e627825","system_id":"levelo_inurba_marseille","lat":43.29232,"lon":5.40575,"is_reserved":false,"is_disabled":false,"rental_uris":{"android":"levelo://app?vid=8252b44a-d048-4379-9209-2efa2e627825","ios":"levelo://app?vid=8252b44a-d048-4379-9209-2efa2e627825"},"vehicle_type_id":"4","last_reported":1751379024,"current_range_meters":9600,"station_id":"","pricing_plan_id":"cebpf4jnsgd1na2vs0mg"},{"bike_id":"3be763ee-e007-4ff7-85c1-61bf957c3e2a","system_id":"levelo_inurba_marseille","lat":43.30321,"lon":5.40442,"is_reserved":false,"is_disabled":false,"rental_uris":{"android":"levelo://app?vid=3be763ee-e007-4ff7-85c1-61bf957c3e2a","ios":"levelo://app?vid=3be763ee-e007-4ff7-85c1-61bf957c3e2a"},"vehicle_type_id":"4","last_reported":1751379024,"current_range_meters":9600,"station_id":"ce4bh012rcd13ifvqd10","pricing_plan_id":"cebpf4jnsgd1na2vs0mg"},{"bike_id":"6fc7d9da-f033-4c3e-be74-042e325f72cd","system_id":"levelo_inurba_marseille","lat":43.26665,"lon":5.38286,"is_reserved":false,"is_disabled":false,"rental_uris":{"android":"levelo://app?vid=6fc7d9da-f033-4c3e-be74-042e325f72cd","ios":"levelo://app?vid=6fc7d9da-f033-4c3e-be74-042e325f72cd"},"vehicle_type_id":"4","last_reported":1751379024,"current_range_meters":9600,"station_id":"ce4bhg92rcd13ifvqf90","pricing_plan_id":"cebpf4jnsgd1na2vs0mg"},{"bike_id":"6b04a8db-f012-4ea9-88f5-d59ff3f24fd9","system_id":"levelo_inurba_marseille","lat":43.29906,"lon":5.43658,"is_reserved":false,"is_disabled":false,"rental_uris":{"android":"levelo://app?vid=6b04a8db-f012-4ea9-88f5-d59ff3f24fd9","ios":"levelo://app?vid=6b04a8db-f012-4ea9-88f5-d59ff3f24fd9"},"vehicle_type_id":"4","last_reported":1751379024,"current_range_meters":9600,"station_id":"ce4bhpp2rcd13ifvqhfg","pricing_plan_id":"cebpf4jnsgd1na2vs0mg"},{"bike_id":"56536789-5ce0-4e42-a12f-cd59fccbc66d","system_id":"levelo_inurba_marseille","lat":43.32107,"lon":5.3677,"is_reserved":false,"is_disabled":false,"rental_uris":{"android":"levelo://app?vid=56536789-5ce0-4e42-a12f-cd59fccbc66d","ios":"levelo://app?vid=56536789-5ce0-4e42-a12f-cd59fccbc66d"},"vehicle_type_id":"4","last_reported":1751379024,"current_range_meters":9600,"station_id":"ce4bhrh2rcd13ifvqhug","pricing_plan_id":"cebpf4jnsgd1na2vs0mg"},{"bike_id":"5adf1561-babd-4d34-9118-30d0210ef560","system_id":"levelo_inurba_marseille","lat":43.24166,"lon":5.3639,"is_reserved":false,"is_disabled":false,"rental_uris":{"android":"levelo://app?vid=5adf1561-babd-4d34-9118-30d0210ef560","ios":"levelo://app?vid=5adf1561-babd-4d34-9118-30d0210ef560"},"vehicle_type_id":"4","last_reported":1751379024,"current_range_meters":9600,"station_id":"cpo36qri1sfpv3e86is0","pricing_plan_id":"cebpf4jnsgd1na2vs0mg"},{"bike_id":"405285df-8619-4477-9185-c283b2624c5a","system_id":"levelo_inurba_marseille","lat":43.29977,"lon":5.38506,"is_reserved":false,"is_disabled":false,"rental_uris":{"android":"levelo://app?vid=405285df-8619-4477-9185-c283b2624c5a","ios":"levelo://app?vid=405285df-8619-4477-9185-c283b2624c5a"},"vehicle_type_id":"4","last_reported":1751379024,"current_range_meters":10000,"station_id":"ce4bgj92rcd13ifvqbd0","pricing_plan_id":"cebpf4jnsgd1na2vs0mg"},{"bike_id":"6e82cda6-ea66-4f37-a1c3-c3ffe25de8d0","system_id":"levelo_inurba_marseille","lat":43.28416,"lon":5.34979,"is_reserved":false,"is_disabled":false,"rental_uris":{"android":"levelo://app?vid=6e82cda6-ea66-4f37-a1c3-c3ffe25de8d0","ios":"levelo://app?vid=6e82cda6-ea66-4f37-a1c3-c3ffe25de8d0"},"vehicle_type_id":"4","last_reported":1751379024,"current_range_meters":10000,"station_id":"ce4bhbh2rcd13ifvqepg","pricing_plan_id":"cebpf4jnsgd1na2vs0mg"},{"bike_id":"f6b6d6fb-a1dc-45e9-b6d3-6382d0efce67","system_id":"levelo_inurba_marseille","lat":43.25133,"lon":5.40313,"is_reserved":false,"is_disabled":false,"rental_uris":{"android":"levelo://app?vid=f6b6d6fb-a1dc-45e9-b6d3-6382d0efce67","ios":"levelo://app?vid=f6b6d6fb-a1dc-45e9-b6d3-6382d0efce67"},"vehicle_type_id":"4","last_reported":1751379024,"current_range_meters":10000,"station_id":"ce4bhlh2rcd13ifvqgig","pricing_plan_id":"cebpf4jnsgd1na2vs0mg"},{"bike_id":"4f21048f-fed4-4c4b-ba4a-f4ab90582538","system_id":"levelo_inurba_marseille","lat":43.28145,"lon":5.4267,"is_reserved":false,"is_disabled":false,"rental_uris":{"android":"levelo://app?vid=4f21048f-fed4-4c4b-ba4a-f4ab90582538","ios":"levelo://app?vid=4f21048f-fed4-4c4b-ba4a-f4ab90582538"},"vehicle_type_id":"4","last_reported":1751379024,"current_range_meters":10000,"station_id":"ce4bhnh2rcd13ifvqgug","pricing_plan_id":"cebpf4jnsgd1na2vs0mg"},{"bike_id":"adb26757-cfa2-4e84-b271-492ac0712185","system_id":"levelo_inurba_marseille","lat":43.296201,"lon":5.3716,"is_reserved":false,"is_disabled":false,"rental_uris":{"android":"levelo://app?vid=adb26757-cfa2-4e84-b271-492ac0712185","ios":"levelo://app?vid=adb26757-cfa2-4e84-b271-492ac0712185"},"vehicle_type_id":"4","last_reported":1751379024,"current_range_meters":10800,"station_id":"ce4bgnh2rcd13ifvqc0g","pricing_plan_id":"cebpf4jnsgd1na2vs0mg"},{"bike_id":"a28c59f5-fce1-481a-bcff-87b69ba3d8a2","system_id":"levelo_inurba_marseille","lat":43.30313,"lon":5.36909,"is_reserved":false,"is_disabled":false,"rental_uris":{"android":"levelo://app?vid=a28c59f5-fce1-481a-bcff-87b69ba3d8a2","ios":"levelo://app?vid=a28c59f5-fce1-481a-bcff-87b69ba3d8a2"},"vehicle_type_id":"4","last_reported":1751379024,"current_range_meters":10800,"station_id":"ce4bgqh2rcd13ifvqc5g","pricing_plan_id":"cebpf4jnsgd1na2vs0mg"},{"bike_id":"9afbc18d-e59a-4dba-b5eb-b8968ebcd10c","system_id":"levelo_inurba_marseille","lat":43.30139,"lon":5.37424,"is_reserved":false,"is_disabled":false,"rental_uris":{"android":"levelo://app?vid=9afbc18d-e59a-4dba-b5eb-b8968ebcd10c","ios":"levelo://app?vid=9afbc18d-e59a-4dba-b5eb-b8968ebcd10c"},"vehicle_type_id":"4","last_reported":1751379024,"current_range_meters":10800,"station_id":"ce4bgs92rcd13ifvqcc0","pricing_plan_id":"cebpf4jnsgd1na2vs0mg"},{"bike_id":"8ff7560b-31d3-4d20-9c3b-dc6801ebb696","system_id":"levelo_inurba_marseille","lat":43.30809,"lon":5.38173,"is_reserved":false,"is_disabled":false,"rental_uris":{"android":"levelo://app?vid=8ff7560b-31d3-4d20-9c3b-dc6801ebb696","ios":"levelo://app?vid=8ff7560b-31d3-4d20-9c3b-dc6801ebb696"},"vehicle_type_id":"4","last_reported":1751379024,"current_range_meters":10800,"station_id":"ce4bgt12rcd13ifvqce0","pricing_plan_id":"cebpf4jnsgd1na2vs0mg"},{"bike_id":"210c28bc-f233-43d4-bfd5-9f73487efc52","system_id":"levelo_inurba_marseille","lat":43.28417,"lon":5.34993,"is_reserved":false,"is_disabled":false,"rental_uris":{"android":"levelo://app?vid=210c28bc-f233-43d4-bfd5-9f73487efc52","ios":"levelo://app?vid=210c28bc-f233-43d4-bfd5-9f73487efc52"},"vehicle_type_id":"4","last_reported":1751379024,"current_range_meters":10800,"station_id":"ce4bhbh2rcd13ifvqepg","pricing_plan_id":"cebpf4jnsgd1na2vs0mg"},{"bike_id":"b2ec7371-4e1a-4f7b-ae6c-60c5a54c237b","system_id":"levelo_inurba_marseille","lat":43.21202,"lon":5.35069,"is_reserved":false,"is_disabled":false,"rental_uris":{"android":"levelo://app?vid=b2ec7371-4e1a-4f7b-ae6c-60c5a54c237b","ios":"levelo://app?vid=b2ec7371-4e1a-4f7b-ae6c-60c5a54c237b"},"vehicle_type_id":"4","last_reported":1751379024,"current_range_meters":10800,"station_id":"st_cvj6sg6p6f1abm77japg","pricing_plan_id":"cebpf4jnsgd1na2vs0mg"},{"bike_id":"28ac38e1-00e5-4ea4-b69a-6e3c52345ca0","system_id":"levelo_inurba_marseille","lat":43.296207,"lon":5.371635,"is_reserved":false,"is_disabled":false,"rental_uris":{"android":"levelo://app?vid=28ac38e1-00e5-4ea4-b69a-6e3c52345ca0","ios":"levelo://app?vid=28ac38e1-00e5-4ea4-b69a-6e3c52345ca0"},"vehicle_type_id":"4","last_reported":1751379024,"current_range_meters":11200,"station_id":"ce4bgnh2rcd13ifvqc0g","pricing_plan_id":"cebpf4jnsgd1na2vs0mg"},{"bike_id":"2e3967f0-c96b-4cad-92f0-a383fc7acbae","system_id":"levelo_inurba_marseille","lat":43.30935,"lon":5.40135,"is_reserved":false,"is_disabled":false,"rental_uris":{"android":"levelo://app?vid=2e3967f0-c96b-4cad-92f0-a383fc7acbae","ios":"levelo://app?vid=2e3967f0-c96b-4cad-92f0-a383fc7acbae"},"vehicle_type_id":"4","last_reported":1751379024,"current_range_meters":11200,"station_id":"ce4bgvp2rcd13ifvqct0","pricing_plan_id":"cebpf4jnsgd1na2vs0mg"},{"bike_id":"0daa8218-859a-4d23-86b5-7ccc9cdc90f7","system_id":"levelo_inurba_marseille","lat":43.28467,"lon":5.35883,"is_reserved":false,"is_disabled":false,"rental_uris":{"android":"levelo://app?vid=0daa8218-859a-4d23-86b5-7ccc9cdc90f7","ios":"levelo://app?vid=0daa8218-859a-4d23-86b5-7ccc9cdc90f7"},"vehicle_type_id":"4","last_reported":1751379024,"current_range_meters":11200,"station_id":"ce4bhah2rcd13ifvqei0","pricing_plan_id":"cebpf4jnsgd1na2vs0mg"},{"bike_id":"1d53f5d9-c7dc-4447-84f4-8566c1e474fc","system_id":"levelo_inurba_marseille","lat":43.282636,"lon":5.350555,"is_reserved":false,"is_disabled":false,"rental_uris":{"android":"levelo://app?vid=1d53f5d9-c7dc-4447-84f4-8566c1e474fc","ios":"levelo://app?vid=1d53f5d9-c7dc-4447-84f4-8566c1e474fc"},"vehicle_type_id":"4","last_reported":1751379024,"current_range_meters":11200,"station_id":"ce4bhbp2rcd13ifvqerg","pricing_plan_id":"cebpf4jnsgd1na2vs0mg"},{"bike_id":"fc4f7a6e-d30e-49c2-a3fc-521129bf8cad","system_id":"levelo_inurba_marseille","lat":43.33614,"lon":5.40996,"is_reserved":false,"is_disabled":false,"rental_uris":{"android":"levelo://app?vid=fc4f7a6e-d30e-49c2-a3fc-521129bf8cad","ios":"levelo://app?vid=fc4f7a6e-d30e-49c2-a3fc-521129bf8cad"},"vehicle_type_id":"4","last_reported":1751379024,"current_range_meters":11200,"station_id":"ce4bhqh2rcd13ifvqhmg","pricing_plan_id":"cebpf4jnsgd1na2vs0mg"},{"bike_id":"dfd578c6-3028-47d8-bab5-a52655cbc8c2","system_id":"levelo_inurba_marseille","lat":43.217499,"lon":5.346007,"is_reserved":false,"is_disabled":false,"rental_uris":{"android":"levelo://app?vid=dfd578c6-3028-47d8-bab5-a52655cbc8c2","ios":"levelo://app?vid=dfd578c6-3028-47d8-bab5-a52655cbc8c2"},"vehicle_type_id":"4","last_reported":1751379024,"current_range_meters":11200,"station_id":"st_cvj6r9ubvosntc0bgbag","pricing_plan_id":"cebpf4jnsgd1na2vs0mg"},{"bike_id":"2b65ba94-dbf8-4dba-89ec-8369fd3e413e","system_id":"levelo_inurba_marseille","lat":43.305527,"lon":5.365317,"is_reserved":false,"is_disabled":false,"rental_uris":{"android":"levelo://app?vid=2b65ba94-dbf8-4dba-89ec-8369fd3e413e","ios":"levelo://app?vid=2b65ba94-dbf8-4dba-89ec-8369fd3e413e"},"vehicle_type_id":"4","last_reported":1751379024,"current_range_meters":12000,"station_id":"ce4bgs12rcd13ifvqcag","pricing_plan_id":"cebpf4jnsgd1na2vs0mg"},{"bike_id":"eacdff40-ffca-4f3c-a901-6126fddc1b4d","system_id":"levelo_inurba_marseille","lat":43.27357,"lon":5.362493,"is_reserved":false,"is_disabled":false,"rental_uris":{"android":"levelo://app?vid=eacdff40-ffca-4f3c-a901-6126fddc1b4d","ios":"levelo://app?vid=eacdff40-ffca-4f3c-a901-6126fddc1b4d"},"vehicle_type_id":"4","last_reported":1751379024,"current_range_meters":12000,"station_id":"ce4bhbh2rcd13ifvqeo0","pricing_plan_id":"cebpf4jnsgd1na2vs0mg"},{"bike_id":"d761d83e-417b-44bc-868f-a9f17c8f8aae","system_id":"levelo_inurba_marseille","lat":43.27176,"lon":5.40998,"is_reserved":false,"is_disabled":false,"rental_uris":{"android":"levelo://app?vid=d761d83e-417b-44bc-868f-a9f17c8f8aae","ios":"levelo://app?vid=d761d83e-417b-44bc-868f-a9f17c8f8aae"},"vehicle_type_id":"4","last_reported":1751379024,"current_range_meters":12000,"station_id":"ce4bhl12rcd13ifvqgf0","pricing_plan_id":"cebpf4jnsgd1na2vs0mg"},{"bike_id":"e499cb2c-713a-4174-aa1d-daf10325f143","system_id":"levelo_inurba_marseille","lat":43.27812,"lon":5.40712,"is_reserved":false,"is_disabled":false,"rental_uris":{"android":"levelo://app?vid=e499cb2c-713a-4174-aa1d-daf10325f143","ios":"levelo://app?vid=e499cb2c-713a-4174-aa1d-daf10325f143"},"vehicle_type_id":"4","last_reported":1751379024,"current_range_meters":12000,"station_id":"ce4bhnh2rcd13ifvqgtg","pricing_plan_id":"cebpf4jnsgd1na2vs0mg"},{"bike_id":"33c458be-dc9f-43b3-a715-a3b7d23e7f3e","system_id":"levelo_inurba_marseille","lat":43.23192,"lon":5.35551,"is_reserved":false,"is_disabled":false,"rental_uris":{"android":"levelo://app?vid=33c458be-dc9f-43b3-a715-a3b7d23e7f3e","ios":"levelo://app?vid=33c458be-dc9f-43b3-a715-a3b7d23e7f3e"},"vehicle_type_id":"4","last_reported":1751379024,"current_range_meters":12000,"station_id":"ce4bhu92rcd13ifvqi70","pricing_plan_id":"cebpf4jnsgd1na2vs0mg"},{"bike_id":"b28aa0a0-791c-4a08-9a16-c7bf6ea0ed5a","system_id":"levelo_inurba_marseille","lat":43.22485,"lon":5.34784,"is_reserved":false,"is_disabled":false,"rental_uris":{"android":"levelo://app?vid=b28aa0a0-791c-4a08-9a16-c7bf6ea0ed5a","ios":"levelo://app?vid=b28aa0a0-791c-4a08-9a16-c7bf6ea0ed5a"},"vehicle_type_id":"4","last_reported":1751379024,"current_range_meters":12000,"station_id":"st_cvj5dfep6f1abm77gieg","pricing_plan_id":"cebpf4jnsgd1na2vs0mg"},{"bike_id":"c2b72fe0-bae6-4c7b-ad48-9e771b203dc8","system_id":"levelo_inurba_marseille","lat":43.31347,"lon":5.38456,"is_reserved":false,"is_disabled":false,"rental_uris":{"android":"levelo://app?vid=c2b72fe0-bae6-4c7b-ad48-9e771b203dc8","ios":"levelo://app?vid=c2b72fe0-bae6-4c7b-ad48-9e771b203dc8"},"vehicle_type_id":"4","last_reported":1751379024,"current_range_meters":12400,"station_id":"ce4bgt92rcd13ifvqcf0","pricing_plan_id":"cebpf4jnsgd1na2vs0mg"},{"bike_id":"729ed812-0359-471a-af11-52b1bfb49aef","system_id":"levelo_inurba_marseille","lat":43.28412,"lon":5.349917,"is_reserved":false,"is_disabled":false,"rental_uris":{"android":"levelo://app?vid=729ed812-0359-471a-af11-52b1bfb49aef","ios":"levelo://app?vid=729ed812-0359-471a-af11-52b1bfb49aef"},"vehicle_type_id":"4","last_reported":1751379024,"current_range_meters":12400,"station_id":"ce4bhbh2rcd13ifvqepg","pricing_plan_id":"cebpf4jnsgd1na2vs0mg"},{"bike_id":"2d23d3a7-6cbc-4df4-9886-018b3c43e0d9","system_id":"levelo_inurba_marseille","lat":43.22952,"lon":5.35379,"is_reserved":false,"is_disabled":false,"rental_uris":{"android":"levelo://app?vid=2d23d3a7-6cbc-4df4-9886-018b3c43e0d9","ios":"levelo://app?vid=2d23d3a7-6cbc-4df4-9886-018b3c43e0d9"},"vehicle_type_id":"4","last_reported":1751379024,"current_range_meters":12400,"station_id":"cpo3532slgdg3j2ikp40","pricing_plan_id":"cebpf4jnsgd1na2vs0mg"},{"bike_id":"5631c7ea-fb56-4ee9-8df0-6e0aa2f0ff30","system_id":"levelo_inurba_marseille","lat":43.24164,"lon":5.36399,"is_reserved":false,"is_disabled":false,"rental_uris":{"android":"levelo://app?vid=5631c7ea-fb56-4ee9-8df0-6e0aa2f0ff30","ios":"levelo://app?vid=5631c7ea-fb56-4ee9-8df0-6e0aa2f0ff30"},"vehicle_type_id":"4","last_reported":1751379024,"current_range_meters":12400,"station_id":"cpo36qri1sfpv3e86is0","pricing_plan_id":"cebpf4jnsgd1na2vs0mg"},{"bike_id":"e2481a45-a5d1-4f5f-ac64-ec85fdafecd9","system_id":"levelo_inurba_marseille","lat":43.24169,"lon":5.36387,"is_reserved":false,"is_disabled":false,"rental_uris":{"android":"levelo://app?vid=e2481a45-a5d1-4f5f-ac64-ec85fdafecd9","ios":"levelo://app?vid=e2481a45-a5d1-4f5f-ac64-ec85fdafecd9"},"vehicle_type_id":"4","last_reported":1751379024,"current_range_meters":12400,"station_id":"cpo36qri1sfpv3e86is0","pricing_plan_id":"cebpf4jnsgd1na2vs0mg"},{"bike_id":"b58fcd9c-f51e-487c-9cf1-49362eb3ef58","system_id":"levelo_inurba_marseille","lat":43.262125,"lon":5.374411,"is_reserved":false,"is_disabled":false,"rental_uris":{"android":"levelo://app?vid=b58fcd9c-f51e-487c-9cf1-49362eb3ef58","ios":"levelo://app?vid=b58fcd9c-f51e-487c-9cf1-49362eb3ef58"},"vehicle_type_id":"4","last_reported":1751379024,"current_range_meters":12800,"station_id":"","pricing_plan_id":"cebpf4jnsgd1na2vs0mg"},{"bike_id":"fd613976-523b-4655-93d9-6612f1f6ad4a","system_id":"levelo_inurba_marseille","lat":43.31364,"lon":5.38498,"is_reserved":false,"is_disabled":false,"rental_uris":{"android":"levelo://app?vid=fd613976-523b-4655-93d9-6612f1f6ad4a","ios":"levelo://app?vid=fd613976-523b-4655-93d9-6612f1f6ad4a"},"vehicle_type_id":"4","last_reported":1751379024,"current_range_meters":12800,"station_id":"ce4bgt92rcd13ifvqcf0","pricing_plan_id":"cebpf4jnsgd1na2vs0mg"},{"bike_id":"3e8ce932-b25b-4133-b829-8548fdb0aa87","system_id":"levelo_inurba_marseille","lat":43.27809,"lon":5.4071,"is_reserved":false,"is_disabled":false,"rental_uris":{"android":"levelo://app?vid=3e8ce932-b25b-4133-b829-8548fdb0aa87","ios":"levelo://app?vid=3e8ce932-b25b-4133-b829-8548fdb0aa87"},"vehicle_type_id":"4","last_reported":1751379024,"current_range_meters":12800,"station_id":"ce4bhnh2rcd13ifvqgtg","pricing_plan_id":"cebpf4jnsgd1na2vs0mg"},{"bike_id":"ace73ae5-30eb-4384-b2ab-57ad58f00d73","system_id":"levelo_inurba_marseille","lat":43.295177,"lon":5.39034,"is_reserved":false,"is_disabled":false,"rental_uris":{"android":"levelo://app?vid=ace73ae5-30eb-4384-b2ab-57ad58f00d73","ios":"levelo://app?vid=ace73ae5-30eb-4384-b2ab-57ad58f00d73"},"vehicle_type_id":"4","last_reported":1751379024,"current_range_meters":13600,"station_id":"ce4bh3p2rcd13ifvqdp0","pricing_plan_id":"cebpf4jnsgd1na2vs0mg"},{"bike_id":"3e2ca3dc-fb19-4979-978b-ee9d362690fc","system_id":"levelo_inurba_marseille","lat":43.24804,"lon":5.37458,"is_reserved":false,"is_disabled":false,"rental_uris":{"android":"levelo://app?vid=3e2ca3dc-fb19-4979-978b-ee9d362690fc","ios":"levelo://app?vid=3e2ca3dc-fb19-4979-978b-ee9d362690fc"},"vehicle_type_id":"4","last_reported":1751379024,"current_range_meters":13600,"station_id":"ce4bhgh2rcd13ifvqfb0","pricing_plan_id":"cebpf4jnsgd1na2vs0mg"},{"bike_id":"c32ae2bb-a1f5-4607-ad7e-73fd99c0cbf8","system_id":"levelo_inurba_marseille","lat":43.25013,"lon":5.3892,"is_reserved":false,"is_disabled":false,"rental_uris":{"android":"levelo://app?vid=c32ae2bb-a1f5-4607-ad7e-73fd99c0cbf8","ios":"levelo://app?vid=c32ae2bb-a1f5-4607-ad7e-73fd99c0cbf8"},"vehicle_type_id":"4","last_reported":1751379024,"current_range_meters":13600,"station_id":"ce4bhgp2rcd13ifvqfd0","pricing_plan_id":"cebpf4jnsgd1na2vs0mg"},{"bike_id":"df41d261-25ce-43cc-a333-b7b0fc486854","system_id":"levelo_inurba_marseille","lat":43.32487,"lon":5.36559,"is_reserved":false,"is_disabled":false,"rental_uris":{"android":"levelo://app?vid=df41d261-25ce-43cc-a333-b7b0fc486854","ios":"levelo://app?vid=df41d261-25ce-43cc-a333-b7b0fc486854"},"vehicle_type_id":"4","last_reported":1751379024,"current_range_meters":13600,"station_id":"ce4bhs12rcd13ifvqhvg","pricing_plan_id":"cebpf4jnsgd1na2vs0mg"},{"bike_id":"7668ad4d-e875-45c5-8cfe-d22f11274d59","system_id":"levelo_inurba_marseille","lat":43.2422,"lon":5.36381,"is_reserved":false,"is_disabled":false,"rental_uris":{"android":"levelo://app?vid=7668ad4d-e875-45c5-8cfe-d22f11274d59","ios":"levelo://app?vid=7668ad4d-e875-45c5-8cfe-d22f11274d59"},"vehicle_type_id":"4","last_reported":1751379024,"current_range_meters":14000,"station_id":"","pricing_plan_id":"cebpf4jnsgd1na2vs0mg"},{"bike_id":"d21431c1-278d-463f-9786-c8bf8996ff03","system_id":"levelo_inurba_marseille","lat":43.30308,"lon":5.36899,"is_reserved":false,"is_disabled":false,"rental_uris":{"android":"levelo://app?vid=d21431c1-278d-463f-9786-c8bf8996ff03","ios":"levelo://app?vid=d21431c1-278d-463f-9786-c8bf8996ff03"},"vehicle_type_id":"4","last_reported":1751379024,"current_range_meters":14000,"station_id":"ce4bgqh2rcd13ifvqc5g","pricing_plan_id":"cebpf4jnsgd1na2vs0mg"},{"bike_id":"0f1b0d68-f9cc-4dc1-9ae3-3578d2ab2332","system_id":"levelo_inurba_marseille","lat":43.30325,"lon":5.40443,"is_reserved":false,"is_disabled":false,"rental_uris":{"android":"levelo://app?vid=0f1b0d68-f9cc-4dc1-9ae3-3578d2ab2332","ios":"levelo://app?vid=0f1b0d68-f9cc-4dc1-9ae3-3578d2ab2332"},"vehicle_type_id":"4","last_reported":1751379024,"current_range_meters":14000,"station_id":"ce4bh012rcd13ifvqd10","pricing_plan_id":"cebpf4jnsgd1na2vs0mg"},{"bike_id":"f8b16897-706f-4ecb-bd6c-a825dbbf3617","system_id":"levelo_inurba_marseille","lat":43.28404,"lon":5.37533,"is_reserved":false,"is_disabled":false,"rental_uris":{"android":"levelo://app?vid=f8b16897-706f-4ecb-bd6c-a825dbbf3617","ios":"levelo://app?vid=f8b16897-706f-4ecb-bd6c-a825dbbf3617"},"vehicle_type_id":"4","last_reported":1751379024,"current_range_meters":14000,"station_id":"ce4bh412rcd13ifvqds0","pricing_plan_id":"cebpf4jnsgd1na2vs0mg"},{"bike_id":"dc8356f0-02e4-44af-baca-f0665ea88859","system_id":"levelo_inurba_marseille","lat":43.27375,"lon":5.36255,"is_reserved":false,"is_disabled":false,"rental_uris":{"android":"levelo://app?vid=dc8356f0-02e4-44af-baca-f0665ea88859","ios":"levelo://app?vid=dc8356f0-02e4-44af-baca-f0665ea88859"},"vehicle_type_id":"4","last_reported":1751379024,"current_range_meters":14000,"station_id":"ce4bhbh2rcd13ifvqeo0","pricing_plan_id":"cebpf4jnsgd1na2vs0mg"},{"bike_id":"d2b2c9f7-7d24-4524-a821-27526206abd8","system_id":"levelo_inurba_marseille","lat":43.29275,"lon":5.36864,"is_reserved":false,"is_disabled":false,"rental_uris":{"android":"levelo://app?vid=d2b2c9f7-7d24-4524-a821-27526206abd8","ios":"levelo://app?vid=d2b2c9f7-7d24-4524-a821-27526206abd8"},"vehicle_type_id":"4","last_reported":1751379024,"current_range_meters":14000,"station_id":"ce4bhbp2rcd13ifvqesg","pricing_plan_id":"cebpf4jnsgd1na2vs0mg"},{"bike_id":"9daf3538-6d8b-4f23-abc2-a95eb894e247","system_id":"levelo_inurba_marseille","lat":43.26562,"lon":5.37276,"is_reserved":false,"is_disabled":false,"rental_uris":{"android":"levelo://app?vid=9daf3538-6d8b-4f23-abc2-a95eb894e247","ios":"levelo://app?vid=9daf3538-6d8b-4f23-abc2-a95eb894e247"},"vehicle_type_id":"4","last_reported":1751379024,"current_range_meters":14000,"station_id":"ce4bhg12rcd13ifvqf70","pricing_plan_id":"cebpf4jnsgd1na2vs0mg"},{"bike_id":"26578b7e-f474-4eaf-9d8e-1f40b92a0f35","system_id":"levelo_inurba_marseille","lat":43.26194,"lon":5.37466,"is_reserved":false,"is_disabled":false,"rental_uris":{"android":"levelo://app?vid=26578b7e-f474-4eaf-9d8e-1f40b92a0f35","ios":"levelo://app?vid=26578b7e-f474-4eaf-9d8e-1f40b92a0f35"},"vehicle_type_id":"4","last_reported":1751379024,"current_range_meters":14000,"station_id":"ce4bhgp2rcd13ifvqfc0","pricing_plan_id":"cebpf4jnsgd1na2vs0mg"},{"bike_id":"95430554-c32e-4aae-9f16-526107881b29","system_id":"levelo_inurba_marseille","lat":43.24385,"lon":5.37054,"is_reserved":false,"is_disabled":false,"rental_uris":{"android":"levelo://app?vid=95430554-c32e-4aae-9f16-526107881b29","ios":"levelo://app?vid=95430554-c32e-4aae-9f16-526107881b29"},"vehicle_type_id":"4","last_reported":1751379024,"current_range_meters":14000,"station_id":"ce4bhhh2rcd13ifvqfk0","pricing_plan_id":"cebpf4jnsgd1na2vs0mg"},{"bike_id":"859b6cf6-411c-4a6e-b2f1-d5866da46ff7","system_id":"levelo_inurba_marseille","lat":43.24173,"lon":5.36396,"is_reserved":false,"is_disabled":false,"rental_uris":{"android":"levelo://app?vid=859b6cf6-411c-4a6e-b2f1-d5866da46ff7","ios":"levelo://app?vid=859b6cf6-411c-4a6e-b2f1-d5866da46ff7"},"vehicle_type_id":"4","last_reported":1751379024,"current_range_meters":14000,"station_id":"cpo36qri1sfpv3e86is0","pricing_plan_id":"cebpf4jnsgd1na2vs0mg"},{"bike_id":"0a5a6df3-791d-4e1e-9f7c-cb1cf013a1c7","system_id":"levelo_inurba_marseille","lat":43.25651,"lon":5.41013,"is_reserved":false,"is_disabled":false,"rental_uris":{"android":"levelo://app?vid=0a5a6df3-791d-4e1e-9f7c-cb1cf013a1c7","ios":"levelo://app?vid=0a5a6df3-791d-4e1e-9f7c-cb1cf013a1c7"},"vehicle_type_id":"4","last_reported":1751379024,"current_range_meters":14400,"station_id":"","pricing_plan_id":"cebpf4jnsgd1na2vs0mg"},{"bike_id":"c0228700-5312-4a39-89af-ec53a5d729c5","system_id":"levelo_inurba_marseille","lat":43.28291,"lon":5.43276,"is_reserved":false,"is_disabled":false,"rental_uris":{"android":"levelo://app?vid=c0228700-5312-4a39-89af-ec53a5d729c5","ios":"levelo://app?vid=c0228700-5312-4a39-89af-ec53a5d729c5"},"vehicle_type_id":"4","last_reported":1751379024,"current_range_meters":14800,"station_id":"","pricing_plan_id":"cebpf4jnsgd1na2vs0mg"},{"bike_id":"c61036a9-1a66-4480-8bd4-cd2fb585b287","system_id":"levelo_inurba_marseille","lat":43.269772,"lon":5.405455,"is_reserved":false,"is_disabled":false,"rental_uris":{"android":"levelo://app?vid=c61036a9-1a66-4480-8bd4-cd2fb585b287","ios":"levelo://app?vid=c61036a9-1a66-4480-8bd4-cd2fb585b287"},"vehicle_type_id":"4","last_reported":1751379024,"current_range_meters":14800,"station_id":"","pricing_plan_id":"cebpf4jnsgd1na2vs0mg"},{"bike_id":"431e73db-04cb-45fc-919f-09c073a1b9b3","system_id":"levelo_inurba_marseille","lat":43.28418,"lon":5.34993,"is_reserved":false,"is_disabled":false,"rental_uris":{"android":"levelo://app?vid=431e73db-04cb-45fc-919f-09c073a1b9b3","ios":"levelo://app?vid=431e73db-04cb-45fc-919f-09c073a1b9b3"},"vehicle_type_id":"4","last_reported":1751379024,"current_range_meters":14800,"station_id":"ce4bhbh2rcd13ifvqepg","pricing_plan_id":"cebpf4jnsgd1na2vs0mg"},{"bike_id":"4b4201df-dc33-4cd5-b48e-2779dce91b4d","system_id":"levelo_inurba_marseille","lat":43.26058,"lon":5.39404,"is_reserved":false,"is_disabled":false,"rental_uris":{"android":"levelo://app?vid=4b4201df-dc33-4cd5-b48e-2779dce91b4d","ios":"levelo://app?vid=4b4201df-dc33-4cd5-b48e-2779dce91b4d"},"vehicle_type_id":"4","last_reported":1751379024,"current_range_meters":14800,"station_id":"ce4bhh92rcd13ifvqfj0","pricing_plan_id":"cebpf4jnsgd1na2vs0mg"},{"bike_id":"7613f3a0-37d3-4ea3-9046-c25aed64fc25","system_id":"levelo_inurba_marseille","lat":43.245388,"lon":5.395374,"is_reserved":false,"is_disabled":false,"rental_uris":{"android":"levelo://app?vid=7613f3a0-37d3-4ea3-9046-c25aed64fc25","ios":"levelo://app?vid=7613f3a0-37d3-4ea3-9046-c25aed64fc25"},"vehicle_type_id":"4","last_reported":1751379024,"current_range_meters":14800,"station_id":"ce4bhlp2rcd13ifvqgjg","pricing_plan_id":"cebpf4jnsgd1na2vs0mg"},{"bike_id":"82522992-39cd-4cc1-bf11-bf1394360248","system_id":"levelo_inurba_marseille","lat":43.31693,"lon":5.36908,"is_reserved":false,"is_disabled":false,"rental_uris":{"android":"levelo://app?vid=82522992-39cd-4cc1-bf11-bf1394360248","ios":"levelo://app?vid=82522992-39cd-4cc1-bf11-bf1394360248"},"vehicle_type_id":"4","last_reported":1751379024,"current_range_meters":15200,"station_id":"","pricing_plan_id":"cebpf4jnsgd1na2vs0mg"},{"bike_id":"e89933fc-9315-4792-8cdd-feb48dd7c7b8","system_id":"levelo_inurba_marseille","lat":43.29528,"lon":5.3854,"is_reserved":false,"is_disabled":false,"rental_uris":{"android":"levelo://app?vid=e89933fc-9315-4792-8cdd-feb48dd7c7b8","ios":"levelo://app?vid=e89933fc-9315-4792-8cdd-feb48dd7c7b8"},"vehicle_type_id":"4","last_reported":1751379024,"current_range_meters":15200,"station_id":"ce4bgih2rcd13ifvqba0","pricing_plan_id":"cebpf4jnsgd1na2vs0mg"},{"bike_id":"fb4444d3-db0e-44be-b133-1769b55141c0","system_id":"levelo_inurba_marseille","lat":43.29527,"lon":5.39388,"is_reserved":false,"is_disabled":false,"rental_uris":{"android":"levelo://app?vid=fb4444d3-db0e-44be-b133-1769b55141c0","ios":"levelo://app?vid=fb4444d3-db0e-44be-b133-1769b55141c0"},"vehicle_type_id":"4","last_reported":1751379024,"current_range_meters":15200,"station_id":"ce4bh292rcd13ifvqdf0","pricing_plan_id":"cebpf4jnsgd1na2vs0mg"},{"bike_id":"3d03fb95-8e3b-4596-876f-491b9dec2687","system_id":"levelo_inurba_marseille","lat":43.26212,"lon":5.37442,"is_reserved":false,"is_disabled":false,"rental_uris":{"android":"levelo://app?vid=3d03fb95-8e3b-4596-876f-491b9dec2687","ios":"levelo://app?vid=3d03fb95-8e3b-4596-876f-491b9dec2687"},"vehicle_type_id":"4","last_reported":1751379024,"current_range_meters":15200,"station_id":"ce4bhgp2rcd13ifvqfc0","pricing_plan_id":"cebpf4jnsgd1na2vs0mg"},{"bike_id":"86fa6ce7-8cbe-47ff-b5d3-c2b4938fd05c","system_id":"levelo_inurba_marseille","lat":43.21195,"lon":5.35082,"is_reserved":false,"is_disabled":false,"rental_uris":{"android":"levelo://app?vid=86fa6ce7-8cbe-47ff-b5d3-c2b4938fd05c","ios":"levelo://app?vid=86fa6ce7-8cbe-47ff-b5d3-c2b4938fd05c"},"vehicle_type_id":"4","last_reported":1751379024,"current_range_meters":16000,"station_id":"","pricing_plan_id":"cebpf4jnsgd1na2vs0mg"},{"bike_id":"9d553740-f0e1-4e9e-9e91-7ec80c115480","system_id":"levelo_inurba_marseille","lat":43.27619,"lon":5.36107,"is_reserved":false,"is_disabled":false,"rental_uris":{"android":"levelo://app?vid=9d553740-f0e1-4e9e-9e91-7ec80c115480","ios":"levelo://app?vid=9d553740-f0e1-4e9e-9e91-7ec80c115480"},"vehicle_type_id":"4","last_reported":1751379024,"current_range_meters":16000,"station_id":"ce4bgj92rcd13ifvqbe0","pricing_plan_id":"cebpf4jnsgd1na2vs0mg"},{"bike_id":"6aa867d8-4e2c-4048-80f1-a24162f83599","system_id":"levelo_inurba_marseille","lat":43.30145,"lon":5.38072,"is_reserved":false,"is_disabled":false,"rental_uris":{"android":"levelo://app?vid=6aa867d8-4e2c-4048-80f1-a24162f83599","ios":"levelo://app?vid=6aa867d8-4e2c-4048-80f1-a24162f83599"},"vehicle_type_id":"4","last_reported":1751379024,"current_range_meters":16000,"station_id":"ce4bgjp2rcd13ifvqbh0","pricing_plan_id":"cebpf4jnsgd1na2vs0mg"},{"bike_id":"330577f7-c428-4701-9e13-a0815653244b","system_id":"levelo_inurba_marseille","lat":43.27376,"lon":5.36257,"is_reserved":false,"is_disabled":false,"rental_uris":{"android":"levelo://app?vid=330577f7-c428-4701-9e13-a0815653244b","ios":"levelo://app?vid=330577f7-c428-4701-9e13-a0815653244b"},"vehicle_type_id":"4","last_reported":1751379024,"current_range_meters":16000,"station_id":"ce4bhbh2rcd13ifvqeo0","pricing_plan_id":"cebpf4jnsgd1na2vs0mg"},{"bike_id":"1caca1fc-4911-4e37-9aeb-383803780faf","system_id":"levelo_inurba_marseille","lat":43.32099,"lon":5.36776,"is_reserved":false,"is_disabled":false,"rental_uris":{"android":"levelo://app?vid=1caca1fc-4911-4e37-9aeb-383803780faf","ios":"levelo://app?vid=1caca1fc-4911-4e37-9aeb-383803780faf"},"vehicle_type_id":"4","last_reported":1751379024,"current_range_meters":16000,"station_id":"ce4bhrh2rcd13ifvqhug","pricing_plan_id":"cebpf4jnsgd1na2vs0mg"},{"bike_id":"947c0abc-8a28-4463-9d63-6c7d61393962","system_id":"levelo_inurba_marseille","lat":43.2416,"lon":5.36416,"is_reserved":false,"is_disabled":false,"rental_uris":{"android":"levelo://app?vid=947c0abc-8a28-4463-9d63-6c7d61393962","ios":"levelo://app?vid=947c0abc-8a28-4463-9d63-6c7d61393962"},"vehicle_type_id":"4","last_reported":1751379024,"current_range_meters":16000,"station_id":"cpo36qri1sfpv3e86is0","pricing_plan_id":"cebpf4jnsgd1na2vs0mg"},{"bike_id":"537004b8-796b-418d-9d3a-229bfc37a3fb","system_id":"levelo_inurba_marseille","lat":43.24167,"lon":5.36396,"is_reserved":false,"is_disabled":false,"rental_uris":{"android":"levelo://app?vid=537004b8-796b-418d-9d3a-229bfc37a3fb","ios":"levelo://app?vid=537004b8-796b-418d-9d3a-229bfc37a3fb"},"vehicle_type_id":"4","last_reported":1751379024,"current_range_meters":16000,"station_id":"cpo36qri1sfpv3e86is0","pricing_plan_id":"cebpf4jnsgd1na2vs0mg"},{"bike_id":"60aed5b4-04a7-4930-a9c4-5540cdbcfb8b","system_id":"levelo_inurba_marseille","lat":43.33759,"lon":5.37433,"is_reserved":false,"is_disabled":false,"rental_uris":{"android":"levelo://app?vid=60aed5b4-04a7-4930-a9c4-5540cdbcfb8b","ios":"levelo://app?vid=60aed5b4-04a7-4930-a9c4-5540cdbcfb8b"},"vehicle_type_id":"4","last_reported":1751379024,"current_range_meters":16400,"station_id":"","pricing_plan_id":"cebpf4jnsgd1na2vs0mg"},{"bike_id":"5bbb9163-852f-4b72-a454-8eb0a96224e0","system_id":"levelo_inurba_marseille","lat":43.31075,"lon":5.36903,"is_reserved":false,"is_disabled":false,"rental_uris":{"android":"levelo://app?vid=5bbb9163-852f-4b72-a454-8eb0a96224e0","ios":"levelo://app?vid=5bbb9163-852f-4b72-a454-8eb0a96224e0"},"vehicle_type_id":"4","last_reported":1751379024,"current_range_meters":16400,"station_id":"","pricing_plan_id":"cebpf4jnsgd1na2vs0mg"},{"bike_id":"cb714fe0-75a9-43b7-ae69-9cda9cc35564","system_id":"levelo_inurba_marseille","lat":43.30311,"lon":5.39227,"is_reserved":false,"is_disabled":false,"rental_uris":{"android":"levelo://app?vid=cb714fe0-75a9-43b7-ae69-9cda9cc35564","ios":"levelo://app?vid=cb714fe0-75a9-43b7-ae69-9cda9cc35564"},"vehicle_type_id":"4","last_reported":1751379024,"current_range_meters":16400,"station_id":"ce4bgkh2rcd13ifvqbk0","pricing_plan_id":"cebpf4jnsgd1na2vs0mg"},{"bike_id":"27a075ca-20ef-4d20-8cf8-effaa175c347","system_id":"levelo_inurba_marseille","lat":43.301464,"lon":5.374254,"is_reserved":false,"is_disabled":false,"rental_uris":{"android":"levelo://app?vid=27a075ca-20ef-4d20-8cf8-effaa175c347","ios":"levelo://app?vid=27a075ca-20ef-4d20-8cf8-effaa175c347"},"vehicle_type_id":"4","last_reported":1751379024,"current_range_meters":16400,"station_id":"ce4bgs92rcd13ifvqcc0","pricing_plan_id":"cebpf4jnsgd1na2vs0mg"},{"bike_id":"87f2030d-836a-48e0-849f-fa511db0dc8f","system_id":"levelo_inurba_marseille","lat":43.27377,"lon":5.36252,"is_reserved":false,"is_disabled":false,"rental_uris":{"android":"levelo://app?vid=87f2030d-836a-48e0-849f-fa511db0dc8f","ios":"levelo://app?vid=87f2030d-836a-48e0-849f-fa511db0dc8f"},"vehicle_type_id":"4","last_reported":1751379024,"current_range_meters":16400,"station_id":"ce4bhbh2rcd13ifvqeo0","pricing_plan_id":"cebpf4jnsgd1na2vs0mg"},{"bike_id":"eaed4e81-d1f7-4468-8791-7f7857284079","system_id":"levelo_inurba_marseille","lat":43.2439,"lon":5.37064,"is_reserved":false,"is_disabled":false,"rental_uris":{"android":"levelo://app?vid=eaed4e81-d1f7-4468-8791-7f7857284079","ios":"levelo://app?vid=eaed4e81-d1f7-4468-8791-7f7857284079"},"vehicle_type_id":"4","last_reported":1751379024,"current_range_meters":16400,"station_id":"ce4bhhh2rcd13ifvqfk0","pricing_plan_id":"cebpf4jnsgd1na2vs0mg"},{"bike_id":"d00fa68d-b19a-4fd5-9b9d-865c8097ba7e","system_id":"levelo_inurba_marseille","lat":43.27807,"lon":5.40712,"is_reserved":false,"is_disabled":false,"rental_uris":{"android":"levelo://app?vid=d00fa68d-b19a-4fd5-9b9d-865c8097ba7e","ios":"levelo://app?vid=d00fa68d-b19a-4fd5-9b9d-865c8097ba7e"},"vehicle_type_id":"4","last_reported":1751379024,"current_range_meters":16400,"station_id":"ce4bhnh2rcd13ifvqgtg","pricing_plan_id":"cebpf4jnsgd1na2vs0mg"},{"bike_id":"8389c45c-780a-4193-83f6-03c2cfb7a487","system_id":"levelo_inurba_marseille","lat":43.312363,"lon":5.372019,"is_reserved":false,"is_disabled":false,"rental_uris":{"android":"levelo://app?vid=8389c45c-780a-4193-83f6-03c2cfb7a487","ios":"levelo://app?vid=8389c45c-780a-4193-83f6-03c2cfb7a487"},"vehicle_type_id":"4","last_reported":1751379024,"current_range_meters":16400,"station_id":"ce4bhs12rcd13ifvqhvg","pricing_plan_id":"cebpf4jnsgd1na2vs0mg"},{"bike_id":"6b2ddcec-816f-42cf-b55b-a185c165d31c","system_id":"levelo_inurba_marseille","lat":43.24172,"lon":5.36426,"is_reserved":false,"is_disabled":false,"rental_uris":{"android":"levelo://app?vid=6b2ddcec-816f-42cf-b55b-a185c165d31c","ios":"levelo://app?vid=6b2ddcec-816f-42cf-b55b-a185c165d31c"},"vehicle_type_id":"4","last_reported":1751379024,"current_range_meters":16400,"station_id":"cpo36qri1sfpv3e86is0","pricing_plan_id":"cebpf4jnsgd1na2vs0mg"},{"bike_id":"2bc25ca4-c28c-4335-a0aa-b132b20800b4","system_id":"levelo_inurba_marseille","lat":43.29425,"lon":5.37426,"is_reserved":false,"is_disabled":false,"rental_uris":{"android":"levelo://app?vid=2bc25ca4-c28c-4335-a0aa-b132b20800b4","ios":"levelo://app?vid=2bc25ca4-c28c-4335-a0aa-b132b20800b4"},"vehicle_type_id":"4","last_reported":1751379024,"current_range_meters":16800,"station_id":"","pricing_plan_id":"cebpf4jnsgd1na2vs0mg"},{"bike_id":"99dade19-4199-49f4-8b14-d0b89004f8a0","system_id":"levelo_inurba_marseille","lat":43.25279,"lon":5.37575,"is_reserved":false,"is_disabled":false,"rental_uris":{"android":"levelo://app?vid=99dade19-4199-49f4-8b14-d0b89004f8a0","ios":"levelo://app?vid=99dade19-4199-49f4-8b14-d0b89004f8a0"},"vehicle_type_id":"4","last_reported":1751379024,"current_range_meters":16800,"station_id":"","pricing_plan_id":"cebpf4jnsgd1na2vs0mg"},{"bike_id":"539ed013-9e80-448a-999f-a7819f54786a","system_id":"levelo_inurba_marseille","lat":43.290309,"lon":5.375668,"is_reserved":false,"is_disabled":false,"rental_uris":{"android":"levelo://app?vid=539ed013-9e80-448a-999f-a7819f54786a","ios":"levelo://app?vid=539ed013-9e80-448a-999f-a7819f54786a"},"vehicle_type_id":"4","last_reported":1751379024,"current_range_meters":16800,"station_id":"","pricing_plan_id":"cebpf4jnsgd1na2vs0mg"},{"bike_id":"a0cef316-ad95-4855-8f78-a31341a2b90e","system_id":"levelo_inurba_marseille","lat":43.31261,"lon":5.37807,"is_reserved":false,"is_disabled":false,"rental_uris":{"android":"levelo://app?vid=a0cef316-ad95-4855-8f78-a31341a2b90e","ios":"levelo://app?vid=a0cef316-ad95-4855-8f78-a31341a2b90e"},"vehicle_type_id":"4","last_reported":1751379024,"current_range_meters":16800,"station_id":"","pricing_plan_id":"cebpf4jnsgd1na2vs0mg"},{"bike_id":"4900e692-c68a-4562-b0e3-54a7ef4ce269","system_id":"levelo_inurba_marseille","lat":43.31233,"lon":5.3685,"is_reserved":false,"is_disabled":false,"rental_uris":{"android":"levelo://app?vid=4900e692-c68a-4562-b0e3-54a7ef4ce269","ios":"levelo://app?vid=4900e692-c68a-4562-b0e3-54a7ef4ce269"},"vehicle_type_id":"4","last_reported":1751379024,"current_range_meters":16800,"station_id":"ce4bgl92rcd13ifvqbq0","pricing_plan_id":"cebpf4jnsgd1na2vs0mg"},{"bike_id":"5cc72c8b-53c7-4d66-b94a-08c4f9215683","system_id":"levelo_inurba_marseille","lat":43.28027,"lon":5.36939,"is_reserved":false,"is_disabled":false,"rental_uris":{"android":"levelo://app?vid=5cc72c8b-53c7-4d66-b94a-08c4f9215683","ios":"levelo://app?vid=5cc72c8b-53c7-4d66-b94a-08c4f9215683"},"vehicle_type_id":"4","last_reported":1751379024,"current_range_meters":16800,"station_id":"ce4bha12rcd13ifvqef0","pricing_plan_id":"cebpf4jnsgd1na2vs0mg"},{"bike_id":"40656435-ef53-484f-90c3-cce44f4b5875","system_id":"levelo_inurba_marseille","lat":43.280829,"lon":5.368053,"is_reserved":false,"is_disabled":false,"rental_uris":{"android":"levelo://app?vid=40656435-ef53-484f-90c3-cce44f4b5875","ios":"levelo://app?vid=40656435-ef53-484f-90c3-cce44f4b5875"},"vehicle_type_id":"4","last_reported":1751379024,"current_range_meters":16800,"station_id":"ce4bha12rcd13ifvqef0","pricing_plan_id":"cebpf4jnsgd1na2vs0mg"},{"bike_id":"1dd9ef34-4353-40cc-8c4a-27a3524c2181","system_id":"levelo_inurba_marseille","lat":43.24069,"lon":5.37757,"is_reserved":false,"is_disabled":false,"rental_uris":{"android":"levelo://app?vid=1dd9ef34-4353-40cc-8c4a-27a3524c2181","ios":"levelo://app?vid=1dd9ef34-4353-40cc-8c4a-27a3524c2181"},"vehicle_type_id":"4","last_reported":1751379024,"current_range_meters":16800,"station_id":"ce4bhnp2rcd13ifvqgvg","pricing_plan_id":"cebpf4jnsgd1na2vs0mg"},{"bike_id":"8233db61-1d36-41a5-a985-c98b6a5f0fb4","system_id":"levelo_inurba_marseille","lat":43.21757,"lon":5.34592,"is_reserved":false,"is_disabled":false,"rental_uris":{"android":"levelo://app?vid=8233db61-1d36-41a5-a985-c98b6a5f0fb4","ios":"levelo://app?vid=8233db61-1d36-41a5-a985-c98b6a5f0fb4"},"vehicle_type_id":"4","last_reported":1751379024,"current_range_meters":16800,"station_id":"st_cvj6r9ubvosntc0bgbag","pricing_plan_id":"cebpf4jnsgd1na2vs0mg"},{"bike_id":"d2fe2280-9dda-4f08-822f-aa45767453bf","system_id":"levelo_inurba_marseille","lat":43.313914,"lon":5.367331,"is_reserved":false,"is_disabled":false,"rental_uris":{"android":"levelo://app?vid=d2fe2280-9dda-4f08-822f-aa45767453bf","ios":"levelo://app?vid=d2fe2280-9dda-4f08-822f-aa45767453bf"},"vehicle_type_id":"4","last_reported":1751379024,"current_range_meters":17200,"station_id":"","pricing_plan_id":"cebpf4jnsgd1na2vs0mg"},{"bike_id":"dde39140-580b-4977-b35b-e5095d2fafc3","system_id":"levelo_inurba_marseille","lat":43.29716,"lon":5.37671,"is_reserved":false,"is_disabled":false,"rental_uris":{"android":"levelo://app?vid=dde39140-580b-4977-b35b-e5095d2fafc3","ios":"levelo://app?vid=dde39140-580b-4977-b35b-e5095d2fafc3"},"vehicle_type_id":"4","last_reported":1751379024,"current_range_meters":17200,"station_id":"ce4bgkh2rcd13ifvqbl0","pricing_plan_id":"cebpf4jnsgd1na2vs0mg"},{"bike_id":"6381fa24-bee1-49b3-b67d-dfad91ae087d","system_id":"levelo_inurba_marseille","lat":43.28462,"lon":5.35893,"is_reserved":false,"is_disabled":false,"rental_uris":{"android":"levelo://app?vid=6381fa24-bee1-49b3-b67d-dfad91ae087d","ios":"levelo://app?vid=6381fa24-bee1-49b3-b67d-dfad91ae087d"},"vehicle_type_id":"4","last_reported":1751379024,"current_range_meters":17200,"station_id":"ce4bhah2rcd13ifvqei0","pricing_plan_id":"cebpf4jnsgd1na2vs0mg"},{"bike_id":"1b1d2a55-7937-4e4f-8e1d-0772a66cddb7","system_id":"levelo_inurba_marseille","lat":43.286161,"lon":5.351006,"is_reserved":false,"is_disabled":false,"rental_uris":{"android":"levelo://app?vid=1b1d2a55-7937-4e4f-8e1d-0772a66cddb7","ios":"levelo://app?vid=1b1d2a55-7937-4e4f-8e1d-0772a66cddb7"},"vehicle_type_id":"4","last_reported":1751379024,"current_range_meters":17200,"station_id":"ce4bhch2rcd13ifvqeug","pricing_plan_id":"cebpf4jnsgd1na2vs0mg"},{"bike_id":"6f0c338a-7faa-49b0-8d32-52aa41a83982","system_id":"levelo_inurba_marseille","lat":43.286289,"lon":5.383803,"is_reserved":false,"is_disabled":false,"rental_uris":{"android":"levelo://app?vid=6f0c338a-7faa-49b0-8d32-52aa41a83982","ios":"levelo://app?vid=6f0c338a-7faa-49b0-8d32-52aa41a83982"},"vehicle_type_id":"4","last_reported":1751379024,"current_range_meters":17200,"station_id":"ce4bhf92rcd13ifvqf40","pricing_plan_id":"cebpf4jnsgd1na2vs0mg"},{"bike_id":"156a9af9-ea3e-4363-a3c5-5a8bee3b93ff","system_id":"levelo_inurba_marseille","lat":43.24652,"lon":5.38899,"is_reserved":false,"is_disabled":false,"rental_uris":{"android":"levelo://app?vid=156a9af9-ea3e-4363-a3c5-5a8bee3b93ff","ios":"levelo://app?vid=156a9af9-ea3e-4363-a3c5-5a8bee3b93ff"},"vehicle_type_id":"4","last_reported":1751379024,"current_range_meters":17200,"station_id":"ce4bhg12rcd13ifvqf60","pricing_plan_id":"cebpf4jnsgd1na2vs0mg"},{"bike_id":"36d83600-3670-4035-a5e5-3c9d57af76a0","system_id":"levelo_inurba_marseille","lat":43.24167,"lon":5.36389,"is_reserved":false,"is_disabled":false,"rental_uris":{"android":"levelo://app?vid=36d83600-3670-4035-a5e5-3c9d57af76a0","ios":"levelo://app?vid=36d83600-3670-4035-a5e5-3c9d57af76a0"},"vehicle_type_id":"4","last_reported":1751379024,"current_range_meters":17200,"station_id":"cpo36qri1sfpv3e86is0","pricing_plan_id":"cebpf4jnsgd1na2vs0mg"},{"bike_id":"cfc0aa67-590a-4038-b894-cb7b8f074cc7","system_id":"levelo_inurba_marseille","lat":43.2175,"lon":5.34598,"is_reserved":false,"is_disabled":false,"rental_uris":{"android":"levelo://app?vid=cfc0aa67-590a-4038-b894-cb7b8f074cc7","ios":"levelo://app?vid=cfc0aa67-590a-4038-b894-cb7b8f074cc7"},"vehicle_type_id":"4","last_reported":1751379024,"current_range_meters":17200,"station_id":"st_cvj6r9ubvosntc0bgbag","pricing_plan_id":"cebpf4jnsgd1na2vs0mg"},{"bike_id":"0c1b4f74-5294-4b59-932d-b742ce647d9e","system_id":"levelo_inurba_marseille","lat":43.211814,"lon":5.350718,"is_reserved":false,"is_disabled":false,"rental_uris":{"android":"levelo://app?vid=0c1b4f74-5294-4b59-932d-b742ce647d9e","ios":"levelo://app?vid=0c1b4f74-5294-4b59-932d-b742ce647d9e"},"vehicle_type_id":"4","last_reported":1751379024,"current_range_meters":17200,"station_id":"st_cvj6sg6p6f1abm77japg","pricing_plan_id":"cebpf4jnsgd1na2vs0mg"},{"bike_id":"8a74f5cd-9efa-4362-bea7-a32db4dcc85c","system_id":"levelo_inurba_marseille","lat":43.21187,"lon":5.35062,"is_reserved":false,"is_disabled":false,"rental_uris":{"android":"levelo://app?vid=8a74f5cd-9efa-4362-bea7-a32db4dcc85c","ios":"levelo://app?vid=8a74f5cd-9efa-4362-bea7-a32db4dcc85c"},"vehicle_type_id":"4","last_reported":1751379024,"current_range_meters":17200,"station_id":"st_cvj6sg6p6f1abm77japg","pricing_plan_id":"cebpf4jnsgd1na2vs0mg"},{"bike_id":"c2cc3873-3136-4ba7-984d-6514f2a6bcc2","system_id":"levelo_inurba_marseille","lat":43.26692,"lon":5.3827,"is_reserved":false,"is_disabled":false,"rental_uris":{"android":"levelo://app?vid=c2cc3873-3136-4ba7-984d-6514f2a6bcc2","ios":"levelo://app?vid=c2cc3873-3136-4ba7-984d-6514f2a6bcc2"},"vehicle_type_id":"4","last_reported":1751379024,"current_range_meters":17600,"station_id":"ce4bhg92rcd13ifvqf90","pricing_plan_id":"cebpf4jnsgd1na2vs0mg"},{"bike_id":"fc7e8355-f532-43ec-9e4c-45a0bcaf9efb","system_id":"levelo_inurba_marseille","lat":43.23153,"lon":5.43726,"is_reserved":false,"is_disabled":false,"rental_uris":{"android":"levelo://app?vid=fc7e8355-f532-43ec-9e4c-45a0bcaf9efb","ios":"levelo://app?vid=fc7e8355-f532-43ec-9e4c-45a0bcaf9efb"},"vehicle_type_id":"4","last_reported":1751379024,"current_range_meters":17600,"station_id":"ce4bhmp2rcd13ifvqgog","pricing_plan_id":"cebpf4jnsgd1na2vs0mg"},{"bike_id":"6168064d-6604-4c2e-826a-ecf036e1a8d7","system_id":"levelo_inurba_marseille","lat":43.24163,"lon":5.36388,"is_reserved":false,"is_disabled":false,"rental_uris":{"android":"levelo://app?vid=6168064d-6604-4c2e-826a-ecf036e1a8d7","ios":"levelo://app?vid=6168064d-6604-4c2e-826a-ecf036e1a8d7"},"vehicle_type_id":"4","last_reported":1751379024,"current_range_meters":17600,"station_id":"cpo36qri1sfpv3e86is0","pricing_plan_id":"cebpf4jnsgd1na2vs0mg"},{"bike_id":"bc0317b2-9890-420a-97c6-504f08ceee1b","system_id":"levelo_inurba_marseille","lat":43.30208,"lon":5.39487,"is_reserved":false,"is_disabled":false,"rental_uris":{"android":"levelo://app?vid=bc0317b2-9890-420a-97c6-504f08ceee1b","ios":"levelo://app?vid=bc0317b2-9890-420a-97c6-504f08ceee1b"},"vehicle_type_id":"4","last_reported":1751379024,"current_range_meters":18000,"station_id":"ce4bh0p2rcd13ifvqd70","pricing_plan_id":"cebpf4jnsgd1na2vs0mg"},{"bike_id":"1e6b9f52-da41-4d6b-90e7-4aee7cbf4f90","system_id":"levelo_inurba_marseille","lat":43.28616,"lon":5.35094,"is_reserved":false,"is_disabled":false,"rental_uris":{"android":"levelo://app?vid=1e6b9f52-da41-4d6b-90e7-4aee7cbf4f90","ios":"levelo://app?vid=1e6b9f52-da41-4d6b-90e7-4aee7cbf4f90"},"vehicle_type_id":"4","last_reported":1751379024,"current_range_meters":18000,"station_id":"ce4bhch2rcd13ifvqeug","pricing_plan_id":"cebpf4jnsgd1na2vs0mg"},{"bike_id":"afb78327-cc2c-423c-9e7b-9e6a58647879","system_id":"levelo_inurba_marseille","lat":43.336871,"lon":5.392133,"is_reserved":false,"is_disabled":false,"rental_uris":{"android":"levelo://app?vid=afb78327-cc2c-423c-9e7b-9e6a58647879","ios":"levelo://app?vid=afb78327-cc2c-423c-9e7b-9e6a58647879"},"vehicle_type_id":"4","last_reported":1751379024,"current_range_meters":18000,"station_id":"ce4bhr92rcd13ifvqhsg","pricing_plan_id":"cebpf4jnsgd1na2vs0mg"},{"bike_id":"fdcc33b3-b27b-4fd9-90cb-c9421efe9db6","system_id":"levelo_inurba_marseille","lat":43.278142,"lon":5.414485,"is_reserved":false,"is_disabled":false,"rental_uris":{"android":"levelo://app?vid=fdcc33b3-b27b-4fd9-90cb-c9421efe9db6","ios":"levelo://app?vid=fdcc33b3-b27b-4fd9-90cb-c9421efe9db6"},"vehicle_type_id":"4","last_reported":1751379024,"current_range_meters":18800,"station_id":"","pricing_plan_id":"cebpf4jnsgd1na2vs0mg"},{"bike_id":"f00e3044-9bd1-48b5-b342-151af21b34fa","system_id":"levelo_inurba_marseille","lat":43.29981,"lon":5.37389,"is_reserved":false,"is_disabled":false,"rental_uris":{"android":"levelo://app?vid=f00e3044-9bd1-48b5-b342-151af21b34fa","ios":"levelo://app?vid=f00e3044-9bd1-48b5-b342-151af21b34fa"},"vehicle_type_id":"4","last_reported":1751379024,"current_range_meters":18800,"station_id":"","pricing_plan_id":"cebpf4jnsgd1na2vs0mg"},{"bike_id":"e7a06c63-8b0e-48d2-9310-ac61906a3cd3","system_id":"levelo_inurba_marseille","lat":43.30911,"lon":5.36856,"is_reserved":false,"is_disabled":false,"rental_uris":{"android":"levelo://app?vid=e7a06c63-8b0e-48d2-9310-ac61906a3cd3","ios":"levelo://app?vid=e7a06c63-8b0e-48d2-9310-ac61906a3cd3"},"vehicle_type_id":"4","last_reported":1751379024,"current_range_meters":18800,"station_id":"ce4bgn92rcd13ifvqbvg","pricing_plan_id":"cebpf4jnsgd1na2vs0mg"},{"bike_id":"31d9e872-9003-4cc9-866e-0c65be2363e3","system_id":"levelo_inurba_marseille","lat":43.28255,"lon":5.35085,"is_reserved":false,"is_disabled":false,"rental_uris":{"android":"levelo://app?vid=31d9e872-9003-4cc9-866e-0c65be2363e3","ios":"levelo://app?vid=31d9e872-9003-4cc9-866e-0c65be2363e3"},"vehicle_type_id":"4","last_reported":1751379024,"current_range_meters":18800,"station_id":"ce4bhbp2rcd13ifvqerg","pricing_plan_id":"cebpf4jnsgd1na2vs0mg"},{"bike_id":"a9f53c29-fa1a-44d4-8a19-44ed4c3f4709","system_id":"levelo_inurba_marseille","lat":43.279,"lon":5.38015,"is_reserved":false,"is_disabled":false,"rental_uris":{"android":"levelo://app?vid=a9f53c29-fa1a-44d4-8a19-44ed4c3f4709","ios":"levelo://app?vid=a9f53c29-fa1a-44d4-8a19-44ed4c3f4709"},"vehicle_type_id":"4","last_reported":1751379024,"current_range_meters":18800,"station_id":"ce4bhf92rcd13ifvqf50","pricing_plan_id":"cebpf4jnsgd1na2vs0mg"},{"bike_id":"0a15749f-5838-4796-b551-7e2c0086d5be","system_id":"levelo_inurba_marseille","lat":43.30417,"lon":5.41281,"is_reserved":false,"is_disabled":false,"rental_uris":{"android":"levelo://app?vid=0a15749f-5838-4796-b551-7e2c0086d5be","ios":"levelo://app?vid=0a15749f-5838-4796-b551-7e2c0086d5be"},"vehicle_type_id":"4","last_reported":1751379024,"current_range_meters":18800,"station_id":"ce4bhop2rcd13ifvqh8g","pricing_plan_id":"cebpf4jnsgd1na2vs0mg"},{"bike_id":"6a117f79-3945-42c1-aaa9-f01191528115","system_id":"levelo_inurba_marseille","lat":43.32449,"lon":5.36566,"is_reserved":false,"is_disabled":false,"rental_uris":{"android":"levelo://app?vid=6a117f79-3945-42c1-aaa9-f01191528115","ios":"levelo://app?vid=6a117f79-3945-42c1-aaa9-f01191528115"},"vehicle_type_id":"4","last_reported":1751379024,"current_range_meters":18800,"station_id":"ce4bhs12rcd13ifvqhvg","pricing_plan_id":"cebpf4jnsgd1na2vs0mg"},{"bike_id":"d0f90c24-dd03-411b-9731-55305f76b7c8","system_id":"levelo_inurba_marseille","lat":43.211935,"lon":5.350769,"is_reserved":false,"is_disabled":false,"rental_uris":{"android":"levelo://app?vid=d0f90c24-dd03-411b-9731-55305f76b7c8","ios":"levelo://app?vid=d0f90c24-dd03-411b-9731-55305f76b7c8"},"vehicle_type_id":"4","last_reported":1751379024,"current_range_meters":18800,"station_id":"st_cvj6sg6p6f1abm77japg","pricing_plan_id":"cebpf4jnsgd1na2vs0mg"},{"bike_id":"bbc8bd51-5a63-46a4-9473-94579c1a04e7","system_id":"levelo_inurba_marseille","lat":43.31214,"lon":5.36853,"is_reserved":false,"is_disabled":false,"rental_uris":{"android":"levelo://app?vid=bbc8bd51-5a63-46a4-9473-94579c1a04e7","ios":"levelo://app?vid=bbc8bd51-5a63-46a4-9473-94579c1a04e7"},"vehicle_type_id":"4","last_reported":1751379024,"current_range_meters":19200,"station_id":"ce4bgl92rcd13ifvqbq0","pricing_plan_id":"cebpf4jnsgd1na2vs0mg"},{"bike_id":"79e31ddd-3c69-4797-90ea-525405f34e2a","system_id":"levelo_inurba_marseille","lat":43.3148,"lon":5.37298,"is_reserved":false,"is_disabled":false,"rental_uris":{"android":"levelo://app?vid=79e31ddd-3c69-4797-90ea-525405f34e2a","ios":"levelo://app?vid=79e31ddd-3c69-4797-90ea-525405f34e2a"},"vehicle_type_id":"4","last_reported":1751379024,"current_range_meters":19200,"station_id":"ce4bgt12rcd13ifvqcd0","pricing_plan_id":"cebpf4jnsgd1na2vs0mg"},{"bike_id":"c747fbfe-ff14-48e1-bacd-cf0ff49b48a9","system_id":"levelo_inurba_marseille","lat":43.29264,"lon":5.38429,"is_reserved":false,"is_disabled":false,"rental_uris":{"android":"levelo://app?vid=c747fbfe-ff14-48e1-bacd-cf0ff49b48a9","ios":"levelo://app?vid=c747fbfe-ff14-48e1-bacd-cf0ff49b48a9"},"vehicle_type_id":"4","last_reported":1751379024,"current_range_meters":19200,"station_id":"ce4bh692rcd13ifvqea0","pricing_plan_id":"cebpf4jnsgd1na2vs0mg"},{"bike_id":"5b2c26e1-e78b-4276-a839-429eeda5a3bd","system_id":"levelo_inurba_marseille","lat":43.29258,"lon":5.38434,"is_reserved":false,"is_disabled":false,"rental_uris":{"android":"levelo://app?vid=5b2c26e1-e78b-4276-a839-429eeda5a3bd","ios":"levelo://app?vid=5b2c26e1-e78b-4276-a839-429eeda5a3bd"},"vehicle_type_id":"4","last_reported":1751379024,"current_range_meters":19200,"station_id":"ce4bh692rcd13ifvqea0","pricing_plan_id":"cebpf4jnsgd1na2vs0mg"},{"bike_id":"8026e2cf-f586-486f-af2f-d543b2daf1ed","system_id":"levelo_inurba_marseille","lat":43.28271,"lon":5.35113,"is_reserved":false,"is_disabled":false,"rental_uris":{"android":"levelo://app?vid=8026e2cf-f586-486f-af2f-d543b2daf1ed","ios":"levelo://app?vid=8026e2cf-f586-486f-af2f-d543b2daf1ed"},"vehicle_type_id":"4","last_reported":1751379024,"current_range_meters":19200,"station_id":"ce4bhbp2rcd13ifvqerg","pricing_plan_id":"cebpf4jnsgd1na2vs0mg"},{"bike_id":"fd1059e4-b058-4831-9512-930162681245","system_id":"levelo_inurba_marseille","lat":43.26953,"lon":5.3863,"is_reserved":false,"is_disabled":false,"rental_uris":{"android":"levelo://app?vid=fd1059e4-b058-4831-9512-930162681245","ios":"levelo://app?vid=fd1059e4-b058-4831-9512-930162681245"},"vehicle_type_id":"4","last_reported":1751379024,"current_range_meters":19200,"station_id":"ce4bhh92rcd13ifvqfh0","pricing_plan_id":"cebpf4jnsgd1na2vs0mg"},{"bike_id":"b217d3b3-907c-42b8-90b0-b0bb12a41695","system_id":"levelo_inurba_marseille","lat":43.24191,"lon":5.39719,"is_reserved":false,"is_disabled":false,"rental_uris":{"android":"levelo://app?vid=b217d3b3-907c-42b8-90b0-b0bb12a41695","ios":"levelo://app?vid=b217d3b3-907c-42b8-90b0-b0bb12a41695"},"vehicle_type_id":"4","last_reported":1751379024,"current_range_meters":19200,"station_id":"ce4bhn12rcd13ifvqgpg","pricing_plan_id":"cebpf4jnsgd1na2vs0mg"},{"bike_id":"81b9753f-aa28-4513-89a4-3ee72628d38d","system_id":"levelo_inurba_marseille","lat":43.320998,"lon":5.3678,"is_reserved":false,"is_disabled":false,"rental_uris":{"android":"levelo://app?vid=81b9753f-aa28-4513-89a4-3ee72628d38d","ios":"levelo://app?vid=81b9753f-aa28-4513-89a4-3ee72628d38d"},"vehicle_type_id":"4","last_reported":1751379024,"current_range_meters":19200,"station_id":"ce4bhrh2rcd13ifvqhug","pricing_plan_id":"cebpf4jnsgd1na2vs0mg"},{"bike_id":"dbe6a7d8-6edc-4015-8658-f68eeb46a661","system_id":"levelo_inurba_marseille","lat":43.33617,"lon":5.39846,"is_reserved":false,"is_disabled":false,"rental_uris":{"android":"levelo://app?vid=dbe6a7d8-6edc-4015-8658-f68eeb46a661","ios":"levelo://app?vid=dbe6a7d8-6edc-4015-8658-f68eeb46a661"},"vehicle_type_id":"4","last_reported":1751379024,"current_range_meters":19600,"station_id":"","pricing_plan_id":"cebpf4jnsgd1na2vs0mg"},{"bike_id":"7e62b058-a7ed-4634-80f1-04d3de596de7","system_id":"levelo_inurba_marseille","lat":43.29862,"lon":5.36842,"is_reserved":false,"is_disabled":false,"rental_uris":{"android":"levelo://app?vid=7e62b058-a7ed-4634-80f1-04d3de596de7","ios":"levelo://app?vid=7e62b058-a7ed-4634-80f1-04d3de596de7"},"vehicle_type_id":"4","last_reported":1751379024,"current_range_meters":19600,"station_id":"","pricing_plan_id":"cebpf4jnsgd1na2vs0mg"},{"bike_id":"eaf1bea1-45b1-4411-bbbe-32966ffd73ce","system_id":"levelo_inurba_marseille","lat":43.28154,"lon":5.42647,"is_reserved":false,"is_disabled":false,"rental_uris":{"android":"levelo://app?vid=eaf1bea1-45b1-4411-bbbe-32966ffd73ce","ios":"levelo://app?vid=eaf1bea1-45b1-4411-bbbe-32966ffd73ce"},"vehicle_type_id":"4","last_reported":1751379024,"current_range_meters":19600,"station_id":"","pricing_plan_id":"cebpf4jnsgd1na2vs0mg"},{"bike_id":"59ae3b8f-eba4-451c-b0ce-d080b59cbd9c","system_id":"levelo_inurba_marseille","lat":43.30548,"lon":5.38401,"is_reserved":false,"is_disabled":false,"rental_uris":{"android":"levelo://app?vid=59ae3b8f-eba4-451c-b0ce-d080b59cbd9c","ios":"levelo://app?vid=59ae3b8f-eba4-451c-b0ce-d080b59cbd9c"},"vehicle_type_id":"4","last_reported":1751379024,"current_range_meters":19600,"station_id":"ce4bgg92rcd13ifvqb30","pricing_plan_id":"cebpf4jnsgd1na2vs0mg"},{"bike_id":"4909083e-9048-4d86-a6fc-4139f456a4b0","system_id":"levelo_inurba_marseille","lat":43.30139,"lon":5.3742,"is_reserved":false,"is_disabled":false,"rental_uris":{"android":"levelo://app?vid=4909083e-9048-4d86-a6fc-4139f456a4b0","ios":"levelo://app?vid=4909083e-9048-4d86-a6fc-4139f456a4b0"},"vehicle_type_id":"4","last_reported":1751379024,"current_range_meters":19600,"station_id":"ce4bgs92rcd13ifvqcc0","pricing_plan_id":"cebpf4jnsgd1na2vs0mg"},{"bike_id":"e3e84ccf-767d-4de4-be2a-65724f98bbc6","system_id":"levelo_inurba_marseille","lat":43.28855,"lon":5.35845,"is_reserved":false,"is_disabled":false,"rental_uris":{"android":"levelo://app?vid=e3e84ccf-767d-4de4-be2a-65724f98bbc6","ios":"levelo://app?vid=e3e84ccf-767d-4de4-be2a-65724f98bbc6"},