{"last_updated":1734800851,"ttl":60,"version":"2.2","data":{"bikes":[{"bike_id":"86b5ab1e-3a78-4f9a-a5e9-7a7dab99fec8","system_id":"levelo_inurba_marseille","lat":43.29282,"lon":5.40123,"is_reserved":false,"is_disabled":false,"rental_uris":{"android":"levelo://app?vid=86b5ab1e-3a78-4f9a-a5e9-7a7dab99fec8","ios":"levelo://app?vid=86b5ab1e-3a78-4f9a-a5e9-7a7dab99fec8"},"vehicle_type_id":"4","last_reported":1734800852,"current_range_meters":28800,"station_id":"ce4bh312rcd13ifvqdk0","pricing_plan_id":"cebpf4jnsgd1na2vs0mg"},{"bike_id":"b5251cd0-66bc-4e10-9cd1-311b5de694fa","system_id":"levelo_inurba_marseille","lat":43.27617,"lon":5.3611,"is_reserved":false,"is_disabled":false,"rental_uris":{"android":"levelo://app?vid=b5251cd0-66bc-4e10-9cd1-311b5de694fa","ios":"levelo://app?vid=b5251cd0-66bc-4e10-9cd1-311b5de694fa"},"vehicle_type_id":"4","last_reported":1734800852,"current_range_meters":25200,"station_id":"ce4bgj92rcd13ifvqbe0","pricing_plan_id":"cebpf4jnsgd1na2vs0mg"},{"bike_id":"56ed354a-f7a3-45be-a584-68f46dbdfda3","system_id":"levelo_inurba_marseille","lat":43.2956,"lon":5.42281,"is_reserved":false,"is_disabled":false,"rental_uris":{"android":"levelo://app?vid=56ed354a-f7a3-45be-a584-68f46dbdfda3","ios":"levelo://app?vid=56ed354a-f7a3-45be-a584-68f46dbdfda3"},"vehicle_type_id":"4","last_reported":1734800852,"current_range_meters":20400,"station_id":"ce4bhph2rcd13ifvqhdg","pricing_plan_id":"cebpf4jnsgd1na2vs0mg"},{"bike_id":"273fce40-dd7c-4fcb-9625-a65570cecce3","system_id":"levelo_inurba_marseille","lat":43.29037,"lon":5.37574,"is_reserved":false,"is_disabled":false,"rental_uris":{"android":"levelo://app?vid=273fce40-dd7c-4fcb-9625-a65570cecce3","ios":"levelo://app?vid=273fce40-dd7c-4fcb-9625-a65570cecce3"},"vehicle_type_id":"4","last_reported":1734800852,"current_range_meters":38800,"station_id":"ce4bh692rcd13ifvqe90","pricing_plan_id":"cebpf4jnsgd1na2vs0mg"},{"bike_id":"11e103e4-de29-4cfd-82ee-3fc18a4e5fd1","system_id":"levelo_inurba_marseille","lat":43.33736,"lon":5.39184,"is_reserved":false,"is_disabled":false,"rental_uris":{"android":"levelo://app?vid=11e103e4-de29-4cfd-82ee-3fc18a4e5fd1","ios":"levelo://app?vid=11e103e4-de29-4cfd-82ee-3fc18a4e5fd1"},"vehicle_type_id":"4","last_reported":1734800852,"current_range_meters":38800,"station_id":"ce4bhr92rcd13ifvqhsg","pricing_plan_id":"cebpf4jnsgd1na2vs0mg"},{"bike_id":"e4d10f11-96c5-4f19-9021-80608c4f27f9","system_id":"levelo_inurba_marseille","lat":43.27051,"lon":5.40259,"is_reserved":false,"is_disabled":false,"rental_uris":{"android":"levelo://app?vid=e4d10f11-96c5-4f19-9021-80608c4f27f9","ios":"levelo://app?vid=e4d10f11-96c5-4f19-9021-80608c4f27f9"},"vehicle_type_id":"4","last_reported":1734800852,"current_range_meters":27600,"station_id":"ce4bhk92rcd13ifvqgc0","pricing_plan_id":"cebpf4jnsgd1na2vs0mg"},{"bike_id":"96f67906-c94f-4a78-ae6e-fdff28a17019","system_id":"levelo_inurba_marseille","lat":43.337444,"lon":5.374475,"is_reserved":false,"is_disabled":false,"rental_uris":{"android":"levelo://app?vid=96f67906-c94f-4a78-ae6e-fdff28a17019","ios":"levelo://app?vid=96f67906-c94f-4a78-ae6e-fdff28a17019"},"vehicle_type_id":"4","last_reported":1734800852,"current_range_meters":38000,"station_id":"","pricing_plan_id":"cebpf4jnsgd1na2vs0mg"},{"bike_id":"6d401513-66ba-4f40-af76-25e509695a78","system_id":"levelo_inurba_marseille","lat":43.29225,"lon":5.36065,"is_reserved":false,"is_disabled":false,"rental_uris":{"android":"levelo://app?vid=6d401513-66ba-4f40-af76-25e509695a78","ios":"levelo://app?vid=6d401513-66ba-4f40-af76-25e509695a78"},"vehicle_type_id":"4","last_reported":1734800852,"current_range_meters":23200,"station_id":"ce4bhbh2rcd13ifvqeqg","pricing_plan_id":"cebpf4jnsgd1na2vs0mg"},{"bike_id":"40431b7a-e281-4e2d-91bc-d3d85515f6cd","system_id":"levelo_inurba_marseille","lat":43.29538,"lon":5.37498,"is_reserved":false,"is_disabled":false,"rental_uris":{"android":"levelo://app?vid=40431b7a-e281-4e2d-91bc-d3d85515f6cd","ios":"levelo://app?vid=40431b7a-e281-4e2d-91bc-d3d85515f6cd"},"vehicle_type_id":"4","last_reported":1734800852,"current_range_meters":32000,"station_id":"ce4bgkp2rcd13ifvqbmg","pricing_plan_id":"cebpf4jnsgd1na2vs0mg"},{"bike_id":"5481ebd9-b3a3-4db6-ba37-c92c821046b1","system_id":"levelo_inurba_marseille","lat":43.27625,"lon":5.36108,"is_reserved":false,"is_disabled":false,"rental_uris":{"android":"levelo://app?vid=5481ebd9-b3a3-4db6-ba37-c92c821046b1","ios":"levelo://app?vid=5481ebd9-b3a3-4db6-ba37-c92c821046b1"},"vehicle_type_id":"4","last_reported":1734800852,"current_range_meters":39200,"station_id":"ce4bgj92rcd13ifvqbe0","pricing_plan_id":"cebpf4jnsgd1na2vs0mg"},{"bike_id":"ac9ae62b-7f39-42e7-b9ec-75e7356640a3","system_id":"levelo_inurba_marseille","lat":43.32107,"lon":5.36775,"is_reserved":false,"is_disabled":false,"rental_uris":{"android":"levelo://app?vid=ac9ae62b-7f39-42e7-b9ec-75e7356640a3","ios":"levelo://app?vid=ac9ae62b-7f39-42e7-b9ec-75e7356640a3"},"vehicle_type_id":"4","last_reported":1734800852,"current_range_meters":27600,"station_id":"ce4bhrh2rcd13ifvqhug","pricing_plan_id":"cebpf4jnsgd1na2vs0mg"},{"bike_id":"1fd57a3a-4e85-4ef5-8b76-08e1b1a856ef","system_id":"levelo_inurba_marseille","lat":43.29277,"lon":5.40123,"is_reserved":false,"is_disabled":false,"rental_uris":{"android":"levelo://app?vid=1fd57a3a-4e85-4ef5-8b76-08e1b1a856ef","ios":"levelo://app?vid=1fd57a3a-4e85-4ef5-8b76-08e1b1a856ef"},"vehicle_type_id":"4","last_reported":1734800852,"current_range_meters":39200,"station_id":"ce4bh312rcd13ifvqdk0","pricing_plan_id":"cebpf4jnsgd1na2vs0mg"},{"bike_id":"40e61e46-87b4-4402-8c24-7f1ce950b251","system_id":"levelo_inurba_marseille","lat":43.32656,"lon":5.40992,"is_reserved":false,"is_disabled":false,"rental_uris":{"android":"levelo://app?vid=40e61e46-87b4-4402-8c24-7f1ce950b251","ios":"levelo://app?vid=40e61e46-87b4-4402-8c24-7f1ce950b251"},"vehicle_type_id":"4","last_reported":1734800852,"current_range_meters":36000,"station_id":"ce4bhpp2rcd13ifvqhgg","pricing_plan_id":"cebpf4jnsgd1na2vs0mg"},{"bike_id":"896ee76f-342f-425f-8b16-03ff07ea7fcd","system_id":"levelo_inurba_marseille","lat":43.29969,"lon":5.38493,"is_reserved":false,"is_disabled":false,"rental_uris":{"android":"levelo://app?vid=896ee76f-342f-425f-8b16-03ff07ea7fcd","ios":"levelo://app?vid=896ee76f-342f-425f-8b16-03ff07ea7fcd"},"vehicle_type_id":"4","last_reported":1734800852,"current_range_meters":38800,"station_id":"ce4bgj92rcd13ifvqbd0","pricing_plan_id":"cebpf4jnsgd1na2vs0mg"},{"bike_id":"1f662b40-4ded-47c2-b185-778eee1f0b12","system_id":"levelo_inurba_marseille","lat":43.29719,"lon":5.37686,"is_reserved":false,"is_disabled":false,"rental_uris":{"android":"levelo://app?vid=1f662b40-4ded-47c2-b185-778eee1f0b12","ios":"levelo://app?vid=1f662b40-4ded-47c2-b185-778eee1f0b12"},"vehicle_type_id":"4","last_reported":1734800852,"current_range_meters":24400,"station_id":"ce4bgkh2rcd13ifvqbl0","pricing_plan_id":"cebpf4jnsgd1na2vs0mg"},{"bike_id":"d4f716a5-b45a-4d17-a12e-ad65cb06a1ce","system_id":"levelo_inurba_marseille","lat":43.24066,"lon":5.37769,"is_reserved":false,"is_disabled":false,"rental_uris":{"android":"levelo://app?vid=d4f716a5-b45a-4d17-a12e-ad65cb06a1ce","ios":"levelo://app?vid=d4f716a5-b45a-4d17-a12e-ad65cb06a1ce"},"vehicle_type_id":"4","last_reported":1734800852,"current_range_meters":36400,"station_id":"ce4bhnp2rcd13ifvqgvg","pricing_plan_id":"cebpf4jnsgd1na2vs0mg"},{"bike_id":"1b61010c-fd92-4ec4-b679-a5b6c3423ec6","system_id":"levelo_inurba_marseille","lat":43.25581,"lon":5.38222,"is_reserved":false,"is_disabled":false,"rental_uris":{"android":"levelo://app?vid=1b61010c-fd92-4ec4-b679-a5b6c3423ec6","ios":"levelo://app?vid=1b61010c-fd92-4ec4-b679-a5b6c3423ec6"},"vehicle_type_id":"4","last_reported":1734800852,"current_range_meters":38400,"station_id":"ce4bhih2rcd13ifvqfs0","pricing_plan_id":"cebpf4jnsgd1na2vs0mg"},{"bike_id":"710cbb4b-92a3-4fcb-a674-51cdb538a062","system_id":"levelo_inurba_marseille","lat":43.26041,"lon":5.39398,"is_reserved":false,"is_disabled":true,"rental_uris":{"android":"levelo://app?vid=710cbb4b-92a3-4fcb-a674-51cdb538a062","ios":"levelo://app?vid=710cbb4b-92a3-4fcb-a674-51cdb538a062"},"vehicle_type_id":"4","last_reported":1734800852,"current_range_meters":37600,"station_id":"ce4bhh92rcd13ifvqfj0","pricing_plan_id":"cebpf4jnsgd1na2vs0mg"},{"bike_id":"59539a81-e6d5-4387-ab26-955d7d6bb865","system_id":"levelo_inurba_marseille","lat":43.29584,"lon":5.37504,"is_reserved":false,"is_disabled":false,"rental_uris":{"android":"levelo://app?vid=59539a81-e6d5-4387-ab26-955d7d6bb865","ios":"levelo://app?vid=59539a81-e6d5-4387-ab26-955d7d6bb865"},"vehicle_type_id":"4","last_reported":1734800852,"current_range_meters":13600,"station_id":"ce4bgh92rcd13ifvqb50","pricing_plan_id":"cebpf4jnsgd1na2vs0mg"},{"bike_id":"f810d843-5102-4b08-bab4-9f6abb0ec6c0","system_id":"levelo_inurba_marseille","lat":43.2552,"lon":5.37661,"is_reserved":false,"is_disabled":false,"rental_uris":{"android":"levelo://app?vid=f810d843-5102-4b08-bab4-9f6abb0ec6c0","ios":"levelo://app?vid=f810d843-5102-4b08-bab4-9f6abb0ec6c0"},"vehicle_type_id":"4","last_reported":1734800852,"current_range_meters":39200,"station_id":"ce4bhh12rcd13ifvqff0","pricing_plan_id":"cebpf4jnsgd1na2vs0mg"},{"bike_id":"dd52cea9-6fe3-460c-a4fc-255f18d6f38c","system_id":"levelo_inurba_marseille","lat":43.24997,"lon":5.38938,"is_reserved":false,"is_disabled":false,"rental_uris":{"android":"levelo://app?vid=dd52cea9-6fe3-460c-a4fc-255f18d6f38c","ios":"levelo://app?vid=dd52cea9-6fe3-460c-a4fc-255f18d6f38c"},"vehicle_type_id":"4","last_reported":1734800852,"current_range_meters":25200,"station_id":"ce4bhgp2rcd13ifvqfd0","pricing_plan_id":"cebpf4jnsgd1na2vs0mg"},{"bike_id":"31b4b1d6-de26-42ca-8445-092da5a08b47","system_id":"levelo_inurba_marseille","lat":43.27315,"lon":5.39079,"is_reserved":false,"is_disabled":false,"rental_uris":{"android":"levelo://app?vid=31b4b1d6-de26-42ca-8445-092da5a08b47","ios":"levelo://app?vid=31b4b1d6-de26-42ca-8445-092da5a08b47"},"vehicle_type_id":"4","last_reported":1734800852,"current_range_meters":30000,"station_id":"ce4bhgp2rcd13ifvqfe0","pricing_plan_id":"cebpf4jnsgd1na2vs0mg"},{"bike_id":"e2093eaf-d010-461b-aa40-a85f704a9b1e","system_id":"levelo_inurba_marseille","lat":43.27371,"lon":5.36255,"is_reserved":false,"is_disabled":false,"rental_uris":{"android":"levelo://app?vid=e2093eaf-d010-461b-aa40-a85f704a9b1e","ios":"levelo://app?vid=e2093eaf-d010-461b-aa40-a85f704a9b1e"},"vehicle_type_id":"4","last_reported":1734800852,"current_range_meters":8800,"station_id":"ce4bhbh2rcd13ifvqeo0","pricing_plan_id":"cebpf4jnsgd1na2vs0mg"},{"bike_id":"923203be-81e9-4bac-baed-4fd99bc3f450","system_id":"levelo_inurba_marseille","lat":43.29565,"lon":5.37493,"is_reserved":false,"is_disabled":false,"rental_uris":{"android":"levelo://app?vid=923203be-81e9-4bac-baed-4fd99bc3f450","ios":"levelo://app?vid=923203be-81e9-4bac-baed-4fd99bc3f450"},"vehicle_type_id":"4","last_reported":1734800852,"current_range_meters":26800,"station_id":"ce4bgh92rcd13ifvqb50","pricing_plan_id":"cebpf4jnsgd1na2vs0mg"},{"bike_id":"38a16c49-9219-4176-b6ed-82d7757f55d0","system_id":"levelo_inurba_marseille","lat":43.29539,"lon":5.39396,"is_reserved":false,"is_disabled":false,"rental_uris":{"android":"levelo://app?vid=38a16c49-9219-4176-b6ed-82d7757f55d0","ios":"levelo://app?vid=38a16c49-9219-4176-b6ed-82d7757f55d0"},"vehicle_type_id":"4","last_reported":1734800852,"current_range_meters":32000,"station_id":"ce4bh292rcd13ifvqdf0","pricing_plan_id":"cebpf4jnsgd1na2vs0mg"},{"bike_id":"c9daacae-79a8-4a54-9f99-f1056ebfdaf4","system_id":"levelo_inurba_marseille","lat":43.25505,"lon":5.3765,"is_reserved":false,"is_disabled":false,"rental_uris":{"android":"levelo://app?vid=c9daacae-79a8-4a54-9f99-f1056ebfdaf4","ios":"levelo://app?vid=c9daacae-79a8-4a54-9f99-f1056ebfdaf4"},"vehicle_type_id":"4","last_reported":1734800852,"current_range_meters":38800,"station_id":"ce4bhh12rcd13ifvqff0","pricing_plan_id":"cebpf4jnsgd1na2vs0mg"},{"bike_id":"1f265f2c-c3ce-4530-9858-4eca3d9e00e1","system_id":"levelo_inurba_marseille","lat":43.23195,"lon":5.40005,"is_reserved":false,"is_disabled":false,"rental_uris":{"android":"levelo://app?vid=1f265f2c-c3ce-4530-9858-4eca3d9e00e1","ios":"levelo://app?vid=1f265f2c-c3ce-4530-9858-4eca3d9e00e1"},"vehicle_type_id":"4","last_reported":1734800852,"current_range_meters":9600,"station_id":"ce4bhn12rcd13ifvqgqg","pricing_plan_id":"cebpf4jnsgd1na2vs0mg"},{"bike_id":"04291d74-e783-4e53-acbe-2ca9b6cc2332","system_id":"levelo_inurba_marseille","lat":43.30549,"lon":5.36693,"is_reserved":false,"is_disabled":false,"rental_uris":{"android":"levelo://app?vid=04291d74-e783-4e53-acbe-2ca9b6cc2332","ios":"levelo://app?vid=04291d74-e783-4e53-acbe-2ca9b6cc2332"},"vehicle_type_id":"4","last_reported":1734800852,"current_range_meters":21600,"station_id":"ce4bgrp2rcd13ifvqc9g","pricing_plan_id":"cebpf4jnsgd1na2vs0mg"},{"bike_id":"1a884fb0-fd25-4419-8f55-71f22101c4dc","system_id":"levelo_inurba_marseille","lat":43.28471,"lon":5.38406,"is_reserved":false,"is_disabled":false,"rental_uris":{"android":"levelo://app?vid=1a884fb0-fd25-4419-8f55-71f22101c4dc","ios":"levelo://app?vid=1a884fb0-fd25-4419-8f55-71f22101c4dc"},"vehicle_type_id":"4","last_reported":1734800852,"current_range_meters":6400,"station_id":"ce4bh512rcd13ifvqe3g","pricing_plan_id":"cebpf4jnsgd1na2vs0mg"},{"bike_id":"6351627b-57ea-4a06-befc-73876969296f","system_id":"levelo_inurba_marseille","lat":43.29711,"lon":5.37692,"is_reserved":false,"is_disabled":false,"rental_uris":{"android":"levelo://app?vid=6351627b-57ea-4a06-befc-73876969296f","ios":"levelo://app?vid=6351627b-57ea-4a06-befc-73876969296f"},"vehicle_type_id":"4","last_reported":1734800852,"current_range_meters":26800,"station_id":"ce4bgkh2rcd13ifvqbl0","pricing_plan_id":"cebpf4jnsgd1na2vs0mg"},{"bike_id":"b6c864b4-2d74-4843-a929-10118d9d48af","system_id":"levelo_inurba_marseille","lat":43.25506,"lon":5.37649,"is_reserved":false,"is_disabled":false,"rental_uris":{"android":"levelo://app?vid=b6c864b4-2d74-4843-a929-10118d9d48af","ios":"levelo://app?vid=b6c864b4-2d74-4843-a929-10118d9d48af"},"vehicle_type_id":"4","last_reported":1734800852,"current_range_meters":38800,"station_id":"ce4bhh12rcd13ifvqff0","pricing_plan_id":"cebpf4jnsgd1na2vs0mg"},{"bike_id":"e724f4e5-0922-4e36-91f4-8a4c9d514ff5","system_id":"levelo_inurba_marseille","lat":43.29843,"lon":5.3626,"is_reserved":false,"is_disabled":false,"rental_uris":{"android":"levelo://app?vid=e724f4e5-0922-4e36-91f4-8a4c9d514ff5","ios":"levelo://app?vid=e724f4e5-0922-4e36-91f4-8a4c9d514ff5"},"vehicle_type_id":"4","last_reported":1734800852,"current_range_meters":39200,"station_id":"ce4bgpp2rcd13ifvqc3g","pricing_plan_id":"cebpf4jnsgd1na2vs0mg"},{"bike_id":"abf860be-3d3d-4a76-b353-f7286e2856a9","system_id":"levelo_inurba_marseille","lat":43.27622,"lon":5.36106,"is_reserved":false,"is_disabled":false,"rental_uris":{"android":"levelo://app?vid=abf860be-3d3d-4a76-b353-f7286e2856a9","ios":"levelo://app?vid=abf860be-3d3d-4a76-b353-f7286e2856a9"},"vehicle_type_id":"4","last_reported":1734800852,"current_range_meters":22400,"station_id":"ce4bgj92rcd13ifvqbe0","pricing_plan_id":"cebpf4jnsgd1na2vs0mg"},{"bike_id":"7e577efa-ad7b-4159-aa14-2376d4395d6f","system_id":"levelo_inurba_marseille","lat":43.29613,"lon":5.37706,"is_reserved":false,"is_disabled":false,"rental_uris":{"android":"levelo://app?vid=7e577efa-ad7b-4159-aa14-2376d4395d6f","ios":"levelo://app?vid=7e577efa-ad7b-4159-aa14-2376d4395d6f"},"vehicle_type_id":"4","last_reported":1734800852,"current_range_meters":20000,"station_id":"ce4bgi92rcd13ifvqb90","pricing_plan_id":"cebpf4jnsgd1na2vs0mg"},{"bike_id":"d98f0b8a-1ef4-43b4-85a1-12b00b5f4de1","system_id":"levelo_inurba_marseille","lat":43.284243,"lon":5.349989,"is_reserved":false,"is_disabled":false,"rental_uris":{"android":"levelo://app?vid=d98f0b8a-1ef4-43b4-85a1-12b00b5f4de1","ios":"levelo://app?vid=d98f0b8a-1ef4-43b4-85a1-12b00b5f4de1"},"vehicle_type_id":"4","last_reported":1734800852,"current_range_meters":38400,"station_id":"ce4bhbh2rcd13ifvqepg","pricing_plan_id":"cebpf4jnsgd1na2vs0mg"},{"bike_id":"dfb361fe-f637-4041-b1c6-d571444472cc","system_id":"levelo_inurba_marseille","lat":43.33017,"lon":5.39039,"is_reserved":false,"is_disabled":false,"rental_uris":{"android":"levelo://app?vid=dfb361fe-f637-4041-b1c6-d571444472cc","ios":"levelo://app?vid=dfb361fe-f637-4041-b1c6-d571444472cc"},"vehicle_type_id":"4","last_reported":1734800852,"current_range_meters":36000,"station_id":"ce4bhr92rcd13ifvqhrg","pricing_plan_id":"cebpf4jnsgd1na2vs0mg"},{"bike_id":"aeaed922-dbbe-4925-94bf-fe628e911391","system_id":"levelo_inurba_marseille","lat":43.2841,"lon":5.37509,"is_reserved":false,"is_disabled":false,"rental_uris":{"android":"levelo://app?vid=aeaed922-dbbe-4925-94bf-fe628e911391","ios":"levelo://app?vid=aeaed922-dbbe-4925-94bf-fe628e911391"},"vehicle_type_id":"4","last_reported":1734800852,"current_range_meters":33200,"station_id":"ce4bh412rcd13ifvqds0","pricing_plan_id":"cebpf4jnsgd1na2vs0mg"},{"bike_id":"71bbaaf0-30fa-412b-9088-f880a672af88","system_id":"levelo_inurba_marseille","lat":43.26026,"lon":5.37549,"is_reserved":false,"is_disabled":false,"rental_uris":{"android":"levelo://app?vid=71bbaaf0-30fa-412b-9088-f880a672af88","ios":"levelo://app?vid=71bbaaf0-30fa-412b-9088-f880a672af88"},"vehicle_type_id":"4","last_reported":1734800852,"current_range_meters":38800,"station_id":"ce4bhgh2rcd13ifvqfa0","pricing_plan_id":"cebpf4jnsgd1na2vs0mg"},{"bike_id":"5102d9bb-c106-4760-992a-cba407dbb289","system_id":"levelo_inurba_marseille","lat":43.28567,"lon":5.39495,"is_reserved":false,"is_disabled":false,"rental_uris":{"android":"levelo://app?vid=5102d9bb-c106-4760-992a-cba407dbb289","ios":"levelo://app?vid=5102d9bb-c106-4760-992a-cba407dbb289"},"vehicle_type_id":"4","last_reported":1734800852,"current_range_meters":24800,"station_id":"ce4bh292rcd13ifvqdg0","pricing_plan_id":"cebpf4jnsgd1na2vs0mg"},{"bike_id":"0dd5cdfe-cc65-43fa-8b57-86b7243d61ca","system_id":"levelo_inurba_marseille","lat":43.30222,"lon":5.39466,"is_reserved":false,"is_disabled":false,"rental_uris":{"android":"levelo://app?vid=0dd5cdfe-cc65-43fa-8b57-86b7243d61ca","ios":"levelo://app?vid=0dd5cdfe-cc65-43fa-8b57-86b7243d61ca"},"vehicle_type_id":"4","last_reported":1734800852,"current_range_meters":38000,"station_id":"ce4bh0p2rcd13ifvqd70","pricing_plan_id":"cebpf4jnsgd1na2vs0mg"},{"bike_id":"e630310c-3d89-41c1-a1d1-28fa842c181f","system_id":"levelo_inurba_marseille","lat":43.29623,"lon":5.37719,"is_reserved":false,"is_disabled":false,"rental_uris":{"android":"levelo://app?vid=e630310c-3d89-41c1-a1d1-28fa842c181f","ios":"levelo://app?vid=e630310c-3d89-41c1-a1d1-28fa842c181f"},"vehicle_type_id":"4","last_reported":1734800852,"current_range_meters":22000,"station_id":"ce4bgi92rcd13ifvqb90","pricing_plan_id":"cebpf4jnsgd1na2vs0mg"},{"bike_id":"7ec2e082-9a40-4719-bfaf-9cc7e2f0ff4c","system_id":"levelo_inurba_marseille","lat":43.27959,"lon":5.41032,"is_reserved":false,"is_disabled":false,"rental_uris":{"android":"levelo://app?vid=7ec2e082-9a40-4719-bfaf-9cc7e2f0ff4c","ios":"levelo://app?vid=7ec2e082-9a40-4719-bfaf-9cc7e2f0ff4c"},"vehicle_type_id":"4","last_reported":1734800852,"current_range_meters":6800,"station_id":"ce4bhnp2rcd13ifvqh0g","pricing_plan_id":"cebpf4jnsgd1na2vs0mg"},{"bike_id":"c59e04cc-6c2a-47ed-9705-e1b566e11a2c","system_id":"levelo_inurba_marseille","lat":43.29262,"lon":5.40915,"is_reserved":false,"is_disabled":false,"rental_uris":{"android":"levelo://app?vid=c59e04cc-6c2a-47ed-9705-e1b566e11a2c","ios":"levelo://app?vid=c59e04cc-6c2a-47ed-9705-e1b566e11a2c"},"vehicle_type_id":"4","last_reported":1734800852,"current_range_meters":8000,"station_id":"ce4bh192rcd13ifvqdc0","pricing_plan_id":"cebpf4jnsgd1na2vs0mg"},{"bike_id":"66708a2c-1747-4b44-9c0e-45ffea766f42","system_id":"levelo_inurba_marseille","lat":43.31171,"lon":5.38722,"is_reserved":false,"is_disabled":false,"rental_uris":{"android":"levelo://app?vid=66708a2c-1747-4b44-9c0e-45ffea766f42","ios":"levelo://app?vid=66708a2c-1747-4b44-9c0e-45ffea766f42"},"vehicle_type_id":"4","last_reported":1734800852,"current_range_meters":32000,"station_id":"ce4bgv12rcd13ifvqcp0","pricing_plan_id":"cebpf4jnsgd1na2vs0mg"},{"bike_id":"1e1b6953-7d17-4233-888c-1a9b2060233e","system_id":"levelo_inurba_marseille","lat":43.28667,"lon":5.36349,"is_reserved":false,"is_disabled":false,"rental_uris":{"android":"levelo://app?vid=1e1b6953-7d17-4233-888c-1a9b2060233e","ios":"levelo://app?vid=1e1b6953-7d17-4233-888c-1a9b2060233e"},"vehicle_type_id":"4","last_reported":1734800852,"current_range_meters":37600,"station_id":"ce4bhah2rcd13ifvqej0","pricing_plan_id":"cebpf4jnsgd1na2vs0mg"},{"bike_id":"abe26aae-78ab-492a-a125-24615feee403","system_id":"levelo_inurba_marseille","lat":43.28938,"lon":5.3962,"is_reserved":false,"is_disabled":false,"rental_uris":{"android":"levelo://app?vid=abe26aae-78ab-492a-a125-24615feee403","ios":"levelo://app?vid=abe26aae-78ab-492a-a125-24615feee403"},"vehicle_type_id":"4","last_reported":1734800852,"current_range_meters":38800,"station_id":"ce4bh3h2rcd13ifvqdn0","pricing_plan_id":"cebpf4jnsgd1na2vs0mg"},{"bike_id":"5de55ec3-b446-45b5-9e6a-b67b9996a2b3","system_id":"levelo_inurba_marseille","lat":43.273047,"lon":5.391038,"is_reserved":false,"is_disabled":true,"rental_uris":{"android":"levelo://app?vid=5de55ec3-b446-45b5-9e6a-b67b9996a2b3","ios":"levelo://app?vid=5de55ec3-b446-45b5-9e6a-b67b9996a2b3"},"vehicle_type_id":"4","last_reported":1734800852,"current_range_meters":36400,"station_id":"ce4bhgp2rcd13ifvqfe0","pricing_plan_id":"cebpf4jnsgd1na2vs0mg"},{"bike_id":"a08c8505-be45-439c-bb41-3c4c95b8f5a1","system_id":"levelo_inurba_marseille","lat":43.29275,"lon":5.36848,"is_reserved":false,"is_disabled":false,"rental_uris":{"android":"levelo://app?vid=a08c8505-be45-439c-bb41-3c4c95b8f5a1","ios":"levelo://app?vid=a08c8505-be45-439c-bb41-3c4c95b8f5a1"},"vehicle_type_id":"4","last_reported":1734800852,"current_range_meters":37600,"station_id":"ce4bhbp2rcd13ifvqesg","pricing_plan_id":"cebpf4jnsgd1na2vs0mg"},{"bike_id":"9daa44e7-dbcd-4dc1-8b8c-d5b1cf6bc951","system_id":"levelo_inurba_marseille","lat":43.28939,"lon":5.36632,"is_reserved":false,"is_disabled":false,"rental_uris":{"android":"levelo://app?vid=9daa44e7-dbcd-4dc1-8b8c-d5b1cf6bc951","ios":"levelo://app?vid=9daa44e7-dbcd-4dc1-8b8c-d5b1cf6bc951"},"vehicle_type_id":"4","last_reported":1734800852,"current_range_meters":37600,"station_id":"ce4bhap2rcd13ifvqek0","pricing_plan_id":"cebpf4jnsgd1na2vs0mg"},{"bike_id":"744c1fbf-4ad3-4620-b23a-838d00aab06b","system_id":"levelo_inurba_marseille","lat":43.25872,"lon":5.39901,"is_reserved":false,"is_disabled":false,"rental_uris":{"android":"levelo://app?vid=744c1fbf-4ad3-4620-b23a-838d00aab06b","ios":"levelo://app?vid=744c1fbf-4ad3-4620-b23a-838d00aab06b"},"vehicle_type_id":"4","last_reported":1734800852,"current_range_meters":34000,"station_id":"ce4bhl92rcd13ifvqghg","pricing_plan_id":"cebpf4jnsgd1na2vs0mg"},{"bike_id":"85225762-d7ec-4912-87cf-30f56fc88559","system_id":"levelo_inurba_marseille","lat":43.29224,"lon":5.36078,"is_reserved":false,"is_disabled":false,"rental_uris":{"android":"levelo://app?vid=85225762-d7ec-4912-87cf-30f56fc88559","ios":"levelo://app?vid=85225762-d7ec-4912-87cf-30f56fc88559"},"vehicle_type_id":"4","last_reported":1734800852,"current_range_meters":16000,"station_id":"ce4bhbh2rcd13ifvqeqg","pricing_plan_id":"cebpf4jnsgd1na2vs0mg"},{"bike_id":"5bc40c22-a9ce-44f6-b16d-3abdeb72196c","system_id":"levelo_inurba_marseille","lat":43.26203,"lon":5.37925,"is_reserved":false,"is_disabled":false,"rental_uris":{"android":"levelo://app?vid=5bc40c22-a9ce-44f6-b16d-3abdeb72196c","ios":"levelo://app?vid=5bc40c22-a9ce-44f6-b16d-3abdeb72196c"},"vehicle_type_id":"4","last_reported":1734800852,"current_range_meters":36800,"station_id":"ce4bhjp2rcd13ifvqg90","pricing_plan_id":"cebpf4jnsgd1na2vs0mg"},{"bike_id":"9ee4e120-058f-4bb2-b650-b911e816b650","system_id":"levelo_inurba_marseille","lat":43.27992,"lon":5.40002,"is_reserved":false,"is_disabled":false,"rental_uris":{"android":"levelo://app?vid=9ee4e120-058f-4bb2-b650-b911e816b650","ios":"levelo://app?vid=9ee4e120-058f-4bb2-b650-b911e816b650"},"vehicle_type_id":"4","last_reported":1734800852,"current_range_meters":28400,"station_id":"ce4bho92rcd13ifvqh4g","pricing_plan_id":"cebpf4jnsgd1na2vs0mg"},{"bike_id":"954f040c-9c68-484b-977a-d101cc152ccc","system_id":"levelo_inurba_marseille","lat":43.26682,"lon":5.38276,"is_reserved":false,"is_disabled":false,"rental_uris":{"android":"levelo://app?vid=954f040c-9c68-484b-977a-d101cc152ccc","ios":"levelo://app?vid=954f040c-9c68-484b-977a-d101cc152ccc"},"vehicle_type_id":"4","last_reported":1734800852,"current_range_meters":36000,"station_id":"ce4bhg92rcd13ifvqf90","pricing_plan_id":"cebpf4jnsgd1na2vs0mg"},{"bike_id":"76509946-7598-46fd-8066-14eea601d9c3","system_id":"levelo_inurba_marseille","lat":43.30152,"lon":5.38086,"is_reserved":false,"is_disabled":false,"rental_uris":{"android":"levelo://app?vid=76509946-7598-46fd-8066-14eea601d9c3","ios":"levelo://app?vid=76509946-7598-46fd-8066-14eea601d9c3"},"vehicle_type_id":"4","last_reported":1734800852,"current_range_meters":31200,"station_id":"ce4bgjp2rcd13ifvqbh0","pricing_plan_id":"cebpf4jnsgd1na2vs0mg"},{"bike_id":"1a899d8d-f117-48b9-ac56-04979ea437b4","system_id":"levelo_inurba_marseille","lat":43.31221,"lon":5.3685,"is_reserved":false,"is_disabled":true,"rental_uris":{"android":"levelo://app?vid=1a899d8d-f117-48b9-ac56-04979ea437b4","ios":"levelo://app?vid=1a899d8d-f117-48b9-ac56-04979ea437b4"},"vehicle_type_id":"4","last_reported":1734800852,"current_range_meters":800,"station_id":"ce4bgl92rcd13ifvqbq0","pricing_plan_id":"cebpf4jnsgd1na2vs0mg"},{"bike_id":"b9d412a7-11b2-4c10-94d0-9e8455bd367f","system_id":"levelo_inurba_marseille","lat":43.30145,"lon":5.38079,"is_reserved":false,"is_disabled":false,"rental_uris":{"android":"levelo://app?vid=b9d412a7-11b2-4c10-94d0-9e8455bd367f","ios":"levelo://app?vid=b9d412a7-11b2-4c10-94d0-9e8455bd367f"},"vehicle_type_id":"4","last_reported":1734800852,"current_range_meters":25600,"station_id":"ce4bgjp2rcd13ifvqbh0","pricing_plan_id":"cebpf4jnsgd1na2vs0mg"},{"bike_id":"52a88488-4dd2-4f03-9384-f060d17bb6f5","system_id":"levelo_inurba_marseille","lat":43.25868,"lon":5.399,"is_reserved":false,"is_disabled":true,"rental_uris":{"android":"levelo://app?vid=52a88488-4dd2-4f03-9384-f060d17bb6f5","ios":"levelo://app?vid=52a88488-4dd2-4f03-9384-f060d17bb6f5"},"vehicle_type_id":"4","last_reported":1734800852,"current_range_meters":0,"station_id":"ce4bhl92rcd13ifvqghg","pricing_plan_id":"cebpf4jnsgd1na2vs0mg"},{"bike_id":"c889bce7-ce58-4551-b1fe-fe2f91c10fbf","system_id":"levelo_inurba_marseille","lat":43.28934,"lon":5.39623,"is_reserved":false,"is_disabled":false,"rental_uris":{"android":"levelo://app?vid=c889bce7-ce58-4551-b1fe-fe2f91c10fbf","ios":"levelo://app?vid=c889bce7-ce58-4551-b1fe-fe2f91c10fbf"},"vehicle_type_id":"4","last_reported":1734800852,"current_range_meters":38800,"station_id":"ce4bh3h2rcd13ifvqdn0","pricing_plan_id":"cebpf4jnsgd1na2vs0mg"},{"bike_id":"2ecd7a5c-6b03-4906-a193-c1bc16b7668c","system_id":"levelo_inurba_marseille","lat":43.30245,"lon":5.40042,"is_reserved":false,"is_disabled":true,"rental_uris":{"android":"levelo://app?vid=2ecd7a5c-6b03-4906-a193-c1bc16b7668c","ios":"levelo://app?vid=2ecd7a5c-6b03-4906-a193-c1bc16b7668c"},"vehicle_type_id":"4","last_reported":1734800852,"current_range_meters":38800,"station_id":"ce4bgvh2rcd13ifvqcs0","pricing_plan_id":"cebpf4jnsgd1na2vs0mg"},{"bike_id":"4bcb37c0-9249-499d-890c-0bbf93d29f8b","system_id":"levelo_inurba_marseille","lat":43.23192,"lon":5.35556,"is_reserved":false,"is_disabled":true,"rental_uris":{"android":"levelo://app?vid=4bcb37c0-9249-499d-890c-0bbf93d29f8b","ios":"levelo://app?vid=4bcb37c0-9249-499d-890c-0bbf93d29f8b"},"vehicle_type_id":"4","last_reported":1734800852,"current_range_meters":30400,"station_id":"ce4bhu92rcd13ifvqi70","pricing_plan_id":"cebpf4jnsgd1na2vs0mg"},{"bike_id":"0b8d43aa-0c62-480d-a4f3-2ae8c0c6f8f0","system_id":"levelo_inurba_marseille","lat":43.29522,"lon":5.37495,"is_reserved":false,"is_disabled":false,"rental_uris":{"android":"levelo://app?vid=0b8d43aa-0c62-480d-a4f3-2ae8c0c6f8f0","ios":"levelo://app?vid=0b8d43aa-0c62-480d-a4f3-2ae8c0c6f8f0"},"vehicle_type_id":"4","last_reported":1734800852,"current_range_meters":30800,"station_id":"ce4bgkp2rcd13ifvqbmg","pricing_plan_id":"cebpf4jnsgd1na2vs0mg"},{"bike_id":"c9856d42-70e7-42f7-95c7-f2893dc92f0d","system_id":"levelo_inurba_marseille","lat":43.29571,"lon":5.39983,"is_reserved":false,"is_disabled":false,"rental_uris":{"android":"levelo://app?vid=c9856d42-70e7-42f7-95c7-f2893dc92f0d","ios":"levelo://app?vid=c9856d42-70e7-42f7-95c7-f2893dc92f0d"},"vehicle_type_id":"4","last_reported":1734800852,"current_range_meters":38000,"station_id":"ce4bh312rcd13ifvqdj0","pricing_plan_id":"cebpf4jnsgd1na2vs0mg"},{"bike_id":"f2fddecf-aacc-43b9-984c-e21269354d44","system_id":"levelo_inurba_marseille","lat":43.25498,"lon":5.37649,"is_reserved":false,"is_disabled":false,"rental_uris":{"android":"levelo://app?vid=f2fddecf-aacc-43b9-984c-e21269354d44","ios":"levelo://app?vid=f2fddecf-aacc-43b9-984c-e21269354d44"},"vehicle_type_id":"4","last_reported":1734800852,"current_range_meters":39200,"station_id":"ce4bhh12rcd13ifvqff0","pricing_plan_id":"cebpf4jnsgd1na2vs0mg"},{"bike_id":"5ee26669-bb4c-43d4-aa0e-f6b8b6a84038","system_id":"levelo_inurba_marseille","lat":43.29225,"lon":5.36062,"is_reserved":false,"is_disabled":false,"rental_uris":{"android":"levelo://app?vid=5ee26669-bb4c-43d4-aa0e-f6b8b6a84038","ios":"levelo://app?vid=5ee26669-bb4c-43d4-aa0e-f6b8b6a84038"},"vehicle_type_id":"4","last_reported":1734800852,"current_range_meters":4800,"station_id":"ce4bhbh2rcd13ifvqeqg","pricing_plan_id":"cebpf4jnsgd1na2vs0mg"},{"bike_id":"de930116-fe04-49ba-a4a2-eebdbd038f2a","system_id":"levelo_inurba_marseille","lat":43.30596,"lon":5.39362,"is_reserved":false,"is_disabled":false,"rental_uris":{"android":"levelo://app?vid=de930116-fe04-49ba-a4a2-eebdbd038f2a","ios":"levelo://app?vid=de930116-fe04-49ba-a4a2-eebdbd038f2a"},"vehicle_type_id":"4","last_reported":1734800852,"current_range_meters":22000,"station_id":"ce4bh0p2rcd13ifvqd80","pricing_plan_id":"cebpf4jnsgd1na2vs0mg"},{"bike_id":"35325136-ba50-4a03-a961-ec049678dc79","system_id":"levelo_inurba_marseille","lat":43.24809,"lon":5.37457,"is_reserved":false,"is_disabled":false,"rental_uris":{"android":"levelo://app?vid=35325136-ba50-4a03-a961-ec049678dc79","ios":"levelo://app?vid=35325136-ba50-4a03-a961-ec049678dc79"},"vehicle_type_id":"4","last_reported":1734800852,"current_range_meters":29600,"station_id":"ce4bhgh2rcd13ifvqfb0","pricing_plan_id":"cebpf4jnsgd1na2vs0mg"},{"bike_id":"3216941d-b90f-4166-9789-4659f8e52f65","system_id":"levelo_inurba_marseille","lat":43.26555,"lon":5.37283,"is_reserved":false,"is_disabled":false,"rental_uris":{"android":"levelo://app?vid=3216941d-b90f-4166-9789-4659f8e52f65","ios":"levelo://app?vid=3216941d-b90f-4166-9789-4659f8e52f65"},"vehicle_type_id":"4","last_reported":1734800852,"current_range_meters":19600,"station_id":"ce4bhg12rcd13ifvqf70","pricing_plan_id":"cebpf4jnsgd1na2vs0mg"},{"bike_id":"e1e55b34-0cc8-42c6-b9d9-a442d6ab0cd4","system_id":"levelo_inurba_marseille","lat":43.23178,"lon":5.39992,"is_reserved":false,"is_disabled":false,"rental_uris":{"android":"levelo://app?vid=e1e55b34-0cc8-42c6-b9d9-a442d6ab0cd4","ios":"levelo://app?vid=e1e55b34-0cc8-42c6-b9d9-a442d6ab0cd4"},"vehicle_type_id":"4","last_reported":1734800852,"current_range_meters":25200,"station_id":"ce4bhn12rcd13ifvqgqg","pricing_plan_id":"cebpf4jnsgd1na2vs0mg"},{"bike_id":"ec0d2d61-8878-4e5c-bf6f-0b841376967c","system_id":"levelo_inurba_marseille","lat":43.29259,"lon":5.40898,"is_reserved":false,"is_disabled":false,"rental_uris":{"android":"levelo://app?vid=ec0d2d61-8878-4e5c-bf6f-0b841376967c","ios":"levelo://app?vid=ec0d2d61-8878-4e5c-bf6f-0b841376967c"},"vehicle_type_id":"4","last_reported":1734800852,"current_range_meters":25200,"station_id":"ce4bh192rcd13ifvqdc0","pricing_plan_id":"cebpf4jnsgd1na2vs0mg"},{"bike_id":"ce98f26d-5fe4-4aba-b5c3-c7a5d7aeee03","system_id":"levelo_inurba_marseille","lat":43.26784,"lon":5.39415,"is_reserved":false,"is_disabled":false,"rental_uris":{"android":"levelo://app?vid=ce98f26d-5fe4-4aba-b5c3-c7a5d7aeee03","ios":"levelo://app?vid=ce98f26d-5fe4-4aba-b5c3-c7a5d7aeee03"},"vehicle_type_id":"4","last_reported":1734800852,"current_range_meters":28400,"station_id":"ce4bhh12rcd13ifvqfg0","pricing_plan_id":"cebpf4jnsgd1na2vs0mg"},{"bike_id":"d54e75c8-cc92-4f1d-b503-c43dec112389","system_id":"levelo_inurba_marseille","lat":43.29584,"lon":5.37507,"is_reserved":false,"is_disabled":false,"rental_uris":{"android":"levelo://app?vid=d54e75c8-cc92-4f1d-b503-c43dec112389","ios":"levelo://app?vid=d54e75c8-cc92-4f1d-b503-c43dec112389"},"vehicle_type_id":"4","last_reported":1734800852,"current_range_meters":37600,"station_id":"ce4bgh92rcd13ifvqb50","pricing_plan_id":"cebpf4jnsgd1na2vs0mg"},{"bike_id":"44127e4e-8e84-4a38-89f7-8f4efb63f7a5","system_id":"levelo_inurba_marseille","lat":43.31191,"lon":5.36743,"is_reserved":false,"is_disabled":true,"rental_uris":{"android":"levelo://app?vid=44127e4e-8e84-4a38-89f7-8f4efb63f7a5","ios":"levelo://app?vid=44127e4e-8e84-4a38-89f7-8f4efb63f7a5"},"vehicle_type_id":"4","last_reported":1734800852,"current_range_meters":0,"station_id":"","pricing_plan_id":"cebpf4jnsgd1na2vs0mg"},{"bike_id":"63ec5ad9-84d5-45e4-a4c5-2b22423a266f","system_id":"levelo_inurba_marseille","lat":43.28941,"lon":5.39631,"is_reserved":false,"is_disabled":false,"rental_uris":{"android":"levelo://app?vid=63ec5ad9-84d5-45e4-a4c5-2b22423a266f","ios":"levelo://app?vid=63ec5ad9-84d5-45e4-a4c5-2b22423a266f"},"vehicle_type_id":"4","last_reported":1734800852,"current_range_meters":28400,"station_id":"ce4bh3h2rcd13ifvqdn0","pricing_plan_id":"cebpf4jnsgd1na2vs0mg"},{"bike_id":"1eef5757-2a74-4727-868d-9821df78eaa2","system_id":"levelo_inurba_marseille","lat":43.25875,"lon":5.39905,"is_reserved":false,"is_disabled":false,"rental_uris":{"android":"levelo://app?vid=1eef5757-2a74-4727-868d-9821df78eaa2","ios":"levelo://app?vid=1eef5757-2a74-4727-868d-9821df78eaa2"},"vehicle_type_id":"4","last_reported":1734800852,"current_range_meters":38000,"station_id":"ce4bhl92rcd13ifvqghg","pricing_plan_id":"cebpf4jnsgd1na2vs0mg"},{"bike_id":"d3eb2e99-5ffc-470a-8d2d-75155bb73252","system_id":"levelo_inurba_marseille","lat":43.29733,"lon":5.37689,"is_reserved":false,"is_disabled":false,"rental_uris":{"android":"levelo://app?vid=d3eb2e99-5ffc-470a-8d2d-75155bb73252","ios":"levelo://app?vid=d3eb2e99-5ffc-470a-8d2d-75155bb73252"},"vehicle_type_id":"4","last_reported":1734800852,"current_range_meters":38800,"station_id":"ce4bgkh2rcd13ifvqbl0","pricing_plan_id":"cebpf4jnsgd1na2vs0mg"},{"bike_id":"1c352c75-2cde-4723-991c-8fe649fae309","system_id":"levelo_inurba_marseille","lat":43.296289,"lon":5.377522,"is_reserved":false,"is_disabled":false,"rental_uris":{"android":"levelo://app?vid=1c352c75-2cde-4723-991c-8fe649fae309","ios":"levelo://app?vid=1c352c75-2cde-4723-991c-8fe649fae309"},"vehicle_type_id":"4","last_reported":1734800852,"current_range_meters":38400,"station_id":"ce4bgi92rcd13ifvqb90","pricing_plan_id":"cebpf4jnsgd1na2vs0mg"},{"bike_id":"26c606b2-72fa-4868-a822-584a0e9369dc","system_id":"levelo_inurba_marseille","lat":43.28937,"lon":5.36625,"is_reserved":false,"is_disabled":false,"rental_uris":{"android":"levelo://app?vid=26c606b2-72fa-4868-a822-584a0e9369dc","ios":"levelo://app?vid=26c606b2-72fa-4868-a822-584a0e9369dc"},"vehicle_type_id":"4","last_reported":1734800852,"current_range_meters":28000,"station_id":"ce4bhap2rcd13ifvqek0","pricing_plan_id":"cebpf4jnsgd1na2vs0mg"},{"bike_id":"a198e248-41c4-4a27-af7b-34f7a7595000","system_id":"levelo_inurba_marseille","lat":43.299104,"lon":5.374696,"is_reserved":false,"is_disabled":false,"rental_uris":{"android":"levelo://app?vid=a198e248-41c4-4a27-af7b-34f7a7595000","ios":"levelo://app?vid=a198e248-41c4-4a27-af7b-34f7a7595000"},"vehicle_type_id":"4","last_reported":1734800852,"current_range_meters":38800,"station_id":"ce4bgjh2rcd13ifvqbg0","pricing_plan_id":"cebpf4jnsgd1na2vs0mg"},{"bike_id":"d9cf6ffa-79c8-420a-8565-ed2c0dd03e5a","system_id":"levelo_inurba_marseille","lat":43.30206,"lon":5.36612,"is_reserved":false,"is_disabled":false,"rental_uris":{"android":"levelo://app?vid=d9cf6ffa-79c8-420a-8565-ed2c0dd03e5a","ios":"levelo://app?vid=d9cf6ffa-79c8-420a-8565-ed2c0dd03e5a"},"vehicle_type_id":"4","last_reported":1734800852,"current_range_meters":18000,"station_id":"ce4bgrh2rcd13ifvqc8g","pricing_plan_id":"cebpf4jnsgd1na2vs0mg"},{"bike_id":"46eb6007-41e6-4f4b-a64a-d43cc05fd5c1","system_id":"levelo_inurba_marseille","lat":43.30539,"lon":5.36712,"is_reserved":false,"is_disabled":false,"rental_uris":{"android":"levelo://app?vid=46eb6007-41e6-4f4b-a64a-d43cc05fd5c1","ios":"levelo://app?vid=46eb6007-41e6-4f4b-a64a-d43cc05fd5c1"},"vehicle_type_id":"4","last_reported":1734800852,"current_range_meters":29600,"station_id":"ce4bgrp2rcd13ifvqc9g","pricing_plan_id":"cebpf4jnsgd1na2vs0mg"},{"bike_id":"dfcbaf7f-5177-41a2-aa19-4f14caa37646","system_id":"levelo_inurba_marseille","lat":43.28606,"lon":5.37058,"is_reserved":false,"is_disabled":false,"rental_uris":{"android":"levelo://app?vid=dfcbaf7f-5177-41a2-aa19-4f14caa37646","ios":"levelo://app?vid=dfcbaf7f-5177-41a2-aa19-4f14caa37646"},"vehicle_type_id":"4","last_reported":1734800852,"current_range_meters":38800,"station_id":"ce4bht12rcd13ifvqi60","pricing_plan_id":"cebpf4jnsgd1na2vs0mg"},{"bike_id":"7ddbcde7-0411-490e-afea-0c0d7796e65f","system_id":"levelo_inurba_marseille","lat":43.29899,"lon":5.43648,"is_reserved":false,"is_disabled":false,"rental_uris":{"android":"levelo://app?vid=7ddbcde7-0411-490e-afea-0c0d7796e65f","ios":"levelo://app?vid=7ddbcde7-0411-490e-afea-0c0d7796e65f"},"vehicle_type_id":"4","last_reported":1734800852,"current_range_meters":39200,"station_id":"ce4bhpp2rcd13ifvqhfg","pricing_plan_id":"cebpf4jnsgd1na2vs0mg"},{"bike_id":"20907fe1-7093-4868-8bd6-d680712c57df","system_id":"levelo_inurba_marseille","lat":43.29644,"lon":5.37726,"is_reserved":false,"is_disabled":false,"rental_uris":{"android":"levelo://app?vid=20907fe1-7093-4868-8bd6-d680712c57df","ios":"levelo://app?vid=20907fe1-7093-4868-8bd6-d680712c57df"},"vehicle_type_id":"4","last_reported":1734800852,"current_range_meters":27600,"station_id":"ce4bgi92rcd13ifvqb90","pricing_plan_id":"cebpf4jnsgd1na2vs0mg"},{"bike_id":"c2fb5ce6-5167-4a0e-be4e-cfffa843ec37","system_id":"levelo_inurba_marseille","lat":43.30466,"lon":5.37898,"is_reserved":false,"is_disabled":false,"rental_uris":{"android":"levelo://app?vid=c2fb5ce6-5167-4a0e-be4e-cfffa843ec37","ios":"levelo://app?vid=c2fb5ce6-5167-4a0e-be4e-cfffa843ec37"},"vehicle_type_id":"4","last_reported":1734800852,"current_range_meters":29600,"station_id":"ce4bgup2rcd13ifvqcn0","pricing_plan_id":"cebpf4jnsgd1na2vs0mg"},{"bike_id":"d77abc9d-2ff7-46b1-95d2-5a87a7d7b6fc","system_id":"levelo_inurba_marseille","lat":43.29608,"lon":5.37704,"is_reserved":false,"is_disabled":false,"rental_uris":{"android":"levelo://app?vid=d77abc9d-2ff7-46b1-95d2-5a87a7d7b6fc","ios":"levelo://app?vid=d77abc9d-2ff7-46b1-95d2-5a87a7d7b6fc"},"vehicle_type_id":"4","last_reported":1734800852,"current_range_meters":36800,"station_id":"ce4bgi92rcd13ifvqb90","pricing_plan_id":"cebpf4jnsgd1na2vs0mg"},{"bike_id":"323ff176-e546-4c21-981e-0aa356db170d","system_id":"levelo_inurba_marseille","lat":43.29815,"lon":5.38081,"is_reserved":false,"is_disabled":false,"rental_uris":{"android":"levelo://app?vid=323ff176-e546-4c21-981e-0aa356db170d","ios":"levelo://app?vid=323ff176-e546-4c21-981e-0aa356db170d"},"vehicle_type_id":"4","last_reported":1734800852,"current_range_meters":26800,"station_id":"ce4bgip2rcd13ifvqbb0","pricing_plan_id":"cebpf4jnsgd1na2vs0mg"},{"bike_id":"11a271c9-fb9f-4cb8-bf2a-e8098ec9ded4","system_id":"levelo_inurba_marseille","lat":43.29375,"lon":5.37844,"is_reserved":false,"is_disabled":true,"rental_uris":{"android":"levelo://app?vid=11a271c9-fb9f-4cb8-bf2a-e8098ec9ded4","ios":"levelo://app?vid=11a271c9-fb9f-4cb8-bf2a-e8098ec9ded4"},"vehicle_type_id":"4","last_reported":1734800852,"current_range_meters":0,"station_id":"ce4bgjh2rcd13ifvqbf0","pricing_plan_id":"cebpf4jnsgd1na2vs0mg"},{"bike_id":"dbc8a382-489b-4bca-a968-3cdaf8228c39","system_id":"levelo_inurba_marseille","lat":43.29932,"lon":5.36548,"is_reserved":false,"is_disabled":true,"rental_uris":{"android":"levelo://app?vid=dbc8a382-489b-4bca-a968-3cdaf8228c39","ios":"levelo://app?vid=dbc8a382-489b-4bca-a968-3cdaf8228c39"},"vehicle_type_id":"4","last_reported":1734800852,"current_range_meters":2000,"station_id":"ce4bgm92rcd13ifvqbr0","pricing_plan_id":"cebpf4jnsgd1na2vs0mg"},{"bike_id":"4f219a81-f4b6-4d70-8a7f-1ad6de372de7","system_id":"levelo_inurba_marseille","lat":43.29961,"lon":5.38502,"is_reserved":false,"is_disabled":false,"rental_uris":{"android":"levelo://app?vid=4f219a81-f4b6-4d70-8a7f-1ad6de372de7","ios":"levelo://app?vid=4f219a81-f4b6-4d70-8a7f-1ad6de372de7"},"vehicle_type_id":"4","last_reported":1734800852,"current_range_meters":4400,"station_id":"ce4bgj92rcd13ifvqbd0","pricing_plan_id":"cebpf4jnsgd1na2vs0mg"},{"bike_id":"d5b818c4-e40d-4a6a-9dab-eab29ea1c234","system_id":"levelo_inurba_marseille","lat":43.3055,"lon":5.36547,"is_reserved":false,"is_disabled":true,"rental_uris":{"android":"levelo://app?vid=d5b818c4-e40d-4a6a-9dab-eab29ea1c234","ios":"levelo://app?vid=d5b818c4-e40d-4a6a-9dab-eab29ea1c234"},"vehicle_type_id":"4","last_reported":1734800852,"current_range_meters":2000,"station_id":"ce4bgs12rcd13ifvqcag","pricing_plan_id":"cebpf4jnsgd1na2vs0mg"},{"bike_id":"b40a6380-4abe-4424-aaab-c0b52f845788","system_id":"levelo_inurba_marseille","lat":43.294102,"lon":5.386275,"is_reserved":false,"is_disabled":false,"rental_uris":{"android":"levelo://app?vid=b40a6380-4abe-4424-aaab-c0b52f845788","ios":"levelo://app?vid=b40a6380-4abe-4424-aaab-c0b52f845788"},"vehicle_type_id":"4","last_reported":1734800852,"current_range_meters":30400,"station_id":"ce4bh2h2rcd13ifvqdh0","pricing_plan_id":"cebpf4jnsgd1na2vs0mg"},{"bike_id":"eeb165cd-0850-4135-b307-a7a2de607d7b","system_id":"levelo_inurba_marseille","lat":43.28616,"lon":5.37059,"is_reserved":false,"is_disabled":false,"rental_uris":{"android":"levelo://app?vid=eeb165cd-0850-4135-b307-a7a2de607d7b","ios":"levelo://app?vid=eeb165cd-0850-4135-b307-a7a2de607d7b"},"vehicle_type_id":"4","last_reported":1734800852,"current_range_meters":38800,"station_id":"ce4bht12rcd13ifvqi60","pricing_plan_id":"cebpf4jnsgd1na2vs0mg"},{"bike_id":"2e401c1b-8b88-4095-96fa-e0b294572623","system_id":"levelo_inurba_marseille","lat":43.32488,"lon":5.36564,"is_reserved":false,"is_disabled":false,"rental_uris":{"android":"levelo://app?vid=2e401c1b-8b88-4095-96fa-e0b294572623","ios":"levelo://app?vid=2e401c1b-8b88-4095-96fa-e0b294572623"},"vehicle_type_id":"4","last_reported":1734800852,"current_range_meters":36000,"station_id":"ce4bhs12rcd13ifvqhvg","pricing_plan_id":"cebpf4jnsgd1na2vs0mg"},{"bike_id":"b9ce895c-31be-4df0-92cb-30f13b9f96b5","system_id":"levelo_inurba_marseille","lat":43.29784,"lon":5.38104,"is_reserved":false,"is_disabled":false,"rental_uris":{"android":"levelo://app?vid=b9ce895c-31be-4df0-92cb-30f13b9f96b5","ios":"levelo://app?vid=b9ce895c-31be-4df0-92cb-30f13b9f96b5"},"vehicle_type_id":"4","last_reported":1734800852,"current_range_meters":36000,"station_id":"ce4bgip2rcd13ifvqbb0","pricing_plan_id":"cebpf4jnsgd1na2vs0mg"},{"bike_id":"2c9f1b35-5914-4a8e-954b-6e48afaf36af","system_id":"levelo_inurba_marseille","lat":43.23958,"lon":5.36636,"is_reserved":false,"is_disabled":false,"rental_uris":{"android":"levelo://app?vid=2c9f1b35-5914-4a8e-954b-6e48afaf36af","ios":"levelo://app?vid=2c9f1b35-5914-4a8e-954b-6e48afaf36af"},"vehicle_type_id":"4","last_reported":1734800852,"current_range_meters":29600,"station_id":"ce4bhi12rcd13ifvqfp0","pricing_plan_id":"cebpf4jnsgd1na2vs0mg"},{"bike_id":"41fbfc33-fb71-448e-887c-f2dc9c257bae","system_id":"levelo_inurba_marseille","lat":43.29,"lon":5.35619,"is_reserved":false,"is_disabled":false,"rental_uris":{"android":"levelo://app?vid=41fbfc33-fb71-448e-887c-f2dc9c257bae","ios":"levelo://app?vid=41fbfc33-fb71-448e-887c-f2dc9c257bae"},"vehicle_type_id":"4","last_reported":1734800852,"current_range_meters":38000,"station_id":"ce4bhb92rcd13ifvqen0","pricing_plan_id":"cebpf4jnsgd1na2vs0mg"},{"bike_id":"1fabb668-09b6-4074-b70d-c5eb2947984c","system_id":"levelo_inurba_marseille","lat":43.24391,"lon":5.37062,"is_reserved":false,"is_disabled":false,"rental_uris":{"android":"levelo://app?vid=1fabb668-09b6-4074-b70d-c5eb2947984c","ios":"levelo://app?vid=1fabb668-09b6-4074-b70d-c5eb2947984c"},"vehicle_type_id":"4","last_reported":1734800852,"current_range_meters":29600,"station_id":"ce4bhhh2rcd13ifvqfk0","pricing_plan_id":"cebpf4jnsgd1na2vs0mg"},{"bike_id":"8dfc53b9-96fd-47c3-8930-08432e9aa87c","system_id":"levelo_inurba_marseille","lat":43.301453,"lon":5.380826,"is_reserved":false,"is_disabled":false,"rental_uris":{"android":"levelo://app?vid=8dfc53b9-96fd-47c3-8930-08432e9aa87c","ios":"levelo://app?vid=8dfc53b9-96fd-47c3-8930-08432e9aa87c"},"vehicle_type_id":"4","last_reported":1734800852,"current_range_meters":34800,"station_id":"ce4bgjp2rcd13ifvqbh0","pricing_plan_id":"cebpf4jnsgd1na2vs0mg"},{"bike_id":"d7958f4d-9f21-4672-a338-3c5514d8e56a","system_id":"levelo_inurba_marseille","lat":43.28841,"lon":5.35854,"is_reserved":false,"is_disabled":false,"rental_uris":{"android":"levelo://app?vid=d7958f4d-9f21-4672-a338-3c5514d8e56a","ios":"levelo://app?vid=d7958f4d-9f21-4672-a338-3c5514d8e56a"},"vehicle_type_id":"4","last_reported":1734800852,"current_range_meters":35200,"station_id":"ce4bhb12rcd13ifvqem0","pricing_plan_id":"cebpf4jnsgd1na2vs0mg"},{"bike_id":"9f50244a-d38a-491a-9f70-c23a46404b46","system_id":"levelo_inurba_marseille","lat":43.28613,"lon":5.37055,"is_reserved":false,"is_disabled":false,"rental_uris":{"android":"levelo://app?vid=9f50244a-d38a-491a-9f70-c23a46404b46","ios":"levelo://app?vid=9f50244a-d38a-491a-9f70-c23a46404b46"},"vehicle_type_id":"4","last_reported":1734800852,"current_range_meters":38800,"station_id":"ce4bht12rcd13ifvqi60","pricing_plan_id":"cebpf4jnsgd1na2vs0mg"},{"bike_id":"ceb47411-851c-4629-80be-093b3dea2d57","system_id":"levelo_inurba_marseille","lat":43.2957,"lon":5.37511,"is_reserved":false,"is_disabled":false,"rental_uris":{"android":"levelo://app?vid=ceb47411-851c-4629-80be-093b3dea2d57","ios":"levelo://app?vid=ceb47411-851c-4629-80be-093b3dea2d57"},"vehicle_type_id":"4","last_reported":1734800852,"current_range_meters":38800,"station_id":"ce4bgh92rcd13ifvqb50","pricing_plan_id":"cebpf4jnsgd1na2vs0mg"},{"bike_id":"c88c4b0d-8e58-498c-8a16-c07f5bd1c386","system_id":"levelo_inurba_marseille","lat":43.3015,"lon":5.38087,"is_reserved":false,"is_disabled":false,"rental_uris":{"android":"levelo://app?vid=c88c4b0d-8e58-498c-8a16-c07f5bd1c386","ios":"levelo://app?vid=c88c4b0d-8e58-498c-8a16-c07f5bd1c386"},"vehicle_type_id":"4","last_reported":1734800852,"current_range_meters":38400,"station_id":"ce4bgjp2rcd13ifvqbh0","pricing_plan_id":"cebpf4jnsgd1na2vs0mg"},{"bike_id":"90fbf7b3-3e59-4761-9ba2-48103aa75f60","system_id":"levelo_inurba_marseille","lat":43.29895,"lon":5.43649,"is_reserved":false,"is_disabled":false,"rental_uris":{"android":"levelo://app?vid=90fbf7b3-3e59-4761-9ba2-48103aa75f60","ios":"levelo://app?vid=90fbf7b3-3e59-4761-9ba2-48103aa75f60"},"vehicle_type_id":"4","last_reported":1734800852,"current_range_meters":26800,"station_id":"ce4bhpp2rcd13ifvqhfg","pricing_plan_id":"cebpf4jnsgd1na2vs0mg"},{"bike_id":"458a0e2a-1db1-485c-89d9-801bddf02f55","system_id":"levelo_inurba_marseille","lat":43.29707,"lon":5.36612,"is_reserved":false,"is_disabled":false,"rental_uris":{"android":"levelo://app?vid=458a0e2a-1db1-485c-89d9-801bddf02f55","ios":"levelo://app?vid=458a0e2a-1db1-485c-89d9-801bddf02f55"},"vehicle_type_id":"4","last_reported":1734800852,"current_range_meters":4000,"station_id":"ce4bgn12rcd13ifvqbt0","pricing_plan_id":"cebpf4jnsgd1na2vs0mg"},{"bike_id":"6bda5f81-4461-449d-a260-822e9ee73f46","system_id":"levelo_inurba_marseille","lat":43.26208,"lon":5.37942,"is_reserved":false,"is_disabled":false,"rental_uris":{"android":"levelo://app?vid=6bda5f81-4461-449d-a260-822e9ee73f46","ios":"levelo://app?vid=6bda5f81-4461-449d-a260-822e9ee73f46"},"vehicle_type_id":"4","last_reported":1734800852,"current_range_meters":37600,"station_id":"ce4bhjp2rcd13ifvqg90","pricing_plan_id":"cebpf4jnsgd1na2vs0mg"},{"bike_id":"227b8709-a253-45c2-b4c3-fa7ef48a7c09","system_id":"levelo_inurba_marseille","lat":43.26948,"lon":5.38626,"is_reserved":false,"is_disabled":false,"rental_uris":{"android":"levelo://app?vid=227b8709-a253-45c2-b4c3-fa7ef48a7c09","ios":"levelo://app?vid=227b8709-a253-45c2-b4c3-fa7ef48a7c09"},"vehicle_type_id":"4","last_reported":1734800852,"current_range_meters":32400,"station_id":"ce4bhh92rcd13ifvqfh0","pricing_plan_id":"cebpf4jnsgd1na2vs0mg"},{"bike_id":"eb7f14b0-544a-46b7-9456-becb500e6ffa","system_id":"levelo_inurba_marseille","lat":43.28853,"lon":5.39353,"is_reserved":false,"is_disabled":false,"rental_uris":{"android":"levelo://app?vid=eb7f14b0-544a-46b7-9456-becb500e6ffa","ios":"levelo://app?vid=eb7f14b0-544a-46b7-9456-becb500e6ffa"},"vehicle_type_id":"4","last_reported":1734800852,"current_range_meters":39200,"station_id":"ce4bh2p2rcd13ifvqdi0","pricing_plan_id":"cebpf4jnsgd1na2vs0mg"},{"bike_id":"ed896af4-958f-4bd5-99af-7ee2e56ff766","system_id":"levelo_inurba_marseille","lat":43.298,"lon":5.38096,"is_reserved":false,"is_disabled":false,"rental_uris":{"android":"levelo://app?vid=ed896af4-958f-4bd5-99af-7ee2e56ff766","ios":"levelo://app?vid=ed896af4-958f-4bd5-99af-7ee2e56ff766"},"vehicle_type_id":"4","last_reported":1734800852,"current_range_meters":30000,"station_id":"ce4bgip2rcd13ifvqbb0","pricing_plan_id":"cebpf4jnsgd1na2vs0mg"},{"bike_id":"b9a2a5db-4e4f-4472-9221-981416be1b6c","system_id":"levelo_inurba_marseille","lat":43.30136,"lon":5.39864,"is_reserved":false,"is_disabled":true,"rental_uris":{"android":"levelo://app?vid=b9a2a5db-4e4f-4472-9221-981416be1b6c","ios":"levelo://app?vid=b9a2a5db-4e4f-4472-9221-981416be1b6c"},"vehicle_type_id":"4","last_reported":1734800852,"current_range_meters":27600,"station_id":"ce4bh0h2rcd13ifvqd40","pricing_plan_id":"cebpf4jnsgd1na2vs0mg"},{"bike_id":"dab015dc-b6df-4d5c-91c5-de6e628b345e","system_id":"levelo_inurba_marseille","lat":43.25498,"lon":5.3765,"is_reserved":false,"is_disabled":false,"rental_uris":{"android":"levelo://app?vid=dab015dc-b6df-4d5c-91c5-de6e628b345e","ios":"levelo://app?vid=dab015dc-b6df-4d5c-91c5-de6e628b345e"},"vehicle_type_id":"4","last_reported":1734800852,"current_range_meters":36000,"station_id":"ce4bhh12rcd13ifvqff0","pricing_plan_id":"cebpf4jnsgd1na2vs0mg"},{"bike_id":"84b8ced3-a61f-4894-b8bc-8b55d27a8adc","system_id":"levelo_inurba_marseille","lat":43.29564,"lon":5.37465,"is_reserved":false,"is_disabled":false,"rental_uris":{"android":"levelo://app?vid=84b8ced3-a61f-4894-b8bc-8b55d27a8adc","ios":"levelo://app?vid=84b8ced3-a61f-4894-b8bc-8b55d27a8adc"},"vehicle_type_id":"4","last_reported":1734800852,"current_range_meters":37600,"station_id":"ce4bgh92rcd13ifvqb50","pricing_plan_id":"cebpf4jnsgd1na2vs0mg"},{"bike_id":"dabdb816-8280-4165-8f88-ae205fe0accb","system_id":"levelo_inurba_marseille","lat":43.2396,"lon":5.36629,"is_reserved":false,"is_disabled":false,"rental_uris":{"android":"levelo://app?vid=dabdb816-8280-4165-8f88-ae205fe0accb","ios":"levelo://app?vid=dabdb816-8280-4165-8f88-ae205fe0accb"},"vehicle_type_id":"4","last_reported":1734800852,"current_range_meters":36000,"station_id":"ce4bhi12rcd13ifvqfp0","pricing_plan_id":"cebpf4jnsgd1na2vs0mg"},{"bike_id":"6022ea6e-2b9e-4bd5-bd4c-77c54e8b8a4a","system_id":"levelo_inurba_marseille","lat":43.31327,"lon":5.39687,"is_reserved":false,"is_disabled":false,"rental_uris":{"android":"levelo://app?vid=6022ea6e-2b9e-4bd5-bd4c-77c54e8b8a4a","ios":"levelo://app?vid=6022ea6e-2b9e-4bd5-bd4c-77c54e8b8a4a"},"vehicle_type_id":"4","last_reported":1734800852,"current_range_meters":35200,"station_id":"ce4bgvp2rcd13ifvqcu0","pricing_plan_id":"cebpf4jnsgd1na2vs0mg"},{"bike_id":"62c4bf08-2663-4d5f-b5a0-40453d217c52","system_id":"levelo_inurba_marseille","lat":43.26201,"lon":5.37924,"is_reserved":false,"is_disabled":false,"rental_uris":{"android":"levelo://app?vid=62c4bf08-2663-4d5f-b5a0-40453d217c52","ios":"levelo://app?vid=62c4bf08-2663-4d5f-b5a0-40453d217c52"},"vehicle_type_id":"4","last_reported":1734800852,"current_range_meters":36000,"station_id":"ce4bhjp2rcd13ifvqg90","pricing_plan_id":"cebpf4jnsgd1na2vs0mg"},{"bike_id":"66570a8e-b5be-4659-a8b6-2eeef56cd841","system_id":"levelo_inurba_marseille","lat":43.2985,"lon":5.38179,"is_reserved":false,"is_disabled":false,"rental_uris":{"android":"levelo://app?vid=66570a8e-b5be-4659-a8b6-2eeef56cd841","ios":"levelo://app?vid=66570a8e-b5be-4659-a8b6-2eeef56cd841"},"vehicle_type_id":"4","last_reported":1734800852,"current_range_meters":38800,"station_id":"ce4bgj12rcd13ifvqbc0","pricing_plan_id":"cebpf4jnsgd1na2vs0mg"},{"bike_id":"80951b7a-4911-4d5d-99f2-72f0fbcc1b14","system_id":"levelo_inurba_marseille","lat":43.27314,"lon":5.3908,"is_reserved":false,"is_disabled":false,"rental_uris":{"android":"levelo://app?vid=80951b7a-4911-4d5d-99f2-72f0fbcc1b14","ios":"levelo://app?vid=80951b7a-4911-4d5d-99f2-72f0fbcc1b14"},"vehicle_type_id":"4","last_reported":1734800852,"current_range_meters":38000,"station_id":"ce4bhgp2rcd13ifvqfe0","pricing_plan_id":"cebpf4jnsgd1na2vs0mg"},{"bike_id":"6574f9bb-a56f-4206-8d31-f8e67aa2bb46","system_id":"levelo_inurba_marseille","lat":43.29611,"lon":5.37718,"is_reserved":false,"is_disabled":false,"rental_uris":{"android":"levelo://app?vid=6574f9bb-a56f-4206-8d31-f8e67aa2bb46","ios":"levelo://app?vid=6574f9bb-a56f-4206-8d31-f8e67aa2bb46"},"vehicle_type_id":"4","last_reported":1734800852,"current_range_meters":30400,"station_id":"ce4bgi92rcd13ifvqb90","pricing_plan_id":"cebpf4jnsgd1na2vs0mg"},{"bike_id":"fc4ff347-ef4d-4a4d-ae09-babf618fedb6","system_id":"levelo_inurba_marseille","lat":43.24168,"lon":5.364,"is_reserved":false,"is_disabled":false,"rental_uris":{"android":"levelo://app?vid=fc4ff347-ef4d-4a4d-ae09-babf618fedb6","ios":"levelo://app?vid=fc4ff347-ef4d-4a4d-ae09-babf618fedb6"},"vehicle_type_id":"4","last_reported":1734800852,"current_range_meters":34000,"station_id":"cpo36qri1sfpv3e86is0","pricing_plan_id":"cebpf4jnsgd1na2vs0mg"},{"bike_id":"d9c2bdbf-8682-4d45-94a4-cb9c5e742aef","system_id":"levelo_inurba_marseille","lat":43.3009,"lon":5.39074,"is_reserved":false,"is_disabled":false,"rental_uris":{"android":"levelo://app?vid=d9c2bdbf-8682-4d45-94a4-cb9c5e742aef","ios":"levelo://app?vid=d9c2bdbf-8682-4d45-94a4-cb9c5e742aef"},"vehicle_type_id":"4","last_reported":1734800852,"current_range_meters":38800,"station_id":"ce4bh192rcd13ifvqdb0","pricing_plan_id":"cebpf4jnsgd1na2vs0mg"},{"bike_id":"7403424b-3e7d-492d-bc61-81c819ae4696","system_id":"levelo_inurba_marseille","lat":43.28932,"lon":5.38397,"is_reserved":false,"is_disabled":false,"rental_uris":{"android":"levelo://app?vid=7403424b-3e7d-492d-bc61-81c819ae4696","ios":"levelo://app?vid=7403424b-3e7d-492d-bc61-81c819ae4696"},"vehicle_type_id":"4","last_reported":1734800852,"current_range_meters":38800,"station_id":"ce4bh612rcd13ifvqe6g","pricing_plan_id":"cebpf4jnsgd1na2vs0mg"},{"bike_id":"cbf1ec11-8d33-4f4b-86f9-f0323ee50e1a","system_id":"levelo_inurba_marseille","lat":43.23961,"lon":5.36629,"is_reserved":false,"is_disabled":false,"rental_uris":{"android":"levelo://app?vid=cbf1ec11-8d33-4f4b-86f9-f0323ee50e1a","ios":"levelo://app?vid=cbf1ec11-8d33-4f4b-86f9-f0323ee50e1a"},"vehicle_type_id":"4","last_reported":1734800852,"current_range_meters":29600,"station_id":"ce4bhi12rcd13ifvqfp0","pricing_plan_id":"cebpf4jnsgd1na2vs0mg"},{"bike_id":"81959691-8c9c-4637-9c02-e883aa087405","system_id":"levelo_inurba_marseille","lat":43.29312,"lon":5.37178,"is_reserved":false,"is_disabled":false,"rental_uris":{"android":"levelo://app?vid=81959691-8c9c-4637-9c02-e883aa087405","ios":"levelo://app?vid=81959691-8c9c-4637-9c02-e883aa087405"},"vehicle_type_id":"4","last_reported":1734800852,"current_range_meters":32800,"station_id":"ce4bgh92rcd13ifvqb40","pricing_plan_id":"cebpf4jnsgd1na2vs0mg"},{"bike_id":"7a056da6-5d22-404d-b948-83425d2ff274","system_id":"levelo_inurba_marseille","lat":43.27806,"lon":5.40704,"is_reserved":false,"is_disabled":false,"rental_uris":{"android":"levelo://app?vid=7a056da6-5d22-404d-b948-83425d2ff274","ios":"levelo://app?vid=7a056da6-5d22-404d-b948-83425d2ff274"},"vehicle_type_id":"4","last_reported":1734800852,"current_range_meters":30800,"station_id":"ce4bhnh2rcd13ifvqgtg","pricing_plan_id":"cebpf4jnsgd1na2vs0mg"},{"bike_id":"183b5972-72fe-43ac-931f-7a92916ecc83","system_id":"levelo_inurba_marseille","lat":43.29269,"lon":5.36846,"is_reserved":false,"is_disabled":false,"rental_uris":{"android":"levelo://app?vid=183b5972-72fe-43ac-931f-7a92916ecc83","ios":"levelo://app?vid=183b5972-72fe-43ac-931f-7a92916ecc83"},"vehicle_type_id":"4","last_reported":1734800852,"current_range_meters":20400,"station_id":"ce4bhbp2rcd13ifvqesg","pricing_plan_id":"cebpf4jnsgd1na2vs0mg"},{"bike_id":"1b0e9d34-71b5-4d2a-8c59-b2701c6566e6","system_id":"levelo_inurba_marseille","lat":43.25495,"lon":5.37648,"is_reserved":false,"is_disabled":false,"rental_uris":{"android":"levelo://app?vid=1b0e9d34-71b5-4d2a-8c59-b2701c6566e6","ios":"levelo://app?vid=1b0e9d34-71b5-4d2a-8c59-b2701c6566e6"},"vehicle_type_id":"4","last_reported":1734800852,"current_range_meters":38800,"station_id":"ce4bhh12rcd13ifvqff0","pricing_plan_id":"cebpf4jnsgd1na2vs0mg"},{"bike_id":"8d7863d1-a384-4d3a-aa69-b7348f0128ac","system_id":"levelo_inurba_marseille","lat":43.29031,"lon":5.37571,"is_reserved":false,"is_disabled":false,"rental_uris":{"android":"levelo://app?vid=8d7863d1-a384-4d3a-aa69-b7348f0128ac","ios":"levelo://app?vid=8d7863d1-a384-4d3a-aa69-b7348f0128ac"},"vehicle_type_id":"4","last_reported":1734800852,"current_range_meters":36000,"station_id":"ce4bh692rcd13ifvqe90","pricing_plan_id":"cebpf4jnsgd1na2vs0mg"},{"bike_id":"abbc8f9b-5577-4fcd-bbf9-457f2aa80ebe","system_id":"levelo_inurba_marseille","lat":43.27321,"lon":5.39081,"is_reserved":false,"is_disabled":false,"rental_uris":{"android":"levelo://app?vid=abbc8f9b-5577-4fcd-bbf9-457f2aa80ebe","ios":"levelo://app?vid=abbc8f9b-5577-4fcd-bbf9-457f2aa80ebe"},"vehicle_type_id":"4","last_reported":1734800852,"current_range_meters":25200,"station_id":"ce4bhgp2rcd13ifvqfe0","pricing_plan_id":"cebpf4jnsgd1na2vs0mg"},{"bike_id":"877fe626-a76a-4adb-b522-e8da1970693a","system_id":"levelo_inurba_marseille","lat":43.296067,"lon":5.38095,"is_reserved":false,"is_disabled":false,"rental_uris":{"android":"levelo://app?vid=877fe626-a76a-4adb-b522-e8da1970693a","ios":"levelo://app?vid=877fe626-a76a-4adb-b522-e8da1970693a"},"vehicle_type_id":"4","last_reported":1734800852,"current_range_meters":24000,"station_id":"ce4bgl12rcd13ifvqbo0","pricing_plan_id":"cebpf4jnsgd1na2vs0mg"},{"bike_id":"5fcd1f2b-5eb4-41b0-a144-5af4dc5b482b","system_id":"levelo_inurba_marseille","lat":43.29224,"lon":5.36062,"is_reserved":false,"is_disabled":false,"rental_uris":{"android":"levelo://app?vid=5fcd1f2b-5eb4-41b0-a144-5af4dc5b482b","ios":"levelo://app?vid=5fcd1f2b-5eb4-41b0-a144-5af4dc5b482b"},"vehicle_type_id":"4","last_reported":1734800852,"current_range_meters":10000,"station_id":"ce4bhbh2rcd13ifvqeqg","pricing_plan_id":"cebpf4jnsgd1na2vs0mg"},{"bike_id":"630904bc-0cdc-4b2e-a876-7ca343b79da9","system_id":"levelo_inurba_marseille","lat":43.29683,"lon":5.37282,"is_reserved":false,"is_disabled":false,"rental_uris":{"android":"levelo://app?vid=630904bc-0cdc-4b2e-a876-7ca343b79da9","ios":"levelo://app?vid=630904bc-0cdc-4b2e-a876-7ca343b79da9"},"vehicle_type_id":"4","last_reported":1734800852,"current_range_meters":28800,"station_id":"ce4bgk12rcd13ifvqbj0","pricing_plan_id":"cebpf4jnsgd1na2vs0mg"},{"bike_id":"13b6874a-4246-452d-9d94-be507bd8127c","system_id":"levelo_inurba_marseille","lat":43.27618,"lon":5.36104,"is_reserved":false,"is_disabled":false,"rental_uris":{"android":"levelo://app?vid=13b6874a-4246-452d-9d94-be507bd8127c","ios":"levelo://app?vid=13b6874a-4246-452d-9d94-be507bd8127c"},"vehicle_type_id":"4","last_reported":1734800852,"current_range_meters":38800,"station_id":"ce4bgj92rcd13ifvqbe0","pricing_plan_id":"cebpf4jnsgd1na2vs0mg"},{"bike_id":"131be7d1-df81-4249-891d-541b91ed0ea5","system_id":"levelo_inurba_marseille","lat":43.3136,"lon":5.38489,"is_reserved":false,"is_disabled":false,"rental_uris":{"android":"levelo://app?vid=131be7d1-df81-4249-891d-541b91ed0ea5","ios":"levelo://app?vid=131be7d1-df81-4249-891d-541b91ed0ea5"},"vehicle_type_id":"4","last_reported":1734800852,"current_range_meters":4800,"station_id":"ce4bgt92rcd13ifvqcf0","pricing_plan_id":"cebpf4jnsgd1na2vs0mg"},{"bike_id":"0cae4290-e1a4-433a-9d22-f2356974f82a","system_id":"levelo_inurba_marseille","lat":43.27618,"lon":5.36105,"is_reserved":false,"is_disabled":false,"rental_uris":{"android":"levelo://app?vid=0cae4290-e1a4-433a-9d22-f2356974f82a","ios":"levelo://app?vid=0cae4290-e1a4-433a-9d22-f2356974f82a"},"vehicle_type_id":"4","last_reported":1734800852,"current_range_meters":19200,"station_id":"ce4bgj92rcd13ifvqbe0","pricing_plan_id":"cebpf4jnsgd1na2vs0mg"},{"bike_id":"3d9f1d4f-4688-41c1-9667-211f38ffaca6","system_id":"levelo_inurba_marseille","lat":43.28418,"lon":5.34973,"is_reserved":false,"is_disabled":false,"rental_uris":{"android":"levelo://app?vid=3d9f1d4f-4688-41c1-9667-211f38ffaca6","ios":"levelo://app?vid=3d9f1d4f-4688-41c1-9667-211f38ffaca6"},"vehicle_type_id":"4","last_reported":1734800852,"current_range_meters":8000,"station_id":"ce4bhbh2rcd13ifvqepg","pricing_plan_id":"cebpf4jnsgd1na2vs0mg"},{"bike_id":"e26ec365-2cdc-4b88-b923-fe6cb18998cd","system_id":"levelo_inurba_marseille","lat":43.2963,"lon":5.37711,"is_reserved":false,"is_disabled":false,"rental_uris":{"android":"levelo://app?vid=e26ec365-2cdc-4b88-b923-fe6cb18998cd","ios":"levelo://app?vid=e26ec365-2cdc-4b88-b923-fe6cb18998cd"},"vehicle_type_id":"4","last_reported":1734800852,"current_range_meters":9600,"station_id":"ce4bgi92rcd13ifvqb90","pricing_plan_id":"cebpf4jnsgd1na2vs0mg"},{"bike_id":"335cfab2-7e48-4c5a-80ae-5166792cd261","system_id":"levelo_inurba_marseille","lat":43.29595,"lon":5.38095,"is_reserved":false,"is_disabled":false,"rental_uris":{"android":"levelo://app?vid=335cfab2-7e48-4c5a-80ae-5166792cd261","ios":"levelo://app?vid=335cfab2-7e48-4c5a-80ae-5166792cd261"},"vehicle_type_id":"4","last_reported":1734800852,"current_range_meters":35600,"station_id":"ce4bgl12rcd13ifvqbo0","pricing_plan_id":"cebpf4jnsgd1na2vs0mg"},{"bike_id":"f40e7c61-8a43-4da7-a842-fa391ba2fc6e","system_id":"levelo_inurba_marseille","lat":43.26042,"lon":5.37565,"is_reserved":false,"is_disabled":false,"rental_uris":{"android":"levelo://app?vid=f40e7c61-8a43-4da7-a842-fa391ba2fc6e","ios":"levelo://app?vid=f40e7c61-8a43-4da7-a842-fa391ba2fc6e"},"vehicle_type_id":"4","last_reported":1734800852,"current_range_meters":38000,"station_id":"ce4bhgh2rcd13ifvqfa0","pricing_plan_id":"cebpf4jnsgd1na2vs0mg"},{"bike_id":"5059e0d1-c05f-490b-acfb-c68faa97bda8","system_id":"levelo_inurba_marseille","lat":43.29248,"lon":5.40901,"is_reserved":false,"is_disabled":false,"rental_uris":{"android":"levelo://app?vid=5059e0d1-c05f-490b-acfb-c68faa97bda8","ios":"levelo://app?vid=5059e0d1-c05f-490b-acfb-c68faa97bda8"},"vehicle_type_id":"4","last_reported":1734800852,"current_range_meters":38000,"station_id":"ce4bh192rcd13ifvqdc0","pricing_plan_id":"cebpf4jnsgd1na2vs0mg"},{"bike_id":"f0bcbb45-555d-4c5b-8534-084b0fafc4e9","system_id":"levelo_inurba_marseille","lat":43.2917,"lon":5.37142,"is_reserved":false,"is_disabled":true,"rental_uris":{"android":"levelo://app?vid=f0bcbb45-555d-4c5b-8534-084b0fafc4e9","ios":"levelo://app?vid=f0bcbb45-555d-4c5b-8534-084b0fafc4e9"},"vehicle_type_id":"4","last_reported":1734800852,"current_range_meters":38400,"station_id":"ce4bha92rcd13ifvqeh0","pricing_plan_id":"cebpf4jnsgd1na2vs0mg"},{"bike_id":"45dbbc53-6574-42d0-b694-7c54b4730265","system_id":"levelo_inurba_marseille","lat":43.29279,"lon":5.4011,"is_reserved":false,"is_disabled":false,"rental_uris":{"android":"levelo://app?vid=45dbbc53-6574-42d0-b694-7c54b4730265","ios":"levelo://app?vid=45dbbc53-6574-42d0-b694-7c54b4730265"},"vehicle_type_id":"4","last_reported":1734800852,"current_range_meters":19600,"station_id":"ce4bh312rcd13ifvqdk0","pricing_plan_id":"cebpf4jnsgd1na2vs0mg"},{"bike_id":"43c6f33f-0226-46c7-9937-aa907f170f2e","system_id":"levelo_inurba_marseille","lat":43.24803,"lon":5.37456,"is_reserved":false,"is_disabled":false,"rental_uris":{"android":"levelo://app?vid=43c6f33f-0226-46c7-9937-aa907f170f2e","ios":"levelo://app?vid=43c6f33f-0226-46c7-9937-aa907f170f2e"},"vehicle_type_id":"4","last_reported":1734800852,"current_range_meters":30400,"station_id":"ce4bhgh2rcd13ifvqfb0","pricing_plan_id":"cebpf4jnsgd1na2vs0mg"},{"bike_id":"b002d028-e42c-46e2-93ce-a18a7a90546e","system_id":"levelo_inurba_marseille","lat":43.32287,"lon":5.38288,"is_reserved":false,"is_disabled":false,"rental_uris":{"android":"levelo://app?vid=b002d028-e42c-46e2-93ce-a18a7a90546e","ios":"levelo://app?vid=b002d028-e42c-46e2-93ce-a18a7a90546e"},"vehicle_type_id":"4","last_reported":1734800852,"current_range_meters":22800,"station_id":"ce4bhr12rcd13ifvqhqg","pricing_plan_id":"cebpf4jnsgd1na2vs0mg"},{"bike_id":"c8b164fe-00ef-4c79-8cf6-5f917f0e3ac2","system_id":"levelo_inurba_marseille","lat":43.29712,"lon":5.37698,"is_reserved":false,"is_disabled":false,"rental_uris":{"android":"levelo://app?vid=c8b164fe-00ef-4c79-8cf6-5f917f0e3ac2","ios":"levelo://app?vid=c8b164fe-00ef-4c79-8cf6-5f917f0e3ac2"},"vehicle_type_id":"4","last_reported":1734800852,"current_range_meters":26800,"station_id":"ce4bgkh2rcd13ifvqbl0","pricing_plan_id":"cebpf4jnsgd1na2vs0mg"},{"bike_id":"725f2ba4-42ee-480b-a31f-097189b1c2cf","system_id":"levelo_inurba_marseille","lat":43.291827,"lon":5.35796,"is_reserved":false,"is_disabled":true,"rental_uris":{"android":"levelo://app?vid=725f2ba4-42ee-480b-a31f-097189b1c2cf","ios":"levelo://app?vid=725f2ba4-42ee-480b-a31f-097189b1c2cf"},"vehicle_type_id":"4","last_reported":1734800852,"current_range_meters":38800,"station_id":"ce4bhb12rcd13ifvqel0","pricing_plan_id":"cebpf4jnsgd1na2vs0mg"},{"bike_id":"02919b84-ba93-48e5-ae22-fa389bb230c6","system_id":"levelo_inurba_marseille","lat":43.29624,"lon":5.3772,"is_reserved":false,"is_disabled":false,"rental_uris":{"android":"levelo://app?vid=02919b84-ba93-48e5-ae22-fa389bb230c6","ios":"levelo://app?vid=02919b84-ba93-48e5-ae22-fa389bb230c6"},"vehicle_type_id":"4","last_reported":1734800852,"current_range_meters":19600,"station_id":"ce4bgi92rcd13ifvqb90","pricing_plan_id":"cebpf4jnsgd1na2vs0mg"},{"bike_id":"4094ac40-fe97-4483-91f4-bc4b6a97b4f3","system_id":"levelo_inurba_marseille","lat":43.25825,"lon":5.39399,"is_reserved":false,"is_disabled":false,"rental_uris":{"android":"levelo://app?vid=4094ac40-fe97-4483-91f4-bc4b6a97b4f3","ios":"levelo://app?vid=4094ac40-fe97-4483-91f4-bc4b6a97b4f3"},"vehicle_type_id":"4","last_reported":1734800852,"current_range_meters":5600,"station_id":"ce4bhip2rcd13ifvqft0","pricing_plan_id":"cebpf4jnsgd1na2vs0mg"},{"bike_id":"ed495aba-f9b6-4311-b39c-649f2202b23f","system_id":"levelo_inurba_marseille","lat":43.27564,"lon":5.38409,"is_reserved":false,"is_disabled":false,"rental_uris":{"android":"levelo://app?vid=ed495aba-f9b6-4311-b39c-649f2202b23f","ios":"levelo://app?vid=ed495aba-f9b6-4311-b39c-649f2202b23f"},"vehicle_type_id":"4","last_reported":1734800852,"current_range_meters":19600,"station_id":"ce4bhh92rcd13ifvqfi0","pricing_plan_id":"cebpf4jnsgd1na2vs0mg"},{"bike_id":"f953c87c-4ea7-4e78-9490-68e955a0946d","system_id":"levelo_inurba_marseille","lat":43.2549,"lon":5.37647,"is_reserved":false,"is_disabled":true,"rental_uris":{"android":"levelo://app?vid=f953c87c-4ea7-4e78-9490-68e955a0946d","ios":"levelo://app?vid=f953c87c-4ea7-4e78-9490-68e955a0946d"},"vehicle_type_id":"4","last_reported":1734800852,"current_range_meters":19200,"station_id":"ce4bhh12rcd13ifvqff0","pricing_plan_id":"cebpf4jnsgd1na2vs0mg"},{"bike_id":"bffa53fc-fd24-43bb-914d-8fb43c7a35d6","system_id":"levelo_inurba_marseille","lat":43.26684,"lon":5.38274,"is_reserved":false,"is_disabled":false,"rental_uris":{"android":"levelo://app?vid=bffa53fc-fd24-43bb-914d-8fb43c7a35d6","ios":"levelo://app?vid=bffa53fc-fd24-43bb-914d-8fb43c7a35d6"},"vehicle_type_id":"4","last_reported":1734800852,"current_range_meters":30400,"station_id":"ce4bhg92rcd13ifvqf90","pricing_plan_id":"cebpf4jnsgd1na2vs0mg"},{"bike_id":"b73b3cc8-26fa-4032-8e99-f74b6ff40c2a","system_id":"levelo_inurba_marseille","lat":43.27016,"lon":5.40211,"is_reserved":false,"is_disabled":false,"rental_uris":{"android":"levelo://app?vid=b73b3cc8-26fa-4032-8e99-f74b6ff40c2a","ios":"levelo://app?vid=b73b3cc8-26fa-4032-8e99-f74b6ff40c2a"},"vehicle_type_id":"4","last_reported":1734800852,"current_range_meters":19200,"station_id":"","pricing_plan_id":"cebpf4jnsgd1na2vs0mg"},{"bike_id":"0fa4fd6a-c920-470e-9628-342bc95af557","system_id":"levelo_inurba_marseille","lat":43.24676,"lon":5.38153,"is_reserved":false,"is_disabled":false,"rental_uris":{"android":"levelo://app?vid=0fa4fd6a-c920-470e-9628-342bc95af557","ios":"levelo://app?vid=0fa4fd6a-c920-470e-9628-342bc95af557"},"vehicle_type_id":"4","last_reported":1734800852,"current_range_meters":36800,"station_id":"ce4bhih2rcd13ifvqfr0","pricing_plan_id":"cebpf4jnsgd1na2vs0mg"},{"bike_id":"32ebf098-e002-4aa6-88f7-5b365ee05e11","system_id":"levelo_inurba_marseille","lat":43.24082,"lon":5.37734,"is_reserved":false,"is_disabled":true,"rental_uris":{"android":"levelo://app?vid=32ebf098-e002-4aa6-88f7-5b365ee05e11","ios":"levelo://app?vid=32ebf098-e002-4aa6-88f7-5b365ee05e11"},"vehicle_type_id":"4","last_reported":1734800852,"current_range_meters":1200,"station_id":"ce4bhnp2rcd13ifvqgvg","pricing_plan_id":"cebpf4jnsgd1na2vs0mg"},{"bike_id":"4b7afde9-10fb-4c99-9992-7cd53645a008","system_id":"levelo_inurba_marseille","lat":43.29625,"lon":5.37693,"is_reserved":false,"is_disabled":false,"rental_uris":{"android":"levelo://app?vid=4b7afde9-10fb-4c99-9992-7cd53645a008","ios":"levelo://app?vid=4b7afde9-10fb-4c99-9992-7cd53645a008"},"vehicle_type_id":"4","last_reported":1734800852,"current_range_meters":38400,"station_id":"ce4bgi92rcd13ifvqb90","pricing_plan_id":"cebpf4jnsgd1na2vs0mg"},{"bike_id":"af8f5411-34b6-44b5-b0bb-8e73d311e9b7","system_id":"levelo_inurba_marseille","lat":43.28404,"lon":5.37517,"is_reserved":false,"is_disabled":false,"rental_uris":{"android":"levelo://app?vid=af8f5411-34b6-44b5-b0bb-8e73d311e9b7","ios":"levelo://app?vid=af8f5411-34b6-44b5-b0bb-8e73d311e9b7"},"vehicle_type_id":"4","last_reported":1734800852,"current_range_meters":25600,"station_id":"ce4bh412rcd13ifvqds0","pricing_plan_id":"cebpf4jnsgd1na2vs0mg"},{"bike_id":"f699f5c3-f77f-4892-b328-ccf456afa874","system_id":"levelo_inurba_marseille","lat":43.22921,"lon":5.35366,"is_reserved":false,"is_disabled":false,"rental_uris":{"android":"levelo://app?vid=f699f5c3-f77f-4892-b328-ccf456afa874","ios":"levelo://app?vid=f699f5c3-f77f-4892-b328-ccf456afa874"},"vehicle_type_id":"4","last_reported":1734800852,"current_range_meters":22000,"station_id":"cpo3532slgdg3j2ikp40","pricing_plan_id":"cebpf4jnsgd1na2vs0mg"},{"bike_id":"e26f11c3-a1d9-4ac8-8a7a-8ad02ec92978","system_id":"levelo_inurba_marseille","lat":43.30541,"lon":5.36547,"is_reserved":false,"is_disabled":false,"rental_uris":{"android":"levelo://app?vid=e26f11c3-a1d9-4ac8-8a7a-8ad02ec92978","ios":"levelo://app?vid=e26f11c3-a1d9-4ac8-8a7a-8ad02ec92978"},"vehicle_type_id":"4","last_reported":1734800852,"current_range_meters":29600,"station_id":"ce4bgs12rcd13ifvqcag","pricing_plan_id":"cebpf4jnsgd1na2vs0mg"},{"bike_id":"ba623d7f-de4d-43e6-9a39-be19938e75fb","system_id":"levelo_inurba_marseille","lat":43.29361,"lon":5.37861,"is_reserved":false,"is_disabled":true,"rental_uris":{"android":"levelo://app?vid=ba623d7f-de4d-43e6-9a39-be19938e75fb","ios":"levelo://app?vid=ba623d7f-de4d-43e6-9a39-be19938e75fb"},"vehicle_type_id":"4","last_reported":1734800852,"current_range_meters":38000,"station_id":"","pricing_plan_id":"cebpf4jnsgd1na2vs0mg"},{"bike_id":"a1e78d24-4774-40fb-ae35-c4b5aa530a41","system_id":"levelo_inurba_marseille","lat":43.29256,"lon":5.40909,"is_reserved":false,"is_disabled":false,"rental_uris":{"android":"levelo://app?vid=a1e78d24-4774-40fb-ae35-c4b5aa530a41","ios":"levelo://app?vid=a1e78d24-4774-40fb-ae35-c4b5aa530a41"},"vehicle_type_id":"4","last_reported":1734800852,"current_range_meters":39200,"station_id":"ce4bh192rcd13ifvqdc0","pricing_plan_id":"cebpf4jnsgd1na2vs0mg"},{"bike_id":"c073fa6a-f94e-4fab-8a56-0f73febd329a","system_id":"levelo_inurba_marseille","lat":43.27949,"lon":5.41041,"is_reserved":false,"is_disabled":false,"rental_uris":{"android":"levelo://app?vid=c073fa6a-f94e-4fab-8a56-0f73febd329a","ios":"levelo://app?vid=c073fa6a-f94e-4fab-8a56-0f73febd329a"},"vehicle_type_id":"4","last_reported":1734800852,"current_range_meters":11200,"station_id":"ce4bhnp2rcd13ifvqh0g","pricing_plan_id":"cebpf4jnsgd1na2vs0mg"},{"bike_id":"3fbf8772-7bc2-4c7d-b2b9-1470ce9134bf","system_id":"levelo_inurba_marseille","lat":43.29153,"lon":5.37155,"is_reserved":false,"is_disabled":false,"rental_uris":{"android":"levelo://app?vid=3fbf8772-7bc2-4c7d-b2b9-1470ce9134bf","ios":"levelo://app?vid=3fbf8772-7bc2-4c7d-b2b9-1470ce9134bf"},"vehicle_type_id":"4","last_reported":1734800852,"current_range_meters":36800,"station_id":"ce4bha92rcd13ifvqeh0","pricing_plan_id":"cebpf4jnsgd1na2vs0mg"},{"bike_id":"caa28317-677f-4684-8cc6-46932db162b9","system_id":"levelo_inurba_marseille","lat":43.27812,"lon":5.4072,"is_reserved":false,"is_disabled":false,"rental_uris":{"android":"levelo://app?vid=caa28317-677f-4684-8cc6-46932db162b9","ios":"levelo://app?vid=caa28317-677f-4684-8cc6-46932db162b9"},"vehicle_type_id":"4","last_reported":1734800852,"current_range_meters":16400,"station_id":"ce4bhnh2rcd13ifvqgtg","pricing_plan_id":"cebpf4jnsgd1na2vs0mg"},{"bike_id":"d7a9a039-2919-4498-94bc-85df69bbf9b4","system_id":"levelo_inurba_marseille","lat":43.250872,"lon":5.395165,"is_reserved":false,"is_disabled":true,"rental_uris":{"android":"levelo://app?vid=d7a9a039-2919-4498-94bc-85df69bbf9b4","ios":"levelo://app?vid=d7a9a039-2919-4498-94bc-85df69bbf9b4"},"vehicle_type_id":"4","last_reported":1734800852,"current_range_meters":0,"station_id":"ce4bhm12rcd13ifvqgkg","pricing_plan_id":"cebpf4jnsgd1na2vs0mg"},{"bike_id":"f6e00a83-cc1f-4aaf-83bb-77e9d3b9e809","system_id":"levelo_inurba_marseille","lat":43.337444,"lon":5.374475,"is_reserved":false,"is_disabled":false,"rental_uris":{"android":"levelo://app?vid=f6e00a83-cc1f-4aaf-83bb-77e9d3b9e809","ios":"levelo://app?vid=f6e00a83-cc1f-4aaf-83bb-77e9d3b9e809"},"vehicle_type_id":"4","last_reported":1734800852,"current_range_meters":28000,"station_id":"","pricing_plan_id":"cebpf4jnsgd1na2vs0mg"},{"bike_id":"4557c5fc-60ed-4c34-9596-70c70138f451","system_id":"levelo_inurba_marseille","lat":43.29621,"lon":5.37152,"is_reserved":false,"is_disabled":true,"rental_uris":{"android":"levelo://app?vid=4557c5fc-60ed-4c34-9596-70c70138f451","ios":"levelo://app?vid=4557c5fc-60ed-4c34-9596-70c70138f451"},"vehicle_type_id":"4","last_reported":1734800852,"current_range_meters":0,"station_id":"","pricing_plan_id":"cebpf4jnsgd1na2vs0mg"},{"bike_id":"ab03df0b-543d-4c8b-95ec-4ff2feeef006","system_id":"levelo_inurba_marseille","lat":43.29605,"lon":5.37708,"is_reserved":false,"is_disabled":false,"rental_uris":{"android":"levelo://app?vid=ab03df0b-543d-4c8b-95ec-4ff2feeef006","ios":"levelo://app?vid=ab03df0b-543d-4c8b-95ec-4ff2feeef006"},"vehicle_type_id":"4","last_reported":1734800852,"current_range_meters":38800,"station_id":"ce4bgi92rcd13ifvqb90","pricing_plan_id":"cebpf4jnsgd1na2vs0mg"},{"bike_id":"2daf6017-db0c-42c7-86d8-f89177a5712a","system_id":"levelo_inurba_marseille","lat":43.24067,"lon":5.37765,"is_reserved":false,"is_disabled":false,"rental_uris":{"android":"levelo://app?vid=2daf6017-db0c-42c7-86d8-f89177a5712a","ios":"levelo://app?vid=2daf6017-db0c-42c7-86d8-f89177a5712a"},"vehicle_type_id":"4","last_reported":1734800852,"current_range_meters":25200,"station_id":"ce4bhnp2rcd13ifvqgvg","pricing_plan_id":"cebpf4jnsgd1na2vs0mg"},{"bike_id":"17d30a96-138c-46ae-a54f-40f6ca75312f","system_id":"levelo_inurba_marseille","lat":43.30568,"lon":5.36693,"is_reserved":false,"is_disabled":false,"rental_uris":{"android":"levelo://app?vid=17d30a96-138c-46ae-a54f-40f6ca75312f","ios":"levelo://app?vid=17d30a96-138c-46ae-a54f-40f6ca75312f"},"vehicle_type_id":"4","last_reported":1734800852,"current_range_meters":6800,"station_id":"ce4bgrp2rcd13ifvqc9g","pricing_plan_id":"cebpf4jnsgd1na2vs0mg"},{"bike_id":"7f6583a4-f53f-435e-932c-6d5ac514261e","system_id":"levelo_inurba_marseille","lat":43.28474,"lon":5.38425,"is_reserved":false,"is_disabled":false,"rental_uris":{"android":"levelo://app?vid=7f6583a4-f53f-435e-932c-6d5ac514261e","ios":"levelo://app?vid=7f6583a4-f53f-435e-932c-6d5ac514261e"},"vehicle_type_id":"4","last_reported":1734800852,"current_range_meters":38800,"station_id":"ce4bh512rcd13ifvqe3g","pricing_plan_id":"cebpf4jnsgd1na2vs0mg"},{"bike_id":"ea6a53be-9a75-473b-b166-afd23e8ce576","system_id":"levelo_inurba_marseille","lat":43.29911,"lon":5.37471,"is_reserved":false,"is_disabled":false,"rental_uris":{"android":"levelo://app?vid=ea6a53be-9a75-473b-b166-afd23e8ce576","ios":"levelo://app?vid=ea6a53be-9a75-473b-b166-afd23e8ce576"},"vehicle_type_id":"4","last_reported":1734800852,"current_range_meters":37600,"station_id":"ce4bgjh2rcd13ifvqbg0","pricing_plan_id":"cebpf4jnsgd1na2vs0mg"},{"bike_id":"e9b9d51c-3835-4f0a-860c-dca30cbf1462","system_id":"levelo_inurba_marseille","lat":43.29843,"lon":5.36276,"is_reserved":false,"is_disabled":false,"rental_uris":{"android":"levelo://app?vid=e9b9d51c-3835-4f0a-860c-dca30cbf1462","ios":"levelo://app?vid=e9b9d51c-3835-4f0a-860c-dca30cbf1462"},"vehicle_type_id":"4","last_reported":1734800852,"current_range_meters":38800,"station_id":"ce4bgpp2rcd13ifvqc3g","pricing_plan_id":"cebpf4jnsgd1na2vs0mg"},{"bike_id":"9e4fd3af-a38c-4cc0-a669-b23d39435e38","system_id":"levelo_inurba_marseille","lat":43.27067,"lon":5.42272,"is_reserved":false,"is_disabled":false,"rental_uris":{"android":"levelo://app?vid=9e4fd3af-a38c-4cc0-a669-b23d39435e38","ios":"levelo://app?vid=9e4fd3af-a38c-4cc0-a669-b23d39435e38"},"vehicle_type_id":"4","last_reported":1734800852,"current_range_meters":24800,"station_id":"ce4bhk92rcd13ifvqgb0","pricing_plan_id":"cebpf4jnsgd1na2vs0mg"},{"bike_id":"8d23ef1c-4d80-41f5-8856-02b6ab55c880","system_id":"levelo_inurba_marseille","lat":43.33727,"lon":5.39183,"is_reserved":false,"is_disabled":false,"rental_uris":{"android":"levelo://app?vid=8d23ef1c-4d80-41f5-8856-02b6ab55c880","ios":"levelo://app?vid=8d23ef1c-4d80-41f5-8856-02b6ab55c880"},"vehicle_type_id":"4","last_reported":1734800852,"current_range_meters":35200,"station_id":"ce4bhr92rcd13ifvqhsg","pricing_plan_id":"cebpf4jnsgd1na2vs0mg"},{"bike_id":"f3a102a0-fa39-4b51-9d12-7238f7067759","system_id":"levelo_inurba_marseille","lat":43.28107,"lon":5.37835,"is_reserved":false,"is_disabled":false,"rental_uris":{"android":"levelo://app?vid=f3a102a0-fa39-4b51-9d12-7238f7067759","ios":"levelo://app?vid=f3a102a0-fa39-4b51-9d12-7238f7067759"},"vehicle_type_id":"4","last_reported":1734800852,"current_range_meters":38800,"station_id":"ce4bha12rcd13ifvqee0","pricing_plan_id":"cebpf4jnsgd1na2vs0mg"},{"bike_id":"d60d8232-4a96-492d-9348-9c3d8bdfda03","system_id":"levelo_inurba_marseille","lat":43.29845,"lon":5.36274,"is_reserved":false,"is_disabled":false,"rental_uris":{"android":"levelo://app?vid=d60d8232-4a96-492d-9348-9c3d8bdfda03","ios":"levelo://app?vid=d60d8232-4a96-492d-9348-9c3d8bdfda03"},"vehicle_type_id":"4","last_reported":1734800852,"current_range_meters":38800,"station_id":"ce4bgpp2rcd13ifvqc3g","pricing_plan_id":"cebpf4jnsgd1na2vs0mg"},{"bike_id":"dac94ecf-3203-4c89-acc0-21c14e979588","system_id":"levelo_inurba_marseille","lat":43.26696,"lon":5.38259,"is_reserved":false,"is_disabled":false,"rental_uris":{"android":"levelo://app?vid=dac94ecf-3203-4c89-acc0-21c14e979588","ios":"levelo://app?vid=dac94ecf-3203-4c89-acc0-21c14e979588"},"vehicle_type_id":"4","last_reported":1734800852,"current_range_meters":30400,"station_id":"ce4bhg92rcd13ifvqf90","pricing_plan_id":"cebpf4jnsgd1na2vs0mg"},{"bike_id":"b8b52f00-22f9-4069-8f2d-d9185739ba40","system_id":"levelo_inurba_marseille","lat":43.29935,"lon":5.36546,"is_reserved":false,"is_disabled":false,"rental_uris":{"android":"levelo://app?vid=b8b52f00-22f9-4069-8f2d-d9185739ba40","ios":"levelo://app?vid=b8b52f00-22f9-4069-8f2d-d9185739ba40"},"vehicle_type_id":"4","last_reported":1734800852,"current_range_meters":9600,"station_id":"ce4bgm92rcd13ifvqbr0","pricing_plan_id":"cebpf4jnsgd1na2vs0mg"},{"bike_id":"befecbf9-7f20-4f63-b2b1-e37aa9e023c8","system_id":"levelo_inurba_marseille","lat":43.29684,"lon":5.37292,"is_reserved":false,"is_disabled":false,"rental_uris":{"android":"levelo://app?vid=befecbf9-7f20-4f63-b2b1-e37aa9e023c8","ios":"levelo://app?vid=befecbf9-7f20-4f63-b2b1-e37aa9e023c8"},"vehicle_type_id":"4","last_reported":1734800852,"current_range_meters":35600,"station_id":"ce4bgk12rcd13ifvqbj0","pricing_plan_id":"cebpf4jnsgd1na2vs0mg"},{"bike_id":"4a5a4686-aa19-47e8-9231-5fa2136358fa","system_id":"levelo_inurba_marseille","lat":43.29603,"lon":5.38101,"is_reserved":false,"is_disabled":false,"rental_uris":{"android":"levelo://app?vid=4a5a4686-aa19-47e8-9231-5fa2136358fa","ios":"levelo://app?vid=4a5a4686-aa19-47e8-9231-5fa2136358fa"},"vehicle_type_id":"4","last_reported":1734800852,"current_range_meters":38800,"station_id":"ce4bgl12rcd13ifvqbo0","pricing_plan_id":"cebpf4jnsgd1na2vs0mg"},{"bike_id":"94d8f421-e505-4c60-81bc-d22848ffdcef","system_id":"levelo_inurba_marseille","lat":43.28473,"lon":5.38413,"is_reserved":false,"is_disabled":false,"rental_uris":{"android":"levelo://app?vid=94d8f421-e505-4c60-81bc-d22848ffdcef","ios":"levelo://app?vid=94d8f421-e505-4c60-81bc-d22848ffdcef"},"vehicle_type_id":"4","last_reported":1734800852,"current_range_meters":28000,"station_id":"ce4bh512rcd13ifvqe3g","pricing_plan_id":"cebpf4jnsgd1na2vs0mg"},{"bike_id":"630f2919-81d1-49d9-bff3-a03696f3982d","system_id":"levelo_inurba_marseille","lat":43.31353,"lon":5.36706,"is_reserved":false,"is_disabled":true,"rental_uris":{"android":"levelo://app?vid=630f2919-81d1-49d9-bff3-a03696f3982d","ios":"levelo://app?vid=630f2919-81d1-49d9-bff3-a03696f3982d"},"vehicle_type_id":"4","last_reported":1734800852,"current_range_meters":0,"station_id":"ce4bgr92rcd13ifvqc6g","pricing_plan_id":"cebpf4jnsgd1na2vs0mg"},{"bike_id":"f8d3a88b-199d-471d-bc4c-168cb78e503b","system_id":"levelo_inurba_marseille","lat":43.30946,"lon":5.39029,"is_reserved":false,"is_disabled":false,"rental_uris":{"android":"levelo://app?vid=f8d3a88b-199d-471d-bc4c-168cb78e503b","ios":"levelo://app?vid=f8d3a88b-199d-471d-bc4c-168cb78e503b"},"vehicle_type_id":"4","last_reported":1734800852,"current_range_meters":34800,"station_id":"ce4bgup2rcd13ifvqco0","pricing_plan_id":"cebpf4jnsgd1na2vs0mg"},{"bike_id":"d98f8e50-1bb7-4b5d-8e73-97daccd1f86a","system_id":"levelo_inurba_marseille","lat":43.27949,"lon":5.41036,"is_reserved":false,"is_disabled":false,"rental_uris":{"android":"levelo://app?vid=d98f8e50-1bb7-4b5d-8e73-97daccd1f86a","ios":"levelo://app?vid=d98f8e50-1bb7-4b5d-8e73-97daccd1f86a"},"vehicle_type_id":"4","last_reported":1734800852,"current_range_meters":16400,"station_id":"ce4bhnp2rcd13ifvqh0g","pricing_plan_id":"cebpf4jnsgd1na2vs0mg"},{"bike_id":"42a84073-73af-4d32-85e0-142779bb9465","system_id":"levelo_inurba_marseille","lat":43.27904,"lon":5.38015,"is_reserved":false,"is_disabled":false,"rental_uris":{"android":"levelo://app?vid=42a84073-73af-4d32-85e0-142779bb9465","ios":"levelo://app?vid=42a84073-73af-4d32-85e0-142779bb9465"},"vehicle_type_id":"4","last_reported":1734800852,"current_range_meters":35600,"station_id":"ce4bhf92rcd13ifvqf50","pricing_plan_id":"cebpf4jnsgd1na2vs0mg"},{"bike_id":"b4ad404b-91a6-4dd1-8bff-d80c26ac9fb1","system_id":"levelo_inurba_marseille","lat":43.29297,"lon":5.37453,"is_reserved":false,"is_disabled":false,"rental_uris":{"android":"levelo://app?vid=b4ad404b-91a6-4dd1-8bff-d80c26ac9fb1","ios":"levelo://app?vid=b4ad404b-91a6-4dd1-8bff-d80c26ac9fb1"},"vehicle_type_id":"4","last_reported":1734800852,"current_range_meters":29600,"station_id":"ce4bgi12rcd13ifvqb70","pricing_plan_id":"cebpf4jnsgd1na2vs0mg"},{"bike_id":"e353d62c-c5ff-4f13-94a9-2d54b9fdbe08","system_id":"levelo_inurba_marseille","lat":43.288463,"lon":5.358413,"is_reserved":false,"is_disabled":true,"rental_uris":{"android":"levelo://app?vid=e353d62c-c5ff-4f13-94a9-2d54b9fdbe08","ios":"levelo://app?vid=e353d62c-c5ff-4f13-94a9-2d54b9fdbe08"},"vehicle_type_id":"4","last_reported":1734800852,"current_range_meters":0,"station_id":"ce4bhb12rcd13ifvqem0","pricing_plan_id":"cebpf4jnsgd1na2vs0mg"},{"bike_id":"88cfebe8-3088-46c4-b250-d1b75923a432","system_id":"levelo_inurba_marseille","lat":43.2466,"lon":5.38156,"is_reserved":false,"is_disabled":false,"rental_uris":{"android":"levelo://app?vid=88cfebe8-3088-46c4-b250-d1b75923a432","ios":"levelo://app?vid=88cfebe8-3088-46c4-b250-d1b75923a432"},"vehicle_type_id":"4","last_reported":1734800852,"current_range_meters":14400,"station_id":"ce4bhih2rcd13ifvqfr0","pricing_plan_id":"cebpf4jnsgd1na2vs0mg"},{"bike_id":"085f67b0-44f2-4732-999e-5d735b9a7008","system_id":"levelo_inurba_marseille","lat":43.27363,"lon":5.3623,"is_reserved":false,"is_disabled":false,"rental_uris":{"android":"levelo://app?vid=085f67b0-44f2-4732-999e-5d735b9a7008","ios":"levelo://app?vid=085f67b0-44f2-4732-999e-5d735b9a7008"},"vehicle_type_id":"4","last_reported":1734800852,"current_range_meters":38800,"station_id":"ce4bhbh2rcd13ifvqeo0","pricing_plan_id":"cebpf4jnsgd1na2vs0mg"},{"bike_id":"870ac398-0980-41bc-b29b-852a736f71c6","system_id":"levelo_inurba_marseille","lat":43.29938,"lon":5.36501,"is_reserved":false,"is_disabled":false,"rental_uris":{"android":"levelo://app?vid=870ac398-0980-41bc-b29b-852a736f71c6","ios":"levelo://app?vid=870ac398-0980-41bc-b29b-852a736f71c6"},"vehicle_type_id":"4","last_reported":1734800852,"current_range_meters":18000,"station_id":"ce4bgm92rcd13ifvqbr0","pricing_plan_id":"cebpf4jnsgd1na2vs0mg"},{"bike_id":"46697d06-0ef4-47cb-a02a-1fcc9b97bedb","system_id":"levelo_inurba_marseille","lat":43.2961,"lon":5.37718,"is_reserved":false,"is_disabled":false,"rental_uris":{"android":"levelo://app?vid=46697d06-0ef4-47cb-a02a-1fcc9b97bedb","ios":"levelo://app?vid=46697d06-0ef4-47cb-a02a-1fcc9b97bedb"},"vehicle_type_id":"4","last_reported":1734800852,"current_range_meters":22400,"station_id":"ce4bgi92rcd13ifvqb90","pricing_plan_id":"cebpf4jnsgd1na2vs0mg"},{"bike_id":"a37c10b7-1da8-4cc6-b0f3-2a310cde69cc","system_id":"levelo_inurba_marseille","lat":43.2956,"lon":5.39045,"is_reserved":false,"is_disabled":true,"rental_uris":{"android":"levelo://app?vid=a37c10b7-1da8-4cc6-b0f3-2a310cde69cc","ios":"levelo://app?vid=a37c10b7-1da8-4cc6-b0f3-2a310cde69cc"},"vehicle_type_id":"4","last_reported":1734800852,"current_range_meters":30400,"station_id":"ce4bh3p2rcd13ifvqdp0","pricing_plan_id":"cebpf4jnsgd1na2vs0mg"},{"bike_id":"d1853d76-78cf-466d-9558-f0792250c702","system_id":"levelo_inurba_marseille","lat":43.33742,"lon":5.37449,"is_reserved":false,"is_disabled":false,"rental_uris":{"android":"levelo://app?vid=d1853d76-78cf-466d-9558-f0792250c702","ios":"levelo://app?vid=d1853d76-78cf-466d-9558-f0792250c702"},"vehicle_type_id":"4","last_reported":1734800852,"current_range_meters":28400,"station_id":"","pricing_plan_id":"cebpf4jnsgd1na2vs0mg"},{"bike_id":"b6c6ea1e-92bc-4ab9-8c36-e6bbe8f4127f","system_id":"levelo_inurba_marseille","lat":43.28939,"lon":5.3663,"is_reserved":false,"is_disabled":false,"rental_uris":{"android":"levelo://app?vid=b6c6ea1e-92bc-4ab9-8c36-e6bbe8f4127f","ios":"levelo://app?vid=b6c6ea1e-92bc-4ab9-8c36-e6bbe8f4127f"},"vehicle_type_id":"4","last_reported":1734800852,"current_range_meters":18800,"station_id":"ce4bhap2rcd13ifvqek0","pricing_plan_id":"cebpf4jnsgd1na2vs0mg"},{"bike_id":"392ce546-2273-4afb-8c3e-86414d573312","system_id":"levelo_inurba_marseille","lat":43.29604,"lon":5.38088,"is_reserved":false,"is_disabled":false,"rental_uris":{"android":"levelo://app?vid=392ce546-2273-4afb-8c3e-86414d573312","ios":"levelo://app?vid=392ce546-2273-4afb-8c3e-86414d573312"},"vehicle_type_id":"4","last_reported":1734800852,"current_range_meters":36000,"station_id":"ce4bgl12rcd13ifvqbo0","pricing_plan_id":"cebpf4jnsgd1na2vs0mg"},{"bike_id":"8748b527-011a-44e2-b7fd-54ba8b4e0814","system_id":"levelo_inurba_marseille","lat":43.22935,"lon":5.35379,"is_reserved":false,"is_disabled":false,"rental_uris":{"android":"levelo://app?vid=8748b527-011a-44e2-b7fd-54ba8b4e0814","ios":"levelo://app?vid=8748b527-011a-44e2-b7fd-54ba8b4e0814"},"vehicle_type_id":"4","last_reported":1734800852,"current_range_meters":26000,"station_id":"cpo3532slgdg3j2ikp40","pricing_plan_id":"cebpf4jnsgd1na2vs0mg"},{"bike_id":"fc4d3979-46c7-43c7-8727-9d5ef59b2f96","system_id":"levelo_inurba_marseille","lat":43.29361,"lon":5.37841,"is_reserved":false,"is_disabled":false,"rental_uris":{"android":"levelo://app?vid=fc4d3979-46c7-43c7-8727-9d5ef59b2f96","ios":"levelo://app?vid=fc4d3979-46c7-43c7-8727-9d5ef59b2f96"},"vehicle_type_id":"4","last_reported":1734800852,"current_range_meters":9600,"station_id":"ce4bgjh2rcd13ifvqbf0","pricing_plan_id":"cebpf4jnsgd1na2vs0mg"},{"bike_id":"d0fd41b4-a6d6-4a7d-a961-0e62eafae74e","system_id":"levelo_inurba_marseille","lat":43.29521,"lon":5.394,"is_reserved":false,"is_disabled":false,"rental_uris":{"android":"levelo://app?vid=d0fd41b4-a6d6-4a7d-a961-0e62eafae74e","ios":"levelo://app?vid=d0fd41b4-a6d6-4a7d-a961-0e62eafae74e"},"vehicle_type_id":"4","last_reported":1734800852,"current_range_meters":39200,"station_id":"ce4bh292rcd13ifvqdf0","pricing_plan_id":"cebpf4jnsgd1na2vs0mg"},{"bike_id":"ad5a96b7-6b77-4978-9420-914eb0c2f0b2","system_id":"levelo_inurba_marseille","lat":43.29616,"lon":5.37715,"is_reserved":false,"is_disabled":false,"rental_uris":{"android":"levelo://app?vid=ad5a96b7-6b77-4978-9420-914eb0c2f0b2","ios":"levelo://app?vid=ad5a96b7-6b77-4978-9420-914eb0c2f0b2"},"vehicle_type_id":"4","last_reported":1734800852,"current_range_meters":24800,"station_id":"ce4bgi92rcd13ifvqb90","pricing_plan_id":"cebpf4jnsgd1na2vs0mg"},{"bike_id":"76f7298d-23db-43ba-97cb-ee0a1bca30fa","system_id":"levelo_inurba_marseille","lat":43.26932,"lon":5.40235,"is_reserved":false,"is_disabled":false,"rental_uris":{"android":"levelo://app?vid=76f7298d-23db-43ba-97cb-ee0a1bca30fa","ios":"levelo://app?vid=76f7298d-23db-43ba-97cb-ee0a1bca30fa"},"vehicle_type_id":"4","last_reported":1734800852,"current_range_meters":38800,"station_id":"cjm6bp8fraef2m0cb0m0","pricing_plan_id":"cebpf4jnsgd1na2vs0mg"},{"bike_id":"5de77257-80f5-4126-8140-fd63253300d0","system_id":"levelo_inurba_marseille","lat":43.27082,"lon":5.42292,"is_reserved":false,"is_disabled":false,"rental_uris":{"android":"levelo://app?vid=5de77257-80f5-4126-8140-fd63253300d0","ios":"levelo://app?vid=5de77257-80f5-4126-8140-fd63253300d0"},"vehicle_type_id":"4","last_reported":1734800852,"current_range_meters":8000,"station_id":"ce4bhk92rcd13ifvqgb0","pricing_plan_id":"cebpf4jnsgd1na2vs0mg"},{"bike_id":"a2eba22b-b0ee-4005-9bf3-576bb458d391","system_id":"levelo_inurba_marseille","lat":43.279651,"lon":5.387544,"is_reserved":false,"is_disabled":true,"rental_uris":{"android":"levelo://app?vid=a2eba22b-b0ee-4005-9bf3-576bb458d391","ios":"levelo://app?vid=a2eba22b-b0ee-4005-9bf3-576bb458d391"},"vehicle_type_id":"4","last_reported":1734800852,"current_range_meters":0,"station_id":"","pricing_plan_id":"cebpf4jnsgd1na2vs0mg"},{"bike_id":"7a689e6c-6639-4ea1-81c0-47dca70231a5","system_id":"levelo_inurba_marseille","lat":43.29175,"lon":5.37159,"is_reserved":false,"is_disabled":false,"rental_uris":{"android":"levelo://app?vid=7a689e6c-6639-4ea1-81c0-47dca70231a5","ios":"levelo://app?vid=7a689e6c-6639-4ea1-81c0-47dca70231a5"},"vehicle_type_id":"4","last_reported":1734800852,"current_range_meters":38800,"station_id":"ce4bha92rcd13ifvqeh0","pricing_plan_id":"cebpf4jnsgd1na2vs0mg"},{"bike_id":"82eef777-9ac6-4ef8-9977-6485f65ca446","system_id":"levelo_inurba_marseille","lat":43.31276,"lon":5.40172,"is_reserved":false,"is_disabled":false,"rental_uris":{"android":"levelo://app?vid=82eef777-9ac6-4ef8-9977-6485f65ca446","ios":"levelo://app?vid=82eef777-9ac6-4ef8-9977-6485f65ca446"},"vehicle_type_id":"4","last_reported":1734800852,"current_range_meters":21600,"station_id":"ce4bh092rcd13ifvqd30","pricing_plan_id":"cebpf4jnsgd1na2vs0mg"},{"bike_id":"11e31868-fd43-43b0-95aa-4d96e7cf84ea","system_id":"levelo_inurba_marseille","lat":43.22934,"lon":5.3538,"is_reserved":false,"is_disabled":false,"rental_uris":{"android":"levelo://app?vid=11e31868-fd43-43b0-95aa-4d96e7cf84ea","ios":"levelo://app?vid=11e31868-fd43-43b0-95aa-4d96e7cf84ea"},"vehicle_type_id":"4","last_reported":1734800852,"current_range_meters":10000,"station_id":"cpo3532slgdg3j2ikp40","pricing_plan_id":"cebpf4jnsgd1na2vs0mg"},{"bike_id":"5c947138-4462-4c28-a25a-8fcdf6b4a3a2","system_id":"levelo_inurba_marseille","lat":43.33028,"lon":5.39039,"is_reserved":false,"is_disabled":false,"rental_uris":{"android":"levelo://app?vid=5c947138-4462-4c28-a25a-8fcdf6b4a3a2","ios":"levelo://app?vid=5c947138-4462-4c28-a25a-8fcdf6b4a3a2"},"vehicle_type_id":"4","last_reported":1734800852,"current_range_meters":38800,"station_id":"ce4bhr92rcd13ifvqhrg","pricing_plan_id":"cebpf4jnsgd1na2vs0mg"},{"bike_id":"e8b9266a-288a-46d4-af3d-7f133e6bf0fb","system_id":"levelo_inurba_marseille","lat":43.2991,"lon":5.37476,"is_reserved":false,"is_disabled":false,"rental_uris":{"android":"levelo://app?vid=e8b9266a-288a-46d4-af3d-7f133e6bf0fb","ios":"levelo://app?vid=e8b9266a-288a-46d4-af3d-7f133e6bf0fb"},"vehicle_type_id":"4","last_reported":1734800852,"current_range_meters":35200,"station_id":"ce4bgjh2rcd13ifvqbg0","pricing_plan_id":"cebpf4jnsgd1na2vs0mg"},{"bike_id":"4d411239-0a52-4771-a319-54a89ce8bb06","system_id":"levelo_inurba_marseille","lat":43.32142,"lon":5.36776,"is_reserved":false,"is_disabled":false,"rental_uris":{"android":"levelo://app?vid=4d411239-0a52-4771-a319-54a89ce8bb06","ios":"levelo://app?vid=4d411239-0a52-4771-a319-54a89ce8bb06"},"vehicle_type_id":"4","last_reported":1734800852,"current_range_meters":37600,"station_id":"","pricing_plan_id":"cebpf4jnsgd1na2vs0mg"},{"bike_id":"376fe82c-eb31-4049-a66c-a63014ead7b3","system_id":"levelo_inurba_marseille","lat":43.286134,"lon":5.351089,"is_reserved":false,"is_disabled":false,"rental_uris":{"android":"levelo://app?vid=376fe82c-eb31-4049-a66c-a63014ead7b3","ios":"levelo://app?vid=376fe82c-eb31-4049-a66c-a63014ead7b3"},"vehicle_type_id":"4","last_reported":1734800852,"current_range_meters":28000,"station_id":"ce4bhch2rcd13ifvqeug","pricing_plan_id":"cebpf4jnsgd1na2vs0mg"},{"bike_id":"84c1dd7d-c527-47ae-b38d-f96e0132c025","system_id":"levelo_inurba_marseille","lat":43.29727,"lon":5.37681,"is_reserved":false,"is_disabled":false,"rental_uris":{"android":"levelo://app?vid=84c1dd7d-c527-47ae-b38d-f96e0132c025","ios":"levelo://app?vid=84c1dd7d-c527-47ae-b38d-f96e0132c025"},"vehicle_type_id":"4","last_reported":1734800852,"current_range_meters":24400,"station_id":"ce4bgkh2rcd13ifvqbl0","pricing_plan_id":"cebpf4jnsgd1na2vs0mg"},{"bike_id":"8abb124c-cfa0-4e72-8abb-a18ff50aec38","system_id":"levelo_inurba_marseille","lat":43.29711,"lon":5.36609,"is_reserved":false,"is_disabled":false,"rental_uris":{"android":"levelo://app?vid=8abb124c-cfa0-4e72-8abb-a18ff50aec38","ios":"levelo://app?vid=8abb124c-cfa0-4e72-8abb-a18ff50aec38"},"vehicle_type_id":"4","last_reported":1734800852,"current_range_meters":31200,"station_id":"ce4bgn12rcd13ifvqbt0","pricing_plan_id":"cebpf4jnsgd1na2vs0mg"},{"bike_id":"6df5a6e4-dc93-4423-a003-8952925ec435","system_id":"levelo_inurba_marseille","lat":43.3016,"lon":5.38082,"is_reserved":false,"is_disabled":false,"rental_uris":{"android":"levelo://app?vid=6df5a6e4-dc93-4423-a003-8952925ec435","ios":"levelo://app?vid=6df5a6e4-dc93-4423-a003-8952925ec435"},"vehicle_type_id":"4","last_reported":1734800852,"current_range_meters":29600,"station_id":"ce4bgjp2rcd13ifvqbh0","pricing_plan_id":"cebpf4jnsgd1na2vs0mg"},{"bike_id":"9aef9e7d-9aaa-4da0-94c9-a99f36275cf8","system_id":"levelo_inurba_marseille","lat":43.31751,"lon":5.39009,"is_reserved":false,"is_disabled":true,"rental_uris":{"android":"levelo://app?vid=9aef9e7d-9aaa-4da0-94c9-a99f36275cf8","ios":"levelo://app?vid=9aef9e7d-9aaa-4da0-94c9-a99f36275cf8"},"vehicle_type_id":"4","last_reported":1734800852,"current_range_meters":37600,"station_id":"ce4bhqp2rcd13ifvqhng","pricing_plan_id":"cebpf4jnsgd1na2vs0mg"},{"bike_id":"f2acc78c-7a4c-4dae-84cb-08fffbdf8d73","system_id":"levelo_inurba_marseille","lat":43.29548,"lon":5.37512,"is_reserved":false,"is_disabled":false,"rental_uris":{"android":"levelo://app?vid=f2acc78c-7a4c-4dae-84cb-08fffbdf8d73","ios":"levelo://app?vid=f2acc78c-7a4c-4dae-84cb-08fffbdf8d73"},"vehicle_type_id":"4","last_reported":1734800852,"current_range_meters":38800,"station_id":"ce4bgkp2rcd13ifvqbmg","pricing_plan_id":"cebpf4jnsgd1na2vs0mg"},{"bike_id":"04e46fe0-fb25-47dd-93a3-5e9187796104","system_id":"levelo_inurba_marseille","lat":43.28153,"lon":5.42642,"is_reserved":false,"is_disabled":false,"rental_uris":{"android":"levelo://app?vid=04e46fe0-fb25-47dd-93a3-5e9187796104","ios":"levelo://app?vid=04e46fe0-fb25-47dd-93a3-5e9187796104"},"vehicle_type_id":"4","last_reported":1734800852,"current_range_meters":16400,"station_id":"ce4bhnh2rcd13ifvqgug","pricing_plan_id":"cebpf4jnsgd1na2vs0mg"},{"bike_id":"02d1965a-8a94-4878-9687-3db9c96602c1","system_id":"levelo_inurba_marseille","lat":43.29959,"lon":5.38498,"is_reserved":false,"is_disabled":false,"rental_uris":{"android":"levelo://app?vid=02d1965a-8a94-4878-9687-3db9c96602c1","ios":"levelo://app?vid=02d1965a-8a94-4878-9687-3db9c96602c1"},"vehicle_type_id":"4","last_reported":1734800852,"current_range_meters":32800,"station_id":"ce4bgj92rcd13ifvqbd0","pricing_plan_id":"cebpf4jnsgd1na2vs0mg"},{"bike_id":"3e44973c-1de4-4bc9-91f7-aacbe085ad0b","system_id":"levelo_inurba_marseille","lat":43.2668,"lon":5.38268,"is_reserved":false,"is_disabled":false,"rental_uris":{"android":"levelo://app?vid=3e44973c-1de4-4bc9-91f7-aacbe085ad0b","ios":"levelo://app?vid=3e44973c-1de4-4bc9-91f7-aacbe085ad0b"},"vehicle_type_id":"4","last_reported":1734800852,"current_range_meters":38800,"station_id":"ce4bhg92rcd13ifvqf90","pricing_plan_id":"cebpf4jnsgd1na2vs0mg"},{"bike_id":"7a87e829-adac-4002-b408-19d05a691db4","system_id":"levelo_inurba_marseille","lat":43.29915,"lon":5.37466,"is_reserved":false,"is_disabled":false,"rental_uris":{"android":"levelo://app?vid=7a87e829-adac-4002-b408-19d05a691db4","ios":"levelo://app?vid=7a87e829-adac-4002-b408-19d05a691db4"},"vehicle_type_id":"4","last_reported":1734800852,"current_range_meters":36400,"station_id":"ce4bgjh2rcd13ifvqbg0","pricing_plan_id":"cebpf4jnsgd1na2vs0mg"},{"bike_id":"acedeb35-dcab-4b1d-ab4a-99002c7e66d5","system_id":"levelo_inurba_marseille","lat":43.27946,"lon":5.41035,"is_reserved":false,"is_disabled":false,"rental_uris":{"android":"levelo://app?vid=acedeb35-dcab-4b1d-ab4a-99002c7e66d5","ios":"levelo://app?vid=acedeb35-dcab-4b1d-ab4a-99002c7e66d5"},"vehicle_type_id":"4","last_reported":1734800852,"current_range_meters":27600,"station_id":"ce4bhnp2rcd13ifvqh0g","pricing_plan_id":"cebpf4jnsgd1na2vs0mg"},{"bike_id":"9e9f7704-6672-422a-a6ae-e19ea06dc082","system_id":"levelo_inurba_marseille","lat":43.30147,"lon":5.38761,"is_reserved":false,"is_disabled":false,"rental_uris":{"android":"levelo://app?vid=9e9f7704-6672-422a-a6ae-e19ea06dc082","ios":"levelo://app?vid=9e9f7704-6672-422a-a6ae-e19ea06dc082"},"vehicle_type_id":"4","last_reported":1734800852,"current_range_meters":11600,"station_id":"ce4bghh2rcd13ifvqb60","pricing_plan_id":"cebpf4jnsgd1na2vs0mg"},