{"last_updated":1752707451,"ttl":60,"version":"2.2","data":{"bikes":[{"bike_id":"53b742a7-31ae-4272-9bba-7740339e2a2f","system_id":"levelo_inurba_marseille","lat":43.33747,"lon":5.37463,"is_reserved":false,"is_disabled":false,"rental_uris":{"android":"levelo://app?vid=53b742a7-31ae-4272-9bba-7740339e2a2f","ios":"levelo://app?vid=53b742a7-31ae-4272-9bba-7740339e2a2f"},"vehicle_type_id":"1","last_reported":1752707451,"current_range_meters":27200,"station_id":"","pricing_plan_id":"cebpf4jnsgd1na2vs0mg"},{"bike_id":"5579b2a6-8c50-448a-accc-694b66a7eb0e","system_id":"levelo_inurba_marseille","lat":43.30612,"lon":5.37152,"is_reserved":false,"is_disabled":false,"rental_uris":{"android":"levelo://app?vid=5579b2a6-8c50-448a-accc-694b66a7eb0e","ios":"levelo://app?vid=5579b2a6-8c50-448a-accc-694b66a7eb0e"},"vehicle_type_id":"4","last_reported":1752707451,"current_range_meters":2800,"station_id":"","pricing_plan_id":"cebpf4jnsgd1na2vs0mg"},{"bike_id":"217f55f4-2fa6-4ef6-bfc9-ddca8eae6aca","system_id":"levelo_inurba_marseille","lat":43.280402,"lon":5.369334,"is_reserved":false,"is_disabled":false,"rental_uris":{"android":"levelo://app?vid=217f55f4-2fa6-4ef6-bfc9-ddca8eae6aca","ios":"levelo://app?vid=217f55f4-2fa6-4ef6-bfc9-ddca8eae6aca"},"vehicle_type_id":"4","last_reported":1752707451,"current_range_meters":2800,"station_id":"ce4bha12rcd13ifvqef0","pricing_plan_id":"cebpf4jnsgd1na2vs0mg"},{"bike_id":"906befae-bd83-4546-b433-688d5f71cf1e","system_id":"levelo_inurba_marseille","lat":43.22935,"lon":5.35373,"is_reserved":false,"is_disabled":false,"rental_uris":{"android":"levelo://app?vid=906befae-bd83-4546-b433-688d5f71cf1e","ios":"levelo://app?vid=906befae-bd83-4546-b433-688d5f71cf1e"},"vehicle_type_id":"4","last_reported":1752707451,"current_range_meters":2800,"station_id":"cpo3532slgdg3j2ikp40","pricing_plan_id":"cebpf4jnsgd1na2vs0mg"},{"bike_id":"b4e968bf-ada0-4dba-9df7-15233d5334f2","system_id":"levelo_inurba_marseille","lat":43.2769,"lon":5.38902,"is_reserved":false,"is_disabled":false,"rental_uris":{"android":"levelo://app?vid=b4e968bf-ada0-4dba-9df7-15233d5334f2","ios":"levelo://app?vid=b4e968bf-ada0-4dba-9df7-15233d5334f2"},"vehicle_type_id":"4","last_reported":1752707451,"current_range_meters":3200,"station_id":"ce4bhi12rcd13ifvqfo0","pricing_plan_id":"cebpf4jnsgd1na2vs0mg"},{"bike_id":"bc977304-dbbe-49d8-8e55-034e38225428","system_id":"levelo_inurba_marseille","lat":43.28456,"lon":5.39196,"is_reserved":false,"is_disabled":false,"rental_uris":{"android":"levelo://app?vid=bc977304-dbbe-49d8-8e55-034e38225428","ios":"levelo://app?vid=bc977304-dbbe-49d8-8e55-034e38225428"},"vehicle_type_id":"4","last_reported":1752707451,"current_range_meters":3200,"station_id":"ce4bhoh2rcd13ifvqh5g","pricing_plan_id":"cebpf4jnsgd1na2vs0mg"},{"bike_id":"c4aa2f49-ea2d-498c-958a-7ee2abd7dd0d","system_id":"levelo_inurba_marseille","lat":43.25578,"lon":5.3823,"is_reserved":false,"is_disabled":false,"rental_uris":{"android":"levelo://app?vid=c4aa2f49-ea2d-498c-958a-7ee2abd7dd0d","ios":"levelo://app?vid=c4aa2f49-ea2d-498c-958a-7ee2abd7dd0d"},"vehicle_type_id":"4","last_reported":1752707451,"current_range_meters":3200,"station_id":"ce4bhih2rcd13ifvqfs0","pricing_plan_id":"cebpf4jnsgd1na2vs0mg"},{"bike_id":"54f83807-6038-45cd-97bc-ade0144c2b30","system_id":"levelo_inurba_marseille","lat":43.29875,"lon":5.37575,"is_reserved":false,"is_disabled":true,"rental_uris":{"android":"levelo://app?vid=54f83807-6038-45cd-97bc-ade0144c2b30","ios":"levelo://app?vid=54f83807-6038-45cd-97bc-ade0144c2b30"},"vehicle_type_id":"4","last_reported":1752707451,"current_range_meters":3600,"station_id":"","pricing_plan_id":"cebpf4jnsgd1na2vs0mg"},{"bike_id":"a81ca8a8-66fb-4583-88eb-7009dd45e557","system_id":"levelo_inurba_marseille","lat":43.29035,"lon":5.37558,"is_reserved":false,"is_disabled":false,"rental_uris":{"android":"levelo://app?vid=a81ca8a8-66fb-4583-88eb-7009dd45e557","ios":"levelo://app?vid=a81ca8a8-66fb-4583-88eb-7009dd45e557"},"vehicle_type_id":"4","last_reported":1752707451,"current_range_meters":3600,"station_id":"ce4bh692rcd13ifvqe90","pricing_plan_id":"cebpf4jnsgd1na2vs0mg"},{"bike_id":"9537c65f-f98d-4148-818e-a3808b23c1c5","system_id":"levelo_inurba_marseille","lat":43.29262,"lon":5.38448,"is_reserved":false,"is_disabled":false,"rental_uris":{"android":"levelo://app?vid=9537c65f-f98d-4148-818e-a3808b23c1c5","ios":"levelo://app?vid=9537c65f-f98d-4148-818e-a3808b23c1c5"},"vehicle_type_id":"4","last_reported":1752707451,"current_range_meters":4000,"station_id":"ce4bh692rcd13ifvqea0","pricing_plan_id":"cebpf4jnsgd1na2vs0mg"},{"bike_id":"4e1c2498-b254-44c2-990c-637e3157b71e","system_id":"levelo_inurba_marseille","lat":43.26221,"lon":5.37441,"is_reserved":false,"is_disabled":true,"rental_uris":{"android":"levelo://app?vid=4e1c2498-b254-44c2-990c-637e3157b71e","ios":"levelo://app?vid=4e1c2498-b254-44c2-990c-637e3157b71e"},"vehicle_type_id":"4","last_reported":1752707451,"current_range_meters":4400,"station_id":"ce4bhgp2rcd13ifvqfc0","pricing_plan_id":"cebpf4jnsgd1na2vs0mg"},{"bike_id":"a8ce6efe-50ae-4699-a953-570b09452efb","system_id":"levelo_inurba_marseille","lat":43.25015,"lon":5.38912,"is_reserved":false,"is_disabled":true,"rental_uris":{"android":"levelo://app?vid=a8ce6efe-50ae-4699-a953-570b09452efb","ios":"levelo://app?vid=a8ce6efe-50ae-4699-a953-570b09452efb"},"vehicle_type_id":"4","last_reported":1752707451,"current_range_meters":4400,"station_id":"ce4bhgp2rcd13ifvqfd0","pricing_plan_id":"cebpf4jnsgd1na2vs0mg"},{"bike_id":"8119b35c-4128-43de-8d2f-ac4b045f393b","system_id":"levelo_inurba_marseille","lat":43.28693,"lon":5.39987,"is_reserved":false,"is_disabled":false,"rental_uris":{"android":"levelo://app?vid=8119b35c-4128-43de-8d2f-ac4b045f393b","ios":"levelo://app?vid=8119b35c-4128-43de-8d2f-ac4b045f393b"},"vehicle_type_id":"4","last_reported":1752707451,"current_range_meters":4400,"station_id":"ce4bho92rcd13ifvqh3g","pricing_plan_id":"cebpf4jnsgd1na2vs0mg"},{"bike_id":"892165f6-25a5-4f0a-a9a6-cf4efe50c3be","system_id":"levelo_inurba_marseille","lat":43.248461,"lon":5.425297,"is_reserved":false,"is_disabled":false,"rental_uris":{"android":"levelo://app?vid=892165f6-25a5-4f0a-a9a6-cf4efe50c3be","ios":"levelo://app?vid=892165f6-25a5-4f0a-a9a6-cf4efe50c3be"},"vehicle_type_id":"4","last_reported":1752707451,"current_range_meters":4800,"station_id":"","pricing_plan_id":"cebpf4jnsgd1na2vs0mg"},{"bike_id":"d57994d0-7251-41fb-a896-56b364219059","system_id":"levelo_inurba_marseille","lat":43.29895,"lon":5.38283,"is_reserved":false,"is_disabled":false,"rental_uris":{"android":"levelo://app?vid=d57994d0-7251-41fb-a896-56b364219059","ios":"levelo://app?vid=d57994d0-7251-41fb-a896-56b364219059"},"vehicle_type_id":"4","last_reported":1752707451,"current_range_meters":4800,"station_id":"","pricing_plan_id":"cebpf4jnsgd1na2vs0mg"},{"bike_id":"cb98f2d1-9294-40aa-8451-6bcf39af84aa","system_id":"levelo_inurba_marseille","lat":43.26216,"lon":5.3742,"is_reserved":false,"is_disabled":true,"rental_uris":{"android":"levelo://app?vid=cb98f2d1-9294-40aa-8451-6bcf39af84aa","ios":"levelo://app?vid=cb98f2d1-9294-40aa-8451-6bcf39af84aa"},"vehicle_type_id":"4","last_reported":1752707451,"current_range_meters":4800,"station_id":"ce4bhgp2rcd13ifvqfc0","pricing_plan_id":"cebpf4jnsgd1na2vs0mg"},{"bike_id":"0a235ed8-5041-40fa-a03b-13b3b893ba08","system_id":"levelo_inurba_marseille","lat":43.30151,"lon":5.38763,"is_reserved":false,"is_disabled":false,"rental_uris":{"android":"levelo://app?vid=0a235ed8-5041-40fa-a03b-13b3b893ba08","ios":"levelo://app?vid=0a235ed8-5041-40fa-a03b-13b3b893ba08"},"vehicle_type_id":"4","last_reported":1752707451,"current_range_meters":4800,"station_id":"ce4bghh2rcd13ifvqb60","pricing_plan_id":"cebpf4jnsgd1na2vs0mg"},{"bike_id":"e2f2f893-16c7-42e5-8c51-893940a1136e","system_id":"levelo_inurba_marseille","lat":43.30126,"lon":5.36894,"is_reserved":false,"is_disabled":false,"rental_uris":{"android":"levelo://app?vid=e2f2f893-16c7-42e5-8c51-893940a1136e","ios":"levelo://app?vid=e2f2f893-16c7-42e5-8c51-893940a1136e"},"vehicle_type_id":"4","last_reported":1752707451,"current_range_meters":5600,"station_id":"","pricing_plan_id":"cebpf4jnsgd1na2vs0mg"},{"bike_id":"6ad925c1-b83f-419f-90f6-03e252419dd5","system_id":"levelo_inurba_marseille","lat":43.30324,"lon":5.40443,"is_reserved":false,"is_disabled":false,"rental_uris":{"android":"levelo://app?vid=6ad925c1-b83f-419f-90f6-03e252419dd5","ios":"levelo://app?vid=6ad925c1-b83f-419f-90f6-03e252419dd5"},"vehicle_type_id":"4","last_reported":1752707451,"current_range_meters":5600,"station_id":"ce4bh012rcd13ifvqd10","pricing_plan_id":"cebpf4jnsgd1na2vs0mg"},{"bike_id":"5ff06d2e-1fcb-4f7f-b26f-494ef01051e2","system_id":"levelo_inurba_marseille","lat":43.26587,"lon":5.39483,"is_reserved":false,"is_disabled":true,"rental_uris":{"android":"levelo://app?vid=5ff06d2e-1fcb-4f7f-b26f-494ef01051e2","ios":"levelo://app?vid=5ff06d2e-1fcb-4f7f-b26f-494ef01051e2"},"vehicle_type_id":"4","last_reported":1752707451,"current_range_meters":5600,"station_id":"","pricing_plan_id":"cebpf4jnsgd1na2vs0mg"},{"bike_id":"f5ea11f9-f994-4659-a6cb-90dc1ac72cec","system_id":"levelo_inurba_marseille","lat":43.30301,"lon":5.39213,"is_reserved":false,"is_disabled":false,"rental_uris":{"android":"levelo://app?vid=f5ea11f9-f994-4659-a6cb-90dc1ac72cec","ios":"levelo://app?vid=f5ea11f9-f994-4659-a6cb-90dc1ac72cec"},"vehicle_type_id":"4","last_reported":1752707451,"current_range_meters":5600,"station_id":"ce4bgkh2rcd13ifvqbk0","pricing_plan_id":"cebpf4jnsgd1na2vs0mg"},{"bike_id":"820d2b08-de3e-4318-8820-6cff93c75007","system_id":"levelo_inurba_marseille","lat":43.28682,"lon":5.38656,"is_reserved":false,"is_disabled":false,"rental_uris":{"android":"levelo://app?vid=820d2b08-de3e-4318-8820-6cff93c75007","ios":"levelo://app?vid=820d2b08-de3e-4318-8820-6cff93c75007"},"vehicle_type_id":"4","last_reported":1752707451,"current_range_meters":5600,"station_id":"ce4bh492rcd13ifvqdug","pricing_plan_id":"cebpf4jnsgd1na2vs0mg"},{"bike_id":"abf08ed8-aaf6-42db-95d1-ba59e6caa078","system_id":"levelo_inurba_marseille","lat":43.302914,"lon":5.392143,"is_reserved":false,"is_disabled":false,"rental_uris":{"android":"levelo://app?vid=abf08ed8-aaf6-42db-95d1-ba59e6caa078","ios":"levelo://app?vid=abf08ed8-aaf6-42db-95d1-ba59e6caa078"},"vehicle_type_id":"4","last_reported":1752707451,"current_range_meters":6400,"station_id":"ce4bgkh2rcd13ifvqbk0","pricing_plan_id":"cebpf4jnsgd1na2vs0mg"},{"bike_id":"483e427a-3b3a-4490-ba55-1c15e6743bea","system_id":"levelo_inurba_marseille","lat":43.239634,"lon":5.36623,"is_reserved":false,"is_disabled":false,"rental_uris":{"android":"levelo://app?vid=483e427a-3b3a-4490-ba55-1c15e6743bea","ios":"levelo://app?vid=483e427a-3b3a-4490-ba55-1c15e6743bea"},"vehicle_type_id":"4","last_reported":1752707451,"current_range_meters":6400,"station_id":"","pricing_plan_id":"cebpf4jnsgd1na2vs0mg"},{"bike_id":"3859f018-7b5f-469a-871e-d6832dcfaf8e","system_id":"levelo_inurba_marseille","lat":43.24807,"lon":5.37469,"is_reserved":false,"is_disabled":true,"rental_uris":{"android":"levelo://app?vid=3859f018-7b5f-469a-871e-d6832dcfaf8e","ios":"levelo://app?vid=3859f018-7b5f-469a-871e-d6832dcfaf8e"},"vehicle_type_id":"4","last_reported":1752707451,"current_range_meters":6400,"station_id":"ce4bhgh2rcd13ifvqfb0","pricing_plan_id":"cebpf4jnsgd1na2vs0mg"},{"bike_id":"e5ec4b25-dbcc-42eb-bf86-2cca309a0b15","system_id":"levelo_inurba_marseille","lat":43.264945,"lon":5.395365,"is_reserved":false,"is_disabled":true,"rental_uris":{"android":"levelo://app?vid=e5ec4b25-dbcc-42eb-bf86-2cca309a0b15","ios":"levelo://app?vid=e5ec4b25-dbcc-42eb-bf86-2cca309a0b15"},"vehicle_type_id":"4","last_reported":1752707451,"current_range_meters":6400,"station_id":"","pricing_plan_id":"cebpf4jnsgd1na2vs0mg"},{"bike_id":"9c432245-cd4d-4826-99cd-6753899ec225","system_id":"levelo_inurba_marseille","lat":43.305433,"lon":5.384252,"is_reserved":false,"is_disabled":false,"rental_uris":{"android":"levelo://app?vid=9c432245-cd4d-4826-99cd-6753899ec225","ios":"levelo://app?vid=9c432245-cd4d-4826-99cd-6753899ec225"},"vehicle_type_id":"4","last_reported":1752707451,"current_range_meters":6800,"station_id":"ce4bgg92rcd13ifvqb30","pricing_plan_id":"cebpf4jnsgd1na2vs0mg"},{"bike_id":"bdadbfdd-02ec-43df-a8ac-0ce1d617c55c","system_id":"levelo_inurba_marseille","lat":43.28714,"lon":5.3739,"is_reserved":false,"is_disabled":false,"rental_uris":{"android":"levelo://app?vid=bdadbfdd-02ec-43df-a8ac-0ce1d617c55c","ios":"levelo://app?vid=bdadbfdd-02ec-43df-a8ac-0ce1d617c55c"},"vehicle_type_id":"4","last_reported":1752707451,"current_range_meters":6800,"station_id":"ce4bh3p2rcd13ifvqdq0","pricing_plan_id":"cebpf4jnsgd1na2vs0mg"},{"bike_id":"687dc441-df25-4b8a-8789-8e00241aaf58","system_id":"levelo_inurba_marseille","lat":43.28459,"lon":5.35883,"is_reserved":false,"is_disabled":false,"rental_uris":{"android":"levelo://app?vid=687dc441-df25-4b8a-8789-8e00241aaf58","ios":"levelo://app?vid=687dc441-df25-4b8a-8789-8e00241aaf58"},"vehicle_type_id":"4","last_reported":1752707451,"current_range_meters":7200,"station_id":"ce4bhah2rcd13ifvqei0","pricing_plan_id":"cebpf4jnsgd1na2vs0mg"},{"bike_id":"7b70d044-51fb-4b4e-b0a0-f99bf8e812d5","system_id":"levelo_inurba_marseille","lat":43.278997,"lon":5.422471,"is_reserved":false,"is_disabled":false,"rental_uris":{"android":"levelo://app?vid=7b70d044-51fb-4b4e-b0a0-f99bf8e812d5","ios":"levelo://app?vid=7b70d044-51fb-4b4e-b0a0-f99bf8e812d5"},"vehicle_type_id":"4","last_reported":1752707451,"current_range_meters":7200,"station_id":"ce4bhnh2rcd13ifvqgug","pricing_plan_id":"cebpf4jnsgd1na2vs0mg"},{"bike_id":"fb18f94d-8c89-406d-bc32-5f6023825d54","system_id":"levelo_inurba_marseille","lat":43.30812,"lon":5.38167,"is_reserved":false,"is_disabled":false,"rental_uris":{"android":"levelo://app?vid=fb18f94d-8c89-406d-bc32-5f6023825d54","ios":"levelo://app?vid=fb18f94d-8c89-406d-bc32-5f6023825d54"},"vehicle_type_id":"4","last_reported":1752707451,"current_range_meters":8000,"station_id":"ce4bgt12rcd13ifvqce0","pricing_plan_id":"cebpf4jnsgd1na2vs0mg"},{"bike_id":"565bd53a-26b8-4719-acdf-d0ec4f1b8d9b","system_id":"levelo_inurba_marseille","lat":43.28446,"lon":5.35889,"is_reserved":false,"is_disabled":false,"rental_uris":{"android":"levelo://app?vid=565bd53a-26b8-4719-acdf-d0ec4f1b8d9b","ios":"levelo://app?vid=565bd53a-26b8-4719-acdf-d0ec4f1b8d9b"},"vehicle_type_id":"4","last_reported":1752707451,"current_range_meters":8000,"station_id":"ce4bhah2rcd13ifvqei0","pricing_plan_id":"cebpf4jnsgd1na2vs0mg"},{"bike_id":"1b0d6623-5ba9-4665-91a9-24bf3c913c7e","system_id":"levelo_inurba_marseille","lat":43.30299,"lon":5.39214,"is_reserved":false,"is_disabled":false,"rental_uris":{"android":"levelo://app?vid=1b0d6623-5ba9-4665-91a9-24bf3c913c7e","ios":"levelo://app?vid=1b0d6623-5ba9-4665-91a9-24bf3c913c7e"},"vehicle_type_id":"4","last_reported":1752707451,"current_range_meters":8000,"station_id":"ce4bgkh2rcd13ifvqbk0","pricing_plan_id":"cebpf4jnsgd1na2vs0mg"},{"bike_id":"3ddb4fae-b962-49fa-be2c-cda2b201480d","system_id":"levelo_inurba_marseille","lat":43.254913,"lon":5.376446,"is_reserved":false,"is_disabled":false,"rental_uris":{"android":"levelo://app?vid=3ddb4fae-b962-49fa-be2c-cda2b201480d","ios":"levelo://app?vid=3ddb4fae-b962-49fa-be2c-cda2b201480d"},"vehicle_type_id":"4","last_reported":1752707451,"current_range_meters":8000,"station_id":"","pricing_plan_id":"cebpf4jnsgd1na2vs0mg"},{"bike_id":"1dc0f4c0-ae56-4127-9e91-7db3d392604b","system_id":"levelo_inurba_marseille","lat":43.30267,"lon":5.4006,"is_reserved":false,"is_disabled":false,"rental_uris":{"android":"levelo://app?vid=1dc0f4c0-ae56-4127-9e91-7db3d392604b","ios":"levelo://app?vid=1dc0f4c0-ae56-4127-9e91-7db3d392604b"},"vehicle_type_id":"4","last_reported":1752707451,"current_range_meters":8000,"station_id":"ce4bgvh2rcd13ifvqcs0","pricing_plan_id":"cebpf4jnsgd1na2vs0mg"},{"bike_id":"62e05b52-a66a-4937-9682-0710fb4a4f57","system_id":"levelo_inurba_marseille","lat":43.29573,"lon":5.39962,"is_reserved":false,"is_disabled":false,"rental_uris":{"android":"levelo://app?vid=62e05b52-a66a-4937-9682-0710fb4a4f57","ios":"levelo://app?vid=62e05b52-a66a-4937-9682-0710fb4a4f57"},"vehicle_type_id":"4","last_reported":1752707451,"current_range_meters":7200,"station_id":"ce4bh312rcd13ifvqdj0","pricing_plan_id":"cebpf4jnsgd1na2vs0mg"},{"bike_id":"080b0f22-14dd-4044-a18f-ee7f74366cea","system_id":"levelo_inurba_marseille","lat":43.32002,"lon":5.38136,"is_reserved":false,"is_disabled":true,"rental_uris":{"android":"levelo://app?vid=080b0f22-14dd-4044-a18f-ee7f74366cea","ios":"levelo://app?vid=080b0f22-14dd-4044-a18f-ee7f74366cea"},"vehicle_type_id":"4","last_reported":1752707451,"current_range_meters":8000,"station_id":"ce4bhr12rcd13ifvqhpg","pricing_plan_id":"cebpf4jnsgd1na2vs0mg"},{"bike_id":"d98ef30e-38a0-41ef-a00a-304afa979a1e","system_id":"levelo_inurba_marseille","lat":43.29903,"lon":5.4366,"is_reserved":false,"is_disabled":true,"rental_uris":{"android":"levelo://app?vid=d98ef30e-38a0-41ef-a00a-304afa979a1e","ios":"levelo://app?vid=d98ef30e-38a0-41ef-a00a-304afa979a1e"},"vehicle_type_id":"4","last_reported":1752707451,"current_range_meters":8400,"station_id":"ce4bhpp2rcd13ifvqhfg","pricing_plan_id":"cebpf4jnsgd1na2vs0mg"},{"bike_id":"2c6e34ec-e4ad-4b55-908f-732bdcecdb2f","system_id":"levelo_inurba_marseille","lat":43.21182,"lon":5.35078,"is_reserved":false,"is_disabled":false,"rental_uris":{"android":"levelo://app?vid=2c6e34ec-e4ad-4b55-908f-732bdcecdb2f","ios":"levelo://app?vid=2c6e34ec-e4ad-4b55-908f-732bdcecdb2f"},"vehicle_type_id":"4","last_reported":1752707451,"current_range_meters":8400,"station_id":"st_cvj6sg6p6f1abm77japg","pricing_plan_id":"cebpf4jnsgd1na2vs0mg"},{"bike_id":"c49d1ff1-d909-4c88-b636-9a1b47c2cc79","system_id":"levelo_inurba_marseille","lat":43.27434,"lon":5.39418,"is_reserved":false,"is_disabled":false,"rental_uris":{"android":"levelo://app?vid=c49d1ff1-d909-4c88-b636-9a1b47c2cc79","ios":"levelo://app?vid=c49d1ff1-d909-4c88-b636-9a1b47c2cc79"},"vehicle_type_id":"4","last_reported":1752707451,"current_range_meters":8400,"station_id":"ce4bhdp2rcd13ifvqf20","pricing_plan_id":"cebpf4jnsgd1na2vs0mg"},{"bike_id":"e3ceb71c-b7b9-44dd-aaea-abbef8b925c4","system_id":"levelo_inurba_marseille","lat":43.29023,"lon":5.38636,"is_reserved":false,"is_disabled":false,"rental_uris":{"android":"levelo://app?vid=e3ceb71c-b7b9-44dd-aaea-abbef8b925c4","ios":"levelo://app?vid=e3ceb71c-b7b9-44dd-aaea-abbef8b925c4"},"vehicle_type_id":"4","last_reported":1752707451,"current_range_meters":8400,"station_id":"ce4bh4p2rcd13ifvqe0g","pricing_plan_id":"cebpf4jnsgd1na2vs0mg"},{"bike_id":"5f739e88-e602-4de0-9960-58f027783b80","system_id":"levelo_inurba_marseille","lat":43.31121,"lon":5.3776,"is_reserved":false,"is_disabled":false,"rental_uris":{"android":"levelo://app?vid=5f739e88-e602-4de0-9960-58f027783b80","ios":"levelo://app?vid=5f739e88-e602-4de0-9960-58f027783b80"},"vehicle_type_id":"4","last_reported":1752707451,"current_range_meters":8400,"station_id":"ce4bgt92rcd13ifvqcg0","pricing_plan_id":"cebpf4jnsgd1na2vs0mg"},{"bike_id":"1a516fef-fd61-4d78-9374-6edfe40001cc","system_id":"levelo_inurba_marseille","lat":43.29174,"lon":5.38497,"is_reserved":false,"is_disabled":false,"rental_uris":{"android":"levelo://app?vid=1a516fef-fd61-4d78-9374-6edfe40001cc","ios":"levelo://app?vid=1a516fef-fd61-4d78-9374-6edfe40001cc"},"vehicle_type_id":"4","last_reported":1752707451,"current_range_meters":8400,"station_id":"","pricing_plan_id":"cebpf4jnsgd1na2vs0mg"},{"bike_id":"9cf033a1-484e-48ee-b234-d0c877b8a9b0","system_id":"levelo_inurba_marseille","lat":43.298466,"lon":5.362821,"is_reserved":false,"is_disabled":false,"rental_uris":{"android":"levelo://app?vid=9cf033a1-484e-48ee-b234-d0c877b8a9b0","ios":"levelo://app?vid=9cf033a1-484e-48ee-b234-d0c877b8a9b0"},"vehicle_type_id":"4","last_reported":1752707451,"current_range_meters":8800,"station_id":"","pricing_plan_id":"cebpf4jnsgd1na2vs0mg"},{"bike_id":"21277f10-5153-4980-90c8-114919d3afab","system_id":"levelo_inurba_marseille","lat":43.31042,"lon":5.38364,"is_reserved":false,"is_disabled":true,"rental_uris":{"android":"levelo://app?vid=21277f10-5153-4980-90c8-114919d3afab","ios":"levelo://app?vid=21277f10-5153-4980-90c8-114919d3afab"},"vehicle_type_id":"4","last_reported":1752707451,"current_range_meters":9200,"station_id":"ce4bgv92rcd13ifvqcr0","pricing_plan_id":"cebpf4jnsgd1na2vs0mg"},{"bike_id":"a04ba993-e5b6-4611-ac97-2ab067491b8d","system_id":"levelo_inurba_marseille","lat":43.30647,"lon":5.40095,"is_reserved":false,"is_disabled":false,"rental_uris":{"android":"levelo://app?vid=a04ba993-e5b6-4611-ac97-2ab067491b8d","ios":"levelo://app?vid=a04ba993-e5b6-4611-ac97-2ab067491b8d"},"vehicle_type_id":"4","last_reported":1752707451,"current_range_meters":9200,"station_id":"ce4bh112rcd13ifvqda0","pricing_plan_id":"cebpf4jnsgd1na2vs0mg"},{"bike_id":"92afc441-ecf6-4e46-8e10-4a510fb93496","system_id":"levelo_inurba_marseille","lat":43.29977,"lon":5.37176,"is_reserved":false,"is_disabled":false,"rental_uris":{"android":"levelo://app?vid=92afc441-ecf6-4e46-8e10-4a510fb93496","ios":"levelo://app?vid=92afc441-ecf6-4e46-8e10-4a510fb93496"},"vehicle_type_id":"4","last_reported":1752707451,"current_range_meters":8800,"station_id":"ce4bgr92rcd13ifvqc7g","pricing_plan_id":"cebpf4jnsgd1na2vs0mg"},{"bike_id":"2bacaccd-1bb2-41bf-ab2e-30b8a5fb7d5d","system_id":"levelo_inurba_marseille","lat":43.27379,"lon":5.36265,"is_reserved":false,"is_disabled":true,"rental_uris":{"android":"levelo://app?vid=2bacaccd-1bb2-41bf-ab2e-30b8a5fb7d5d","ios":"levelo://app?vid=2bacaccd-1bb2-41bf-ab2e-30b8a5fb7d5d"},"vehicle_type_id":"4","last_reported":1752707451,"current_range_meters":9200,"station_id":"ce4bhbh2rcd13ifvqeo0","pricing_plan_id":"cebpf4jnsgd1na2vs0mg"},{"bike_id":"8eeeb77c-8234-4556-b507-da0594d01e95","system_id":"levelo_inurba_marseille","lat":43.22959,"lon":5.35398,"is_reserved":false,"is_disabled":false,"rental_uris":{"android":"levelo://app?vid=8eeeb77c-8234-4556-b507-da0594d01e95","ios":"levelo://app?vid=8eeeb77c-8234-4556-b507-da0594d01e95"},"vehicle_type_id":"4","last_reported":1752707451,"current_range_meters":11200,"station_id":"cpo3532slgdg3j2ikp40","pricing_plan_id":"cebpf4jnsgd1na2vs0mg"},{"bike_id":"0ce0f5a9-9e7d-4441-b51b-4151d27ec474","system_id":"levelo_inurba_marseille","lat":43.281639,"lon":5.426418,"is_reserved":false,"is_disabled":false,"rental_uris":{"android":"levelo://app?vid=0ce0f5a9-9e7d-4441-b51b-4151d27ec474","ios":"levelo://app?vid=0ce0f5a9-9e7d-4441-b51b-4151d27ec474"},"vehicle_type_id":"4","last_reported":1752707451,"current_range_meters":9600,"station_id":"ce4bhnh2rcd13ifvqgug","pricing_plan_id":"cebpf4jnsgd1na2vs0mg"},{"bike_id":"d97bb949-0737-4e74-84dd-59b6dc55c128","system_id":"levelo_inurba_marseille","lat":43.28299,"lon":5.43295,"is_reserved":false,"is_disabled":false,"rental_uris":{"android":"levelo://app?vid=d97bb949-0737-4e74-84dd-59b6dc55c128","ios":"levelo://app?vid=d97bb949-0737-4e74-84dd-59b6dc55c128"},"vehicle_type_id":"4","last_reported":1752707451,"current_range_meters":9600,"station_id":"","pricing_plan_id":"cebpf4jnsgd1na2vs0mg"},{"bike_id":"1145602c-3b12-4604-b8ff-291284dfc532","system_id":"levelo_inurba_marseille","lat":43.22508,"lon":5.34775,"is_reserved":false,"is_disabled":false,"rental_uris":{"android":"levelo://app?vid=1145602c-3b12-4604-b8ff-291284dfc532","ios":"levelo://app?vid=1145602c-3b12-4604-b8ff-291284dfc532"},"vehicle_type_id":"4","last_reported":1752707451,"current_range_meters":9600,"station_id":"st_cvj5dfep6f1abm77gieg","pricing_plan_id":"cebpf4jnsgd1na2vs0mg"},{"bike_id":"becb21de-0d07-42ed-a63b-15185cdce48a","system_id":"levelo_inurba_marseille","lat":43.265674,"lon":5.390154,"is_reserved":false,"is_disabled":false,"rental_uris":{"android":"levelo://app?vid=becb21de-0d07-42ed-a63b-15185cdce48a","ios":"levelo://app?vid=becb21de-0d07-42ed-a63b-15185cdce48a"},"vehicle_type_id":"4","last_reported":1752707451,"current_range_meters":9600,"station_id":"ce4bhe12rcd13ifvqf30","pricing_plan_id":"cebpf4jnsgd1na2vs0mg"},{"bike_id":"9d8b4d37-7ad2-420a-a0cb-b19d5ed87dd4","system_id":"levelo_inurba_marseille","lat":43.31688,"lon":5.40471,"is_reserved":false,"is_disabled":false,"rental_uris":{"android":"levelo://app?vid=9d8b4d37-7ad2-420a-a0cb-b19d5ed87dd4","ios":"levelo://app?vid=9d8b4d37-7ad2-420a-a0cb-b19d5ed87dd4"},"vehicle_type_id":"4","last_reported":1752707451,"current_range_meters":9600,"station_id":"ce4bh012rcd13ifvqd00","pricing_plan_id":"cebpf4jnsgd1na2vs0mg"},{"bike_id":"1086cf94-896f-4d35-9a43-5cb6e41605a0","system_id":"levelo_inurba_marseille","lat":43.25585,"lon":5.38203,"is_reserved":false,"is_disabled":false,"rental_uris":{"android":"levelo://app?vid=1086cf94-896f-4d35-9a43-5cb6e41605a0","ios":"levelo://app?vid=1086cf94-896f-4d35-9a43-5cb6e41605a0"},"vehicle_type_id":"4","last_reported":1752707451,"current_range_meters":9600,"station_id":"ce4bhih2rcd13ifvqfs0","pricing_plan_id":"cebpf4jnsgd1na2vs0mg"},{"bike_id":"0e41fdd4-b960-4563-be79-b0a60229caa7","system_id":"levelo_inurba_marseille","lat":43.239525,"lon":5.366253,"is_reserved":false,"is_disabled":false,"rental_uris":{"android":"levelo://app?vid=0e41fdd4-b960-4563-be79-b0a60229caa7","ios":"levelo://app?vid=0e41fdd4-b960-4563-be79-b0a60229caa7"},"vehicle_type_id":"4","last_reported":1752707451,"current_range_meters":9200,"station_id":"ce4bhi12rcd13ifvqfp0","pricing_plan_id":"cebpf4jnsgd1na2vs0mg"},{"bike_id":"f95ea543-6688-4f2f-91dc-4aad671f5c82","system_id":"levelo_inurba_marseille","lat":43.33028,"lon":5.39042,"is_reserved":false,"is_disabled":false,"rental_uris":{"android":"levelo://app?vid=f95ea543-6688-4f2f-91dc-4aad671f5c82","ios":"levelo://app?vid=f95ea543-6688-4f2f-91dc-4aad671f5c82"},"vehicle_type_id":"4","last_reported":1752707451,"current_range_meters":10000,"station_id":"ce4bhr92rcd13ifvqhrg","pricing_plan_id":"cebpf4jnsgd1na2vs0mg"},{"bike_id":"aa69ed1b-1520-4830-b2d3-d649ce969d5c","system_id":"levelo_inurba_marseille","lat":43.28569,"lon":5.39484,"is_reserved":false,"is_disabled":false,"rental_uris":{"android":"levelo://app?vid=aa69ed1b-1520-4830-b2d3-d649ce969d5c","ios":"levelo://app?vid=aa69ed1b-1520-4830-b2d3-d649ce969d5c"},"vehicle_type_id":"4","last_reported":1752707451,"current_range_meters":10000,"station_id":"ce4bh292rcd13ifvqdg0","pricing_plan_id":"cebpf4jnsgd1na2vs0mg"},{"bike_id":"e63f05de-effa-4c72-90d4-75f3968d4a40","system_id":"levelo_inurba_marseille","lat":43.28419,"lon":5.37516,"is_reserved":false,"is_disabled":false,"rental_uris":{"android":"levelo://app?vid=e63f05de-effa-4c72-90d4-75f3968d4a40","ios":"levelo://app?vid=e63f05de-effa-4c72-90d4-75f3968d4a40"},"vehicle_type_id":"4","last_reported":1752707451,"current_range_meters":10000,"station_id":"ce4bh412rcd13ifvqds0","pricing_plan_id":"cebpf4jnsgd1na2vs0mg"},{"bike_id":"deac02f1-e38f-43b0-bac9-8ff37c4137f4","system_id":"levelo_inurba_marseille","lat":43.29891,"lon":5.39734,"is_reserved":false,"is_disabled":false,"rental_uris":{"android":"levelo://app?vid=deac02f1-e38f-43b0-bac9-8ff37c4137f4","ios":"levelo://app?vid=deac02f1-e38f-43b0-bac9-8ff37c4137f4"},"vehicle_type_id":"4","last_reported":1752707451,"current_range_meters":10800,"station_id":"ce4bh0h2rcd13ifvqd50","pricing_plan_id":"cebpf4jnsgd1na2vs0mg"},{"bike_id":"42d4d658-703d-4809-b93c-0331b059984d","system_id":"levelo_inurba_marseille","lat":43.29265,"lon":5.409072,"is_reserved":false,"is_disabled":false,"rental_uris":{"android":"levelo://app?vid=42d4d658-703d-4809-b93c-0331b059984d","ios":"levelo://app?vid=42d4d658-703d-4809-b93c-0331b059984d"},"vehicle_type_id":"4","last_reported":1752707451,"current_range_meters":10800,"station_id":"ce4bh192rcd13ifvqdc0","pricing_plan_id":"cebpf4jnsgd1na2vs0mg"},{"bike_id":"d73afb15-81f9-4367-88db-ec6b7d209561","system_id":"levelo_inurba_marseille","lat":43.295785,"lon":5.399593,"is_reserved":false,"is_disabled":false,"rental_uris":{"android":"levelo://app?vid=d73afb15-81f9-4367-88db-ec6b7d209561","ios":"levelo://app?vid=d73afb15-81f9-4367-88db-ec6b7d209561"},"vehicle_type_id":"4","last_reported":1752707451,"current_range_meters":10800,"station_id":"ce4bh312rcd13ifvqdj0","pricing_plan_id":"cebpf4jnsgd1na2vs0mg"},{"bike_id":"e5bec6b1-43e6-46f2-9810-affd93766dd8","system_id":"levelo_inurba_marseille","lat":43.33769,"lon":5.37458,"is_reserved":false,"is_disabled":true,"rental_uris":{"android":"levelo://app?vid=e5bec6b1-43e6-46f2-9810-affd93766dd8","ios":"levelo://app?vid=e5bec6b1-43e6-46f2-9810-affd93766dd8"},"vehicle_type_id":"4","last_reported":1752707451,"current_range_meters":10800,"station_id":"","pricing_plan_id":"cebpf4jnsgd1na2vs0mg"},{"bike_id":"54b283c6-c314-444c-b492-3e78ed7f2d30","system_id":"levelo_inurba_marseille","lat":43.32922,"lon":5.39033,"is_reserved":false,"is_disabled":false,"rental_uris":{"android":"levelo://app?vid=54b283c6-c314-444c-b492-3e78ed7f2d30","ios":"levelo://app?vid=54b283c6-c314-444c-b492-3e78ed7f2d30"},"vehicle_type_id":"4","last_reported":1752707451,"current_range_meters":10800,"station_id":"","pricing_plan_id":"cebpf4jnsgd1na2vs0mg"},{"bike_id":"3497b8c1-eec3-4bcf-a2a8-074629d1c01b","system_id":"levelo_inurba_marseille","lat":43.305316,"lon":5.367038,"is_reserved":false,"is_disabled":false,"rental_uris":{"android":"levelo://app?vid=3497b8c1-eec3-4bcf-a2a8-074629d1c01b","ios":"levelo://app?vid=3497b8c1-eec3-4bcf-a2a8-074629d1c01b"},"vehicle_type_id":"4","last_reported":1752707451,"current_range_meters":10800,"station_id":"","pricing_plan_id":"cebpf4jnsgd1na2vs0mg"},{"bike_id":"f4d50b9f-67c5-4a4e-82cd-5fb34bc9ddef","system_id":"levelo_inurba_marseille","lat":43.25423,"lon":5.38233,"is_reserved":false,"is_disabled":false,"rental_uris":{"android":"levelo://app?vid=f4d50b9f-67c5-4a4e-82cd-5fb34bc9ddef","ios":"levelo://app?vid=f4d50b9f-67c5-4a4e-82cd-5fb34bc9ddef"},"vehicle_type_id":"4","last_reported":1752707451,"current_range_meters":10800,"station_id":"","pricing_plan_id":"cebpf4jnsgd1na2vs0mg"},{"bike_id":"9c9a1a9e-fe88-4fa6-beff-3847979b8cc0","system_id":"levelo_inurba_marseille","lat":43.28716,"lon":5.39996,"is_reserved":false,"is_disabled":false,"rental_uris":{"android":"levelo://app?vid=9c9a1a9e-fe88-4fa6-beff-3847979b8cc0","ios":"levelo://app?vid=9c9a1a9e-fe88-4fa6-beff-3847979b8cc0"},"vehicle_type_id":"4","last_reported":1752707451,"current_range_meters":10800,"station_id":"ce4bho92rcd13ifvqh3g","pricing_plan_id":"cebpf4jnsgd1na2vs0mg"},{"bike_id":"697b62b6-8043-4f88-8466-e07cc3b9d930","system_id":"levelo_inurba_marseille","lat":43.30329,"lon":5.37634,"is_reserved":false,"is_disabled":false,"rental_uris":{"android":"levelo://app?vid=697b62b6-8043-4f88-8466-e07cc3b9d930","ios":"levelo://app?vid=697b62b6-8043-4f88-8466-e07cc3b9d930"},"vehicle_type_id":"4","last_reported":1752707451,"current_range_meters":11200,"station_id":"","pricing_plan_id":"cebpf4jnsgd1na2vs0mg"},{"bike_id":"6a136685-3899-4400-8e80-360a9c1a37ab","system_id":"levelo_inurba_marseille","lat":43.30322,"lon":5.40441,"is_reserved":false,"is_disabled":false,"rental_uris":{"android":"levelo://app?vid=6a136685-3899-4400-8e80-360a9c1a37ab","ios":"levelo://app?vid=6a136685-3899-4400-8e80-360a9c1a37ab"},"vehicle_type_id":"4","last_reported":1752707451,"current_range_meters":10800,"station_id":"ce4bh012rcd13ifvqd10","pricing_plan_id":"cebpf4jnsgd1na2vs0mg"},{"bike_id":"a0240c56-90da-40fe-8c4c-6cce4610b887","system_id":"levelo_inurba_marseille","lat":43.288598,"lon":5.393212,"is_reserved":false,"is_disabled":false,"rental_uris":{"android":"levelo://app?vid=a0240c56-90da-40fe-8c4c-6cce4610b887","ios":"levelo://app?vid=a0240c56-90da-40fe-8c4c-6cce4610b887"},"vehicle_type_id":"4","last_reported":1752707451,"current_range_meters":11200,"station_id":"ce4bgpp2rcd13ifvqc3g","pricing_plan_id":"cebpf4jnsgd1na2vs0mg"},{"bike_id":"ff3fe164-4cc4-44a4-80b5-1df33cf4bc7b","system_id":"levelo_inurba_marseille","lat":43.28737,"lon":5.36083,"is_reserved":false,"is_disabled":false,"rental_uris":{"android":"levelo://app?vid=ff3fe164-4cc4-44a4-80b5-1df33cf4bc7b","ios":"levelo://app?vid=ff3fe164-4cc4-44a4-80b5-1df33cf4bc7b"},"vehicle_type_id":"4","last_reported":1752707451,"current_range_meters":11200,"station_id":"cki0cbj6b192h4jlfktg","pricing_plan_id":"cebpf4jnsgd1na2vs0mg"},{"bike_id":"c60915bb-3f73-4823-bcd7-1c68f5ef67ed","system_id":"levelo_inurba_marseille","lat":43.21194,"lon":5.350773,"is_reserved":false,"is_disabled":false,"rental_uris":{"android":"levelo://app?vid=c60915bb-3f73-4823-bcd7-1c68f5ef67ed","ios":"levelo://app?vid=c60915bb-3f73-4823-bcd7-1c68f5ef67ed"},"vehicle_type_id":"4","last_reported":1752707451,"current_range_meters":11200,"station_id":"st_cvj6sg6p6f1abm77japg","pricing_plan_id":"cebpf4jnsgd1na2vs0mg"},{"bike_id":"0895dc70-7c1a-43e5-b7c1-f859e1b4306e","system_id":"levelo_inurba_marseille","lat":43.2843,"lon":5.39187,"is_reserved":false,"is_disabled":false,"rental_uris":{"android":"levelo://app?vid=0895dc70-7c1a-43e5-b7c1-f859e1b4306e","ios":"levelo://app?vid=0895dc70-7c1a-43e5-b7c1-f859e1b4306e"},"vehicle_type_id":"4","last_reported":1752707451,"current_range_meters":11200,"station_id":"ce4bhoh2rcd13ifvqh5g","pricing_plan_id":"cebpf4jnsgd1na2vs0mg"},{"bike_id":"330fac4a-3c49-4cee-9fa8-86a199760139","system_id":"levelo_inurba_marseille","lat":43.28721,"lon":5.37371,"is_reserved":false,"is_disabled":false,"rental_uris":{"android":"levelo://app?vid=330fac4a-3c49-4cee-9fa8-86a199760139","ios":"levelo://app?vid=330fac4a-3c49-4cee-9fa8-86a199760139"},"vehicle_type_id":"4","last_reported":1752707451,"current_range_meters":11200,"station_id":"ce4bh3p2rcd13ifvqdq0","pricing_plan_id":"cebpf4jnsgd1na2vs0mg"},{"bike_id":"7e387c3d-a801-40c9-a984-ce30087355e3","system_id":"levelo_inurba_marseille","lat":43.30733,"lon":5.42443,"is_reserved":false,"is_disabled":false,"rental_uris":{"android":"levelo://app?vid=7e387c3d-a801-40c9-a984-ce30087355e3","ios":"levelo://app?vid=7e387c3d-a801-40c9-a984-ce30087355e3"},"vehicle_type_id":"4","last_reported":1752707451,"current_range_meters":11200,"station_id":"st_cvj6ca6bvosntc0bfgr0","pricing_plan_id":"cebpf4jnsgd1na2vs0mg"},{"bike_id":"7e9c2525-86af-4d5b-9526-e030a39bd030","system_id":"levelo_inurba_marseille","lat":43.28493,"lon":5.38415,"is_reserved":false,"is_disabled":false,"rental_uris":{"android":"levelo://app?vid=7e9c2525-86af-4d5b-9526-e030a39bd030","ios":"levelo://app?vid=7e9c2525-86af-4d5b-9526-e030a39bd030"},"vehicle_type_id":"4","last_reported":1752707451,"current_range_meters":11200,"station_id":"ce4bh512rcd13ifvqe3g","pricing_plan_id":"cebpf4jnsgd1na2vs0mg"},{"bike_id":"b3db82e2-c2e3-47b4-b381-58667a1e9d5e","system_id":"levelo_inurba_marseille","lat":43.28744,"lon":5.36067,"is_reserved":false,"is_disabled":false,"rental_uris":{"android":"levelo://app?vid=b3db82e2-c2e3-47b4-b381-58667a1e9d5e","ios":"levelo://app?vid=b3db82e2-c2e3-47b4-b381-58667a1e9d5e"},"vehicle_type_id":"4","last_reported":1752707451,"current_range_meters":11600,"station_id":"cki0cbj6b192h4jlfktg","pricing_plan_id":"cebpf4jnsgd1na2vs0mg"},{"bike_id":"d446b86f-ac8b-455c-854e-dd258cf5a1a6","system_id":"levelo_inurba_marseille","lat":43.241791,"lon":5.397353,"is_reserved":false,"is_disabled":false,"rental_uris":{"android":"levelo://app?vid=d446b86f-ac8b-455c-854e-dd258cf5a1a6","ios":"levelo://app?vid=d446b86f-ac8b-455c-854e-dd258cf5a1a6"},"vehicle_type_id":"4","last_reported":1752707451,"current_range_meters":11600,"station_id":"","pricing_plan_id":"cebpf4jnsgd1na2vs0mg"},{"bike_id":"ac763d28-e3a1-48f3-b4e7-490068622aa2","system_id":"levelo_inurba_marseille","lat":43.31281,"lon":5.40168,"is_reserved":false,"is_disabled":false,"rental_uris":{"android":"levelo://app?vid=ac763d28-e3a1-48f3-b4e7-490068622aa2","ios":"levelo://app?vid=ac763d28-e3a1-48f3-b4e7-490068622aa2"},"vehicle_type_id":"4","last_reported":1752707451,"current_range_meters":11600,"station_id":"ce4bh092rcd13ifvqd30","pricing_plan_id":"cebpf4jnsgd1na2vs0mg"},{"bike_id":"b0f534da-8e66-4152-b967-e328e4be2d91","system_id":"levelo_inurba_marseille","lat":43.28949,"lon":5.38383,"is_reserved":false,"is_disabled":false,"rental_uris":{"android":"levelo://app?vid=b0f534da-8e66-4152-b967-e328e4be2d91","ios":"levelo://app?vid=b0f534da-8e66-4152-b967-e328e4be2d91"},"vehicle_type_id":"4","last_reported":1752707451,"current_range_meters":12000,"station_id":"ce4bh612rcd13ifvqe6g","pricing_plan_id":"cebpf4jnsgd1na2vs0mg"},{"bike_id":"2c09878f-795c-47f5-9d73-108846ae1aa1","system_id":"levelo_inurba_marseille","lat":43.257305,"lon":5.411101,"is_reserved":false,"is_disabled":false,"rental_uris":{"android":"levelo://app?vid=2c09878f-795c-47f5-9d73-108846ae1aa1","ios":"levelo://app?vid=2c09878f-795c-47f5-9d73-108846ae1aa1"},"vehicle_type_id":"4","last_reported":1752707451,"current_range_meters":12000,"station_id":"ce4bhkp2rcd13ifvqgd0","pricing_plan_id":"cebpf4jnsgd1na2vs0mg"},{"bike_id":"2e370f07-4c9e-444e-9434-28fbe39046e6","system_id":"levelo_inurba_marseille","lat":43.28612,"lon":5.37063,"is_reserved":false,"is_disabled":false,"rental_uris":{"android":"levelo://app?vid=2e370f07-4c9e-444e-9434-28fbe39046e6","ios":"levelo://app?vid=2e370f07-4c9e-444e-9434-28fbe39046e6"},"vehicle_type_id":"4","last_reported":1752707451,"current_range_meters":11600,"station_id":"ce4bht12rcd13ifvqi60","pricing_plan_id":"cebpf4jnsgd1na2vs0mg"},{"bike_id":"941f5e0c-adb3-4b4e-bcb7-3588acd87787","system_id":"levelo_inurba_marseille","lat":43.30141,"lon":5.38777,"is_reserved":false,"is_disabled":true,"rental_uris":{"android":"levelo://app?vid=941f5e0c-adb3-4b4e-bcb7-3588acd87787","ios":"levelo://app?vid=941f5e0c-adb3-4b4e-bcb7-3588acd87787"},"vehicle_type_id":"4","last_reported":1752707451,"current_range_meters":12000,"station_id":"ce4bghh2rcd13ifvqb60","pricing_plan_id":"cebpf4jnsgd1na2vs0mg"},{"bike_id":"61a9e916-b95f-4f2c-8dca-c5b11be80287","system_id":"levelo_inurba_marseille","lat":43.292,"lon":5.36066,"is_reserved":false,"is_disabled":true,"rental_uris":{"android":"levelo://app?vid=61a9e916-b95f-4f2c-8dca-c5b11be80287","ios":"levelo://app?vid=61a9e916-b95f-4f2c-8dca-c5b11be80287"},"vehicle_type_id":"4","last_reported":1752707451,"current_range_meters":12000,"station_id":"ce4bhbh2rcd13ifvqeqg","pricing_plan_id":"cebpf4jnsgd1na2vs0mg"},{"bike_id":"b84b9ec2-f685-4568-a1cf-15a9dfd9b3d4","system_id":"levelo_inurba_marseille","lat":43.30782,"lon":5.38154,"is_reserved":false,"is_disabled":false,"rental_uris":{"android":"levelo://app?vid=b84b9ec2-f685-4568-a1cf-15a9dfd9b3d4","ios":"levelo://app?vid=b84b9ec2-f685-4568-a1cf-15a9dfd9b3d4"},"vehicle_type_id":"4","last_reported":1752707451,"current_range_meters":12000,"station_id":"ce4bgt12rcd13ifvqce0","pricing_plan_id":"cebpf4jnsgd1na2vs0mg"},{"bike_id":"4001417f-2155-439d-8d1d-36f2b1caa07b","system_id":"levelo_inurba_marseille","lat":43.31997,"lon":5.38154,"is_reserved":false,"is_disabled":false,"rental_uris":{"android":"levelo://app?vid=4001417f-2155-439d-8d1d-36f2b1caa07b","ios":"levelo://app?vid=4001417f-2155-439d-8d1d-36f2b1caa07b"},"vehicle_type_id":"4","last_reported":1752707451,"current_range_meters":12400,"station_id":"ce4bhr12rcd13ifvqhpg","pricing_plan_id":"cebpf4jnsgd1na2vs0mg"},{"bike_id":"baea4922-60e4-4138-8858-b9b2d082c585","system_id":"levelo_inurba_marseille","lat":43.30798,"lon":5.37635,"is_reserved":false,"is_disabled":false,"rental_uris":{"android":"levelo://app?vid=baea4922-60e4-4138-8858-b9b2d082c585","ios":"levelo://app?vid=baea4922-60e4-4138-8858-b9b2d082c585"},"vehicle_type_id":"4","last_reported":1752707451,"current_range_meters":12400,"station_id":"ce4bgv92rcd13ifvqcq0","pricing_plan_id":"cebpf4jnsgd1na2vs0mg"},{"bike_id":"2979d731-9333-4af5-a963-386268404255","system_id":"levelo_inurba_marseille","lat":43.22929,"lon":5.35377,"is_reserved":false,"is_disabled":false,"rental_uris":{"android":"levelo://app?vid=2979d731-9333-4af5-a963-386268404255","ios":"levelo://app?vid=2979d731-9333-4af5-a963-386268404255"},"vehicle_type_id":"4","last_reported":1752707451,"current_range_meters":12400,"station_id":"cpo3532slgdg3j2ikp40","pricing_plan_id":"cebpf4jnsgd1na2vs0mg"},{"bike_id":"80c45421-67b0-454e-b2c5-c13ad5f7d678","system_id":"levelo_inurba_marseille","lat":43.28676,"lon":5.37415,"is_reserved":false,"is_disabled":false,"rental_uris":{"android":"levelo://app?vid=80c45421-67b0-454e-b2c5-c13ad5f7d678","ios":"levelo://app?vid=80c45421-67b0-454e-b2c5-c13ad5f7d678"},"vehicle_type_id":"4","last_reported":1752707451,"current_range_meters":12400,"station_id":"ce4bh3p2rcd13ifvqdq0","pricing_plan_id":"cebpf4jnsgd1na2vs0mg"},{"bike_id":"cfb6e539-5040-403a-880a-fc5c5a3f249b","system_id":"levelo_inurba_marseille","lat":43.24179,"lon":5.39729,"is_reserved":false,"is_disabled":false,"rental_uris":{"android":"levelo://app?vid=cfb6e539-5040-403a-880a-fc5c5a3f249b","ios":"levelo://app?vid=cfb6e539-5040-403a-880a-fc5c5a3f249b"},"vehicle_type_id":"4","last_reported":1752707451,"current_range_meters":12400,"station_id":"ce4bhn12rcd13ifvqgpg","pricing_plan_id":"cebpf4jnsgd1na2vs0mg"},{"bike_id":"63b68163-23ff-4509-a7ff-da745c70a782","system_id":"levelo_inurba_marseille","lat":43.295232,"lon":5.394075,"is_reserved":false,"is_disabled":false,"rental_uris":{"android":"levelo://app?vid=63b68163-23ff-4509-a7ff-da745c70a782","ios":"levelo://app?vid=63b68163-23ff-4509-a7ff-da745c70a782"},"vehicle_type_id":"4","last_reported":1752707451,"current_range_meters":12400,"station_id":"","pricing_plan_id":"cebpf4jnsgd1na2vs0mg"},{"bike_id":"7d5ad601-d30e-4f80-89c2-2ff2e9c4d139","system_id":"levelo_inurba_marseille","lat":43.29208,"lon":5.39324,"is_reserved":false,"is_disabled":false,"rental_uris":{"android":"levelo://app?vid=7d5ad601-d30e-4f80-89c2-2ff2e9c4d139","ios":"levelo://app?vid=7d5ad601-d30e-4f80-89c2-2ff2e9c4d139"},"vehicle_type_id":"4","last_reported":1752707451,"current_range_meters":12400,"station_id":"ce4bh192rcd13ifvqdd0","pricing_plan_id":"cebpf4jnsgd1na2vs0mg"},{"bike_id":"9eaf072e-fd31-4296-8388-8574f90d4c98","system_id":"levelo_inurba_marseille","lat":43.28628,"lon":5.37071,"is_reserved":false,"is_disabled":false,"rental_uris":{"android":"levelo://app?vid=9eaf072e-fd31-4296-8388-8574f90d4c98","ios":"levelo://app?vid=9eaf072e-fd31-4296-8388-8574f90d4c98"},"vehicle_type_id":"4","last_reported":1752707451,"current_range_meters":12400,"station_id":"ce4bht12rcd13ifvqi60","pricing_plan_id":"cebpf4jnsgd1na2vs0mg"},{"bike_id":"7072bfb1-208c-40be-bae8-4200bff1ce97","system_id":"levelo_inurba_marseille","lat":43.309,"lon":5.37186,"is_reserved":false,"is_disabled":false,"rental_uris":{"android":"levelo://app?vid=7072bfb1-208c-40be-bae8-4200bff1ce97","ios":"levelo://app?vid=7072bfb1-208c-40be-bae8-4200bff1ce97"},"vehicle_type_id":"4","last_reported":1752707451,"current_range_meters":12800,"station_id":"ce4bguh2rcd13ifvqckg","pricing_plan_id":"cebpf4jnsgd1na2vs0mg"},{"bike_id":"15bd7aad-c85a-4c64-bb3d-df49dc18b33b","system_id":"levelo_inurba_marseille","lat":43.30539,"lon":5.3843,"is_reserved":false,"is_disabled":false,"rental_uris":{"android":"levelo://app?vid=15bd7aad-c85a-4c64-bb3d-df49dc18b33b","ios":"levelo://app?vid=15bd7aad-c85a-4c64-bb3d-df49dc18b33b"},"vehicle_type_id":"4","last_reported":1752707451,"current_range_meters":12400,"station_id":"ce4bgg92rcd13ifvqb30","pricing_plan_id":"cebpf4jnsgd1na2vs0mg"},{"bike_id":"29cf44b4-2b77-4381-ba65-a293698e4362","system_id":"levelo_inurba_marseille","lat":43.30799,"lon":5.38156,"is_reserved":false,"is_disabled":false,"rental_uris":{"android":"levelo://app?vid=29cf44b4-2b77-4381-ba65-a293698e4362","ios":"levelo://app?vid=29cf44b4-2b77-4381-ba65-a293698e4362"},"vehicle_type_id":"4","last_reported":1752707451,"current_range_meters":12800,"station_id":"ce4bgt12rcd13ifvqce0","pricing_plan_id":"cebpf4jnsgd1na2vs0mg"},{"bike_id":"c1f80bd2-d50e-449c-bd26-79e20ea78897","system_id":"levelo_inurba_marseille","lat":43.302793,"lon":5.400842,"is_reserved":false,"is_disabled":false,"rental_uris":{"android":"levelo://app?vid=c1f80bd2-d50e-449c-bd26-79e20ea78897","ios":"levelo://app?vid=c1f80bd2-d50e-449c-bd26-79e20ea78897"},"vehicle_type_id":"4","last_reported":1752707451,"current_range_meters":12800,"station_id":"ce4bgvh2rcd13ifvqcs0","pricing_plan_id":"cebpf4jnsgd1na2vs0mg"},{"bike_id":"8053bec4-5cac-4b92-aa53-91664ade9529","system_id":"levelo_inurba_marseille","lat":43.28695,"lon":5.37373,"is_reserved":false,"is_disabled":false,"rental_uris":{"android":"levelo://app?vid=8053bec4-5cac-4b92-aa53-91664ade9529","ios":"levelo://app?vid=8053bec4-5cac-4b92-aa53-91664ade9529"},"vehicle_type_id":"4","last_reported":1752707451,"current_range_meters":12800,"station_id":"ce4bh3p2rcd13ifvqdq0","pricing_plan_id":"cebpf4jnsgd1na2vs0mg"},{"bike_id":"6a92e34f-31fe-4702-93d9-5a5bfc927fb6","system_id":"levelo_inurba_marseille","lat":43.31081,"lon":5.38361,"is_reserved":false,"is_disabled":false,"rental_uris":{"android":"levelo://app?vid=6a92e34f-31fe-4702-93d9-5a5bfc927fb6","ios":"levelo://app?vid=6a92e34f-31fe-4702-93d9-5a5bfc927fb6"},"vehicle_type_id":"4","last_reported":1752707451,"current_range_meters":12800,"station_id":"ce4bgv92rcd13ifvqcr0","pricing_plan_id":"cebpf4jnsgd1na2vs0mg"},{"bike_id":"bb91fdfd-e2e6-4861-a682-9985a5c5d97b","system_id":"levelo_inurba_marseille","lat":43.23189,"lon":5.39989,"is_reserved":false,"is_disabled":false,"rental_uris":{"android":"levelo://app?vid=bb91fdfd-e2e6-4861-a682-9985a5c5d97b","ios":"levelo://app?vid=bb91fdfd-e2e6-4861-a682-9985a5c5d97b"},"vehicle_type_id":"4","last_reported":1752707451,"current_range_meters":12800,"station_id":"ce4bhn12rcd13ifvqgqg","pricing_plan_id":"cebpf4jnsgd1na2vs0mg"},{"bike_id":"ebf3b191-bb86-457e-8c4f-2b54c1f7445b","system_id":"levelo_inurba_marseille","lat":43.28377,"lon":5.38632,"is_reserved":false,"is_disabled":false,"rental_uris":{"android":"levelo://app?vid=ebf3b191-bb86-457e-8c4f-2b54c1f7445b","ios":"levelo://app?vid=ebf3b191-bb86-457e-8c4f-2b54c1f7445b"},"vehicle_type_id":"4","last_reported":1752707451,"current_range_meters":12800,"station_id":"ce4bh492rcd13ifvqdvg","pricing_plan_id":"cebpf4jnsgd1na2vs0mg"},{"bike_id":"d8ec16a8-0b32-46c7-b9d3-b71d4a359e13","system_id":"levelo_inurba_marseille","lat":43.29041,"lon":5.37566,"is_reserved":false,"is_disabled":false,"rental_uris":{"android":"levelo://app?vid=d8ec16a8-0b32-46c7-b9d3-b71d4a359e13","ios":"levelo://app?vid=d8ec16a8-0b32-46c7-b9d3-b71d4a359e13"},"vehicle_type_id":"4","last_reported":1752707451,"current_range_meters":12800,"station_id":"ce4bh692rcd13ifvqe90","pricing_plan_id":"cebpf4jnsgd1na2vs0mg"},{"bike_id":"181fa2a0-7af9-42db-bc18-73b34669d057","system_id":"levelo_inurba_marseille","lat":43.286347,"lon":5.350933,"is_reserved":false,"is_disabled":false,"rental_uris":{"android":"levelo://app?vid=181fa2a0-7af9-42db-bc18-73b34669d057","ios":"levelo://app?vid=181fa2a0-7af9-42db-bc18-73b34669d057"},"vehicle_type_id":"4","last_reported":1752707451,"current_range_meters":12800,"station_id":"ce4bhch2rcd13ifvqeug","pricing_plan_id":"cebpf4jnsgd1na2vs0mg"},{"bike_id":"7dee92bf-5b07-4927-aa41-9e9493644eeb","system_id":"levelo_inurba_marseille","lat":43.21204,"lon":5.35073,"is_reserved":false,"is_disabled":false,"rental_uris":{"android":"levelo://app?vid=7dee92bf-5b07-4927-aa41-9e9493644eeb","ios":"levelo://app?vid=7dee92bf-5b07-4927-aa41-9e9493644eeb"},"vehicle_type_id":"4","last_reported":1752707451,"current_range_meters":12800,"station_id":"st_cvj6sg6p6f1abm77japg","pricing_plan_id":"cebpf4jnsgd1na2vs0mg"},{"bike_id":"27200039-5cef-499e-ac4f-e437e0020233","system_id":"levelo_inurba_marseille","lat":43.31276,"lon":5.40171,"is_reserved":false,"is_disabled":false,"rental_uris":{"android":"levelo://app?vid=27200039-5cef-499e-ac4f-e437e0020233","ios":"levelo://app?vid=27200039-5cef-499e-ac4f-e437e0020233"},"vehicle_type_id":"4","last_reported":1752707451,"current_range_meters":13600,"station_id":"ce4bh092rcd13ifvqd30","pricing_plan_id":"cebpf4jnsgd1na2vs0mg"},{"bike_id":"82744ac9-be40-48d9-8b95-77997f04c760","system_id":"levelo_inurba_marseille","lat":43.24665,"lon":5.38208,"is_reserved":false,"is_disabled":false,"rental_uris":{"android":"levelo://app?vid=82744ac9-be40-48d9-8b95-77997f04c760","ios":"levelo://app?vid=82744ac9-be40-48d9-8b95-77997f04c760"},"vehicle_type_id":"4","last_reported":1752707451,"current_range_meters":13600,"station_id":"ce4bhih2rcd13ifvqfr0","pricing_plan_id":"cebpf4jnsgd1na2vs0mg"},{"bike_id":"f4e196e9-8fe5-4556-873f-82d582db23f4","system_id":"levelo_inurba_marseille","lat":43.30257,"lon":5.40083,"is_reserved":false,"is_disabled":false,"rental_uris":{"android":"levelo://app?vid=f4e196e9-8fe5-4556-873f-82d582db23f4","ios":"levelo://app?vid=f4e196e9-8fe5-4556-873f-82d582db23f4"},"vehicle_type_id":"4","last_reported":1752707451,"current_range_meters":13600,"station_id":"ce4bgvh2rcd13ifvqcs0","pricing_plan_id":"cebpf4jnsgd1na2vs0mg"},{"bike_id":"ffec1933-844b-4b1e-8a72-2ea49963d77e","system_id":"levelo_inurba_marseille","lat":43.298833,"lon":5.388965,"is_reserved":false,"is_disabled":false,"rental_uris":{"android":"levelo://app?vid=ffec1933-844b-4b1e-8a72-2ea49963d77e","ios":"levelo://app?vid=ffec1933-844b-4b1e-8a72-2ea49963d77e"},"vehicle_type_id":"4","last_reported":1752707451,"current_range_meters":13600,"station_id":"ce4bh392rcd13ifvqdl0","pricing_plan_id":"cebpf4jnsgd1na2vs0mg"},{"bike_id":"b54d706a-0aa5-4b88-947c-9a50a2857c27","system_id":"levelo_inurba_marseille","lat":43.30894,"lon":5.37194,"is_reserved":false,"is_disabled":false,"rental_uris":{"android":"levelo://app?vid=b54d706a-0aa5-4b88-947c-9a50a2857c27","ios":"levelo://app?vid=b54d706a-0aa5-4b88-947c-9a50a2857c27"},"vehicle_type_id":"4","last_reported":1752707451,"current_range_meters":13600,"station_id":"ce4bguh2rcd13ifvqckg","pricing_plan_id":"cebpf4jnsgd1na2vs0mg"},{"bike_id":"8c91f622-ba9b-431a-9fe3-6819815d4505","system_id":"levelo_inurba_marseille","lat":43.26227,"lon":5.40443,"is_reserved":false,"is_disabled":false,"rental_uris":{"android":"levelo://app?vid=8c91f622-ba9b-431a-9fe3-6819815d4505","ios":"levelo://app?vid=8c91f622-ba9b-431a-9fe3-6819815d4505"},"vehicle_type_id":"4","last_reported":1752707451,"current_range_meters":13600,"station_id":"ce4bhmh2rcd13ifvqgmg","pricing_plan_id":"cebpf4jnsgd1na2vs0mg"},{"bike_id":"060cbb1a-1b72-44c9-a792-25ad6f60bedf","system_id":"levelo_inurba_marseille","lat":43.29278,"lon":5.36844,"is_reserved":false,"is_disabled":false,"rental_uris":{"android":"levelo://app?vid=060cbb1a-1b72-44c9-a792-25ad6f60bedf","ios":"levelo://app?vid=060cbb1a-1b72-44c9-a792-25ad6f60bedf"},"vehicle_type_id":"4","last_reported":1752707451,"current_range_meters":14000,"station_id":"ce4bhbp2rcd13ifvqesg","pricing_plan_id":"cebpf4jnsgd1na2vs0mg"},{"bike_id":"31f220b6-f392-477c-9aaa-dd9f087bd889","system_id":"levelo_inurba_marseille","lat":43.28678,"lon":5.38674,"is_reserved":false,"is_disabled":false,"rental_uris":{"android":"levelo://app?vid=31f220b6-f392-477c-9aaa-dd9f087bd889","ios":"levelo://app?vid=31f220b6-f392-477c-9aaa-dd9f087bd889"},"vehicle_type_id":"4","last_reported":1752707451,"current_range_meters":14000,"station_id":"ce4bh492rcd13ifvqdug","pricing_plan_id":"cebpf4jnsgd1na2vs0mg"},{"bike_id":"47e84c87-4631-48fa-8064-ac43c2313bba","system_id":"levelo_inurba_marseille","lat":43.29311,"lon":5.37156,"is_reserved":false,"is_disabled":true,"rental_uris":{"android":"levelo://app?vid=47e84c87-4631-48fa-8064-ac43c2313bba","ios":"levelo://app?vid=47e84c87-4631-48fa-8064-ac43c2313bba"},"vehicle_type_id":"4","last_reported":1752707451,"current_range_meters":14000,"station_id":"ce4bgh92rcd13ifvqb40","pricing_plan_id":"cebpf4jnsgd1na2vs0mg"},{"bike_id":"2a7cde84-3285-47b9-a73e-2775eed8fcc8","system_id":"levelo_inurba_marseille","lat":43.28529,"lon":5.38546,"is_reserved":false,"is_disabled":false,"rental_uris":{"android":"levelo://app?vid=2a7cde84-3285-47b9-a73e-2775eed8fcc8","ios":"levelo://app?vid=2a7cde84-3285-47b9-a73e-2775eed8fcc8"},"vehicle_type_id":"4","last_reported":1752707451,"current_range_meters":14000,"station_id":"ce4bh8p2rcd13ifvqeb0","pricing_plan_id":"cebpf4jnsgd1na2vs0mg"},{"bike_id":"e7574c06-c628-4333-a40c-7b005585c3f8","system_id":"levelo_inurba_marseille","lat":43.29605,"lon":5.37708,"is_reserved":false,"is_disabled":true,"rental_uris":{"android":"levelo://app?vid=e7574c06-c628-4333-a40c-7b005585c3f8","ios":"levelo://app?vid=e7574c06-c628-4333-a40c-7b005585c3f8"},"vehicle_type_id":"4","last_reported":1752707451,"current_range_meters":14000,"station_id":"ce4bgi92rcd13ifvqb90","pricing_plan_id":"cebpf4jnsgd1na2vs0mg"},{"bike_id":"668b719f-eb0a-47ac-b1f6-9771bfc25c9f","system_id":"levelo_inurba_marseille","lat":43.24251,"lon":5.37594,"is_reserved":false,"is_disabled":false,"rental_uris":{"android":"levelo://app?vid=668b719f-eb0a-47ac-b1f6-9771bfc25c9f","ios":"levelo://app?vid=668b719f-eb0a-47ac-b1f6-9771bfc25c9f"},"vehicle_type_id":"4","last_reported":1752707451,"current_range_meters":14000,"station_id":"","pricing_plan_id":"cebpf4jnsgd1na2vs0mg"},{"bike_id":"020b2baf-75c4-4949-8f8a-0ffb7a3dd799","system_id":"levelo_inurba_marseille","lat":43.29878,"lon":5.38898,"is_reserved":false,"is_disabled":false,"rental_uris":{"android":"levelo://app?vid=020b2baf-75c4-4949-8f8a-0ffb7a3dd799","ios":"levelo://app?vid=020b2baf-75c4-4949-8f8a-0ffb7a3dd799"},"vehicle_type_id":"4","last_reported":1752707451,"current_range_meters":14000,"station_id":"ce4bh392rcd13ifvqdl0","pricing_plan_id":"cebpf4jnsgd1na2vs0mg"},{"bike_id":"cf6a8fc9-ad82-40e0-a73a-49453b18cbda","system_id":"levelo_inurba_marseille","lat":43.29452,"lon":5.39737,"is_reserved":false,"is_disabled":false,"rental_uris":{"android":"levelo://app?vid=cf6a8fc9-ad82-40e0-a73a-49453b18cbda","ios":"levelo://app?vid=cf6a8fc9-ad82-40e0-a73a-49453b18cbda"},"vehicle_type_id":"4","last_reported":1752707451,"current_range_meters":14000,"station_id":"ce4bh3h2rcd13ifvqdo0","pricing_plan_id":"cebpf4jnsgd1na2vs0mg"},{"bike_id":"fec9ee64-026c-46c6-a4c8-c66ae693a529","system_id":"levelo_inurba_marseille","lat":43.29286,"lon":5.37156,"is_reserved":false,"is_disabled":true,"rental_uris":{"android":"levelo://app?vid=fec9ee64-026c-46c6-a4c8-c66ae693a529","ios":"levelo://app?vid=fec9ee64-026c-46c6-a4c8-c66ae693a529"},"vehicle_type_id":"4","last_reported":1752707451,"current_range_meters":14000,"station_id":"ce4bgh92rcd13ifvqb40","pricing_plan_id":"cebpf4jnsgd1na2vs0mg"},{"bike_id":"bb839917-1d72-4519-a2b0-72b28025e386","system_id":"levelo_inurba_marseille","lat":43.30132,"lon":5.39866,"is_reserved":false,"is_disabled":false,"rental_uris":{"android":"levelo://app?vid=bb839917-1d72-4519-a2b0-72b28025e386","ios":"levelo://app?vid=bb839917-1d72-4519-a2b0-72b28025e386"},"vehicle_type_id":"4","last_reported":1752707451,"current_range_meters":14000,"station_id":"ce4bh0h2rcd13ifvqd40","pricing_plan_id":"cebpf4jnsgd1na2vs0mg"},{"bike_id":"dba0e29f-7af6-4f6e-b8b5-a92efcae0d3b","system_id":"levelo_inurba_marseille","lat":43.308932,"lon":5.396627,"is_reserved":false,"is_disabled":false,"rental_uris":{"android":"levelo://app?vid=dba0e29f-7af6-4f6e-b8b5-a92efcae0d3b","ios":"levelo://app?vid=dba0e29f-7af6-4f6e-b8b5-a92efcae0d3b"},"vehicle_type_id":"4","last_reported":1752707451,"current_range_meters":14000,"station_id":"ce4bh012rcd13ifvqcv0","pricing_plan_id":"cebpf4jnsgd1na2vs0mg"},{"bike_id":"faee7903-0873-4cae-9460-c271b034a61c","system_id":"levelo_inurba_marseille","lat":43.24675,"lon":5.38179,"is_reserved":false,"is_disabled":false,"rental_uris":{"android":"levelo://app?vid=faee7903-0873-4cae-9460-c271b034a61c","ios":"levelo://app?vid=faee7903-0873-4cae-9460-c271b034a61c"},"vehicle_type_id":"4","last_reported":1752707451,"current_range_meters":14000,"station_id":"ce4bhih2rcd13ifvqfr0","pricing_plan_id":"cebpf4jnsgd1na2vs0mg"},{"bike_id":"2f7735f9-7867-4ab9-9108-eb7e293bdfe9","system_id":"levelo_inurba_marseille","lat":43.284088,"lon":5.375022,"is_reserved":false,"is_disabled":false,"rental_uris":{"android":"levelo://app?vid=2f7735f9-7867-4ab9-9108-eb7e293bdfe9","ios":"levelo://app?vid=2f7735f9-7867-4ab9-9108-eb7e293bdfe9"},"vehicle_type_id":"4","last_reported":1752707451,"current_range_meters":14400,"station_id":"ce4bh412rcd13ifvqds0","pricing_plan_id":"cebpf4jnsgd1na2vs0mg"},{"bike_id":"734032c8-fecd-4dec-8378-00c6c9efc560","system_id":"levelo_inurba_marseille","lat":43.29635,"lon":5.37147,"is_reserved":false,"is_disabled":true,"rental_uris":{"android":"levelo://app?vid=734032c8-fecd-4dec-8378-00c6c9efc560","ios":"levelo://app?vid=734032c8-fecd-4dec-8378-00c6c9efc560"},"vehicle_type_id":"4","last_reported":1752707451,"current_range_meters":14400,"station_id":"ce4bgnh2rcd13ifvqc0g","pricing_plan_id":"cebpf4jnsgd1na2vs0mg"},{"bike_id":"7425af41-f939-4fb5-81a7-e1169ccaa6d8","system_id":"levelo_inurba_marseille","lat":43.24674,"lon":5.38203,"is_reserved":false,"is_disabled":true,"rental_uris":{"android":"levelo://app?vid=7425af41-f939-4fb5-81a7-e1169ccaa6d8","ios":"levelo://app?vid=7425af41-f939-4fb5-81a7-e1169ccaa6d8"},"vehicle_type_id":"4","last_reported":1752707451,"current_range_meters":14400,"station_id":"ce4bhih2rcd13ifvqfr0","pricing_plan_id":"cebpf4jnsgd1na2vs0mg"},{"bike_id":"40b7d6dc-dc7d-4587-a9df-7efd0f964364","system_id":"levelo_inurba_marseille","lat":43.30781,"lon":5.37647,"is_reserved":false,"is_disabled":false,"rental_uris":{"android":"levelo://app?vid=40b7d6dc-dc7d-4587-a9df-7efd0f964364","ios":"levelo://app?vid=40b7d6dc-dc7d-4587-a9df-7efd0f964364"},"vehicle_type_id":"4","last_reported":1752707451,"current_range_meters":14400,"station_id":"ce4bgv92rcd13ifvqcq0","pricing_plan_id":"cebpf4jnsgd1na2vs0mg"},{"bike_id":"a863c27f-43d1-4a80-aacc-a2ff99eb004c","system_id":"levelo_inurba_marseille","lat":43.29872,"lon":5.38909,"is_reserved":false,"is_disabled":false,"rental_uris":{"android":"levelo://app?vid=a863c27f-43d1-4a80-aacc-a2ff99eb004c","ios":"levelo://app?vid=a863c27f-43d1-4a80-aacc-a2ff99eb004c"},"vehicle_type_id":"4","last_reported":1752707451,"current_range_meters":14400,"station_id":"ce4bh392rcd13ifvqdl0","pricing_plan_id":"cebpf4jnsgd1na2vs0mg"},{"bike_id":"0ac495ae-107c-4a4c-882d-a9f7995b38a8","system_id":"levelo_inurba_marseille","lat":43.29041,"lon":5.40011,"is_reserved":false,"is_disabled":false,"rental_uris":{"android":"levelo://app?vid=0ac495ae-107c-4a4c-882d-a9f7995b38a8","ios":"levelo://app?vid=0ac495ae-107c-4a4c-882d-a9f7995b38a8"},"vehicle_type_id":"4","last_reported":1752707451,"current_range_meters":14400,"station_id":"ce4bh392rcd13ifvqdm0","pricing_plan_id":"cebpf4jnsgd1na2vs0mg"},{"bike_id":"2aad0216-72a2-45b0-a34e-6ea9c45b1dfa","system_id":"levelo_inurba_marseille","lat":43.29399,"lon":5.39844,"is_reserved":false,"is_disabled":false,"rental_uris":{"android":"levelo://app?vid=2aad0216-72a2-45b0-a34e-6ea9c45b1dfa","ios":"levelo://app?vid=2aad0216-72a2-45b0-a34e-6ea9c45b1dfa"},"vehicle_type_id":"4","last_reported":1752707451,"current_range_meters":14400,"station_id":"","pricing_plan_id":"cebpf4jnsgd1na2vs0mg"},{"bike_id":"0251491b-c678-423b-bd29-5a5e2bd56df5","system_id":"levelo_inurba_marseille","lat":43.24545,"lon":5.39524,"is_reserved":false,"is_disabled":false,"rental_uris":{"android":"levelo://app?vid=0251491b-c678-423b-bd29-5a5e2bd56df5","ios":"levelo://app?vid=0251491b-c678-423b-bd29-5a5e2bd56df5"},"vehicle_type_id":"4","last_reported":1752707451,"current_range_meters":14800,"station_id":"ce4bhlp2rcd13ifvqgjg","pricing_plan_id":"cebpf4jnsgd1na2vs0mg"},{"bike_id":"84c133eb-a2c7-4beb-83c4-2a7041dbf7bd","system_id":"levelo_inurba_marseille","lat":43.30797,"lon":5.3816,"is_reserved":false,"is_disabled":false,"rental_uris":{"android":"levelo://app?vid=84c133eb-a2c7-4beb-83c4-2a7041dbf7bd","ios":"levelo://app?vid=84c133eb-a2c7-4beb-83c4-2a7041dbf7bd"},"vehicle_type_id":"4","last_reported":1752707451,"current_range_meters":14800,"station_id":"","pricing_plan_id":"cebpf4jnsgd1na2vs0mg"},{"bike_id":"f58252cf-1e04-42f5-aab4-89eede447d36","system_id":"levelo_inurba_marseille","lat":43.306641,"lon":5.400613,"is_reserved":false,"is_disabled":false,"rental_uris":{"android":"levelo://app?vid=f58252cf-1e04-42f5-aab4-89eede447d36","ios":"levelo://app?vid=f58252cf-1e04-42f5-aab4-89eede447d36"},"vehicle_type_id":"4","last_reported":1752707451,"current_range_meters":14800,"station_id":"ce4bgvh2rcd13ifvqcs0","pricing_plan_id":"cebpf4jnsgd1na2vs0mg"},{"bike_id":"9090e647-a713-44ba-b392-5ac73cd154dd","system_id":"levelo_inurba_marseille","lat":43.23067,"lon":5.35496,"is_reserved":false,"is_disabled":false,"rental_uris":{"android":"levelo://app?vid=9090e647-a713-44ba-b392-5ac73cd154dd","ios":"levelo://app?vid=9090e647-a713-44ba-b392-5ac73cd154dd"},"vehicle_type_id":"4","last_reported":1752707451,"current_range_meters":15200,"station_id":"cpo3342slgdg3j2ifvpg","pricing_plan_id":"cebpf4jnsgd1na2vs0mg"},{"bike_id":"9b17552d-01e4-44a4-80ff-8c26a3e08876","system_id":"levelo_inurba_marseille","lat":43.29878,"lon":5.38925,"is_reserved":false,"is_disabled":false,"rental_uris":{"android":"levelo://app?vid=9b17552d-01e4-44a4-80ff-8c26a3e08876","ios":"levelo://app?vid=9b17552d-01e4-44a4-80ff-8c26a3e08876"},"vehicle_type_id":"4","last_reported":1752707451,"current_range_meters":14800,"station_id":"ce4bh392rcd13ifvqdl0","pricing_plan_id":"cebpf4jnsgd1na2vs0mg"},{"bike_id":"bd3b285b-53f7-4f4d-94f9-3faf82d12ab5","system_id":"levelo_inurba_marseille","lat":43.23189,"lon":5.39979,"is_reserved":false,"is_disabled":false,"rental_uris":{"android":"levelo://app?vid=bd3b285b-53f7-4f4d-94f9-3faf82d12ab5","ios":"levelo://app?vid=bd3b285b-53f7-4f4d-94f9-3faf82d12ab5"},"vehicle_type_id":"4","last_reported":1752707451,"current_range_meters":14800,"station_id":"ce4bhn12rcd13ifvqgqg","pricing_plan_id":"cebpf4jnsgd1na2vs0mg"},{"bike_id":"6a69d0cc-faf8-4dc3-8ded-5ef811a5de8d","system_id":"levelo_inurba_marseille","lat":43.30743,"lon":5.42439,"is_reserved":false,"is_disabled":false,"rental_uris":{"android":"levelo://app?vid=6a69d0cc-faf8-4dc3-8ded-5ef811a5de8d","ios":"levelo://app?vid=6a69d0cc-faf8-4dc3-8ded-5ef811a5de8d"},"vehicle_type_id":"4","last_reported":1752707451,"current_range_meters":14800,"station_id":"st_cvj6ca6bvosntc0bfgr0","pricing_plan_id":"cebpf4jnsgd1na2vs0mg"},{"bike_id":"39c6203f-25ee-487c-9399-b36ef495fc6b","system_id":"levelo_inurba_marseille","lat":43.24085,"lon":5.37742,"is_reserved":false,"is_disabled":false,"rental_uris":{"android":"levelo://app?vid=39c6203f-25ee-487c-9399-b36ef495fc6b","ios":"levelo://app?vid=39c6203f-25ee-487c-9399-b36ef495fc6b"},"vehicle_type_id":"4","last_reported":1752707451,"current_range_meters":14800,"station_id":"ce4bhnp2rcd13ifvqgvg","pricing_plan_id":"cebpf4jnsgd1na2vs0mg"},{"bike_id":"d4af6391-19a0-4505-a3ce-cfc41ecc6527","system_id":"levelo_inurba_marseille","lat":43.30783,"lon":5.3766,"is_reserved":false,"is_disabled":false,"rental_uris":{"android":"levelo://app?vid=d4af6391-19a0-4505-a3ce-cfc41ecc6527","ios":"levelo://app?vid=d4af6391-19a0-4505-a3ce-cfc41ecc6527"},"vehicle_type_id":"4","last_reported":1752707451,"current_range_meters":14800,"station_id":"ce4bgv92rcd13ifvqcq0","pricing_plan_id":"cebpf4jnsgd1na2vs0mg"},{"bike_id":"5ac51129-3997-4afc-ae6e-f09b95df995b","system_id":"levelo_inurba_marseille","lat":43.2986,"lon":5.39774,"is_reserved":false,"is_disabled":false,"rental_uris":{"android":"levelo://app?vid=5ac51129-3997-4afc-ae6e-f09b95df995b","ios":"levelo://app?vid=5ac51129-3997-4afc-ae6e-f09b95df995b"},"vehicle_type_id":"4","last_reported":1752707451,"current_range_meters":14800,"station_id":"ce4bh0h2rcd13ifvqd50","pricing_plan_id":"cebpf4jnsgd1na2vs0mg"},{"bike_id":"0398468c-6c0f-49fd-b525-08c45b6a4cd9","system_id":"levelo_inurba_marseille","lat":43.22513,"lon":5.3478,"is_reserved":false,"is_disabled":false,"rental_uris":{"android":"levelo://app?vid=0398468c-6c0f-49fd-b525-08c45b6a4cd9","ios":"levelo://app?vid=0398468c-6c0f-49fd-b525-08c45b6a4cd9"},"vehicle_type_id":"4","last_reported":1752707451,"current_range_meters":15200,"station_id":"st_cvj5dfep6f1abm77gieg","pricing_plan_id":"cebpf4jnsgd1na2vs0mg"},{"bike_id":"badf7f9c-90ce-421d-9188-7f1e77915ddd","system_id":"levelo_inurba_marseille","lat":43.296223,"lon":5.377025,"is_reserved":false,"is_disabled":false,"rental_uris":{"android":"levelo://app?vid=badf7f9c-90ce-421d-9188-7f1e77915ddd","ios":"levelo://app?vid=badf7f9c-90ce-421d-9188-7f1e77915ddd"},"vehicle_type_id":"4","last_reported":1752707451,"current_range_meters":15200,"station_id":"","pricing_plan_id":"cebpf4jnsgd1na2vs0mg"},{"bike_id":"229a51b8-d35a-46ef-90d9-099d3d4f556b","system_id":"levelo_inurba_marseille","lat":43.29423,"lon":5.38604,"is_reserved":false,"is_disabled":true,"rental_uris":{"android":"levelo://app?vid=229a51b8-d35a-46ef-90d9-099d3d4f556b","ios":"levelo://app?vid=229a51b8-d35a-46ef-90d9-099d3d4f556b"},"vehicle_type_id":"4","last_reported":1752707451,"current_range_meters":15200,"station_id":"ce4bh2h2rcd13ifvqdh0","pricing_plan_id":"cebpf4jnsgd1na2vs0mg"},{"bike_id":"555bc53e-5286-4fb6-9154-af42b3fd9792","system_id":"levelo_inurba_marseille","lat":43.30064,"lon":5.37299,"is_reserved":false,"is_disabled":false,"rental_uris":{"android":"levelo://app?vid=555bc53e-5286-4fb6-9154-af42b3fd9792","ios":"levelo://app?vid=555bc53e-5286-4fb6-9154-af42b3fd9792"},"vehicle_type_id":"4","last_reported":1752707451,"current_range_meters":15200,"station_id":"","pricing_plan_id":"cebpf4jnsgd1na2vs0mg"},{"bike_id":"41e52042-9aec-491e-a8ad-48847e940eea","system_id":"levelo_inurba_marseille","lat":43.22931,"lon":5.35376,"is_reserved":false,"is_disabled":false,"rental_uris":{"android":"levelo://app?vid=41e52042-9aec-491e-a8ad-48847e940eea","ios":"levelo://app?vid=41e52042-9aec-491e-a8ad-48847e940eea"},"vehicle_type_id":"4","last_reported":1752707451,"current_range_meters":15200,"station_id":"cpo3532slgdg3j2ikp40","pricing_plan_id":"cebpf4jnsgd1na2vs0mg"},{"bike_id":"616391e9-37be-45fd-b14c-af30e7ef81e7","system_id":"levelo_inurba_marseille","lat":43.2871,"lon":5.39989,"is_reserved":false,"is_disabled":false,"rental_uris":{"android":"levelo://app?vid=616391e9-37be-45fd-b14c-af30e7ef81e7","ios":"levelo://app?vid=616391e9-37be-45fd-b14c-af30e7ef81e7"},"vehicle_type_id":"4","last_reported":1752707451,"current_range_meters":14800,"station_id":"ce4bho92rcd13ifvqh3g","pricing_plan_id":"cebpf4jnsgd1na2vs0mg"},{"bike_id":"b7431c1f-d7ac-4e78-a119-41c97700dd12","system_id":"levelo_inurba_marseille","lat":43.30932,"lon":5.40138,"is_reserved":false,"is_disabled":false,"rental_uris":{"android":"levelo://app?vid=b7431c1f-d7ac-4e78-a119-41c97700dd12","ios":"levelo://app?vid=b7431c1f-d7ac-4e78-a119-41c97700dd12"},"vehicle_type_id":"4","last_reported":1752707451,"current_range_meters":15200,"station_id":"ce4bgvp2rcd13ifvqct0","pricing_plan_id":"cebpf4jnsgd1na2vs0mg"},{"bike_id":"a68612b3-8ed6-4d3b-af65-4d1c84c2c21c","system_id":"levelo_inurba_marseille","lat":43.251032,"lon":5.403246,"is_reserved":false,"is_disabled":false,"rental_uris":{"android":"levelo://app?vid=a68612b3-8ed6-4d3b-af65-4d1c84c2c21c","ios":"levelo://app?vid=a68612b3-8ed6-4d3b-af65-4d1c84c2c21c"},"vehicle_type_id":"4","last_reported":1752707451,"current_range_meters":16000,"station_id":"ce4bhlh2rcd13ifvqgig","pricing_plan_id":"cebpf4jnsgd1na2vs0mg"},{"bike_id":"401c7695-3adf-41e7-93ca-9198757d5b5f","system_id":"levelo_inurba_marseille","lat":43.286743,"lon":5.386567,"is_reserved":false,"is_disabled":true,"rental_uris":{"android":"levelo://app?vid=401c7695-3adf-41e7-93ca-9198757d5b5f","ios":"levelo://app?vid=401c7695-3adf-41e7-93ca-9198757d5b5f"},"vehicle_type_id":"4","last_reported":1752707451,"current_range_meters":16000,"station_id":"ce4bh492rcd13ifvqdug","pricing_plan_id":"cebpf4jnsgd1na2vs0mg"},{"bike_id":"3444bdc6-514a-4ba6-9650-f9073305e33d","system_id":"levelo_inurba_marseille","lat":43.29682,"lon":5.3698,"is_reserved":false,"is_disabled":false,"rental_uris":{"android":"levelo://app?vid=3444bdc6-514a-4ba6-9650-f9073305e33d","ios":"levelo://app?vid=3444bdc6-514a-4ba6-9650-f9073305e33d"},"vehicle_type_id":"4","last_reported":1752707451,"current_range_meters":16000,"station_id":"","pricing_plan_id":"cebpf4jnsgd1na2vs0mg"},{"bike_id":"34e62ee5-3131-428c-842a-9ad03de94ba5","system_id":"levelo_inurba_marseille","lat":43.22503,"lon":5.34786,"is_reserved":false,"is_disabled":false,"rental_uris":{"android":"levelo://app?vid=34e62ee5-3131-428c-842a-9ad03de94ba5","ios":"levelo://app?vid=34e62ee5-3131-428c-842a-9ad03de94ba5"},"vehicle_type_id":"4","last_reported":1752707451,"current_range_meters":16000,"station_id":"st_cvj5dfep6f1abm77gieg","pricing_plan_id":"cebpf4jnsgd1na2vs0mg"},{"bike_id":"04360171-353d-4743-b652-2f686b907641","system_id":"levelo_inurba_marseille","lat":43.30143,"lon":5.37421,"is_reserved":false,"is_disabled":false,"rental_uris":{"android":"levelo://app?vid=04360171-353d-4743-b652-2f686b907641","ios":"levelo://app?vid=04360171-353d-4743-b652-2f686b907641"},"vehicle_type_id":"4","last_reported":1752707451,"current_range_meters":16000,"station_id":"ce4bgs92rcd13ifvqcc0","pricing_plan_id":"cebpf4jnsgd1na2vs0mg"},{"bike_id":"acdc4eae-fa0d-4b1d-82e8-03d6b3d158ce","system_id":"levelo_inurba_marseille","lat":43.27045,"lon":5.42325,"is_reserved":false,"is_disabled":false,"rental_uris":{"android":"levelo://app?vid=acdc4eae-fa0d-4b1d-82e8-03d6b3d158ce","ios":"levelo://app?vid=acdc4eae-fa0d-4b1d-82e8-03d6b3d158ce"},"vehicle_type_id":"4","last_reported":1752707451,"current_range_meters":16000,"station_id":"ce4bhk92rcd13ifvqgb0","pricing_plan_id":"cebpf4jnsgd1na2vs0mg"},{"bike_id":"a9feb39e-95cd-4d74-b0cd-0a181df4b124","system_id":"levelo_inurba_marseille","lat":43.29437,"lon":5.39747,"is_reserved":false,"is_disabled":false,"rental_uris":{"android":"levelo://app?vid=a9feb39e-95cd-4d74-b0cd-0a181df4b124","ios":"levelo://app?vid=a9feb39e-95cd-4d74-b0cd-0a181df4b124"},"vehicle_type_id":"4","last_reported":1752707451,"current_range_meters":15200,"station_id":"ce4bh3h2rcd13ifvqdo0","pricing_plan_id":"cebpf4jnsgd1na2vs0mg"},{"bike_id":"61d6da5a-06d9-4643-885c-e5fb7d162776","system_id":"levelo_inurba_marseille","lat":43.30826,"lon":5.38177,"is_reserved":false,"is_disabled":false,"rental_uris":{"android":"levelo://app?vid=61d6da5a-06d9-4643-885c-e5fb7d162776","ios":"levelo://app?vid=61d6da5a-06d9-4643-885c-e5fb7d162776"},"vehicle_type_id":"4","last_reported":1752707451,"current_range_meters":16000,"station_id":"ce4bgt12rcd13ifvqce0","pricing_plan_id":"cebpf4jnsgd1na2vs0mg"},{"bike_id":"8c1cb90f-796f-475c-b1be-ecf66057c39d","system_id":"levelo_inurba_marseille","lat":43.31339,"lon":5.39726,"is_reserved":false,"is_disabled":false,"rental_uris":{"android":"levelo://app?vid=8c1cb90f-796f-475c-b1be-ecf66057c39d","ios":"levelo://app?vid=8c1cb90f-796f-475c-b1be-ecf66057c39d"},"vehicle_type_id":"4","last_reported":1752707451,"current_range_meters":16000,"station_id":"ce4bgvp2rcd13ifvqcu0","pricing_plan_id":"cebpf4jnsgd1na2vs0mg"},{"bike_id":"243ff24d-c224-4f6c-8766-a9a443123038","system_id":"levelo_inurba_marseille","lat":43.23965,"lon":5.36624,"is_reserved":false,"is_disabled":false,"rental_uris":{"android":"levelo://app?vid=243ff24d-c224-4f6c-8766-a9a443123038","ios":"levelo://app?vid=243ff24d-c224-4f6c-8766-a9a443123038"},"vehicle_type_id":"4","last_reported":1752707451,"current_range_meters":16000,"station_id":"ce4bhi12rcd13ifvqfp0","pricing_plan_id":"cebpf4jnsgd1na2vs0mg"},{"bike_id":"1fb5cc8f-de44-4951-89f7-e81235b7573f","system_id":"levelo_inurba_marseille","lat":43.30437,"lon":5.41288,"is_reserved":false,"is_disabled":false,"rental_uris":{"android":"levelo://app?vid=1fb5cc8f-de44-4951-89f7-e81235b7573f","ios":"levelo://app?vid=1fb5cc8f-de44-4951-89f7-e81235b7573f"},"vehicle_type_id":"4","last_reported":1752707451,"current_range_meters":16000,"station_id":"ce4bhop2rcd13ifvqh8g","pricing_plan_id":"cebpf4jnsgd1na2vs0mg"},{"bike_id":"b0913f93-a684-4140-9689-82edfbc4235d","system_id":"levelo_inurba_marseille","lat":43.2121,"lon":5.35056,"is_reserved":false,"is_disabled":false,"rental_uris":{"android":"levelo://app?vid=b0913f93-a684-4140-9689-82edfbc4235d","ios":"levelo://app?vid=b0913f93-a684-4140-9689-82edfbc4235d"},"vehicle_type_id":"4","last_reported":1752707451,"current_range_meters":16400,"station_id":"st_cvj6sg6p6f1abm77japg","pricing_plan_id":"cebpf4jnsgd1na2vs0mg"},{"bike_id":"8acdf02c-787e-4a1e-956a-5c94a3dff06a","system_id":"levelo_inurba_marseille","lat":43.28507,"lon":5.40598,"is_reserved":false,"is_disabled":false,"rental_uris":{"android":"levelo://app?vid=8acdf02c-787e-4a1e-956a-5c94a3dff06a","ios":"levelo://app?vid=8acdf02c-787e-4a1e-956a-5c94a3dff06a"},"vehicle_type_id":"4","last_reported":1752707451,"current_range_meters":16400,"station_id":"","pricing_plan_id":"cebpf4jnsgd1na2vs0mg"},{"bike_id":"1ca96a3a-e695-4598-9226-8ef43ee55fb4","system_id":"levelo_inurba_marseille","lat":43.31276,"lon":5.40166,"is_reserved":false,"is_disabled":false,"rental_uris":{"android":"levelo://app?vid=1ca96a3a-e695-4598-9226-8ef43ee55fb4","ios":"levelo://app?vid=1ca96a3a-e695-4598-9226-8ef43ee55fb4"},"vehicle_type_id":"4","last_reported":1752707451,"current_range_meters":16400,"station_id":"ce4bh092rcd13ifvqd30","pricing_plan_id":"cebpf4jnsgd1na2vs0mg"},{"bike_id":"5ee72fdb-7a3a-4f38-9f44-3345045a40f2","system_id":"levelo_inurba_marseille","lat":43.30788,"lon":5.37652,"is_reserved":false,"is_disabled":false,"rental_uris":{"android":"levelo://app?vid=5ee72fdb-7a3a-4f38-9f44-3345045a40f2","ios":"levelo://app?vid=5ee72fdb-7a3a-4f38-9f44-3345045a40f2"},"vehicle_type_id":"4","last_reported":1752707451,"current_range_meters":16400,"station_id":"ce4bgv92rcd13ifvqcq0","pricing_plan_id":"cebpf4jnsgd1na2vs0mg"},{"bike_id":"07f5ae19-0925-43ef-aab4-48ec58bc62b9","system_id":"levelo_inurba_marseille","lat":43.31443,"lon":5.37446,"is_reserved":false,"is_disabled":false,"rental_uris":{"android":"levelo://app?vid=07f5ae19-0925-43ef-aab4-48ec58bc62b9","ios":"levelo://app?vid=07f5ae19-0925-43ef-aab4-48ec58bc62b9"},"vehicle_type_id":"4","last_reported":1752707451,"current_range_meters":16400,"station_id":"","pricing_plan_id":"cebpf4jnsgd1na2vs0mg"},{"bike_id":"8417ad62-2136-4647-b89c-f46e0aabae59","system_id":"levelo_inurba_marseille","lat":43.22938,"lon":5.35375,"is_reserved":false,"is_disabled":false,"rental_uris":{"android":"levelo://app?vid=8417ad62-2136-4647-b89c-f46e0aabae59","ios":"levelo://app?vid=8417ad62-2136-4647-b89c-f46e0aabae59"},"vehicle_type_id":"4","last_reported":1752707451,"current_range_meters":16400,"station_id":"cpo3532slgdg3j2ikp40","pricing_plan_id":"cebpf4jnsgd1na2vs0mg"},{"bike_id":"23aea49e-3be5-46af-b900-481df4dbf21f","system_id":"levelo_inurba_marseille","lat":43.29187,"lon":5.39345,"is_reserved":false,"is_disabled":false,"rental_uris":{"android":"levelo://app?vid=23aea49e-3be5-46af-b900-481df4dbf21f","ios":"levelo://app?vid=23aea49e-3be5-46af-b900-481df4dbf21f"},"vehicle_type_id":"4","last_reported":1752707451,"current_range_meters":16400,"station_id":"ce4bh192rcd13ifvqdd0","pricing_plan_id":"cebpf4jnsgd1na2vs0mg"},{"bike_id":"3aef6da4-43ee-4eb6-bca4-82a9b0e31c20","system_id":"levelo_inurba_marseille","lat":43.30294,"lon":5.39207,"is_reserved":false,"is_disabled":false,"rental_uris":{"android":"levelo://app?vid=3aef6da4-43ee-4eb6-bca4-82a9b0e31c20","ios":"levelo://app?vid=3aef6da4-43ee-4eb6-bca4-82a9b0e31c20"},"vehicle_type_id":"4","last_reported":1752707451,"current_range_meters":16400,"station_id":"ce4bgkh2rcd13ifvqbk0","pricing_plan_id":"cebpf4jnsgd1na2vs0mg"},{"bike_id":"dfd03766-7b95-4a27-bf1c-10b7662abae2","system_id":"levelo_inurba_marseille","lat":43.29434,"lon":5.39743,"is_reserved":false,"is_disabled":false,"rental_uris":{"android":"levelo://app?vid=dfd03766-7b95-4a27-bf1c-10b7662abae2","ios":"levelo://app?vid=dfd03766-7b95-4a27-bf1c-10b7662abae2"},"vehicle_type_id":"4","last_reported":1752707451,"current_range_meters":16800,"station_id":"ce4bh3h2rcd13ifvqdo0","pricing_plan_id":"cebpf4jnsgd1na2vs0mg"},{"bike_id":"15e281ac-ac0d-4b6f-b426-fa5c002bd7ee","system_id":"levelo_inurba_marseille","lat":43.27641,"lon":5.38921,"is_reserved":false,"is_disabled":true,"rental_uris":{"android":"levelo://app?vid=15e281ac-ac0d-4b6f-b426-fa5c002bd7ee","ios":"levelo://app?vid=15e281ac-ac0d-4b6f-b426-fa5c002bd7ee"},"vehicle_type_id":"4","last_reported":1752707451,"current_range_meters":16800,"station_id":"ce4bhi12rcd13ifvqfo0","pricing_plan_id":"cebpf4jnsgd1na2vs0mg"},{"bike_id":"f6e67167-3686-4cae-82da-4610049996dc","system_id":"levelo_inurba_marseille","lat":43.26919,"lon":5.38532,"is_reserved":false,"is_disabled":false,"rental_uris":{"android":"levelo://app?vid=f6e67167-3686-4cae-82da-4610049996dc","ios":"levelo://app?vid=f6e67167-3686-4cae-82da-4610049996dc"},"vehicle_type_id":"4","last_reported":1752707451,"current_range_meters":16800,"station_id":"","pricing_plan_id":"cebpf4jnsgd1na2vs0mg"},{"bike_id":"045a641b-5c1f-49de-960c-1fbe47651d2b","system_id":"levelo_inurba_marseille","lat":43.29288,"lon":5.40158,"is_reserved":false,"is_disabled":false,"rental_uris":{"android":"levelo://app?vid=045a641b-5c1f-49de-960c-1fbe47651d2b","ios":"levelo://app?vid=045a641b-5c1f-49de-960c-1fbe47651d2b"},"vehicle_type_id":"4","last_reported":1752707451,"current_range_meters":16800,"station_id":"ce4bh312rcd13ifvqdk0","pricing_plan_id":"cebpf4jnsgd1na2vs0mg"},{"bike_id":"63fde6c3-34cc-419e-8e4c-e43aefcc4d93","system_id":"levelo_inurba_marseille","lat":43.2681,"lon":5.40272,"is_reserved":false,"is_disabled":false,"rental_uris":{"android":"levelo://app?vid=63fde6c3-34cc-419e-8e4c-e43aefcc4d93","ios":"levelo://app?vid=63fde6c3-34cc-419e-8e4c-e43aefcc4d93"},"vehicle_type_id":"4","last_reported":1752707451,"current_range_meters":16800,"station_id":"ce501612rcd8frsf0b60","pricing_plan_id":"cebpf4jnsgd1na2vs0mg"},{"bike_id":"c5b90204-3ee7-4663-ba14-96a5ff04e472","system_id":"levelo_inurba_marseille","lat":43.30792,"lon":5.38143,"is_reserved":false,"is_disabled":false,"rental_uris":{"android":"levelo://app?vid=c5b90204-3ee7-4663-ba14-96a5ff04e472","ios":"levelo://app?vid=c5b90204-3ee7-4663-ba14-96a5ff04e472"},"vehicle_type_id":"4","last_reported":1752707451,"current_range_meters":16800,"station_id":"ce4bgt12rcd13ifvqce0","pricing_plan_id":"cebpf4jnsgd1na2vs0mg"},{"bike_id":"1f3217ea-6067-415e-b694-33f482c0b371","system_id":"levelo_inurba_marseille","lat":43.3014,"lon":5.39861,"is_reserved":false,"is_disabled":false,"rental_uris":{"android":"levelo://app?vid=1f3217ea-6067-415e-b694-33f482c0b371","ios":"levelo://app?vid=1f3217ea-6067-415e-b694-33f482c0b371"},"vehicle_type_id":"4","last_reported":1752707451,"current_range_meters":16800,"station_id":"ce4bh0h2rcd13ifvqd40","pricing_plan_id":"cebpf4jnsgd1na2vs0mg"},{"bike_id":"ce2ab0d3-f679-4009-b9f7-e2f36d6bbb1d","system_id":"levelo_inurba_marseille","lat":43.33619,"lon":5.40984,"is_reserved":false,"is_disabled":false,"rental_uris":{"android":"levelo://app?vid=ce2ab0d3-f679-4009-b9f7-e2f36d6bbb1d","ios":"levelo://app?vid=ce2ab0d3-f679-4009-b9f7-e2f36d6bbb1d"},"vehicle_type_id":"4","last_reported":1752707451,"current_range_meters":17200,"station_id":"ce4bhqh2rcd13ifvqhmg","pricing_plan_id":"cebpf4jnsgd1na2vs0mg"},{"bike_id":"1a44976a-d3a3-427f-b2b1-503ea0e67dfa","system_id":"levelo_inurba_marseille","lat":43.30142,"lon":5.38781,"is_reserved":false,"is_disabled":false,"rental_uris":{"android":"levelo://app?vid=1a44976a-d3a3-427f-b2b1-503ea0e67dfa","ios":"levelo://app?vid=1a44976a-d3a3-427f-b2b1-503ea0e67dfa"},"vehicle_type_id":"4","last_reported":1752707451,"current_range_meters":17200,"station_id":"ce4bghh2rcd13ifvqb60","pricing_plan_id":"cebpf4jnsgd1na2vs0mg"},{"bike_id":"776a57f2-0b79-4f37-b367-4ddbc5cff113","system_id":"levelo_inurba_marseille","lat":43.30318,"lon":5.40444,"is_reserved":false,"is_disabled":false,"rental_uris":{"android":"levelo://app?vid=776a57f2-0b79-4f37-b367-4ddbc5cff113","ios":"levelo://app?vid=776a57f2-0b79-4f37-b367-4ddbc5cff113"},"vehicle_type_id":"4","last_reported":1752707451,"current_range_meters":17200,"station_id":"ce4bh012rcd13ifvqd10","pricing_plan_id":"cebpf4jnsgd1na2vs0mg"},{"bike_id":"2c530ba2-e2e5-4965-9a28-e0cbd9937b0c","system_id":"levelo_inurba_marseille","lat":43.292304,"lon":5.360492,"is_reserved":false,"is_disabled":true,"rental_uris":{"android":"levelo://app?vid=2c530ba2-e2e5-4965-9a28-e0cbd9937b0c","ios":"levelo://app?vid=2c530ba2-e2e5-4965-9a28-e0cbd9937b0c"},"vehicle_type_id":"4","last_reported":1752707451,"current_range_meters":17200,"station_id":"","pricing_plan_id":"cebpf4jnsgd1na2vs0mg"},{"bike_id":"6fe460e7-d585-4ded-9df4-8fb5354e13b2","system_id":"levelo_inurba_marseille","lat":43.27068,"lon":5.40262,"is_reserved":false,"is_disabled":false,"rental_uris":{"android":"levelo://app?vid=6fe460e7-d585-4ded-9df4-8fb5354e13b2","ios":"levelo://app?vid=6fe460e7-d585-4ded-9df4-8fb5354e13b2"},"vehicle_type_id":"4","last_reported":1752707451,"current_range_meters":17200,"station_id":"ce4bhk92rcd13ifvqgc0","pricing_plan_id":"cebpf4jnsgd1na2vs0mg"},{"bike_id":"557a352a-658c-4b7e-afa9-2e6600a2d9f9","system_id":"levelo_inurba_marseille","lat":43.2872,"lon":5.37382,"is_reserved":false,"is_disabled":false,"rental_uris":{"android":"levelo://app?vid=557a352a-658c-4b7e-afa9-2e6600a2d9f9","ios":"levelo://app?vid=557a352a-658c-4b7e-afa9-2e6600a2d9f9"},"vehicle_type_id":"4","last_reported":1752707451,"current_range_meters":17200,"station_id":"ce4bh3p2rcd13ifvqdq0","pricing_plan_id":"cebpf4jnsgd1na2vs0mg"},{"bike_id":"8716a6dc-edc9-4ce8-b2db-da4e68c247be","system_id":"levelo_inurba_marseille","lat":43.29515,"lon":5.38555,"is_reserved":false,"is_disabled":true,"rental_uris":{"android":"levelo://app?vid=8716a6dc-edc9-4ce8-b2db-da4e68c247be","ios":"levelo://app?vid=8716a6dc-edc9-4ce8-b2db-da4e68c247be"},"vehicle_type_id":"4","last_reported":1752707451,"current_range_meters":17600,"station_id":"ce4bgih2rcd13ifvqba0","pricing_plan_id":"cebpf4jnsgd1na2vs0mg"},{"bike_id":"1a1de22c-864f-4087-990e-227151d55abc","system_id":"levelo_inurba_marseille","lat":43.212039,"lon":5.350687,"is_reserved":false,"is_disabled":false,"rental_uris":{"android":"levelo://app?vid=1a1de22c-864f-4087-990e-227151d55abc","ios":"levelo://app?vid=1a1de22c-864f-4087-990e-227151d55abc"},"vehicle_type_id":"4","last_reported":1752707451,"current_range_meters":17600,"station_id":"st_cvj6sg6p6f1abm77japg","pricing_plan_id":"cebpf4jnsgd1na2vs0mg"},{"bike_id":"b65c619b-29c7-4d21-a9d0-8b8bab20df65","system_id":"levelo_inurba_marseille","lat":43.267947,"lon":5.394137,"is_reserved":false,"is_disabled":false,"rental_uris":{"android":"levelo://app?vid=b65c619b-29c7-4d21-a9d0-8b8bab20df65","ios":"levelo://app?vid=b65c619b-29c7-4d21-a9d0-8b8bab20df65"},"vehicle_type_id":"4","last_reported":1752707451,"current_range_meters":17600,"station_id":"ce4bhh12rcd13ifvqfg0","pricing_plan_id":"cebpf4jnsgd1na2vs0mg"},{"bike_id":"855ff8f9-641c-41af-8e00-5d71e1a04e0f","system_id":"levelo_inurba_marseille","lat":43.22505,"lon":5.3478,"is_reserved":false,"is_disabled":false,"rental_uris":{"android":"levelo://app?vid=855ff8f9-641c-41af-8e00-5d71e1a04e0f","ios":"levelo://app?vid=855ff8f9-641c-41af-8e00-5d71e1a04e0f"},"vehicle_type_id":"4","last_reported":1752707451,"current_range_meters":17600,"station_id":"st_cvj5dfep6f1abm77gieg","pricing_plan_id":"cebpf4jnsgd1na2vs0mg"},{"bike_id":"4af08ad0-9ab8-4071-9476-24a67a28b0ff","system_id":"levelo_inurba_marseille","lat":43.30318,"lon":5.40445,"is_reserved":false,"is_disabled":false,"rental_uris":{"android":"levelo://app?vid=4af08ad0-9ab8-4071-9476-24a67a28b0ff","ios":"levelo://app?vid=4af08ad0-9ab8-4071-9476-24a67a28b0ff"},"vehicle_type_id":"4","last_reported":1752707451,"current_range_meters":17600,"station_id":"ce4bh012rcd13ifvqd10","pricing_plan_id":"cebpf4jnsgd1na2vs0mg"},{"bike_id":"012332f9-a776-43c4-9db3-01b19351c5f0","system_id":"levelo_inurba_marseille","lat":43.278219,"lon":5.407049,"is_reserved":false,"is_disabled":false,"rental_uris":{"android":"levelo://app?vid=012332f9-a776-43c4-9db3-01b19351c5f0","ios":"levelo://app?vid=012332f9-a776-43c4-9db3-01b19351c5f0"},"vehicle_type_id":"4","last_reported":1752707451,"current_range_meters":17600,"station_id":"ce4bhnh2rcd13ifvqgtg","pricing_plan_id":"cebpf4jnsgd1na2vs0mg"},{"bike_id":"2ac93549-5c94-4228-8eea-782a21384d10","system_id":"levelo_inurba_marseille","lat":43.29634,"lon":5.37793,"is_reserved":false,"is_disabled":false,"rental_uris":{"android":"levelo://app?vid=2ac93549-5c94-4228-8eea-782a21384d10","ios":"levelo://app?vid=2ac93549-5c94-4228-8eea-782a21384d10"},"vehicle_type_id":"4","last_reported":1752707451,"current_range_meters":17600,"station_id":"","pricing_plan_id":"cebpf4jnsgd1na2vs0mg"},{"bike_id":"a0e236bb-9e17-4fdf-a862-0124c29d4894","system_id":"levelo_inurba_marseille","lat":43.30156,"lon":5.39837,"is_reserved":false,"is_disabled":false,"rental_uris":{"android":"levelo://app?vid=a0e236bb-9e17-4fdf-a862-0124c29d4894","ios":"levelo://app?vid=a0e236bb-9e17-4fdf-a862-0124c29d4894"},"vehicle_type_id":"4","last_reported":1752707451,"current_range_meters":17200,"station_id":"ce4bh0h2rcd13ifvqd40","pricing_plan_id":"cebpf4jnsgd1na2vs0mg"},{"bike_id":"e11b2053-6ee8-4366-91f1-0bdc5412513d","system_id":"levelo_inurba_marseille","lat":43.27503,"lon":5.42451,"is_reserved":false,"is_disabled":false,"rental_uris":{"android":"levelo://app?vid=e11b2053-6ee8-4366-91f1-0bdc5412513d","ios":"levelo://app?vid=e11b2053-6ee8-4366-91f1-0bdc5412513d"},"vehicle_type_id":"4","last_reported":1752707451,"current_range_meters":17600,"station_id":"ce4bhn92rcd13ifvqgrg","pricing_plan_id":"cebpf4jnsgd1na2vs0mg"},{"bike_id":"6a86f8c6-b2e6-40d2-ae1f-9d6e8e9b58a7","system_id":"levelo_inurba_marseille","lat":43.24081,"lon":5.37755,"is_reserved":false,"is_disabled":false,"rental_uris":{"android":"levelo://app?vid=6a86f8c6-b2e6-40d2-ae1f-9d6e8e9b58a7","ios":"levelo://app?vid=6a86f8c6-b2e6-40d2-ae1f-9d6e8e9b58a7"},"vehicle_type_id":"4","last_reported":1752707451,"current_range_meters":19200,"station_id":"ce4bhnp2rcd13ifvqgvg","pricing_plan_id":"cebpf4jnsgd1na2vs0mg"},{"bike_id":"2e52c340-5a15-427d-9501-98b544c14876","system_id":"levelo_inurba_marseille","lat":43.29553,"lon":5.39965,"is_reserved":false,"is_disabled":true,"rental_uris":{"android":"levelo://app?vid=2e52c340-5a15-427d-9501-98b544c14876","ios":"levelo://app?vid=2e52c340-5a15-427d-9501-98b544c14876"},"vehicle_type_id":"4","last_reported":1752707451,"current_range_meters":18000,"station_id":"ce4bh312rcd13ifvqdj0","pricing_plan_id":"cebpf4jnsgd1na2vs0mg"},{"bike_id":"56bd0bc1-2c43-4328-bdee-89f0a6f41364","system_id":"levelo_inurba_marseille","lat":43.30325,"lon":5.36895,"is_reserved":false,"is_disabled":false,"rental_uris":{"android":"levelo://app?vid=56bd0bc1-2c43-4328-bdee-89f0a6f41364","ios":"levelo://app?vid=56bd0bc1-2c43-4328-bdee-89f0a6f41364"},"vehicle_type_id":"4","last_reported":1752707451,"current_range_meters":18000,"station_id":"ce4bgqh2rcd13ifvqc5g","pricing_plan_id":"cebpf4jnsgd1na2vs0mg"},{"bike_id":"da891840-0cec-4ccc-961c-48903736c6fa","system_id":"levelo_inurba_marseille","lat":43.31139,"lon":5.37692,"is_reserved":false,"is_disabled":false,"rental_uris":{"android":"levelo://app?vid=da891840-0cec-4ccc-961c-48903736c6fa","ios":"levelo://app?vid=da891840-0cec-4ccc-961c-48903736c6fa"},"vehicle_type_id":"4","last_reported":1752707451,"current_range_meters":18000,"station_id":"","pricing_plan_id":"cebpf4jnsgd1na2vs0mg"},{"bike_id":"1dee3045-62aa-4e3c-8e0e-cd35af9324b2","system_id":"levelo_inurba_marseille","lat":43.2301,"lon":5.35631,"is_reserved":false,"is_disabled":false,"rental_uris":{"android":"levelo://app?vid=1dee3045-62aa-4e3c-8e0e-cd35af9324b2","ios":"levelo://app?vid=1dee3045-62aa-4e3c-8e0e-cd35af9324b2"},"vehicle_type_id":"4","last_reported":1752707451,"current_range_meters":18000,"station_id":"","pricing_plan_id":"cebpf4jnsgd1na2vs0mg"},{"bike_id":"4b00420d-392a-49f6-b4fd-1985dc76e44e","system_id":"levelo_inurba_marseille","lat":43.31276,"lon":5.40173,"is_reserved":false,"is_disabled":false,"rental_uris":{"android":"levelo://app?vid=4b00420d-392a-49f6-b4fd-1985dc76e44e","ios":"levelo://app?vid=4b00420d-392a-49f6-b4fd-1985dc76e44e"},"vehicle_type_id":"4","last_reported":1752707451,"current_range_meters":18000,"station_id":"ce4bh092rcd13ifvqd30","pricing_plan_id":"cebpf4jnsgd1na2vs0mg"},{"bike_id":"e02bf6aa-747e-493c-b6d2-76965ea485ef","system_id":"levelo_inurba_marseille","lat":43.295723,"lon":5.375196,"is_reserved":false,"is_disabled":false,"rental_uris":{"android":"levelo://app?vid=e02bf6aa-747e-493c-b6d2-76965ea485ef","ios":"levelo://app?vid=e02bf6aa-747e-493c-b6d2-76965ea485ef"},"vehicle_type_id":"4","last_reported":1752707451,"current_range_meters":18000,"station_id":"","pricing_plan_id":"cebpf4jnsgd1na2vs0mg"},{"bike_id":"1af876d9-6e0a-45cc-bed9-deae0b87ca9c","system_id":"levelo_inurba_marseille","lat":43.211933,"lon":5.350722,"is_reserved":false,"is_disabled":false,"rental_uris":{"android":"levelo://app?vid=1af876d9-6e0a-45cc-bed9-deae0b87ca9c","ios":"levelo://app?vid=1af876d9-6e0a-45cc-bed9-deae0b87ca9c"},"vehicle_type_id":"4","last_reported":1752707451,"current_range_meters":18000,"station_id":"st_cvj6sg6p6f1abm77japg","pricing_plan_id":"cebpf4jnsgd1na2vs0mg"},{"bike_id":"582d5e63-4946-44ff-8da5-cdf3e52be7b6","system_id":"levelo_inurba_marseille","lat":43.27029,"lon":5.40211,"is_reserved":false,"is_disabled":false,"rental_uris":{"android":"levelo://app?vid=582d5e63-4946-44ff-8da5-cdf3e52be7b6","ios":"levelo://app?vid=582d5e63-4946-44ff-8da5-cdf3e52be7b6"},"vehicle_type_id":"4","last_reported":1752707451,"current_range_meters":18000,"station_id":"ce4bhk92rcd13ifvqgc0","pricing_plan_id":"cebpf4jnsgd1na2vs0mg"},{"bike_id":"531dca68-8617-41b0-a6cd-abffc94e1d45","system_id":"levelo_inurba_marseille","lat":43.31242,"lon":5.3733,"is_reserved":false,"is_disabled":false,"rental_uris":{"android":"levelo://app?vid=531dca68-8617-41b0-a6cd-abffc94e1d45","ios":"levelo://app?vid=531dca68-8617-41b0-a6cd-abffc94e1d45"},"vehicle_type_id":"4","last_reported":1752707451,"current_range_meters":18000,"station_id":"","pricing_plan_id":"cebpf4jnsgd1na2vs0mg"},{"bike_id":"256374d2-a2ac-474f-9102-2ba00255989e","system_id":"levelo_inurba_marseille","lat":43.3107,"lon":5.38348,"is_reserved":false,"is_disabled":false,"rental_uris":{"android":"levelo://app?vid=256374d2-a2ac-474f-9102-2ba00255989e","ios":"levelo://app?vid=256374d2-a2ac-474f-9102-2ba00255989e"},"vehicle_type_id":"4","last_reported":1752707451,"current_range_meters":18000,"station_id":"ce4bgv92rcd13ifvqcr0","pricing_plan_id":"cebpf4jnsgd1na2vs0mg"},{"bike_id":"ed95837f-07e7-4a7f-a555-8c7f94bcecc6","system_id":"levelo_inurba_marseille","lat":43.28492,"lon":5.39068,"is_reserved":false,"is_disabled":false,"rental_uris":{"android":"levelo://app?vid=ed95837f-07e7-4a7f-a555-8c7f94bcecc6","ios":"levelo://app?vid=ed95837f-07e7-4a7f-a555-8c7f94bcecc6"},"vehicle_type_id":"4","last_reported":1752707451,"current_range_meters":18000,"station_id":"","pricing_plan_id":"cebpf4jnsgd1na2vs0mg"},{"bike_id":"beb81361-a116-433a-8572-47e6b22ac6e8","system_id":"levelo_inurba_marseille","lat":43.289403,"lon":5.396313,"is_reserved":false,"is_disabled":false,"rental_uris":{"android":"levelo://app?vid=beb81361-a116-433a-8572-47e6b22ac6e8","ios":"levelo://app?vid=beb81361-a116-433a-8572-47e6b22ac6e8"},"vehicle_type_id":"4","last_reported":1752707451,"current_range_meters":18800,"station_id":"ce4bh3h2rcd13ifvqdn0","pricing_plan_id":"cebpf4jnsgd1na2vs0mg"},{"bike_id":"370b5495-4112-49cd-80ba-c31203562c50","system_id":"levelo_inurba_marseille","lat":43.30329,"lon":5.37925,"is_reserved":false,"is_disabled":false,"rental_uris":{"android":"levelo://app?vid=370b5495-4112-49cd-80ba-c31203562c50","ios":"levelo://app?vid=370b5495-4112-49cd-80ba-c31203562c50"},"vehicle_type_id":"4","last_reported":1752707451,"current_range_meters":18800,"station_id":"","pricing_plan_id":"cebpf4jnsgd1na2vs0mg"},{"bike_id":"a092d05c-8017-44f5-ba8a-35792463d6a3","system_id":"levelo_inurba_marseille","lat":43.22512,"lon":5.34782,"is_reserved":false,"is_disabled":false,"rental_uris":{"android":"levelo://app?vid=a092d05c-8017-44f5-ba8a-35792463d6a3","ios":"levelo://app?vid=a092d05c-8017-44f5-ba8a-35792463d6a3"},"vehicle_type_id":"4","last_reported":1752707451,"current_range_meters":18800,"station_id":"st_cvj5dfep6f1abm77gieg","pricing_plan_id":"cebpf4jnsgd1na2vs0mg"},{"bike_id":"da45370f-0407-41fe-9163-4408a69b14d1","system_id":"levelo_inurba_marseille","lat":43.30917,"lon":5.36841,"is_reserved":false,"is_disabled":false,"rental_uris":{"android":"levelo://app?vid=da45370f-0407-41fe-9163-4408a69b14d1","ios":"levelo://app?vid=da45370f-0407-41fe-9163-4408a69b14d1"},"vehicle_type_id":"4","last_reported":1752707451,"current_range_meters":18000,"station_id":"ce4bgn92rcd13ifvqbvg","pricing_plan_id":"cebpf4jnsgd1na2vs0mg"},{"bike_id":"e5ca7f54-c6f2-4e02-b5a0-dca8136801eb","system_id":"levelo_inurba_marseille","lat":43.306,"lon":5.39359,"is_reserved":false,"is_disabled":false,"rental_uris":{"android":"levelo://app?vid=e5ca7f54-c6f2-4e02-b5a0-dca8136801eb","ios":"levelo://app?vid=e5ca7f54-c6f2-4e02-b5a0-dca8136801eb"},"vehicle_type_id":"4","last_reported":1752707451,"current_range_meters":18800,"station_id":"ce4bh0p2rcd13ifvqd80","pricing_plan_id":"cebpf4jnsgd1na2vs0mg"},{"bike_id":"2c432d83-8f2b-42fd-ad15-ae3d60f37c4a","system_id":"levelo_inurba_marseille","lat":43.25855,"lon":5.39908,"is_reserved":false,"is_disabled":false,"rental_uris":{"android":"levelo://app?vid=2c432d83-8f2b-42fd-ad15-ae3d60f37c4a","ios":"levelo://app?vid=2c432d83-8f2b-42fd-ad15-ae3d60f37c4a"},"vehicle_type_id":"4","last_reported":1752707451,"current_range_meters":18800,"station_id":"ce4bhl92rcd13ifvqghg","pricing_plan_id":"cebpf4jnsgd1na2vs0mg"},{"bike_id":"409515f8-3415-426d-b0c7-61f840c7c187","system_id":"levelo_inurba_marseille","lat":43.22479,"lon":5.34805,"is_reserved":false,"is_disabled":false,"rental_uris":{"android":"levelo://app?vid=409515f8-3415-426d-b0c7-61f840c7c187","ios":"levelo://app?vid=409515f8-3415-426d-b0c7-61f840c7c187"},"vehicle_type_id":"4","last_reported":1752707451,"current_range_meters":18800,"station_id":"st_cvj5dfep6f1abm77gieg","pricing_plan_id":"cebpf4jnsgd1na2vs0mg"},{"bike_id":"81f88721-00d0-431c-83bf-446e11578408","system_id":"levelo_inurba_marseille","lat":43.22498,"lon":5.34777,"is_reserved":false,"is_disabled":false,"rental_uris":{"android":"levelo://app?vid=81f88721-00d0-431c-83bf-446e11578408","ios":"levelo://app?vid=81f88721-00d0-431c-83bf-446e11578408"},"vehicle_type_id":"4","last_reported":1752707451,"current_range_meters":18800,"station_id":"st_cvj5dfep6f1abm77gieg","pricing_plan_id":"cebpf4jnsgd1na2vs0mg"},{"bike_id":"8a46be9b-55f2-435a-ad73-e8aded0eaf4d","system_id":"levelo_inurba_marseille","lat":43.2695,"lon":5.40286,"is_reserved":false,"is_disabled":false,"rental_uris":{"android":"levelo://app?vid=8a46be9b-55f2-435a-ad73-e8aded0eaf4d","ios":"levelo://app?vid=8a46be9b-55f2-435a-ad73-e8aded0eaf4d"},"vehicle_type_id":"4","last_reported":1752707451,"current_range_meters":19200,"station_id":"cjm6bp8fraef2m0cb0m0","pricing_plan_id":"cebpf4jnsgd1na2vs0mg"},{"bike_id":"1c2c6e11-8bd9-4c44-9620-2e9003cf5a77","system_id":"levelo_inurba_marseille","lat":43.28838,"lon":5.3932,"is_reserved":false,"is_disabled":false,"rental_uris":{"android":"levelo://app?vid=1c2c6e11-8bd9-4c44-9620-2e9003cf5a77","ios":"levelo://app?vid=1c2c6e11-8bd9-4c44-9620-2e9003cf5a77"},"vehicle_type_id":"4","last_reported":1752707451,"current_range_meters":19200,"station_id":"ce4bh2p2rcd13ifvqdi0","pricing_plan_id":"cebpf4jnsgd1na2vs0mg"},{"bike_id":"3d81bf7d-01ed-4b33-9451-cbb539dac082","system_id":"levelo_inurba_marseille","lat":43.3149,"lon":5.37304,"is_reserved":false,"is_disabled":false,"rental_uris":{"android":"levelo://app?vid=3d81bf7d-01ed-4b33-9451-cbb539dac082","ios":"levelo://app?vid=3d81bf7d-01ed-4b33-9451-cbb539dac082"},"vehicle_type_id":"4","last_reported":1752707451,"current_range_meters":19200,"station_id":"ce4bgt12rcd13ifvqcd0","pricing_plan_id":"cebpf4jnsgd1na2vs0mg"},{"bike_id":"66af56f2-1df2-4ff8-9d74-213cd937e3b4","system_id":"levelo_inurba_marseille","lat":43.287062,"lon":5.373956,"is_reserved":false,"is_disabled":true,"rental_uris":{"android":"levelo://app?vid=66af56f2-1df2-4ff8-9d74-213cd937e3b4","ios":"levelo://app?vid=66af56f2-1df2-4ff8-9d74-213cd937e3b4"},"vehicle_type_id":"4","last_reported":1752707451,"current_range_meters":19200,"station_id":"ce4bh3p2rcd13ifvqdq0","pricing_plan_id":"cebpf4jnsgd1na2vs0mg"},{"bike_id":"3262e6fa-fc0e-4c84-8651-e2a249995dbd","system_id":"levelo_inurba_marseille","lat":43.32671,"lon":5.40992,"is_reserved":false,"is_disabled":false,"rental_uris":{"android":"levelo://app?vid=3262e6fa-fc0e-4c84-8651-e2a249995dbd","ios":"levelo://app?vid=3262e6fa-fc0e-4c84-8651-e2a249995dbd"},"vehicle_type_id":"4","last_reported":1752707451,"current_range_meters":19200,"station_id":"ce4bhpp2rcd13ifvqhgg","pricing_plan_id":"cebpf4jnsgd1na2vs0mg"},{"bike_id":"c81a46e3-e04e-4311-b645-a786dd2289e9","system_id":"levelo_inurba_marseille","lat":43.29342,"lon":5.37868,"is_reserved":false,"is_disabled":true,"rental_uris":{"android":"levelo://app?vid=c81a46e3-e04e-4311-b645-a786dd2289e9","ios":"levelo://app?vid=c81a46e3-e04e-4311-b645-a786dd2289e9"},"vehicle_type_id":"4","last_reported":1752707451,"current_range_meters":19200,"station_id":"ce4bgjh2rcd13ifvqbf0","pricing_plan_id":"cebpf4jnsgd1na2vs0mg"},{"bike_id":"f2f1e358-671c-43dc-83ac-76eb27113194","system_id":"levelo_inurba_marseille","lat":43.304276,"lon":5.412832,"is_reserved":false,"is_disabled":true,"rental_uris":{"android":"levelo://app?vid=f2f1e358-671c-43dc-83ac-76eb27113194","ios":"levelo://app?vid=f2f1e358-671c-43dc-83ac-76eb27113194"},"vehicle_type_id":"4","last_reported":1752707451,"current_range_meters":19200,"station_id":"ce4bhop2rcd13ifvqh8g","pricing_plan_id":"cebpf4jnsgd1na2vs0mg"},{"bike_id":"9cbf250f-5aee-4543-af66-2ea7e229f002","system_id":"levelo_inurba_marseille","lat":43.30809,"lon":5.38156,"is_reserved":false,"is_disabled":false,"rental_uris":{"android":"levelo://app?vid=9cbf250f-5aee-4543-af66-2ea7e229f002","ios":"levelo://app?vid=9cbf250f-5aee-4543-af66-2ea7e229f002"},"vehicle_type_id":"4","last_reported":1752707451,"current_range_meters":19200,"station_id":"ce4bgt12rcd13ifvqce0","pricing_plan_id":"cebpf4jnsgd1na2vs0mg"},{"bike_id":"83f9da7a-ab8f-4fa7-bdd6-6cbe3c88b024","system_id":"levelo_inurba_marseille","lat":43.25871,"lon":5.39893,"is_reserved":false,"is_disabled":false,"rental_uris":{"android":"levelo://app?vid=83f9da7a-ab8f-4fa7-bdd6-6cbe3c88b024","ios":"levelo://app?vid=83f9da7a-ab8f-4fa7-bdd6-6cbe3c88b024"},"vehicle_type_id":"4","last_reported":1752707451,"current_range_meters":19200,"station_id":"ce4bhl92rcd13ifvqghg","pricing_plan_id":"cebpf4jnsgd1na2vs0mg"},{"bike_id":"d840ce09-7d7e-47a6-939f-d5bc435d4c05","system_id":"levelo_inurba_marseille","lat":43.24544,"lon":5.39532,"is_reserved":false,"is_disabled":false,"rental_uris":{"android":"levelo://app?vid=d840ce09-7d7e-47a6-939f-d5bc435d4c05","ios":"levelo://app?vid=d840ce09-7d7e-47a6-939f-d5bc435d4c05"},"vehicle_type_id":"4","last_reported":1752707451,"current_range_meters":19200,"station_id":"ce4bhlp2rcd13ifvqgjg","pricing_plan_id":"cebpf4jnsgd1na2vs0mg"},{"bike_id":"c156771e-34f5-424c-9e92-42fc088ddf85","system_id":"levelo_inurba_marseille","lat":43.28736,"lon":5.36087,"is_reserved":false,"is_disabled":false,"rental_uris":{"android":"levelo://app?vid=c156771e-34f5-424c-9e92-42fc088ddf85","ios":"levelo://app?vid=c156771e-34f5-424c-9e92-42fc088ddf85"},"vehicle_type_id":"4","last_reported":1752707451,"current_range_meters":19200,"station_id":"cki0cbj6b192h4jlfktg","pricing_plan_id":"cebpf4jnsgd1na2vs0mg"},{"bike_id":"7c4fb36d-7720-43ad-8884-8b0f3251044e","system_id":"levelo_inurba_marseille","lat":43.2873,"lon":5.36083,"is_reserved":false,"is_disabled":false,"rental_uris":{"android":"levelo://app?vid=7c4fb36d-7720-43ad-8884-8b0f3251044e","ios":"levelo://app?vid=7c4fb36d-7720-43ad-8884-8b0f3251044e"},"vehicle_type_id":"4","last_reported":1752707451,"current_range_meters":19200,"station_id":"cki0cbj6b192h4jlfktg","pricing_plan_id":"cebpf4jnsgd1na2vs0mg"},{"bike_id":"2d7dbe90-c978-45ee-a030-6cf39e68fd0c","system_id":"levelo_inurba_marseille","lat":43.31279,"lon":5.40166,"is_reserved":false,"is_disabled":false,"rental_uris":{"android":"levelo://app?vid=2d7dbe90-c978-45ee-a030-6cf39e68fd0c","ios":"levelo://app?vid=2d7dbe90-c978-45ee-a030-6cf39e68fd0c"},"vehicle_type_id":"4","last_reported":1752707451,"current_range_meters":18800,"station_id":"ce4bh092rcd13ifvqd30","pricing_plan_id":"cebpf4jnsgd1na2vs0mg"},