{"last_updated":1774401338,"ttl":60,"version":"2.2","data":{"bikes":[{"bike_id":"95af4c9e-a5dd-4e09-b63a-5b344598613e","system_id":"levelo_inurba_marseille","lat":43.22938,"lon":5.35351,"is_reserved":false,"is_disabled":false,"rental_uris":{"android":"levelo://app?vid=95af4c9e-a5dd-4e09-b63a-5b344598613e","ios":"levelo://app?vid=95af4c9e-a5dd-4e09-b63a-5b344598613e"},"vehicle_type_id":"4","last_reported":1774401338,"current_range_meters":2800,"station_id":"cpo3532slgdg3j2ikp40","pricing_plan_id":"cebpf4jnsgd1na2vs0mg"},{"bike_id":"d1123b66-6259-4044-ad22-69c451ed68b7","system_id":"levelo_inurba_marseille","lat":43.29217,"lon":5.35759,"is_reserved":false,"is_disabled":false,"rental_uris":{"android":"levelo://app?vid=d1123b66-6259-4044-ad22-69c451ed68b7","ios":"levelo://app?vid=d1123b66-6259-4044-ad22-69c451ed68b7"},"vehicle_type_id":"4","last_reported":1774401338,"current_range_meters":2800,"station_id":"ce4bhb12rcd13ifvqel0","pricing_plan_id":"cebpf4jnsgd1na2vs0mg"},{"bike_id":"451c8ab7-cd8a-4d95-a817-027eec8c0510","system_id":"levelo_inurba_marseille","lat":43.28445,"lon":5.35838,"is_reserved":false,"is_disabled":false,"rental_uris":{"android":"levelo://app?vid=451c8ab7-cd8a-4d95-a817-027eec8c0510","ios":"levelo://app?vid=451c8ab7-cd8a-4d95-a817-027eec8c0510"},"vehicle_type_id":"4","last_reported":1774401338,"current_range_meters":2800,"station_id":"ce4bhah2rcd13ifvqei0","pricing_plan_id":"cebpf4jnsgd1na2vs0mg"},{"bike_id":"c44ab6dd-76f6-476a-af22-468b2fd29f34","system_id":"levelo_inurba_marseille","lat":43.31278,"lon":5.40181,"is_reserved":false,"is_disabled":false,"rental_uris":{"android":"levelo://app?vid=c44ab6dd-76f6-476a-af22-468b2fd29f34","ios":"levelo://app?vid=c44ab6dd-76f6-476a-af22-468b2fd29f34"},"vehicle_type_id":"4","last_reported":1774401338,"current_range_meters":2800,"station_id":"ce4bh092rcd13ifvqd30","pricing_plan_id":"cebpf4jnsgd1na2vs0mg"},{"bike_id":"e032ab58-6cd1-4dde-af1f-11967a9af0ed","system_id":"levelo_inurba_marseille","lat":43.24656,"lon":5.38162,"is_reserved":false,"is_disabled":false,"rental_uris":{"android":"levelo://app?vid=e032ab58-6cd1-4dde-af1f-11967a9af0ed","ios":"levelo://app?vid=e032ab58-6cd1-4dde-af1f-11967a9af0ed"},"vehicle_type_id":"4","last_reported":1774401338,"current_range_meters":2800,"station_id":"","pricing_plan_id":"cebpf4jnsgd1na2vs0mg"},{"bike_id":"48f06639-b415-4834-b4ad-3ce8cc3a50b3","system_id":"levelo_inurba_marseille","lat":43.30556,"lon":5.39199,"is_reserved":false,"is_disabled":false,"rental_uris":{"android":"levelo://app?vid=48f06639-b415-4834-b4ad-3ce8cc3a50b3","ios":"levelo://app?vid=48f06639-b415-4834-b4ad-3ce8cc3a50b3"},"vehicle_type_id":"4","last_reported":1774401338,"current_range_meters":2800,"station_id":"","pricing_plan_id":"cebpf4jnsgd1na2vs0mg"},{"bike_id":"40906df4-17dd-4d9f-ac1f-0880c5eb117e","system_id":"levelo_inurba_marseille","lat":43.32355,"lon":5.36731,"is_reserved":false,"is_disabled":false,"rental_uris":{"android":"levelo://app?vid=40906df4-17dd-4d9f-ac1f-0880c5eb117e","ios":"levelo://app?vid=40906df4-17dd-4d9f-ac1f-0880c5eb117e"},"vehicle_type_id":"4","last_reported":1774401338,"current_range_meters":3200,"station_id":"ce4bhsh2rcd13ifvqi2g","pricing_plan_id":"cebpf4jnsgd1na2vs0mg"},{"bike_id":"4092e27a-c421-4624-a082-6f6fdcfd1d27","system_id":"levelo_inurba_marseille","lat":43.25874,"lon":5.39913,"is_reserved":false,"is_disabled":false,"rental_uris":{"android":"levelo://app?vid=4092e27a-c421-4624-a082-6f6fdcfd1d27","ios":"levelo://app?vid=4092e27a-c421-4624-a082-6f6fdcfd1d27"},"vehicle_type_id":"4","last_reported":1774401338,"current_range_meters":3200,"station_id":"ce4bhl92rcd13ifvqghg","pricing_plan_id":"cebpf4jnsgd1na2vs0mg"},{"bike_id":"e41c893a-4032-48f3-bf3a-8efcbfe1465c","system_id":"levelo_inurba_marseille","lat":43.25831,"lon":5.39444,"is_reserved":false,"is_disabled":true,"rental_uris":{"android":"levelo://app?vid=e41c893a-4032-48f3-bf3a-8efcbfe1465c","ios":"levelo://app?vid=e41c893a-4032-48f3-bf3a-8efcbfe1465c"},"vehicle_type_id":"4","last_reported":1774401338,"current_range_meters":3200,"station_id":"ce4bhip2rcd13ifvqft0","pricing_plan_id":"cebpf4jnsgd1na2vs0mg"},{"bike_id":"19a6325e-af45-41c2-bbca-14b8a136ed80","system_id":"levelo_inurba_marseille","lat":43.25855,"lon":5.39893,"is_reserved":false,"is_disabled":false,"rental_uris":{"android":"levelo://app?vid=19a6325e-af45-41c2-bbca-14b8a136ed80","ios":"levelo://app?vid=19a6325e-af45-41c2-bbca-14b8a136ed80"},"vehicle_type_id":"4","last_reported":1774401338,"current_range_meters":3200,"station_id":"ce4bhl92rcd13ifvqghg","pricing_plan_id":"cebpf4jnsgd1na2vs0mg"},{"bike_id":"eb7f051c-07f1-41d2-9450-33cd5a984ca1","system_id":"levelo_inurba_marseille","lat":43.23059,"lon":5.35504,"is_reserved":false,"is_disabled":false,"rental_uris":{"android":"levelo://app?vid=eb7f051c-07f1-41d2-9450-33cd5a984ca1","ios":"levelo://app?vid=eb7f051c-07f1-41d2-9450-33cd5a984ca1"},"vehicle_type_id":"4","last_reported":1774401338,"current_range_meters":3200,"station_id":"cpo3342slgdg3j2ifvpg","pricing_plan_id":"cebpf4jnsgd1na2vs0mg"},{"bike_id":"80edcf5d-76f7-4ac8-99bc-6edd05fd6fcc","system_id":"levelo_inurba_marseille","lat":43.2657,"lon":5.3899,"is_reserved":false,"is_disabled":false,"rental_uris":{"android":"levelo://app?vid=80edcf5d-76f7-4ac8-99bc-6edd05fd6fcc","ios":"levelo://app?vid=80edcf5d-76f7-4ac8-99bc-6edd05fd6fcc"},"vehicle_type_id":"4","last_reported":1774401338,"current_range_meters":3200,"station_id":"ce4bhe12rcd13ifvqf30","pricing_plan_id":"cebpf4jnsgd1na2vs0mg"},{"bike_id":"3fd853dd-d705-45b5-aeb3-b2ba2ee56a3f","system_id":"levelo_inurba_marseille","lat":43.3127,"lon":5.40164,"is_reserved":false,"is_disabled":false,"rental_uris":{"android":"levelo://app?vid=3fd853dd-d705-45b5-aeb3-b2ba2ee56a3f","ios":"levelo://app?vid=3fd853dd-d705-45b5-aeb3-b2ba2ee56a3f"},"vehicle_type_id":"4","last_reported":1774401338,"current_range_meters":3200,"station_id":"ce4bh092rcd13ifvqd30","pricing_plan_id":"cebpf4jnsgd1na2vs0mg"},{"bike_id":"946ad4a5-8f2a-4f22-bce2-3dd03b32d653","system_id":"levelo_inurba_marseille","lat":43.30645,"lon":5.40066,"is_reserved":false,"is_disabled":false,"rental_uris":{"android":"levelo://app?vid=946ad4a5-8f2a-4f22-bce2-3dd03b32d653","ios":"levelo://app?vid=946ad4a5-8f2a-4f22-bce2-3dd03b32d653"},"vehicle_type_id":"4","last_reported":1774401338,"current_range_meters":3200,"station_id":"ce4bh112rcd13ifvqda0","pricing_plan_id":"cebpf4jnsgd1na2vs0mg"},{"bike_id":"3e11443c-b472-4fb4-9aaf-e421f962d3f7","system_id":"levelo_inurba_marseille","lat":43.2534,"lon":5.42173,"is_reserved":false,"is_disabled":false,"rental_uris":{"android":"levelo://app?vid=3e11443c-b472-4fb4-9aaf-e421f962d3f7","ios":"levelo://app?vid=3e11443c-b472-4fb4-9aaf-e421f962d3f7"},"vehicle_type_id":"4","last_reported":1774401338,"current_range_meters":3200,"station_id":"st_d2m65c5bi1j21697t3ng","pricing_plan_id":"cebpf4jnsgd1na2vs0mg"},{"bike_id":"d2260517-36eb-498b-95a6-a249410b03cf","system_id":"levelo_inurba_marseille","lat":43.26582,"lon":5.39811,"is_reserved":false,"is_disabled":false,"rental_uris":{"android":"levelo://app?vid=d2260517-36eb-498b-95a6-a249410b03cf","ios":"levelo://app?vid=d2260517-36eb-498b-95a6-a249410b03cf"},"vehicle_type_id":"4","last_reported":1774401338,"current_range_meters":3200,"station_id":"","pricing_plan_id":"cebpf4jnsgd1na2vs0mg"},{"bike_id":"3dea1e53-73bc-4d06-9eeb-c033fbbc09a0","system_id":"levelo_inurba_marseille","lat":43.25087,"lon":5.395243,"is_reserved":false,"is_disabled":false,"rental_uris":{"android":"levelo://app?vid=3dea1e53-73bc-4d06-9eeb-c033fbbc09a0","ios":"levelo://app?vid=3dea1e53-73bc-4d06-9eeb-c033fbbc09a0"},"vehicle_type_id":"4","last_reported":1774401338,"current_range_meters":3200,"station_id":"ce4bhm12rcd13ifvqgkg","pricing_plan_id":"cebpf4jnsgd1na2vs0mg"},{"bike_id":"0ea24090-160f-41c0-8c21-0c211f8ac15f","system_id":"levelo_inurba_marseille","lat":43.30609,"lon":5.37217,"is_reserved":false,"is_disabled":false,"rental_uris":{"android":"levelo://app?vid=0ea24090-160f-41c0-8c21-0c211f8ac15f","ios":"levelo://app?vid=0ea24090-160f-41c0-8c21-0c211f8ac15f"},"vehicle_type_id":"4","last_reported":1774401338,"current_range_meters":3200,"station_id":"ce4bgqh2rcd13ifvqc4g","pricing_plan_id":"cebpf4jnsgd1na2vs0mg"},{"bike_id":"aa4ae7db-6903-4737-a0f4-393c33c4a129","system_id":"levelo_inurba_marseille","lat":43.29803,"lon":5.40397,"is_reserved":false,"is_disabled":false,"rental_uris":{"android":"levelo://app?vid=aa4ae7db-6903-4737-a0f4-393c33c4a129","ios":"levelo://app?vid=aa4ae7db-6903-4737-a0f4-393c33c4a129"},"vehicle_type_id":"4","last_reported":1774401338,"current_range_meters":3200,"station_id":"ce4bh112rcd13ifvqd90","pricing_plan_id":"cebpf4jnsgd1na2vs0mg"},{"bike_id":"763571bb-b88d-45db-9a18-7962f9620cad","system_id":"levelo_inurba_marseille","lat":43.23189,"lon":5.3555,"is_reserved":false,"is_disabled":false,"rental_uris":{"android":"levelo://app?vid=763571bb-b88d-45db-9a18-7962f9620cad","ios":"levelo://app?vid=763571bb-b88d-45db-9a18-7962f9620cad"},"vehicle_type_id":"4","last_reported":1774401338,"current_range_meters":3600,"station_id":"ce4bhu92rcd13ifvqi70","pricing_plan_id":"cebpf4jnsgd1na2vs0mg"},{"bike_id":"edc16db6-0042-4215-9aaf-108e0300da68","system_id":"levelo_inurba_marseille","lat":43.28934,"lon":5.36627,"is_reserved":false,"is_disabled":true,"rental_uris":{"android":"levelo://app?vid=edc16db6-0042-4215-9aaf-108e0300da68","ios":"levelo://app?vid=edc16db6-0042-4215-9aaf-108e0300da68"},"vehicle_type_id":"4","last_reported":1774401338,"current_range_meters":3600,"station_id":"ce4bhap2rcd13ifvqek0","pricing_plan_id":"cebpf4jnsgd1na2vs0mg"},{"bike_id":"a2fabdf4-bd61-4352-82b4-201f5349c59d","system_id":"levelo_inurba_marseille","lat":43.26559,"lon":5.39015,"is_reserved":false,"is_disabled":false,"rental_uris":{"android":"levelo://app?vid=a2fabdf4-bd61-4352-82b4-201f5349c59d","ios":"levelo://app?vid=a2fabdf4-bd61-4352-82b4-201f5349c59d"},"vehicle_type_id":"4","last_reported":1774401338,"current_range_meters":3600,"station_id":"ce4bhe12rcd13ifvqf30","pricing_plan_id":"cebpf4jnsgd1na2vs0mg"},{"bike_id":"fa9fae44-b000-458d-9c17-b5f5f20069ee","system_id":"levelo_inurba_marseille","lat":43.23178,"lon":5.39977,"is_reserved":false,"is_disabled":false,"rental_uris":{"android":"levelo://app?vid=fa9fae44-b000-458d-9c17-b5f5f20069ee","ios":"levelo://app?vid=fa9fae44-b000-458d-9c17-b5f5f20069ee"},"vehicle_type_id":"4","last_reported":1774401338,"current_range_meters":3600,"station_id":"ce4bhn12rcd13ifvqgqg","pricing_plan_id":"cebpf4jnsgd1na2vs0mg"},{"bike_id":"9753bff6-a5c0-48bc-8e60-3457758e17cc","system_id":"levelo_inurba_marseille","lat":43.28351,"lon":5.38106,"is_reserved":false,"is_disabled":false,"rental_uris":{"android":"levelo://app?vid=9753bff6-a5c0-48bc-8e60-3457758e17cc","ios":"levelo://app?vid=9753bff6-a5c0-48bc-8e60-3457758e17cc"},"vehicle_type_id":"4","last_reported":1774401338,"current_range_meters":3600,"station_id":"ce4bh412rcd13ifvqdr0","pricing_plan_id":"cebpf4jnsgd1na2vs0mg"},{"bike_id":"c0339bad-3a71-412f-99d4-15aa57e709e3","system_id":"levelo_inurba_marseille","lat":43.33015,"lon":5.39032,"is_reserved":false,"is_disabled":false,"rental_uris":{"android":"levelo://app?vid=c0339bad-3a71-412f-99d4-15aa57e709e3","ios":"levelo://app?vid=c0339bad-3a71-412f-99d4-15aa57e709e3"},"vehicle_type_id":"4","last_reported":1774401338,"current_range_meters":3600,"station_id":"ce4bhr92rcd13ifvqhrg","pricing_plan_id":"cebpf4jnsgd1na2vs0mg"},{"bike_id":"41667444-ea55-47fd-b61b-f08f920204c1","system_id":"levelo_inurba_marseille","lat":43.30791,"lon":5.38144,"is_reserved":false,"is_disabled":false,"rental_uris":{"android":"levelo://app?vid=41667444-ea55-47fd-b61b-f08f920204c1","ios":"levelo://app?vid=41667444-ea55-47fd-b61b-f08f920204c1"},"vehicle_type_id":"4","last_reported":1774401338,"current_range_meters":3600,"station_id":"ce4bgt12rcd13ifvqce0","pricing_plan_id":"cebpf4jnsgd1na2vs0mg"},{"bike_id":"cbb9ef95-d825-4d1c-b4a0-4b27eec53822","system_id":"levelo_inurba_marseille","lat":43.28661,"lon":5.36344,"is_reserved":false,"is_disabled":false,"rental_uris":{"android":"levelo://app?vid=cbb9ef95-d825-4d1c-b4a0-4b27eec53822","ios":"levelo://app?vid=cbb9ef95-d825-4d1c-b4a0-4b27eec53822"},"vehicle_type_id":"4","last_reported":1774401338,"current_range_meters":3600,"station_id":"ce4bhah2rcd13ifvqej0","pricing_plan_id":"cebpf4jnsgd1na2vs0mg"},{"bike_id":"23ee696a-bf3a-4c0d-8b03-295f60b04e9a","system_id":"levelo_inurba_marseille","lat":43.3094,"lon":5.39059,"is_reserved":false,"is_disabled":false,"rental_uris":{"android":"levelo://app?vid=23ee696a-bf3a-4c0d-8b03-295f60b04e9a","ios":"levelo://app?vid=23ee696a-bf3a-4c0d-8b03-295f60b04e9a"},"vehicle_type_id":"4","last_reported":1774401338,"current_range_meters":3600,"station_id":"ce4bgup2rcd13ifvqco0","pricing_plan_id":"cebpf4jnsgd1na2vs0mg"},{"bike_id":"81c656bd-7c21-4504-a12d-dd282d1b1b7a","system_id":"levelo_inurba_marseille","lat":43.23178,"lon":5.3997,"is_reserved":false,"is_disabled":false,"rental_uris":{"android":"levelo://app?vid=81c656bd-7c21-4504-a12d-dd282d1b1b7a","ios":"levelo://app?vid=81c656bd-7c21-4504-a12d-dd282d1b1b7a"},"vehicle_type_id":"4","last_reported":1774401338,"current_range_meters":3600,"station_id":"ce4bhn12rcd13ifvqgqg","pricing_plan_id":"cebpf4jnsgd1na2vs0mg"},{"bike_id":"6e6161fe-edfa-4833-a177-c1358d249809","system_id":"levelo_inurba_marseille","lat":43.31137,"lon":5.38651,"is_reserved":false,"is_disabled":true,"rental_uris":{"android":"levelo://app?vid=6e6161fe-edfa-4833-a177-c1358d249809","ios":"levelo://app?vid=6e6161fe-edfa-4833-a177-c1358d249809"},"vehicle_type_id":"4","last_reported":1774401338,"current_range_meters":4000,"station_id":"","pricing_plan_id":"cebpf4jnsgd1na2vs0mg"},{"bike_id":"7b6c8f1e-bc5a-4218-9383-b05da73318e0","system_id":"levelo_inurba_marseille","lat":43.32355,"lon":5.36762,"is_reserved":false,"is_disabled":false,"rental_uris":{"android":"levelo://app?vid=7b6c8f1e-bc5a-4218-9383-b05da73318e0","ios":"levelo://app?vid=7b6c8f1e-bc5a-4218-9383-b05da73318e0"},"vehicle_type_id":"4","last_reported":1774401338,"current_range_meters":4000,"station_id":"ce4bhsh2rcd13ifvqi2g","pricing_plan_id":"cebpf4jnsgd1na2vs0mg"},{"bike_id":"ec8327d7-4895-46f5-a733-ffa362873e62","system_id":"levelo_inurba_marseille","lat":43.29513,"lon":5.39404,"is_reserved":false,"is_disabled":false,"rental_uris":{"android":"levelo://app?vid=ec8327d7-4895-46f5-a733-ffa362873e62","ios":"levelo://app?vid=ec8327d7-4895-46f5-a733-ffa362873e62"},"vehicle_type_id":"4","last_reported":1774401338,"current_range_meters":4000,"station_id":"ce4bh292rcd13ifvqdf0","pricing_plan_id":"cebpf4jnsgd1na2vs0mg"},{"bike_id":"29a577df-c925-4ad4-8796-1af1c698b4d5","system_id":"levelo_inurba_marseille","lat":43.27953,"lon":5.41037,"is_reserved":false,"is_disabled":false,"rental_uris":{"android":"levelo://app?vid=29a577df-c925-4ad4-8796-1af1c698b4d5","ios":"levelo://app?vid=29a577df-c925-4ad4-8796-1af1c698b4d5"},"vehicle_type_id":"4","last_reported":1774401338,"current_range_meters":4000,"station_id":"ce4bhnp2rcd13ifvqh0g","pricing_plan_id":"cebpf4jnsgd1na2vs0mg"},{"bike_id":"4db5528c-dcd5-4339-acdf-dcc0af5cef04","system_id":"levelo_inurba_marseille","lat":43.27662,"lon":5.38852,"is_reserved":false,"is_disabled":false,"rental_uris":{"android":"levelo://app?vid=4db5528c-dcd5-4339-acdf-dcc0af5cef04","ios":"levelo://app?vid=4db5528c-dcd5-4339-acdf-dcc0af5cef04"},"vehicle_type_id":"4","last_reported":1774401338,"current_range_meters":4000,"station_id":"ce4bhi12rcd13ifvqfo0","pricing_plan_id":"cebpf4jnsgd1na2vs0mg"},{"bike_id":"4382fefe-9d6a-4e31-b368-6a94fb3585d0","system_id":"levelo_inurba_marseille","lat":43.30637,"lon":5.40093,"is_reserved":false,"is_disabled":false,"rental_uris":{"android":"levelo://app?vid=4382fefe-9d6a-4e31-b368-6a94fb3585d0","ios":"levelo://app?vid=4382fefe-9d6a-4e31-b368-6a94fb3585d0"},"vehicle_type_id":"4","last_reported":1774401338,"current_range_meters":4000,"station_id":"ce4bh112rcd13ifvqda0","pricing_plan_id":"cebpf4jnsgd1na2vs0mg"},{"bike_id":"4ce98637-072f-4197-bd69-11f207a88eab","system_id":"levelo_inurba_marseille","lat":43.28496,"lon":5.47279,"is_reserved":false,"is_disabled":false,"rental_uris":{"android":"levelo://app?vid=4ce98637-072f-4197-bd69-11f207a88eab","ios":"levelo://app?vid=4ce98637-072f-4197-bd69-11f207a88eab"},"vehicle_type_id":"4","last_reported":1774401338,"current_range_meters":4000,"station_id":"","pricing_plan_id":"cebpf4jnsgd1na2vs0mg"},{"bike_id":"62b4b24a-25c2-413c-a9e9-7d8f1f6621f7","system_id":"levelo_inurba_marseille","lat":43.24477,"lon":5.42533,"is_reserved":false,"is_disabled":false,"rental_uris":{"android":"levelo://app?vid=62b4b24a-25c2-413c-a9e9-7d8f1f6621f7","ios":"levelo://app?vid=62b4b24a-25c2-413c-a9e9-7d8f1f6621f7"},"vehicle_type_id":"4","last_reported":1774401338,"current_range_meters":4000,"station_id":"st_d4a3vfp97mjs738cd8kg","pricing_plan_id":"cebpf4jnsgd1na2vs0mg"},{"bike_id":"afaed1ce-d9f0-4990-8274-d34093e4a465","system_id":"levelo_inurba_marseille","lat":43.30885,"lon":5.39642,"is_reserved":false,"is_disabled":false,"rental_uris":{"android":"levelo://app?vid=afaed1ce-d9f0-4990-8274-d34093e4a465","ios":"levelo://app?vid=afaed1ce-d9f0-4990-8274-d34093e4a465"},"vehicle_type_id":"4","last_reported":1774401338,"current_range_meters":4000,"station_id":"ce4bh012rcd13ifvqcv0","pricing_plan_id":"cebpf4jnsgd1na2vs0mg"},{"bike_id":"c76b377e-0060-4be7-aebe-7351859ef346","system_id":"levelo_inurba_marseille","lat":43.24079,"lon":5.37737,"is_reserved":false,"is_disabled":false,"rental_uris":{"android":"levelo://app?vid=c76b377e-0060-4be7-aebe-7351859ef346","ios":"levelo://app?vid=c76b377e-0060-4be7-aebe-7351859ef346"},"vehicle_type_id":"4","last_reported":1774401338,"current_range_meters":4000,"station_id":"ce4bhnp2rcd13ifvqgvg","pricing_plan_id":"cebpf4jnsgd1na2vs0mg"},{"bike_id":"d315d4d4-78e9-45de-8981-a7b0a1f81c91","system_id":"levelo_inurba_marseille","lat":43.27507,"lon":5.41578,"is_reserved":false,"is_disabled":false,"rental_uris":{"android":"levelo://app?vid=d315d4d4-78e9-45de-8981-a7b0a1f81c91","ios":"levelo://app?vid=d315d4d4-78e9-45de-8981-a7b0a1f81c91"},"vehicle_type_id":"4","last_reported":1774401338,"current_range_meters":4000,"station_id":"st_d6im8g6chgec73a5pndg","pricing_plan_id":"cebpf4jnsgd1na2vs0mg"},{"bike_id":"ac8e86da-55a1-458d-b594-72eeab74387c","system_id":"levelo_inurba_marseille","lat":43.25576,"lon":5.38235,"is_reserved":false,"is_disabled":false,"rental_uris":{"android":"levelo://app?vid=ac8e86da-55a1-458d-b594-72eeab74387c","ios":"levelo://app?vid=ac8e86da-55a1-458d-b594-72eeab74387c"},"vehicle_type_id":"4","last_reported":1774401338,"current_range_meters":4000,"station_id":"ce4bhih2rcd13ifvqfs0","pricing_plan_id":"cebpf4jnsgd1na2vs0mg"},{"bike_id":"f910acab-e234-4475-91c9-ec3fea6d1bf3","system_id":"levelo_inurba_marseille","lat":43.29896,"lon":5.43671,"is_reserved":false,"is_disabled":false,"rental_uris":{"android":"levelo://app?vid=f910acab-e234-4475-91c9-ec3fea6d1bf3","ios":"levelo://app?vid=f910acab-e234-4475-91c9-ec3fea6d1bf3"},"vehicle_type_id":"4","last_reported":1774401338,"current_range_meters":4400,"station_id":"ce4bhpp2rcd13ifvqhfg","pricing_plan_id":"cebpf4jnsgd1na2vs0mg"},{"bike_id":"fadd83d2-5a56-4dab-abd3-4fc024887366","system_id":"levelo_inurba_marseille","lat":43.28472,"lon":5.484,"is_reserved":false,"is_disabled":false,"rental_uris":{"android":"levelo://app?vid=fadd83d2-5a56-4dab-abd3-4fc024887366","ios":"levelo://app?vid=fadd83d2-5a56-4dab-abd3-4fc024887366"},"vehicle_type_id":"4","last_reported":1774401338,"current_range_meters":4400,"station_id":"","pricing_plan_id":"cebpf4jnsgd1na2vs0mg"},{"bike_id":"45ce07bf-1dc3-441d-be3e-98069ebaa649","system_id":"levelo_inurba_marseille","lat":43.27806,"lon":5.40712,"is_reserved":false,"is_disabled":false,"rental_uris":{"android":"levelo://app?vid=45ce07bf-1dc3-441d-be3e-98069ebaa649","ios":"levelo://app?vid=45ce07bf-1dc3-441d-be3e-98069ebaa649"},"vehicle_type_id":"4","last_reported":1774401338,"current_range_meters":4400,"station_id":"ce4bhnh2rcd13ifvqgtg","pricing_plan_id":"cebpf4jnsgd1na2vs0mg"},{"bike_id":"1640993b-d278-49ed-aac8-4524836b0a26","system_id":"levelo_inurba_marseille","lat":43.28226,"lon":5.39018,"is_reserved":false,"is_disabled":true,"rental_uris":{"android":"levelo://app?vid=1640993b-d278-49ed-aac8-4524836b0a26","ios":"levelo://app?vid=1640993b-d278-49ed-aac8-4524836b0a26"},"vehicle_type_id":"4","last_reported":1774401338,"current_range_meters":4400,"station_id":"ce4bhn92rcd13ifvqgsg","pricing_plan_id":"cebpf4jnsgd1na2vs0mg"},{"bike_id":"e9b07658-a8f0-465c-b976-645cd41e5970","system_id":"levelo_inurba_marseille","lat":43.27178,"lon":5.4099,"is_reserved":false,"is_disabled":false,"rental_uris":{"android":"levelo://app?vid=e9b07658-a8f0-465c-b976-645cd41e5970","ios":"levelo://app?vid=e9b07658-a8f0-465c-b976-645cd41e5970"},"vehicle_type_id":"4","last_reported":1774401338,"current_range_meters":4400,"station_id":"ce4bhl12rcd13ifvqgf0","pricing_plan_id":"cebpf4jnsgd1na2vs0mg"},{"bike_id":"d754a161-551f-4193-b8cb-ebcca83b2ad4","system_id":"levelo_inurba_marseille","lat":43.24628,"lon":5.38902,"is_reserved":false,"is_disabled":false,"rental_uris":{"android":"levelo://app?vid=d754a161-551f-4193-b8cb-ebcca83b2ad4","ios":"levelo://app?vid=d754a161-551f-4193-b8cb-ebcca83b2ad4"},"vehicle_type_id":"4","last_reported":1774401338,"current_range_meters":4400,"station_id":"ce4bhg12rcd13ifvqf60","pricing_plan_id":"cebpf4jnsgd1na2vs0mg"},{"bike_id":"ae8f7260-7181-4342-a22b-a5fdf4a9e302","system_id":"levelo_inurba_marseille","lat":43.31535,"lon":5.3807,"is_reserved":false,"is_disabled":false,"rental_uris":{"android":"levelo://app?vid=ae8f7260-7181-4342-a22b-a5fdf4a9e302","ios":"levelo://app?vid=ae8f7260-7181-4342-a22b-a5fdf4a9e302"},"vehicle_type_id":"4","last_reported":1774401338,"current_range_meters":4400,"station_id":"ce4bhsp2rcd13ifvqi50","pricing_plan_id":"cebpf4jnsgd1na2vs0mg"},{"bike_id":"f71c0b61-bf79-47f6-b095-b3e1922fbe31","system_id":"levelo_inurba_marseille","lat":43.31361,"lon":5.38508,"is_reserved":false,"is_disabled":false,"rental_uris":{"android":"levelo://app?vid=f71c0b61-bf79-47f6-b095-b3e1922fbe31","ios":"levelo://app?vid=f71c0b61-bf79-47f6-b095-b3e1922fbe31"},"vehicle_type_id":"4","last_reported":1774401338,"current_range_meters":4400,"station_id":"ce4bgt92rcd13ifvqcf0","pricing_plan_id":"cebpf4jnsgd1na2vs0mg"},{"bike_id":"0e2f4137-e82a-401c-945f-6a1c7c098239","system_id":"levelo_inurba_marseille","lat":43.29618,"lon":5.37142,"is_reserved":false,"is_disabled":false,"rental_uris":{"android":"levelo://app?vid=0e2f4137-e82a-401c-945f-6a1c7c098239","ios":"levelo://app?vid=0e2f4137-e82a-401c-945f-6a1c7c098239"},"vehicle_type_id":"4","last_reported":1774401338,"current_range_meters":4800,"station_id":"ce4bgnh2rcd13ifvqc0g","pricing_plan_id":"cebpf4jnsgd1na2vs0mg"},{"bike_id":"b75036ac-d81d-4bfd-a9c8-a051a6ff39fe","system_id":"levelo_inurba_marseille","lat":43.28529,"lon":5.44126,"is_reserved":false,"is_disabled":false,"rental_uris":{"android":"levelo://app?vid=b75036ac-d81d-4bfd-a9c8-a051a6ff39fe","ios":"levelo://app?vid=b75036ac-d81d-4bfd-a9c8-a051a6ff39fe"},"vehicle_type_id":"4","last_reported":1774401338,"current_range_meters":4800,"station_id":"st_d3j3df2ikq2c7380ej80","pricing_plan_id":"cebpf4jnsgd1na2vs0mg"},{"bike_id":"f9566020-4e3b-404b-a21f-da597dff6354","system_id":"levelo_inurba_marseille","lat":43.23894,"lon":5.37451,"is_reserved":false,"is_disabled":false,"rental_uris":{"android":"levelo://app?vid=f9566020-4e3b-404b-a21f-da597dff6354","ios":"levelo://app?vid=f9566020-4e3b-404b-a21f-da597dff6354"},"vehicle_type_id":"4","last_reported":1774401338,"current_range_meters":4800,"station_id":"st_d6sm7csbq4hs73f8fpjg","pricing_plan_id":"cebpf4jnsgd1na2vs0mg"},{"bike_id":"c487d23b-fa89-43de-bbe7-4a766860da5e","system_id":"levelo_inurba_marseille","lat":43.27332,"lon":5.39099,"is_reserved":false,"is_disabled":false,"rental_uris":{"android":"levelo://app?vid=c487d23b-fa89-43de-bbe7-4a766860da5e","ios":"levelo://app?vid=c487d23b-fa89-43de-bbe7-4a766860da5e"},"vehicle_type_id":"4","last_reported":1774401338,"current_range_meters":4800,"station_id":"ce4bhgp2rcd13ifvqfe0","pricing_plan_id":"cebpf4jnsgd1na2vs0mg"},{"bike_id":"af28f2f5-abfc-4590-b2cf-7d3d7492db13","system_id":"levelo_inurba_marseille","lat":43.24649,"lon":5.38125,"is_reserved":false,"is_disabled":false,"rental_uris":{"android":"levelo://app?vid=af28f2f5-abfc-4590-b2cf-7d3d7492db13","ios":"levelo://app?vid=af28f2f5-abfc-4590-b2cf-7d3d7492db13"},"vehicle_type_id":"4","last_reported":1774401338,"current_range_meters":4800,"station_id":"ce4bhih2rcd13ifvqfr0","pricing_plan_id":"cebpf4jnsgd1na2vs0mg"},{"bike_id":"0b786319-6d9f-4d1c-890a-5150198e272a","system_id":"levelo_inurba_marseille","lat":43.28478,"lon":5.48394,"is_reserved":false,"is_disabled":false,"rental_uris":{"android":"levelo://app?vid=0b786319-6d9f-4d1c-890a-5150198e272a","ios":"levelo://app?vid=0b786319-6d9f-4d1c-890a-5150198e272a"},"vehicle_type_id":"4","last_reported":1774401338,"current_range_meters":4800,"station_id":"st_d3svhcjqgbts73a3dn0g","pricing_plan_id":"cebpf4jnsgd1na2vs0mg"},{"bike_id":"5cff8034-4c2b-46d8-a63b-5de6b6d29d3f","system_id":"levelo_inurba_marseille","lat":43.29788,"lon":5.39361,"is_reserved":false,"is_disabled":true,"rental_uris":{"android":"levelo://app?vid=5cff8034-4c2b-46d8-a63b-5de6b6d29d3f","ios":"levelo://app?vid=5cff8034-4c2b-46d8-a63b-5de6b6d29d3f"},"vehicle_type_id":"4","last_reported":1774401338,"current_range_meters":4800,"station_id":"chh1huq6cuj3fo74tm60","pricing_plan_id":"cebpf4jnsgd1na2vs0mg"},{"bike_id":"29a0fc4b-8d84-44eb-ab9a-94a9c04895f0","system_id":"levelo_inurba_marseille","lat":43.29204,"lon":5.35827,"is_reserved":false,"is_disabled":false,"rental_uris":{"android":"levelo://app?vid=29a0fc4b-8d84-44eb-ab9a-94a9c04895f0","ios":"levelo://app?vid=29a0fc4b-8d84-44eb-ab9a-94a9c04895f0"},"vehicle_type_id":"4","last_reported":1774401338,"current_range_meters":4800,"station_id":"ce4bhb12rcd13ifvqel0","pricing_plan_id":"cebpf4jnsgd1na2vs0mg"},{"bike_id":"f35a9644-f102-427c-8b00-579a35988db3","system_id":"levelo_inurba_marseille","lat":43.21131,"lon":5.35176,"is_reserved":false,"is_disabled":false,"rental_uris":{"android":"levelo://app?vid=f35a9644-f102-427c-8b00-579a35988db3","ios":"levelo://app?vid=f35a9644-f102-427c-8b00-579a35988db3"},"vehicle_type_id":"4","last_reported":1774401338,"current_range_meters":4800,"station_id":"","pricing_plan_id":"cebpf4jnsgd1na2vs0mg"},{"bike_id":"7e03e45c-d69c-4371-8267-aa26cde43729","system_id":"levelo_inurba_marseille","lat":43.25576,"lon":5.38227,"is_reserved":false,"is_disabled":true,"rental_uris":{"android":"levelo://app?vid=7e03e45c-d69c-4371-8267-aa26cde43729","ios":"levelo://app?vid=7e03e45c-d69c-4371-8267-aa26cde43729"},"vehicle_type_id":"4","last_reported":1774401338,"current_range_meters":4800,"station_id":"ce4bhih2rcd13ifvqfs0","pricing_plan_id":"cebpf4jnsgd1na2vs0mg"},{"bike_id":"7e239537-6c6b-4563-a73b-680f69586595","system_id":"levelo_inurba_marseille","lat":43.29029,"lon":5.35656,"is_reserved":false,"is_disabled":true,"rental_uris":{"android":"levelo://app?vid=7e239537-6c6b-4563-a73b-680f69586595","ios":"levelo://app?vid=7e239537-6c6b-4563-a73b-680f69586595"},"vehicle_type_id":"4","last_reported":1774401338,"current_range_meters":4800,"station_id":"ce4bhb92rcd13ifvqen0","pricing_plan_id":"cebpf4jnsgd1na2vs0mg"},{"bike_id":"26e7f08a-7e84-4397-b6a3-eb87d40aa9ee","system_id":"levelo_inurba_marseille","lat":43.24799,"lon":5.37443,"is_reserved":false,"is_disabled":false,"rental_uris":{"android":"levelo://app?vid=26e7f08a-7e84-4397-b6a3-eb87d40aa9ee","ios":"levelo://app?vid=26e7f08a-7e84-4397-b6a3-eb87d40aa9ee"},"vehicle_type_id":"4","last_reported":1774401338,"current_range_meters":5600,"station_id":"ce4bhgh2rcd13ifvqfb0","pricing_plan_id":"cebpf4jnsgd1na2vs0mg"},{"bike_id":"d153865b-277c-49ad-92ee-2c9d0756119d","system_id":"levelo_inurba_marseille","lat":43.3064,"lon":5.40074,"is_reserved":false,"is_disabled":false,"rental_uris":{"android":"levelo://app?vid=d153865b-277c-49ad-92ee-2c9d0756119d","ios":"levelo://app?vid=d153865b-277c-49ad-92ee-2c9d0756119d"},"vehicle_type_id":"4","last_reported":1774401338,"current_range_meters":5600,"station_id":"ce4bh112rcd13ifvqda0","pricing_plan_id":"cebpf4jnsgd1na2vs0mg"},{"bike_id":"a9b0556e-e257-4c86-baec-32c674fd9499","system_id":"levelo_inurba_marseille","lat":43.30226,"lon":5.39462,"is_reserved":false,"is_disabled":true,"rental_uris":{"android":"levelo://app?vid=a9b0556e-e257-4c86-baec-32c674fd9499","ios":"levelo://app?vid=a9b0556e-e257-4c86-baec-32c674fd9499"},"vehicle_type_id":"4","last_reported":1774401338,"current_range_meters":5600,"station_id":"ce4bh0p2rcd13ifvqd70","pricing_plan_id":"cebpf4jnsgd1na2vs0mg"},{"bike_id":"dba25020-eb6f-4854-9ae1-c56cc824a4e9","system_id":"levelo_inurba_marseille","lat":43.28433,"lon":5.39167,"is_reserved":false,"is_disabled":false,"rental_uris":{"android":"levelo://app?vid=dba25020-eb6f-4854-9ae1-c56cc824a4e9","ios":"levelo://app?vid=dba25020-eb6f-4854-9ae1-c56cc824a4e9"},"vehicle_type_id":"4","last_reported":1774401338,"current_range_meters":5600,"station_id":"ce4bhoh2rcd13ifvqh5g","pricing_plan_id":"cebpf4jnsgd1na2vs0mg"},{"bike_id":"2a02a3e7-6f53-48a3-ab29-526ed2f5cbb2","system_id":"levelo_inurba_marseille","lat":43.29956,"lon":5.37133,"is_reserved":false,"is_disabled":false,"rental_uris":{"android":"levelo://app?vid=2a02a3e7-6f53-48a3-ab29-526ed2f5cbb2","ios":"levelo://app?vid=2a02a3e7-6f53-48a3-ab29-526ed2f5cbb2"},"vehicle_type_id":"4","last_reported":1774401338,"current_range_meters":5600,"station_id":"ce4bgr92rcd13ifvqc7g","pricing_plan_id":"cebpf4jnsgd1na2vs0mg"},{"bike_id":"fb6b728c-d595-495c-a2b7-dcd86c0e3f7e","system_id":"levelo_inurba_marseille","lat":43.27954,"lon":5.41612,"is_reserved":false,"is_disabled":false,"rental_uris":{"android":"levelo://app?vid=fb6b728c-d595-495c-a2b7-dcd86c0e3f7e","ios":"levelo://app?vid=fb6b728c-d595-495c-a2b7-dcd86c0e3f7e"},"vehicle_type_id":"4","last_reported":1774401338,"current_range_meters":5600,"station_id":"","pricing_plan_id":"cebpf4jnsgd1na2vs0mg"},{"bike_id":"fde7c990-ea71-4125-9b7f-4cda0f7e1677","system_id":"levelo_inurba_marseille","lat":43.23784,"lon":5.36629,"is_reserved":false,"is_disabled":false,"rental_uris":{"android":"levelo://app?vid=fde7c990-ea71-4125-9b7f-4cda0f7e1677","ios":"levelo://app?vid=fde7c990-ea71-4125-9b7f-4cda0f7e1677"},"vehicle_type_id":"4","last_reported":1774401338,"current_range_meters":5600,"station_id":"st_d3nk18o9ro0c73en2l3g","pricing_plan_id":"cebpf4jnsgd1na2vs0mg"},{"bike_id":"06411c2b-d0f9-4665-8144-3cdf55131f03","system_id":"levelo_inurba_marseille","lat":43.29637,"lon":5.40596,"is_reserved":false,"is_disabled":false,"rental_uris":{"android":"levelo://app?vid=06411c2b-d0f9-4665-8144-3cdf55131f03","ios":"levelo://app?vid=06411c2b-d0f9-4665-8144-3cdf55131f03"},"vehicle_type_id":"4","last_reported":1774401338,"current_range_meters":5600,"station_id":"ce4bh0h2rcd13ifvqd60","pricing_plan_id":"cebpf4jnsgd1na2vs0mg"},{"bike_id":"b1ceaa1d-f7d5-4f1b-b74b-3e9a13f9efeb","system_id":"levelo_inurba_marseille","lat":43.23966,"lon":5.36621,"is_reserved":false,"is_disabled":false,"rental_uris":{"android":"levelo://app?vid=b1ceaa1d-f7d5-4f1b-b74b-3e9a13f9efeb","ios":"levelo://app?vid=b1ceaa1d-f7d5-4f1b-b74b-3e9a13f9efeb"},"vehicle_type_id":"4","last_reported":1774401338,"current_range_meters":5600,"station_id":"ce4bhi12rcd13ifvqfp0","pricing_plan_id":"cebpf4jnsgd1na2vs0mg"},{"bike_id":"820275f3-98b7-44b5-969a-676ed7c97f81","system_id":"levelo_inurba_marseille","lat":43.2996,"lon":5.38503,"is_reserved":false,"is_disabled":false,"rental_uris":{"android":"levelo://app?vid=820275f3-98b7-44b5-969a-676ed7c97f81","ios":"levelo://app?vid=820275f3-98b7-44b5-969a-676ed7c97f81"},"vehicle_type_id":"4","last_reported":1774401338,"current_range_meters":6000,"station_id":"ce4bgj92rcd13ifvqbd0","pricing_plan_id":"cebpf4jnsgd1na2vs0mg"},{"bike_id":"dffad5ff-7d58-4152-91b4-69c4f0e2e182","system_id":"levelo_inurba_marseille","lat":43.2976,"lon":5.42784,"is_reserved":false,"is_disabled":false,"rental_uris":{"android":"levelo://app?vid=dffad5ff-7d58-4152-91b4-69c4f0e2e182","ios":"levelo://app?vid=dffad5ff-7d58-4152-91b4-69c4f0e2e182"},"vehicle_type_id":"4","last_reported":1774401338,"current_range_meters":6000,"station_id":"st_d3md5207bmas73dh9klg","pricing_plan_id":"cebpf4jnsgd1na2vs0mg"},{"bike_id":"8e331d09-f777-47e4-a327-164db2e188a9","system_id":"levelo_inurba_marseille","lat":43.26564,"lon":5.40316,"is_reserved":false,"is_disabled":true,"rental_uris":{"android":"levelo://app?vid=8e331d09-f777-47e4-a327-164db2e188a9","ios":"levelo://app?vid=8e331d09-f777-47e4-a327-164db2e188a9"},"vehicle_type_id":"4","last_reported":1774401338,"current_range_meters":6000,"station_id":"ce4bhmp2rcd13ifvqgng","pricing_plan_id":"cebpf4jnsgd1na2vs0mg"},{"bike_id":"066cfe81-714d-4a28-ba8d-e13baf5bbb1b","system_id":"levelo_inurba_marseille","lat":43.27266,"lon":5.41147,"is_reserved":false,"is_disabled":false,"rental_uris":{"android":"levelo://app?vid=066cfe81-714d-4a28-ba8d-e13baf5bbb1b","ios":"levelo://app?vid=066cfe81-714d-4a28-ba8d-e13baf5bbb1b"},"vehicle_type_id":"4","last_reported":1774401338,"current_range_meters":6000,"station_id":"","pricing_plan_id":"cebpf4jnsgd1na2vs0mg"},{"bike_id":"92865f32-8c99-40b6-9302-e5316ca3b9a5","system_id":"levelo_inurba_marseille","lat":43.29961,"lon":5.38497,"is_reserved":false,"is_disabled":false,"rental_uris":{"android":"levelo://app?vid=92865f32-8c99-40b6-9302-e5316ca3b9a5","ios":"levelo://app?vid=92865f32-8c99-40b6-9302-e5316ca3b9a5"},"vehicle_type_id":"4","last_reported":1774401338,"current_range_meters":6000,"station_id":"ce4bgj92rcd13ifvqbd0","pricing_plan_id":"cebpf4jnsgd1na2vs0mg"},{"bike_id":"11e270f4-fef7-471c-9adc-54747540acc9","system_id":"levelo_inurba_marseille","lat":43.28667,"lon":5.36324,"is_reserved":false,"is_disabled":false,"rental_uris":{"android":"levelo://app?vid=11e270f4-fef7-471c-9adc-54747540acc9","ios":"levelo://app?vid=11e270f4-fef7-471c-9adc-54747540acc9"},"vehicle_type_id":"4","last_reported":1774401338,"current_range_meters":6000,"station_id":"ce4bhah2rcd13ifvqej0","pricing_plan_id":"cebpf4jnsgd1na2vs0mg"},{"bike_id":"92492a78-3672-4445-bf40-2206f94ab4b7","system_id":"levelo_inurba_marseille","lat":43.30418,"lon":5.39746,"is_reserved":false,"is_disabled":false,"rental_uris":{"android":"levelo://app?vid=92492a78-3672-4445-bf40-2206f94ab4b7","ios":"levelo://app?vid=92492a78-3672-4445-bf40-2206f94ab4b7"},"vehicle_type_id":"4","last_reported":1774401338,"current_range_meters":6000,"station_id":"ce4bh092rcd13ifvqd20","pricing_plan_id":"cebpf4jnsgd1na2vs0mg"},{"bike_id":"0503ed00-51a9-40c2-99fd-dbbaf9e61da3","system_id":"levelo_inurba_marseille","lat":43.28702,"lon":5.37396,"is_reserved":false,"is_disabled":false,"rental_uris":{"android":"levelo://app?vid=0503ed00-51a9-40c2-99fd-dbbaf9e61da3","ios":"levelo://app?vid=0503ed00-51a9-40c2-99fd-dbbaf9e61da3"},"vehicle_type_id":"4","last_reported":1774401338,"current_range_meters":6000,"station_id":"ce4bh3p2rcd13ifvqdq0","pricing_plan_id":"cebpf4jnsgd1na2vs0mg"},{"bike_id":"9723db1c-04c4-43c6-bee8-ac289f2e0c55","system_id":"levelo_inurba_marseille","lat":43.28603,"lon":5.37066,"is_reserved":false,"is_disabled":false,"rental_uris":{"android":"levelo://app?vid=9723db1c-04c4-43c6-bee8-ac289f2e0c55","ios":"levelo://app?vid=9723db1c-04c4-43c6-bee8-ac289f2e0c55"},"vehicle_type_id":"4","last_reported":1774401338,"current_range_meters":6000,"station_id":"ce4bht12rcd13ifvqi60","pricing_plan_id":"cebpf4jnsgd1na2vs0mg"},{"bike_id":"e6349eb3-2730-461c-ae14-f386689052fa","system_id":"levelo_inurba_marseille","lat":43.31624,"lon":5.37805,"is_reserved":false,"is_disabled":true,"rental_uris":{"android":"levelo://app?vid=e6349eb3-2730-461c-ae14-f386689052fa","ios":"levelo://app?vid=e6349eb3-2730-461c-ae14-f386689052fa"},"vehicle_type_id":"4","last_reported":1774401338,"current_range_meters":6000,"station_id":"","pricing_plan_id":"cebpf4jnsgd1na2vs0mg"},{"bike_id":"bae6218d-76b2-49f7-a1ac-2d661366a996","system_id":"levelo_inurba_marseille","lat":43.27815,"lon":5.40698,"is_reserved":false,"is_disabled":false,"rental_uris":{"android":"levelo://app?vid=bae6218d-76b2-49f7-a1ac-2d661366a996","ios":"levelo://app?vid=bae6218d-76b2-49f7-a1ac-2d661366a996"},"vehicle_type_id":"4","last_reported":1774401338,"current_range_meters":6000,"station_id":"ce4bhnh2rcd13ifvqgtg","pricing_plan_id":"cebpf4jnsgd1na2vs0mg"},{"bike_id":"d09d228d-2f6a-477f-99e2-2109d7ccc63c","system_id":"levelo_inurba_marseille","lat":43.25104,"lon":5.39541,"is_reserved":false,"is_disabled":false,"rental_uris":{"android":"levelo://app?vid=d09d228d-2f6a-477f-99e2-2109d7ccc63c","ios":"levelo://app?vid=d09d228d-2f6a-477f-99e2-2109d7ccc63c"},"vehicle_type_id":"4","last_reported":1774401338,"current_range_meters":6000,"station_id":"ce4bhm12rcd13ifvqgkg","pricing_plan_id":"cebpf4jnsgd1na2vs0mg"},{"bike_id":"35bae270-5434-4e69-82a2-7081c50b37f8","system_id":"levelo_inurba_marseille","lat":43.28611,"lon":5.39885,"is_reserved":false,"is_disabled":false,"rental_uris":{"android":"levelo://app?vid=35bae270-5434-4e69-82a2-7081c50b37f8","ios":"levelo://app?vid=35bae270-5434-4e69-82a2-7081c50b37f8"},"vehicle_type_id":"4","last_reported":1774401338,"current_range_meters":6000,"station_id":"st_d4a7ka997mjs738ck50g","pricing_plan_id":"cebpf4jnsgd1na2vs0mg"},{"bike_id":"0df6d16f-36d4-42c1-8335-b8a697e6bb13","system_id":"levelo_inurba_marseille","lat":43.29563,"lon":5.3753,"is_reserved":false,"is_disabled":false,"rental_uris":{"android":"levelo://app?vid=0df6d16f-36d4-42c1-8335-b8a697e6bb13","ios":"levelo://app?vid=0df6d16f-36d4-42c1-8335-b8a697e6bb13"},"vehicle_type_id":"4","last_reported":1774401338,"current_range_meters":6400,"station_id":"ce4bgh92rcd13ifvqb50","pricing_plan_id":"cebpf4jnsgd1na2vs0mg"},{"bike_id":"a14d2edd-85c5-4116-8db5-355e3fb2ddbe","system_id":"levelo_inurba_marseille","lat":43.33557,"lon":5.37467,"is_reserved":false,"is_disabled":false,"rental_uris":{"android":"levelo://app?vid=a14d2edd-85c5-4116-8db5-355e3fb2ddbe","ios":"levelo://app?vid=a14d2edd-85c5-4116-8db5-355e3fb2ddbe"},"vehicle_type_id":"4","last_reported":1774401338,"current_range_meters":6400,"station_id":"st_d46tts09ee8s73dlu43g","pricing_plan_id":"cebpf4jnsgd1na2vs0mg"},{"bike_id":"c1de2c65-0476-46cf-9ed7-7dbf07b95ee3","system_id":"levelo_inurba_marseille","lat":43.29626,"lon":5.40593,"is_reserved":false,"is_disabled":false,"rental_uris":{"android":"levelo://app?vid=c1de2c65-0476-46cf-9ed7-7dbf07b95ee3","ios":"levelo://app?vid=c1de2c65-0476-46cf-9ed7-7dbf07b95ee3"},"vehicle_type_id":"4","last_reported":1774401338,"current_range_meters":6400,"station_id":"ce4bh0h2rcd13ifvqd60","pricing_plan_id":"cebpf4jnsgd1na2vs0mg"},{"bike_id":"0b4a36c9-468c-4770-8280-af4cc610443d","system_id":"levelo_inurba_marseille","lat":43.29261,"lon":5.36838,"is_reserved":false,"is_disabled":false,"rental_uris":{"android":"levelo://app?vid=0b4a36c9-468c-4770-8280-af4cc610443d","ios":"levelo://app?vid=0b4a36c9-468c-4770-8280-af4cc610443d"},"vehicle_type_id":"4","last_reported":1774401338,"current_range_meters":6400,"station_id":"ce4bhbp2rcd13ifvqesg","pricing_plan_id":"cebpf4jnsgd1na2vs0mg"},{"bike_id":"a738e86d-0de3-47ef-a6ab-51f555655c3f","system_id":"levelo_inurba_marseille","lat":43.31115,"lon":5.37742,"is_reserved":false,"is_disabled":false,"rental_uris":{"android":"levelo://app?vid=a738e86d-0de3-47ef-a6ab-51f555655c3f","ios":"levelo://app?vid=a738e86d-0de3-47ef-a6ab-51f555655c3f"},"vehicle_type_id":"4","last_reported":1774401338,"current_range_meters":6400,"station_id":"ce4bgt92rcd13ifvqcg0","pricing_plan_id":"cebpf4jnsgd1na2vs0mg"},{"bike_id":"3576dbc6-01bf-4396-8997-393a86635537","system_id":"levelo_inurba_marseille","lat":43.30939,"lon":5.40131,"is_reserved":false,"is_disabled":false,"rental_uris":{"android":"levelo://app?vid=3576dbc6-01bf-4396-8997-393a86635537","ios":"levelo://app?vid=3576dbc6-01bf-4396-8997-393a86635537"},"vehicle_type_id":"4","last_reported":1774401338,"current_range_meters":6400,"station_id":"ce4bgvp2rcd13ifvqct0","pricing_plan_id":"cebpf4jnsgd1na2vs0mg"},{"bike_id":"68f77dfc-69e3-4c6a-b19f-b7e0a415acb5","system_id":"levelo_inurba_marseille","lat":43.28847,"lon":5.35839,"is_reserved":false,"is_disabled":false,"rental_uris":{"android":"levelo://app?vid=68f77dfc-69e3-4c6a-b19f-b7e0a415acb5","ios":"levelo://app?vid=68f77dfc-69e3-4c6a-b19f-b7e0a415acb5"},"vehicle_type_id":"4","last_reported":1774401338,"current_range_meters":6400,"station_id":"","pricing_plan_id":"cebpf4jnsgd1na2vs0mg"},{"bike_id":"9d29295a-778d-434c-af0f-fee5fe32917c","system_id":"levelo_inurba_marseille","lat":43.24641,"lon":5.38121,"is_reserved":false,"is_disabled":false,"rental_uris":{"android":"levelo://app?vid=9d29295a-778d-434c-af0f-fee5fe32917c","ios":"levelo://app?vid=9d29295a-778d-434c-af0f-fee5fe32917c"},"vehicle_type_id":"4","last_reported":1774401338,"current_range_meters":6400,"station_id":"ce4bhih2rcd13ifvqfr0","pricing_plan_id":"cebpf4jnsgd1na2vs0mg"},{"bike_id":"e51f3b8f-2277-4636-88c7-d4fed1c89dba","system_id":"levelo_inurba_marseille","lat":43.29864,"lon":5.40922,"is_reserved":false,"is_disabled":false,"rental_uris":{"android":"levelo://app?vid=e51f3b8f-2277-4636-88c7-d4fed1c89dba","ios":"levelo://app?vid=e51f3b8f-2277-4636-88c7-d4fed1c89dba"},"vehicle_type_id":"4","last_reported":1774401338,"current_range_meters":6400,"station_id":"","pricing_plan_id":"cebpf4jnsgd1na2vs0mg"},{"bike_id":"705ed374-c7e4-4970-9778-57421b22c7bc","system_id":"levelo_inurba_marseille","lat":43.27818,"lon":5.40715,"is_reserved":false,"is_disabled":false,"rental_uris":{"android":"levelo://app?vid=705ed374-c7e4-4970-9778-57421b22c7bc","ios":"levelo://app?vid=705ed374-c7e4-4970-9778-57421b22c7bc"},"vehicle_type_id":"4","last_reported":1774401338,"current_range_meters":6400,"station_id":"ce4bhnh2rcd13ifvqgtg","pricing_plan_id":"cebpf4jnsgd1na2vs0mg"},{"bike_id":"07035ceb-7f0e-449d-a264-2cea17dace41","system_id":"levelo_inurba_marseille","lat":43.23777,"lon":5.36639,"is_reserved":false,"is_disabled":false,"rental_uris":{"android":"levelo://app?vid=07035ceb-7f0e-449d-a264-2cea17dace41","ios":"levelo://app?vid=07035ceb-7f0e-449d-a264-2cea17dace41"},"vehicle_type_id":"4","last_reported":1774401338,"current_range_meters":6400,"station_id":"st_d3nk18o9ro0c73en2l3g","pricing_plan_id":"cebpf4jnsgd1na2vs0mg"},{"bike_id":"e94d83da-a52c-4009-83db-8b37093608a6","system_id":"levelo_inurba_marseille","lat":43.23186,"lon":5.39979,"is_reserved":false,"is_disabled":false,"rental_uris":{"android":"levelo://app?vid=e94d83da-a52c-4009-83db-8b37093608a6","ios":"levelo://app?vid=e94d83da-a52c-4009-83db-8b37093608a6"},"vehicle_type_id":"4","last_reported":1774401338,"current_range_meters":6400,"station_id":"ce4bhn12rcd13ifvqgqg","pricing_plan_id":"cebpf4jnsgd1na2vs0mg"},{"bike_id":"9ca4b1da-0df4-426d-b237-eed2d4351450","system_id":"levelo_inurba_marseille","lat":43.23185,"lon":5.39998,"is_reserved":false,"is_disabled":false,"rental_uris":{"android":"levelo://app?vid=9ca4b1da-0df4-426d-b237-eed2d4351450","ios":"levelo://app?vid=9ca4b1da-0df4-426d-b237-eed2d4351450"},"vehicle_type_id":"4","last_reported":1774401338,"current_range_meters":6400,"station_id":"ce4bhn12rcd13ifvqgqg","pricing_plan_id":"cebpf4jnsgd1na2vs0mg"},{"bike_id":"63802da6-1f74-4b92-958d-77f8c78524d6","system_id":"levelo_inurba_marseille","lat":43.28595,"lon":5.39878,"is_reserved":false,"is_disabled":false,"rental_uris":{"android":"levelo://app?vid=63802da6-1f74-4b92-958d-77f8c78524d6","ios":"levelo://app?vid=63802da6-1f74-4b92-958d-77f8c78524d6"},"vehicle_type_id":"4","last_reported":1774401338,"current_range_meters":6400,"station_id":"st_d4a7ka997mjs738ck50g","pricing_plan_id":"cebpf4jnsgd1na2vs0mg"},{"bike_id":"5208ee98-7e4f-445b-9dbc-5d8fbec80d74","system_id":"levelo_inurba_marseille","lat":43.23379,"lon":5.41233,"is_reserved":false,"is_disabled":false,"rental_uris":{"android":"levelo://app?vid=5208ee98-7e4f-445b-9dbc-5d8fbec80d74","ios":"levelo://app?vid=5208ee98-7e4f-445b-9dbc-5d8fbec80d74"},"vehicle_type_id":"4","last_reported":1774401338,"current_range_meters":6400,"station_id":"","pricing_plan_id":"cebpf4jnsgd1na2vs0mg"},{"bike_id":"4edb492a-65d4-4582-925f-714e82508774","system_id":"levelo_inurba_marseille","lat":43.31162,"lon":5.38701,"is_reserved":false,"is_disabled":false,"rental_uris":{"android":"levelo://app?vid=4edb492a-65d4-4582-925f-714e82508774","ios":"levelo://app?vid=4edb492a-65d4-4582-925f-714e82508774"},"vehicle_type_id":"4","last_reported":1774401338,"current_range_meters":6400,"station_id":"ce4bgv12rcd13ifvqcp0","pricing_plan_id":"cebpf4jnsgd1na2vs0mg"},{"bike_id":"04696bc5-8154-4c46-9c9f-db8416a35051","system_id":"levelo_inurba_marseille","lat":43.31042,"lon":5.37197,"is_reserved":false,"is_disabled":false,"rental_uris":{"android":"levelo://app?vid=04696bc5-8154-4c46-9c9f-db8416a35051","ios":"levelo://app?vid=04696bc5-8154-4c46-9c9f-db8416a35051"},"vehicle_type_id":"4","last_reported":1774401338,"current_range_meters":6800,"station_id":"st_d4kl2rp97mjs73e7tdfg","pricing_plan_id":"cebpf4jnsgd1na2vs0mg"},{"bike_id":"bb85b854-c47c-4191-a8f6-7b401c5c72ea","system_id":"levelo_inurba_marseille","lat":43.28415,"lon":5.37496,"is_reserved":false,"is_disabled":false,"rental_uris":{"android":"levelo://app?vid=bb85b854-c47c-4191-a8f6-7b401c5c72ea","ios":"levelo://app?vid=bb85b854-c47c-4191-a8f6-7b401c5c72ea"},"vehicle_type_id":"4","last_reported":1774401338,"current_range_meters":6800,"station_id":"ce4bh412rcd13ifvqds0","pricing_plan_id":"cebpf4jnsgd1na2vs0mg"},{"bike_id":"f7e664bc-8cfe-465d-9dbe-128ca982aa9c","system_id":"levelo_inurba_marseille","lat":43.25006,"lon":5.38933,"is_reserved":false,"is_disabled":false,"rental_uris":{"android":"levelo://app?vid=f7e664bc-8cfe-465d-9dbe-128ca982aa9c","ios":"levelo://app?vid=f7e664bc-8cfe-465d-9dbe-128ca982aa9c"},"vehicle_type_id":"4","last_reported":1774401338,"current_range_meters":6800,"station_id":"ce4bhgp2rcd13ifvqfd0","pricing_plan_id":"cebpf4jnsgd1na2vs0mg"},{"bike_id":"3e359a89-6259-43ce-94e2-6783f3c71446","system_id":"levelo_inurba_marseille","lat":43.30955,"lon":5.39039,"is_reserved":false,"is_disabled":false,"rental_uris":{"android":"levelo://app?vid=3e359a89-6259-43ce-94e2-6783f3c71446","ios":"levelo://app?vid=3e359a89-6259-43ce-94e2-6783f3c71446"},"vehicle_type_id":"4","last_reported":1774401338,"current_range_meters":6800,"station_id":"ce4bgup2rcd13ifvqco0","pricing_plan_id":"cebpf4jnsgd1na2vs0mg"},{"bike_id":"77deb619-deef-42c1-ade2-8dca83a843fb","system_id":"levelo_inurba_marseille","lat":43.29166,"lon":5.43982,"is_reserved":false,"is_disabled":false,"rental_uris":{"android":"levelo://app?vid=77deb619-deef-42c1-ade2-8dca83a843fb","ios":"levelo://app?vid=77deb619-deef-42c1-ade2-8dca83a843fb"},"vehicle_type_id":"4","last_reported":1774401338,"current_range_meters":6800,"station_id":"","pricing_plan_id":"cebpf4jnsgd1na2vs0mg"},{"bike_id":"445a363e-6635-4c6f-9d9b-6ed1d223c4e8","system_id":"levelo_inurba_marseille","lat":43.29561,"lon":5.43892,"is_reserved":false,"is_disabled":false,"rental_uris":{"android":"levelo://app?vid=445a363e-6635-4c6f-9d9b-6ed1d223c4e8","ios":"levelo://app?vid=445a363e-6635-4c6f-9d9b-6ed1d223c4e8"},"vehicle_type_id":"4","last_reported":1774401338,"current_range_meters":6800,"station_id":"","pricing_plan_id":"cebpf4jnsgd1na2vs0mg"},{"bike_id":"ce1ca696-5540-44ed-b207-f9acc1332d82","system_id":"levelo_inurba_marseille","lat":43.28224,"lon":5.39042,"is_reserved":false,"is_disabled":false,"rental_uris":{"android":"levelo://app?vid=ce1ca696-5540-44ed-b207-f9acc1332d82","ios":"levelo://app?vid=ce1ca696-5540-44ed-b207-f9acc1332d82"},"vehicle_type_id":"4","last_reported":1774401338,"current_range_meters":6800,"station_id":"ce4bhn92rcd13ifvqgsg","pricing_plan_id":"cebpf4jnsgd1na2vs0mg"},{"bike_id":"b944e609-5e6c-418f-a8af-97899a61e0c7","system_id":"levelo_inurba_marseille","lat":43.30893,"lon":5.39664,"is_reserved":false,"is_disabled":false,"rental_uris":{"android":"levelo://app?vid=b944e609-5e6c-418f-a8af-97899a61e0c7","ios":"levelo://app?vid=b944e609-5e6c-418f-a8af-97899a61e0c7"},"vehicle_type_id":"4","last_reported":1774401338,"current_range_meters":6800,"station_id":"ce4bh012rcd13ifvqcv0","pricing_plan_id":"cebpf4jnsgd1na2vs0mg"},{"bike_id":"fe332a28-7761-474f-ad2d-b84cd0257740","system_id":"levelo_inurba_marseille","lat":43.23783,"lon":5.36614,"is_reserved":false,"is_disabled":false,"rental_uris":{"android":"levelo://app?vid=fe332a28-7761-474f-ad2d-b84cd0257740","ios":"levelo://app?vid=fe332a28-7761-474f-ad2d-b84cd0257740"},"vehicle_type_id":"4","last_reported":1774401338,"current_range_meters":6800,"station_id":"st_d3nk18o9ro0c73en2l3g","pricing_plan_id":"cebpf4jnsgd1na2vs0mg"},{"bike_id":"166c0812-4009-4bb2-be33-6089bb202007","system_id":"levelo_inurba_marseille","lat":43.24942,"lon":5.40505,"is_reserved":false,"is_disabled":false,"rental_uris":{"android":"levelo://app?vid=166c0812-4009-4bb2-be33-6089bb202007","ios":"levelo://app?vid=166c0812-4009-4bb2-be33-6089bb202007"},"vehicle_type_id":"4","last_reported":1774401338,"current_range_meters":6800,"station_id":"st_d2ngiaodas8pm72gd1h0","pricing_plan_id":"cebpf4jnsgd1na2vs0mg"},{"bike_id":"c7d9cc3b-29e7-4a7f-a93d-62932c7bb62a","system_id":"levelo_inurba_marseille","lat":43.28407,"lon":5.34986,"is_reserved":false,"is_disabled":false,"rental_uris":{"android":"levelo://app?vid=c7d9cc3b-29e7-4a7f-a93d-62932c7bb62a","ios":"levelo://app?vid=c7d9cc3b-29e7-4a7f-a93d-62932c7bb62a"},"vehicle_type_id":"4","last_reported":1774401338,"current_range_meters":6800,"station_id":"ce4bhbh2rcd13ifvqepg","pricing_plan_id":"cebpf4jnsgd1na2vs0mg"},{"bike_id":"8b5d40a1-73a5-4996-8aaa-10b91006d761","system_id":"levelo_inurba_marseille","lat":43.30651,"lon":5.40075,"is_reserved":false,"is_disabled":false,"rental_uris":{"android":"levelo://app?vid=8b5d40a1-73a5-4996-8aaa-10b91006d761","ios":"levelo://app?vid=8b5d40a1-73a5-4996-8aaa-10b91006d761"},"vehicle_type_id":"4","last_reported":1774401338,"current_range_meters":6800,"station_id":"ce4bh112rcd13ifvqda0","pricing_plan_id":"cebpf4jnsgd1na2vs0mg"},{"bike_id":"1a751648-291f-4319-a34f-249a761c3662","system_id":"levelo_inurba_marseille","lat":43.33605,"lon":5.36294,"is_reserved":false,"is_disabled":false,"rental_uris":{"android":"levelo://app?vid=1a751648-291f-4319-a34f-249a761c3662","ios":"levelo://app?vid=1a751648-291f-4319-a34f-249a761c3662"},"vehicle_type_id":"4","last_reported":1774401338,"current_range_meters":6800,"station_id":"","pricing_plan_id":"cebpf4jnsgd1na2vs0mg"},{"bike_id":"e0996d0d-f6cf-4428-acad-fd84bac2c9fe","system_id":"levelo_inurba_marseille","lat":43.232,"lon":5.35546,"is_reserved":false,"is_disabled":false,"rental_uris":{"android":"levelo://app?vid=e0996d0d-f6cf-4428-acad-fd84bac2c9fe","ios":"levelo://app?vid=e0996d0d-f6cf-4428-acad-fd84bac2c9fe"},"vehicle_type_id":"4","last_reported":1774401338,"current_range_meters":6800,"station_id":"ce4bhu92rcd13ifvqi70","pricing_plan_id":"cebpf4jnsgd1na2vs0mg"},{"bike_id":"6711ca2b-9a4e-46b1-892e-1007cc2a656e","system_id":"levelo_inurba_marseille","lat":43.28584,"lon":5.44123,"is_reserved":false,"is_disabled":false,"rental_uris":{"android":"levelo://app?vid=6711ca2b-9a4e-46b1-892e-1007cc2a656e","ios":"levelo://app?vid=6711ca2b-9a4e-46b1-892e-1007cc2a656e"},"vehicle_type_id":"4","last_reported":1774401338,"current_range_meters":6800,"station_id":"","pricing_plan_id":"cebpf4jnsgd1na2vs0mg"},{"bike_id":"cbe143e8-3e8d-46c8-8239-3389a4661d28","system_id":"levelo_inurba_marseille","lat":43.30311,"lon":5.36905,"is_reserved":false,"is_disabled":false,"rental_uris":{"android":"levelo://app?vid=cbe143e8-3e8d-46c8-8239-3389a4661d28","ios":"levelo://app?vid=cbe143e8-3e8d-46c8-8239-3389a4661d28"},"vehicle_type_id":"4","last_reported":1774401338,"current_range_meters":6800,"station_id":"ce4bgqh2rcd13ifvqc5g","pricing_plan_id":"cebpf4jnsgd1na2vs0mg"},{"bike_id":"063baa28-1d27-4092-b393-54e2c8abdfeb","system_id":"levelo_inurba_marseille","lat":43.30656,"lon":5.40105,"is_reserved":false,"is_disabled":false,"rental_uris":{"android":"levelo://app?vid=063baa28-1d27-4092-b393-54e2c8abdfeb","ios":"levelo://app?vid=063baa28-1d27-4092-b393-54e2c8abdfeb"},"vehicle_type_id":"4","last_reported":1774401338,"current_range_meters":6800,"station_id":"ce4bh112rcd13ifvqda0","pricing_plan_id":"cebpf4jnsgd1na2vs0mg"},{"bike_id":"52525216-4854-4520-880f-f19bec71c920","system_id":"levelo_inurba_marseille","lat":43.27802,"lon":5.40711,"is_reserved":false,"is_disabled":false,"rental_uris":{"android":"levelo://app?vid=52525216-4854-4520-880f-f19bec71c920","ios":"levelo://app?vid=52525216-4854-4520-880f-f19bec71c920"},"vehicle_type_id":"4","last_reported":1774401338,"current_range_meters":7200,"station_id":"ce4bhnh2rcd13ifvqgtg","pricing_plan_id":"cebpf4jnsgd1na2vs0mg"},{"bike_id":"22a24422-8367-44e3-afc2-fd1672c2c7f5","system_id":"levelo_inurba_marseille","lat":43.28483,"lon":5.48393,"is_reserved":false,"is_disabled":false,"rental_uris":{"android":"levelo://app?vid=22a24422-8367-44e3-afc2-fd1672c2c7f5","ios":"levelo://app?vid=22a24422-8367-44e3-afc2-fd1672c2c7f5"},"vehicle_type_id":"4","last_reported":1774401338,"current_range_meters":7200,"station_id":"","pricing_plan_id":"cebpf4jnsgd1na2vs0mg"},{"bike_id":"c0b689e5-350b-4835-a209-95a8604ec264","system_id":"levelo_inurba_marseille","lat":43.27404,"lon":5.39392,"is_reserved":false,"is_disabled":true,"rental_uris":{"android":"levelo://app?vid=c0b689e5-350b-4835-a209-95a8604ec264","ios":"levelo://app?vid=c0b689e5-350b-4835-a209-95a8604ec264"},"vehicle_type_id":"4","last_reported":1774401338,"current_range_meters":7200,"station_id":"ce4bhdp2rcd13ifvqf20","pricing_plan_id":"cebpf4jnsgd1na2vs0mg"},{"bike_id":"62c0eda8-c666-40c1-b62d-71242266f316","system_id":"levelo_inurba_marseille","lat":43.28446,"lon":5.39188,"is_reserved":false,"is_disabled":true,"rental_uris":{"android":"levelo://app?vid=62c0eda8-c666-40c1-b62d-71242266f316","ios":"levelo://app?vid=62c0eda8-c666-40c1-b62d-71242266f316"},"vehicle_type_id":"4","last_reported":1774401338,"current_range_meters":7200,"station_id":"ce4bhoh2rcd13ifvqh5g","pricing_plan_id":"cebpf4jnsgd1na2vs0mg"},{"bike_id":"6a457767-964e-4adf-825f-575138a70ca2","system_id":"levelo_inurba_marseille","lat":43.30801,"lon":5.38153,"is_reserved":false,"is_disabled":false,"rental_uris":{"android":"levelo://app?vid=6a457767-964e-4adf-825f-575138a70ca2","ios":"levelo://app?vid=6a457767-964e-4adf-825f-575138a70ca2"},"vehicle_type_id":"4","last_reported":1774401338,"current_range_meters":7200,"station_id":"ce4bgt12rcd13ifvqce0","pricing_plan_id":"cebpf4jnsgd1na2vs0mg"},{"bike_id":"a83d5f36-c969-4ea3-8581-ea1fd7b9e5f4","system_id":"levelo_inurba_marseille","lat":43.286167,"lon":5.351076,"is_reserved":false,"is_disabled":false,"rental_uris":{"android":"levelo://app?vid=a83d5f36-c969-4ea3-8581-ea1fd7b9e5f4","ios":"levelo://app?vid=a83d5f36-c969-4ea3-8581-ea1fd7b9e5f4"},"vehicle_type_id":"4","last_reported":1774401338,"current_range_meters":7200,"station_id":"ce4bhch2rcd13ifvqeug","pricing_plan_id":"cebpf4jnsgd1na2vs0mg"},{"bike_id":"0467a61b-3c6c-4519-8ae2-ab7b582ec154","system_id":"levelo_inurba_marseille","lat":43.24639,"lon":5.38891,"is_reserved":false,"is_disabled":false,"rental_uris":{"android":"levelo://app?vid=0467a61b-3c6c-4519-8ae2-ab7b582ec154","ios":"levelo://app?vid=0467a61b-3c6c-4519-8ae2-ab7b582ec154"},"vehicle_type_id":"4","last_reported":1774401338,"current_range_meters":7200,"station_id":"ce4bhg12rcd13ifvqf60","pricing_plan_id":"cebpf4jnsgd1na2vs0mg"},{"bike_id":"10da4574-f2d9-4ae1-91ba-9a914cc4e851","system_id":"levelo_inurba_marseille","lat":43.23881,"lon":5.37428,"is_reserved":false,"is_disabled":false,"rental_uris":{"android":"levelo://app?vid=10da4574-f2d9-4ae1-91ba-9a914cc4e851","ios":"levelo://app?vid=10da4574-f2d9-4ae1-91ba-9a914cc4e851"},"vehicle_type_id":"4","last_reported":1774401338,"current_range_meters":7200,"station_id":"st_d6sm7csbq4hs73f8fpjg","pricing_plan_id":"cebpf4jnsgd1na2vs0mg"},{"bike_id":"8c7ce2ac-36a4-4d74-9f4d-c3062a5fb5dd","system_id":"levelo_inurba_marseille","lat":43.24942,"lon":5.40497,"is_reserved":false,"is_disabled":false,"rental_uris":{"android":"levelo://app?vid=8c7ce2ac-36a4-4d74-9f4d-c3062a5fb5dd","ios":"levelo://app?vid=8c7ce2ac-36a4-4d74-9f4d-c3062a5fb5dd"},"vehicle_type_id":"4","last_reported":1774401338,"current_range_meters":7200,"station_id":"st_d2ngiaodas8pm72gd1h0","pricing_plan_id":"cebpf4jnsgd1na2vs0mg"},{"bike_id":"7466a56b-e37f-4112-bc6b-02b274ebb2dc","system_id":"levelo_inurba_marseille","lat":43.28007,"lon":5.40021,"is_reserved":false,"is_disabled":false,"rental_uris":{"android":"levelo://app?vid=7466a56b-e37f-4112-bc6b-02b274ebb2dc","ios":"levelo://app?vid=7466a56b-e37f-4112-bc6b-02b274ebb2dc"},"vehicle_type_id":"4","last_reported":1774401338,"current_range_meters":7200,"station_id":"ce4bho92rcd13ifvqh4g","pricing_plan_id":"cebpf4jnsgd1na2vs0mg"},{"bike_id":"0919fff5-6eac-4b3d-a6ab-13b2a3ef7d44","system_id":"levelo_inurba_marseille","lat":43.24953,"lon":5.40494,"is_reserved":false,"is_disabled":false,"rental_uris":{"android":"levelo://app?vid=0919fff5-6eac-4b3d-a6ab-13b2a3ef7d44","ios":"levelo://app?vid=0919fff5-6eac-4b3d-a6ab-13b2a3ef7d44"},"vehicle_type_id":"4","last_reported":1774401338,"current_range_meters":7200,"station_id":"st_d2ngiaodas8pm72gd1h0","pricing_plan_id":"cebpf4jnsgd1na2vs0mg"},{"bike_id":"875063f8-c637-45b8-8964-8222489d351d","system_id":"levelo_inurba_marseille","lat":43.28425,"lon":5.3751,"is_reserved":false,"is_disabled":false,"rental_uris":{"android":"levelo://app?vid=875063f8-c637-45b8-8964-8222489d351d","ios":"levelo://app?vid=875063f8-c637-45b8-8964-8222489d351d"},"vehicle_type_id":"4","last_reported":1774401338,"current_range_meters":7200,"station_id":"ce4bh412rcd13ifvqds0","pricing_plan_id":"cebpf4jnsgd1na2vs0mg"},{"bike_id":"2159f981-c6a8-4439-bb67-1723675b05d9","system_id":"levelo_inurba_marseille","lat":43.29023,"lon":5.38646,"is_reserved":false,"is_disabled":false,"rental_uris":{"android":"levelo://app?vid=2159f981-c6a8-4439-bb67-1723675b05d9","ios":"levelo://app?vid=2159f981-c6a8-4439-bb67-1723675b05d9"},"vehicle_type_id":"4","last_reported":1774401338,"current_range_meters":8000,"station_id":"ce4bh4p2rcd13ifvqe0g","pricing_plan_id":"cebpf4jnsgd1na2vs0mg"},{"bike_id":"ccf5f660-4656-4e00-8b91-4a8c6e08442b","system_id":"levelo_inurba_marseille","lat":43.30644,"lon":5.40073,"is_reserved":false,"is_disabled":false,"rental_uris":{"android":"levelo://app?vid=ccf5f660-4656-4e00-8b91-4a8c6e08442b","ios":"levelo://app?vid=ccf5f660-4656-4e00-8b91-4a8c6e08442b"},"vehicle_type_id":"4","last_reported":1774401338,"current_range_meters":8000,"station_id":"ce4bh112rcd13ifvqda0","pricing_plan_id":"cebpf4jnsgd1na2vs0mg"},{"bike_id":"a925be4f-af4d-4c6c-804d-cf6aef5dd66c","system_id":"levelo_inurba_marseille","lat":43.31114,"lon":5.37769,"is_reserved":false,"is_disabled":false,"rental_uris":{"android":"levelo://app?vid=a925be4f-af4d-4c6c-804d-cf6aef5dd66c","ios":"levelo://app?vid=a925be4f-af4d-4c6c-804d-cf6aef5dd66c"},"vehicle_type_id":"4","last_reported":1774401338,"current_range_meters":8000,"station_id":"ce4bgt92rcd13ifvqcg0","pricing_plan_id":"cebpf4jnsgd1na2vs0mg"},{"bike_id":"489b1f47-9bf9-4f10-90f5-3b4dff230700","system_id":"levelo_inurba_marseille","lat":43.23787,"lon":5.36602,"is_reserved":false,"is_disabled":false,"rental_uris":{"android":"levelo://app?vid=489b1f47-9bf9-4f10-90f5-3b4dff230700","ios":"levelo://app?vid=489b1f47-9bf9-4f10-90f5-3b4dff230700"},"vehicle_type_id":"4","last_reported":1774401338,"current_range_meters":8000,"station_id":"st_d3nk18o9ro0c73en2l3g","pricing_plan_id":"cebpf4jnsgd1na2vs0mg"},{"bike_id":"aae792bd-1c8a-454d-ba57-45007311d229","system_id":"levelo_inurba_marseille","lat":43.2255,"lon":5.41604,"is_reserved":false,"is_disabled":false,"rental_uris":{"android":"levelo://app?vid=aae792bd-1c8a-454d-ba57-45007311d229","ios":"levelo://app?vid=aae792bd-1c8a-454d-ba57-45007311d229"},"vehicle_type_id":"4","last_reported":1774401338,"current_range_meters":8000,"station_id":"st_d2o4gvlbi1j2169b742g","pricing_plan_id":"cebpf4jnsgd1na2vs0mg"},{"bike_id":"93cebdd1-30e6-468f-a0fc-fd387c0c05d1","system_id":"levelo_inurba_marseille","lat":43.24349,"lon":5.41173,"is_reserved":false,"is_disabled":false,"rental_uris":{"android":"levelo://app?vid=93cebdd1-30e6-468f-a0fc-fd387c0c05d1","ios":"levelo://app?vid=93cebdd1-30e6-468f-a0fc-fd387c0c05d1"},"vehicle_type_id":"4","last_reported":1774401338,"current_range_meters":8000,"station_id":"","pricing_plan_id":"cebpf4jnsgd1na2vs0mg"},{"bike_id":"b8ba5a8b-013a-4b43-9ce9-cae09a5afc1a","system_id":"levelo_inurba_marseille","lat":43.31474,"lon":5.37936,"is_reserved":false,"is_disabled":false,"rental_uris":{"android":"levelo://app?vid=b8ba5a8b-013a-4b43-9ce9-cae09a5afc1a","ios":"levelo://app?vid=b8ba5a8b-013a-4b43-9ce9-cae09a5afc1a"},"vehicle_type_id":"4","last_reported":1774401338,"current_range_meters":8000,"station_id":"","pricing_plan_id":"cebpf4jnsgd1na2vs0mg"},{"bike_id":"33d690ea-2224-41d6-9053-095cd784a885","system_id":"levelo_inurba_marseille","lat":43.28672,"lon":5.36334,"is_reserved":false,"is_disabled":false,"rental_uris":{"android":"levelo://app?vid=33d690ea-2224-41d6-9053-095cd784a885","ios":"levelo://app?vid=33d690ea-2224-41d6-9053-095cd784a885"},"vehicle_type_id":"4","last_reported":1774401338,"current_range_meters":8000,"station_id":"ce4bhah2rcd13ifvqej0","pricing_plan_id":"cebpf4jnsgd1na2vs0mg"},{"bike_id":"46088d7c-5c89-4b44-9651-3d7ccfe8a818","system_id":"levelo_inurba_marseille","lat":43.30598,"lon":5.37211,"is_reserved":false,"is_disabled":false,"rental_uris":{"android":"levelo://app?vid=46088d7c-5c89-4b44-9651-3d7ccfe8a818","ios":"levelo://app?vid=46088d7c-5c89-4b44-9651-3d7ccfe8a818"},"vehicle_type_id":"4","last_reported":1774401338,"current_range_meters":8000,"station_id":"ce4bgqh2rcd13ifvqc4g","pricing_plan_id":"cebpf4jnsgd1na2vs0mg"},{"bike_id":"b86068ab-97ee-4456-8b24-8dc8e9d3870c","system_id":"levelo_inurba_marseille","lat":43.28458,"lon":5.35894,"is_reserved":false,"is_disabled":false,"rental_uris":{"android":"levelo://app?vid=b86068ab-97ee-4456-8b24-8dc8e9d3870c","ios":"levelo://app?vid=b86068ab-97ee-4456-8b24-8dc8e9d3870c"},"vehicle_type_id":"4","last_reported":1774401338,"current_range_meters":8000,"station_id":"ce4bhah2rcd13ifvqei0","pricing_plan_id":"cebpf4jnsgd1na2vs0mg"},{"bike_id":"17603604-4058-452c-b237-b0fb5d39625d","system_id":"levelo_inurba_marseille","lat":43.25487,"lon":5.37643,"is_reserved":false,"is_disabled":false,"rental_uris":{"android":"levelo://app?vid=17603604-4058-452c-b237-b0fb5d39625d","ios":"levelo://app?vid=17603604-4058-452c-b237-b0fb5d39625d"},"vehicle_type_id":"4","last_reported":1774401338,"current_range_meters":8000,"station_id":"ce4bhh12rcd13ifvqff0","pricing_plan_id":"cebpf4jnsgd1na2vs0mg"},{"bike_id":"9e6209c2-8d1d-42b3-b60a-1dbb8e1406fe","system_id":"levelo_inurba_marseille","lat":43.33153,"lon":5.37698,"is_reserved":false,"is_disabled":false,"rental_uris":{"android":"levelo://app?vid=9e6209c2-8d1d-42b3-b60a-1dbb8e1406fe","ios":"levelo://app?vid=9e6209c2-8d1d-42b3-b60a-1dbb8e1406fe"},"vehicle_type_id":"4","last_reported":1774401338,"current_range_meters":8000,"station_id":"st_d46cu089ee8s73dldbu0","pricing_plan_id":"cebpf4jnsgd1na2vs0mg"},{"bike_id":"f704eddb-3ab5-499c-a7e2-921a100d96c8","system_id":"levelo_inurba_marseille","lat":43.28609,"lon":5.35089,"is_reserved":false,"is_disabled":false,"rental_uris":{"android":"levelo://app?vid=f704eddb-3ab5-499c-a7e2-921a100d96c8","ios":"levelo://app?vid=f704eddb-3ab5-499c-a7e2-921a100d96c8"},"vehicle_type_id":"4","last_reported":1774401338,"current_range_meters":8000,"station_id":"","pricing_plan_id":"cebpf4jnsgd1na2vs0mg"},{"bike_id":"715aaeb5-0d16-47e0-ba84-f56328a24f5b","system_id":"levelo_inurba_marseille","lat":43.29896,"lon":5.43671,"is_reserved":false,"is_disabled":false,"rental_uris":{"android":"levelo://app?vid=715aaeb5-0d16-47e0-ba84-f56328a24f5b","ios":"levelo://app?vid=715aaeb5-0d16-47e0-ba84-f56328a24f5b"},"vehicle_type_id":"4","last_reported":1774401338,"current_range_meters":8400,"station_id":"ce4bhpp2rcd13ifvqhfg","pricing_plan_id":"cebpf4jnsgd1na2vs0mg"},{"bike_id":"21212254-e5a0-4af6-a45f-ed4c631ca773","system_id":"levelo_inurba_marseille","lat":43.25519,"lon":5.37679,"is_reserved":false,"is_disabled":false,"rental_uris":{"android":"levelo://app?vid=21212254-e5a0-4af6-a45f-ed4c631ca773","ios":"levelo://app?vid=21212254-e5a0-4af6-a45f-ed4c631ca773"},"vehicle_type_id":"4","last_reported":1774401338,"current_range_meters":8400,"station_id":"ce4bhh12rcd13ifvqff0","pricing_plan_id":"cebpf4jnsgd1na2vs0mg"},{"bike_id":"992d461f-8839-4086-b27a-9edc1d38b03d","system_id":"levelo_inurba_marseille","lat":43.33546,"lon":5.37469,"is_reserved":false,"is_disabled":false,"rental_uris":{"android":"levelo://app?vid=992d461f-8839-4086-b27a-9edc1d38b03d","ios":"levelo://app?vid=992d461f-8839-4086-b27a-9edc1d38b03d"},"vehicle_type_id":"4","last_reported":1774401338,"current_range_meters":8400,"station_id":"st_d46tts09ee8s73dlu43g","pricing_plan_id":"cebpf4jnsgd1na2vs0mg"},{"bike_id":"0eda12ff-62a9-4148-bada-bbf4788a43ff","system_id":"levelo_inurba_marseille","lat":43.28612,"lon":5.3989,"is_reserved":false,"is_disabled":false,"rental_uris":{"android":"levelo://app?vid=0eda12ff-62a9-4148-bada-bbf4788a43ff","ios":"levelo://app?vid=0eda12ff-62a9-4148-bada-bbf4788a43ff"},"vehicle_type_id":"4","last_reported":1774401338,"current_range_meters":8400,"station_id":"st_d4a7ka997mjs738ck50g","pricing_plan_id":"cebpf4jnsgd1na2vs0mg"},{"bike_id":"c183ea56-6995-4ab9-9d2b-e07807bdb413","system_id":"levelo_inurba_marseille","lat":43.28661,"lon":5.36364,"is_reserved":false,"is_disabled":false,"rental_uris":{"android":"levelo://app?vid=c183ea56-6995-4ab9-9d2b-e07807bdb413","ios":"levelo://app?vid=c183ea56-6995-4ab9-9d2b-e07807bdb413"},"vehicle_type_id":"4","last_reported":1774401338,"current_range_meters":8400,"station_id":"ce4bhah2rcd13ifvqej0","pricing_plan_id":"cebpf4jnsgd1na2vs0mg"},{"bike_id":"13f9f031-67ea-407a-a66e-c4b749576cd4","system_id":"levelo_inurba_marseille","lat":43.23952,"lon":5.36633,"is_reserved":false,"is_disabled":false,"rental_uris":{"android":"levelo://app?vid=13f9f031-67ea-407a-a66e-c4b749576cd4","ios":"levelo://app?vid=13f9f031-67ea-407a-a66e-c4b749576cd4"},"vehicle_type_id":"4","last_reported":1774401338,"current_range_meters":8400,"station_id":"ce4bhi12rcd13ifvqfp0","pricing_plan_id":"cebpf4jnsgd1na2vs0mg"},{"bike_id":"aa929685-e4dd-4a31-a1c6-979463fa81a3","system_id":"levelo_inurba_marseille","lat":43.28481,"lon":5.48393,"is_reserved":false,"is_disabled":false,"rental_uris":{"android":"levelo://app?vid=aa929685-e4dd-4a31-a1c6-979463fa81a3","ios":"levelo://app?vid=aa929685-e4dd-4a31-a1c6-979463fa81a3"},"vehicle_type_id":"4","last_reported":1774401338,"current_range_meters":8400,"station_id":"st_d3svhcjqgbts73a3dn0g","pricing_plan_id":"cebpf4jnsgd1na2vs0mg"},{"bike_id":"21a45244-c1c4-423b-9d37-4deb92a4a9b7","system_id":"levelo_inurba_marseille","lat":43.31063,"lon":5.37181,"is_reserved":false,"is_disabled":false,"rental_uris":{"android":"levelo://app?vid=21a45244-c1c4-423b-9d37-4deb92a4a9b7","ios":"levelo://app?vid=21a45244-c1c4-423b-9d37-4deb92a4a9b7"},"vehicle_type_id":"4","last_reported":1774401338,"current_range_meters":8400,"station_id":"st_d4kl2rp97mjs73e7tdfg","pricing_plan_id":"cebpf4jnsgd1na2vs0mg"},{"bike_id":"168ccf17-3133-4472-85a2-824035dc8266","system_id":"levelo_inurba_marseille","lat":43.22927,"lon":5.35372,"is_reserved":false,"is_disabled":false,"rental_uris":{"android":"levelo://app?vid=168ccf17-3133-4472-85a2-824035dc8266","ios":"levelo://app?vid=168ccf17-3133-4472-85a2-824035dc8266"},"vehicle_type_id":"4","last_reported":1774401338,"current_range_meters":8400,"station_id":"cpo3532slgdg3j2ikp40","pricing_plan_id":"cebpf4jnsgd1na2vs0mg"},{"bike_id":"6a209565-16db-4aba-85c7-7097837dcc24","system_id":"levelo_inurba_marseille","lat":43.24172,"lon":5.36392,"is_reserved":false,"is_disabled":false,"rental_uris":{"android":"levelo://app?vid=6a209565-16db-4aba-85c7-7097837dcc24","ios":"levelo://app?vid=6a209565-16db-4aba-85c7-7097837dcc24"},"vehicle_type_id":"4","last_reported":1774401338,"current_range_meters":8400,"station_id":"cpo36qri1sfpv3e86is0","pricing_plan_id":"cebpf4jnsgd1na2vs0mg"},{"bike_id":"adaf8e00-ca2c-49b5-9b35-6749da32aa87","system_id":"levelo_inurba_marseille","lat":43.33544,"lon":5.3747,"is_reserved":false,"is_disabled":false,"rental_uris":{"android":"levelo://app?vid=adaf8e00-ca2c-49b5-9b35-6749da32aa87","ios":"levelo://app?vid=adaf8e00-ca2c-49b5-9b35-6749da32aa87"},"vehicle_type_id":"4","last_reported":1774401338,"current_range_meters":8400,"station_id":"st_d46tts09ee8s73dlu43g","pricing_plan_id":"cebpf4jnsgd1na2vs0mg"},{"bike_id":"22123110-8f4d-447c-a492-e91d3e302abc","system_id":"levelo_inurba_marseille","lat":43.28407,"lon":5.34989,"is_reserved":false,"is_disabled":false,"rental_uris":{"android":"levelo://app?vid=22123110-8f4d-447c-a492-e91d3e302abc","ios":"levelo://app?vid=22123110-8f4d-447c-a492-e91d3e302abc"},"vehicle_type_id":"4","last_reported":1774401338,"current_range_meters":8400,"station_id":"ce4bhbh2rcd13ifvqepg","pricing_plan_id":"cebpf4jnsgd1na2vs0mg"},{"bike_id":"9b358e2d-16b7-4dac-973f-42e61ae3043a","system_id":"levelo_inurba_marseille","lat":43.30887,"lon":5.39642,"is_reserved":false,"is_disabled":false,"rental_uris":{"android":"levelo://app?vid=9b358e2d-16b7-4dac-973f-42e61ae3043a","ios":"levelo://app?vid=9b358e2d-16b7-4dac-973f-42e61ae3043a"},"vehicle_type_id":"4","last_reported":1774401338,"current_range_meters":8400,"station_id":"ce4bh012rcd13ifvqcv0","pricing_plan_id":"cebpf4jnsgd1na2vs0mg"},{"bike_id":"d6ff709b-527c-499b-bc4e-f4b1b46d6753","system_id":"levelo_inurba_marseille","lat":43.31334,"lon":5.39651,"is_reserved":false,"is_disabled":false,"rental_uris":{"android":"levelo://app?vid=d6ff709b-527c-499b-bc4e-f4b1b46d6753","ios":"levelo://app?vid=d6ff709b-527c-499b-bc4e-f4b1b46d6753"},"vehicle_type_id":"4","last_reported":1774401338,"current_range_meters":8400,"station_id":"ce4bgvp2rcd13ifvqcu0","pricing_plan_id":"cebpf4jnsgd1na2vs0mg"},{"bike_id":"edb49fff-b654-4e99-95c8-bfa9c3753f89","system_id":"levelo_inurba_marseille","lat":43.22931,"lon":5.3535,"is_reserved":false,"is_disabled":false,"rental_uris":{"android":"levelo://app?vid=edb49fff-b654-4e99-95c8-bfa9c3753f89","ios":"levelo://app?vid=edb49fff-b654-4e99-95c8-bfa9c3753f89"},"vehicle_type_id":"4","last_reported":1774401338,"current_range_meters":8400,"station_id":"cpo3532slgdg3j2ikp40","pricing_plan_id":"cebpf4jnsgd1na2vs0mg"},{"bike_id":"0d489b01-590f-434e-9649-624f92bba9bb","system_id":"levelo_inurba_marseille","lat":43.23189,"lon":5.35548,"is_reserved":false,"is_disabled":false,"rental_uris":{"android":"levelo://app?vid=0d489b01-590f-434e-9649-624f92bba9bb","ios":"levelo://app?vid=0d489b01-590f-434e-9649-624f92bba9bb"},"vehicle_type_id":"4","last_reported":1774401338,"current_range_meters":8400,"station_id":"ce4bhu92rcd13ifvqi70","pricing_plan_id":"cebpf4jnsgd1na2vs0mg"},{"bike_id":"ef18859a-6eff-4988-ae0d-a0b715efe1eb","system_id":"levelo_inurba_marseille","lat":43.30805,"lon":5.38149,"is_reserved":false,"is_disabled":false,"rental_uris":{"android":"levelo://app?vid=ef18859a-6eff-4988-ae0d-a0b715efe1eb","ios":"levelo://app?vid=ef18859a-6eff-4988-ae0d-a0b715efe1eb"},"vehicle_type_id":"4","last_reported":1774401338,"current_range_meters":8400,"station_id":"ce4bgt12rcd13ifvqce0","pricing_plan_id":"cebpf4jnsgd1na2vs0mg"},{"bike_id":"5c39f7cf-c7f7-4747-b217-e778a50c0011","system_id":"levelo_inurba_marseille","lat":43.29952,"lon":5.37614,"is_reserved":false,"is_disabled":false,"rental_uris":{"android":"levelo://app?vid=5c39f7cf-c7f7-4747-b217-e778a50c0011","ios":"levelo://app?vid=5c39f7cf-c7f7-4747-b217-e778a50c0011"},"vehicle_type_id":"4","last_reported":1774401338,"current_range_meters":8400,"station_id":"","pricing_plan_id":"cebpf4jnsgd1na2vs0mg"},{"bike_id":"c1e92c70-aede-452c-8e8c-6914c0324e0c","system_id":"levelo_inurba_marseille","lat":43.29044,"lon":5.35879,"is_reserved":false,"is_disabled":true,"rental_uris":{"android":"levelo://app?vid=c1e92c70-aede-452c-8e8c-6914c0324e0c","ios":"levelo://app?vid=c1e92c70-aede-452c-8e8c-6914c0324e0c"},"vehicle_type_id":"4","last_reported":1774401338,"current_range_meters":8400,"station_id":"ce4bha92rcd13ifvqeg0","pricing_plan_id":"cebpf4jnsgd1na2vs0mg"},{"bike_id":"331e477d-e9f4-43fd-9723-1e80bdbc0255","system_id":"levelo_inurba_marseille","lat":43.30396,"lon":5.39758,"is_reserved":false,"is_disabled":false,"rental_uris":{"android":"levelo://app?vid=331e477d-e9f4-43fd-9723-1e80bdbc0255","ios":"levelo://app?vid=331e477d-e9f4-43fd-9723-1e80bdbc0255"},"vehicle_type_id":"4","last_reported":1774401338,"current_range_meters":8400,"station_id":"ce4bh092rcd13ifvqd20","pricing_plan_id":"cebpf4jnsgd1na2vs0mg"},{"bike_id":"ad3f3d88-4463-474b-802d-6cff79eea73f","system_id":"levelo_inurba_marseille","lat":43.24652,"lon":5.38907,"is_reserved":false,"is_disabled":false,"rental_uris":{"android":"levelo://app?vid=ad3f3d88-4463-474b-802d-6cff79eea73f","ios":"levelo://app?vid=ad3f3d88-4463-474b-802d-6cff79eea73f"},"vehicle_type_id":"4","last_reported":1774401338,"current_range_meters":8400,"station_id":"ce4bhg12rcd13ifvqf60","pricing_plan_id":"cebpf4jnsgd1na2vs0mg"},{"bike_id":"3a6e6294-ec88-4ab9-af3b-60aaab95c3d4","system_id":"levelo_inurba_marseille","lat":43.30423,"lon":5.39742,"is_reserved":false,"is_disabled":false,"rental_uris":{"android":"levelo://app?vid=3a6e6294-ec88-4ab9-af3b-60aaab95c3d4","ios":"levelo://app?vid=3a6e6294-ec88-4ab9-af3b-60aaab95c3d4"},"vehicle_type_id":"4","last_reported":1774401338,"current_range_meters":8400,"station_id":"ce4bh092rcd13ifvqd20","pricing_plan_id":"cebpf4jnsgd1na2vs0mg"},{"bike_id":"2f430c62-15bb-430c-969c-56b5339d66a3","system_id":"levelo_inurba_marseille","lat":43.2855,"lon":5.44095,"is_reserved":false,"is_disabled":false,"rental_uris":{"android":"levelo://app?vid=2f430c62-15bb-430c-969c-56b5339d66a3","ios":"levelo://app?vid=2f430c62-15bb-430c-969c-56b5339d66a3"},"vehicle_type_id":"4","last_reported":1774401338,"current_range_meters":8400,"station_id":"st_d3j3df2ikq2c7380ej80","pricing_plan_id":"cebpf4jnsgd1na2vs0mg"},{"bike_id":"b9d157e4-adb0-4d64-b93d-349f42c39fcf","system_id":"levelo_inurba_marseille","lat":43.31897,"lon":5.36796,"is_reserved":false,"is_disabled":false,"rental_uris":{"android":"levelo://app?vid=b9d157e4-adb0-4d64-b93d-349f42c39fcf","ios":"levelo://app?vid=b9d157e4-adb0-4d64-b93d-349f42c39fcf"},"vehicle_type_id":"4","last_reported":1774401338,"current_range_meters":8400,"station_id":"st_d6o2h0d0559c73evc1b0","pricing_plan_id":"cebpf4jnsgd1na2vs0mg"},{"bike_id":"c6ed3d40-fb82-47ee-b3b0-f7061751a297","system_id":"levelo_inurba_marseille","lat":43.28855,"lon":5.42507,"is_reserved":false,"is_disabled":false,"rental_uris":{"android":"levelo://app?vid=c6ed3d40-fb82-47ee-b3b0-f7061751a297","ios":"levelo://app?vid=c6ed3d40-fb82-47ee-b3b0-f7061751a297"},"vehicle_type_id":"4","last_reported":1774401338,"current_range_meters":8400,"station_id":"","pricing_plan_id":"cebpf4jnsgd1na2vs0mg"},{"bike_id":"d594e935-ec7a-4a10-af1c-e7aeb3a4a3cc","system_id":"levelo_inurba_marseille","lat":43.2533,"lon":5.42156,"is_reserved":false,"is_disabled":false,"rental_uris":{"android":"levelo://app?vid=d594e935-ec7a-4a10-af1c-e7aeb3a4a3cc","ios":"levelo://app?vid=d594e935-ec7a-4a10-af1c-e7aeb3a4a3cc"},"vehicle_type_id":"4","last_reported":1774401338,"current_range_meters":8400,"station_id":"st_d2m65c5bi1j21697t3ng","pricing_plan_id":"cebpf4jnsgd1na2vs0mg"},{"bike_id":"b66a2e2d-206b-4ad0-bc12-5793add35a82","system_id":"levelo_inurba_marseille","lat":43.28605,"lon":5.39884,"is_reserved":false,"is_disabled":false,"rental_uris":{"android":"levelo://app?vid=b66a2e2d-206b-4ad0-bc12-5793add35a82","ios":"levelo://app?vid=b66a2e2d-206b-4ad0-bc12-5793add35a82"},"vehicle_type_id":"4","last_reported":1774401338,"current_range_meters":8800,"station_id":"","pricing_plan_id":"cebpf4jnsgd1na2vs0mg"},{"bike_id":"f7964fa2-d7a6-41b0-97f9-1f4fa6b33c53","system_id":"levelo_inurba_marseille","lat":43.2533,"lon":5.42165,"is_reserved":false,"is_disabled":false,"rental_uris":{"android":"levelo://app?vid=f7964fa2-d7a6-41b0-97f9-1f4fa6b33c53","ios":"levelo://app?vid=f7964fa2-d7a6-41b0-97f9-1f4fa6b33c53"},"vehicle_type_id":"4","last_reported":1774401338,"current_range_meters":8800,"station_id":"","pricing_plan_id":"cebpf4jnsgd1na2vs0mg"},{"bike_id":"f4e12de3-12ee-449c-bb7b-82b4b799a0fa","system_id":"levelo_inurba_marseille","lat":43.246511,"lon":5.388933,"is_reserved":false,"is_disabled":true,"rental_uris":{"android":"levelo://app?vid=f4e12de3-12ee-449c-bb7b-82b4b799a0fa","ios":"levelo://app?vid=f4e12de3-12ee-449c-bb7b-82b4b799a0fa"},"vehicle_type_id":"4","last_reported":1774401338,"current_range_meters":8800,"station_id":"ce4bgg92rcd13ifvqb30","pricing_plan_id":"cebpf4jnsgd1na2vs0mg"},{"bike_id":"390642d5-ebc3-4bda-abf8-55b0c8070dc5","system_id":"levelo_inurba_marseille","lat":43.2667,"lon":5.38259,"is_reserved":false,"is_disabled":true,"rental_uris":{"android":"levelo://app?vid=390642d5-ebc3-4bda-abf8-55b0c8070dc5","ios":"levelo://app?vid=390642d5-ebc3-4bda-abf8-55b0c8070dc5"},"vehicle_type_id":"4","last_reported":1774401338,"current_range_meters":8800,"station_id":"ce4bhg92rcd13ifvqf90","pricing_plan_id":"cebpf4jnsgd1na2vs0mg"},{"bike_id":"83732a6c-ebed-473c-9b13-eb7d63194259","system_id":"levelo_inurba_marseille","lat":43.21183,"lon":5.35062,"is_reserved":false,"is_disabled":false,"rental_uris":{"android":"levelo://app?vid=83732a6c-ebed-473c-9b13-eb7d63194259","ios":"levelo://app?vid=83732a6c-ebed-473c-9b13-eb7d63194259"},"vehicle_type_id":"4","last_reported":1774401338,"current_range_meters":8800,"station_id":"st_cvj6sg6p6f1abm77japg","pricing_plan_id":"cebpf4jnsgd1na2vs0mg"},{"bike_id":"da6972b3-b161-480b-8ef0-1ff556fc7299","system_id":"levelo_inurba_marseille","lat":43.23725,"lon":5.36723,"is_reserved":false,"is_disabled":false,"rental_uris":{"android":"levelo://app?vid=da6972b3-b161-480b-8ef0-1ff556fc7299","ios":"levelo://app?vid=da6972b3-b161-480b-8ef0-1ff556fc7299"},"vehicle_type_id":"4","last_reported":1774401338,"current_range_meters":8800,"station_id":"","pricing_plan_id":"cebpf4jnsgd1na2vs0mg"},{"bike_id":"140fffea-ded2-4b53-a55a-ce65aaf1968d","system_id":"levelo_inurba_marseille","lat":43.26539,"lon":5.3729,"is_reserved":false,"is_disabled":false,"rental_uris":{"android":"levelo://app?vid=140fffea-ded2-4b53-a55a-ce65aaf1968d","ios":"levelo://app?vid=140fffea-ded2-4b53-a55a-ce65aaf1968d"},"vehicle_type_id":"4","last_reported":1774401338,"current_range_meters":8800,"station_id":"ce4bhg12rcd13ifvqf70","pricing_plan_id":"cebpf4jnsgd1na2vs0mg"},{"bike_id":"5487f2c1-c4a8-4daf-8490-88d7b84744cf","system_id":"levelo_inurba_marseille","lat":43.30302,"lon":5.36914,"is_reserved":false,"is_disabled":false,"rental_uris":{"android":"levelo://app?vid=5487f2c1-c4a8-4daf-8490-88d7b84744cf","ios":"levelo://app?vid=5487f2c1-c4a8-4daf-8490-88d7b84744cf"},"vehicle_type_id":"4","last_reported":1774401338,"current_range_meters":8800,"station_id":"ce4bgqh2rcd13ifvqc5g","pricing_plan_id":"cebpf4jnsgd1na2vs0mg"},{"bike_id":"d975341b-676a-49cc-9e48-efa05a85e18a","system_id":"levelo_inurba_marseille","lat":43.30107,"lon":5.39072,"is_reserved":false,"is_disabled":false,"rental_uris":{"android":"levelo://app?vid=d975341b-676a-49cc-9e48-efa05a85e18a","ios":"levelo://app?vid=d975341b-676a-49cc-9e48-efa05a85e18a"},"vehicle_type_id":"4","last_reported":1774401338,"current_range_meters":8800,"station_id":"ce4bh192rcd13ifvqdb0","pricing_plan_id":"cebpf4jnsgd1na2vs0mg"},{"bike_id":"38743f0d-93ba-4263-b51a-7cc68a4d115b","system_id":"levelo_inurba_marseille","lat":43.28449,"lon":5.39196,"is_reserved":false,"is_disabled":false,"rental_uris":{"android":"levelo://app?vid=38743f0d-93ba-4263-b51a-7cc68a4d115b","ios":"levelo://app?vid=38743f0d-93ba-4263-b51a-7cc68a4d115b"},"vehicle_type_id":"4","last_reported":1774401338,"current_range_meters":8800,"station_id":"ce4bhoh2rcd13ifvqh5g","pricing_plan_id":"cebpf4jnsgd1na2vs0mg"},{"bike_id":"ce5344ce-4c16-4dd1-aa82-8f1e2691f17b","system_id":"levelo_inurba_marseille","lat":43.28347,"lon":5.38103,"is_reserved":false,"is_disabled":false,"rental_uris":{"android":"levelo://app?vid=ce5344ce-4c16-4dd1-aa82-8f1e2691f17b","ios":"levelo://app?vid=ce5344ce-4c16-4dd1-aa82-8f1e2691f17b"},"vehicle_type_id":"4","last_reported":1774401338,"current_range_meters":8800,"station_id":"ce4bh412rcd13ifvqdr0","pricing_plan_id":"cebpf4jnsgd1na2vs0mg"},{"bike_id":"168902e2-ff80-4242-a8bf-ab3c76fe6521","system_id":"levelo_inurba_marseille","lat":43.30836,"lon":5.39729,"is_reserved":false,"is_disabled":false,"rental_uris":{"android":"levelo://app?vid=168902e2-ff80-4242-a8bf-ab3c76fe6521","ios":"levelo://app?vid=168902e2-ff80-4242-a8bf-ab3c76fe6521"},"vehicle_type_id":"4","last_reported":1774401338,"current_range_meters":8800,"station_id":"","pricing_plan_id":"cebpf4jnsgd1na2vs0mg"},{"bike_id":"cb34d68f-e1c1-47ef-8d7a-2c136b86368d","system_id":"levelo_inurba_marseille","lat":43.29247,"lon":5.40911,"is_reserved":false,"is_disabled":false,"rental_uris":{"android":"levelo://app?vid=cb34d68f-e1c1-47ef-8d7a-2c136b86368d","ios":"levelo://app?vid=cb34d68f-e1c1-47ef-8d7a-2c136b86368d"},"vehicle_type_id":"4","last_reported":1774401338,"current_range_meters":8800,"station_id":"ce4bh192rcd13ifvqdc0","pricing_plan_id":"cebpf4jnsgd1na2vs0mg"},{"bike_id":"6e567d2e-4fc5-4624-b0c4-4ed58c76ded5","system_id":"levelo_inurba_marseille","lat":43.30131,"lon":5.39853,"is_reserved":false,"is_disabled":false,"rental_uris":{"android":"levelo://app?vid=6e567d2e-4fc5-4624-b0c4-4ed58c76ded5","ios":"levelo://app?vid=6e567d2e-4fc5-4624-b0c4-4ed58c76ded5"},"vehicle_type_id":"4","last_reported":1774401338,"current_range_meters":8800,"station_id":"ce4bh0h2rcd13ifvqd40","pricing_plan_id":"cebpf4jnsgd1na2vs0mg"},{"bike_id":"866b1c87-edf5-40a8-8ca0-c6aceda22bb3","system_id":"levelo_inurba_marseille","lat":43.27917,"lon":5.3956,"is_reserved":false,"is_disabled":true,"rental_uris":{"android":"levelo://app?vid=866b1c87-edf5-40a8-8ca0-c6aceda22bb3","ios":"levelo://app?vid=866b1c87-edf5-40a8-8ca0-c6aceda22bb3"},"vehicle_type_id":"4","last_reported":1774401338,"current_range_meters":8800,"station_id":"ce4bhf92rcd13ifvqf40","pricing_plan_id":"cebpf4jnsgd1na2vs0mg"},{"bike_id":"451e822b-d17c-41b3-aa86-e9da4e66ded2","system_id":"levelo_inurba_marseille","lat":43.2397,"lon":5.36617,"is_reserved":false,"is_disabled":false,"rental_uris":{"android":"levelo://app?vid=451e822b-d17c-41b3-aa86-e9da4e66ded2","ios":"levelo://app?vid=451e822b-d17c-41b3-aa86-e9da4e66ded2"},"vehicle_type_id":"4","last_reported":1774401338,"current_range_meters":8800,"station_id":"ce4bhi12rcd13ifvqfp0","pricing_plan_id":"cebpf4jnsgd1na2vs0mg"},{"bike_id":"81afbade-9b61-4865-965d-d9c81a599521","system_id":"levelo_inurba_marseille","lat":43.23773,"lon":5.36621,"is_reserved":false,"is_disabled":false,"rental_uris":{"android":"levelo://app?vid=81afbade-9b61-4865-965d-d9c81a599521","ios":"levelo://app?vid=81afbade-9b61-4865-965d-d9c81a599521"},"vehicle_type_id":"4","last_reported":1774401338,"current_range_meters":8800,"station_id":"st_d3nk18o9ro0c73en2l3g","pricing_plan_id":"cebpf4jnsgd1na2vs0mg"},{"bike_id":"2ffcc2dd-acc7-4c1f-83fe-76a51bfe4c59","system_id":"levelo_inurba_marseille","lat":43.23787,"lon":5.36642,"is_reserved":false,"is_disabled":false,"rental_uris":{"android":"levelo://app?vid=2ffcc2dd-acc7-4c1f-83fe-76a51bfe4c59","ios":"levelo://app?vid=2ffcc2dd-acc7-4c1f-83fe-76a51bfe4c59"},"vehicle_type_id":"4","last_reported":1774401338,"current_range_meters":8800,"station_id":"st_d3nk18o9ro0c73en2l3g","pricing_plan_id":"cebpf4jnsgd1na2vs0mg"},{"bike_id":"a262f43d-85a2-4a30-93dd-8651921757f5","system_id":"levelo_inurba_marseille","lat":43.23148,"lon":5.43717,"is_reserved":false,"is_disabled":false,"rental_uris":{"android":"levelo://app?vid=a262f43d-85a2-4a30-93dd-8651921757f5","ios":"levelo://app?vid=a262f43d-85a2-4a30-93dd-8651921757f5"},"vehicle_type_id":"4","last_reported":1774401338,"current_range_meters":8800,"station_id":"ce4bhmp2rcd13ifvqgog","pricing_plan_id":"cebpf4jnsgd1na2vs0mg"},{"bike_id":"f3b94933-5431-41e1-bb45-b1afcda4b193","system_id":"levelo_inurba_marseille","lat":43.29519,"lon":5.39401,"is_reserved":false,"is_disabled":false,"rental_uris":{"android":"levelo://app?vid=f3b94933-5431-41e1-bb45-b1afcda4b193","ios":"levelo://app?vid=f3b94933-5431-41e1-bb45-b1afcda4b193"},"vehicle_type_id":"4","last_reported":1774401338,"current_range_meters":8800,"station_id":"ce4bh292rcd13ifvqdf0","pricing_plan_id":"cebpf4jnsgd1na2vs0mg"},{"bike_id":"92124dbe-944a-4a81-92b5-cdcc56fa6fdf","system_id":"levelo_inurba_marseille","lat":43.30256,"lon":5.40062,"is_reserved":false,"is_disabled":false,"rental_uris":{"android":"levelo://app?vid=92124dbe-944a-4a81-92b5-cdcc56fa6fdf","ios":"levelo://app?vid=92124dbe-944a-4a81-92b5-cdcc56fa6fdf"},"vehicle_type_id":"4","last_reported":1774401338,"current_range_meters":8800,"station_id":"ce4bgvh2rcd13ifvqcs0","pricing_plan_id":"cebpf4jnsgd1na2vs0mg"},{"bike_id":"e72e8ae8-8fbd-4b0a-bc65-861a6e77e1f8","system_id":"levelo_inurba_marseille","lat":43.27836,"lon":5.39204,"is_reserved":false,"is_disabled":false,"rental_uris":{"android":"levelo://app?vid=e72e8ae8-8fbd-4b0a-bc65-861a6e77e1f8","ios":"levelo://app?vid=e72e8ae8-8fbd-4b0a-bc65-861a6e77e1f8"},"vehicle_type_id":"4","last_reported":1774401338,"current_range_meters":8800,"station_id":"ce4bhjp2rcd13ifvqga0","pricing_plan_id":"cebpf4jnsgd1na2vs0mg"},{"bike_id":"780d6412-f267-4da6-9e69-c114c1347123","system_id":"levelo_inurba_marseille","lat":43.26221,"lon":5.40444,"is_reserved":false,"is_disabled":false,"rental_uris":{"android":"levelo://app?vid=780d6412-f267-4da6-9e69-c114c1347123","ios":"levelo://app?vid=780d6412-f267-4da6-9e69-c114c1347123"},"vehicle_type_id":"4","last_reported":1774401338,"current_range_meters":8800,"station_id":"ce4bhmh2rcd13ifvqgmg","pricing_plan_id":"cebpf4jnsgd1na2vs0mg"},{"bike_id":"8d55540b-3918-4aa9-b8c3-e70632535bd8","system_id":"levelo_inurba_marseille","lat":43.28467,"lon":5.35845,"is_reserved":false,"is_disabled":false,"rental_uris":{"android":"levelo://app?vid=8d55540b-3918-4aa9-b8c3-e70632535bd8","ios":"levelo://app?vid=8d55540b-3918-4aa9-b8c3-e70632535bd8"},"vehicle_type_id":"4","last_reported":1774401338,"current_range_meters":8800,"station_id":"ce4bhah2rcd13ifvqei0","pricing_plan_id":"cebpf4jnsgd1na2vs0mg"},{"bike_id":"0ca3a7da-11df-4415-a144-e3c69f230997","system_id":"levelo_inurba_marseille","lat":43.30883,"lon":5.39629,"is_reserved":false,"is_disabled":false,"rental_uris":{"android":"levelo://app?vid=0ca3a7da-11df-4415-a144-e3c69f230997","ios":"levelo://app?vid=0ca3a7da-11df-4415-a144-e3c69f230997"},"vehicle_type_id":"4","last_reported":1774401338,"current_range_meters":8800,"station_id":"ce4bh012rcd13ifvqcv0","pricing_plan_id":"cebpf4jnsgd1na2vs0mg"},{"bike_id":"a5b98480-f04d-4b61-81bd-7e6303f8483e","system_id":"levelo_inurba_marseille","lat":43.23191,"lon":5.3998,"is_reserved":false,"is_disabled":false,"rental_uris":{"android":"levelo://app?vid=a5b98480-f04d-4b61-81bd-7e6303f8483e","ios":"levelo://app?vid=a5b98480-f04d-4b61-81bd-7e6303f8483e"},"vehicle_type_id":"4","last_reported":1774401338,"current_range_meters":8800,"station_id":"ce4bhn12rcd13ifvqgqg","pricing_plan_id":"cebpf4jnsgd1na2vs0mg"},{"bike_id":"c322bd60-cbf0-4bb1-96d3-aa2cc92ed507","system_id":"levelo_inurba_marseille","lat":43.26568,"lon":5.38985,"is_reserved":false,"is_disabled":false,"rental_uris":{"android":"levelo://app?vid=c322bd60-cbf0-4bb1-96d3-aa2cc92ed507","ios":"levelo://app?vid=c322bd60-cbf0-4bb1-96d3-aa2cc92ed507"},"vehicle_type_id":"4","last_reported":1774401338,"current_range_meters":8800,"station_id":"ce4bhe12rcd13ifvqf30","pricing_plan_id":"cebpf4jnsgd1na2vs0mg"},{"bike_id":"d0adcb6d-011f-4790-8aee-c3605358f198","system_id":"levelo_inurba_marseille","lat":43.33018,"lon":5.39027,"is_reserved":false,"is_disabled":false,"rental_uris":{"android":"levelo://app?vid=d0adcb6d-011f-4790-8aee-c3605358f198","ios":"levelo://app?vid=d0adcb6d-011f-4790-8aee-c3605358f198"},"vehicle_type_id":"4","last_reported":1774401338,"current_range_meters":9200,"station_id":"ce4bhr92rcd13ifvqhrg","pricing_plan_id":"cebpf4jnsgd1na2vs0mg"},{"bike_id":"cb8119c2-795e-4555-80d2-5396969882bb","system_id":"levelo_inurba_marseille","lat":43.2844,"lon":5.39141,"is_reserved":false,"is_disabled":false,"rental_uris":{"android":"levelo://app?vid=cb8119c2-795e-4555-80d2-5396969882bb","ios":"levelo://app?vid=cb8119c2-795e-4555-80d2-5396969882bb"},"vehicle_type_id":"4","last_reported":1774401338,"current_range_meters":9200,"station_id":"","pricing_plan_id":"cebpf4jnsgd1na2vs0mg"},{"bike_id":"3c506157-f1c2-47cf-891f-e540401fcf63","system_id":"levelo_inurba_marseille","lat":43.33536,"lon":5.37462,"is_reserved":false,"is_disabled":false,"rental_uris":{"android":"levelo://app?vid=3c506157-f1c2-47cf-891f-e540401fcf63","ios":"levelo://app?vid=3c506157-f1c2-47cf-891f-e540401fcf63"},"vehicle_type_id":"4","last_reported":1774401338,"current_range_meters":9200,"station_id":"st_d46tts09ee8s73dlu43g","pricing_plan_id":"cebpf4jnsgd1na2vs0mg"},{"bike_id":"cbcfd3a3-331d-4395-86fc-b8abe237cc03","system_id":"levelo_inurba_marseille","lat":43.28695,"lon":5.39958,"is_reserved":false,"is_disabled":false,"rental_uris":{"android":"levelo://app?vid=cbcfd3a3-331d-4395-86fc-b8abe237cc03","ios":"levelo://app?vid=cbcfd3a3-331d-4395-86fc-b8abe237cc03"},"vehicle_type_id":"4","last_reported":1774401338,"current_range_meters":9200,"station_id":"ce4bho92rcd13ifvqh3g","pricing_plan_id":"cebpf4jnsgd1na2vs0mg"},{"bike_id":"fdd8bf84-b2fe-4508-9572-06ea662fa5ac","system_id":"levelo_inurba_marseille","lat":43.28476,"lon":5.4839,"is_reserved":false,"is_disabled":false,"rental_uris":{"android":"levelo://app?vid=fdd8bf84-b2fe-4508-9572-06ea662fa5ac","ios":"levelo://app?vid=fdd8bf84-b2fe-4508-9572-06ea662fa5ac"},"vehicle_type_id":"4","last_reported":1774401338,"current_range_meters":9200,"station_id":"","pricing_plan_id":"cebpf4jnsgd1na2vs0mg"},{"bike_id":"89673b48-b93e-49b1-91bc-4a5460ed425e","system_id":"levelo_inurba_marseille","lat":43.29898,"lon":5.43652,"is_reserved":false,"is_disabled":false,"rental_uris":{"android":"levelo://app?vid=89673b48-b93e-49b1-91bc-4a5460ed425e","ios":"levelo://app?vid=89673b48-b93e-49b1-91bc-4a5460ed425e"},"vehicle_type_id":"4","last_reported":1774401338,"current_range_meters":9200,"station_id":"ce4bhpp2rcd13ifvqhfg","pricing_plan_id":"cebpf4jnsgd1na2vs0mg"},{"bike_id":"e5f2d742-7645-4e91-a2fd-09c8c333ad0b","system_id":"levelo_inurba_marseille","lat":43.30795,"lon":5.38146,"is_reserved":false,"is_disabled":false,"rental_uris":{"android":"levelo://app?vid=e5f2d742-7645-4e91-a2fd-09c8c333ad0b","ios":"levelo://app?vid=e5f2d742-7645-4e91-a2fd-09c8c333ad0b"},"vehicle_type_id":"4","last_reported":1774401338,"current_range_meters":9200,"station_id":"ce4bgt12rcd13ifvqce0","pricing_plan_id":"cebpf4jnsgd1na2vs0mg"},{"bike_id":"614b36d8-067b-4b53-b46a-94738fd58a77","system_id":"levelo_inurba_marseille","lat":43.30428,"lon":5.39732,"is_reserved":false,"is_disabled":false,"rental_uris":{"android":"levelo://app?vid=614b36d8-067b-4b53-b46a-94738fd58a77","ios":"levelo://app?vid=614b36d8-067b-4b53-b46a-94738fd58a77"},"vehicle_type_id":"4","last_reported":1774401338,"current_range_meters":9200,"station_id":"ce4bh092rcd13ifvqd20","pricing_plan_id":"cebpf4jnsgd1na2vs0mg"},{"bike_id":"484f2abe-81d9-4c3a-92bb-99d4e164fc66","system_id":"levelo_inurba_marseille","lat":43.27556,"lon":5.41694,"is_reserved":false,"is_disabled":false,"rental_uris":{"android":"levelo://app?vid=484f2abe-81d9-4c3a-92bb-99d4e164fc66","ios":"levelo://app?vid=484f2abe-81d9-4c3a-92bb-99d4e164fc66"},"vehicle_type_id":"4","last_reported":1774401338,"current_range_meters":9200,"station_id":"st_d6im8g6chgec73a5pndg","pricing_plan_id":"cebpf4jnsgd1na2vs0mg"},{"bike_id":"76874935-a550-4b44-90a3-28eb485c749a","system_id":"levelo_inurba_marseille","lat":43.29619,"lon":5.37128,"is_reserved":false,"is_disabled":true,"rental_uris":{"android":"levelo://app?vid=76874935-a550-4b44-90a3-28eb485c749a","ios":"levelo://app?vid=76874935-a550-4b44-90a3-28eb485c749a"},"vehicle_type_id":"4","last_reported":1774401338,"current_range_meters":9200,"station_id":"ce4bgnh2rcd13ifvqc0g","pricing_plan_id":"cebpf4jnsgd1na2vs0mg"},{"bike_id":"b9a275c9-d51f-4f11-a776-e728aae18c62","system_id":"levelo_inurba_marseille","lat":43.25348,"lon":5.42131,"is_reserved":false,"is_disabled":false,"rental_uris":{"android":"levelo://app?vid=b9a275c9-d51f-4f11-a776-e728aae18c62","ios":"levelo://app?vid=b9a275c9-d51f-4f11-a776-e728aae18c62"},"vehicle_type_id":"4","last_reported":1774401338,"current_range_meters":9200,"station_id":"st_d2m65c5bi1j21697t3ng","pricing_plan_id":"cebpf4jnsgd1na2vs0mg"},{"bike_id":"0d7bffdc-d5d7-4164-be1b-12b80a9c9fbe","system_id":"levelo_inurba_marseille","lat":43.24671,"lon":5.38136,"is_reserved":false,"is_disabled":false,"rental_uris":{"android":"levelo://app?vid=0d7bffdc-d5d7-4164-be1b-12b80a9c9fbe","ios":"levelo://app?vid=0d7bffdc-d5d7-4164-be1b-12b80a9c9fbe"},"vehicle_type_id":"4","last_reported":1774401338,"current_range_meters":9200,"station_id":"ce4bhih2rcd13ifvqfr0","pricing_plan_id":"cebpf4jnsgd1na2vs0mg"},{"bike_id":"236671a6-d98f-4976-87a8-53b173d3371a","system_id":"levelo_inurba_marseille","lat":43.26217,"lon":5.40451,"is_reserved":false,"is_disabled":false,"rental_uris":{"android":"levelo://app?vid=236671a6-d98f-4976-87a8-53b173d3371a","ios":"levelo://app?vid=236671a6-d98f-4976-87a8-53b173d3371a"},"vehicle_type_id":"4","last_reported":1774401338,"current_range_meters":9200,"station_id":"ce4bhmh2rcd13ifvqgmg","pricing_plan_id":"cebpf4jnsgd1na2vs0mg"},{"bike_id":"f8f6e231-aebc-4f30-a553-ced2774c43d4","system_id":"levelo_inurba_marseille","lat":43.27063,"lon":5.42241,"is_reserved":false,"is_disabled":false,"rental_uris":{"android":"levelo://app?vid=f8f6e231-aebc-4f30-a553-ced2774c43d4","ios":"levelo://app?vid=f8f6e231-aebc-4f30-a553-ced2774c43d4"},"vehicle_type_id":"4","last_reported":1774401338,"current_range_meters":9200,"station_id":"ce4bhk92rcd13ifvqgb0","pricing_plan_id":"cebpf4jnsgd1na2vs0mg"},{"bike_id":"16bb81ca-e81b-4525-8684-b2a448d18b62","system_id":"levelo_inurba_marseille","lat":43.23781,"lon":5.36624,"is_reserved":false,"is_disabled":false,"rental_uris":{"android":"levelo://app?vid=16bb81ca-e81b-4525-8684-b2a448d18b62","ios":"levelo://app?vid=16bb81ca-e81b-4525-8684-b2a448d18b62"},"vehicle_type_id":"4","last_reported":1774401338,"current_range_meters":9200,"station_id":"st_d3nk18o9ro0c73en2l3g","pricing_plan_id":"cebpf4jnsgd1na2vs0mg"},{"bike_id":"d9130c1d-55e5-48fe-b912-3f43375e11bb","system_id":"levelo_inurba_marseille","lat":43.29786,"lon":5.39359,"is_reserved":false,"is_disabled":false,"rental_uris":{"android":"levelo://app?vid=d9130c1d-55e5-48fe-b912-3f43375e11bb","ios":"levelo://app?vid=d9130c1d-55e5-48fe-b912-3f43375e11bb"},"vehicle_type_id":"4","last_reported":1774401338,"current_range_meters":9200,"station_id":"chh1huq6cuj3fo74tm60","pricing_plan_id":"cebpf4jnsgd1na2vs0mg"},{"bike_id":"743383d3-68fd-4243-85ba-4364b2e7a080","system_id":"levelo_inurba_marseille","lat":43.24539,"lon":5.3952,"is_reserved":false,"is_disabled":true,"rental_uris":{"android":"levelo://app?vid=743383d3-68fd-4243-85ba-4364b2e7a080","ios":"levelo://app?vid=743383d3-68fd-4243-85ba-4364b2e7a080"},"vehicle_type_id":"4","last_reported":1774401338,"current_range_meters":9200,"station_id":"ce4bhlp2rcd13ifvqgjg","pricing_plan_id":"cebpf4jnsgd1na2vs0mg"},{"bike_id":"25ce42a0-72ef-4339-99d5-b1fe5613ee28","system_id":"levelo_inurba_marseille","lat":43.28591,"lon":5.37039,"is_reserved":false,"is_disabled":false,"rental_uris":{"android":"levelo://app?vid=25ce42a0-72ef-4339-99d5-b1fe5613ee28","ios":"levelo://app?vid=25ce42a0-72ef-4339-99d5-b1fe5613ee28"},"vehicle_type_id":"4","last_reported":1774401338,"current_range_meters":9200,"station_id":"ce4bht12rcd13ifvqi60","pricing_plan_id":"cebpf4jnsgd1na2vs0mg"},{"bike_id":"3969d9ff-e51e-44fd-8e71-b3c87bcabc26","system_id":"levelo_inurba_marseille","lat":43.25825,"lon":5.39432,"is_reserved":false,"is_disabled":false,"rental_uris":{"android":"levelo://app?vid=3969d9ff-e51e-44fd-8e71-b3c87bcabc26","ios":"levelo://app?vid=3969d9ff-e51e-44fd-8e71-b3c87bcabc26"},"vehicle_type_id":"4","last_reported":1774401338,"current_range_meters":9200,"station_id":"ce4bhip2rcd13ifvqft0","pricing_plan_id":"cebpf4jnsgd1na2vs0mg"},{"bike_id":"66830140-858d-4a69-a335-2446f301fa65","system_id":"levelo_inurba_marseille","lat":43.32471,"lon":5.36548,"is_reserved":false,"is_disabled":false,"rental_uris":{"android":"levelo://app?vid=66830140-858d-4a69-a335-2446f301fa65","ios":"levelo://app?vid=66830140-858d-4a69-a335-2446f301fa65"},"vehicle_type_id":"4","last_reported":1774401338,"current_range_meters":9200,"station_id":"ce4bhs12rcd13ifvqhvg","pricing_plan_id":"cebpf4jnsgd1na2vs0mg"},{"bike_id":"7c286d23-0ee0-43d9-8ebe-7926f179003d","system_id":"levelo_inurba_marseille","lat":43.28405,"lon":5.37488,"is_reserved":false,"is_disabled":false,"rental_uris":{"android":"levelo://app?vid=7c286d23-0ee0-43d9-8ebe-7926f179003d","ios":"levelo://app?vid=7c286d23-0ee0-43d9-8ebe-7926f179003d"},"vehicle_type_id":"4","last_reported":1774401338,"current_range_meters":9200,"station_id":"ce4bh412rcd13ifvqds0","pricing_plan_id":"cebpf4jnsgd1na2vs0mg"},{"bike_id":"47ed75b9-8b85-4d47-aa8c-7875f60d10be","system_id":"levelo_inurba_marseille","lat":43.27914,"lon":5.38015,"is_reserved":false,"is_disabled":false,"rental_uris":{"android":"levelo://app?vid=47ed75b9-8b85-4d47-aa8c-7875f60d10be","ios":"levelo://app?vid=47ed75b9-8b85-4d47-aa8c-7875f60d10be"},"vehicle_type_id":"4","last_reported":1774401338,"current_range_meters":9200,"station_id":"ce4bhf92rcd13ifvqf50","pricing_plan_id":"cebpf4jnsgd1na2vs0mg"},{"bike_id":"5ec79b4e-9893-4c40-8854-29e1fdef2ce2","system_id":"levelo_inurba_marseille","lat":43.31892,"lon":5.36808,"is_reserved":false,"is_disabled":false,"rental_uris":{"android":"levelo://app?vid=5ec79b4e-9893-4c40-8854-29e1fdef2ce2","ios":"levelo://app?vid=5ec79b4e-9893-4c40-8854-29e1fdef2ce2"},"vehicle_type_id":"4","last_reported":1774401338,"current_range_meters":9600,"station_id":"st_d6o2h0d0559c73evc1b0","pricing_plan_id":"cebpf4jnsgd1na2vs0mg"},{"bike_id":"f930c486-08df-4a84-b7c3-ffc4d1c80abe","system_id":"levelo_inurba_marseille","lat":43.24637,"lon":5.38864,"is_reserved":false,"is_disabled":false,"rental_uris":{"android":"levelo://app?vid=f930c486-08df-4a84-b7c3-ffc4d1c80abe","ios":"levelo://app?vid=f930c486-08df-4a84-b7c3-ffc4d1c80abe"},"vehicle_type_id":"4","last_reported":1774401338,"current_range_meters":9600,"station_id":"ce4bhg12rcd13ifvqf60","pricing_plan_id":"cebpf4jnsgd1na2vs0mg"},{"bike_id":"d64c94f3-e268-41de-bac3-5a218887d9b5","system_id":"levelo_inurba_marseille","lat":43.28475,"lon":5.48394,"is_reserved":false,"is_disabled":false,"rental_uris":{"android":"levelo://app?vid=d64c94f3-e268-41de-bac3-5a218887d9b5","ios":"levelo://app?vid=d64c94f3-e268-41de-bac3-5a218887d9b5"},"vehicle_type_id":"4","last_reported":1774401338,"current_range_meters":9600,"station_id":"","pricing_plan_id":"cebpf4jnsgd1na2vs0mg"},{"bike_id":"f2f54841-aaa8-4442-b101-8d11e6b13a1a","system_id":"levelo_inurba_marseille","lat":43.2845,"lon":5.35883,"is_reserved":false,"is_disabled":false,"rental_uris":{"android":"levelo://app?vid=f2f54841-aaa8-4442-b101-8d11e6b13a1a","ios":"levelo://app?vid=f2f54841-aaa8-4442-b101-8d11e6b13a1a"},"vehicle_type_id":"4","last_reported":1774401338,"current_range_meters":9600,"station_id":"ce4bhah2rcd13ifvqei0","pricing_plan_id":"cebpf4jnsgd1na2vs0mg"},{"bike_id":"0c7c0aac-3c1f-4eb9-87ec-fe0eef994e7c","system_id":"levelo_inurba_marseille","lat":43.28456,"lon":5.35891,"is_reserved":false,"is_disabled":false,"rental_uris":{"android":"levelo://app?vid=0c7c0aac-3c1f-4eb9-87ec-fe0eef994e7c","ios":"levelo://app?vid=0c7c0aac-3c1f-4eb9-87ec-fe0eef994e7c"},"vehicle_type_id":"4","last_reported":1774401338,"current_range_meters":9600,"station_id":"ce4bhah2rcd13ifvqei0","pricing_plan_id":"cebpf4jnsgd1na2vs0mg"},