{"last_updated":1736784702,"ttl":60,"version":"2.2","data":{"bikes":[{"bike_id":"2f4e0253-da65-48c9-961b-7746ab2ffb8d","system_id":"levelo_inurba_marseille","lat":43.32437,"lon":5.36495,"is_reserved":false,"is_disabled":false,"rental_uris":{"android":"levelo://app?vid=2f4e0253-da65-48c9-961b-7746ab2ffb8d","ios":"levelo://app?vid=2f4e0253-da65-48c9-961b-7746ab2ffb8d"},"vehicle_type_id":"4","last_reported":1736784702,"current_range_meters":38800,"station_id":"","pricing_plan_id":"cebpf4jnsgd1na2vs0mg"},{"bike_id":"86b21d7e-15bf-4bb0-8372-72bbbcd1017f","system_id":"levelo_inurba_marseille","lat":43.28933,"lon":5.38387,"is_reserved":false,"is_disabled":false,"rental_uris":{"android":"levelo://app?vid=86b21d7e-15bf-4bb0-8372-72bbbcd1017f","ios":"levelo://app?vid=86b21d7e-15bf-4bb0-8372-72bbbcd1017f"},"vehicle_type_id":"4","last_reported":1736784702,"current_range_meters":10800,"station_id":"ce4bh612rcd13ifvqe6g","pricing_plan_id":"cebpf4jnsgd1na2vs0mg"},{"bike_id":"f8858586-ef30-44a5-b783-a9bff6e2b165","system_id":"levelo_inurba_marseille","lat":43.2657,"lon":5.3901,"is_reserved":false,"is_disabled":false,"rental_uris":{"android":"levelo://app?vid=f8858586-ef30-44a5-b783-a9bff6e2b165","ios":"levelo://app?vid=f8858586-ef30-44a5-b783-a9bff6e2b165"},"vehicle_type_id":"4","last_reported":1736784702,"current_range_meters":12800,"station_id":"ce4bhe12rcd13ifvqf30","pricing_plan_id":"cebpf4jnsgd1na2vs0mg"},{"bike_id":"e8556338-dfa5-4f3e-a951-4283961b5942","system_id":"levelo_inurba_marseille","lat":43.28942,"lon":5.36641,"is_reserved":false,"is_disabled":false,"rental_uris":{"android":"levelo://app?vid=e8556338-dfa5-4f3e-a951-4283961b5942","ios":"levelo://app?vid=e8556338-dfa5-4f3e-a951-4283961b5942"},"vehicle_type_id":"4","last_reported":1736784702,"current_range_meters":30000,"station_id":"ce4bhap2rcd13ifvqek0","pricing_plan_id":"cebpf4jnsgd1na2vs0mg"},{"bike_id":"6441bf7a-2b36-426f-b9f5-622c03eb5300","system_id":"levelo_inurba_marseille","lat":43.29417,"lon":5.38622,"is_reserved":false,"is_disabled":false,"rental_uris":{"android":"levelo://app?vid=6441bf7a-2b36-426f-b9f5-622c03eb5300","ios":"levelo://app?vid=6441bf7a-2b36-426f-b9f5-622c03eb5300"},"vehicle_type_id":"4","last_reported":1736784702,"current_range_meters":36000,"station_id":"ce4bh2h2rcd13ifvqdh0","pricing_plan_id":"cebpf4jnsgd1na2vs0mg"},{"bike_id":"3953439b-f509-49e5-bb8d-9b9887e5086e","system_id":"levelo_inurba_marseille","lat":43.31078,"lon":5.38355,"is_reserved":false,"is_disabled":false,"rental_uris":{"android":"levelo://app?vid=3953439b-f509-49e5-bb8d-9b9887e5086e","ios":"levelo://app?vid=3953439b-f509-49e5-bb8d-9b9887e5086e"},"vehicle_type_id":"4","last_reported":1736784702,"current_range_meters":32000,"station_id":"ce4bgv92rcd13ifvqcr0","pricing_plan_id":"cebpf4jnsgd1na2vs0mg"},{"bike_id":"86729a4a-3a94-47d1-b67a-e33b213b8404","system_id":"levelo_inurba_marseille","lat":43.28947,"lon":5.36637,"is_reserved":false,"is_disabled":false,"rental_uris":{"android":"levelo://app?vid=86729a4a-3a94-47d1-b67a-e33b213b8404","ios":"levelo://app?vid=86729a4a-3a94-47d1-b67a-e33b213b8404"},"vehicle_type_id":"4","last_reported":1736784702,"current_range_meters":34800,"station_id":"ce4bhap2rcd13ifvqek0","pricing_plan_id":"cebpf4jnsgd1na2vs0mg"},{"bike_id":"8df66f74-b7b1-4730-a851-ab6b59f101e6","system_id":"levelo_inurba_marseille","lat":43.286145,"lon":5.350995,"is_reserved":false,"is_disabled":false,"rental_uris":{"android":"levelo://app?vid=8df66f74-b7b1-4730-a851-ab6b59f101e6","ios":"levelo://app?vid=8df66f74-b7b1-4730-a851-ab6b59f101e6"},"vehicle_type_id":"4","last_reported":1736784702,"current_range_meters":32000,"station_id":"ce4bhch2rcd13ifvqeug","pricing_plan_id":"cebpf4jnsgd1na2vs0mg"},{"bike_id":"a6943742-818e-4008-acc6-cc0735fe9917","system_id":"levelo_inurba_marseille","lat":43.31472,"lon":5.38877,"is_reserved":false,"is_disabled":false,"rental_uris":{"android":"levelo://app?vid=a6943742-818e-4008-acc6-cc0735fe9917","ios":"levelo://app?vid=a6943742-818e-4008-acc6-cc0735fe9917"},"vehicle_type_id":"4","last_reported":1736784702,"current_range_meters":24800,"station_id":"","pricing_plan_id":"cebpf4jnsgd1na2vs0mg"},{"bike_id":"9d761040-bdb4-485c-a7d6-9fd34dabaa0b","system_id":"levelo_inurba_marseille","lat":43.30136,"lon":5.3879,"is_reserved":false,"is_disabled":false,"rental_uris":{"android":"levelo://app?vid=9d761040-bdb4-485c-a7d6-9fd34dabaa0b","ios":"levelo://app?vid=9d761040-bdb4-485c-a7d6-9fd34dabaa0b"},"vehicle_type_id":"4","last_reported":1736784702,"current_range_meters":4800,"station_id":"ce4bghh2rcd13ifvqb60","pricing_plan_id":"cebpf4jnsgd1na2vs0mg"},{"bike_id":"08e5a2fb-462e-4bb1-96d3-0fe494d9c726","system_id":"levelo_inurba_marseille","lat":43.29578,"lon":5.36741,"is_reserved":false,"is_disabled":false,"rental_uris":{"android":"levelo://app?vid=08e5a2fb-462e-4bb1-96d3-0fe494d9c726","ios":"levelo://app?vid=08e5a2fb-462e-4bb1-96d3-0fe494d9c726"},"vehicle_type_id":"4","last_reported":1736784702,"current_range_meters":38400,"station_id":"ce4bgph2rcd13ifvqc2g","pricing_plan_id":"cebpf4jnsgd1na2vs0mg"},{"bike_id":"5bb5758f-37be-496e-ac0a-3712e6b43125","system_id":"levelo_inurba_marseille","lat":43.26198,"lon":5.37926,"is_reserved":false,"is_disabled":false,"rental_uris":{"android":"levelo://app?vid=5bb5758f-37be-496e-ac0a-3712e6b43125","ios":"levelo://app?vid=5bb5758f-37be-496e-ac0a-3712e6b43125"},"vehicle_type_id":"4","last_reported":1736784702,"current_range_meters":38800,"station_id":"ce4bhjp2rcd13ifvqg90","pricing_plan_id":"cebpf4jnsgd1na2vs0mg"},{"bike_id":"fbdc1be9-0896-4827-9983-8a84e7013511","system_id":"levelo_inurba_marseille","lat":43.25196,"lon":5.4029,"is_reserved":false,"is_disabled":false,"rental_uris":{"android":"levelo://app?vid=fbdc1be9-0896-4827-9983-8a84e7013511","ios":"levelo://app?vid=fbdc1be9-0896-4827-9983-8a84e7013511"},"vehicle_type_id":"4","last_reported":1736784702,"current_range_meters":36800,"station_id":"","pricing_plan_id":"cebpf4jnsgd1na2vs0mg"},{"bike_id":"08414dc8-ca1a-4c55-a1fd-bdd61f70b47b","system_id":"levelo_inurba_marseille","lat":43.2467,"lon":5.38156,"is_reserved":false,"is_disabled":false,"rental_uris":{"android":"levelo://app?vid=08414dc8-ca1a-4c55-a1fd-bdd61f70b47b","ios":"levelo://app?vid=08414dc8-ca1a-4c55-a1fd-bdd61f70b47b"},"vehicle_type_id":"4","last_reported":1736784702,"current_range_meters":26000,"station_id":"ce4bhih2rcd13ifvqfr0","pricing_plan_id":"cebpf4jnsgd1na2vs0mg"},{"bike_id":"9fcc88dd-34cd-4ae6-82cd-3f8a2d8bfba2","system_id":"levelo_inurba_marseille","lat":43.31375,"lon":5.38496,"is_reserved":false,"is_disabled":false,"rental_uris":{"android":"levelo://app?vid=9fcc88dd-34cd-4ae6-82cd-3f8a2d8bfba2","ios":"levelo://app?vid=9fcc88dd-34cd-4ae6-82cd-3f8a2d8bfba2"},"vehicle_type_id":"4","last_reported":1736784702,"current_range_meters":30000,"station_id":"ce4bgt92rcd13ifvqcf0","pricing_plan_id":"cebpf4jnsgd1na2vs0mg"},{"bike_id":"962cc5cc-fec7-46f8-84df-102fbfaf51f6","system_id":"levelo_inurba_marseille","lat":43.25931,"lon":5.4091,"is_reserved":false,"is_disabled":true,"rental_uris":{"android":"levelo://app?vid=962cc5cc-fec7-46f8-84df-102fbfaf51f6","ios":"levelo://app?vid=962cc5cc-fec7-46f8-84df-102fbfaf51f6"},"vehicle_type_id":"4","last_reported":1736784702,"current_range_meters":1200,"station_id":"ce4bhm92rcd13ifvqglg","pricing_plan_id":"cebpf4jnsgd1na2vs0mg"},{"bike_id":"6123cfca-47e4-42de-9850-bac2fcc136db","system_id":"levelo_inurba_marseille","lat":43.26931,"lon":5.40256,"is_reserved":false,"is_disabled":false,"rental_uris":{"android":"levelo://app?vid=6123cfca-47e4-42de-9850-bac2fcc136db","ios":"levelo://app?vid=6123cfca-47e4-42de-9850-bac2fcc136db"},"vehicle_type_id":"4","last_reported":1736784702,"current_range_meters":8000,"station_id":"cjm6bp8fraef2m0cb0m0","pricing_plan_id":"cebpf4jnsgd1na2vs0mg"},{"bike_id":"25201559-3be6-490e-b049-639df5366fcd","system_id":"levelo_inurba_marseille","lat":43.29981,"lon":5.38505,"is_reserved":false,"is_disabled":true,"rental_uris":{"android":"levelo://app?vid=25201559-3be6-490e-b049-639df5366fcd","ios":"levelo://app?vid=25201559-3be6-490e-b049-639df5366fcd"},"vehicle_type_id":"4","last_reported":1736784702,"current_range_meters":38800,"station_id":"ce4bgj92rcd13ifvqbd0","pricing_plan_id":"cebpf4jnsgd1na2vs0mg"},{"bike_id":"94440fca-9d66-4315-a057-b48311229f6d","system_id":"levelo_inurba_marseille","lat":43.33611,"lon":5.40989,"is_reserved":false,"is_disabled":true,"rental_uris":{"android":"levelo://app?vid=94440fca-9d66-4315-a057-b48311229f6d","ios":"levelo://app?vid=94440fca-9d66-4315-a057-b48311229f6d"},"vehicle_type_id":"4","last_reported":1736784702,"current_range_meters":37600,"station_id":"ce4bhqh2rcd13ifvqhmg","pricing_plan_id":"cebpf4jnsgd1na2vs0mg"},{"bike_id":"9e6646e5-9d87-4983-801d-23c2f029da91","system_id":"levelo_inurba_marseille","lat":43.29302,"lon":5.37462,"is_reserved":false,"is_disabled":false,"rental_uris":{"android":"levelo://app?vid=9e6646e5-9d87-4983-801d-23c2f029da91","ios":"levelo://app?vid=9e6646e5-9d87-4983-801d-23c2f029da91"},"vehicle_type_id":"4","last_reported":1736784702,"current_range_meters":27200,"station_id":"ce4bgi12rcd13ifvqb70","pricing_plan_id":"cebpf4jnsgd1na2vs0mg"},{"bike_id":"6a8dc65c-8c47-4239-8815-8efa2acdc338","system_id":"levelo_inurba_marseille","lat":43.27996,"lon":5.41642,"is_reserved":false,"is_disabled":true,"rental_uris":{"android":"levelo://app?vid=6a8dc65c-8c47-4239-8815-8efa2acdc338","ios":"levelo://app?vid=6a8dc65c-8c47-4239-8815-8efa2acdc338"},"vehicle_type_id":"4","last_reported":1736784702,"current_range_meters":3200,"station_id":"ce4bho12rcd13ifvqh1g","pricing_plan_id":"cebpf4jnsgd1na2vs0mg"},{"bike_id":"4e90e164-c6d8-4e6d-b5f3-94e5163f5ba6","system_id":"levelo_inurba_marseille","lat":43.30131,"lon":5.39873,"is_reserved":false,"is_disabled":false,"rental_uris":{"android":"levelo://app?vid=4e90e164-c6d8-4e6d-b5f3-94e5163f5ba6","ios":"levelo://app?vid=4e90e164-c6d8-4e6d-b5f3-94e5163f5ba6"},"vehicle_type_id":"4","last_reported":1736784702,"current_range_meters":27600,"station_id":"ce4bh0h2rcd13ifvqd40","pricing_plan_id":"cebpf4jnsgd1na2vs0mg"},{"bike_id":"94d00723-79f7-443c-bc62-0c89ddbb1d1c","system_id":"levelo_inurba_marseille","lat":43.28162,"lon":5.42638,"is_reserved":false,"is_disabled":true,"rental_uris":{"android":"levelo://app?vid=94d00723-79f7-443c-bc62-0c89ddbb1d1c","ios":"levelo://app?vid=94d00723-79f7-443c-bc62-0c89ddbb1d1c"},"vehicle_type_id":"4","last_reported":1736784702,"current_range_meters":20400,"station_id":"ce4bhnh2rcd13ifvqgug","pricing_plan_id":"cebpf4jnsgd1na2vs0mg"},{"bike_id":"1d1453ac-9920-4217-9a89-34f1fcade485","system_id":"levelo_inurba_marseille","lat":43.23142,"lon":5.43721,"is_reserved":false,"is_disabled":false,"rental_uris":{"android":"levelo://app?vid=1d1453ac-9920-4217-9a89-34f1fcade485","ios":"levelo://app?vid=1d1453ac-9920-4217-9a89-34f1fcade485"},"vehicle_type_id":"4","last_reported":1736784702,"current_range_meters":8400,"station_id":"ce4bhmp2rcd13ifvqgog","pricing_plan_id":"cebpf4jnsgd1na2vs0mg"},{"bike_id":"936740fb-9b34-4884-80d6-b102868533e7","system_id":"levelo_inurba_marseille","lat":43.325054,"lon":5.365633,"is_reserved":false,"is_disabled":false,"rental_uris":{"android":"levelo://app?vid=936740fb-9b34-4884-80d6-b102868533e7","ios":"levelo://app?vid=936740fb-9b34-4884-80d6-b102868533e7"},"vehicle_type_id":"4","last_reported":1736784702,"current_range_meters":38000,"station_id":"ce4bhs12rcd13ifvqhvg","pricing_plan_id":"cebpf4jnsgd1na2vs0mg"},{"bike_id":"e35d110b-0ca6-4c99-b711-04ba364d3860","system_id":"levelo_inurba_marseille","lat":43.23194,"lon":5.35552,"is_reserved":false,"is_disabled":false,"rental_uris":{"android":"levelo://app?vid=e35d110b-0ca6-4c99-b711-04ba364d3860","ios":"levelo://app?vid=e35d110b-0ca6-4c99-b711-04ba364d3860"},"vehicle_type_id":"4","last_reported":1736784702,"current_range_meters":37600,"station_id":"ce4bhu92rcd13ifvqi70","pricing_plan_id":"cebpf4jnsgd1na2vs0mg"},{"bike_id":"7078b9b0-b543-4d89-bcbb-73942769aa60","system_id":"levelo_inurba_marseille","lat":43.24556,"lon":5.39529,"is_reserved":false,"is_disabled":true,"rental_uris":{"android":"levelo://app?vid=7078b9b0-b543-4d89-bcbb-73942769aa60","ios":"levelo://app?vid=7078b9b0-b543-4d89-bcbb-73942769aa60"},"vehicle_type_id":"4","last_reported":1736784702,"current_range_meters":1200,"station_id":"ce4bha12rcd13ifvqee0","pricing_plan_id":"cebpf4jnsgd1na2vs0mg"},{"bike_id":"4ab80d9f-a6aa-413f-b2d8-93576da9c6b3","system_id":"levelo_inurba_marseille","lat":43.26208,"lon":5.3744,"is_reserved":false,"is_disabled":false,"rental_uris":{"android":"levelo://app?vid=4ab80d9f-a6aa-413f-b2d8-93576da9c6b3","ios":"levelo://app?vid=4ab80d9f-a6aa-413f-b2d8-93576da9c6b3"},"vehicle_type_id":"4","last_reported":1736784702,"current_range_meters":24800,"station_id":"ce4bhgp2rcd13ifvqfc0","pricing_plan_id":"cebpf4jnsgd1na2vs0mg"},{"bike_id":"4ff57719-03f4-47bd-8538-0e0467c2c848","system_id":"levelo_inurba_marseille","lat":43.25875,"lon":5.39893,"is_reserved":false,"is_disabled":false,"rental_uris":{"android":"levelo://app?vid=4ff57719-03f4-47bd-8538-0e0467c2c848","ios":"levelo://app?vid=4ff57719-03f4-47bd-8538-0e0467c2c848"},"vehicle_type_id":"4","last_reported":1736784702,"current_range_meters":24800,"station_id":"ce4bhl92rcd13ifvqghg","pricing_plan_id":"cebpf4jnsgd1na2vs0mg"},{"bike_id":"6b750947-fb43-40e2-9931-495446cc2b3f","system_id":"levelo_inurba_marseille","lat":43.22928,"lon":5.35373,"is_reserved":false,"is_disabled":false,"rental_uris":{"android":"levelo://app?vid=6b750947-fb43-40e2-9931-495446cc2b3f","ios":"levelo://app?vid=6b750947-fb43-40e2-9931-495446cc2b3f"},"vehicle_type_id":"4","last_reported":1736784702,"current_range_meters":28800,"station_id":"cpo3532slgdg3j2ikp40","pricing_plan_id":"cebpf4jnsgd1na2vs0mg"},{"bike_id":"c8e997c0-8580-4d0f-8d9f-0766596381e1","system_id":"levelo_inurba_marseille","lat":43.34011,"lon":5.37564,"is_reserved":false,"is_disabled":true,"rental_uris":{"android":"levelo://app?vid=c8e997c0-8580-4d0f-8d9f-0766596381e1","ios":"levelo://app?vid=c8e997c0-8580-4d0f-8d9f-0766596381e1"},"vehicle_type_id":"4","last_reported":1736784702,"current_range_meters":0,"station_id":"","pricing_plan_id":"cebpf4jnsgd1na2vs0mg"},{"bike_id":"c60791e5-c5b6-4b5f-a2b3-68e6dd491ea9","system_id":"levelo_inurba_marseille","lat":43.30517,"lon":5.37242,"is_reserved":false,"is_disabled":false,"rental_uris":{"android":"levelo://app?vid=c60791e5-c5b6-4b5f-a2b3-68e6dd491ea9","ios":"levelo://app?vid=c60791e5-c5b6-4b5f-a2b3-68e6dd491ea9"},"vehicle_type_id":"4","last_reported":1736784702,"current_range_meters":22000,"station_id":"","pricing_plan_id":"cebpf4jnsgd1na2vs0mg"},{"bike_id":"00464f96-e8aa-4f7f-867d-1acf62464017","system_id":"levelo_inurba_marseille","lat":43.2991,"lon":5.37472,"is_reserved":false,"is_disabled":true,"rental_uris":{"android":"levelo://app?vid=00464f96-e8aa-4f7f-867d-1acf62464017","ios":"levelo://app?vid=00464f96-e8aa-4f7f-867d-1acf62464017"},"vehicle_type_id":"4","last_reported":1736784702,"current_range_meters":0,"station_id":"ce4bgjh2rcd13ifvqbg0","pricing_plan_id":"cebpf4jnsgd1na2vs0mg"},{"bike_id":"ba5df164-d25c-4a1c-8679-1bd1a1db0642","system_id":"levelo_inurba_marseille","lat":43.33726,"lon":5.3919,"is_reserved":false,"is_disabled":false,"rental_uris":{"android":"levelo://app?vid=ba5df164-d25c-4a1c-8679-1bd1a1db0642","ios":"levelo://app?vid=ba5df164-d25c-4a1c-8679-1bd1a1db0642"},"vehicle_type_id":"4","last_reported":1736784702,"current_range_meters":38800,"station_id":"ce4bhr92rcd13ifvqhsg","pricing_plan_id":"cebpf4jnsgd1na2vs0mg"},{"bike_id":"0a0c0d3e-aac5-4346-9c6d-081b23451d86","system_id":"levelo_inurba_marseille","lat":43.30709,"lon":5.37313,"is_reserved":false,"is_disabled":false,"rental_uris":{"android":"levelo://app?vid=0a0c0d3e-aac5-4346-9c6d-081b23451d86","ios":"levelo://app?vid=0a0c0d3e-aac5-4346-9c6d-081b23451d86"},"vehicle_type_id":"4","last_reported":1736784702,"current_range_meters":28800,"station_id":"","pricing_plan_id":"cebpf4jnsgd1na2vs0mg"},{"bike_id":"7dd5dd5e-1d75-4c5b-b5b8-248a34302cca","system_id":"levelo_inurba_marseille","lat":43.30461,"lon":5.3791,"is_reserved":false,"is_disabled":true,"rental_uris":{"android":"levelo://app?vid=7dd5dd5e-1d75-4c5b-b5b8-248a34302cca","ios":"levelo://app?vid=7dd5dd5e-1d75-4c5b-b5b8-248a34302cca"},"vehicle_type_id":"4","last_reported":1736784702,"current_range_meters":26000,"station_id":"ce4bgup2rcd13ifvqcn0","pricing_plan_id":"cebpf4jnsgd1na2vs0mg"},{"bike_id":"2f954e87-6350-41c6-98b5-d8839aaa32bf","system_id":"levelo_inurba_marseille","lat":43.26036,"lon":5.37545,"is_reserved":false,"is_disabled":false,"rental_uris":{"android":"levelo://app?vid=2f954e87-6350-41c6-98b5-d8839aaa32bf","ios":"levelo://app?vid=2f954e87-6350-41c6-98b5-d8839aaa32bf"},"vehicle_type_id":"4","last_reported":1736784702,"current_range_meters":38000,"station_id":"ce4bhgh2rcd13ifvqfa0","pricing_plan_id":"cebpf4jnsgd1na2vs0mg"},{"bike_id":"d85a1d9b-f035-4b2a-858c-2526acab5ed6","system_id":"levelo_inurba_marseille","lat":43.30138,"lon":5.37419,"is_reserved":false,"is_disabled":true,"rental_uris":{"android":"levelo://app?vid=d85a1d9b-f035-4b2a-858c-2526acab5ed6","ios":"levelo://app?vid=d85a1d9b-f035-4b2a-858c-2526acab5ed6"},"vehicle_type_id":"4","last_reported":1736784702,"current_range_meters":38000,"station_id":"ce4bgs92rcd13ifvqcc0","pricing_plan_id":"cebpf4jnsgd1na2vs0mg"},{"bike_id":"d8327471-e10e-4e1d-a46b-c43156fc0620","system_id":"levelo_inurba_marseille","lat":43.26795,"lon":5.39431,"is_reserved":false,"is_disabled":false,"rental_uris":{"android":"levelo://app?vid=d8327471-e10e-4e1d-a46b-c43156fc0620","ios":"levelo://app?vid=d8327471-e10e-4e1d-a46b-c43156fc0620"},"vehicle_type_id":"4","last_reported":1736784702,"current_range_meters":37600,"station_id":"ce4bhh12rcd13ifvqfg0","pricing_plan_id":"cebpf4jnsgd1na2vs0mg"},{"bike_id":"1481326c-119b-4a4e-9051-004796883f8f","system_id":"levelo_inurba_marseille","lat":43.24803,"lon":5.37453,"is_reserved":false,"is_disabled":false,"rental_uris":{"android":"levelo://app?vid=1481326c-119b-4a4e-9051-004796883f8f","ios":"levelo://app?vid=1481326c-119b-4a4e-9051-004796883f8f"},"vehicle_type_id":"4","last_reported":1736784702,"current_range_meters":10000,"station_id":"ce4bhgh2rcd13ifvqfb0","pricing_plan_id":"cebpf4jnsgd1na2vs0mg"},{"bike_id":"c90d39e2-ef0f-44b0-b53c-9fe7a71d2a54","system_id":"levelo_inurba_marseille","lat":43.32335,"lon":5.40623,"is_reserved":false,"is_disabled":false,"rental_uris":{"android":"levelo://app?vid=c90d39e2-ef0f-44b0-b53c-9fe7a71d2a54","ios":"levelo://app?vid=c90d39e2-ef0f-44b0-b53c-9fe7a71d2a54"},"vehicle_type_id":"4","last_reported":1736784702,"current_range_meters":36400,"station_id":"ce4bhq92rcd13ifvqhjg","pricing_plan_id":"cebpf4jnsgd1na2vs0mg"},{"bike_id":"5372dfef-da71-4e3b-8377-854fdc0e47f5","system_id":"levelo_inurba_marseille","lat":43.32498,"lon":5.36567,"is_reserved":false,"is_disabled":false,"rental_uris":{"android":"levelo://app?vid=5372dfef-da71-4e3b-8377-854fdc0e47f5","ios":"levelo://app?vid=5372dfef-da71-4e3b-8377-854fdc0e47f5"},"vehicle_type_id":"4","last_reported":1736784702,"current_range_meters":31200,"station_id":"ce4bhs12rcd13ifvqhvg","pricing_plan_id":"cebpf4jnsgd1na2vs0mg"},{"bike_id":"6ba8d844-4be9-4966-b91c-0b5bcfe6a94b","system_id":"levelo_inurba_marseille","lat":43.29161,"lon":5.37143,"is_reserved":false,"is_disabled":true,"rental_uris":{"android":"levelo://app?vid=6ba8d844-4be9-4966-b91c-0b5bcfe6a94b","ios":"levelo://app?vid=6ba8d844-4be9-4966-b91c-0b5bcfe6a94b"},"vehicle_type_id":"4","last_reported":1736784702,"current_range_meters":38800,"station_id":"ce4bha92rcd13ifvqeh0","pricing_plan_id":"cebpf4jnsgd1na2vs0mg"},{"bike_id":"bff8ea70-f50b-46d3-9552-5cf5a5aa536c","system_id":"levelo_inurba_marseille","lat":43.28667,"lon":5.38664,"is_reserved":false,"is_disabled":false,"rental_uris":{"android":"levelo://app?vid=bff8ea70-f50b-46d3-9552-5cf5a5aa536c","ios":"levelo://app?vid=bff8ea70-f50b-46d3-9552-5cf5a5aa536c"},"vehicle_type_id":"4","last_reported":1736784702,"current_range_meters":37600,"station_id":"ce4bh492rcd13ifvqdug","pricing_plan_id":"cebpf4jnsgd1na2vs0mg"},{"bike_id":"59d914a9-7941-4d0c-ad3f-66ae0befc663","system_id":"levelo_inurba_marseille","lat":43.28035,"lon":5.36962,"is_reserved":false,"is_disabled":false,"rental_uris":{"android":"levelo://app?vid=59d914a9-7941-4d0c-ad3f-66ae0befc663","ios":"levelo://app?vid=59d914a9-7941-4d0c-ad3f-66ae0befc663"},"vehicle_type_id":"4","last_reported":1736784702,"current_range_meters":10800,"station_id":"ce4bha12rcd13ifvqef0","pricing_plan_id":"cebpf4jnsgd1na2vs0mg"},{"bike_id":"426ee80e-06b0-4d0f-86a5-ea8ad64aaa11","system_id":"levelo_inurba_marseille","lat":43.28914,"lon":5.43752,"is_reserved":false,"is_disabled":false,"rental_uris":{"android":"levelo://app?vid=426ee80e-06b0-4d0f-86a5-ea8ad64aaa11","ios":"levelo://app?vid=426ee80e-06b0-4d0f-86a5-ea8ad64aaa11"},"vehicle_type_id":"4","last_reported":1736784702,"current_range_meters":8800,"station_id":"","pricing_plan_id":"cebpf4jnsgd1na2vs0mg"},{"bike_id":"1828007a-17e6-4e50-bd30-ece2880e184c","system_id":"levelo_inurba_marseille","lat":43.29027,"lon":5.38146,"is_reserved":false,"is_disabled":false,"rental_uris":{"android":"levelo://app?vid=1828007a-17e6-4e50-bd30-ece2880e184c","ios":"levelo://app?vid=1828007a-17e6-4e50-bd30-ece2880e184c"},"vehicle_type_id":"4","last_reported":1736784702,"current_range_meters":34000,"station_id":"ce4bh4p2rcd13ifvqe1g","pricing_plan_id":"cebpf4jnsgd1na2vs0mg"},{"bike_id":"6a8d040f-4357-4f0a-a38a-2727a5bd9949","system_id":"levelo_inurba_marseille","lat":43.29025,"lon":5.38125,"is_reserved":false,"is_disabled":false,"rental_uris":{"android":"levelo://app?vid=6a8d040f-4357-4f0a-a38a-2727a5bd9949","ios":"levelo://app?vid=6a8d040f-4357-4f0a-a38a-2727a5bd9949"},"vehicle_type_id":"4","last_reported":1736784702,"current_range_meters":35600,"station_id":"ce4bh4p2rcd13ifvqe1g","pricing_plan_id":"cebpf4jnsgd1na2vs0mg"},{"bike_id":"9814023a-fbfd-430e-a624-071e90fc1982","system_id":"levelo_inurba_marseille","lat":43.274316,"lon":5.394226,"is_reserved":false,"is_disabled":false,"rental_uris":{"android":"levelo://app?vid=9814023a-fbfd-430e-a624-071e90fc1982","ios":"levelo://app?vid=9814023a-fbfd-430e-a624-071e90fc1982"},"vehicle_type_id":"4","last_reported":1736784702,"current_range_meters":26800,"station_id":"ce4bhdp2rcd13ifvqf20","pricing_plan_id":"cebpf4jnsgd1na2vs0mg"},{"bike_id":"969e27ab-5a9e-459e-9526-3b57e6f57682","system_id":"levelo_inurba_marseille","lat":43.22931,"lon":5.35373,"is_reserved":false,"is_disabled":false,"rental_uris":{"android":"levelo://app?vid=969e27ab-5a9e-459e-9526-3b57e6f57682","ios":"levelo://app?vid=969e27ab-5a9e-459e-9526-3b57e6f57682"},"vehicle_type_id":"4","last_reported":1736784702,"current_range_meters":38800,"station_id":"cpo3532slgdg3j2ikp40","pricing_plan_id":"cebpf4jnsgd1na2vs0mg"},{"bike_id":"b33110fc-ec94-43a5-8774-7f7c0a032fcb","system_id":"levelo_inurba_marseille","lat":43.30782,"lon":5.37645,"is_reserved":false,"is_disabled":false,"rental_uris":{"android":"levelo://app?vid=b33110fc-ec94-43a5-8774-7f7c0a032fcb","ios":"levelo://app?vid=b33110fc-ec94-43a5-8774-7f7c0a032fcb"},"vehicle_type_id":"4","last_reported":1736784702,"current_range_meters":14000,"station_id":"ce4bgv92rcd13ifvqcq0","pricing_plan_id":"cebpf4jnsgd1na2vs0mg"},{"bike_id":"e6150580-61d3-4a64-8f36-c72aec658bfe","system_id":"levelo_inurba_marseille","lat":43.28606,"lon":5.37061,"is_reserved":false,"is_disabled":false,"rental_uris":{"android":"levelo://app?vid=e6150580-61d3-4a64-8f36-c72aec658bfe","ios":"levelo://app?vid=e6150580-61d3-4a64-8f36-c72aec658bfe"},"vehicle_type_id":"4","last_reported":1736784702,"current_range_meters":38000,"station_id":"ce4bht12rcd13ifvqi60","pricing_plan_id":"cebpf4jnsgd1na2vs0mg"},{"bike_id":"fafa25b0-e75e-49ae-865e-60291b28c72d","system_id":"levelo_inurba_marseille","lat":43.28627,"lon":5.35109,"is_reserved":false,"is_disabled":false,"rental_uris":{"android":"levelo://app?vid=fafa25b0-e75e-49ae-865e-60291b28c72d","ios":"levelo://app?vid=fafa25b0-e75e-49ae-865e-60291b28c72d"},"vehicle_type_id":"4","last_reported":1736784702,"current_range_meters":26000,"station_id":"ce4bhch2rcd13ifvqeug","pricing_plan_id":"cebpf4jnsgd1na2vs0mg"},{"bike_id":"f4dbc556-58b0-4dfd-be99-18a51c032520","system_id":"levelo_inurba_marseille","lat":43.24165,"lon":5.39687,"is_reserved":false,"is_disabled":false,"rental_uris":{"android":"levelo://app?vid=f4dbc556-58b0-4dfd-be99-18a51c032520","ios":"levelo://app?vid=f4dbc556-58b0-4dfd-be99-18a51c032520"},"vehicle_type_id":"4","last_reported":1736784702,"current_range_meters":30400,"station_id":"ce4bhn12rcd13ifvqgpg","pricing_plan_id":"cebpf4jnsgd1na2vs0mg"},{"bike_id":"5f76cc9a-1467-4dc6-a58d-2c29c6b72e2b","system_id":"levelo_inurba_marseille","lat":43.29196,"lon":5.35798,"is_reserved":false,"is_disabled":false,"rental_uris":{"android":"levelo://app?vid=5f76cc9a-1467-4dc6-a58d-2c29c6b72e2b","ios":"levelo://app?vid=5f76cc9a-1467-4dc6-a58d-2c29c6b72e2b"},"vehicle_type_id":"4","last_reported":1736784702,"current_range_meters":38800,"station_id":"ce4bhb12rcd13ifvqel0","pricing_plan_id":"cebpf4jnsgd1na2vs0mg"},{"bike_id":"da469b5d-120a-4de9-ae80-44a08f092bc9","system_id":"levelo_inurba_marseille","lat":43.28001,"lon":5.40012,"is_reserved":false,"is_disabled":false,"rental_uris":{"android":"levelo://app?vid=da469b5d-120a-4de9-ae80-44a08f092bc9","ios":"levelo://app?vid=da469b5d-120a-4de9-ae80-44a08f092bc9"},"vehicle_type_id":"4","last_reported":1736784702,"current_range_meters":16800,"station_id":"ce4bho92rcd13ifvqh4g","pricing_plan_id":"cebpf4jnsgd1na2vs0mg"},{"bike_id":"f51f3616-6c33-4a5f-8b28-980818697bb0","system_id":"levelo_inurba_marseille","lat":43.2319,"lon":5.39985,"is_reserved":false,"is_disabled":false,"rental_uris":{"android":"levelo://app?vid=f51f3616-6c33-4a5f-8b28-980818697bb0","ios":"levelo://app?vid=f51f3616-6c33-4a5f-8b28-980818697bb0"},"vehicle_type_id":"4","last_reported":1736784702,"current_range_meters":36800,"station_id":"ce4bhn12rcd13ifvqgqg","pricing_plan_id":"cebpf4jnsgd1na2vs0mg"},{"bike_id":"38a88ea6-a94b-4e4b-81db-6e3ebb97fafa","system_id":"levelo_inurba_marseille","lat":43.24655,"lon":5.38157,"is_reserved":false,"is_disabled":false,"rental_uris":{"android":"levelo://app?vid=38a88ea6-a94b-4e4b-81db-6e3ebb97fafa","ios":"levelo://app?vid=38a88ea6-a94b-4e4b-81db-6e3ebb97fafa"},"vehicle_type_id":"4","last_reported":1736784702,"current_range_meters":38800,"station_id":"ce4bhih2rcd13ifvqfr0","pricing_plan_id":"cebpf4jnsgd1na2vs0mg"},{"bike_id":"42c081f5-319e-4e65-82b4-dc7aba8b3632","system_id":"levelo_inurba_marseille","lat":43.27812,"lon":5.40711,"is_reserved":false,"is_disabled":false,"rental_uris":{"android":"levelo://app?vid=42c081f5-319e-4e65-82b4-dc7aba8b3632","ios":"levelo://app?vid=42c081f5-319e-4e65-82b4-dc7aba8b3632"},"vehicle_type_id":"4","last_reported":1736784702,"current_range_meters":32400,"station_id":"ce4bhnh2rcd13ifvqgtg","pricing_plan_id":"cebpf4jnsgd1na2vs0mg"},{"bike_id":"d16284aa-fa71-49b9-82f2-16dc864a2eea","system_id":"levelo_inurba_marseille","lat":43.266931,"lon":5.382627,"is_reserved":false,"is_disabled":false,"rental_uris":{"android":"levelo://app?vid=d16284aa-fa71-49b9-82f2-16dc864a2eea","ios":"levelo://app?vid=d16284aa-fa71-49b9-82f2-16dc864a2eea"},"vehicle_type_id":"4","last_reported":1736784702,"current_range_meters":38800,"station_id":"ce4bhg92rcd13ifvqf90","pricing_plan_id":"cebpf4jnsgd1na2vs0mg"},{"bike_id":"b673a416-174d-4d10-a85a-f5b9c81a969a","system_id":"levelo_inurba_marseille","lat":43.30606,"lon":5.37213,"is_reserved":false,"is_disabled":false,"rental_uris":{"android":"levelo://app?vid=b673a416-174d-4d10-a85a-f5b9c81a969a","ios":"levelo://app?vid=b673a416-174d-4d10-a85a-f5b9c81a969a"},"vehicle_type_id":"4","last_reported":1736784702,"current_range_meters":16000,"station_id":"ce4bgqh2rcd13ifvqc4g","pricing_plan_id":"cebpf4jnsgd1na2vs0mg"},{"bike_id":"9f90ab46-c373-4698-9418-c8ef5e2133b0","system_id":"levelo_inurba_marseille","lat":43.23191,"lon":5.35553,"is_reserved":false,"is_disabled":false,"rental_uris":{"android":"levelo://app?vid=9f90ab46-c373-4698-9418-c8ef5e2133b0","ios":"levelo://app?vid=9f90ab46-c373-4698-9418-c8ef5e2133b0"},"vehicle_type_id":"4","last_reported":1736784702,"current_range_meters":21600,"station_id":"ce4bhu92rcd13ifvqi70","pricing_plan_id":"cebpf4jnsgd1na2vs0mg"},{"bike_id":"4d8c4785-1136-4f0a-8cb0-66e5e465df19","system_id":"levelo_inurba_marseille","lat":43.24657,"lon":5.38176,"is_reserved":false,"is_disabled":false,"rental_uris":{"android":"levelo://app?vid=4d8c4785-1136-4f0a-8cb0-66e5e465df19","ios":"levelo://app?vid=4d8c4785-1136-4f0a-8cb0-66e5e465df19"},"vehicle_type_id":"4","last_reported":1736784702,"current_range_meters":31200,"station_id":"ce4bhih2rcd13ifvqfr0","pricing_plan_id":"cebpf4jnsgd1na2vs0mg"},{"bike_id":"755e5c0a-8de7-4ee5-9d4e-5ec609711170","system_id":"levelo_inurba_marseille","lat":43.29594,"lon":5.38081,"is_reserved":false,"is_disabled":true,"rental_uris":{"android":"levelo://app?vid=755e5c0a-8de7-4ee5-9d4e-5ec609711170","ios":"levelo://app?vid=755e5c0a-8de7-4ee5-9d4e-5ec609711170"},"vehicle_type_id":"4","last_reported":1736784702,"current_range_meters":35200,"station_id":"ce4bgl12rcd13ifvqbo0","pricing_plan_id":"cebpf4jnsgd1na2vs0mg"},{"bike_id":"fa6f8886-4824-482e-a0ab-7b6386fa63cb","system_id":"levelo_inurba_marseille","lat":43.30932,"lon":5.40146,"is_reserved":false,"is_disabled":false,"rental_uris":{"android":"levelo://app?vid=fa6f8886-4824-482e-a0ab-7b6386fa63cb","ios":"levelo://app?vid=fa6f8886-4824-482e-a0ab-7b6386fa63cb"},"vehicle_type_id":"4","last_reported":1736784702,"current_range_meters":33200,"station_id":"ce4bgvp2rcd13ifvqct0","pricing_plan_id":"cebpf4jnsgd1na2vs0mg"},{"bike_id":"11ba34ad-8618-419b-b510-3c527e1cf8c3","system_id":"levelo_inurba_marseille","lat":43.28403,"lon":5.37528,"is_reserved":false,"is_disabled":true,"rental_uris":{"android":"levelo://app?vid=11ba34ad-8618-419b-b510-3c527e1cf8c3","ios":"levelo://app?vid=11ba34ad-8618-419b-b510-3c527e1cf8c3"},"vehicle_type_id":"4","last_reported":1736784702,"current_range_meters":6400,"station_id":"ce4bh412rcd13ifvqds0","pricing_plan_id":"cebpf4jnsgd1na2vs0mg"},{"bike_id":"f651011c-09df-4f8b-abec-30977567ef31","system_id":"levelo_inurba_marseille","lat":43.26235,"lon":5.37481,"is_reserved":false,"is_disabled":false,"rental_uris":{"android":"levelo://app?vid=f651011c-09df-4f8b-abec-30977567ef31","ios":"levelo://app?vid=f651011c-09df-4f8b-abec-30977567ef31"},"vehicle_type_id":"4","last_reported":1736784702,"current_range_meters":22800,"station_id":"ce4bhgp2rcd13ifvqfc0","pricing_plan_id":"cebpf4jnsgd1na2vs0mg"},{"bike_id":"45910403-43fe-46b0-8271-3ee82162b96d","system_id":"levelo_inurba_marseille","lat":43.28461,"lon":5.35903,"is_reserved":false,"is_disabled":false,"rental_uris":{"android":"levelo://app?vid=45910403-43fe-46b0-8271-3ee82162b96d","ios":"levelo://app?vid=45910403-43fe-46b0-8271-3ee82162b96d"},"vehicle_type_id":"4","last_reported":1736784702,"current_range_meters":38800,"station_id":"ce4bhah2rcd13ifvqei0","pricing_plan_id":"cebpf4jnsgd1na2vs0mg"},{"bike_id":"71162ccb-832b-4a56-8223-a2988cf88911","system_id":"levelo_inurba_marseille","lat":43.31712,"lon":5.43707,"is_reserved":false,"is_disabled":false,"rental_uris":{"android":"levelo://app?vid=71162ccb-832b-4a56-8223-a2988cf88911","ios":"levelo://app?vid=71162ccb-832b-4a56-8223-a2988cf88911"},"vehicle_type_id":"4","last_reported":1736784702,"current_range_meters":38000,"station_id":"ce4bhp92rcd13ifvqhcg","pricing_plan_id":"cebpf4jnsgd1na2vs0mg"},{"bike_id":"3b74a056-c0cf-4f44-8772-22ed33115fcd","system_id":"levelo_inurba_marseille","lat":43.231769,"lon":5.399893,"is_reserved":false,"is_disabled":false,"rental_uris":{"android":"levelo://app?vid=3b74a056-c0cf-4f44-8772-22ed33115fcd","ios":"levelo://app?vid=3b74a056-c0cf-4f44-8772-22ed33115fcd"},"vehicle_type_id":"4","last_reported":1736784702,"current_range_meters":11600,"station_id":"ce4bhn12rcd13ifvqgqg","pricing_plan_id":"cebpf4jnsgd1na2vs0mg"},{"bike_id":"240acad0-e678-4858-979a-5658758ce154","system_id":"levelo_inurba_marseille","lat":43.32321,"lon":5.40638,"is_reserved":false,"is_disabled":false,"rental_uris":{"android":"levelo://app?vid=240acad0-e678-4858-979a-5658758ce154","ios":"levelo://app?vid=240acad0-e678-4858-979a-5658758ce154"},"vehicle_type_id":"4","last_reported":1736784702,"current_range_meters":39200,"station_id":"ce4bhq92rcd13ifvqhjg","pricing_plan_id":"cebpf4jnsgd1na2vs0mg"},{"bike_id":"c484b222-9145-4cd4-9ec9-62eb61290af5","system_id":"levelo_inurba_marseille","lat":43.27375,"lon":5.36254,"is_reserved":false,"is_disabled":false,"rental_uris":{"android":"levelo://app?vid=c484b222-9145-4cd4-9ec9-62eb61290af5","ios":"levelo://app?vid=c484b222-9145-4cd4-9ec9-62eb61290af5"},"vehicle_type_id":"4","last_reported":1736784702,"current_range_meters":28400,"station_id":"ce4bhbh2rcd13ifvqeo0","pricing_plan_id":"cebpf4jnsgd1na2vs0mg"},{"bike_id":"ee254029-66e3-45f0-87e8-9d791707618e","system_id":"levelo_inurba_marseille","lat":43.27429,"lon":5.39417,"is_reserved":false,"is_disabled":false,"rental_uris":{"android":"levelo://app?vid=ee254029-66e3-45f0-87e8-9d791707618e","ios":"levelo://app?vid=ee254029-66e3-45f0-87e8-9d791707618e"},"vehicle_type_id":"4","last_reported":1736784702,"current_range_meters":22000,"station_id":"ce4bhdp2rcd13ifvqf20","pricing_plan_id":"cebpf4jnsgd1na2vs0mg"},{"bike_id":"51bb6953-dea8-4e82-96bf-52696267905f","system_id":"levelo_inurba_marseille","lat":43.23055,"lon":5.35501,"is_reserved":false,"is_disabled":false,"rental_uris":{"android":"levelo://app?vid=51bb6953-dea8-4e82-96bf-52696267905f","ios":"levelo://app?vid=51bb6953-dea8-4e82-96bf-52696267905f"},"vehicle_type_id":"4","last_reported":1736784702,"current_range_meters":12000,"station_id":"cpo3342slgdg3j2ifvpg","pricing_plan_id":"cebpf4jnsgd1na2vs0mg"},{"bike_id":"4e71e5ec-1e90-4b63-9152-6a9ea80e2150","system_id":"levelo_inurba_marseille","lat":43.23148,"lon":5.43718,"is_reserved":false,"is_disabled":false,"rental_uris":{"android":"levelo://app?vid=4e71e5ec-1e90-4b63-9152-6a9ea80e2150","ios":"levelo://app?vid=4e71e5ec-1e90-4b63-9152-6a9ea80e2150"},"vehicle_type_id":"4","last_reported":1736784702,"current_range_meters":38000,"station_id":"ce4bhmp2rcd13ifvqgog","pricing_plan_id":"cebpf4jnsgd1na2vs0mg"},{"bike_id":"dc388f0e-5ba4-4401-b2b7-3e59da087469","system_id":"levelo_inurba_marseille","lat":43.28611,"lon":5.35099,"is_reserved":false,"is_disabled":false,"rental_uris":{"android":"levelo://app?vid=dc388f0e-5ba4-4401-b2b7-3e59da087469","ios":"levelo://app?vid=dc388f0e-5ba4-4401-b2b7-3e59da087469"},"vehicle_type_id":"4","last_reported":1736784702,"current_range_meters":11200,"station_id":"ce4bhch2rcd13ifvqeug","pricing_plan_id":"cebpf4jnsgd1na2vs0mg"},{"bike_id":"50c67084-341b-43bf-812a-a38db4c86efa","system_id":"levelo_inurba_marseille","lat":43.30183,"lon":5.36621,"is_reserved":false,"is_disabled":false,"rental_uris":{"android":"levelo://app?vid=50c67084-341b-43bf-812a-a38db4c86efa","ios":"levelo://app?vid=50c67084-341b-43bf-812a-a38db4c86efa"},"vehicle_type_id":"4","last_reported":1736784702,"current_range_meters":38800,"station_id":"ce4bgrh2rcd13ifvqc8g","pricing_plan_id":"cebpf4jnsgd1na2vs0mg"},{"bike_id":"c84c60ce-c7f6-42eb-bb3c-f11a697bd396","system_id":"levelo_inurba_marseille","lat":43.299809,"lon":5.38497,"is_reserved":false,"is_disabled":true,"rental_uris":{"android":"levelo://app?vid=c84c60ce-c7f6-42eb-bb3c-f11a697bd396","ios":"levelo://app?vid=c84c60ce-c7f6-42eb-bb3c-f11a697bd396"},"vehicle_type_id":"4","last_reported":1736784702,"current_range_meters":38400,"station_id":"ce4bgj92rcd13ifvqbd0","pricing_plan_id":"cebpf4jnsgd1na2vs0mg"},{"bike_id":"5b6f32ca-27c0-4ddf-ba56-69f237bfef76","system_id":"levelo_inurba_marseille","lat":43.28615,"lon":5.351125,"is_reserved":false,"is_disabled":false,"rental_uris":{"android":"levelo://app?vid=5b6f32ca-27c0-4ddf-ba56-69f237bfef76","ios":"levelo://app?vid=5b6f32ca-27c0-4ddf-ba56-69f237bfef76"},"vehicle_type_id":"4","last_reported":1736784702,"current_range_meters":34800,"station_id":"ce4bhch2rcd13ifvqeug","pricing_plan_id":"cebpf4jnsgd1na2vs0mg"},{"bike_id":"7b4caddc-1d65-4a1d-b799-ad3ff1fce346","system_id":"levelo_inurba_marseille","lat":43.29803,"lon":5.3809,"is_reserved":false,"is_disabled":false,"rental_uris":{"android":"levelo://app?vid=7b4caddc-1d65-4a1d-b799-ad3ff1fce346","ios":"levelo://app?vid=7b4caddc-1d65-4a1d-b799-ad3ff1fce346"},"vehicle_type_id":"4","last_reported":1736784702,"current_range_meters":24000,"station_id":"ce4bgip2rcd13ifvqbb0","pricing_plan_id":"cebpf4jnsgd1na2vs0mg"},{"bike_id":"4a5f1b89-b2a2-4042-ba24-51073daa01b3","system_id":"levelo_inurba_marseille","lat":43.26495,"lon":5.39541,"is_reserved":false,"is_disabled":false,"rental_uris":{"android":"levelo://app?vid=4a5f1b89-b2a2-4042-ba24-51073daa01b3","ios":"levelo://app?vid=4a5f1b89-b2a2-4042-ba24-51073daa01b3"},"vehicle_type_id":"4","last_reported":1736784702,"current_range_meters":8400,"station_id":"ce4bhi12rcd13ifvqfq0","pricing_plan_id":"cebpf4jnsgd1na2vs0mg"},{"bike_id":"60eb95fc-b90e-49ce-a432-7bfaaff8cec5","system_id":"levelo_inurba_marseille","lat":43.2845,"lon":5.35893,"is_reserved":false,"is_disabled":false,"rental_uris":{"android":"levelo://app?vid=60eb95fc-b90e-49ce-a432-7bfaaff8cec5","ios":"levelo://app?vid=60eb95fc-b90e-49ce-a432-7bfaaff8cec5"},"vehicle_type_id":"4","last_reported":1736784702,"current_range_meters":10000,"station_id":"ce4bhah2rcd13ifvqei0","pricing_plan_id":"cebpf4jnsgd1na2vs0mg"},{"bike_id":"bdc014b7-d199-4f42-a617-075987c1e85c","system_id":"levelo_inurba_marseille","lat":43.24998,"lon":5.38929,"is_reserved":false,"is_disabled":false,"rental_uris":{"android":"levelo://app?vid=bdc014b7-d199-4f42-a617-075987c1e85c","ios":"levelo://app?vid=bdc014b7-d199-4f42-a617-075987c1e85c"},"vehicle_type_id":"4","last_reported":1736784702,"current_range_meters":8800,"station_id":"ce4bhgp2rcd13ifvqfd0","pricing_plan_id":"cebpf4jnsgd1na2vs0mg"},{"bike_id":"c1c51f67-6348-4482-a3d4-31704cefaf37","system_id":"levelo_inurba_marseille","lat":43.28636,"lon":5.35104,"is_reserved":false,"is_disabled":false,"rental_uris":{"android":"levelo://app?vid=c1c51f67-6348-4482-a3d4-31704cefaf37","ios":"levelo://app?vid=c1c51f67-6348-4482-a3d4-31704cefaf37"},"vehicle_type_id":"4","last_reported":1736784702,"current_range_meters":32800,"station_id":"ce4bhch2rcd13ifvqeug","pricing_plan_id":"cebpf4jnsgd1na2vs0mg"},{"bike_id":"a56bdef2-14b8-4e02-b3bc-538917283971","system_id":"levelo_inurba_marseille","lat":43.25097,"lon":5.39527,"is_reserved":false,"is_disabled":false,"rental_uris":{"android":"levelo://app?vid=a56bdef2-14b8-4e02-b3bc-538917283971","ios":"levelo://app?vid=a56bdef2-14b8-4e02-b3bc-538917283971"},"vehicle_type_id":"4","last_reported":1736784702,"current_range_meters":12000,"station_id":"ce4bhm12rcd13ifvqgkg","pricing_plan_id":"cebpf4jnsgd1na2vs0mg"},{"bike_id":"315b51a2-7ea0-4300-9b20-5b0527089b0f","system_id":"levelo_inurba_marseille","lat":43.25575,"lon":5.38231,"is_reserved":false,"is_disabled":false,"rental_uris":{"android":"levelo://app?vid=315b51a2-7ea0-4300-9b20-5b0527089b0f","ios":"levelo://app?vid=315b51a2-7ea0-4300-9b20-5b0527089b0f"},"vehicle_type_id":"4","last_reported":1736784702,"current_range_meters":38800,"station_id":"ce4bhih2rcd13ifvqfs0","pricing_plan_id":"cebpf4jnsgd1na2vs0mg"},{"bike_id":"e9430f1b-8860-41e9-9b9f-1f3b253b57f9","system_id":"levelo_inurba_marseille","lat":43.26061,"lon":5.39396,"is_reserved":false,"is_disabled":false,"rental_uris":{"android":"levelo://app?vid=e9430f1b-8860-41e9-9b9f-1f3b253b57f9","ios":"levelo://app?vid=e9430f1b-8860-41e9-9b9f-1f3b253b57f9"},"vehicle_type_id":"4","last_reported":1736784702,"current_range_meters":27200,"station_id":"ce4bhh92rcd13ifvqfj0","pricing_plan_id":"cebpf4jnsgd1na2vs0mg"},{"bike_id":"13af83da-feb7-498c-aa0a-04a6053958ca","system_id":"levelo_inurba_marseille","lat":43.30302,"lon":5.36888,"is_reserved":false,"is_disabled":false,"rental_uris":{"android":"levelo://app?vid=13af83da-feb7-498c-aa0a-04a6053958ca","ios":"levelo://app?vid=13af83da-feb7-498c-aa0a-04a6053958ca"},"vehicle_type_id":"4","last_reported":1736784702,"current_range_meters":2800,"station_id":"ce4bgqh2rcd13ifvqc5g","pricing_plan_id":"cebpf4jnsgd1na2vs0mg"},{"bike_id":"ef9a17d7-9674-4f51-9254-f840d56bfd1d","system_id":"levelo_inurba_marseille","lat":43.29578,"lon":5.37516,"is_reserved":false,"is_disabled":false,"rental_uris":{"android":"levelo://app?vid=ef9a17d7-9674-4f51-9254-f840d56bfd1d","ios":"levelo://app?vid=ef9a17d7-9674-4f51-9254-f840d56bfd1d"},"vehicle_type_id":"4","last_reported":1736784702,"current_range_meters":38800,"station_id":"ce4bgh92rcd13ifvqb50","pricing_plan_id":"cebpf4jnsgd1na2vs0mg"},{"bike_id":"a754abf4-87cb-4915-a97f-0b4d0e8971f5","system_id":"levelo_inurba_marseille","lat":43.28626,"lon":5.35121,"is_reserved":false,"is_disabled":false,"rental_uris":{"android":"levelo://app?vid=a754abf4-87cb-4915-a97f-0b4d0e8971f5","ios":"levelo://app?vid=a754abf4-87cb-4915-a97f-0b4d0e8971f5"},"vehicle_type_id":"4","last_reported":1736784702,"current_range_meters":32800,"station_id":"ce4bhch2rcd13ifvqeug","pricing_plan_id":"cebpf4jnsgd1na2vs0mg"},{"bike_id":"b51b8509-c21e-40ac-802b-edd56e55cdd0","system_id":"levelo_inurba_marseille","lat":43.30355,"lon":5.41875,"is_reserved":false,"is_disabled":true,"rental_uris":{"android":"levelo://app?vid=b51b8509-c21e-40ac-802b-edd56e55cdd0","ios":"levelo://app?vid=b51b8509-c21e-40ac-802b-edd56e55cdd0"},"vehicle_type_id":"4","last_reported":1736784702,"current_range_meters":24000,"station_id":"ce4bhop2rcd13ifvqh7g","pricing_plan_id":"cebpf4jnsgd1na2vs0mg"},{"bike_id":"9a1547ad-2778-4a38-b024-dffd4330cf60","system_id":"levelo_inurba_marseille","lat":43.262079,"lon":5.374394,"is_reserved":false,"is_disabled":true,"rental_uris":{"android":"levelo://app?vid=9a1547ad-2778-4a38-b024-dffd4330cf60","ios":"levelo://app?vid=9a1547ad-2778-4a38-b024-dffd4330cf60"},"vehicle_type_id":"4","last_reported":1736784702,"current_range_meters":0,"station_id":"ce4bhgp2rcd13ifvqfc0","pricing_plan_id":"cebpf4jnsgd1na2vs0mg"},{"bike_id":"78fc2529-851e-44ea-9e17-e5a76c9197b1","system_id":"levelo_inurba_marseille","lat":43.29733,"lon":5.37674,"is_reserved":false,"is_disabled":true,"rental_uris":{"android":"levelo://app?vid=78fc2529-851e-44ea-9e17-e5a76c9197b1","ios":"levelo://app?vid=78fc2529-851e-44ea-9e17-e5a76c9197b1"},"vehicle_type_id":"4","last_reported":1736784702,"current_range_meters":37600,"station_id":"ce4bgkh2rcd13ifvqbl0","pricing_plan_id":"cebpf4jnsgd1na2vs0mg"},{"bike_id":"ebe7d535-367f-4dfa-bb45-2160f849f645","system_id":"levelo_inurba_marseille","lat":43.30931,"lon":5.40152,"is_reserved":false,"is_disabled":false,"rental_uris":{"android":"levelo://app?vid=ebe7d535-367f-4dfa-bb45-2160f849f645","ios":"levelo://app?vid=ebe7d535-367f-4dfa-bb45-2160f849f645"},"vehicle_type_id":"4","last_reported":1736784702,"current_range_meters":34000,"station_id":"ce4bgvp2rcd13ifvqct0","pricing_plan_id":"cebpf4jnsgd1na2vs0mg"},{"bike_id":"72e079ca-6a13-4401-abe1-f0fd28386138","system_id":"levelo_inurba_marseille","lat":43.30771,"lon":5.37658,"is_reserved":false,"is_disabled":false,"rental_uris":{"android":"levelo://app?vid=72e079ca-6a13-4401-abe1-f0fd28386138","ios":"levelo://app?vid=72e079ca-6a13-4401-abe1-f0fd28386138"},"vehicle_type_id":"4","last_reported":1736784702,"current_range_meters":31200,"station_id":"ce4bgv92rcd13ifvqcq0","pricing_plan_id":"cebpf4jnsgd1na2vs0mg"},{"bike_id":"7c53cd33-cb9c-4072-9762-fc9111f0e5c3","system_id":"levelo_inurba_marseille","lat":43.27812,"lon":5.40719,"is_reserved":false,"is_disabled":false,"rental_uris":{"android":"levelo://app?vid=7c53cd33-cb9c-4072-9762-fc9111f0e5c3","ios":"levelo://app?vid=7c53cd33-cb9c-4072-9762-fc9111f0e5c3"},"vehicle_type_id":"4","last_reported":1736784702,"current_range_meters":13600,"station_id":"ce4bhnh2rcd13ifvqgtg","pricing_plan_id":"cebpf4jnsgd1na2vs0mg"},{"bike_id":"071cf146-b677-4262-a53a-2450b530b8f1","system_id":"levelo_inurba_marseille","lat":43.25819,"lon":5.39427,"is_reserved":false,"is_disabled":false,"rental_uris":{"android":"levelo://app?vid=071cf146-b677-4262-a53a-2450b530b8f1","ios":"levelo://app?vid=071cf146-b677-4262-a53a-2450b530b8f1"},"vehicle_type_id":"4","last_reported":1736784702,"current_range_meters":2800,"station_id":"ce4bhip2rcd13ifvqft0","pricing_plan_id":"cebpf4jnsgd1na2vs0mg"},{"bike_id":"81894d57-6961-4ca9-8a73-3302ecbe940c","system_id":"levelo_inurba_marseille","lat":43.24808,"lon":5.37463,"is_reserved":false,"is_disabled":false,"rental_uris":{"android":"levelo://app?vid=81894d57-6961-4ca9-8a73-3302ecbe940c","ios":"levelo://app?vid=81894d57-6961-4ca9-8a73-3302ecbe940c"},"vehicle_type_id":"4","last_reported":1736784702,"current_range_meters":9200,"station_id":"ce4bhgh2rcd13ifvqfb0","pricing_plan_id":"cebpf4jnsgd1na2vs0mg"},{"bike_id":"45324790-abcf-4a91-8b9e-6b7c17eae013","system_id":"levelo_inurba_marseille","lat":43.27375,"lon":5.36256,"is_reserved":false,"is_disabled":false,"rental_uris":{"android":"levelo://app?vid=45324790-abcf-4a91-8b9e-6b7c17eae013","ios":"levelo://app?vid=45324790-abcf-4a91-8b9e-6b7c17eae013"},"vehicle_type_id":"4","last_reported":1736784702,"current_range_meters":9200,"station_id":"ce4bhbh2rcd13ifvqeo0","pricing_plan_id":"cebpf4jnsgd1na2vs0mg"},{"bike_id":"fc081fdc-4ac9-41b6-a5aa-2b96219507dd","system_id":"levelo_inurba_marseille","lat":43.28265,"lon":5.35074,"is_reserved":false,"is_disabled":false,"rental_uris":{"android":"levelo://app?vid=fc081fdc-4ac9-41b6-a5aa-2b96219507dd","ios":"levelo://app?vid=fc081fdc-4ac9-41b6-a5aa-2b96219507dd"},"vehicle_type_id":"4","last_reported":1736784702,"current_range_meters":38000,"station_id":"ce4bhbp2rcd13ifvqerg","pricing_plan_id":"cebpf4jnsgd1na2vs0mg"},{"bike_id":"efe350e8-f531-4cdc-a1a8-c3f24970caff","system_id":"levelo_inurba_marseille","lat":43.28935,"lon":5.36639,"is_reserved":false,"is_disabled":false,"rental_uris":{"android":"levelo://app?vid=efe350e8-f531-4cdc-a1a8-c3f24970caff","ios":"levelo://app?vid=efe350e8-f531-4cdc-a1a8-c3f24970caff"},"vehicle_type_id":"4","last_reported":1736784702,"current_range_meters":29600,"station_id":"ce4bhap2rcd13ifvqek0","pricing_plan_id":"cebpf4jnsgd1na2vs0mg"},{"bike_id":"edba734f-1db0-471f-9e62-428f837b6f4f","system_id":"levelo_inurba_marseille","lat":43.30207,"lon":5.3947,"is_reserved":false,"is_disabled":false,"rental_uris":{"android":"levelo://app?vid=edba734f-1db0-471f-9e62-428f837b6f4f","ios":"levelo://app?vid=edba734f-1db0-471f-9e62-428f837b6f4f"},"vehicle_type_id":"4","last_reported":1736784702,"current_range_meters":15200,"station_id":"ce4bh0p2rcd13ifvqd70","pricing_plan_id":"cebpf4jnsgd1na2vs0mg"},{"bike_id":"fed252d4-8a96-4918-8909-8c985d1de4fb","system_id":"levelo_inurba_marseille","lat":43.32469,"lon":5.36569,"is_reserved":false,"is_disabled":false,"rental_uris":{"android":"levelo://app?vid=fed252d4-8a96-4918-8909-8c985d1de4fb","ios":"levelo://app?vid=fed252d4-8a96-4918-8909-8c985d1de4fb"},"vehicle_type_id":"4","last_reported":1736784702,"current_range_meters":24000,"station_id":"ce4bhs12rcd13ifvqhvg","pricing_plan_id":"cebpf4jnsgd1na2vs0mg"},{"bike_id":"1ff4d6af-d168-4206-80a1-8f85ab0c0a00","system_id":"levelo_inurba_marseille","lat":43.25867,"lon":5.39898,"is_reserved":false,"is_disabled":false,"rental_uris":{"android":"levelo://app?vid=1ff4d6af-d168-4206-80a1-8f85ab0c0a00","ios":"levelo://app?vid=1ff4d6af-d168-4206-80a1-8f85ab0c0a00"},"vehicle_type_id":"4","last_reported":1736784702,"current_range_meters":39200,"station_id":"ce4bhl92rcd13ifvqghg","pricing_plan_id":"cebpf4jnsgd1na2vs0mg"},{"bike_id":"02f9c855-9b7c-4c4d-a998-251e38d370bb","system_id":"levelo_inurba_marseille","lat":43.31008,"lon":5.37926,"is_reserved":false,"is_disabled":false,"rental_uris":{"android":"levelo://app?vid=02f9c855-9b7c-4c4d-a998-251e38d370bb","ios":"levelo://app?vid=02f9c855-9b7c-4c4d-a998-251e38d370bb"},"vehicle_type_id":"4","last_reported":1736784702,"current_range_meters":30400,"station_id":"","pricing_plan_id":"cebpf4jnsgd1na2vs0mg"},{"bike_id":"6ac030a7-d768-4e93-93eb-e21ab47ba089","system_id":"levelo_inurba_marseille","lat":43.28442,"lon":5.35905,"is_reserved":false,"is_disabled":false,"rental_uris":{"android":"levelo://app?vid=6ac030a7-d768-4e93-93eb-e21ab47ba089","ios":"levelo://app?vid=6ac030a7-d768-4e93-93eb-e21ab47ba089"},"vehicle_type_id":"4","last_reported":1736784702,"current_range_meters":22000,"station_id":"ce4bhah2rcd13ifvqei0","pricing_plan_id":"cebpf4jnsgd1na2vs0mg"},{"bike_id":"5bca54ff-0110-4751-bb4e-6cc7b8a69662","system_id":"levelo_inurba_marseille","lat":43.23177,"lon":5.39984,"is_reserved":false,"is_disabled":false,"rental_uris":{"android":"levelo://app?vid=5bca54ff-0110-4751-bb4e-6cc7b8a69662","ios":"levelo://app?vid=5bca54ff-0110-4751-bb4e-6cc7b8a69662"},"vehicle_type_id":"4","last_reported":1736784702,"current_range_meters":20400,"station_id":"ce4bhn12rcd13ifvqgqg","pricing_plan_id":"cebpf4jnsgd1na2vs0mg"},{"bike_id":"94a60579-bf9e-4cba-9a96-de41a0fa579f","system_id":"levelo_inurba_marseille","lat":43.26568,"lon":5.37284,"is_reserved":false,"is_disabled":false,"rental_uris":{"android":"levelo://app?vid=94a60579-bf9e-4cba-9a96-de41a0fa579f","ios":"levelo://app?vid=94a60579-bf9e-4cba-9a96-de41a0fa579f"},"vehicle_type_id":"4","last_reported":1736784702,"current_range_meters":32400,"station_id":"ce4bhg12rcd13ifvqf70","pricing_plan_id":"cebpf4jnsgd1na2vs0mg"},{"bike_id":"77c125dd-0570-435e-ae36-92a459b4cd7d","system_id":"levelo_inurba_marseille","lat":43.25823,"lon":5.39426,"is_reserved":false,"is_disabled":false,"rental_uris":{"android":"levelo://app?vid=77c125dd-0570-435e-ae36-92a459b4cd7d","ios":"levelo://app?vid=77c125dd-0570-435e-ae36-92a459b4cd7d"},"vehicle_type_id":"4","last_reported":1736784702,"current_range_meters":10800,"station_id":"ce4bhip2rcd13ifvqft0","pricing_plan_id":"cebpf4jnsgd1na2vs0mg"},{"bike_id":"bbe418f9-edcd-4096-92a5-9824c80806f0","system_id":"levelo_inurba_marseille","lat":43.27428,"lon":5.39371,"is_reserved":false,"is_disabled":false,"rental_uris":{"android":"levelo://app?vid=bbe418f9-edcd-4096-92a5-9824c80806f0","ios":"levelo://app?vid=bbe418f9-edcd-4096-92a5-9824c80806f0"},"vehicle_type_id":"4","last_reported":1736784702,"current_range_meters":30000,"station_id":"ce4bhdp2rcd13ifvqf20","pricing_plan_id":"cebpf4jnsgd1na2vs0mg"},{"bike_id":"2856e4bd-f802-4b31-988b-c0f15b39cafc","system_id":"levelo_inurba_marseille","lat":43.26496,"lon":5.39546,"is_reserved":false,"is_disabled":false,"rental_uris":{"android":"levelo://app?vid=2856e4bd-f802-4b31-988b-c0f15b39cafc","ios":"levelo://app?vid=2856e4bd-f802-4b31-988b-c0f15b39cafc"},"vehicle_type_id":"4","last_reported":1736784702,"current_range_meters":16000,"station_id":"ce4bhi12rcd13ifvqfq0","pricing_plan_id":"cebpf4jnsgd1na2vs0mg"},{"bike_id":"476f41db-3d59-43ab-93e3-66f344a533de","system_id":"levelo_inurba_marseille","lat":43.29191,"lon":5.35795,"is_reserved":false,"is_disabled":false,"rental_uris":{"android":"levelo://app?vid=476f41db-3d59-43ab-93e3-66f344a533de","ios":"levelo://app?vid=476f41db-3d59-43ab-93e3-66f344a533de"},"vehicle_type_id":"4","last_reported":1736784702,"current_range_meters":39200,"station_id":"ce4bhb12rcd13ifvqel0","pricing_plan_id":"cebpf4jnsgd1na2vs0mg"},{"bike_id":"acb789d3-c42d-465c-982b-20d6256e9026","system_id":"levelo_inurba_marseille","lat":43.24416,"lon":5.37069,"is_reserved":false,"is_disabled":false,"rental_uris":{"android":"levelo://app?vid=acb789d3-c42d-465c-982b-20d6256e9026","ios":"levelo://app?vid=acb789d3-c42d-465c-982b-20d6256e9026"},"vehicle_type_id":"4","last_reported":1736784702,"current_range_meters":6000,"station_id":"ce4bhhh2rcd13ifvqfk0","pricing_plan_id":"cebpf4jnsgd1na2vs0mg"},{"bike_id":"488e5d3f-7080-456a-8875-7f1a5dce4fa1","system_id":"levelo_inurba_marseille","lat":43.30139,"lon":5.38776,"is_reserved":false,"is_disabled":false,"rental_uris":{"android":"levelo://app?vid=488e5d3f-7080-456a-8875-7f1a5dce4fa1","ios":"levelo://app?vid=488e5d3f-7080-456a-8875-7f1a5dce4fa1"},"vehicle_type_id":"4","last_reported":1736784702,"current_range_meters":27600,"station_id":"ce4bhoh2rcd13ifvqh6g","pricing_plan_id":"cebpf4jnsgd1na2vs0mg"},{"bike_id":"295bd26f-64bb-4f9a-b1ce-9227768f18ec","system_id":"levelo_inurba_marseille","lat":43.29166,"lon":5.37134,"is_reserved":false,"is_disabled":true,"rental_uris":{"android":"levelo://app?vid=295bd26f-64bb-4f9a-b1ce-9227768f18ec","ios":"levelo://app?vid=295bd26f-64bb-4f9a-b1ce-9227768f18ec"},"vehicle_type_id":"4","last_reported":1736784702,"current_range_meters":28400,"station_id":"ce4bha92rcd13ifvqeh0","pricing_plan_id":"cebpf4jnsgd1na2vs0mg"},{"bike_id":"03296fe0-5950-48e1-afaa-a93147175da6","system_id":"levelo_inurba_marseille","lat":43.2958,"lon":5.36752,"is_reserved":false,"is_disabled":false,"rental_uris":{"android":"levelo://app?vid=03296fe0-5950-48e1-afaa-a93147175da6","ios":"levelo://app?vid=03296fe0-5950-48e1-afaa-a93147175da6"},"vehicle_type_id":"4","last_reported":1736784702,"current_range_meters":37600,"station_id":"ce4bgph2rcd13ifvqc2g","pricing_plan_id":"cebpf4jnsgd1na2vs0mg"},{"bike_id":"1bff2bac-4883-4019-adbe-2dc598af8aad","system_id":"levelo_inurba_marseille","lat":43.27427,"lon":5.39393,"is_reserved":false,"is_disabled":false,"rental_uris":{"android":"levelo://app?vid=1bff2bac-4883-4019-adbe-2dc598af8aad","ios":"levelo://app?vid=1bff2bac-4883-4019-adbe-2dc598af8aad"},"vehicle_type_id":"4","last_reported":1736784702,"current_range_meters":20800,"station_id":"ce4bhdp2rcd13ifvqf20","pricing_plan_id":"cebpf4jnsgd1na2vs0mg"},{"bike_id":"ae29e0de-7b5a-45d6-ace3-313c5e88010a","system_id":"levelo_inurba_marseille","lat":43.28,"lon":5.41653,"is_reserved":false,"is_disabled":false,"rental_uris":{"android":"levelo://app?vid=ae29e0de-7b5a-45d6-ace3-313c5e88010a","ios":"levelo://app?vid=ae29e0de-7b5a-45d6-ace3-313c5e88010a"},"vehicle_type_id":"4","last_reported":1736784702,"current_range_meters":38800,"station_id":"ce4bho12rcd13ifvqh1g","pricing_plan_id":"cebpf4jnsgd1na2vs0mg"},{"bike_id":"6c8f1a4a-6d49-4354-8fa4-7312da1e1397","system_id":"levelo_inurba_marseille","lat":43.28614,"lon":5.35106,"is_reserved":false,"is_disabled":false,"rental_uris":{"android":"levelo://app?vid=6c8f1a4a-6d49-4354-8fa4-7312da1e1397","ios":"levelo://app?vid=6c8f1a4a-6d49-4354-8fa4-7312da1e1397"},"vehicle_type_id":"4","last_reported":1736784702,"current_range_meters":37600,"station_id":"ce4bhch2rcd13ifvqeug","pricing_plan_id":"cebpf4jnsgd1na2vs0mg"},{"bike_id":"572f0254-11cf-4ef2-b3f9-66737ed8298a","system_id":"levelo_inurba_marseille","lat":43.28421,"lon":5.34987,"is_reserved":false,"is_disabled":true,"rental_uris":{"android":"levelo://app?vid=572f0254-11cf-4ef2-b3f9-66737ed8298a","ios":"levelo://app?vid=572f0254-11cf-4ef2-b3f9-66737ed8298a"},"vehicle_type_id":"4","last_reported":1736784702,"current_range_meters":0,"station_id":"ce4bhbh2rcd13ifvqepg","pricing_plan_id":"cebpf4jnsgd1na2vs0mg"},{"bike_id":"3154eec0-331b-43f9-b1cc-1db740d94c8d","system_id":"levelo_inurba_marseille","lat":43.27904,"lon":5.39586,"is_reserved":false,"is_disabled":false,"rental_uris":{"android":"levelo://app?vid=3154eec0-331b-43f9-b1cc-1db740d94c8d","ios":"levelo://app?vid=3154eec0-331b-43f9-b1cc-1db740d94c8d"},"vehicle_type_id":"4","last_reported":1736784702,"current_range_meters":18800,"station_id":"ce4bhf92rcd13ifvqf40","pricing_plan_id":"cebpf4jnsgd1na2vs0mg"},{"bike_id":"60c48e84-151f-4edd-83cd-789ff87c7f63","system_id":"levelo_inurba_marseille","lat":43.28701,"lon":5.37414,"is_reserved":false,"is_disabled":true,"rental_uris":{"android":"levelo://app?vid=60c48e84-151f-4edd-83cd-789ff87c7f63","ios":"levelo://app?vid=60c48e84-151f-4edd-83cd-789ff87c7f63"},"vehicle_type_id":"4","last_reported":1736784702,"current_range_meters":37600,"station_id":"ce4bh3p2rcd13ifvqdq0","pricing_plan_id":"cebpf4jnsgd1na2vs0mg"},{"bike_id":"de05f028-7450-4792-8d5b-e268410faa9d","system_id":"levelo_inurba_marseille","lat":43.321028,"lon":5.367661,"is_reserved":false,"is_disabled":false,"rental_uris":{"android":"levelo://app?vid=de05f028-7450-4792-8d5b-e268410faa9d","ios":"levelo://app?vid=de05f028-7450-4792-8d5b-e268410faa9d"},"vehicle_type_id":"4","last_reported":1736784702,"current_range_meters":32400,"station_id":"ce4bhrh2rcd13ifvqhug","pricing_plan_id":"cebpf4jnsgd1na2vs0mg"},{"bike_id":"65e8b99d-cb00-44f8-a57f-7740743f51e0","system_id":"levelo_inurba_marseille","lat":43.25028,"lon":5.38922,"is_reserved":false,"is_disabled":false,"rental_uris":{"android":"levelo://app?vid=65e8b99d-cb00-44f8-a57f-7740743f51e0","ios":"levelo://app?vid=65e8b99d-cb00-44f8-a57f-7740743f51e0"},"vehicle_type_id":"4","last_reported":1736784702,"current_range_meters":24000,"station_id":"ce4bhgp2rcd13ifvqfd0","pricing_plan_id":"cebpf4jnsgd1na2vs0mg"},{"bike_id":"7da73b08-06e3-43ca-8e0f-9447fe50ccbf","system_id":"levelo_inurba_marseille","lat":43.27493,"lon":5.42459,"is_reserved":false,"is_disabled":true,"rental_uris":{"android":"levelo://app?vid=7da73b08-06e3-43ca-8e0f-9447fe50ccbf","ios":"levelo://app?vid=7da73b08-06e3-43ca-8e0f-9447fe50ccbf"},"vehicle_type_id":"4","last_reported":1736784702,"current_range_meters":0,"station_id":"ce4bhn92rcd13ifvqgrg","pricing_plan_id":"cebpf4jnsgd1na2vs0mg"},{"bike_id":"f2af2ca6-447c-496c-ad3d-731c1377ca61","system_id":"levelo_inurba_marseille","lat":43.30153,"lon":5.37219,"is_reserved":false,"is_disabled":false,"rental_uris":{"android":"levelo://app?vid=f2af2ca6-447c-496c-ad3d-731c1377ca61","ios":"levelo://app?vid=f2af2ca6-447c-496c-ad3d-731c1377ca61"},"vehicle_type_id":"4","last_reported":1736784702,"current_range_meters":16400,"station_id":"","pricing_plan_id":"cebpf4jnsgd1na2vs0mg"},{"bike_id":"923cb395-45d4-4d53-bdd9-a34c0143ee2c","system_id":"levelo_inurba_marseille","lat":43.32278,"lon":5.38272,"is_reserved":false,"is_disabled":false,"rental_uris":{"android":"levelo://app?vid=923cb395-45d4-4d53-bdd9-a34c0143ee2c","ios":"levelo://app?vid=923cb395-45d4-4d53-bdd9-a34c0143ee2c"},"vehicle_type_id":"4","last_reported":1736784702,"current_range_meters":28000,"station_id":"ce4bhr12rcd13ifvqhqg","pricing_plan_id":"cebpf4jnsgd1na2vs0mg"},{"bike_id":"c758d0b5-a9c7-436c-bd02-d42d7dc83121","system_id":"levelo_inurba_marseille","lat":43.281,"lon":5.37828,"is_reserved":false,"is_disabled":false,"rental_uris":{"android":"levelo://app?vid=c758d0b5-a9c7-436c-bd02-d42d7dc83121","ios":"levelo://app?vid=c758d0b5-a9c7-436c-bd02-d42d7dc83121"},"vehicle_type_id":"4","last_reported":1736784702,"current_range_meters":33600,"station_id":"ce4bha12rcd13ifvqee0","pricing_plan_id":"cebpf4jnsgd1na2vs0mg"},{"bike_id":"34d1187a-0d2f-42da-8bcd-6376169d385a","system_id":"levelo_inurba_marseille","lat":43.25924,"lon":5.40905,"is_reserved":false,"is_disabled":true,"rental_uris":{"android":"levelo://app?vid=34d1187a-0d2f-42da-8bcd-6376169d385a","ios":"levelo://app?vid=34d1187a-0d2f-42da-8bcd-6376169d385a"},"vehicle_type_id":"4","last_reported":1736784702,"current_range_meters":2000,"station_id":"ce4bhm92rcd13ifvqglg","pricing_plan_id":"cebpf4jnsgd1na2vs0mg"},{"bike_id":"dc20a8b9-a68f-41b3-9df0-55ff9d7bdca1","system_id":"levelo_inurba_marseille","lat":43.29901,"lon":5.37461,"is_reserved":false,"is_disabled":false,"rental_uris":{"android":"levelo://app?vid=dc20a8b9-a68f-41b3-9df0-55ff9d7bdca1","ios":"levelo://app?vid=dc20a8b9-a68f-41b3-9df0-55ff9d7bdca1"},"vehicle_type_id":"4","last_reported":1736784702,"current_range_meters":20400,"station_id":"ce4bgjh2rcd13ifvqbg0","pricing_plan_id":"cebpf4jnsgd1na2vs0mg"},{"bike_id":"b704bf42-2bc7-4506-b669-8ca7a3330fef","system_id":"levelo_inurba_marseille","lat":43.28144,"lon":5.4264,"is_reserved":false,"is_disabled":true,"rental_uris":{"android":"levelo://app?vid=b704bf42-2bc7-4506-b669-8ca7a3330fef","ios":"levelo://app?vid=b704bf42-2bc7-4506-b669-8ca7a3330fef"},"vehicle_type_id":"4","last_reported":1736784702,"current_range_meters":24400,"station_id":"ce4bhnh2rcd13ifvqgug","pricing_plan_id":"cebpf4jnsgd1na2vs0mg"},{"bike_id":"5b41c29d-1198-4bdb-8007-457bc90743c6","system_id":"levelo_inurba_marseille","lat":43.293302,"lon":5.401713,"is_reserved":false,"is_disabled":false,"rental_uris":{"android":"levelo://app?vid=5b41c29d-1198-4bdb-8007-457bc90743c6","ios":"levelo://app?vid=5b41c29d-1198-4bdb-8007-457bc90743c6"},"vehicle_type_id":"4","last_reported":1736784702,"current_range_meters":34800,"station_id":"ce4bh312rcd13ifvqdk0","pricing_plan_id":"cebpf4jnsgd1na2vs0mg"},{"bike_id":"018e6111-d88e-4099-907b-4616ba9839f7","system_id":"levelo_inurba_marseille","lat":43.29099,"lon":5.38114,"is_reserved":false,"is_disabled":false,"rental_uris":{"android":"levelo://app?vid=018e6111-d88e-4099-907b-4616ba9839f7","ios":"levelo://app?vid=018e6111-d88e-4099-907b-4616ba9839f7"},"vehicle_type_id":"4","last_reported":1736784702,"current_range_meters":35200,"station_id":"ce4bh512rcd13ifvqe2g","pricing_plan_id":"cebpf4jnsgd1na2vs0mg"},{"bike_id":"3533c650-7db6-4e2f-976a-f34826d12ad5","system_id":"levelo_inurba_marseille","lat":43.28151,"lon":5.42643,"is_reserved":false,"is_disabled":false,"rental_uris":{"android":"levelo://app?vid=3533c650-7db6-4e2f-976a-f34826d12ad5","ios":"levelo://app?vid=3533c650-7db6-4e2f-976a-f34826d12ad5"},"vehicle_type_id":"4","last_reported":1736784702,"current_range_meters":35200,"station_id":"ce4bhnh2rcd13ifvqgug","pricing_plan_id":"cebpf4jnsgd1na2vs0mg"},{"bike_id":"f62a7ed4-7c80-4ed8-9568-a4dea62069d1","system_id":"levelo_inurba_marseille","lat":43.28078,"lon":5.39665,"is_reserved":false,"is_disabled":false,"rental_uris":{"android":"levelo://app?vid=f62a7ed4-7c80-4ed8-9568-a4dea62069d1","ios":"levelo://app?vid=f62a7ed4-7c80-4ed8-9568-a4dea62069d1"},"vehicle_type_id":"4","last_reported":1736784702,"current_range_meters":28000,"station_id":"ce4bho12rcd13ifvqh2g","pricing_plan_id":"cebpf4jnsgd1na2vs0mg"},{"bike_id":"2d32f854-ab60-42e5-880e-92ca70253741","system_id":"levelo_inurba_marseille","lat":43.28932,"lon":5.36642,"is_reserved":false,"is_disabled":false,"rental_uris":{"android":"levelo://app?vid=2d32f854-ab60-42e5-880e-92ca70253741","ios":"levelo://app?vid=2d32f854-ab60-42e5-880e-92ca70253741"},"vehicle_type_id":"4","last_reported":1736784702,"current_range_meters":33600,"station_id":"ce4bhap2rcd13ifvqek0","pricing_plan_id":"cebpf4jnsgd1na2vs0mg"},{"bike_id":"08c58b0c-378d-4e34-9aef-7f8ed4f9ae02","system_id":"levelo_inurba_marseille","lat":43.251079,"lon":5.403215,"is_reserved":false,"is_disabled":false,"rental_uris":{"android":"levelo://app?vid=08c58b0c-378d-4e34-9aef-7f8ed4f9ae02","ios":"levelo://app?vid=08c58b0c-378d-4e34-9aef-7f8ed4f9ae02"},"vehicle_type_id":"4","last_reported":1736784702,"current_range_meters":16400,"station_id":"ce4bgj92rcd13ifvqbe0","pricing_plan_id":"cebpf4jnsgd1na2vs0mg"},{"bike_id":"fab00e30-ed36-405d-9779-dfdcefe42a5f","system_id":"levelo_inurba_marseille","lat":43.2582,"lon":5.39434,"is_reserved":false,"is_disabled":false,"rental_uris":{"android":"levelo://app?vid=fab00e30-ed36-405d-9779-dfdcefe42a5f","ios":"levelo://app?vid=fab00e30-ed36-405d-9779-dfdcefe42a5f"},"vehicle_type_id":"4","last_reported":1736784702,"current_range_meters":32800,"station_id":"ce4bhip2rcd13ifvqft0","pricing_plan_id":"cebpf4jnsgd1na2vs0mg"},{"bike_id":"66c74e61-5f94-4d34-8844-39c7d31204c9","system_id":"levelo_inurba_marseille","lat":43.24172,"lon":5.39719,"is_reserved":false,"is_disabled":false,"rental_uris":{"android":"levelo://app?vid=66c74e61-5f94-4d34-8844-39c7d31204c9","ios":"levelo://app?vid=66c74e61-5f94-4d34-8844-39c7d31204c9"},"vehicle_type_id":"4","last_reported":1736784702,"current_range_meters":27600,"station_id":"ce4bhn12rcd13ifvqgpg","pricing_plan_id":"cebpf4jnsgd1na2vs0mg"},{"bike_id":"31240ca4-9f64-4406-9c52-14b4354e548c","system_id":"levelo_inurba_marseille","lat":43.28636,"lon":5.35103,"is_reserved":false,"is_disabled":false,"rental_uris":{"android":"levelo://app?vid=31240ca4-9f64-4406-9c52-14b4354e548c","ios":"levelo://app?vid=31240ca4-9f64-4406-9c52-14b4354e548c"},"vehicle_type_id":"4","last_reported":1736784702,"current_range_meters":32800,"station_id":"ce4bhch2rcd13ifvqeug","pricing_plan_id":"cebpf4jnsgd1na2vs0mg"},{"bike_id":"a1104cac-48e4-4b41-b783-7f644d67dd9f","system_id":"levelo_inurba_marseille","lat":43.26233,"lon":5.37515,"is_reserved":false,"is_disabled":false,"rental_uris":{"android":"levelo://app?vid=a1104cac-48e4-4b41-b783-7f644d67dd9f","ios":"levelo://app?vid=a1104cac-48e4-4b41-b783-7f644d67dd9f"},"vehicle_type_id":"4","last_reported":1736784702,"current_range_meters":26800,"station_id":"ce4bhg12rcd13ifvqf70","pricing_plan_id":"cebpf4jnsgd1na2vs0mg"},{"bike_id":"d9b042e2-bbf3-47bf-851f-426caf4d0e01","system_id":"levelo_inurba_marseille","lat":43.24808,"lon":5.37463,"is_reserved":false,"is_disabled":false,"rental_uris":{"android":"levelo://app?vid=d9b042e2-bbf3-47bf-851f-426caf4d0e01","ios":"levelo://app?vid=d9b042e2-bbf3-47bf-851f-426caf4d0e01"},"vehicle_type_id":"4","last_reported":1736784702,"current_range_meters":33200,"station_id":"ce4bhgh2rcd13ifvqfb0","pricing_plan_id":"cebpf4jnsgd1na2vs0mg"},{"bike_id":"db1972cd-bddc-42bf-be47-1a62672d12ef","system_id":"levelo_inurba_marseille","lat":43.30539,"lon":5.36526,"is_reserved":false,"is_disabled":false,"rental_uris":{"android":"levelo://app?vid=db1972cd-bddc-42bf-be47-1a62672d12ef","ios":"levelo://app?vid=db1972cd-bddc-42bf-be47-1a62672d12ef"},"vehicle_type_id":"4","last_reported":1736784702,"current_range_meters":37600,"station_id":"ce4bgs12rcd13ifvqcag","pricing_plan_id":"cebpf4jnsgd1na2vs0mg"},{"bike_id":"df0b6114-99b8-427c-912a-a9577034450a","system_id":"levelo_inurba_marseille","lat":43.2978,"lon":5.39332,"is_reserved":false,"is_disabled":false,"rental_uris":{"android":"levelo://app?vid=df0b6114-99b8-427c-912a-a9577034450a","ios":"levelo://app?vid=df0b6114-99b8-427c-912a-a9577034450a"},"vehicle_type_id":"4","last_reported":1736784702,"current_range_meters":6800,"station_id":"chh1huq6cuj3fo74tm60","pricing_plan_id":"cebpf4jnsgd1na2vs0mg"},{"bike_id":"5f2cf356-122a-4d24-85ba-e38bc4612223","system_id":"levelo_inurba_marseille","lat":43.25588,"lon":5.38239,"is_reserved":false,"is_disabled":false,"rental_uris":{"android":"levelo://app?vid=5f2cf356-122a-4d24-85ba-e38bc4612223","ios":"levelo://app?vid=5f2cf356-122a-4d24-85ba-e38bc4612223"},"vehicle_type_id":"4","last_reported":1736784702,"current_range_meters":24800,"station_id":"ce4bhih2rcd13ifvqfs0","pricing_plan_id":"cebpf4jnsgd1na2vs0mg"},{"bike_id":"739b9309-56f3-4b21-b61d-ade9ae6cc990","system_id":"levelo_inurba_marseille","lat":43.292781,"lon":5.401118,"is_reserved":false,"is_disabled":true,"rental_uris":{"android":"levelo://app?vid=739b9309-56f3-4b21-b61d-ade9ae6cc990","ios":"levelo://app?vid=739b9309-56f3-4b21-b61d-ade9ae6cc990"},"vehicle_type_id":"4","last_reported":1736784702,"current_range_meters":38400,"station_id":"ce4bh312rcd13ifvqdk0","pricing_plan_id":"cebpf4jnsgd1na2vs0mg"},{"bike_id":"5666aa4d-e826-44f1-8f43-d53f8b334b3b","system_id":"levelo_inurba_marseille","lat":43.29874,"lon":5.39728,"is_reserved":false,"is_disabled":false,"rental_uris":{"android":"levelo://app?vid=5666aa4d-e826-44f1-8f43-d53f8b334b3b","ios":"levelo://app?vid=5666aa4d-e826-44f1-8f43-d53f8b334b3b"},"vehicle_type_id":"4","last_reported":1736784702,"current_range_meters":3600,"station_id":"ce4bh0h2rcd13ifvqd50","pricing_plan_id":"cebpf4jnsgd1na2vs0mg"},{"bike_id":"3c3c287f-e835-4040-bdb7-259026d8f5b9","system_id":"levelo_inurba_marseille","lat":43.29012,"lon":5.38139,"is_reserved":false,"is_disabled":true,"rental_uris":{"android":"levelo://app?vid=3c3c287f-e835-4040-bdb7-259026d8f5b9","ios":"levelo://app?vid=3c3c287f-e835-4040-bdb7-259026d8f5b9"},"vehicle_type_id":"4","last_reported":1736784702,"current_range_meters":400,"station_id":"ce4bh4p2rcd13ifvqe1g","pricing_plan_id":"cebpf4jnsgd1na2vs0mg"},{"bike_id":"facb90c4-4fea-48ac-b446-df2dabc7cdf0","system_id":"levelo_inurba_marseille","lat":43.30971,"lon":5.40165,"is_reserved":false,"is_disabled":false,"rental_uris":{"android":"levelo://app?vid=facb90c4-4fea-48ac-b446-df2dabc7cdf0","ios":"levelo://app?vid=facb90c4-4fea-48ac-b446-df2dabc7cdf0"},"vehicle_type_id":"4","last_reported":1736784702,"current_range_meters":39200,"station_id":"ce4bgvp2rcd13ifvqct0","pricing_plan_id":"cebpf4jnsgd1na2vs0mg"},{"bike_id":"41922604-c7b8-4e93-9da5-3903771d7233","system_id":"levelo_inurba_marseille","lat":43.24807,"lon":5.37469,"is_reserved":false,"is_disabled":false,"rental_uris":{"android":"levelo://app?vid=41922604-c7b8-4e93-9da5-3903771d7233","ios":"levelo://app?vid=41922604-c7b8-4e93-9da5-3903771d7233"},"vehicle_type_id":"4","last_reported":1736784702,"current_range_meters":26800,"station_id":"ce4bhgh2rcd13ifvqfb0","pricing_plan_id":"cebpf4jnsgd1na2vs0mg"},{"bike_id":"25378670-a9ed-4bac-a9e1-08eb38289e52","system_id":"levelo_inurba_marseille","lat":43.308,"lon":5.38164,"is_reserved":false,"is_disabled":true,"rental_uris":{"android":"levelo://app?vid=25378670-a9ed-4bac-a9e1-08eb38289e52","ios":"levelo://app?vid=25378670-a9ed-4bac-a9e1-08eb38289e52"},"vehicle_type_id":"4","last_reported":1736784702,"current_range_meters":31200,"station_id":"ce4bgt12rcd13ifvqce0","pricing_plan_id":"cebpf4jnsgd1na2vs0mg"},{"bike_id":"9ac09610-c861-4527-8861-374181a7b59a","system_id":"levelo_inurba_marseille","lat":43.29846,"lon":5.36273,"is_reserved":false,"is_disabled":false,"rental_uris":{"android":"levelo://app?vid=9ac09610-c861-4527-8861-374181a7b59a","ios":"levelo://app?vid=9ac09610-c861-4527-8861-374181a7b59a"},"vehicle_type_id":"4","last_reported":1736784702,"current_range_meters":38800,"station_id":"ce4bgpp2rcd13ifvqc3g","pricing_plan_id":"cebpf4jnsgd1na2vs0mg"},{"bike_id":"fa68fa6e-b151-4638-8c37-a7d5f34d1ccd","system_id":"levelo_inurba_marseille","lat":43.31721,"lon":5.423967,"is_reserved":false,"is_disabled":false,"rental_uris":{"android":"levelo://app?vid=fa68fa6e-b151-4638-8c37-a7d5f34d1ccd","ios":"levelo://app?vid=fa68fa6e-b151-4638-8c37-a7d5f34d1ccd"},"vehicle_type_id":"4","last_reported":1736784702,"current_range_meters":26000,"station_id":"ce4bhp92rcd13ifvqhbg","pricing_plan_id":"cebpf4jnsgd1na2vs0mg"},{"bike_id":"b09f5f67-bf5b-4d40-afdc-351e6a19adb4","system_id":"levelo_inurba_marseille","lat":43.29205,"lon":5.35802,"is_reserved":false,"is_disabled":false,"rental_uris":{"android":"levelo://app?vid=b09f5f67-bf5b-4d40-afdc-351e6a19adb4","ios":"levelo://app?vid=b09f5f67-bf5b-4d40-afdc-351e6a19adb4"},"vehicle_type_id":"4","last_reported":1736784702,"current_range_meters":29600,"station_id":"ce4bhb12rcd13ifvqel0","pricing_plan_id":"cebpf4jnsgd1na2vs0mg"},{"bike_id":"4fb0df02-05b7-4090-a547-76fd1833556b","system_id":"levelo_inurba_marseille","lat":43.29006,"lon":5.35615,"is_reserved":false,"is_disabled":false,"rental_uris":{"android":"levelo://app?vid=4fb0df02-05b7-4090-a547-76fd1833556b","ios":"levelo://app?vid=4fb0df02-05b7-4090-a547-76fd1833556b"},"vehicle_type_id":"4","last_reported":1736784702,"current_range_meters":14000,"station_id":"ce4bhb92rcd13ifvqen0","pricing_plan_id":"cebpf4jnsgd1na2vs0mg"},{"bike_id":"04d788bf-6a1e-4994-a7a2-ad85dcb4ea1c","system_id":"levelo_inurba_marseille","lat":43.26685,"lon":5.38263,"is_reserved":false,"is_disabled":false,"rental_uris":{"android":"levelo://app?vid=04d788bf-6a1e-4994-a7a2-ad85dcb4ea1c","ios":"levelo://app?vid=04d788bf-6a1e-4994-a7a2-ad85dcb4ea1c"},"vehicle_type_id":"4","last_reported":1736784702,"current_range_meters":38800,"station_id":"ce4bhg92rcd13ifvqf90","pricing_plan_id":"cebpf4jnsgd1na2vs0mg"},{"bike_id":"255cc0c6-67fd-4ee3-b6f8-109d99a3cfea","system_id":"levelo_inurba_marseille","lat":43.288522,"lon":5.358524,"is_reserved":false,"is_disabled":false,"rental_uris":{"android":"levelo://app?vid=255cc0c6-67fd-4ee3-b6f8-109d99a3cfea","ios":"levelo://app?vid=255cc0c6-67fd-4ee3-b6f8-109d99a3cfea"},"vehicle_type_id":"4","last_reported":1736784702,"current_range_meters":28800,"station_id":"ce4bhb12rcd13ifvqem0","pricing_plan_id":"cebpf4jnsgd1na2vs0mg"},{"bike_id":"317217f4-252a-4ff2-8a17-cbcec96dc79e","system_id":"levelo_inurba_marseille","lat":43.24067,"lon":5.37691,"is_reserved":false,"is_disabled":true,"rental_uris":{"android":"levelo://app?vid=317217f4-252a-4ff2-8a17-cbcec96dc79e","ios":"levelo://app?vid=317217f4-252a-4ff2-8a17-cbcec96dc79e"},"vehicle_type_id":"4","last_reported":1736784702,"current_range_meters":36400,"station_id":"","pricing_plan_id":"cebpf4jnsgd1na2vs0mg"},{"bike_id":"4ce1d0ff-a885-48df-b8b7-fbc429a8896a","system_id":"levelo_inurba_marseille","lat":43.29162,"lon":5.37147,"is_reserved":false,"is_disabled":false,"rental_uris":{"android":"levelo://app?vid=4ce1d0ff-a885-48df-b8b7-fbc429a8896a","ios":"levelo://app?vid=4ce1d0ff-a885-48df-b8b7-fbc429a8896a"},"vehicle_type_id":"4","last_reported":1736784702,"current_range_meters":38800,"station_id":"ce4bha92rcd13ifvqeh0","pricing_plan_id":"cebpf4jnsgd1na2vs0mg"},{"bike_id":"85603f95-286b-4848-8682-ec6ae6094237","system_id":"levelo_inurba_marseille","lat":43.27076,"lon":5.40244,"is_reserved":false,"is_disabled":true,"rental_uris":{"android":"levelo://app?vid=85603f95-286b-4848-8682-ec6ae6094237","ios":"levelo://app?vid=85603f95-286b-4848-8682-ec6ae6094237"},"vehicle_type_id":"4","last_reported":1736784702,"current_range_meters":3200,"station_id":"ce4bhk92rcd13ifvqgc0","pricing_plan_id":"cebpf4jnsgd1na2vs0mg"},{"bike_id":"55178c83-e8c1-42d0-85eb-2ae9bbbd47cf","system_id":"levelo_inurba_marseille","lat":43.23197,"lon":5.35544,"is_reserved":false,"is_disabled":false,"rental_uris":{"android":"levelo://app?vid=55178c83-e8c1-42d0-85eb-2ae9bbbd47cf","ios":"levelo://app?vid=55178c83-e8c1-42d0-85eb-2ae9bbbd47cf"},"vehicle_type_id":"4","last_reported":1736784702,"current_range_meters":38000,"station_id":"ce4bhu92rcd13ifvqi70","pricing_plan_id":"cebpf4jnsgd1na2vs0mg"},{"bike_id":"fbe80851-b121-4502-8f05-ae8110e66c81","system_id":"levelo_inurba_marseille","lat":43.286113,"lon":5.351015,"is_reserved":false,"is_disabled":false,"rental_uris":{"android":"levelo://app?vid=fbe80851-b121-4502-8f05-ae8110e66c81","ios":"levelo://app?vid=fbe80851-b121-4502-8f05-ae8110e66c81"},"vehicle_type_id":"4","last_reported":1736784702,"current_range_meters":38800,"station_id":"ce4bhch2rcd13ifvqeug","pricing_plan_id":"cebpf4jnsgd1na2vs0mg"},{"bike_id":"8b88170d-e695-4530-8583-a66b3ec41a93","system_id":"levelo_inurba_marseille","lat":43.33606,"lon":5.41017,"is_reserved":false,"is_disabled":true,"rental_uris":{"android":"levelo://app?vid=8b88170d-e695-4530-8583-a66b3ec41a93","ios":"levelo://app?vid=8b88170d-e695-4530-8583-a66b3ec41a93"},"vehicle_type_id":"4","last_reported":1736784702,"current_range_meters":3600,"station_id":"ce4bhqh2rcd13ifvqhmg","pricing_plan_id":"cebpf4jnsgd1na2vs0mg"},{"bike_id":"c59c3bfd-259f-48d2-b5c1-5d9cc976ef8e","system_id":"levelo_inurba_marseille","lat":43.30941,"lon":5.40159,"is_reserved":false,"is_disabled":false,"rental_uris":{"android":"levelo://app?vid=c59c3bfd-259f-48d2-b5c1-5d9cc976ef8e","ios":"levelo://app?vid=c59c3bfd-259f-48d2-b5c1-5d9cc976ef8e"},"vehicle_type_id":"4","last_reported":1736784702,"current_range_meters":22400,"station_id":"ce4bgvp2rcd13ifvqct0","pricing_plan_id":"cebpf4jnsgd1na2vs0mg"},{"bike_id":"3dbeff7e-87d7-44de-8fb3-b3d6f924ffc1","system_id":"levelo_inurba_marseille","lat":43.29025,"lon":5.38133,"is_reserved":false,"is_disabled":false,"rental_uris":{"android":"levelo://app?vid=3dbeff7e-87d7-44de-8fb3-b3d6f924ffc1","ios":"levelo://app?vid=3dbeff7e-87d7-44de-8fb3-b3d6f924ffc1"},"vehicle_type_id":"4","last_reported":1736784702,"current_range_meters":25200,"station_id":"ce4bh4p2rcd13ifvqe1g","pricing_plan_id":"cebpf4jnsgd1na2vs0mg"},{"bike_id":"ac386460-d734-49dc-a07d-5765a2b45256","system_id":"levelo_inurba_marseille","lat":43.29725,"lon":5.37681,"is_reserved":false,"is_disabled":false,"rental_uris":{"android":"levelo://app?vid=ac386460-d734-49dc-a07d-5765a2b45256","ios":"levelo://app?vid=ac386460-d734-49dc-a07d-5765a2b45256"},"vehicle_type_id":"4","last_reported":1736784702,"current_range_meters":38400,"station_id":"ce4bgkh2rcd13ifvqbl0","pricing_plan_id":"cebpf4jnsgd1na2vs0mg"},{"bike_id":"f5915b1c-2d40-4c21-ad46-ad289a2de39c","system_id":"levelo_inurba_marseille","lat":43.26777,"lon":5.39419,"is_reserved":false,"is_disabled":false,"rental_uris":{"android":"levelo://app?vid=f5915b1c-2d40-4c21-ad46-ad289a2de39c","ios":"levelo://app?vid=f5915b1c-2d40-4c21-ad46-ad289a2de39c"},"vehicle_type_id":"4","last_reported":1736784702,"current_range_meters":7200,"station_id":"ce4bhh12rcd13ifvqfg0","pricing_plan_id":"cebpf4jnsgd1na2vs0mg"},{"bike_id":"a57ee27f-c7bb-4e74-a30a-90295c1be50c","system_id":"levelo_inurba_marseille","lat":43.28611,"lon":5.35104,"is_reserved":false,"is_disabled":false,"rental_uris":{"android":"levelo://app?vid=a57ee27f-c7bb-4e74-a30a-90295c1be50c","ios":"levelo://app?vid=a57ee27f-c7bb-4e74-a30a-90295c1be50c"},"vehicle_type_id":"4","last_reported":1736784702,"current_range_meters":27600,"station_id":"ce4bhch2rcd13ifvqeug","pricing_plan_id":"cebpf4jnsgd1na2vs0mg"},{"bike_id":"bb60cb3b-2c49-4238-bc4c-52d28f192148","system_id":"levelo_inurba_marseille","lat":43.27944,"lon":5.41046,"is_reserved":false,"is_disabled":false,"rental_uris":{"android":"levelo://app?vid=bb60cb3b-2c49-4238-bc4c-52d28f192148","ios":"levelo://app?vid=bb60cb3b-2c49-4238-bc4c-52d28f192148"},"vehicle_type_id":"4","last_reported":1736784702,"current_range_meters":38800,"station_id":"ce4bhnp2rcd13ifvqh0g","pricing_plan_id":"cebpf4jnsgd1na2vs0mg"},{"bike_id":"edb44d8d-e090-4819-b975-3794b1a3bb0e","system_id":"levelo_inurba_marseille","lat":43.27969,"lon":5.41676,"is_reserved":false,"is_disabled":false,"rental_uris":{"android":"levelo://app?vid=edb44d8d-e090-4819-b975-3794b1a3bb0e","ios":"levelo://app?vid=edb44d8d-e090-4819-b975-3794b1a3bb0e"},"vehicle_type_id":"4","last_reported":1736784702,"current_range_meters":8800,"station_id":"ce4bho12rcd13ifvqh1g","pricing_plan_id":"cebpf4jnsgd1na2vs0mg"},{"bike_id":"1a1bbce5-7b4d-4365-9610-075b8edac38a","system_id":"levelo_inurba_marseille","lat":43.27614,"lon":5.36123,"is_reserved":false,"is_disabled":false,"rental_uris":{"android":"levelo://app?vid=1a1bbce5-7b4d-4365-9610-075b8edac38a","ios":"levelo://app?vid=1a1bbce5-7b4d-4365-9610-075b8edac38a"},"vehicle_type_id":"4","last_reported":1736784702,"current_range_meters":38800,"station_id":"ce4bgj92rcd13ifvqbe0","pricing_plan_id":"cebpf4jnsgd1na2vs0mg"},{"bike_id":"fab598d3-0eb0-45fe-806d-4e01a792ab9d","system_id":"levelo_inurba_marseille","lat":43.28608,"lon":5.37055,"is_reserved":false,"is_disabled":false,"rental_uris":{"android":"levelo://app?vid=fab598d3-0eb0-45fe-806d-4e01a792ab9d","ios":"levelo://app?vid=fab598d3-0eb0-45fe-806d-4e01a792ab9d"},"vehicle_type_id":"4","last_reported":1736784702,"current_range_meters":18800,"station_id":"ce4bht12rcd13ifvqi60","pricing_plan_id":"cebpf4jnsgd1na2vs0mg"},{"bike_id":"b7a9a420-00a3-4d99-a8aa-4068befb8c88","system_id":"levelo_inurba_marseille","lat":43.33771,"lon":5.37428,"is_reserved":false,"is_disabled":false,"rental_uris":{"android":"levelo://app?vid=b7a9a420-00a3-4d99-a8aa-4068befb8c88","ios":"levelo://app?vid=b7a9a420-00a3-4d99-a8aa-4068befb8c88"},"vehicle_type_id":"4","last_reported":1736784702,"current_range_meters":32800,"station_id":"","pricing_plan_id":"cebpf4jnsgd1na2vs0mg"},{"bike_id":"350c4508-e40f-41a6-977e-5770e3af5b52","system_id":"levelo_inurba_marseille","lat":43.29932,"lon":5.36529,"is_reserved":false,"is_disabled":false,"rental_uris":{"android":"levelo://app?vid=350c4508-e40f-41a6-977e-5770e3af5b52","ios":"levelo://app?vid=350c4508-e40f-41a6-977e-5770e3af5b52"},"vehicle_type_id":"4","last_reported":1736784702,"current_range_meters":24400,"station_id":"ce4bgm92rcd13ifvqbr0","pricing_plan_id":"cebpf4jnsgd1na2vs0mg"},{"bike_id":"6a45a15d-63f7-486a-8d9a-6340532c5847","system_id":"levelo_inurba_marseille","lat":43.27373,"lon":5.36256,"is_reserved":false,"is_disabled":false,"rental_uris":{"android":"levelo://app?vid=6a45a15d-63f7-486a-8d9a-6340532c5847","ios":"levelo://app?vid=6a45a15d-63f7-486a-8d9a-6340532c5847"},"vehicle_type_id":"4","last_reported":1736784702,"current_range_meters":24800,"station_id":"ce4bhbh2rcd13ifvqeo0","pricing_plan_id":"cebpf4jnsgd1na2vs0mg"},{"bike_id":"069de812-3586-4512-ab55-4e2c65491579","system_id":"levelo_inurba_marseille","lat":43.33033,"lon":5.39024,"is_reserved":false,"is_disabled":false,"rental_uris":{"android":"levelo://app?vid=069de812-3586-4512-ab55-4e2c65491579","ios":"levelo://app?vid=069de812-3586-4512-ab55-4e2c65491579"},"vehicle_type_id":"4","last_reported":1736784702,"current_range_meters":36400,"station_id":"ce4bhr92rcd13ifvqhrg","pricing_plan_id":"cebpf4jnsgd1na2vs0mg"},{"bike_id":"61911470-828b-4dbb-acb0-a97b63735e54","system_id":"levelo_inurba_marseille","lat":43.3236,"lon":5.36762,"is_reserved":false,"is_disabled":false,"rental_uris":{"android":"levelo://app?vid=61911470-828b-4dbb-acb0-a97b63735e54","ios":"levelo://app?vid=61911470-828b-4dbb-acb0-a97b63735e54"},"vehicle_type_id":"4","last_reported":1736784702,"current_range_meters":38800,"station_id":"ce4bhsh2rcd13ifvqi2g","pricing_plan_id":"cebpf4jnsgd1na2vs0mg"},{"bike_id":"1f069f6b-1b63-4aa1-b355-53da23a46df6","system_id":"levelo_inurba_marseille","lat":43.30142,"lon":5.38769,"is_reserved":false,"is_disabled":false,"rental_uris":{"android":"levelo://app?vid=1f069f6b-1b63-4aa1-b355-53da23a46df6","ios":"levelo://app?vid=1f069f6b-1b63-4aa1-b355-53da23a46df6"},"vehicle_type_id":"4","last_reported":1736784702,"current_range_meters":30800,"station_id":"ce4bghh2rcd13ifvqb60","pricing_plan_id":"cebpf4jnsgd1na2vs0mg"},{"bike_id":"b31c05a9-6487-4217-80a6-25821a78c060","system_id":"levelo_inurba_marseille","lat":43.23197,"lon":5.35558,"is_reserved":false,"is_disabled":false,"rental_uris":{"android":"levelo://app?vid=b31c05a9-6487-4217-80a6-25821a78c060","ios":"levelo://app?vid=b31c05a9-6487-4217-80a6-25821a78c060"},"vehicle_type_id":"4","last_reported":1736784702,"current_range_meters":34000,"station_id":"ce4bhu92rcd13ifvqi70","pricing_plan_id":"cebpf4jnsgd1na2vs0mg"},{"bike_id":"12b38652-2c32-412b-8bfb-32e93cc5467d","system_id":"levelo_inurba_marseille","lat":43.30447,"lon":5.38863,"is_reserved":false,"is_disabled":false,"rental_uris":{"android":"levelo://app?vid=12b38652-2c32-412b-8bfb-32e93cc5467d","ios":"levelo://app?vid=12b38652-2c32-412b-8bfb-32e93cc5467d"},"vehicle_type_id":"4","last_reported":1736784702,"current_range_meters":16400,"station_id":"ce4bgk12rcd13ifvqbi0","pricing_plan_id":"cebpf4jnsgd1na2vs0mg"},{"bike_id":"4a4d296c-e71a-4d73-8515-0b49a9079d8d","system_id":"levelo_inurba_marseille","lat":43.23189,"lon":5.39984,"is_reserved":false,"is_disabled":false,"rental_uris":{"android":"levelo://app?vid=4a4d296c-e71a-4d73-8515-0b49a9079d8d","ios":"levelo://app?vid=4a4d296c-e71a-4d73-8515-0b49a9079d8d"},"vehicle_type_id":"4","last_reported":1736784702,"current_range_meters":32800,"station_id":"ce4bhn12rcd13ifvqgqg","pricing_plan_id":"cebpf4jnsgd1na2vs0mg"},{"bike_id":"f92eccaa-b498-4971-8e79-c49742bfb4e0","system_id":"levelo_inurba_marseille","lat":43.26208,"lon":5.37921,"is_reserved":false,"is_disabled":false,"rental_uris":{"android":"levelo://app?vid=f92eccaa-b498-4971-8e79-c49742bfb4e0","ios":"levelo://app?vid=f92eccaa-b498-4971-8e79-c49742bfb4e0"},"vehicle_type_id":"4","last_reported":1736784702,"current_range_meters":38800,"station_id":"ce4bhjp2rcd13ifvqg90","pricing_plan_id":"cebpf4jnsgd1na2vs0mg"},{"bike_id":"e6bba61c-4e7c-4dea-af3a-10ee92cd3ba4","system_id":"levelo_inurba_marseille","lat":43.29537,"lon":5.3751,"is_reserved":false,"is_disabled":false,"rental_uris":{"android":"levelo://app?vid=e6bba61c-4e7c-4dea-af3a-10ee92cd3ba4","ios":"levelo://app?vid=e6bba61c-4e7c-4dea-af3a-10ee92cd3ba4"},"vehicle_type_id":"4","last_reported":1736784702,"current_range_meters":36000,"station_id":"ce4bgkp2rcd13ifvqbmg","pricing_plan_id":"cebpf4jnsgd1na2vs0mg"},{"bike_id":"12a77688-55d2-40a5-9210-63376f169f15","system_id":"levelo_inurba_marseille","lat":43.24998,"lon":5.38932,"is_reserved":false,"is_disabled":false,"rental_uris":{"android":"levelo://app?vid=12a77688-55d2-40a5-9210-63376f169f15","ios":"levelo://app?vid=12a77688-55d2-40a5-9210-63376f169f15"},"vehicle_type_id":"4","last_reported":1736784702,"current_range_meters":22000,"station_id":"ce4bhgp2rcd13ifvqfd0","pricing_plan_id":"cebpf4jnsgd1na2vs0mg"},{"bike_id":"d45b1d40-f3b0-4cf1-8dbe-a3c485f13ea6","system_id":"levelo_inurba_marseille","lat":43.32287,"lon":5.38271,"is_reserved":false,"is_disabled":false,"rental_uris":{"android":"levelo://app?vid=d45b1d40-f3b0-4cf1-8dbe-a3c485f13ea6","ios":"levelo://app?vid=d45b1d40-f3b0-4cf1-8dbe-a3c485f13ea6"},"vehicle_type_id":"4","last_reported":1736784702,"current_range_meters":27600,"station_id":"ce4bhr12rcd13ifvqhqg","pricing_plan_id":"cebpf4jnsgd1na2vs0mg"},{"bike_id":"39dc6c59-3352-4eee-97e6-b5f226833557","system_id":"levelo_inurba_marseille","lat":43.33605,"lon":5.41015,"is_reserved":false,"is_disabled":true,"rental_uris":{"android":"levelo://app?vid=39dc6c59-3352-4eee-97e6-b5f226833557","ios":"levelo://app?vid=39dc6c59-3352-4eee-97e6-b5f226833557"},"vehicle_type_id":"4","last_reported":1736784702,"current_range_meters":27200,"station_id":"ce4bhqh2rcd13ifvqhmg","pricing_plan_id":"cebpf4jnsgd1na2vs0mg"},{"bike_id":"d30e621d-83ff-4238-81a9-2c600efebed3","system_id":"levelo_inurba_marseille","lat":43.26027,"lon":5.37561,"is_reserved":false,"is_disabled":true,"rental_uris":{"android":"levelo://app?vid=d30e621d-83ff-4238-81a9-2c600efebed3","ios":"levelo://app?vid=d30e621d-83ff-4238-81a9-2c600efebed3"},"vehicle_type_id":"4","last_reported":1736784702,"current_range_meters":1600,"station_id":"ce4bhgh2rcd13ifvqfa0","pricing_plan_id":"cebpf4jnsgd1na2vs0mg"},{"bike_id":"4725ae05-b600-47b7-ba70-7352c8181ea5","system_id":"levelo_inurba_marseille","lat":43.27406,"lon":5.39037,"is_reserved":false,"is_disabled":true,"rental_uris":{"android":"levelo://app?vid=4725ae05-b600-47b7-ba70-7352c8181ea5","ios":"levelo://app?vid=4725ae05-b600-47b7-ba70-7352c8181ea5"},"vehicle_type_id":"4","last_reported":1736784702,"current_range_meters":0,"station_id":"","pricing_plan_id":"cebpf4jnsgd1na2vs0mg"},{"bike_id":"79548892-97b7-4ac0-9dde-b5b524da55ef","system_id":"levelo_inurba_marseille","lat":43.29014,"lon":5.35594,"is_reserved":false,"is_disabled":false,"rental_uris":{"android":"levelo://app?vid=79548892-97b7-4ac0-9dde-b5b524da55ef","ios":"levelo://app?vid=79548892-97b7-4ac0-9dde-b5b524da55ef"},"vehicle_type_id":"4","last_reported":1736784702,"current_range_meters":27600,"station_id":"ce4bhb92rcd13ifvqen0","pricing_plan_id":"cebpf4jnsgd1na2vs0mg"},{"bike_id":"c5d40b20-7271-4338-aa73-7b5c81838498","system_id":"levelo_inurba_marseille","lat":43.27171,"lon":5.40993,"is_reserved":false,"is_disabled":false,"rental_uris":{"android":"levelo://app?vid=c5d40b20-7271-4338-aa73-7b5c81838498","ios":"levelo://app?vid=c5d40b20-7271-4338-aa73-7b5c81838498"},"vehicle_type_id":"4","last_reported":1736784702,"current_range_meters":22800,"station_id":"ce4bhl12rcd13ifvqgf0","pricing_plan_id":"cebpf4jnsgd1na2vs0mg"},{"bike_id":"29df0366-18e7-457f-860e-64376726bac4","system_id":"levelo_inurba_marseille","lat":43.2988,"lon":5.39732,"is_reserved":false,"is_disabled":false,"rental_uris":{"android":"levelo://app?vid=29df0366-18e7-457f-860e-64376726bac4","ios":"levelo://app?vid=29df0366-18e7-457f-860e-64376726bac4"},"vehicle_type_id":"4","last_reported":1736784702,"current_range_meters":30800,"station_id":"ce4bh0h2rcd13ifvqd50","pricing_plan_id":"cebpf4jnsgd1na2vs0mg"},{"bike_id":"dca33f5e-1ea1-41f0-ab0e-2849acbe90fb","system_id":"levelo_inurba_marseille","lat":43.30309,"lon":5.36894,"is_reserved":false,"is_disabled":false,"rental_uris":{"android":"levelo://app?vid=dca33f5e-1ea1-41f0-ab0e-2849acbe90fb","ios":"levelo://app?vid=dca33f5e-1ea1-41f0-ab0e-2849acbe90fb"},"vehicle_type_id":"4","last_reported":1736784702,"current_range_meters":12800,"station_id":"ce4bgqh2rcd13ifvqc5g","pricing_plan_id":"cebpf4jnsgd1na2vs0mg"},{"bike_id":"1f87965d-ea7a-4594-aba6-84fc333e34e1","system_id":"levelo_inurba_marseille","lat":43.30309,"lon":5.36889,"is_reserved":false,"is_disabled":false,"rental_uris":{"android":"levelo://app?vid=1f87965d-ea7a-4594-aba6-84fc333e34e1","ios":"levelo://app?vid=1f87965d-ea7a-4594-aba6-84fc333e34e1"},"vehicle_type_id":"4","last_reported":1736784702,"current_range_meters":38800,"station_id":"ce4bgqh2rcd13ifvqc5g","pricing_plan_id":"cebpf4jnsgd1na2vs0mg"},{"bike_id":"eb2717bb-f097-45ae-a7c5-4bd409be3bb0","system_id":"levelo_inurba_marseille","lat":43.28936,"lon":5.39634,"is_reserved":false,"is_disabled":false,"rental_uris":{"android":"levelo://app?vid=eb2717bb-f097-45ae-a7c5-4bd409be3bb0","ios":"levelo://app?vid=eb2717bb-f097-45ae-a7c5-4bd409be3bb0"},"vehicle_type_id":"4","last_reported":1736784702,"current_range_meters":38000,"station_id":"ce4bh3h2rcd13ifvqdn0","pricing_plan_id":"cebpf4jnsgd1na2vs0mg"},{"bike_id":"1d916eed-640e-4358-a6f0-e51d72573672","system_id":"levelo_inurba_marseille","lat":43.31328,"lon":5.39686,"is_reserved":false,"is_disabled":false,"rental_uris":{"android":"levelo://app?vid=1d916eed-640e-4358-a6f0-e51d72573672","ios":"levelo://app?vid=1d916eed-640e-4358-a6f0-e51d72573672"},"vehicle_type_id":"4","last_reported":1736784702,"current_range_meters":38800,"station_id":"ce4bgvp2rcd13ifvqcu0","pricing_plan_id":"cebpf4jnsgd1na2vs0mg"},{"bike_id":"b40f5c9e-ac82-4b37-a6e1-51aa67f9cba5","system_id":"levelo_inurba_marseille","lat":43.27998,"lon":5.40014,"is_reserved":false,"is_disabled":false,"rental_uris":{"android":"levelo://app?vid=b40f5c9e-ac82-4b37-a6e1-51aa67f9cba5","ios":"levelo://app?vid=b40f5c9e-ac82-4b37-a6e1-51aa67f9cba5"},"vehicle_type_id":"4","last_reported":1736784702,"current_range_meters":39200,"station_id":"ce4bho92rcd13ifvqh4g","pricing_plan_id":"cebpf4jnsgd1na2vs0mg"},{"bike_id":"7371cc46-1f56-4797-902b-576934de8499","system_id":"levelo_inurba_marseille","lat":43.2862,"lon":5.35094,"is_reserved":false,"is_disabled":true,"rental_uris":{"android":"levelo://app?vid=7371cc46-1f56-4797-902b-576934de8499","ios":"levelo://app?vid=7371cc46-1f56-4797-902b-576934de8499"},"vehicle_type_id":"4","last_reported":1736784702,"current_range_meters":0,"station_id":"ce4bhch2rcd13ifvqeug","pricing_plan_id":"cebpf4jnsgd1na2vs0mg"},{"bike_id":"5b95d8c2-57b7-4378-847c-a7a13ace5d5d","system_id":"levelo_inurba_marseille","lat":43.30637,"lon":5.40098,"is_reserved":false,"is_disabled":false,"rental_uris":{"android":"levelo://app?vid=5b95d8c2-57b7-4378-847c-a7a13ace5d5d","ios":"levelo://app?vid=5b95d8c2-57b7-4378-847c-a7a13ace5d5d"},"vehicle_type_id":"4","last_reported":1736784702,"current_range_meters":24000,"station_id":"ce4bh112rcd13ifvqda0","pricing_plan_id":"cebpf4jnsgd1na2vs0mg"},{"bike_id":"ef7c5a96-ed17-4ee8-a65c-804830de5b5e","system_id":"levelo_inurba_marseille","lat":43.29586,"lon":5.375,"is_reserved":false,"is_disabled":true,"rental_uris":{"android":"levelo://app?vid=ef7c5a96-ed17-4ee8-a65c-804830de5b5e","ios":"levelo://app?vid=ef7c5a96-ed17-4ee8-a65c-804830de5b5e"},"vehicle_type_id":"4","last_reported":1736784702,"current_range_meters":30800,"station_id":"ce4bgh92rcd13ifvqb50","pricing_plan_id":"cebpf4jnsgd1na2vs0mg"},{"bike_id":"fd6ced72-42a4-43ae-90aa-449e122ca764","system_id":"levelo_inurba_marseille","lat":43.28999,"lon":5.35605,"is_reserved":false,"is_disabled":false,"rental_uris":{"android":"levelo://app?vid=fd6ced72-42a4-43ae-90aa-449e122ca764","ios":"levelo://app?vid=fd6ced72-42a4-43ae-90aa-449e122ca764"},"vehicle_type_id":"4","last_reported":1736784702,"current_range_meters":38800,"station_id":"ce4bhb92rcd13ifvqen0","pricing_plan_id":"cebpf4jnsgd1na2vs0mg"},{"bike_id":"09f04c85-e18e-45c9-8f71-3e02db1d4c7a","system_id":"levelo_inurba_marseille","lat":43.2737,"lon":5.36251,"is_reserved":false,"is_disabled":false,"rental_uris":{"android":"levelo://app?vid=09f04c85-e18e-45c9-8f71-3e02db1d4c7a","ios":"levelo://app?vid=09f04c85-e18e-45c9-8f71-3e02db1d4c7a"},"vehicle_type_id":"4","last_reported":1736784702,"current_range_meters":13600,"station_id":"ce4bhbh2rcd13ifvqeo0","pricing_plan_id":"cebpf4jnsgd1na2vs0mg"},{"bike_id":"9aa9dfb7-369d-4c6a-afa4-85584fd83867","system_id":"levelo_inurba_marseille","lat":43.33736,"lon":5.37461,"is_reserved":false,"is_disabled":false,"rental_uris":{"android":"levelo://app?vid=9aa9dfb7-369d-4c6a-afa4-85584fd83867","ios":"levelo://app?vid=9aa9dfb7-369d-4c6a-afa4-85584fd83867"},"vehicle_type_id":"4","last_reported":1736784702,"current_range_meters":38800,"station_id":"","pricing_plan_id":"cebpf4jnsgd1na2vs0mg"},{"bike_id":"828357d7-94fe-4194-a49b-6c6fab9b78de","system_id":"levelo_inurba_marseille","lat":43.28609,"lon":5.37061,"is_reserved":false,"is_disabled":false,"rental_uris":{"android":"levelo://app?vid=828357d7-94fe-4194-a49b-6c6fab9b78de","ios":"levelo://app?vid=828357d7-94fe-4194-a49b-6c6fab9b78de"},"vehicle_type_id":"4","last_reported":1736784702,"current_range_meters":14800,"station_id":"ce4bht12rcd13ifvqi60","pricing_plan_id":"cebpf4jnsgd1na2vs0mg"},{"bike_id":"48531d5a-d69b-47c6-af74-7340d7ad1860","system_id":"levelo_inurba_marseille","lat":43.29904,"lon":5.38129,"is_reserved":false,"is_disabled":true,"rental_uris":{"android":"levelo://app?vid=48531d5a-d69b-47c6-af74-7340d7ad1860","ios":"levelo://app?vid=48531d5a-d69b-47c6-af74-7340d7ad1860"},"vehicle_type_id":"4","last_reported":1736784702,"current_range_meters":36800,"station_id":"ce4bgj12rcd13ifvqbc0","pricing_plan_id":"cebpf4jnsgd1na2vs0mg"},{"bike_id":"9bfbe250-bda2-4a9a-9b76-e2136c220940","system_id":"levelo_inurba_marseille","lat":43.25586,"lon":5.38236,"is_reserved":false,"is_disabled":false,"rental_uris":{"android":"levelo://app?vid=9bfbe250-bda2-4a9a-9b76-e2136c220940","ios":"levelo://app?vid=9bfbe250-bda2-4a9a-9b76-e2136c220940"},"vehicle_type_id":"4","last_reported":1736784702,"current_range_meters":16000,"station_id":"ce4bhih2rcd13ifvqfs0","pricing_plan_id":"cebpf4jnsgd1na2vs0mg"},{"bike_id":"5d6ee491-db6f-4a2a-8dad-1e433239109a","system_id":"levelo_inurba_marseille","lat":43.2558,"lon":5.3824,"is_reserved":false,"is_disabled":false,"rental_uris":{"android":"levelo://app?vid=5d6ee491-db6f-4a2a-8dad-1e433239109a","ios":"levelo://app?vid=5d6ee491-db6f-4a2a-8dad-1e433239109a"},"vehicle_type_id":"4","last_reported":1736784702,"current_range_meters":38800,"station_id":"ce4bhih2rcd13ifvqfs0","pricing_plan_id":"cebpf4jnsgd1na2vs0mg"},{"bike_id":"bd223fa7-a4cc-427d-a7cf-908417730f41","system_id":"levelo_inurba_marseille","lat":43.25583,"lon":5.38223,"is_reserved":false,"is_disabled":false,"rental_uris":{"android":"levelo://app?vid=bd223fa7-a4cc-427d-a7cf-908417730f41","ios":"levelo://app?vid=bd223fa7-a4cc-427d-a7cf-908417730f41"},"vehicle_type_id":"4","last_reported":1736784702,"current_range_meters":26800,"station_id":"ce4bhih2rcd13ifvqfs0","pricing_plan_id":"cebpf4jnsgd1na2vs0mg"},{"bike_id":"96591481-7552-491b-9b8e-994c1801d5ee","system_id":"levelo_inurba_marseille","lat":43.25718,"lon":5.41111,"is_reserved":false,"is_disabled":false,"rental_uris":{"android":"levelo://app?vid=96591481-7552-491b-9b8e-994c1801d5ee","ios":"levelo://app?vid=96591481-7552-491b-9b8e-994c1801d5ee"},"vehicle_type_id":"4","last_reported":1736784702,"current_range_meters":9600,"station_id":"ce4bhkp2rcd13ifvqgd0","pricing_plan_id":"cebpf4jnsgd1na2vs0mg"},{"bike_id":"09d27a5a-ddab-4c96-ae1b-c4fa3a4ba121","system_id":"levelo_inurba_marseille","lat":43.27565,"lon":5.38419,"is_reserved":false,"is_disabled":true,"rental_uris":{"android":"levelo://app?vid=09d27a5a-ddab-4c96-ae1b-c4fa3a4ba121","ios":"levelo://app?vid=09d27a5a-ddab-4c96-ae1b-c4fa3a4ba121"},"vehicle_type_id":"4","last_reported":1736784702,"current_range_meters":0,"station_id":"ce4bhh92rcd13ifvqfi0","pricing_plan_id":"cebpf4jnsgd1na2vs0mg"},{"bike_id":"b7e00236-64de-4698-a1d1-0020b26eb771","system_id":"levelo_inurba_marseille","lat":43.28664,"lon":5.36362,"is_reserved":false,"is_disabled":false,"rental_uris":{"android":"levelo://app?vid=b7e00236-64de-4698-a1d1-0020b26eb771","ios":"levelo://app?vid=b7e00236-64de-4698-a1d1-0020b26eb771"},"vehicle_type_id":"4","last_reported":1736784702,"current_range_meters":28000,"station_id":"ce4bhah2rcd13ifvqej0","pricing_plan_id":"cebpf4jnsgd1na2vs0mg"},{"bike_id":"4e81571a-d6db-485a-b9cf-57b6767e8b45","system_id":"levelo_inurba_marseille","lat":43.26554,"lon":5.37281,"is_reserved":false,"is_disabled":false,"rental_uris":{"android":"levelo://app?vid=4e81571a-d6db-485a-b9cf-57b6767e8b45","ios":"levelo://app?vid=4e81571a-d6db-485a-b9cf-57b6767e8b45"},"vehicle_type_id":"4","last_reported":1736784702,"current_range_meters":35200,"station_id":"ce4bhg12rcd13ifvqf70","pricing_plan_id":"cebpf4jnsgd1na2vs0mg"},{"bike_id":"504f21ab-2246-488c-98ae-af9e413840ab","system_id":"levelo_inurba_marseille","lat":43.30526,"lon":5.36532,"is_reserved":false,"is_disabled":false,"rental_uris":{"android":"levelo://app?vid=504f21ab-2246-488c-98ae-af9e413840ab","ios":"levelo://app?vid=504f21ab-2246-488c-98ae-af9e413840ab"},"vehicle_type_id":"4","last_reported":1736784702,"current_range_meters":21600,"station_id":"ce4bgs12rcd13ifvqcag","pricing_plan_id":"cebpf4jnsgd1na2vs0mg"},{"bike_id":"f5940b2d-3e41-42b1-9cdd-8fbae942f3f9","system_id":"levelo_inurba_marseille","lat":43.2306,"lon":5.3549,"is_reserved":false,"is_disabled":true,"rental_uris":{"android":"levelo://app?vid=f5940b2d-3e41-42b1-9cdd-8fbae942f3f9","ios":"levelo://app?vid=f5940b2d-3e41-42b1-9cdd-8fbae942f3f9"},"vehicle_type_id":"4","last_reported":1736784702,"current_range_meters":0,"station_id":"cpo3342slgdg3j2ifvpg","pricing_plan_id":"cebpf4jnsgd1na2vs0mg"},{"bike_id":"20762aa5-76cc-4c19-9bda-3c9f6412c3ef","system_id":"levelo_inurba_marseille","lat":43.2902,"lon":5.38129,"is_reserved":false,"is_disabled":false,"rental_uris":{"android":"levelo://app?vid=20762aa5-76cc-4c19-9bda-3c9f6412c3ef","ios":"levelo://app?vid=20762aa5-76cc-4c19-9bda-3c9f6412c3ef"},"vehicle_type_id":"4","last_reported":1736784702,"current_range_meters":19200,"station_id":"ce4bh4p2rcd13ifvqe1g","pricing_plan_id":"cebpf4jnsgd1na2vs0mg"},{"bike_id":"6139967f-a9e6-4f7b-b93d-d5bd71a71eeb","system_id":"levelo_inurba_marseille","lat":43.24661,"lon":5.38162,"is_reserved":false,"is_disabled":false,"rental_uris":{"android":"levelo://app?vid=6139967f-a9e6-4f7b-b93d-d5bd71a71eeb","ios":"levelo://app?vid=6139967f-a9e6-4f7b-b93d-d5bd71a71eeb"},"vehicle_type_id":"4","last_reported":1736784702,"current_range_meters":28400,"station_id":"ce4bhih2rcd13ifvqfr0","pricing_plan_id":"cebpf4jnsgd1na2vs0mg"},{"bike_id":"ba60fed3-5e42-4417-8ba2-032380663253","system_id":"levelo_inurba_marseille","lat":43.27566,"lon":5.3843,"is_reserved":false,"is_disabled":false,"rental_uris":{"android":"levelo://app?vid=ba60fed3-5e42-4417-8ba2-032380663253","ios":"levelo://app?vid=ba60fed3-5e42-4417-8ba2-032380663253"},"vehicle_type_id":"4","last_reported":1736784702,"current_range_meters":39200,"station_id":"ce4bhh92rcd13ifvqfi0","pricing_plan_id":"cebpf4jnsgd1na2vs0mg"},{"bike_id":"d7b9c206-817f-4e8c-9d69-b87de777986e","system_id":"levelo_inurba_marseille","lat":43.28569,"lon":5.39495,"is_reserved":false,"is_disabled":false,"rental_uris":{"android":"levelo://app?vid=d7b9c206-817f-4e8c-9d69-b87de777986e","ios":"levelo://app?vid=d7b9c206-817f-4e8c-9d69-b87de777986e"},"vehicle_type_id":"4","last_reported":1736784702,"current_range_meters":28000,"station_id":"ce4bh292rcd13ifvqdg0","pricing_plan_id":"cebpf4jnsgd1na2vs0mg"},{"bike_id":"59606085-347a-4367-b462-c663ea1e1168","system_id":"levelo_inurba_marseille","lat":43.28946,"lon":5.36633,"is_reserved":false,"is_disabled":false,"rental_uris":{"android":"levelo://app?vid=59606085-347a-4367-b462-c663ea1e1168","ios":"levelo://app?vid=59606085-347a-4367-b462-c663ea1e1168"},"vehicle_type_id":"4","last_reported":1736784702,"current_range_meters":28800,"station_id":"ce4bhap2rcd13ifvqek0","pricing_plan_id":"cebpf4jnsgd1na2vs0mg"},{"bike_id":"e70f8bee-21f0-44d3-81c6-1d9b0b54fd1c","system_id":"levelo_inurba_marseille","lat":43.29592,"lon":5.38102,"is_reserved":false,"is_disabled":false,"rental_uris":{"android":"levelo://app?vid=e70f8bee-21f0-44d3-81c6-1d9b0b54fd1c","ios":"levelo://app?vid=e70f8bee-21f0-44d3-81c6-1d9b0b54fd1c"},"vehicle_type_id":"4","last_reported":1736784702,"current_range_meters":32000,"station_id":"ce4bgl12rcd13ifvqbo0","pricing_plan_id":"cebpf4jnsgd1na2vs0mg"},