{"last_updated":1749507006,"ttl":60,"version":"2.2","data":{"bikes":[{"bike_id":"1ea4d901-280f-4050-a043-0b37afe86b03","system_id":"levelo_inurba_marseille","lat":43.21181,"lon":5.35075,"is_reserved":false,"is_disabled":false,"rental_uris":{"android":"levelo://app?vid=1ea4d901-280f-4050-a043-0b37afe86b03","ios":"levelo://app?vid=1ea4d901-280f-4050-a043-0b37afe86b03"},"vehicle_type_id":"4","last_reported":1749507006,"current_range_meters":2800,"station_id":"st_cvj6sg6p6f1abm77japg","pricing_plan_id":"cebpf4jnsgd1na2vs0mg"},{"bike_id":"91b5925d-2d0a-4921-81ac-1150c1974987","system_id":"levelo_inurba_marseille","lat":43.28217,"lon":5.34894,"is_reserved":false,"is_disabled":false,"rental_uris":{"android":"levelo://app?vid=91b5925d-2d0a-4921-81ac-1150c1974987","ios":"levelo://app?vid=91b5925d-2d0a-4921-81ac-1150c1974987"},"vehicle_type_id":"4","last_reported":1749507006,"current_range_meters":2800,"station_id":"","pricing_plan_id":"cebpf4jnsgd1na2vs0mg"},{"bike_id":"67d4735d-a812-4e55-90bc-5641f4e35931","system_id":"levelo_inurba_marseille","lat":43.21171,"lon":5.35085,"is_reserved":false,"is_disabled":false,"rental_uris":{"android":"levelo://app?vid=67d4735d-a812-4e55-90bc-5641f4e35931","ios":"levelo://app?vid=67d4735d-a812-4e55-90bc-5641f4e35931"},"vehicle_type_id":"4","last_reported":1749507006,"current_range_meters":3200,"station_id":"st_cvj6sg6p6f1abm77japg","pricing_plan_id":"cebpf4jnsgd1na2vs0mg"},{"bike_id":"76dff3f0-834f-4367-9c95-a64d3e371b8d","system_id":"levelo_inurba_marseille","lat":43.262289,"lon":5.404508,"is_reserved":false,"is_disabled":false,"rental_uris":{"android":"levelo://app?vid=76dff3f0-834f-4367-9c95-a64d3e371b8d","ios":"levelo://app?vid=76dff3f0-834f-4367-9c95-a64d3e371b8d"},"vehicle_type_id":"4","last_reported":1749507006,"current_range_meters":3200,"station_id":"ce4bhmh2rcd13ifvqgmg","pricing_plan_id":"cebpf4jnsgd1na2vs0mg"},{"bike_id":"6e33d6dc-ed40-449d-a36d-ee1c9014b928","system_id":"levelo_inurba_marseille","lat":43.30308,"lon":5.368993,"is_reserved":false,"is_disabled":false,"rental_uris":{"android":"levelo://app?vid=6e33d6dc-ed40-449d-a36d-ee1c9014b928","ios":"levelo://app?vid=6e33d6dc-ed40-449d-a36d-ee1c9014b928"},"vehicle_type_id":"4","last_reported":1749507006,"current_range_meters":3200,"station_id":"ce4bgqh2rcd13ifvqc5g","pricing_plan_id":"cebpf4jnsgd1na2vs0mg"},{"bike_id":"a2d73be7-868a-4600-9834-af16b43b12ad","system_id":"levelo_inurba_marseille","lat":43.24495,"lon":5.42494,"is_reserved":false,"is_disabled":false,"rental_uris":{"android":"levelo://app?vid=a2d73be7-868a-4600-9834-af16b43b12ad","ios":"levelo://app?vid=a2d73be7-868a-4600-9834-af16b43b12ad"},"vehicle_type_id":"4","last_reported":1749507006,"current_range_meters":3600,"station_id":"","pricing_plan_id":"cebpf4jnsgd1na2vs0mg"},{"bike_id":"3d9d3976-b6da-415d-b0e7-53db0b5a7bcb","system_id":"levelo_inurba_marseille","lat":43.28099,"lon":5.37834,"is_reserved":false,"is_disabled":true,"rental_uris":{"android":"levelo://app?vid=3d9d3976-b6da-415d-b0e7-53db0b5a7bcb","ios":"levelo://app?vid=3d9d3976-b6da-415d-b0e7-53db0b5a7bcb"},"vehicle_type_id":"4","last_reported":1749507006,"current_range_meters":3600,"station_id":"ce4bha12rcd13ifvqee0","pricing_plan_id":"cebpf4jnsgd1na2vs0mg"},{"bike_id":"8a4704a2-7f7e-44a9-9f2a-a5232c83cab4","system_id":"levelo_inurba_marseille","lat":43.27835,"lon":5.39213,"is_reserved":false,"is_disabled":false,"rental_uris":{"android":"levelo://app?vid=8a4704a2-7f7e-44a9-9f2a-a5232c83cab4","ios":"levelo://app?vid=8a4704a2-7f7e-44a9-9f2a-a5232c83cab4"},"vehicle_type_id":"4","last_reported":1749507006,"current_range_meters":4000,"station_id":"ce4bhjp2rcd13ifvqga0","pricing_plan_id":"cebpf4jnsgd1na2vs0mg"},{"bike_id":"04983142-7950-4df8-ad98-d43a378ca8b2","system_id":"levelo_inurba_marseille","lat":43.2893,"lon":5.37102,"is_reserved":false,"is_disabled":false,"rental_uris":{"android":"levelo://app?vid=04983142-7950-4df8-ad98-d43a378ca8b2","ios":"levelo://app?vid=04983142-7950-4df8-ad98-d43a378ca8b2"},"vehicle_type_id":"4","last_reported":1749507006,"current_range_meters":4000,"station_id":"","pricing_plan_id":"cebpf4jnsgd1na2vs0mg"},{"bike_id":"37131763-d567-471b-9511-f463050a0ad1","system_id":"levelo_inurba_marseille","lat":43.29573,"lon":5.37501,"is_reserved":false,"is_disabled":true,"rental_uris":{"android":"levelo://app?vid=37131763-d567-471b-9511-f463050a0ad1","ios":"levelo://app?vid=37131763-d567-471b-9511-f463050a0ad1"},"vehicle_type_id":"4","last_reported":1749507006,"current_range_meters":4000,"station_id":"ce4bgh92rcd13ifvqb50","pricing_plan_id":"cebpf4jnsgd1na2vs0mg"},{"bike_id":"c94192a2-124d-4a00-a51a-6765e8678025","system_id":"levelo_inurba_marseille","lat":43.3031,"lon":5.39182,"is_reserved":false,"is_disabled":true,"rental_uris":{"android":"levelo://app?vid=c94192a2-124d-4a00-a51a-6765e8678025","ios":"levelo://app?vid=c94192a2-124d-4a00-a51a-6765e8678025"},"vehicle_type_id":"4","last_reported":1749507006,"current_range_meters":4000,"station_id":"ce4bgkh2rcd13ifvqbk0","pricing_plan_id":"cebpf4jnsgd1na2vs0mg"},{"bike_id":"2ee95ae0-83a2-4f87-92e7-182763430c39","system_id":"levelo_inurba_marseille","lat":43.2865,"lon":5.36343,"is_reserved":false,"is_disabled":true,"rental_uris":{"android":"levelo://app?vid=2ee95ae0-83a2-4f87-92e7-182763430c39","ios":"levelo://app?vid=2ee95ae0-83a2-4f87-92e7-182763430c39"},"vehicle_type_id":"4","last_reported":1749507006,"current_range_meters":4400,"station_id":"ce4bhah2rcd13ifvqej0","pricing_plan_id":"cebpf4jnsgd1na2vs0mg"},{"bike_id":"1556cf50-9233-44d8-b126-e6f9550463a3","system_id":"levelo_inurba_marseille","lat":43.24451,"lon":5.42835,"is_reserved":false,"is_disabled":false,"rental_uris":{"android":"levelo://app?vid=1556cf50-9233-44d8-b126-e6f9550463a3","ios":"levelo://app?vid=1556cf50-9233-44d8-b126-e6f9550463a3"},"vehicle_type_id":"4","last_reported":1749507006,"current_range_meters":4400,"station_id":"","pricing_plan_id":"cebpf4jnsgd1na2vs0mg"},{"bike_id":"994fbbd1-7b7a-4973-8b72-780a5cbeda75","system_id":"levelo_inurba_marseille","lat":43.2898,"lon":5.37846,"is_reserved":false,"is_disabled":true,"rental_uris":{"android":"levelo://app?vid=994fbbd1-7b7a-4973-8b72-780a5cbeda75","ios":"levelo://app?vid=994fbbd1-7b7a-4973-8b72-780a5cbeda75"},"vehicle_type_id":"4","last_reported":1749507006,"current_range_meters":4800,"station_id":"ce4bh9p2rcd13ifvqed0","pricing_plan_id":"cebpf4jnsgd1na2vs0mg"},{"bike_id":"a61242dd-8369-4520-9963-a504224e1a30","system_id":"levelo_inurba_marseille","lat":43.23133,"lon":5.40809,"is_reserved":false,"is_disabled":false,"rental_uris":{"android":"levelo://app?vid=a61242dd-8369-4520-9963-a504224e1a30","ios":"levelo://app?vid=a61242dd-8369-4520-9963-a504224e1a30"},"vehicle_type_id":"4","last_reported":1749507006,"current_range_meters":4800,"station_id":"","pricing_plan_id":"cebpf4jnsgd1na2vs0mg"},{"bike_id":"92434a42-3026-4fab-bcf5-f58b8ad040ad","system_id":"levelo_inurba_marseille","lat":43.27813,"lon":5.40718,"is_reserved":false,"is_disabled":false,"rental_uris":{"android":"levelo://app?vid=92434a42-3026-4fab-bcf5-f58b8ad040ad","ios":"levelo://app?vid=92434a42-3026-4fab-bcf5-f58b8ad040ad"},"vehicle_type_id":"4","last_reported":1749507006,"current_range_meters":6000,"station_id":"ce4bhnh2rcd13ifvqgtg","pricing_plan_id":"cebpf4jnsgd1na2vs0mg"},{"bike_id":"b6c2474d-6e5f-4a1e-b40d-efe42731be2b","system_id":"levelo_inurba_marseille","lat":43.26228,"lon":5.40451,"is_reserved":false,"is_disabled":false,"rental_uris":{"android":"levelo://app?vid=b6c2474d-6e5f-4a1e-b40d-efe42731be2b","ios":"levelo://app?vid=b6c2474d-6e5f-4a1e-b40d-efe42731be2b"},"vehicle_type_id":"4","last_reported":1749507006,"current_range_meters":6400,"station_id":"ce4bhmh2rcd13ifvqgmg","pricing_plan_id":"cebpf4jnsgd1na2vs0mg"},{"bike_id":"73c51b1b-73bc-4353-a09d-8ed0f027c8ac","system_id":"levelo_inurba_marseille","lat":43.28936,"lon":5.36402,"is_reserved":false,"is_disabled":false,"rental_uris":{"android":"levelo://app?vid=73c51b1b-73bc-4353-a09d-8ed0f027c8ac","ios":"levelo://app?vid=73c51b1b-73bc-4353-a09d-8ed0f027c8ac"},"vehicle_type_id":"4","last_reported":1749507006,"current_range_meters":6400,"station_id":"ce4bhc92rcd13ifvqetg","pricing_plan_id":"cebpf4jnsgd1na2vs0mg"},{"bike_id":"8c03ec80-dc19-4c9d-b151-e0210828c13a","system_id":"levelo_inurba_marseille","lat":43.29671,"lon":5.39423,"is_reserved":false,"is_disabled":false,"rental_uris":{"android":"levelo://app?vid=8c03ec80-dc19-4c9d-b151-e0210828c13a","ios":"levelo://app?vid=8c03ec80-dc19-4c9d-b151-e0210828c13a"},"vehicle_type_id":"4","last_reported":1749507006,"current_range_meters":6400,"station_id":"","pricing_plan_id":"cebpf4jnsgd1na2vs0mg"},{"bike_id":"c03b535c-bb6b-4398-8184-784dd25d796b","system_id":"levelo_inurba_marseille","lat":43.2621,"lon":5.37444,"is_reserved":false,"is_disabled":false,"rental_uris":{"android":"levelo://app?vid=c03b535c-bb6b-4398-8184-784dd25d796b","ios":"levelo://app?vid=c03b535c-bb6b-4398-8184-784dd25d796b"},"vehicle_type_id":"4","last_reported":1749507006,"current_range_meters":6400,"station_id":"ce4bhgp2rcd13ifvqfc0","pricing_plan_id":"cebpf4jnsgd1na2vs0mg"},{"bike_id":"46ad0958-a2d7-473e-8aeb-a02bfd147679","system_id":"levelo_inurba_marseille","lat":43.23956,"lon":5.36632,"is_reserved":false,"is_disabled":true,"rental_uris":{"android":"levelo://app?vid=46ad0958-a2d7-473e-8aeb-a02bfd147679","ios":"levelo://app?vid=46ad0958-a2d7-473e-8aeb-a02bfd147679"},"vehicle_type_id":"4","last_reported":1749507006,"current_range_meters":6400,"station_id":"ce4bhi12rcd13ifvqfp0","pricing_plan_id":"cebpf4jnsgd1na2vs0mg"},{"bike_id":"3e2e9170-5037-47b3-961d-a6998173a128","system_id":"levelo_inurba_marseille","lat":43.28454,"lon":5.35892,"is_reserved":false,"is_disabled":false,"rental_uris":{"android":"levelo://app?vid=3e2e9170-5037-47b3-961d-a6998173a128","ios":"levelo://app?vid=3e2e9170-5037-47b3-961d-a6998173a128"},"vehicle_type_id":"4","last_reported":1749507006,"current_range_meters":6800,"station_id":"ce4bhah2rcd13ifvqei0","pricing_plan_id":"cebpf4jnsgd1na2vs0mg"},{"bike_id":"a7b6f345-c573-436e-85b2-3dab9793ee94","system_id":"levelo_inurba_marseille","lat":43.27827,"lon":5.39202,"is_reserved":false,"is_disabled":false,"rental_uris":{"android":"levelo://app?vid=a7b6f345-c573-436e-85b2-3dab9793ee94","ios":"levelo://app?vid=a7b6f345-c573-436e-85b2-3dab9793ee94"},"vehicle_type_id":"4","last_reported":1749507006,"current_range_meters":6800,"station_id":"ce4bhjp2rcd13ifvqga0","pricing_plan_id":"cebpf4jnsgd1na2vs0mg"},{"bike_id":"781bcf50-52ca-4350-bf0f-8071b3b2b128","system_id":"levelo_inurba_marseille","lat":43.29897,"lon":5.4367,"is_reserved":false,"is_disabled":false,"rental_uris":{"android":"levelo://app?vid=781bcf50-52ca-4350-bf0f-8071b3b2b128","ios":"levelo://app?vid=781bcf50-52ca-4350-bf0f-8071b3b2b128"},"vehicle_type_id":"4","last_reported":1749507006,"current_range_meters":6800,"station_id":"ce4bhpp2rcd13ifvqhfg","pricing_plan_id":"cebpf4jnsgd1na2vs0mg"},{"bike_id":"5ff7c847-94f1-4642-94ea-e9dc6811d073","system_id":"levelo_inurba_marseille","lat":43.26011,"lon":5.37407,"is_reserved":false,"is_disabled":false,"rental_uris":{"android":"levelo://app?vid=5ff7c847-94f1-4642-94ea-e9dc6811d073","ios":"levelo://app?vid=5ff7c847-94f1-4642-94ea-e9dc6811d073"},"vehicle_type_id":"4","last_reported":1749507006,"current_range_meters":6800,"station_id":"","pricing_plan_id":"cebpf4jnsgd1na2vs0mg"},{"bike_id":"d3860c84-0e7a-473f-a04e-1ba052379ffe","system_id":"levelo_inurba_marseille","lat":43.29591,"lon":5.3935,"is_reserved":false,"is_disabled":false,"rental_uris":{"android":"levelo://app?vid=d3860c84-0e7a-473f-a04e-1ba052379ffe","ios":"levelo://app?vid=d3860c84-0e7a-473f-a04e-1ba052379ffe"},"vehicle_type_id":"4","last_reported":1749507006,"current_range_meters":7200,"station_id":"","pricing_plan_id":"cebpf4jnsgd1na2vs0mg"},{"bike_id":"2927ab47-ec04-4995-8765-e57fd6932373","system_id":"levelo_inurba_marseille","lat":43.24605,"lon":5.39303,"is_reserved":false,"is_disabled":false,"rental_uris":{"android":"levelo://app?vid=2927ab47-ec04-4995-8765-e57fd6932373","ios":"levelo://app?vid=2927ab47-ec04-4995-8765-e57fd6932373"},"vehicle_type_id":"4","last_reported":1749507006,"current_range_meters":7200,"station_id":"","pricing_plan_id":"cebpf4jnsgd1na2vs0mg"},{"bike_id":"a34aa760-19cf-4750-9133-b676aeeef362","system_id":"levelo_inurba_marseille","lat":43.29555,"lon":5.37511,"is_reserved":false,"is_disabled":true,"rental_uris":{"android":"levelo://app?vid=a34aa760-19cf-4750-9133-b676aeeef362","ios":"levelo://app?vid=a34aa760-19cf-4750-9133-b676aeeef362"},"vehicle_type_id":"4","last_reported":1749507006,"current_range_meters":7200,"station_id":"ce4bgh92rcd13ifvqb50","pricing_plan_id":"cebpf4jnsgd1na2vs0mg"},{"bike_id":"e20ab3c2-906b-4081-97ed-c03b13046b3b","system_id":"levelo_inurba_marseille","lat":43.26228,"lon":5.40451,"is_reserved":false,"is_disabled":false,"rental_uris":{"android":"levelo://app?vid=e20ab3c2-906b-4081-97ed-c03b13046b3b","ios":"levelo://app?vid=e20ab3c2-906b-4081-97ed-c03b13046b3b"},"vehicle_type_id":"4","last_reported":1749507006,"current_range_meters":6800,"station_id":"ce4bhmh2rcd13ifvqgmg","pricing_plan_id":"cebpf4jnsgd1na2vs0mg"},{"bike_id":"77f8ca41-0832-4c4f-ba87-5fa7f5de287f","system_id":"levelo_inurba_marseille","lat":43.30889,"lon":5.39657,"is_reserved":false,"is_disabled":false,"rental_uris":{"android":"levelo://app?vid=77f8ca41-0832-4c4f-ba87-5fa7f5de287f","ios":"levelo://app?vid=77f8ca41-0832-4c4f-ba87-5fa7f5de287f"},"vehicle_type_id":"4","last_reported":1749507006,"current_range_meters":7200,"station_id":"ce4bh012rcd13ifvqcv0","pricing_plan_id":"cebpf4jnsgd1na2vs0mg"},{"bike_id":"face3f4f-ed5e-448e-97cb-093774dcb28c","system_id":"levelo_inurba_marseille","lat":43.31486,"lon":5.37309,"is_reserved":false,"is_disabled":false,"rental_uris":{"android":"levelo://app?vid=face3f4f-ed5e-448e-97cb-093774dcb28c","ios":"levelo://app?vid=face3f4f-ed5e-448e-97cb-093774dcb28c"},"vehicle_type_id":"4","last_reported":1749507006,"current_range_meters":7200,"station_id":"ce4bgt12rcd13ifvqcd0","pricing_plan_id":"cebpf4jnsgd1na2vs0mg"},{"bike_id":"89e61be4-479c-4cec-a748-e4051ae578a2","system_id":"levelo_inurba_marseille","lat":43.32366,"lon":5.38886,"is_reserved":false,"is_disabled":false,"rental_uris":{"android":"levelo://app?vid=89e61be4-479c-4cec-a748-e4051ae578a2","ios":"levelo://app?vid=89e61be4-479c-4cec-a748-e4051ae578a2"},"vehicle_type_id":"4","last_reported":1749507006,"current_range_meters":7200,"station_id":"ce4bhqp2rcd13ifvqhog","pricing_plan_id":"cebpf4jnsgd1na2vs0mg"},{"bike_id":"7118ec9f-96ec-46c3-90b6-1f449fa491fa","system_id":"levelo_inurba_marseille","lat":43.27872,"lon":5.39513,"is_reserved":false,"is_disabled":false,"rental_uris":{"android":"levelo://app?vid=7118ec9f-96ec-46c3-90b6-1f449fa491fa","ios":"levelo://app?vid=7118ec9f-96ec-46c3-90b6-1f449fa491fa"},"vehicle_type_id":"4","last_reported":1749507006,"current_range_meters":8000,"station_id":"ce4bhf92rcd13ifvqf40","pricing_plan_id":"cebpf4jnsgd1na2vs0mg"},{"bike_id":"5478c1b4-4c7d-476f-b8e4-102490ff70cd","system_id":"levelo_inurba_marseille","lat":43.31941,"lon":5.37356,"is_reserved":false,"is_disabled":false,"rental_uris":{"android":"levelo://app?vid=5478c1b4-4c7d-476f-b8e4-102490ff70cd","ios":"levelo://app?vid=5478c1b4-4c7d-476f-b8e4-102490ff70cd"},"vehicle_type_id":"4","last_reported":1749507006,"current_range_meters":8000,"station_id":"","pricing_plan_id":"cebpf4jnsgd1na2vs0mg"},{"bike_id":"aa0dc8ea-c2f7-420c-ac40-2126bbcddbdc","system_id":"levelo_inurba_marseille","lat":43.29285,"lon":5.40117,"is_reserved":false,"is_disabled":false,"rental_uris":{"android":"levelo://app?vid=aa0dc8ea-c2f7-420c-ac40-2126bbcddbdc","ios":"levelo://app?vid=aa0dc8ea-c2f7-420c-ac40-2126bbcddbdc"},"vehicle_type_id":"4","last_reported":1749507006,"current_range_meters":8000,"station_id":"ce4bh312rcd13ifvqdk0","pricing_plan_id":"cebpf4jnsgd1na2vs0mg"},{"bike_id":"11d99533-1239-4522-b0b5-f8a3bff696e7","system_id":"levelo_inurba_marseille","lat":43.30149,"lon":5.42433,"is_reserved":false,"is_disabled":false,"rental_uris":{"android":"levelo://app?vid=11d99533-1239-4522-b0b5-f8a3bff696e7","ios":"levelo://app?vid=11d99533-1239-4522-b0b5-f8a3bff696e7"},"vehicle_type_id":"4","last_reported":1749507006,"current_range_meters":8000,"station_id":"","pricing_plan_id":"cebpf4jnsgd1na2vs0mg"},{"bike_id":"9ab5dcb2-22af-49e2-b2c1-32117ad578dc","system_id":"levelo_inurba_marseille","lat":43.29511,"lon":5.42568,"is_reserved":false,"is_disabled":false,"rental_uris":{"android":"levelo://app?vid=9ab5dcb2-22af-49e2-b2c1-32117ad578dc","ios":"levelo://app?vid=9ab5dcb2-22af-49e2-b2c1-32117ad578dc"},"vehicle_type_id":"4","last_reported":1749507006,"current_range_meters":8000,"station_id":"","pricing_plan_id":"cebpf4jnsgd1na2vs0mg"},{"bike_id":"8b4caff4-6ee7-47a5-a64f-5ccaa83c132f","system_id":"levelo_inurba_marseille","lat":43.295241,"lon":5.425183,"is_reserved":false,"is_disabled":false,"rental_uris":{"android":"levelo://app?vid=8b4caff4-6ee7-47a5-a64f-5ccaa83c132f","ios":"levelo://app?vid=8b4caff4-6ee7-47a5-a64f-5ccaa83c132f"},"vehicle_type_id":"4","last_reported":1749507006,"current_range_meters":8000,"station_id":"","pricing_plan_id":"cebpf4jnsgd1na2vs0mg"},{"bike_id":"6ad81c8f-2d09-40a9-874e-315a220d6ee2","system_id":"levelo_inurba_marseille","lat":43.31343,"lon":5.36717,"is_reserved":false,"is_disabled":false,"rental_uris":{"android":"levelo://app?vid=6ad81c8f-2d09-40a9-874e-315a220d6ee2","ios":"levelo://app?vid=6ad81c8f-2d09-40a9-874e-315a220d6ee2"},"vehicle_type_id":"4","last_reported":1749507006,"current_range_meters":8000,"station_id":"ce4bgr92rcd13ifvqc6g","pricing_plan_id":"cebpf4jnsgd1na2vs0mg"},{"bike_id":"9cd7e3b6-3a6c-4599-87c4-09cad6e5304c","system_id":"levelo_inurba_marseille","lat":43.32368,"lon":5.38876,"is_reserved":false,"is_disabled":false,"rental_uris":{"android":"levelo://app?vid=9cd7e3b6-3a6c-4599-87c4-09cad6e5304c","ios":"levelo://app?vid=9cd7e3b6-3a6c-4599-87c4-09cad6e5304c"},"vehicle_type_id":"4","last_reported":1749507006,"current_range_meters":8000,"station_id":"ce4bhqp2rcd13ifvqhog","pricing_plan_id":"cebpf4jnsgd1na2vs0mg"},{"bike_id":"34c74298-6e55-4161-a2a0-f105ab7d2c84","system_id":"levelo_inurba_marseille","lat":43.282709,"lon":5.350608,"is_reserved":false,"is_disabled":false,"rental_uris":{"android":"levelo://app?vid=34c74298-6e55-4161-a2a0-f105ab7d2c84","ios":"levelo://app?vid=34c74298-6e55-4161-a2a0-f105ab7d2c84"},"vehicle_type_id":"4","last_reported":1749507006,"current_range_meters":8000,"station_id":"ce4bhbp2rcd13ifvqerg","pricing_plan_id":"cebpf4jnsgd1na2vs0mg"},{"bike_id":"39cdf7ed-89dc-4de2-aafe-6c9905ce3698","system_id":"levelo_inurba_marseille","lat":43.29787,"lon":5.36774,"is_reserved":false,"is_disabled":false,"rental_uris":{"android":"levelo://app?vid=39cdf7ed-89dc-4de2-aafe-6c9905ce3698","ios":"levelo://app?vid=39cdf7ed-89dc-4de2-aafe-6c9905ce3698"},"vehicle_type_id":"4","last_reported":1749507006,"current_range_meters":8400,"station_id":"","pricing_plan_id":"cebpf4jnsgd1na2vs0mg"},{"bike_id":"3bb87db6-8022-418f-a4aa-7c455834f81e","system_id":"levelo_inurba_marseille","lat":43.23585,"lon":5.37918,"is_reserved":false,"is_disabled":true,"rental_uris":{"android":"levelo://app?vid=3bb87db6-8022-418f-a4aa-7c455834f81e","ios":"levelo://app?vid=3bb87db6-8022-418f-a4aa-7c455834f81e"},"vehicle_type_id":"4","last_reported":1749507006,"current_range_meters":8400,"station_id":"","pricing_plan_id":"cebpf4jnsgd1na2vs0mg"},{"bike_id":"dd67f108-95bf-4a1e-b619-4bb77e009c5b","system_id":"levelo_inurba_marseille","lat":43.29063,"lon":5.42769,"is_reserved":false,"is_disabled":false,"rental_uris":{"android":"levelo://app?vid=dd67f108-95bf-4a1e-b619-4bb77e009c5b","ios":"levelo://app?vid=dd67f108-95bf-4a1e-b619-4bb77e009c5b"},"vehicle_type_id":"4","last_reported":1749507006,"current_range_meters":8400,"station_id":"","pricing_plan_id":"cebpf4jnsgd1na2vs0mg"},{"bike_id":"5cab8021-47c8-4131-a2c2-7572304f54a4","system_id":"levelo_inurba_marseille","lat":43.28259,"lon":5.3506,"is_reserved":false,"is_disabled":true,"rental_uris":{"android":"levelo://app?vid=5cab8021-47c8-4131-a2c2-7572304f54a4","ios":"levelo://app?vid=5cab8021-47c8-4131-a2c2-7572304f54a4"},"vehicle_type_id":"4","last_reported":1749507006,"current_range_meters":8400,"station_id":"ce4bhbp2rcd13ifvqerg","pricing_plan_id":"cebpf4jnsgd1na2vs0mg"},{"bike_id":"a3515bff-3a2a-43c6-9cf8-bf2a1f328c9d","system_id":"levelo_inurba_marseille","lat":43.23149,"lon":5.43726,"is_reserved":false,"is_disabled":false,"rental_uris":{"android":"levelo://app?vid=a3515bff-3a2a-43c6-9cf8-bf2a1f328c9d","ios":"levelo://app?vid=a3515bff-3a2a-43c6-9cf8-bf2a1f328c9d"},"vehicle_type_id":"4","last_reported":1749507006,"current_range_meters":8400,"station_id":"ce4bhmp2rcd13ifvqgog","pricing_plan_id":"cebpf4jnsgd1na2vs0mg"},{"bike_id":"da424ee0-913f-44dd-8451-24217ed66a3a","system_id":"levelo_inurba_marseille","lat":43.29342,"lon":5.38745,"is_reserved":false,"is_disabled":false,"rental_uris":{"android":"levelo://app?vid=da424ee0-913f-44dd-8451-24217ed66a3a","ios":"levelo://app?vid=da424ee0-913f-44dd-8451-24217ed66a3a"},"vehicle_type_id":"4","last_reported":1749507006,"current_range_meters":8400,"station_id":"","pricing_plan_id":"cebpf4jnsgd1na2vs0mg"},{"bike_id":"b627a4bc-ec3d-4a3d-b098-2cb9e5bfa8f1","system_id":"levelo_inurba_marseille","lat":43.28997,"lon":5.47836,"is_reserved":false,"is_disabled":false,"rental_uris":{"android":"levelo://app?vid=b627a4bc-ec3d-4a3d-b098-2cb9e5bfa8f1","ios":"levelo://app?vid=b627a4bc-ec3d-4a3d-b098-2cb9e5bfa8f1"},"vehicle_type_id":"4","last_reported":1749507006,"current_range_meters":8400,"station_id":"","pricing_plan_id":"cebpf4jnsgd1na2vs0mg"},{"bike_id":"ee7a2e6a-3e65-41f6-b8b3-501fb42682dc","system_id":"levelo_inurba_marseille","lat":43.27565,"lon":5.38415,"is_reserved":false,"is_disabled":true,"rental_uris":{"android":"levelo://app?vid=ee7a2e6a-3e65-41f6-b8b3-501fb42682dc","ios":"levelo://app?vid=ee7a2e6a-3e65-41f6-b8b3-501fb42682dc"},"vehicle_type_id":"4","last_reported":1749507006,"current_range_meters":8400,"station_id":"ce4bhh92rcd13ifvqfi0","pricing_plan_id":"cebpf4jnsgd1na2vs0mg"},{"bike_id":"2e5b7a2e-ae80-4b63-807c-0d74d0713d36","system_id":"levelo_inurba_marseille","lat":43.28435,"lon":5.34983,"is_reserved":false,"is_disabled":true,"rental_uris":{"android":"levelo://app?vid=2e5b7a2e-ae80-4b63-807c-0d74d0713d36","ios":"levelo://app?vid=2e5b7a2e-ae80-4b63-807c-0d74d0713d36"},"vehicle_type_id":"4","last_reported":1749507006,"current_range_meters":8800,"station_id":"ce4bhbh2rcd13ifvqepg","pricing_plan_id":"cebpf4jnsgd1na2vs0mg"},{"bike_id":"47def8c8-1887-4285-b7a6-84b83a440d60","system_id":"levelo_inurba_marseille","lat":43.28701,"lon":5.39985,"is_reserved":false,"is_disabled":false,"rental_uris":{"android":"levelo://app?vid=47def8c8-1887-4285-b7a6-84b83a440d60","ios":"levelo://app?vid=47def8c8-1887-4285-b7a6-84b83a440d60"},"vehicle_type_id":"4","last_reported":1749507006,"current_range_meters":8800,"station_id":"ce4bho92rcd13ifvqh3g","pricing_plan_id":"cebpf4jnsgd1na2vs0mg"},{"bike_id":"00521214-eb8c-42ac-95cf-ba1289dc0cee","system_id":"levelo_inurba_marseille","lat":43.30796,"lon":5.38155,"is_reserved":false,"is_disabled":false,"rental_uris":{"android":"levelo://app?vid=00521214-eb8c-42ac-95cf-ba1289dc0cee","ios":"levelo://app?vid=00521214-eb8c-42ac-95cf-ba1289dc0cee"},"vehicle_type_id":"4","last_reported":1749507006,"current_range_meters":8800,"station_id":"ce4bgt12rcd13ifvqce0","pricing_plan_id":"cebpf4jnsgd1na2vs0mg"},{"bike_id":"ccb4e220-32d0-4c1e-8d80-fbde8bb7853e","system_id":"levelo_inurba_marseille","lat":43.33011,"lon":5.39042,"is_reserved":false,"is_disabled":true,"rental_uris":{"android":"levelo://app?vid=ccb4e220-32d0-4c1e-8d80-fbde8bb7853e","ios":"levelo://app?vid=ccb4e220-32d0-4c1e-8d80-fbde8bb7853e"},"vehicle_type_id":"4","last_reported":1749507006,"current_range_meters":8800,"station_id":"ce4bhr92rcd13ifvqhrg","pricing_plan_id":"cebpf4jnsgd1na2vs0mg"},{"bike_id":"7101e620-cc76-4028-b91a-a52aa997ec1d","system_id":"levelo_inurba_marseille","lat":43.30644,"lon":5.37352,"is_reserved":false,"is_disabled":false,"rental_uris":{"android":"levelo://app?vid=7101e620-cc76-4028-b91a-a52aa997ec1d","ios":"levelo://app?vid=7101e620-cc76-4028-b91a-a52aa997ec1d"},"vehicle_type_id":"4","last_reported":1749507006,"current_range_meters":8800,"station_id":"","pricing_plan_id":"cebpf4jnsgd1na2vs0mg"},{"bike_id":"816ebf30-ae92-43c0-8ab4-59f9084e1b72","system_id":"levelo_inurba_marseille","lat":43.28442,"lon":5.39191,"is_reserved":false,"is_disabled":false,"rental_uris":{"android":"levelo://app?vid=816ebf30-ae92-43c0-8ab4-59f9084e1b72","ios":"levelo://app?vid=816ebf30-ae92-43c0-8ab4-59f9084e1b72"},"vehicle_type_id":"4","last_reported":1749507006,"current_range_meters":9200,"station_id":"ce4bhoh2rcd13ifvqh5g","pricing_plan_id":"cebpf4jnsgd1na2vs0mg"},{"bike_id":"1e81a32b-a654-4850-aaa5-a9d684742657","system_id":"levelo_inurba_marseille","lat":43.31617,"lon":5.38384,"is_reserved":false,"is_disabled":false,"rental_uris":{"android":"levelo://app?vid=1e81a32b-a654-4850-aaa5-a9d684742657","ios":"levelo://app?vid=1e81a32b-a654-4850-aaa5-a9d684742657"},"vehicle_type_id":"4","last_reported":1749507006,"current_range_meters":9200,"station_id":"","pricing_plan_id":"cebpf4jnsgd1na2vs0mg"},{"bike_id":"7a286b17-17df-491a-a381-1330c2f7a715","system_id":"levelo_inurba_marseille","lat":43.29902,"lon":5.43666,"is_reserved":false,"is_disabled":false,"rental_uris":{"android":"levelo://app?vid=7a286b17-17df-491a-a381-1330c2f7a715","ios":"levelo://app?vid=7a286b17-17df-491a-a381-1330c2f7a715"},"vehicle_type_id":"4","last_reported":1749507006,"current_range_meters":9200,"station_id":"ce4bhpp2rcd13ifvqhfg","pricing_plan_id":"cebpf4jnsgd1na2vs0mg"},{"bike_id":"1b63e5b9-1338-405b-a47c-a54e285e87a8","system_id":"levelo_inurba_marseille","lat":43.28489,"lon":5.38417,"is_reserved":false,"is_disabled":false,"rental_uris":{"android":"levelo://app?vid=1b63e5b9-1338-405b-a47c-a54e285e87a8","ios":"levelo://app?vid=1b63e5b9-1338-405b-a47c-a54e285e87a8"},"vehicle_type_id":"4","last_reported":1749507006,"current_range_meters":9200,"station_id":"ce4bh512rcd13ifvqe3g","pricing_plan_id":"cebpf4jnsgd1na2vs0mg"},{"bike_id":"8e471ab3-075e-461f-b275-61c75a75b9ae","system_id":"levelo_inurba_marseille","lat":43.26507,"lon":5.39566,"is_reserved":false,"is_disabled":false,"rental_uris":{"android":"levelo://app?vid=8e471ab3-075e-461f-b275-61c75a75b9ae","ios":"levelo://app?vid=8e471ab3-075e-461f-b275-61c75a75b9ae"},"vehicle_type_id":"4","last_reported":1749507006,"current_range_meters":9200,"station_id":"ce4bhi12rcd13ifvqfq0","pricing_plan_id":"cebpf4jnsgd1na2vs0mg"},{"bike_id":"9161a262-6e9f-4a41-bff1-482a7525ba18","system_id":"levelo_inurba_marseille","lat":43.28349,"lon":5.38101,"is_reserved":false,"is_disabled":false,"rental_uris":{"android":"levelo://app?vid=9161a262-6e9f-4a41-bff1-482a7525ba18","ios":"levelo://app?vid=9161a262-6e9f-4a41-bff1-482a7525ba18"},"vehicle_type_id":"4","last_reported":1749507006,"current_range_meters":9200,"station_id":"ce4bh412rcd13ifvqdr0","pricing_plan_id":"cebpf4jnsgd1na2vs0mg"},{"bike_id":"c7b8ed12-9c36-4eb0-aa85-b633c2551e6f","system_id":"levelo_inurba_marseille","lat":43.26802,"lon":5.40273,"is_reserved":false,"is_disabled":false,"rental_uris":{"android":"levelo://app?vid=c7b8ed12-9c36-4eb0-aa85-b633c2551e6f","ios":"levelo://app?vid=c7b8ed12-9c36-4eb0-aa85-b633c2551e6f"},"vehicle_type_id":"4","last_reported":1749507006,"current_range_meters":9600,"station_id":"ce501612rcd8frsf0b60","pricing_plan_id":"cebpf4jnsgd1na2vs0mg"},{"bike_id":"269c3ad1-219f-4f66-afed-c62bc34ad4b1","system_id":"levelo_inurba_marseille","lat":43.29432,"lon":5.39762,"is_reserved":false,"is_disabled":false,"rental_uris":{"android":"levelo://app?vid=269c3ad1-219f-4f66-afed-c62bc34ad4b1","ios":"levelo://app?vid=269c3ad1-219f-4f66-afed-c62bc34ad4b1"},"vehicle_type_id":"4","last_reported":1749507006,"current_range_meters":9600,"station_id":"ce4bh3h2rcd13ifvqdo0","pricing_plan_id":"cebpf4jnsgd1na2vs0mg"},{"bike_id":"8754d789-f47b-4e0d-80fb-defb7f889879","system_id":"levelo_inurba_marseille","lat":43.26211,"lon":5.40474,"is_reserved":false,"is_disabled":false,"rental_uris":{"android":"levelo://app?vid=8754d789-f47b-4e0d-80fb-defb7f889879","ios":"levelo://app?vid=8754d789-f47b-4e0d-80fb-defb7f889879"},"vehicle_type_id":"4","last_reported":1749507006,"current_range_meters":9600,"station_id":"ce4bhmh2rcd13ifvqgmg","pricing_plan_id":"cebpf4jnsgd1na2vs0mg"},{"bike_id":"da14da1f-7442-42b5-98f6-365f4fbd4c56","system_id":"levelo_inurba_marseille","lat":43.32464,"lon":5.4116,"is_reserved":false,"is_disabled":false,"rental_uris":{"android":"levelo://app?vid=da14da1f-7442-42b5-98f6-365f4fbd4c56","ios":"levelo://app?vid=da14da1f-7442-42b5-98f6-365f4fbd4c56"},"vehicle_type_id":"4","last_reported":1749507006,"current_range_meters":9600,"station_id":"","pricing_plan_id":"cebpf4jnsgd1na2vs0mg"},{"bike_id":"97f44c64-b8dc-4a71-890d-8186e1e67d4f","system_id":"levelo_inurba_marseille","lat":43.29824,"lon":5.40391,"is_reserved":false,"is_disabled":false,"rental_uris":{"android":"levelo://app?vid=97f44c64-b8dc-4a71-890d-8186e1e67d4f","ios":"levelo://app?vid=97f44c64-b8dc-4a71-890d-8186e1e67d4f"},"vehicle_type_id":"4","last_reported":1749507006,"current_range_meters":10000,"station_id":"ce4bh112rcd13ifvqd90","pricing_plan_id":"cebpf4jnsgd1na2vs0mg"},{"bike_id":"a8fcb642-c8d4-48b7-bc7d-d92da8830f3d","system_id":"levelo_inurba_marseille","lat":43.29958,"lon":5.37201,"is_reserved":false,"is_disabled":true,"rental_uris":{"android":"levelo://app?vid=a8fcb642-c8d4-48b7-bc7d-d92da8830f3d","ios":"levelo://app?vid=a8fcb642-c8d4-48b7-bc7d-d92da8830f3d"},"vehicle_type_id":"4","last_reported":1749507006,"current_range_meters":10000,"station_id":"ce4bgr92rcd13ifvqc7g","pricing_plan_id":"cebpf4jnsgd1na2vs0mg"},{"bike_id":"e83b9e2b-e6b1-43cf-9655-8a93ed31c8a3","system_id":"levelo_inurba_marseille","lat":43.27999,"lon":5.40012,"is_reserved":false,"is_disabled":false,"rental_uris":{"android":"levelo://app?vid=e83b9e2b-e6b1-43cf-9655-8a93ed31c8a3","ios":"levelo://app?vid=e83b9e2b-e6b1-43cf-9655-8a93ed31c8a3"},"vehicle_type_id":"4","last_reported":1749507006,"current_range_meters":10000,"station_id":"ce4bho92rcd13ifvqh4g","pricing_plan_id":"cebpf4jnsgd1na2vs0mg"},{"bike_id":"35055393-59aa-400c-82f3-1df464532a80","system_id":"levelo_inurba_marseille","lat":43.31374,"lon":5.38489,"is_reserved":false,"is_disabled":false,"rental_uris":{"android":"levelo://app?vid=35055393-59aa-400c-82f3-1df464532a80","ios":"levelo://app?vid=35055393-59aa-400c-82f3-1df464532a80"},"vehicle_type_id":"4","last_reported":1749507006,"current_range_meters":10000,"station_id":"ce4bgt92rcd13ifvqcf0","pricing_plan_id":"cebpf4jnsgd1na2vs0mg"},{"bike_id":"f7c0d394-fcfb-4db0-ba12-d1b24d36b7bf","system_id":"levelo_inurba_marseille","lat":43.30599,"lon":5.37226,"is_reserved":false,"is_disabled":false,"rental_uris":{"android":"levelo://app?vid=f7c0d394-fcfb-4db0-ba12-d1b24d36b7bf","ios":"levelo://app?vid=f7c0d394-fcfb-4db0-ba12-d1b24d36b7bf"},"vehicle_type_id":"4","last_reported":1749507006,"current_range_meters":10000,"station_id":"ce4bgqh2rcd13ifvqc4g","pricing_plan_id":"cebpf4jnsgd1na2vs0mg"},{"bike_id":"b917c716-764c-4d37-a337-bb31d5ca52b8","system_id":"levelo_inurba_marseille","lat":43.21179,"lon":5.35081,"is_reserved":false,"is_disabled":false,"rental_uris":{"android":"levelo://app?vid=b917c716-764c-4d37-a337-bb31d5ca52b8","ios":"levelo://app?vid=b917c716-764c-4d37-a337-bb31d5ca52b8"},"vehicle_type_id":"4","last_reported":1749507006,"current_range_meters":10000,"station_id":"st_cvj6sg6p6f1abm77japg","pricing_plan_id":"cebpf4jnsgd1na2vs0mg"},{"bike_id":"62bea32f-b147-4070-b162-523f879a2a9c","system_id":"levelo_inurba_marseille","lat":43.25317,"lon":5.39358,"is_reserved":false,"is_disabled":true,"rental_uris":{"android":"levelo://app?vid=62bea32f-b147-4070-b162-523f879a2a9c","ios":"levelo://app?vid=62bea32f-b147-4070-b162-523f879a2a9c"},"vehicle_type_id":"4","last_reported":1749507006,"current_range_meters":10000,"station_id":"","pricing_plan_id":"cebpf4jnsgd1na2vs0mg"},{"bike_id":"c09b1c1e-6d5b-4a72-8f97-eccd430a9e54","system_id":"levelo_inurba_marseille","lat":43.26677,"lon":5.38264,"is_reserved":false,"is_disabled":true,"rental_uris":{"android":"levelo://app?vid=c09b1c1e-6d5b-4a72-8f97-eccd430a9e54","ios":"levelo://app?vid=c09b1c1e-6d5b-4a72-8f97-eccd430a9e54"},"vehicle_type_id":"4","last_reported":1749507006,"current_range_meters":10000,"station_id":"ce4bhgp2rcd13ifvqfc0","pricing_plan_id":"cebpf4jnsgd1na2vs0mg"},{"bike_id":"523f2d40-4972-4555-ab17-75f321104893","system_id":"levelo_inurba_marseille","lat":43.30223,"lon":5.3947,"is_reserved":false,"is_disabled":false,"rental_uris":{"android":"levelo://app?vid=523f2d40-4972-4555-ab17-75f321104893","ios":"levelo://app?vid=523f2d40-4972-4555-ab17-75f321104893"},"vehicle_type_id":"4","last_reported":1749507006,"current_range_meters":10800,"station_id":"ce4bh0p2rcd13ifvqd70","pricing_plan_id":"cebpf4jnsgd1na2vs0mg"},{"bike_id":"1aa16519-d685-4976-8de7-f71f9cc62b8f","system_id":"levelo_inurba_marseille","lat":43.27766,"lon":5.42161,"is_reserved":false,"is_disabled":false,"rental_uris":{"android":"levelo://app?vid=1aa16519-d685-4976-8de7-f71f9cc62b8f","ios":"levelo://app?vid=1aa16519-d685-4976-8de7-f71f9cc62b8f"},"vehicle_type_id":"4","last_reported":1749507006,"current_range_meters":10800,"station_id":"","pricing_plan_id":"cebpf4jnsgd1na2vs0mg"},{"bike_id":"898adc08-6852-494f-92e0-a15241901b70","system_id":"levelo_inurba_marseille","lat":43.2621,"lon":5.37585,"is_reserved":false,"is_disabled":false,"rental_uris":{"android":"levelo://app?vid=898adc08-6852-494f-92e0-a15241901b70","ios":"levelo://app?vid=898adc08-6852-494f-92e0-a15241901b70"},"vehicle_type_id":"4","last_reported":1749507006,"current_range_meters":10800,"station_id":"","pricing_plan_id":"cebpf4jnsgd1na2vs0mg"},{"bike_id":"fbb9b34c-7031-4d75-9691-342c610b2101","system_id":"levelo_inurba_marseille","lat":43.28386,"lon":5.36446,"is_reserved":false,"is_disabled":false,"rental_uris":{"android":"levelo://app?vid=fbb9b34c-7031-4d75-9691-342c610b2101","ios":"levelo://app?vid=fbb9b34c-7031-4d75-9691-342c610b2101"},"vehicle_type_id":"4","last_reported":1749507006,"current_range_meters":10800,"station_id":"","pricing_plan_id":"cebpf4jnsgd1na2vs0mg"},{"bike_id":"8d87c996-3c9d-4a54-8d30-a756e5315409","system_id":"levelo_inurba_marseille","lat":43.28455,"lon":5.35886,"is_reserved":false,"is_disabled":false,"rental_uris":{"android":"levelo://app?vid=8d87c996-3c9d-4a54-8d30-a756e5315409","ios":"levelo://app?vid=8d87c996-3c9d-4a54-8d30-a756e5315409"},"vehicle_type_id":"4","last_reported":1749507006,"current_range_meters":10800,"station_id":"ce4bhah2rcd13ifvqei0","pricing_plan_id":"cebpf4jnsgd1na2vs0mg"},{"bike_id":"2f32b755-3ca4-4102-8e33-37fff5e1ff8d","system_id":"levelo_inurba_marseille","lat":43.2715,"lon":5.40163,"is_reserved":false,"is_disabled":false,"rental_uris":{"android":"levelo://app?vid=2f32b755-3ca4-4102-8e33-37fff5e1ff8d","ios":"levelo://app?vid=2f32b755-3ca4-4102-8e33-37fff5e1ff8d"},"vehicle_type_id":"4","last_reported":1749507006,"current_range_meters":10800,"station_id":"","pricing_plan_id":"cebpf4jnsgd1na2vs0mg"},{"bike_id":"1f6744d9-353c-4f3b-a838-d714b51c6683","system_id":"levelo_inurba_marseille","lat":43.28148,"lon":5.4261,"is_reserved":false,"is_disabled":false,"rental_uris":{"android":"levelo://app?vid=1f6744d9-353c-4f3b-a838-d714b51c6683","ios":"levelo://app?vid=1f6744d9-353c-4f3b-a838-d714b51c6683"},"vehicle_type_id":"4","last_reported":1749507006,"current_range_meters":10800,"station_id":"ce4bhnh2rcd13ifvqgug","pricing_plan_id":"cebpf4jnsgd1na2vs0mg"},{"bike_id":"5aee6e98-5d72-4a58-8068-559ee9f9703d","system_id":"levelo_inurba_marseille","lat":43.21186,"lon":5.35084,"is_reserved":false,"is_disabled":false,"rental_uris":{"android":"levelo://app?vid=5aee6e98-5d72-4a58-8068-559ee9f9703d","ios":"levelo://app?vid=5aee6e98-5d72-4a58-8068-559ee9f9703d"},"vehicle_type_id":"4","last_reported":1749507006,"current_range_meters":10800,"station_id":"st_cvj6sg6p6f1abm77japg","pricing_plan_id":"cebpf4jnsgd1na2vs0mg"},{"bike_id":"c8c4af1d-070c-484a-a3f7-babd17d99646","system_id":"levelo_inurba_marseille","lat":43.33667,"lon":5.39212,"is_reserved":false,"is_disabled":false,"rental_uris":{"android":"levelo://app?vid=c8c4af1d-070c-484a-a3f7-babd17d99646","ios":"levelo://app?vid=c8c4af1d-070c-484a-a3f7-babd17d99646"},"vehicle_type_id":"4","last_reported":1749507006,"current_range_meters":10800,"station_id":"","pricing_plan_id":"cebpf4jnsgd1na2vs0mg"},{"bike_id":"f00eb647-b3e0-49ae-88bf-18b822cc2cb1","system_id":"levelo_inurba_marseille","lat":43.23151,"lon":5.4371,"is_reserved":false,"is_disabled":false,"rental_uris":{"android":"levelo://app?vid=f00eb647-b3e0-49ae-88bf-18b822cc2cb1","ios":"levelo://app?vid=f00eb647-b3e0-49ae-88bf-18b822cc2cb1"},"vehicle_type_id":"4","last_reported":1749507006,"current_range_meters":10800,"station_id":"ce4bhmp2rcd13ifvqgog","pricing_plan_id":"cebpf4jnsgd1na2vs0mg"},{"bike_id":"2af4af64-0065-45b8-93fc-e286f53a888e","system_id":"levelo_inurba_marseille","lat":43.23378,"lon":5.36506,"is_reserved":false,"is_disabled":false,"rental_uris":{"android":"levelo://app?vid=2af4af64-0065-45b8-93fc-e286f53a888e","ios":"levelo://app?vid=2af4af64-0065-45b8-93fc-e286f53a888e"},"vehicle_type_id":"4","last_reported":1749507006,"current_range_meters":10800,"station_id":"","pricing_plan_id":"cebpf4jnsgd1na2vs0mg"},{"bike_id":"6fd4cd93-a409-4da9-ad4b-b6025023458d","system_id":"levelo_inurba_marseille","lat":43.30126,"lon":5.37074,"is_reserved":false,"is_disabled":false,"rental_uris":{"android":"levelo://app?vid=6fd4cd93-a409-4da9-ad4b-b6025023458d","ios":"levelo://app?vid=6fd4cd93-a409-4da9-ad4b-b6025023458d"},"vehicle_type_id":"4","last_reported":1749507006,"current_range_meters":11200,"station_id":"","pricing_plan_id":"cebpf4jnsgd1na2vs0mg"},{"bike_id":"5cc284f3-12eb-4820-ae1e-663d126c55ee","system_id":"levelo_inurba_marseille","lat":43.3135,"lon":5.36719,"is_reserved":false,"is_disabled":false,"rental_uris":{"android":"levelo://app?vid=5cc284f3-12eb-4820-ae1e-663d126c55ee","ios":"levelo://app?vid=5cc284f3-12eb-4820-ae1e-663d126c55ee"},"vehicle_type_id":"4","last_reported":1749507006,"current_range_meters":11200,"station_id":"ce4bgr92rcd13ifvqc6g","pricing_plan_id":"cebpf4jnsgd1na2vs0mg"},{"bike_id":"462a4fe4-7c2b-425e-bf3f-83ef7b1ba959","system_id":"levelo_inurba_marseille","lat":43.28404,"lon":5.37518,"is_reserved":false,"is_disabled":false,"rental_uris":{"android":"levelo://app?vid=462a4fe4-7c2b-425e-bf3f-83ef7b1ba959","ios":"levelo://app?vid=462a4fe4-7c2b-425e-bf3f-83ef7b1ba959"},"vehicle_type_id":"4","last_reported":1749507006,"current_range_meters":11200,"station_id":"ce4bh412rcd13ifvqds0","pricing_plan_id":"cebpf4jnsgd1na2vs0mg"},{"bike_id":"2649ef45-0b6a-4349-a65a-a2f74f74f74f","system_id":"levelo_inurba_marseille","lat":43.26484,"lon":5.39232,"is_reserved":false,"is_disabled":false,"rental_uris":{"android":"levelo://app?vid=2649ef45-0b6a-4349-a65a-a2f74f74f74f","ios":"levelo://app?vid=2649ef45-0b6a-4349-a65a-a2f74f74f74f"},"vehicle_type_id":"4","last_reported":1749507006,"current_range_meters":11200,"station_id":"","pricing_plan_id":"cebpf4jnsgd1na2vs0mg"},{"bike_id":"f892ea91-9814-4bd1-b236-8fa9cabeddb9","system_id":"levelo_inurba_marseille","lat":43.28704,"lon":5.39985,"is_reserved":false,"is_disabled":false,"rental_uris":{"android":"levelo://app?vid=f892ea91-9814-4bd1-b236-8fa9cabeddb9","ios":"levelo://app?vid=f892ea91-9814-4bd1-b236-8fa9cabeddb9"},"vehicle_type_id":"4","last_reported":1749507006,"current_range_meters":11200,"station_id":"ce4bho92rcd13ifvqh3g","pricing_plan_id":"cebpf4jnsgd1na2vs0mg"},{"bike_id":"6ec3047c-5030-4518-b445-38ca3527de8a","system_id":"levelo_inurba_marseille","lat":43.3137,"lon":5.38494,"is_reserved":false,"is_disabled":false,"rental_uris":{"android":"levelo://app?vid=6ec3047c-5030-4518-b445-38ca3527de8a","ios":"levelo://app?vid=6ec3047c-5030-4518-b445-38ca3527de8a"},"vehicle_type_id":"4","last_reported":1749507006,"current_range_meters":11200,"station_id":"ce4bgt92rcd13ifvqcf0","pricing_plan_id":"cebpf4jnsgd1na2vs0mg"},{"bike_id":"67923187-7988-4e66-b98a-4629c4fb3285","system_id":"levelo_inurba_marseille","lat":43.28933,"lon":5.36626,"is_reserved":false,"is_disabled":false,"rental_uris":{"android":"levelo://app?vid=67923187-7988-4e66-b98a-4629c4fb3285","ios":"levelo://app?vid=67923187-7988-4e66-b98a-4629c4fb3285"},"vehicle_type_id":"4","last_reported":1749507006,"current_range_meters":11200,"station_id":"ce4bhap2rcd13ifvqek0","pricing_plan_id":"cebpf4jnsgd1na2vs0mg"},{"bike_id":"91f74b88-688e-4ffd-bc12-8cba4b4fcaf6","system_id":"levelo_inurba_marseille","lat":43.2961,"lon":5.40602,"is_reserved":false,"is_disabled":false,"rental_uris":{"android":"levelo://app?vid=91f74b88-688e-4ffd-bc12-8cba4b4fcaf6","ios":"levelo://app?vid=91f74b88-688e-4ffd-bc12-8cba4b4fcaf6"},"vehicle_type_id":"4","last_reported":1749507006,"current_range_meters":11200,"station_id":"ce4bh0h2rcd13ifvqd60","pricing_plan_id":"cebpf4jnsgd1na2vs0mg"},{"bike_id":"ad44a8ed-b4a5-4046-8782-90a1f39da844","system_id":"levelo_inurba_marseille","lat":43.25736,"lon":5.41075,"is_reserved":false,"is_disabled":false,"rental_uris":{"android":"levelo://app?vid=ad44a8ed-b4a5-4046-8782-90a1f39da844","ios":"levelo://app?vid=ad44a8ed-b4a5-4046-8782-90a1f39da844"},"vehicle_type_id":"4","last_reported":1749507006,"current_range_meters":11600,"station_id":"ce4bhkp2rcd13ifvqgd0","pricing_plan_id":"cebpf4jnsgd1na2vs0mg"},{"bike_id":"dedeea7e-9ff1-41e2-a1ca-3ecca467e74d","system_id":"levelo_inurba_marseille","lat":43.26505,"lon":5.39547,"is_reserved":false,"is_disabled":false,"rental_uris":{"android":"levelo://app?vid=dedeea7e-9ff1-41e2-a1ca-3ecca467e74d","ios":"levelo://app?vid=dedeea7e-9ff1-41e2-a1ca-3ecca467e74d"},"vehicle_type_id":"4","last_reported":1749507006,"current_range_meters":11600,"station_id":"ce4bhi12rcd13ifvqfq0","pricing_plan_id":"cebpf4jnsgd1na2vs0mg"},{"bike_id":"f156dd16-bfc6-4d9c-8774-e71864afe86d","system_id":"levelo_inurba_marseille","lat":43.27987,"lon":5.41654,"is_reserved":false,"is_disabled":true,"rental_uris":{"android":"levelo://app?vid=f156dd16-bfc6-4d9c-8774-e71864afe86d","ios":"levelo://app?vid=f156dd16-bfc6-4d9c-8774-e71864afe86d"},"vehicle_type_id":"4","last_reported":1749507006,"current_range_meters":11600,"station_id":"ce4bho12rcd13ifvqh1g","pricing_plan_id":"cebpf4jnsgd1na2vs0mg"},{"bike_id":"40d277a1-8cc5-4f77-807e-87b9f07c6ca5","system_id":"levelo_inurba_marseille","lat":43.28615,"lon":5.35107,"is_reserved":false,"is_disabled":true,"rental_uris":{"android":"levelo://app?vid=40d277a1-8cc5-4f77-807e-87b9f07c6ca5","ios":"levelo://app?vid=40d277a1-8cc5-4f77-807e-87b9f07c6ca5"},"vehicle_type_id":"4","last_reported":1749507006,"current_range_meters":11600,"station_id":"ce4bhch2rcd13ifvqeug","pricing_plan_id":"cebpf4jnsgd1na2vs0mg"},{"bike_id":"0541105e-0737-47a9-93d9-62b84c1285f2","system_id":"levelo_inurba_marseille","lat":43.28723,"lon":5.36095,"is_reserved":false,"is_disabled":false,"rental_uris":{"android":"levelo://app?vid=0541105e-0737-47a9-93d9-62b84c1285f2","ios":"levelo://app?vid=0541105e-0737-47a9-93d9-62b84c1285f2"},"vehicle_type_id":"4","last_reported":1749507006,"current_range_meters":11600,"station_id":"cki0cbj6b192h4jlfktg","pricing_plan_id":"cebpf4jnsgd1na2vs0mg"},{"bike_id":"9c321b1f-5d95-44be-92f0-5a6d215c91ff","system_id":"levelo_inurba_marseille","lat":43.31071,"lon":5.38357,"is_reserved":false,"is_disabled":false,"rental_uris":{"android":"levelo://app?vid=9c321b1f-5d95-44be-92f0-5a6d215c91ff","ios":"levelo://app?vid=9c321b1f-5d95-44be-92f0-5a6d215c91ff"},"vehicle_type_id":"4","last_reported":1749507006,"current_range_meters":11600,"station_id":"ce4bgv92rcd13ifvqcr0","pricing_plan_id":"cebpf4jnsgd1na2vs0mg"},{"bike_id":"38732871-8503-466e-a980-ace2b8f5936b","system_id":"levelo_inurba_marseille","lat":43.270709,"lon":5.422611,"is_reserved":false,"is_disabled":false,"rental_uris":{"android":"levelo://app?vid=38732871-8503-466e-a980-ace2b8f5936b","ios":"levelo://app?vid=38732871-8503-466e-a980-ace2b8f5936b"},"vehicle_type_id":"4","last_reported":1749507006,"current_range_meters":12000,"station_id":"ce4bhk92rcd13ifvqgb0","pricing_plan_id":"cebpf4jnsgd1na2vs0mg"},{"bike_id":"024943c5-334c-4e30-9fa1-4e01ad9ec84d","system_id":"levelo_inurba_marseille","lat":43.25825,"lon":5.39425,"is_reserved":false,"is_disabled":true,"rental_uris":{"android":"levelo://app?vid=024943c5-334c-4e30-9fa1-4e01ad9ec84d","ios":"levelo://app?vid=024943c5-334c-4e30-9fa1-4e01ad9ec84d"},"vehicle_type_id":"4","last_reported":1749507006,"current_range_meters":12000,"station_id":"ce4bhip2rcd13ifvqft0","pricing_plan_id":"cebpf4jnsgd1na2vs0mg"},{"bike_id":"63f3d5f7-5d0f-49b8-a77f-5cff9b0070b7","system_id":"levelo_inurba_marseille","lat":43.30606,"lon":5.3934,"is_reserved":false,"is_disabled":false,"rental_uris":{"android":"levelo://app?vid=63f3d5f7-5d0f-49b8-a77f-5cff9b0070b7","ios":"levelo://app?vid=63f3d5f7-5d0f-49b8-a77f-5cff9b0070b7"},"vehicle_type_id":"4","last_reported":1749507006,"current_range_meters":12400,"station_id":"ce4bh0p2rcd13ifvqd80","pricing_plan_id":"cebpf4jnsgd1na2vs0mg"},{"bike_id":"acf56c95-903d-4e41-b227-6ed213a46e8f","system_id":"levelo_inurba_marseille","lat":43.31369,"lon":5.38498,"is_reserved":false,"is_disabled":false,"rental_uris":{"android":"levelo://app?vid=acf56c95-903d-4e41-b227-6ed213a46e8f","ios":"levelo://app?vid=acf56c95-903d-4e41-b227-6ed213a46e8f"},"vehicle_type_id":"4","last_reported":1749507006,"current_range_meters":12400,"station_id":"ce4bgt92rcd13ifvqcf0","pricing_plan_id":"cebpf4jnsgd1na2vs0mg"},{"bike_id":"b6285f6b-e9e7-470d-9b6d-1afe99ab71bf","system_id":"levelo_inurba_marseille","lat":43.26153,"lon":5.42052,"is_reserved":false,"is_disabled":false,"rental_uris":{"android":"levelo://app?vid=b6285f6b-e9e7-470d-9b6d-1afe99ab71bf","ios":"levelo://app?vid=b6285f6b-e9e7-470d-9b6d-1afe99ab71bf"},"vehicle_type_id":"4","last_reported":1749507006,"current_range_meters":12400,"station_id":"","pricing_plan_id":"cebpf4jnsgd1na2vs0mg"},{"bike_id":"463c3dc9-e6d5-4599-981c-ee322f38485f","system_id":"levelo_inurba_marseille","lat":43.31363,"lon":5.3849,"is_reserved":false,"is_disabled":false,"rental_uris":{"android":"levelo://app?vid=463c3dc9-e6d5-4599-981c-ee322f38485f","ios":"levelo://app?vid=463c3dc9-e6d5-4599-981c-ee322f38485f"},"vehicle_type_id":"4","last_reported":1749507006,"current_range_meters":12400,"station_id":"ce4bgt92rcd13ifvqcf0","pricing_plan_id":"cebpf4jnsgd1na2vs0mg"},{"bike_id":"88113087-f0bb-4133-ab2a-bbfce1f3d99a","system_id":"levelo_inurba_marseille","lat":43.317222,"lon":5.404554,"is_reserved":false,"is_disabled":true,"rental_uris":{"android":"levelo://app?vid=88113087-f0bb-4133-ab2a-bbfce1f3d99a","ios":"levelo://app?vid=88113087-f0bb-4133-ab2a-bbfce1f3d99a"},"vehicle_type_id":"4","last_reported":1749507006,"current_range_meters":12400,"station_id":"ce4bh012rcd13ifvqd00","pricing_plan_id":"cebpf4jnsgd1na2vs0mg"},{"bike_id":"7facd0d3-e088-4a5a-a896-d77e8e818ab6","system_id":"levelo_inurba_marseille","lat":43.29224,"lon":5.35963,"is_reserved":false,"is_disabled":true,"rental_uris":{"android":"levelo://app?vid=7facd0d3-e088-4a5a-a896-d77e8e818ab6","ios":"levelo://app?vid=7facd0d3-e088-4a5a-a896-d77e8e818ab6"},"vehicle_type_id":"4","last_reported":1749507006,"current_range_meters":12400,"station_id":"","pricing_plan_id":"cebpf4jnsgd1na2vs0mg"},{"bike_id":"fea03510-d732-494e-a818-113e6eebaa67","system_id":"levelo_inurba_marseille","lat":43.22925,"lon":5.35374,"is_reserved":false,"is_disabled":true,"rental_uris":{"android":"levelo://app?vid=fea03510-d732-494e-a818-113e6eebaa67","ios":"levelo://app?vid=fea03510-d732-494e-a818-113e6eebaa67"},"vehicle_type_id":"4","last_reported":1749507006,"current_range_meters":12400,"station_id":"cpo3532slgdg3j2ikp40","pricing_plan_id":"cebpf4jnsgd1na2vs0mg"},{"bike_id":"31c1f6d2-6637-4761-b744-847b8887c2bd","system_id":"levelo_inurba_marseille","lat":43.28453,"lon":5.35877,"is_reserved":false,"is_disabled":false,"rental_uris":{"android":"levelo://app?vid=31c1f6d2-6637-4761-b744-847b8887c2bd","ios":"levelo://app?vid=31c1f6d2-6637-4761-b744-847b8887c2bd"},"vehicle_type_id":"4","last_reported":1749507006,"current_range_meters":12400,"station_id":"ce4bhah2rcd13ifvqei0","pricing_plan_id":"cebpf4jnsgd1na2vs0mg"},{"bike_id":"4eada35f-a65e-4d4e-b60d-b88e9a624416","system_id":"levelo_inurba_marseille","lat":43.24355,"lon":5.37095,"is_reserved":false,"is_disabled":true,"rental_uris":{"android":"levelo://app?vid=4eada35f-a65e-4d4e-b60d-b88e9a624416","ios":"levelo://app?vid=4eada35f-a65e-4d4e-b60d-b88e9a624416"},"vehicle_type_id":"4","last_reported":1749507006,"current_range_meters":12800,"station_id":"ce4bhhh2rcd13ifvqfk0","pricing_plan_id":"cebpf4jnsgd1na2vs0mg"},{"bike_id":"660219bc-9f09-49e5-8bb8-0a89276755ae","system_id":"levelo_inurba_marseille","lat":43.299912,"lon":5.371687,"is_reserved":false,"is_disabled":true,"rental_uris":{"android":"levelo://app?vid=660219bc-9f09-49e5-8bb8-0a89276755ae","ios":"levelo://app?vid=660219bc-9f09-49e5-8bb8-0a89276755ae"},"vehicle_type_id":"4","last_reported":1749507006,"current_range_meters":12800,"station_id":"ce4bgr92rcd13ifvqc7g","pricing_plan_id":"cebpf4jnsgd1na2vs0mg"},{"bike_id":"0ca5c1a0-e310-4625-a32d-0a021a84cc09","system_id":"levelo_inurba_marseille","lat":43.3049,"lon":5.37586,"is_reserved":false,"is_disabled":false,"rental_uris":{"android":"levelo://app?vid=0ca5c1a0-e310-4625-a32d-0a021a84cc09","ios":"levelo://app?vid=0ca5c1a0-e310-4625-a32d-0a021a84cc09"},"vehicle_type_id":"4","last_reported":1749507006,"current_range_meters":12800,"station_id":"","pricing_plan_id":"cebpf4jnsgd1na2vs0mg"},{"bike_id":"140ab034-222f-4ace-867a-9da3b2af3d45","system_id":"levelo_inurba_marseille","lat":43.30134,"lon":5.39877,"is_reserved":false,"is_disabled":false,"rental_uris":{"android":"levelo://app?vid=140ab034-222f-4ace-867a-9da3b2af3d45","ios":"levelo://app?vid=140ab034-222f-4ace-867a-9da3b2af3d45"},"vehicle_type_id":"4","last_reported":1749507006,"current_range_meters":12800,"station_id":"ce4bh0h2rcd13ifvqd40","pricing_plan_id":"cebpf4jnsgd1na2vs0mg"},{"bike_id":"8e317286-d121-41fb-88b8-5b957116b9fe","system_id":"levelo_inurba_marseille","lat":43.21156,"lon":5.35091,"is_reserved":false,"is_disabled":false,"rental_uris":{"android":"levelo://app?vid=8e317286-d121-41fb-88b8-5b957116b9fe","ios":"levelo://app?vid=8e317286-d121-41fb-88b8-5b957116b9fe"},"vehicle_type_id":"4","last_reported":1749507006,"current_range_meters":12800,"station_id":"st_cvj6sg6p6f1abm77japg","pricing_plan_id":"cebpf4jnsgd1na2vs0mg"},{"bike_id":"3b33593f-98f0-4b12-b11c-8ecbf0798666","system_id":"levelo_inurba_marseille","lat":43.26826,"lon":5.39376,"is_reserved":false,"is_disabled":false,"rental_uris":{"android":"levelo://app?vid=3b33593f-98f0-4b12-b11c-8ecbf0798666","ios":"levelo://app?vid=3b33593f-98f0-4b12-b11c-8ecbf0798666"},"vehicle_type_id":"4","last_reported":1749507006,"current_range_meters":12800,"station_id":"ce4bhh12rcd13ifvqfg0","pricing_plan_id":"cebpf4jnsgd1na2vs0mg"},{"bike_id":"bf8affa0-5420-4194-89da-84b892e4327a","system_id":"levelo_inurba_marseille","lat":43.29542,"lon":5.3903,"is_reserved":false,"is_disabled":false,"rental_uris":{"android":"levelo://app?vid=bf8affa0-5420-4194-89da-84b892e4327a","ios":"levelo://app?vid=bf8affa0-5420-4194-89da-84b892e4327a"},"vehicle_type_id":"4","last_reported":1749507006,"current_range_meters":12800,"station_id":"ce4bh3p2rcd13ifvqdp0","pricing_plan_id":"cebpf4jnsgd1na2vs0mg"},{"bike_id":"ad6c329c-2135-419b-93d2-3080b8444257","system_id":"levelo_inurba_marseille","lat":43.28339,"lon":5.38103,"is_reserved":false,"is_disabled":true,"rental_uris":{"android":"levelo://app?vid=ad6c329c-2135-419b-93d2-3080b8444257","ios":"levelo://app?vid=ad6c329c-2135-419b-93d2-3080b8444257"},"vehicle_type_id":"4","last_reported":1749507006,"current_range_meters":12800,"station_id":"ce4bh412rcd13ifvqdr0","pricing_plan_id":"cebpf4jnsgd1na2vs0mg"},{"bike_id":"c63f4860-73c6-489f-895c-b31b8d653c8d","system_id":"levelo_inurba_marseille","lat":43.284205,"lon":5.34976,"is_reserved":false,"is_disabled":true,"rental_uris":{"android":"levelo://app?vid=c63f4860-73c6-489f-895c-b31b8d653c8d","ios":"levelo://app?vid=c63f4860-73c6-489f-895c-b31b8d653c8d"},"vehicle_type_id":"4","last_reported":1749507006,"current_range_meters":12800,"station_id":"ce4bhbh2rcd13ifvqepg","pricing_plan_id":"cebpf4jnsgd1na2vs0mg"},{"bike_id":"4bdf31a7-57b3-4653-a9df-3167512b375b","system_id":"levelo_inurba_marseille","lat":43.27998,"lon":5.41664,"is_reserved":false,"is_disabled":false,"rental_uris":{"android":"levelo://app?vid=4bdf31a7-57b3-4653-a9df-3167512b375b","ios":"levelo://app?vid=4bdf31a7-57b3-4653-a9df-3167512b375b"},"vehicle_type_id":"4","last_reported":1749507006,"current_range_meters":12800,"station_id":"ce4bho12rcd13ifvqh1g","pricing_plan_id":"cebpf4jnsgd1na2vs0mg"},{"bike_id":"5e415b8a-98a7-4d69-97b3-b00a94b59ca3","system_id":"levelo_inurba_marseille","lat":43.29249,"lon":5.37628,"is_reserved":false,"is_disabled":false,"rental_uris":{"android":"levelo://app?vid=5e415b8a-98a7-4d69-97b3-b00a94b59ca3","ios":"levelo://app?vid=5e415b8a-98a7-4d69-97b3-b00a94b59ca3"},"vehicle_type_id":"4","last_reported":1749507006,"current_range_meters":13600,"station_id":"ce4bgi12rcd13ifvqb80","pricing_plan_id":"cebpf4jnsgd1na2vs0mg"},{"bike_id":"2ffb5d6d-efc6-4007-9177-680a2afd86cf","system_id":"levelo_inurba_marseille","lat":43.31116,"lon":5.37755,"is_reserved":false,"is_disabled":false,"rental_uris":{"android":"levelo://app?vid=2ffb5d6d-efc6-4007-9177-680a2afd86cf","ios":"levelo://app?vid=2ffb5d6d-efc6-4007-9177-680a2afd86cf"},"vehicle_type_id":"4","last_reported":1749507006,"current_range_meters":13600,"station_id":"ce4bgt92rcd13ifvqcg0","pricing_plan_id":"cebpf4jnsgd1na2vs0mg"},{"bike_id":"58f7827a-792e-4603-bbaf-e37c5f7f6f0a","system_id":"levelo_inurba_marseille","lat":43.29572,"lon":5.39968,"is_reserved":false,"is_disabled":false,"rental_uris":{"android":"levelo://app?vid=58f7827a-792e-4603-bbaf-e37c5f7f6f0a","ios":"levelo://app?vid=58f7827a-792e-4603-bbaf-e37c5f7f6f0a"},"vehicle_type_id":"4","last_reported":1749507006,"current_range_meters":13600,"station_id":"ce4bh312rcd13ifvqdj0","pricing_plan_id":"cebpf4jnsgd1na2vs0mg"},{"bike_id":"0053f0bd-3481-4f8f-a19e-7dd7a6624507","system_id":"levelo_inurba_marseille","lat":43.29854,"lon":5.43669,"is_reserved":false,"is_disabled":false,"rental_uris":{"android":"levelo://app?vid=0053f0bd-3481-4f8f-a19e-7dd7a6624507","ios":"levelo://app?vid=0053f0bd-3481-4f8f-a19e-7dd7a6624507"},"vehicle_type_id":"4","last_reported":1749507006,"current_range_meters":13600,"station_id":"ce4bhpp2rcd13ifvqhfg","pricing_plan_id":"cebpf4jnsgd1na2vs0mg"},{"bike_id":"39d32260-51d5-455a-ba53-6471389bd255","system_id":"levelo_inurba_marseille","lat":43.32,"lon":5.37622,"is_reserved":false,"is_disabled":false,"rental_uris":{"android":"levelo://app?vid=39d32260-51d5-455a-ba53-6471389bd255","ios":"levelo://app?vid=39d32260-51d5-455a-ba53-6471389bd255"},"vehicle_type_id":"4","last_reported":1749507006,"current_range_meters":13600,"station_id":"","pricing_plan_id":"cebpf4jnsgd1na2vs0mg"},{"bike_id":"0b602b86-9c91-4b76-89a4-a3531e2c7f0e","system_id":"levelo_inurba_marseille","lat":43.32352,"lon":5.38886,"is_reserved":false,"is_disabled":false,"rental_uris":{"android":"levelo://app?vid=0b602b86-9c91-4b76-89a4-a3531e2c7f0e","ios":"levelo://app?vid=0b602b86-9c91-4b76-89a4-a3531e2c7f0e"},"vehicle_type_id":"4","last_reported":1749507006,"current_range_meters":13600,"station_id":"ce4bhqp2rcd13ifvqhog","pricing_plan_id":"cebpf4jnsgd1na2vs0mg"},{"bike_id":"b6f8d396-357c-4c83-8c98-e5af4c5b6c04","system_id":"levelo_inurba_marseille","lat":43.30808,"lon":5.38171,"is_reserved":false,"is_disabled":false,"rental_uris":{"android":"levelo://app?vid=b6f8d396-357c-4c83-8c98-e5af4c5b6c04","ios":"levelo://app?vid=b6f8d396-357c-4c83-8c98-e5af4c5b6c04"},"vehicle_type_id":"4","last_reported":1749507006,"current_range_meters":13600,"station_id":"ce4bgt12rcd13ifvqce0","pricing_plan_id":"cebpf4jnsgd1na2vs0mg"},{"bike_id":"c7432800-1b14-4854-84d5-dd3690953cae","system_id":"levelo_inurba_marseille","lat":43.26187,"lon":5.37458,"is_reserved":false,"is_disabled":true,"rental_uris":{"android":"levelo://app?vid=c7432800-1b14-4854-84d5-dd3690953cae","ios":"levelo://app?vid=c7432800-1b14-4854-84d5-dd3690953cae"},"vehicle_type_id":"4","last_reported":1749507006,"current_range_meters":14000,"station_id":"ce4bhgp2rcd13ifvqfc0","pricing_plan_id":"cebpf4jnsgd1na2vs0mg"},{"bike_id":"e06bfad7-efb8-4d61-96a0-f78dbe6f8ad2","system_id":"levelo_inurba_marseille","lat":43.25117,"lon":5.40331,"is_reserved":false,"is_disabled":false,"rental_uris":{"android":"levelo://app?vid=e06bfad7-efb8-4d61-96a0-f78dbe6f8ad2","ios":"levelo://app?vid=e06bfad7-efb8-4d61-96a0-f78dbe6f8ad2"},"vehicle_type_id":"4","last_reported":1749507006,"current_range_meters":14000,"station_id":"ce4bhlh2rcd13ifvqgig","pricing_plan_id":"cebpf4jnsgd1na2vs0mg"},{"bike_id":"1aea7cfc-afca-4737-8f8d-ae60132524de","system_id":"levelo_inurba_marseille","lat":43.28794,"lon":5.39849,"is_reserved":false,"is_disabled":false,"rental_uris":{"android":"levelo://app?vid=1aea7cfc-afca-4737-8f8d-ae60132524de","ios":"levelo://app?vid=1aea7cfc-afca-4737-8f8d-ae60132524de"},"vehicle_type_id":"4","last_reported":1749507006,"current_range_meters":14000,"station_id":"","pricing_plan_id":"cebpf4jnsgd1na2vs0mg"},{"bike_id":"6d064464-dec5-46b8-98bd-56bde5fb4740","system_id":"levelo_inurba_marseille","lat":43.28994,"lon":5.3563,"is_reserved":false,"is_disabled":true,"rental_uris":{"android":"levelo://app?vid=6d064464-dec5-46b8-98bd-56bde5fb4740","ios":"levelo://app?vid=6d064464-dec5-46b8-98bd-56bde5fb4740"},"vehicle_type_id":"4","last_reported":1749507006,"current_range_meters":14000,"station_id":"ce4bhb92rcd13ifvqen0","pricing_plan_id":"cebpf4jnsgd1na2vs0mg"},{"bike_id":"310f4620-baef-4322-b5c7-e55b20ff4a44","system_id":"levelo_inurba_marseille","lat":43.26788,"lon":5.40257,"is_reserved":false,"is_disabled":false,"rental_uris":{"android":"levelo://app?vid=310f4620-baef-4322-b5c7-e55b20ff4a44","ios":"levelo://app?vid=310f4620-baef-4322-b5c7-e55b20ff4a44"},"vehicle_type_id":"4","last_reported":1749507006,"current_range_meters":14000,"station_id":"ce501612rcd8frsf0b60","pricing_plan_id":"cebpf4jnsgd1na2vs0mg"},{"bike_id":"ce0f0bc6-7026-45aa-b10b-2dda47f8fac3","system_id":"levelo_inurba_marseille","lat":43.28673,"lon":5.38687,"is_reserved":false,"is_disabled":false,"rental_uris":{"android":"levelo://app?vid=ce0f0bc6-7026-45aa-b10b-2dda47f8fac3","ios":"levelo://app?vid=ce0f0bc6-7026-45aa-b10b-2dda47f8fac3"},"vehicle_type_id":"4","last_reported":1749507006,"current_range_meters":14000,"station_id":"ce4bh492rcd13ifvqdug","pricing_plan_id":"cebpf4jnsgd1na2vs0mg"},{"bike_id":"ec02e175-aaa4-4066-abe1-304d2d5f3fc5","system_id":"levelo_inurba_marseille","lat":43.24118,"lon":5.39761,"is_reserved":false,"is_disabled":false,"rental_uris":{"android":"levelo://app?vid=ec02e175-aaa4-4066-abe1-304d2d5f3fc5","ios":"levelo://app?vid=ec02e175-aaa4-4066-abe1-304d2d5f3fc5"},"vehicle_type_id":"4","last_reported":1749507006,"current_range_meters":14400,"station_id":"ce4bhn12rcd13ifvqgpg","pricing_plan_id":"cebpf4jnsgd1na2vs0mg"},{"bike_id":"5077581b-cebb-46fc-ba69-4fa8272d4810","system_id":"levelo_inurba_marseille","lat":43.21368,"lon":5.35535,"is_reserved":false,"is_disabled":false,"rental_uris":{"android":"levelo://app?vid=5077581b-cebb-46fc-ba69-4fa8272d4810","ios":"levelo://app?vid=5077581b-cebb-46fc-ba69-4fa8272d4810"},"vehicle_type_id":"4","last_reported":1749507006,"current_range_meters":14400,"station_id":"","pricing_plan_id":"cebpf4jnsgd1na2vs0mg"},{"bike_id":"5958541c-d2e7-4fc0-b6e8-efde527d71c5","system_id":"levelo_inurba_marseille","lat":43.30892,"lon":5.39648,"is_reserved":false,"is_disabled":false,"rental_uris":{"android":"levelo://app?vid=5958541c-d2e7-4fc0-b6e8-efde527d71c5","ios":"levelo://app?vid=5958541c-d2e7-4fc0-b6e8-efde527d71c5"},"vehicle_type_id":"4","last_reported":1749507006,"current_range_meters":14400,"station_id":"ce4bh012rcd13ifvqcv0","pricing_plan_id":"cebpf4jnsgd1na2vs0mg"},{"bike_id":"65ea561a-2be8-4848-b6da-b760b05269f7","system_id":"levelo_inurba_marseille","lat":43.31268,"lon":5.40154,"is_reserved":false,"is_disabled":false,"rental_uris":{"android":"levelo://app?vid=65ea561a-2be8-4848-b6da-b760b05269f7","ios":"levelo://app?vid=65ea561a-2be8-4848-b6da-b760b05269f7"},"vehicle_type_id":"4","last_reported":1749507006,"current_range_meters":14400,"station_id":"ce4bh092rcd13ifvqd30","pricing_plan_id":"cebpf4jnsgd1na2vs0mg"},{"bike_id":"2460316c-4b44-446b-b28a-992f3e84f445","system_id":"levelo_inurba_marseille","lat":43.28875,"lon":5.39304,"is_reserved":false,"is_disabled":false,"rental_uris":{"android":"levelo://app?vid=2460316c-4b44-446b-b28a-992f3e84f445","ios":"levelo://app?vid=2460316c-4b44-446b-b28a-992f3e84f445"},"vehicle_type_id":"4","last_reported":1749507006,"current_range_meters":14400,"station_id":"ce4bh2p2rcd13ifvqdi0","pricing_plan_id":"cebpf4jnsgd1na2vs0mg"},{"bike_id":"9508da7d-5dc8-430b-abbe-98007997b41c","system_id":"levelo_inurba_marseille","lat":43.28398,"lon":5.37531,"is_reserved":false,"is_disabled":false,"rental_uris":{"android":"levelo://app?vid=9508da7d-5dc8-430b-abbe-98007997b41c","ios":"levelo://app?vid=9508da7d-5dc8-430b-abbe-98007997b41c"},"vehicle_type_id":"4","last_reported":1749507006,"current_range_meters":14400,"station_id":"ce4bh412rcd13ifvqds0","pricing_plan_id":"cebpf4jnsgd1na2vs0mg"},{"bike_id":"60a8540b-0b97-4e6a-b532-b4cdb1bca662","system_id":"levelo_inurba_marseille","lat":43.25976,"lon":5.387615,"is_reserved":false,"is_disabled":false,"rental_uris":{"android":"levelo://app?vid=60a8540b-0b97-4e6a-b532-b4cdb1bca662","ios":"levelo://app?vid=60a8540b-0b97-4e6a-b532-b4cdb1bca662"},"vehicle_type_id":"4","last_reported":1749507006,"current_range_meters":14400,"station_id":"","pricing_plan_id":"cebpf4jnsgd1na2vs0mg"},{"bike_id":"7afdb58a-d1c4-470b-8c7d-d9ea2565734d","system_id":"levelo_inurba_marseille","lat":43.26225,"lon":5.40452,"is_reserved":false,"is_disabled":false,"rental_uris":{"android":"levelo://app?vid=7afdb58a-d1c4-470b-8c7d-d9ea2565734d","ios":"levelo://app?vid=7afdb58a-d1c4-470b-8c7d-d9ea2565734d"},"vehicle_type_id":"4","last_reported":1749507006,"current_range_meters":14400,"station_id":"ce4bhmh2rcd13ifvqgmg","pricing_plan_id":"cebpf4jnsgd1na2vs0mg"},{"bike_id":"6063cd56-24ec-4e86-99ed-9acfc77c1ecd","system_id":"levelo_inurba_marseille","lat":43.287048,"lon":5.399798,"is_reserved":false,"is_disabled":false,"rental_uris":{"android":"levelo://app?vid=6063cd56-24ec-4e86-99ed-9acfc77c1ecd","ios":"levelo://app?vid=6063cd56-24ec-4e86-99ed-9acfc77c1ecd"},"vehicle_type_id":"4","last_reported":1749507006,"current_range_meters":14400,"station_id":"ce4bho92rcd13ifvqh3g","pricing_plan_id":"cebpf4jnsgd1na2vs0mg"},{"bike_id":"402b268f-51d8-4319-85da-3f411d4d5d91","system_id":"levelo_inurba_marseille","lat":43.21161,"lon":5.35094,"is_reserved":false,"is_disabled":false,"rental_uris":{"android":"levelo://app?vid=402b268f-51d8-4319-85da-3f411d4d5d91","ios":"levelo://app?vid=402b268f-51d8-4319-85da-3f411d4d5d91"},"vehicle_type_id":"4","last_reported":1749507006,"current_range_meters":14400,"station_id":"st_cvj6sg6p6f1abm77japg","pricing_plan_id":"cebpf4jnsgd1na2vs0mg"},{"bike_id":"ef555bdb-3115-4b1f-9398-9c76776e1204","system_id":"levelo_inurba_marseille","lat":43.26019,"lon":5.37404,"is_reserved":false,"is_disabled":false,"rental_uris":{"android":"levelo://app?vid=ef555bdb-3115-4b1f-9398-9c76776e1204","ios":"levelo://app?vid=ef555bdb-3115-4b1f-9398-9c76776e1204"},"vehicle_type_id":"4","last_reported":1749507006,"current_range_meters":14800,"station_id":"","pricing_plan_id":"cebpf4jnsgd1na2vs0mg"},{"bike_id":"586ca021-1e46-4e9a-8c87-f8742f92b085","system_id":"levelo_inurba_marseille","lat":43.27919,"lon":5.39577,"is_reserved":false,"is_disabled":false,"rental_uris":{"android":"levelo://app?vid=586ca021-1e46-4e9a-8c87-f8742f92b085","ios":"levelo://app?vid=586ca021-1e46-4e9a-8c87-f8742f92b085"},"vehicle_type_id":"4","last_reported":1749507006,"current_range_meters":14800,"station_id":"ce4bhf92rcd13ifvqf40","pricing_plan_id":"cebpf4jnsgd1na2vs0mg"},{"bike_id":"12a16a15-78c8-4ee4-92fd-26dda98aa3f7","system_id":"levelo_inurba_marseille","lat":43.31038,"lon":5.38324,"is_reserved":false,"is_disabled":false,"rental_uris":{"android":"levelo://app?vid=12a16a15-78c8-4ee4-92fd-26dda98aa3f7","ios":"levelo://app?vid=12a16a15-78c8-4ee4-92fd-26dda98aa3f7"},"vehicle_type_id":"4","last_reported":1749507006,"current_range_meters":14800,"station_id":"ce4bgv92rcd13ifvqcr0","pricing_plan_id":"cebpf4jnsgd1na2vs0mg"},{"bike_id":"f558f095-e39e-4ee3-8942-a97f7d82e654","system_id":"levelo_inurba_marseille","lat":43.30891,"lon":5.39657,"is_reserved":false,"is_disabled":false,"rental_uris":{"android":"levelo://app?vid=f558f095-e39e-4ee3-8942-a97f7d82e654","ios":"levelo://app?vid=f558f095-e39e-4ee3-8942-a97f7d82e654"},"vehicle_type_id":"4","last_reported":1749507006,"current_range_meters":14800,"station_id":"ce4bh012rcd13ifvqcv0","pricing_plan_id":"cebpf4jnsgd1na2vs0mg"},{"bike_id":"5bb46dff-ddd0-478e-8ed3-fedc7adaeb69","system_id":"levelo_inurba_marseille","lat":43.279,"lon":5.38003,"is_reserved":false,"is_disabled":false,"rental_uris":{"android":"levelo://app?vid=5bb46dff-ddd0-478e-8ed3-fedc7adaeb69","ios":"levelo://app?vid=5bb46dff-ddd0-478e-8ed3-fedc7adaeb69"},"vehicle_type_id":"4","last_reported":1749507006,"current_range_meters":14800,"station_id":"ce4bhf92rcd13ifvqf50","pricing_plan_id":"cebpf4jnsgd1na2vs0mg"},{"bike_id":"4d26fb08-98cd-4156-8858-cdf0c4e8c3e8","system_id":"levelo_inurba_marseille","lat":43.25106,"lon":5.40321,"is_reserved":false,"is_disabled":false,"rental_uris":{"android":"levelo://app?vid=4d26fb08-98cd-4156-8858-cdf0c4e8c3e8","ios":"levelo://app?vid=4d26fb08-98cd-4156-8858-cdf0c4e8c3e8"},"vehicle_type_id":"4","last_reported":1749507006,"current_range_meters":14800,"station_id":"ce4bhlh2rcd13ifvqgig","pricing_plan_id":"cebpf4jnsgd1na2vs0mg"},{"bike_id":"60c3091a-e97f-439c-9063-e83d420d9271","system_id":"levelo_inurba_marseille","lat":43.297875,"lon":5.38142,"is_reserved":false,"is_disabled":false,"rental_uris":{"android":"levelo://app?vid=60c3091a-e97f-439c-9063-e83d420d9271","ios":"levelo://app?vid=60c3091a-e97f-439c-9063-e83d420d9271"},"vehicle_type_id":"4","last_reported":1749507006,"current_range_meters":15200,"station_id":"ce4bgip2rcd13ifvqbb0","pricing_plan_id":"cebpf4jnsgd1na2vs0mg"},{"bike_id":"93a8514d-9e08-4750-b1ec-dac5f103b87e","system_id":"levelo_inurba_marseille","lat":43.28458,"lon":5.35896,"is_reserved":false,"is_disabled":false,"rental_uris":{"android":"levelo://app?vid=93a8514d-9e08-4750-b1ec-dac5f103b87e","ios":"levelo://app?vid=93a8514d-9e08-4750-b1ec-dac5f103b87e"},"vehicle_type_id":"4","last_reported":1749507006,"current_range_meters":15200,"station_id":"ce4bhah2rcd13ifvqei0","pricing_plan_id":"cebpf4jnsgd1na2vs0mg"},{"bike_id":"3bda16d8-90d9-4118-9969-3498193106e5","system_id":"levelo_inurba_marseille","lat":43.28413,"lon":5.37516,"is_reserved":false,"is_disabled":true,"rental_uris":{"android":"levelo://app?vid=3bda16d8-90d9-4118-9969-3498193106e5","ios":"levelo://app?vid=3bda16d8-90d9-4118-9969-3498193106e5"},"vehicle_type_id":"4","last_reported":1749507006,"current_range_meters":15200,"station_id":"ce4bh412rcd13ifvqds0","pricing_plan_id":"cebpf4jnsgd1na2vs0mg"},{"bike_id":"b7d92940-3413-4a33-a3b9-3e24a76f5a6d","system_id":"levelo_inurba_marseille","lat":43.31135,"lon":5.37781,"is_reserved":false,"is_disabled":false,"rental_uris":{"android":"levelo://app?vid=b7d92940-3413-4a33-a3b9-3e24a76f5a6d","ios":"levelo://app?vid=b7d92940-3413-4a33-a3b9-3e24a76f5a6d"},"vehicle_type_id":"4","last_reported":1749507006,"current_range_meters":15200,"station_id":"ce4bgt92rcd13ifvqcg0","pricing_plan_id":"cebpf4jnsgd1na2vs0mg"},{"bike_id":"0672f57d-31d1-466d-a5ff-f566ca873550","system_id":"levelo_inurba_marseille","lat":43.29266,"lon":5.37642,"is_reserved":false,"is_disabled":false,"rental_uris":{"android":"levelo://app?vid=0672f57d-31d1-466d-a5ff-f566ca873550","ios":"levelo://app?vid=0672f57d-31d1-466d-a5ff-f566ca873550"},"vehicle_type_id":"4","last_reported":1749507006,"current_range_meters":15200,"station_id":"ce4bgi12rcd13ifvqb80","pricing_plan_id":"cebpf4jnsgd1na2vs0mg"},{"bike_id":"c97276cb-ddd3-4fe2-87e0-822d30d01ef4","system_id":"levelo_inurba_marseille","lat":43.31073,"lon":5.38353,"is_reserved":false,"is_disabled":false,"rental_uris":{"android":"levelo://app?vid=c97276cb-ddd3-4fe2-87e0-822d30d01ef4","ios":"levelo://app?vid=c97276cb-ddd3-4fe2-87e0-822d30d01ef4"},"vehicle_type_id":"4","last_reported":1749507006,"current_range_meters":15200,"station_id":"ce4bgv92rcd13ifvqcr0","pricing_plan_id":"cebpf4jnsgd1na2vs0mg"},{"bike_id":"d71e62aa-b960-4994-88e0-d92ede407231","system_id":"levelo_inurba_marseille","lat":43.28569,"lon":5.39496,"is_reserved":false,"is_disabled":false,"rental_uris":{"android":"levelo://app?vid=d71e62aa-b960-4994-88e0-d92ede407231","ios":"levelo://app?vid=d71e62aa-b960-4994-88e0-d92ede407231"},"vehicle_type_id":"4","last_reported":1749507006,"current_range_meters":16000,"station_id":"ce4bh292rcd13ifvqdg0","pricing_plan_id":"cebpf4jnsgd1na2vs0mg"},{"bike_id":"23e89bac-e2bf-4e89-8e08-1f432b7a4188","system_id":"levelo_inurba_marseille","lat":43.21191,"lon":5.35074,"is_reserved":false,"is_disabled":true,"rental_uris":{"android":"levelo://app?vid=23e89bac-e2bf-4e89-8e08-1f432b7a4188","ios":"levelo://app?vid=23e89bac-e2bf-4e89-8e08-1f432b7a4188"},"vehicle_type_id":"4","last_reported":1749507006,"current_range_meters":16000,"station_id":"st_cvj6sg6p6f1abm77japg","pricing_plan_id":"cebpf4jnsgd1na2vs0mg"},{"bike_id":"a06a5e76-7a40-4637-ae47-ceef6131d43b","system_id":"levelo_inurba_marseille","lat":43.30282,"lon":5.36976,"is_reserved":false,"is_disabled":false,"rental_uris":{"android":"levelo://app?vid=a06a5e76-7a40-4637-ae47-ceef6131d43b","ios":"levelo://app?vid=a06a5e76-7a40-4637-ae47-ceef6131d43b"},"vehicle_type_id":"4","last_reported":1749507006,"current_range_meters":16000,"station_id":"","pricing_plan_id":"cebpf4jnsgd1na2vs0mg"},{"bike_id":"b7651752-8eb3-4b67-91fc-0a6e006c8d1f","system_id":"levelo_inurba_marseille","lat":43.21183,"lon":5.3507,"is_reserved":false,"is_disabled":false,"rental_uris":{"android":"levelo://app?vid=b7651752-8eb3-4b67-91fc-0a6e006c8d1f","ios":"levelo://app?vid=b7651752-8eb3-4b67-91fc-0a6e006c8d1f"},"vehicle_type_id":"4","last_reported":1749507006,"current_range_meters":16000,"station_id":"st_cvj6sg6p6f1abm77japg","pricing_plan_id":"cebpf4jnsgd1na2vs0mg"},{"bike_id":"c46183ac-8cca-4cdf-a8a9-22b7c63cf27e","system_id":"levelo_inurba_marseille","lat":43.288492,"lon":5.358394,"is_reserved":false,"is_disabled":true,"rental_uris":{"android":"levelo://app?vid=c46183ac-8cca-4cdf-a8a9-22b7c63cf27e","ios":"levelo://app?vid=c46183ac-8cca-4cdf-a8a9-22b7c63cf27e"},"vehicle_type_id":"4","last_reported":1749507006,"current_range_meters":16000,"station_id":"ce4bhb12rcd13ifvqem0","pricing_plan_id":"cebpf4jnsgd1na2vs0mg"},{"bike_id":"6d7846b8-8c63-4a95-abfe-b504a0e7f6a5","system_id":"levelo_inurba_marseille","lat":43.30613,"lon":5.39363,"is_reserved":false,"is_disabled":false,"rental_uris":{"android":"levelo://app?vid=6d7846b8-8c63-4a95-abfe-b504a0e7f6a5","ios":"levelo://app?vid=6d7846b8-8c63-4a95-abfe-b504a0e7f6a5"},"vehicle_type_id":"4","last_reported":1749507006,"current_range_meters":16000,"station_id":"ce4bh0p2rcd13ifvqd80","pricing_plan_id":"cebpf4jnsgd1na2vs0mg"},{"bike_id":"eca942b4-34e9-4d21-b68a-0dfee2c9821f","system_id":"levelo_inurba_marseille","lat":43.3015,"lon":5.38793,"is_reserved":false,"is_disabled":true,"rental_uris":{"android":"levelo://app?vid=eca942b4-34e9-4d21-b68a-0dfee2c9821f","ios":"levelo://app?vid=eca942b4-34e9-4d21-b68a-0dfee2c9821f"},"vehicle_type_id":"4","last_reported":1749507006,"current_range_meters":16000,"station_id":"ce4bghh2rcd13ifvqb60","pricing_plan_id":"cebpf4jnsgd1na2vs0mg"},{"bike_id":"a26f8764-c0b8-4df6-9002-5ba3978882a6","system_id":"levelo_inurba_marseille","lat":43.29013,"lon":5.35608,"is_reserved":false,"is_disabled":true,"rental_uris":{"android":"levelo://app?vid=a26f8764-c0b8-4df6-9002-5ba3978882a6","ios":"levelo://app?vid=a26f8764-c0b8-4df6-9002-5ba3978882a6"},"vehicle_type_id":"4","last_reported":1749507006,"current_range_meters":16000,"station_id":"ce4bhb92rcd13ifvqen0","pricing_plan_id":"cebpf4jnsgd1na2vs0mg"},{"bike_id":"60574b4d-5b84-4c23-9869-7030add2bd57","system_id":"levelo_inurba_marseille","lat":43.31431,"lon":5.37354,"is_reserved":false,"is_disabled":false,"rental_uris":{"android":"levelo://app?vid=60574b4d-5b84-4c23-9869-7030add2bd57","ios":"levelo://app?vid=60574b4d-5b84-4c23-9869-7030add2bd57"},"vehicle_type_id":"4","last_reported":1749507006,"current_range_meters":16000,"station_id":"","pricing_plan_id":"cebpf4jnsgd1na2vs0mg"},{"bike_id":"ca27e12a-1f2d-4cf2-be29-12a2b9ff1547","system_id":"levelo_inurba_marseille","lat":43.31711,"lon":5.42411,"is_reserved":false,"is_disabled":false,"rental_uris":{"android":"levelo://app?vid=ca27e12a-1f2d-4cf2-be29-12a2b9ff1547","ios":"levelo://app?vid=ca27e12a-1f2d-4cf2-be29-12a2b9ff1547"},"vehicle_type_id":"4","last_reported":1749507006,"current_range_meters":16000,"station_id":"ce4bhp92rcd13ifvqhbg","pricing_plan_id":"cebpf4jnsgd1na2vs0mg"},{"bike_id":"39a1b25f-b81e-4464-bff8-61e99be3ca25","system_id":"levelo_inurba_marseille","lat":43.289385,"lon":5.396239,"is_reserved":false,"is_disabled":false,"rental_uris":{"android":"levelo://app?vid=39a1b25f-b81e-4464-bff8-61e99be3ca25","ios":"levelo://app?vid=39a1b25f-b81e-4464-bff8-61e99be3ca25"},"vehicle_type_id":"4","last_reported":1749507006,"current_range_meters":16400,"station_id":"ce4bh3h2rcd13ifvqdn0","pricing_plan_id":"cebpf4jnsgd1na2vs0mg"},{"bike_id":"456fd0fb-6b00-49e3-944b-55516afdf508","system_id":"levelo_inurba_marseille","lat":43.28279,"lon":5.35068,"is_reserved":false,"is_disabled":true,"rental_uris":{"android":"levelo://app?vid=456fd0fb-6b00-49e3-944b-55516afdf508","ios":"levelo://app?vid=456fd0fb-6b00-49e3-944b-55516afdf508"},"vehicle_type_id":"4","last_reported":1749507006,"current_range_meters":16400,"station_id":"ce4bhbp2rcd13ifvqerg","pricing_plan_id":"cebpf4jnsgd1na2vs0mg"},{"bike_id":"d62a950a-d94a-496a-b77c-2730c1a07144","system_id":"levelo_inurba_marseille","lat":43.287,"lon":5.39987,"is_reserved":false,"is_disabled":false,"rental_uris":{"android":"levelo://app?vid=d62a950a-d94a-496a-b77c-2730c1a07144","ios":"levelo://app?vid=d62a950a-d94a-496a-b77c-2730c1a07144"},"vehicle_type_id":"4","last_reported":1749507006,"current_range_meters":16400,"station_id":"ce4bho92rcd13ifvqh3g","pricing_plan_id":"cebpf4jnsgd1na2vs0mg"},{"bike_id":"b517a375-3cba-4f61-83db-598bdc7e35c2","system_id":"levelo_inurba_marseille","lat":43.28068,"lon":5.3963,"is_reserved":false,"is_disabled":false,"rental_uris":{"android":"levelo://app?vid=b517a375-3cba-4f61-83db-598bdc7e35c2","ios":"levelo://app?vid=b517a375-3cba-4f61-83db-598bdc7e35c2"},"vehicle_type_id":"4","last_reported":1749507006,"current_range_meters":16400,"station_id":"ce4bho12rcd13ifvqh2g","pricing_plan_id":"cebpf4jnsgd1na2vs0mg"},{"bike_id":"b2a55171-9e11-4eba-beeb-f2e7c5d27df2","system_id":"levelo_inurba_marseille","lat":43.21176,"lon":5.35079,"is_reserved":false,"is_disabled":false,"rental_uris":{"android":"levelo://app?vid=b2a55171-9e11-4eba-beeb-f2e7c5d27df2","ios":"levelo://app?vid=b2a55171-9e11-4eba-beeb-f2e7c5d27df2"},"vehicle_type_id":"4","last_reported":1749507006,"current_range_meters":16400,"station_id":"st_cvj6sg6p6f1abm77japg","pricing_plan_id":"cebpf4jnsgd1na2vs0mg"},{"bike_id":"e925ed2b-babc-4cf9-b75b-bac898fd5635","system_id":"levelo_inurba_marseille","lat":43.21177,"lon":5.35081,"is_reserved":false,"is_disabled":false,"rental_uris":{"android":"levelo://app?vid=e925ed2b-babc-4cf9-b75b-bac898fd5635","ios":"levelo://app?vid=e925ed2b-babc-4cf9-b75b-bac898fd5635"},"vehicle_type_id":"4","last_reported":1749507006,"current_range_meters":16400,"station_id":"st_cvj6sg6p6f1abm77japg","pricing_plan_id":"cebpf4jnsgd1na2vs0mg"},{"bike_id":"3a642daa-c509-4966-b3ed-a2aad9246ee2","system_id":"levelo_inurba_marseille","lat":43.30777,"lon":5.37659,"is_reserved":false,"is_disabled":false,"rental_uris":{"android":"levelo://app?vid=3a642daa-c509-4966-b3ed-a2aad9246ee2","ios":"levelo://app?vid=3a642daa-c509-4966-b3ed-a2aad9246ee2"},"vehicle_type_id":"4","last_reported":1749507006,"current_range_meters":16800,"station_id":"ce4bgv92rcd13ifvqcq0","pricing_plan_id":"cebpf4jnsgd1na2vs0mg"},{"bike_id":"28878c1e-7307-44c2-9f44-ba9e3db2ad8a","system_id":"levelo_inurba_marseille","lat":43.29247,"lon":5.4091,"is_reserved":false,"is_disabled":false,"rental_uris":{"android":"levelo://app?vid=28878c1e-7307-44c2-9f44-ba9e3db2ad8a","ios":"levelo://app?vid=28878c1e-7307-44c2-9f44-ba9e3db2ad8a"},"vehicle_type_id":"4","last_reported":1749507006,"current_range_meters":16800,"station_id":"ce4bh192rcd13ifvqdc0","pricing_plan_id":"cebpf4jnsgd1na2vs0mg"},{"bike_id":"2f92c3c0-75b7-44be-87af-15314dd83ae7","system_id":"levelo_inurba_marseille","lat":43.31073,"lon":5.38352,"is_reserved":false,"is_disabled":false,"rental_uris":{"android":"levelo://app?vid=2f92c3c0-75b7-44be-87af-15314dd83ae7","ios":"levelo://app?vid=2f92c3c0-75b7-44be-87af-15314dd83ae7"},"vehicle_type_id":"4","last_reported":1749507006,"current_range_meters":16800,"station_id":"ce4bgv92rcd13ifvqcr0","pricing_plan_id":"cebpf4jnsgd1na2vs0mg"},{"bike_id":"211035a1-62e1-4343-90ca-bcfba9e6ecb4","system_id":"levelo_inurba_marseille","lat":43.30245,"lon":5.40079,"is_reserved":false,"is_disabled":false,"rental_uris":{"android":"levelo://app?vid=211035a1-62e1-4343-90ca-bcfba9e6ecb4","ios":"levelo://app?vid=211035a1-62e1-4343-90ca-bcfba9e6ecb4"},"vehicle_type_id":"4","last_reported":1749507006,"current_range_meters":16800,"station_id":"ce4bgvh2rcd13ifvqcs0","pricing_plan_id":"cebpf4jnsgd1na2vs0mg"},{"bike_id":"7fbb8cf5-f563-4c4a-90cf-1a5ac10b01c4","system_id":"levelo_inurba_marseille","lat":43.21187,"lon":5.35092,"is_reserved":false,"is_disabled":false,"rental_uris":{"android":"levelo://app?vid=7fbb8cf5-f563-4c4a-90cf-1a5ac10b01c4","ios":"levelo://app?vid=7fbb8cf5-f563-4c4a-90cf-1a5ac10b01c4"},"vehicle_type_id":"4","last_reported":1749507006,"current_range_meters":16800,"station_id":"st_cvj6sg6p6f1abm77japg","pricing_plan_id":"cebpf4jnsgd1na2vs0mg"},{"bike_id":"39ddcdda-6f05-4e0a-af3a-d5c016ffc082","system_id":"levelo_inurba_marseille","lat":43.28685,"lon":5.38671,"is_reserved":false,"is_disabled":false,"rental_uris":{"android":"levelo://app?vid=39ddcdda-6f05-4e0a-af3a-d5c016ffc082","ios":"levelo://app?vid=39ddcdda-6f05-4e0a-af3a-d5c016ffc082"},"vehicle_type_id":"4","last_reported":1749507006,"current_range_meters":16800,"station_id":"ce4bh492rcd13ifvqdug","pricing_plan_id":"cebpf4jnsgd1na2vs0mg"},{"bike_id":"29a207e6-b15a-414d-8198-522627b7f792","system_id":"levelo_inurba_marseille","lat":43.31367,"lon":5.38499,"is_reserved":false,"is_disabled":false,"rental_uris":{"android":"levelo://app?vid=29a207e6-b15a-414d-8198-522627b7f792","ios":"levelo://app?vid=29a207e6-b15a-414d-8198-522627b7f792"},"vehicle_type_id":"4","last_reported":1749507006,"current_range_meters":16800,"station_id":"ce4bgt92rcd13ifvqcf0","pricing_plan_id":"cebpf4jnsgd1na2vs0mg"},{"bike_id":"c6830c0d-e468-46fa-b9c2-96c1aec56a2d","system_id":"levelo_inurba_marseille","lat":43.27285,"lon":5.43088,"is_reserved":false,"is_disabled":false,"rental_uris":{"android":"levelo://app?vid=c6830c0d-e468-46fa-b9c2-96c1aec56a2d","ios":"levelo://app?vid=c6830c0d-e468-46fa-b9c2-96c1aec56a2d"},"vehicle_type_id":"4","last_reported":1749507006,"current_range_meters":16800,"station_id":"","pricing_plan_id":"cebpf4jnsgd1na2vs0mg"},{"bike_id":"43449477-5d4e-4908-a1f4-19ff2876f22d","system_id":"levelo_inurba_marseille","lat":43.27952,"lon":5.3871,"is_reserved":false,"is_disabled":false,"rental_uris":{"android":"levelo://app?vid=43449477-5d4e-4908-a1f4-19ff2876f22d","ios":"levelo://app?vid=43449477-5d4e-4908-a1f4-19ff2876f22d"},"vehicle_type_id":"4","last_reported":1749507006,"current_range_meters":17200,"station_id":"ce4bhg12rcd13ifvqf80","pricing_plan_id":"cebpf4jnsgd1na2vs0mg"},{"bike_id":"5097e71c-7103-43fa-9c20-896e8c62c928","system_id":"levelo_inurba_marseille","lat":43.3064,"lon":5.40071,"is_reserved":false,"is_disabled":false,"rental_uris":{"android":"levelo://app?vid=5097e71c-7103-43fa-9c20-896e8c62c928","ios":"levelo://app?vid=5097e71c-7103-43fa-9c20-896e8c62c928"},"vehicle_type_id":"4","last_reported":1749507006,"current_range_meters":17200,"station_id":"ce4bh112rcd13ifvqda0","pricing_plan_id":"cebpf4jnsgd1na2vs0mg"},{"bike_id":"f79292e4-f3c3-4e7a-bd5f-6ad7145387ef","system_id":"levelo_inurba_marseille","lat":43.274263,"lon":5.394127,"is_reserved":false,"is_disabled":true,"rental_uris":{"android":"levelo://app?vid=f79292e4-f3c3-4e7a-bd5f-6ad7145387ef","ios":"levelo://app?vid=f79292e4-f3c3-4e7a-bd5f-6ad7145387ef"},"vehicle_type_id":"4","last_reported":1749507006,"current_range_meters":17200,"station_id":"ce4bhdp2rcd13ifvqf20","pricing_plan_id":"cebpf4jnsgd1na2vs0mg"},{"bike_id":"b1e8eb07-82b7-4bcc-af1f-8461c1c89166","system_id":"levelo_inurba_marseille","lat":43.31335,"lon":5.38475,"is_reserved":false,"is_disabled":false,"rental_uris":{"android":"levelo://app?vid=b1e8eb07-82b7-4bcc-af1f-8461c1c89166","ios":"levelo://app?vid=b1e8eb07-82b7-4bcc-af1f-8461c1c89166"},"vehicle_type_id":"4","last_reported":1749507006,"current_range_meters":17200,"station_id":"ce4bgt92rcd13ifvqcf0","pricing_plan_id":"cebpf4jnsgd1na2vs0mg"},{"bike_id":"a39f2bea-0f71-4718-b801-b2aba9057162","system_id":"levelo_inurba_marseille","lat":43.309238,"lon":5.401401,"is_reserved":false,"is_disabled":false,"rental_uris":{"android":"levelo://app?vid=a39f2bea-0f71-4718-b801-b2aba9057162","ios":"levelo://app?vid=a39f2bea-0f71-4718-b801-b2aba9057162"},"vehicle_type_id":"4","last_reported":1749507006,"current_range_meters":17200,"station_id":"ce4bgvp2rcd13ifvqct0","pricing_plan_id":"cebpf4jnsgd1na2vs0mg"},{"bike_id":"187b0a7b-e256-4c19-9794-bb250a6c5653","system_id":"levelo_inurba_marseille","lat":43.31632,"lon":5.38328,"is_reserved":false,"is_disabled":false,"rental_uris":{"android":"levelo://app?vid=187b0a7b-e256-4c19-9794-bb250a6c5653","ios":"levelo://app?vid=187b0a7b-e256-4c19-9794-bb250a6c5653"},"vehicle_type_id":"4","last_reported":1749507006,"current_range_meters":17200,"station_id":"","pricing_plan_id":"cebpf4jnsgd1na2vs0mg"},{"bike_id":"25909464-de48-4519-b5c4-e0f831c11d42","system_id":"levelo_inurba_marseille","lat":43.28707,"lon":5.3795,"is_reserved":false,"is_disabled":false,"rental_uris":{"android":"levelo://app?vid=25909464-de48-4519-b5c4-e0f831c11d42","ios":"levelo://app?vid=25909464-de48-4519-b5c4-e0f831c11d42"},"vehicle_type_id":"4","last_reported":1749507006,"current_range_meters":17600,"station_id":"ce4bh9p2rcd13ifvqec0","pricing_plan_id":"cebpf4jnsgd1na2vs0mg"},{"bike_id":"407a03d3-9a1b-41f7-922a-36dbbbdf4c88","system_id":"levelo_inurba_marseille","lat":43.31989,"lon":5.38145,"is_reserved":false,"is_disabled":false,"rental_uris":{"android":"levelo://app?vid=407a03d3-9a1b-41f7-922a-36dbbbdf4c88","ios":"levelo://app?vid=407a03d3-9a1b-41f7-922a-36dbbbdf4c88"},"vehicle_type_id":"4","last_reported":1749507006,"current_range_meters":17600,"station_id":"ce4bhr12rcd13ifvqhpg","pricing_plan_id":"cebpf4jnsgd1na2vs0mg"},{"bike_id":"90b127b9-70de-44b9-831d-86f5f3179ba0","system_id":"levelo_inurba_marseille","lat":43.28868,"lon":5.39299,"is_reserved":false,"is_disabled":false,"rental_uris":{"android":"levelo://app?vid=90b127b9-70de-44b9-831d-86f5f3179ba0","ios":"levelo://app?vid=90b127b9-70de-44b9-831d-86f5f3179ba0"},"vehicle_type_id":"4","last_reported":1749507006,"current_range_meters":17600,"station_id":"ce4bh2p2rcd13ifvqdi0","pricing_plan_id":"cebpf4jnsgd1na2vs0mg"},{"bike_id":"1e20f032-0f6a-40b2-ad29-e4d2225496fa","system_id":"levelo_inurba_marseille","lat":43.30294,"lon":5.37069,"is_reserved":false,"is_disabled":false,"rental_uris":{"android":"levelo://app?vid=1e20f032-0f6a-40b2-ad29-e4d2225496fa","ios":"levelo://app?vid=1e20f032-0f6a-40b2-ad29-e4d2225496fa"},"vehicle_type_id":"4","last_reported":1749507006,"current_range_meters":17600,"station_id":"","pricing_plan_id":"cebpf4jnsgd1na2vs0mg"},{"bike_id":"ba2a2ed5-8856-4ca4-a27a-aaafc7febda2","system_id":"levelo_inurba_marseille","lat":43.23186,"lon":5.39984,"is_reserved":false,"is_disabled":false,"rental_uris":{"android":"levelo://app?vid=ba2a2ed5-8856-4ca4-a27a-aaafc7febda2","ios":"levelo://app?vid=ba2a2ed5-8856-4ca4-a27a-aaafc7febda2"},"vehicle_type_id":"4","last_reported":1749507006,"current_range_meters":17600,"station_id":"ce4bhn12rcd13ifvqgqg","pricing_plan_id":"cebpf4jnsgd1na2vs0mg"},{"bike_id":"07569b3f-c31c-4cfe-b4e4-44554ef2a881","system_id":"levelo_inurba_marseille","lat":43.29285,"lon":5.40099,"is_reserved":false,"is_disabled":false,"rental_uris":{"android":"levelo://app?vid=07569b3f-c31c-4cfe-b4e4-44554ef2a881","ios":"levelo://app?vid=07569b3f-c31c-4cfe-b4e4-44554ef2a881"},"vehicle_type_id":"4","last_reported":1749507006,"current_range_meters":17600,"station_id":"ce4bh312rcd13ifvqdk0","pricing_plan_id":"cebpf4jnsgd1na2vs0mg"},{"bike_id":"bc85336d-e3f8-4f6c-8585-034696feb45f","system_id":"levelo_inurba_marseille","lat":43.28681,"lon":5.38679,"is_reserved":false,"is_disabled":false,"rental_uris":{"android":"levelo://app?vid=bc85336d-e3f8-4f6c-8585-034696feb45f","ios":"levelo://app?vid=bc85336d-e3f8-4f6c-8585-034696feb45f"},"vehicle_type_id":"4","last_reported":1749507006,"current_range_meters":17600,"station_id":"ce4bh492rcd13ifvqdug","pricing_plan_id":"cebpf4jnsgd1na2vs0mg"},{"bike_id":"e5acba47-d585-42c5-bd76-39e377f818f9","system_id":"levelo_inurba_marseille","lat":43.25112,"lon":5.40361,"is_reserved":false,"is_disabled":false,"rental_uris":{"android":"levelo://app?vid=e5acba47-d585-42c5-bd76-39e377f818f9","ios":"levelo://app?vid=e5acba47-d585-42c5-bd76-39e377f818f9"},"vehicle_type_id":"4","last_reported":1749507006,"current_range_meters":17600,"station_id":"ce4bhlh2rcd13ifvqgig","pricing_plan_id":"cebpf4jnsgd1na2vs0mg"},{"bike_id":"a5da21bd-71eb-4d26-82be-85824b99a760","system_id":"levelo_inurba_marseille","lat":43.24047,"lon":5.3777,"is_reserved":false,"is_disabled":false,"rental_uris":{"android":"levelo://app?vid=a5da21bd-71eb-4d26-82be-85824b99a760","ios":"levelo://app?vid=a5da21bd-71eb-4d26-82be-85824b99a760"},"vehicle_type_id":"4","last_reported":1749507006,"current_range_meters":17600,"station_id":"ce4bhnp2rcd13ifvqgvg","pricing_plan_id":"cebpf4jnsgd1na2vs0mg"},{"bike_id":"ea5b6dd6-e056-4c1b-b2c3-bd3ecc350b22","system_id":"levelo_inurba_marseille","lat":43.28144,"lon":5.42651,"is_reserved":false,"is_disabled":false,"rental_uris":{"android":"levelo://app?vid=ea5b6dd6-e056-4c1b-b2c3-bd3ecc350b22","ios":"levelo://app?vid=ea5b6dd6-e056-4c1b-b2c3-bd3ecc350b22"},"vehicle_type_id":"4","last_reported":1749507006,"current_range_meters":18000,"station_id":"ce4bhnh2rcd13ifvqgug","pricing_plan_id":"cebpf4jnsgd1na2vs0mg"},{"bike_id":"a5b3008d-4885-415a-b7a5-954036b89bda","system_id":"levelo_inurba_marseille","lat":43.27812,"lon":5.40716,"is_reserved":false,"is_disabled":false,"rental_uris":{"android":"levelo://app?vid=a5b3008d-4885-415a-b7a5-954036b89bda","ios":"levelo://app?vid=a5b3008d-4885-415a-b7a5-954036b89bda"},"vehicle_type_id":"4","last_reported":1749507006,"current_range_meters":18000,"station_id":"ce4bhnh2rcd13ifvqgtg","pricing_plan_id":"cebpf4jnsgd1na2vs0mg"},{"bike_id":"c30dbedc-c866-492b-a092-32c1ee0c1f22","system_id":"levelo_inurba_marseille","lat":43.29533,"lon":5.38545,"is_reserved":false,"is_disabled":true,"rental_uris":{"android":"levelo://app?vid=c30dbedc-c866-492b-a092-32c1ee0c1f22","ios":"levelo://app?vid=c30dbedc-c866-492b-a092-32c1ee0c1f22"},"vehicle_type_id":"4","last_reported":1749507006,"current_range_meters":18000,"station_id":"ce4bgih2rcd13ifvqba0","pricing_plan_id":"cebpf4jnsgd1na2vs0mg"},{"bike_id":"66a4b31f-20d9-42fc-b9f5-48723336d87f","system_id":"levelo_inurba_marseille","lat":43.29307,"lon":5.37196,"is_reserved":false,"is_disabled":false,"rental_uris":{"android":"levelo://app?vid=66a4b31f-20d9-42fc-b9f5-48723336d87f","ios":"levelo://app?vid=66a4b31f-20d9-42fc-b9f5-48723336d87f"},"vehicle_type_id":"4","last_reported":1749507006,"current_range_meters":18000,"station_id":"ce4bgh92rcd13ifvqb40","pricing_plan_id":"cebpf4jnsgd1na2vs0mg"},{"bike_id":"828a4b10-7ee8-4ee8-b567-69bac6d31aeb","system_id":"levelo_inurba_marseille","lat":43.27992,"lon":5.41667,"is_reserved":false,"is_disabled":false,"rental_uris":{"android":"levelo://app?vid=828a4b10-7ee8-4ee8-b567-69bac6d31aeb","ios":"levelo://app?vid=828a4b10-7ee8-4ee8-b567-69bac6d31aeb"},"vehicle_type_id":"4","last_reported":1749507006,"current_range_meters":18000,"station_id":"ce4bho12rcd13ifvqh1g","pricing_plan_id":"cebpf4jnsgd1na2vs0mg"},{"bike_id":"4229be07-5a51-41a1-b4e0-6e1b3ef89c53","system_id":"levelo_inurba_marseille","lat":43.25117,"lon":5.40318,"is_reserved":false,"is_disabled":false,"rental_uris":{"android":"levelo://app?vid=4229be07-5a51-41a1-b4e0-6e1b3ef89c53","ios":"levelo://app?vid=4229be07-5a51-41a1-b4e0-6e1b3ef89c53"},"vehicle_type_id":"4","last_reported":1749507006,"current_range_meters":18000,"station_id":"ce4bhlh2rcd13ifvqgig","pricing_plan_id":"cebpf4jnsgd1na2vs0mg"},{"bike_id":"fad9b98f-1bfd-41b0-be76-c725e485d072","system_id":"levelo_inurba_marseille","lat":43.212,"lon":5.35067,"is_reserved":false,"is_disabled":false,"rental_uris":{"android":"levelo://app?vid=fad9b98f-1bfd-41b0-be76-c725e485d072","ios":"levelo://app?vid=fad9b98f-1bfd-41b0-be76-c725e485d072"},"vehicle_type_id":"4","last_reported":1749507006,"current_range_meters":18000,"station_id":"st_cvj6sg6p6f1abm77japg","pricing_plan_id":"cebpf4jnsgd1na2vs0mg"},{"bike_id":"5bf75369-cbe1-46df-846c-57af5e856af7","system_id":"levelo_inurba_marseille","lat":43.28703,"lon":5.39992,"is_reserved":false,"is_disabled":false,"rental_uris":{"android":"levelo://app?vid=5bf75369-cbe1-46df-846c-57af5e856af7","ios":"levelo://app?vid=5bf75369-cbe1-46df-846c-57af5e856af7"},"vehicle_type_id":"4","last_reported":1749507006,"current_range_meters":18000,"station_id":"ce4bho92rcd13ifvqh3g","pricing_plan_id":"cebpf4jnsgd1na2vs0mg"},{"bike_id":"84f5a926-1dd6-4535-b647-2764ce0ca103","system_id":"levelo_inurba_marseille","lat":43.32109,"lon":5.36794,"is_reserved":false,"is_disabled":false,"rental_uris":{"android":"levelo://app?vid=84f5a926-1dd6-4535-b647-2764ce0ca103","ios":"levelo://app?vid=84f5a926-1dd6-4535-b647-2764ce0ca103"},"vehicle_type_id":"4","last_reported":1749507006,"current_range_meters":18000,"station_id":"ce4bhrh2rcd13ifvqhug","pricing_plan_id":"cebpf4jnsgd1na2vs0mg"},{"bike_id":"971c6c53-2afd-49ef-9b59-d41a102e23e7","system_id":"levelo_inurba_marseille","lat":43.243269,"lon":5.438216,"is_reserved":false,"is_disabled":false,"rental_uris":{"android":"levelo://app?vid=971c6c53-2afd-49ef-9b59-d41a102e23e7","ios":"levelo://app?vid=971c6c53-2afd-49ef-9b59-d41a102e23e7"},"vehicle_type_id":"4","last_reported":1749507006,"current_range_meters":18000,"station_id":"","pricing_plan_id":"cebpf4jnsgd1na2vs0mg"},{"bike_id":"f47be119-bfcb-4a6a-b442-d0ce0aaf9e3f","system_id":"levelo_inurba_marseille","lat":43.29281,"lon":5.40894,"is_reserved":false,"is_disabled":true,"rental_uris":{"android":"levelo://app?vid=f47be119-bfcb-4a6a-b442-d0ce0aaf9e3f","ios":"levelo://app?vid=f47be119-bfcb-4a6a-b442-d0ce0aaf9e3f"},"vehicle_type_id":"4","last_reported":1749507006,"current_range_meters":18000,"station_id":"ce4bh192rcd13ifvqdc0","pricing_plan_id":"cebpf4jnsgd1na2vs0mg"},{"bike_id":"2a69f8e6-ed04-4f94-bf99-4cae87a630e5","system_id":"levelo_inurba_marseille","lat":43.25121,"lon":5.4031,"is_reserved":false,"is_disabled":false,"rental_uris":{"android":"levelo://app?vid=2a69f8e6-ed04-4f94-bf99-4cae87a630e5","ios":"levelo://app?vid=2a69f8e6-ed04-4f94-bf99-4cae87a630e5"},"vehicle_type_id":"4","last_reported":1749507006,"current_range_meters":18000,"station_id":"ce4bhlh2rcd13ifvqgig","pricing_plan_id":"cebpf4jnsgd1na2vs0mg"},{"bike_id":"d7ac98f1-40a0-49db-848c-549f2ba365b0","system_id":"levelo_inurba_marseille","lat":43.30433,"lon":5.38895,"is_reserved":false,"is_disabled":false,"rental_uris":{"android":"levelo://app?vid=d7ac98f1-40a0-49db-848c-549f2ba365b0","ios":"levelo://app?vid=d7ac98f1-40a0-49db-848c-549f2ba365b0"},"vehicle_type_id":"4","last_reported":1749507006,"current_range_meters":18000,"station_id":"ce4bgk12rcd13ifvqbi0","pricing_plan_id":"cebpf4jnsgd1na2vs0mg"},{"bike_id":"b1aeb2d5-fe0a-44ee-88db-f38cdfc215e4","system_id":"levelo_inurba_marseille","lat":43.29534,"lon":5.37491,"is_reserved":false,"is_disabled":true,"rental_uris":{"android":"levelo://app?vid=b1aeb2d5-fe0a-44ee-88db-f38cdfc215e4","ios":"levelo://app?vid=b1aeb2d5-fe0a-44ee-88db-f38cdfc215e4"},"vehicle_type_id":"4","last_reported":1749507006,"current_range_meters":18000,"station_id":"ce4bgkp2rcd13ifvqbmg","pricing_plan_id":"cebpf4jnsgd1na2vs0mg"},{"bike_id":"38f3574c-6050-4f7b-b824-25609fb7b634","system_id":"levelo_inurba_marseille","lat":43.2997,"lon":5.38502,"is_reserved":false,"is_disabled":true,"rental_uris":{"android":"levelo://app?vid=38f3574c-6050-4f7b-b824-25609fb7b634","ios":"levelo://app?vid=38f3574c-6050-4f7b-b824-25609fb7b634"},"vehicle_type_id":"4","last_reported":1749507006,"current_range_meters":18000,"station_id":"ce4bgj92rcd13ifvqbd0","pricing_plan_id":"cebpf4jnsgd1na2vs0mg"},{"bike_id":"0f139c75-30db-4efd-a61c-722197ee8166","system_id":"levelo_inurba_marseille","lat":43.28416,"lon":5.37519,"is_reserved":false,"is_disabled":false,"rental_uris":{"android":"levelo://app?vid=0f139c75-30db-4efd-a61c-722197ee8166","ios":"levelo://app?vid=0f139c75-30db-4efd-a61c-722197ee8166"},"vehicle_type_id":"4","last_reported":1749507006,"current_range_meters":18800,"station_id":"ce4bh412rcd13ifvqds0","pricing_plan_id":"cebpf4jnsgd1na2vs0mg"},{"bike_id":"48b9e544-61b6-44f8-bf67-b53af4ee54c1","system_id":"levelo_inurba_marseille","lat":43.28102,"lon":5.37836,"is_reserved":false,"is_disabled":false,"rental_uris":{"android":"levelo://app?vid=48b9e544-61b6-44f8-bf67-b53af4ee54c1","ios":"levelo://app?vid=48b9e544-61b6-44f8-bf67-b53af4ee54c1"},"vehicle_type_id":"4","last_reported":1749507006,"current_range_meters":18800,"station_id":"ce4bha12rcd13ifvqee0","pricing_plan_id":"cebpf4jnsgd1na2vs0mg"},{"bike_id":"74f6790a-387c-41e8-bfd4-e4232685986d","system_id":"levelo_inurba_marseille","lat":43.3106,"lon":5.38352,"is_reserved":false,"is_disabled":false,"rental_uris":{"android":"levelo://app?vid=74f6790a-387c-41e8-bfd4-e4232685986d","ios":"levelo://app?vid=74f6790a-387c-41e8-bfd4-e4232685986d"},"vehicle_type_id":"4","last_reported":1749507006,"current_range_meters":18800,"station_id":"ce4bgv92rcd13ifvqcr0","pricing_plan_id":"cebpf4jnsgd1na2vs0mg"},{"bike_id":"c8ada7f1-d789-4185-9ede-83633897d820","system_id":"levelo_inurba_marseille","lat":43.29442,"lon":5.3975,"is_reserved":false,"is_disabled":false,"rental_uris":{"android":"levelo://app?vid=c8ada7f1-d789-4185-9ede-83633897d820","ios":"levelo://app?vid=c8ada7f1-d789-4185-9ede-83633897d820"},"vehicle_type_id":"4","last_reported":1749507006,"current_range_meters":18800,"station_id":"ce4bh3h2rcd13ifvqdo0","pricing_plan_id":"cebpf4jnsgd1na2vs0mg"},{"bike_id":"52b5b854-3ad1-41ca-b9e5-f0208cf81dc6","system_id":"levelo_inurba_marseille","lat":43.31073,"lon":5.38357,"is_reserved":false,"is_disabled":false,"rental_uris":{"android":"levelo://app?vid=52b5b854-3ad1-41ca-b9e5-f0208cf81dc6","ios":"levelo://app?vid=52b5b854-3ad1-41ca-b9e5-f0208cf81dc6"},"vehicle_type_id":"4","last_reported":1749507006,"current_range_meters":18800,"station_id":"ce4bgv92rcd13ifvqcr0","pricing_plan_id":"cebpf4jnsgd1na2vs0mg"},{"bike_id":"aff08a3c-f634-48cc-8e17-49555c45191d","system_id":"levelo_inurba_marseille","lat":43.30429,"lon":5.39743,"is_reserved":false,"is_disabled":false,"rental_uris":{"android":"levelo://app?vid=aff08a3c-f634-48cc-8e17-49555c45191d","ios":"levelo://app?vid=aff08a3c-f634-48cc-8e17-49555c45191d"},"vehicle_type_id":"4","last_reported":1749507006,"current_range_meters":18800,"station_id":"ce4bh092rcd13ifvqd20","pricing_plan_id":"cebpf4jnsgd1na2vs0mg"},{"bike_id":"7919c22a-2956-4086-b2d6-843a88361ec6","system_id":"levelo_inurba_marseille","lat":43.28718,"lon":5.37914,"is_reserved":false,"is_disabled":false,"rental_uris":{"android":"levelo://app?vid=7919c22a-2956-4086-b2d6-843a88361ec6","ios":"levelo://app?vid=7919c22a-2956-4086-b2d6-843a88361ec6"},"vehicle_type_id":"4","last_reported":1749507006,"current_range_meters":18800,"station_id":"ce4bh9p2rcd13ifvqec0","pricing_plan_id":"cebpf4jnsgd1na2vs0mg"},{"bike_id":"dd811bf3-0181-407a-8576-29b1b5c691ec","system_id":"levelo_inurba_marseille","lat":43.296042,"lon":5.427209,"is_reserved":false,"is_disabled":false,"rental_uris":{"android":"levelo://app?vid=dd811bf3-0181-407a-8576-29b1b5c691ec","ios":"levelo://app?vid=dd811bf3-0181-407a-8576-29b1b5c691ec"},"vehicle_type_id":"4","last_reported":1749507006,"current_range_meters":19200,"station_id":"","pricing_plan_id":"cebpf4jnsgd1na2vs0mg"},{"bike_id":"f4ac0913-2594-49ce-a612-6b081f77c8f8","system_id":"levelo_inurba_marseille","lat":43.31762,"lon":5.39009,"is_reserved":false,"is_disabled":false,"rental_uris":{"android":"levelo://app?vid=f4ac0913-2594-49ce-a612-6b081f77c8f8","ios":"levelo://app?vid=f4ac0913-2594-49ce-a612-6b081f77c8f8"},"vehicle_type_id":"4","last_reported":1749507006,"current_range_meters":19200,"station_id":"ce4bhqp2rcd13ifvqhng","pricing_plan_id":"cebpf4jnsgd1na2vs0mg"},{"bike_id":"b0f39c6b-d7da-4e83-881b-6c0b5f546bf0","system_id":"levelo_inurba_marseille","lat":43.31686,"lon":5.40475,"is_reserved":false,"is_disabled":false,"rental_uris":{"android":"levelo://app?vid=b0f39c6b-d7da-4e83-881b-6c0b5f546bf0","ios":"levelo://app?vid=b0f39c6b-d7da-4e83-881b-6c0b5f546bf0"},"vehicle_type_id":"4","last_reported":1749507006,"current_range_meters":19200,"station_id":"ce4bh012rcd13ifvqd00","pricing_plan_id":"cebpf4jnsgd1na2vs0mg"},{"bike_id":"002ad4e8-6140-4bdd-b14b-f38ee707447e","system_id":"levelo_inurba_marseille","lat":43.30987,"lon":5.38578,"is_reserved":false,"is_disabled":false,"rental_uris":{"android":"levelo://app?vid=002ad4e8-6140-4bdd-b14b-f38ee707447e","ios":"levelo://app?vid=002ad4e8-6140-4bdd-b14b-f38ee707447e"},"vehicle_type_id":"4","last_reported":1749507006,"current_range_meters":19200,"station_id":"","pricing_plan_id":"cebpf4jnsgd1na2vs0mg"},{"bike_id":"5d3016e0-312c-4b72-8484-4c5d7ec442ef","system_id":"levelo_inurba_marseille","lat":43.36835,"lon":5.34312,"is_reserved":false,"is_disabled":false,"rental_uris":{"android":"levelo://app?vid=5d3016e0-312c-4b72-8484-4c5d7ec442ef","ios":"levelo://app?vid=5d3016e0-312c-4b72-8484-4c5d7ec442ef"},"vehicle_type_id":"4","last_reported":1749507006,"current_range_meters":19200,"station_id":"","pricing_plan_id":"cebpf4jnsgd1na2vs0mg"},{"bike_id":"371c4004-1947-4f49-8440-b49f77b56132","system_id":"levelo_inurba_marseille","lat":43.31989,"lon":5.38152,"is_reserved":false,"is_disabled":true,"rental_uris":{"android":"levelo://app?vid=371c4004-1947-4f49-8440-b49f77b56132","ios":"levelo://app?vid=371c4004-1947-4f49-8440-b49f77b56132"},"vehicle_type_id":"4","last_reported":1749507006,"current_range_meters":19200,"station_id":"ce4bhr12rcd13ifvqhpg","pricing_plan_id":"cebpf4jnsgd1na2vs0mg"},{"bike_id":"c91783c3-c3b4-4db8-ab1a-36a0bcef1ce9","system_id":"levelo_inurba_marseille","lat":43.28704,"lon":5.39986,"is_reserved":false,"is_disabled":false,"rental_uris":{"android":"levelo://app?vid=c91783c3-c3b4-4db8-ab1a-36a0bcef1ce9","ios":"levelo://app?vid=c91783c3-c3b4-4db8-ab1a-36a0bcef1ce9"},"vehicle_type_id":"4","last_reported":1749507006,"current_range_meters":19200,"station_id":"ce4bho92rcd13ifvqh3g","pricing_plan_id":"cebpf4jnsgd1na2vs0mg"},{"bike_id":"e8430681-c70f-44c2-b6a8-ba35f612c64c","system_id":"levelo_inurba_marseille","lat":43.25583,"lon":5.38224,"is_reserved":false,"is_disabled":false,"rental_uris":{"android":"levelo://app?vid=e8430681-c70f-44c2-b6a8-ba35f612c64c","ios":"levelo://app?vid=e8430681-c70f-44c2-b6a8-ba35f612c64c"},