{"last_updated":1678668006,"ttl":30,"version":"2.2","data":{"bikes":[{"bike_id":"88d825bd-1084-41a2-8fcf-bb17e4c9bc74","system_id":"levelo_inurba_marseille","lat":43.312245,"lon":5.368533,"is_reserved":false,"is_disabled":false,"rental_uris":{"android":"levelo://app?vid=88d825bd-1084-41a2-8fcf-bb17e4c9bc74","ios":"levelo://app?vid=88d825bd-1084-41a2-8fcf-bb17e4c9bc74"},"vehicle_type_id":"4","last_reported":1678668007,"current_range_meters":0,"station_id":"ce4bgl92rcd13ifvqbq0","pricing_plan_id":"free"},{"bike_id":"dc93ab11-996a-4b86-9986-1fe645b3daeb","system_id":"levelo_inurba_marseille","lat":43.312239,"lon":5.368562,"is_reserved":false,"is_disabled":false,"rental_uris":{"android":"levelo://app?vid=dc93ab11-996a-4b86-9986-1fe645b3daeb","ios":"levelo://app?vid=dc93ab11-996a-4b86-9986-1fe645b3daeb"},"vehicle_type_id":"4","last_reported":1678668007,"current_range_meters":21200,"station_id":"ce4bgl92rcd13ifvqbq0","pricing_plan_id":"free"},{"bike_id":"89492e21-2b53-4555-a9cc-21d47bafc0e7","system_id":"levelo_inurba_marseille","lat":43.312239,"lon":5.368562,"is_reserved":false,"is_disabled":false,"rental_uris":{"android":"levelo://app?vid=89492e21-2b53-4555-a9cc-21d47bafc0e7","ios":"levelo://app?vid=89492e21-2b53-4555-a9cc-21d47bafc0e7"},"vehicle_type_id":"4","last_reported":1678668007,"current_range_meters":20800,"station_id":"ce4bgl92rcd13ifvqbq0","pricing_plan_id":"free"},{"bike_id":"42300467-6988-4b37-8f0e-1e7d90e63b5f","system_id":"levelo_inurba_marseille","lat":43.312239,"lon":5.368562,"is_reserved":false,"is_disabled":false,"rental_uris":{"android":"levelo://app?vid=42300467-6988-4b37-8f0e-1e7d90e63b5f","ios":"levelo://app?vid=42300467-6988-4b37-8f0e-1e7d90e63b5f"},"vehicle_type_id":"4","last_reported":1678668007,"current_range_meters":20400,"station_id":"ce4bgl92rcd13ifvqbq0","pricing_plan_id":"free"},{"bike_id":"4d15af71-ce92-48ba-89d4-4637f9e6765e","system_id":"levelo_inurba_marseille","lat":43.309015,"lon":5.36852,"is_reserved":false,"is_disabled":false,"rental_uris":{"android":"levelo://app?vid=4d15af71-ce92-48ba-89d4-4637f9e6765e","ios":"levelo://app?vid=4d15af71-ce92-48ba-89d4-4637f9e6765e"},"vehicle_type_id":"4","last_reported":1678668007,"current_range_meters":5600,"station_id":"ce4bgn92rcd13ifvqbvg","pricing_plan_id":"free"},{"bike_id":"7872cf87-b7b6-446d-9d6e-0ec9109b7d30","system_id":"levelo_inurba_marseille","lat":43.314811,"lon":5.373103,"is_reserved":false,"is_disabled":false,"rental_uris":{"android":"levelo://app?vid=7872cf87-b7b6-446d-9d6e-0ec9109b7d30","ios":"levelo://app?vid=7872cf87-b7b6-446d-9d6e-0ec9109b7d30"},"vehicle_type_id":"4","last_reported":1678668007,"current_range_meters":21600,"station_id":"ce4bgt12rcd13ifvqcd0","pricing_plan_id":"free"},{"bike_id":"91842bdd-3569-47a1-99c1-32383b7c4f16","system_id":"levelo_inurba_marseille","lat":43.314811,"lon":5.373103,"is_reserved":false,"is_disabled":false,"rental_uris":{"android":"levelo://app?vid=91842bdd-3569-47a1-99c1-32383b7c4f16","ios":"levelo://app?vid=91842bdd-3569-47a1-99c1-32383b7c4f16"},"vehicle_type_id":"4","last_reported":1678668007,"current_range_meters":400,"station_id":"ce4bgt12rcd13ifvqcd0","pricing_plan_id":"free"},{"bike_id":"55fc30af-6fd9-4425-a4bf-1070f7a28f5d","system_id":"levelo_inurba_marseille","lat":43.314811,"lon":5.373103,"is_reserved":false,"is_disabled":false,"rental_uris":{"android":"levelo://app?vid=55fc30af-6fd9-4425-a4bf-1070f7a28f5d","ios":"levelo://app?vid=55fc30af-6fd9-4425-a4bf-1070f7a28f5d"},"vehicle_type_id":"4","last_reported":1678668007,"current_range_meters":5200,"station_id":"ce4bgt12rcd13ifvqcd0","pricing_plan_id":"free"},{"bike_id":"2e3fbdd5-03d0-4fa9-8229-c7c24b251619","system_id":"levelo_inurba_marseille","lat":43.314811,"lon":5.373103,"is_reserved":false,"is_disabled":false,"rental_uris":{"android":"levelo://app?vid=2e3fbdd5-03d0-4fa9-8229-c7c24b251619","ios":"levelo://app?vid=2e3fbdd5-03d0-4fa9-8229-c7c24b251619"},"vehicle_type_id":"4","last_reported":1678668007,"current_range_meters":1200,"station_id":"ce4bgt12rcd13ifvqcd0","pricing_plan_id":"free"},{"bike_id":"8009c058-7ea0-466e-8f7d-673e4fde088e","system_id":"levelo_inurba_marseille","lat":43.30894,"lon":5.37193,"is_reserved":false,"is_disabled":false,"rental_uris":{"android":"levelo://app?vid=8009c058-7ea0-466e-8f7d-673e4fde088e","ios":"levelo://app?vid=8009c058-7ea0-466e-8f7d-673e4fde088e"},"vehicle_type_id":"4","last_reported":1678668007,"current_range_meters":20800,"station_id":"","pricing_plan_id":"free"},{"bike_id":"19affbb3-0b60-4081-8730-6ed47eafbcf5","system_id":"levelo_inurba_marseille","lat":43.30886,"lon":5.371948,"is_reserved":false,"is_disabled":false,"rental_uris":{"android":"levelo://app?vid=19affbb3-0b60-4081-8730-6ed47eafbcf5","ios":"levelo://app?vid=19affbb3-0b60-4081-8730-6ed47eafbcf5"},"vehicle_type_id":"4","last_reported":1678668007,"current_range_meters":28400,"station_id":"","pricing_plan_id":"free"},{"bike_id":"7f1a464c-8617-48f5-92fa-8bf60406b8a0","system_id":"levelo_inurba_marseille","lat":43.3068,"lon":5.371985,"is_reserved":false,"is_disabled":false,"rental_uris":{"android":"levelo://app?vid=7f1a464c-8617-48f5-92fa-8bf60406b8a0","ios":"levelo://app?vid=7f1a464c-8617-48f5-92fa-8bf60406b8a0"},"vehicle_type_id":"4","last_reported":1678668007,"current_range_meters":4400,"station_id":"","pricing_plan_id":"free"},{"bike_id":"b21be7c1-a5dc-4735-90e7-f4f4fdc9540b","system_id":"levelo_inurba_marseille","lat":43.305989,"lon":5.37225,"is_reserved":false,"is_disabled":false,"rental_uris":{"android":"levelo://app?vid=b21be7c1-a5dc-4735-90e7-f4f4fdc9540b","ios":"levelo://app?vid=b21be7c1-a5dc-4735-90e7-f4f4fdc9540b"},"vehicle_type_id":"4","last_reported":1678668007,"current_range_meters":29600,"station_id":"ce4bgqh2rcd13ifvqc4g","pricing_plan_id":"free"},{"bike_id":"c9fe639e-ea51-4057-92d6-ce33a5612b04","system_id":"levelo_inurba_marseille","lat":43.305989,"lon":5.37225,"is_reserved":false,"is_disabled":false,"rental_uris":{"android":"levelo://app?vid=c9fe639e-ea51-4057-92d6-ce33a5612b04","ios":"levelo://app?vid=c9fe639e-ea51-4057-92d6-ce33a5612b04"},"vehicle_type_id":"4","last_reported":1678668007,"current_range_meters":16800,"station_id":"ce4bgqh2rcd13ifvqc4g","pricing_plan_id":"free"},{"bike_id":"ca16e7b4-20f6-454b-9176-4a5801c1f077","system_id":"levelo_inurba_marseille","lat":43.305989,"lon":5.37225,"is_reserved":false,"is_disabled":false,"rental_uris":{"android":"levelo://app?vid=ca16e7b4-20f6-454b-9176-4a5801c1f077","ios":"levelo://app?vid=ca16e7b4-20f6-454b-9176-4a5801c1f077"},"vehicle_type_id":"4","last_reported":1678668007,"current_range_meters":21600,"station_id":"ce4bgqh2rcd13ifvqc4g","pricing_plan_id":"free"},{"bike_id":"fc2e90db-9337-437b-ad6c-2e8dff299f3d","system_id":"levelo_inurba_marseille","lat":43.305989,"lon":5.37225,"is_reserved":false,"is_disabled":false,"rental_uris":{"android":"levelo://app?vid=fc2e90db-9337-437b-ad6c-2e8dff299f3d","ios":"levelo://app?vid=fc2e90db-9337-437b-ad6c-2e8dff299f3d"},"vehicle_type_id":"4","last_reported":1678668007,"current_range_meters":25200,"station_id":"ce4bgqh2rcd13ifvqc4g","pricing_plan_id":"free"},{"bike_id":"e5bdee35-39ae-42d1-b31d-92d9ca3760e4","system_id":"levelo_inurba_marseille","lat":43.306456,"lon":5.374292,"is_reserved":false,"is_disabled":false,"rental_uris":{"android":"levelo://app?vid=e5bdee35-39ae-42d1-b31d-92d9ca3760e4","ios":"levelo://app?vid=e5bdee35-39ae-42d1-b31d-92d9ca3760e4"},"vehicle_type_id":"4","last_reported":1678668007,"current_range_meters":0,"station_id":"","pricing_plan_id":"free"},{"bike_id":"5d28e191-68a2-4d9b-93f2-9df0ef9c4637","system_id":"levelo_inurba_marseille","lat":43.317075,"lon":5.377367,"is_reserved":false,"is_disabled":false,"rental_uris":{"android":"levelo://app?vid=5d28e191-68a2-4d9b-93f2-9df0ef9c4637","ios":"levelo://app?vid=5d28e191-68a2-4d9b-93f2-9df0ef9c4637"},"vehicle_type_id":"4","last_reported":1678668007,"current_range_meters":16400,"station_id":"ce4bgth2rcd13ifvqch0","pricing_plan_id":"free"},{"bike_id":"26f9de50-3a4c-4367-ac5e-2b50515d3bfb","system_id":"levelo_inurba_marseille","lat":43.307163,"lon":5.378337,"is_reserved":false,"is_disabled":false,"rental_uris":{"android":"levelo://app?vid=26f9de50-3a4c-4367-ac5e-2b50515d3bfb","ios":"levelo://app?vid=26f9de50-3a4c-4367-ac5e-2b50515d3bfb"},"vehicle_type_id":"4","last_reported":1678668007,"current_range_meters":1200,"station_id":"","pricing_plan_id":"free"},{"bike_id":"30437c11-77be-4524-acb8-f59402e80554","system_id":"levelo_inurba_marseille","lat":43.301939,"lon":5.366286,"is_reserved":false,"is_disabled":false,"rental_uris":{"android":"levelo://app?vid=30437c11-77be-4524-acb8-f59402e80554","ios":"levelo://app?vid=30437c11-77be-4524-acb8-f59402e80554"},"vehicle_type_id":"4","last_reported":1678668007,"current_range_meters":10000,"station_id":"ce4bgrh2rcd13ifvqc8g","pricing_plan_id":"free"},{"bike_id":"1f199f43-2485-47a6-ba50-d4f8a8743855","system_id":"levelo_inurba_marseille","lat":43.301939,"lon":5.366286,"is_reserved":false,"is_disabled":false,"rental_uris":{"android":"levelo://app?vid=1f199f43-2485-47a6-ba50-d4f8a8743855","ios":"levelo://app?vid=1f199f43-2485-47a6-ba50-d4f8a8743855"},"vehicle_type_id":"4","last_reported":1678668007,"current_range_meters":29600,"station_id":"ce4bgrh2rcd13ifvqc8g","pricing_plan_id":"free"},{"bike_id":"0a79e296-b562-44fd-a1ac-48a8973b0aa0","system_id":"levelo_inurba_marseille","lat":43.301939,"lon":5.366286,"is_reserved":false,"is_disabled":false,"rental_uris":{"android":"levelo://app?vid=0a79e296-b562-44fd-a1ac-48a8973b0aa0","ios":"levelo://app?vid=0a79e296-b562-44fd-a1ac-48a8973b0aa0"},"vehicle_type_id":"4","last_reported":1678668007,"current_range_meters":24800,"station_id":"ce4bgrh2rcd13ifvqc8g","pricing_plan_id":"free"},{"bike_id":"eb6e00df-4fad-462d-b3e8-af7c66396836","system_id":"levelo_inurba_marseille","lat":43.30836,"lon":5.381436,"is_reserved":false,"is_disabled":false,"rental_uris":{"android":"levelo://app?vid=eb6e00df-4fad-462d-b3e8-af7c66396836","ios":"levelo://app?vid=eb6e00df-4fad-462d-b3e8-af7c66396836"},"vehicle_type_id":"4","last_reported":1678668007,"current_range_meters":6800,"station_id":"ce4bgt12rcd13ifvqce0","pricing_plan_id":"free"},{"bike_id":"37e33a44-501d-43fd-9b75-6f7b3d40557e","system_id":"levelo_inurba_marseille","lat":43.30799,"lon":5.38151,"is_reserved":false,"is_disabled":false,"rental_uris":{"android":"levelo://app?vid=37e33a44-501d-43fd-9b75-6f7b3d40557e","ios":"levelo://app?vid=37e33a44-501d-43fd-9b75-6f7b3d40557e"},"vehicle_type_id":"4","last_reported":1678668007,"current_range_meters":1600,"station_id":"ce4bgt12rcd13ifvqce0","pricing_plan_id":"free"},{"bike_id":"5e7a4e14-672d-4c71-8d86-a39c32477c89","system_id":"levelo_inurba_marseille","lat":43.308012,"lon":5.381511,"is_reserved":false,"is_disabled":false,"rental_uris":{"android":"levelo://app?vid=5e7a4e14-672d-4c71-8d86-a39c32477c89","ios":"levelo://app?vid=5e7a4e14-672d-4c71-8d86-a39c32477c89"},"vehicle_type_id":"4","last_reported":1678668007,"current_range_meters":0,"station_id":"ce4bgt12rcd13ifvqce0","pricing_plan_id":"free"},{"bike_id":"2ce14192-c235-45fb-b918-af1c8a56fbc3","system_id":"levelo_inurba_marseille","lat":43.30801,"lon":5.38154,"is_reserved":false,"is_disabled":false,"rental_uris":{"android":"levelo://app?vid=2ce14192-c235-45fb-b918-af1c8a56fbc3","ios":"levelo://app?vid=2ce14192-c235-45fb-b918-af1c8a56fbc3"},"vehicle_type_id":"4","last_reported":1678668007,"current_range_meters":21600,"station_id":"ce4bgt12rcd13ifvqce0","pricing_plan_id":"free"},{"bike_id":"1ad7add5-bb89-47b4-bf53-c060f93b0059","system_id":"levelo_inurba_marseille","lat":43.307995,"lon":5.381548,"is_reserved":false,"is_disabled":false,"rental_uris":{"android":"levelo://app?vid=1ad7add5-bb89-47b4-bf53-c060f93b0059","ios":"levelo://app?vid=1ad7add5-bb89-47b4-bf53-c060f93b0059"},"vehicle_type_id":"4","last_reported":1678668007,"current_range_meters":14400,"station_id":"ce4bgt12rcd13ifvqce0","pricing_plan_id":"free"},{"bike_id":"422d8d15-f7e5-4350-9e94-b332d4ea3544","system_id":"levelo_inurba_marseille","lat":43.30798,"lon":5.381583,"is_reserved":false,"is_disabled":false,"rental_uris":{"android":"levelo://app?vid=422d8d15-f7e5-4350-9e94-b332d4ea3544","ios":"levelo://app?vid=422d8d15-f7e5-4350-9e94-b332d4ea3544"},"vehicle_type_id":"4","last_reported":1678668007,"current_range_meters":27200,"station_id":"ce4bgt12rcd13ifvqce0","pricing_plan_id":"free"},{"bike_id":"827affda-5a6e-44f0-b754-8589d81dec5b","system_id":"levelo_inurba_marseille","lat":43.30799,"lon":5.38161,"is_reserved":false,"is_disabled":false,"rental_uris":{"android":"levelo://app?vid=827affda-5a6e-44f0-b754-8589d81dec5b","ios":"levelo://app?vid=827affda-5a6e-44f0-b754-8589d81dec5b"},"vehicle_type_id":"4","last_reported":1678668007,"current_range_meters":22400,"station_id":"ce4bgt12rcd13ifvqce0","pricing_plan_id":"free"},{"bike_id":"1ccdd3d0-84de-4141-802c-a3ba22dd2bca","system_id":"levelo_inurba_marseille","lat":43.307926,"lon":5.381626,"is_reserved":false,"is_disabled":false,"rental_uris":{"android":"levelo://app?vid=1ccdd3d0-84de-4141-802c-a3ba22dd2bca","ios":"levelo://app?vid=1ccdd3d0-84de-4141-802c-a3ba22dd2bca"},"vehicle_type_id":"4","last_reported":1678668007,"current_range_meters":6800,"station_id":"ce4bgt12rcd13ifvqce0","pricing_plan_id":"free"},{"bike_id":"65286779-7785-47a3-b828-c66d1cd69630","system_id":"levelo_inurba_marseille","lat":43.30143,"lon":5.37413,"is_reserved":false,"is_disabled":false,"rental_uris":{"android":"levelo://app?vid=65286779-7785-47a3-b828-c66d1cd69630","ios":"levelo://app?vid=65286779-7785-47a3-b828-c66d1cd69630"},"vehicle_type_id":"4","last_reported":1678668007,"current_range_meters":3600,"station_id":"ce4bgs92rcd13ifvqcc0","pricing_plan_id":"free"},{"bike_id":"981b1548-62e5-4bab-b692-39e2fa69fae0","system_id":"levelo_inurba_marseille","lat":43.313571,"lon":5.384829,"is_reserved":false,"is_disabled":false,"rental_uris":{"android":"levelo://app?vid=981b1548-62e5-4bab-b692-39e2fa69fae0","ios":"levelo://app?vid=981b1548-62e5-4bab-b692-39e2fa69fae0"},"vehicle_type_id":"4","last_reported":1678668007,"current_range_meters":18000,"station_id":"ce4bgt92rcd13ifvqcf0","pricing_plan_id":"free"},{"bike_id":"d95b2f1f-2f73-42d2-a34b-db12be86e7b0","system_id":"levelo_inurba_marseille","lat":43.313571,"lon":5.384829,"is_reserved":false,"is_disabled":false,"rental_uris":{"android":"levelo://app?vid=d95b2f1f-2f73-42d2-a34b-db12be86e7b0","ios":"levelo://app?vid=d95b2f1f-2f73-42d2-a34b-db12be86e7b0"},"vehicle_type_id":"4","last_reported":1678668007,"current_range_meters":5200,"station_id":"ce4bgt92rcd13ifvqcf0","pricing_plan_id":"free"},{"bike_id":"aad19918-d929-4ad6-8493-923dd236651c","system_id":"levelo_inurba_marseille","lat":43.313571,"lon":5.384829,"is_reserved":false,"is_disabled":false,"rental_uris":{"android":"levelo://app?vid=aad19918-d929-4ad6-8493-923dd236651c","ios":"levelo://app?vid=aad19918-d929-4ad6-8493-923dd236651c"},"vehicle_type_id":"4","last_reported":1678668007,"current_range_meters":10800,"station_id":"ce4bgt92rcd13ifvqcf0","pricing_plan_id":"free"},{"bike_id":"56fba994-733c-48f9-966b-988f8cc63af6","system_id":"levelo_inurba_marseille","lat":43.313571,"lon":5.384829,"is_reserved":false,"is_disabled":false,"rental_uris":{"android":"levelo://app?vid=56fba994-733c-48f9-966b-988f8cc63af6","ios":"levelo://app?vid=56fba994-733c-48f9-966b-988f8cc63af6"},"vehicle_type_id":"4","last_reported":1678668007,"current_range_meters":13600,"station_id":"ce4bgt92rcd13ifvqcf0","pricing_plan_id":"free"},{"bike_id":"e2ee1247-3ed7-4e87-a5c6-d7dc46f09e62","system_id":"levelo_inurba_marseille","lat":43.313571,"lon":5.384829,"is_reserved":false,"is_disabled":false,"rental_uris":{"android":"levelo://app?vid=e2ee1247-3ed7-4e87-a5c6-d7dc46f09e62","ios":"levelo://app?vid=e2ee1247-3ed7-4e87-a5c6-d7dc46f09e62"},"vehicle_type_id":"4","last_reported":1678668007,"current_range_meters":8400,"station_id":"ce4bgt92rcd13ifvqcf0","pricing_plan_id":"free"},{"bike_id":"8e77939c-71c9-4bd0-aa06-b29262e759eb","system_id":"levelo_inurba_marseille","lat":43.313571,"lon":5.384829,"is_reserved":false,"is_disabled":false,"rental_uris":{"android":"levelo://app?vid=8e77939c-71c9-4bd0-aa06-b29262e759eb","ios":"levelo://app?vid=8e77939c-71c9-4bd0-aa06-b29262e759eb"},"vehicle_type_id":"4","last_reported":1678668007,"current_range_meters":22400,"station_id":"ce4bgt92rcd13ifvqcf0","pricing_plan_id":"free"},{"bike_id":"b5b2cd0e-3305-4c60-adcd-46167dc8805d","system_id":"levelo_inurba_marseille","lat":43.313571,"lon":5.384829,"is_reserved":false,"is_disabled":false,"rental_uris":{"android":"levelo://app?vid=b5b2cd0e-3305-4c60-adcd-46167dc8805d","ios":"levelo://app?vid=b5b2cd0e-3305-4c60-adcd-46167dc8805d"},"vehicle_type_id":"4","last_reported":1678668007,"current_range_meters":6800,"station_id":"ce4bgt92rcd13ifvqcf0","pricing_plan_id":"free"},{"bike_id":"0e65b366-b800-4614-a4f2-a9c098a81eb2","system_id":"levelo_inurba_marseille","lat":43.313571,"lon":5.384829,"is_reserved":false,"is_disabled":false,"rental_uris":{"android":"levelo://app?vid=0e65b366-b800-4614-a4f2-a9c098a81eb2","ios":"levelo://app?vid=0e65b366-b800-4614-a4f2-a9c098a81eb2"},"vehicle_type_id":"4","last_reported":1678668007,"current_range_meters":23600,"station_id":"ce4bgt92rcd13ifvqcf0","pricing_plan_id":"free"},{"bike_id":"e618e200-1b3d-459b-b8f6-dcb554136c4a","system_id":"levelo_inurba_marseille","lat":43.30144,"lon":5.37685,"is_reserved":false,"is_disabled":false,"rental_uris":{"android":"levelo://app?vid=e618e200-1b3d-459b-b8f6-dcb554136c4a","ios":"levelo://app?vid=e618e200-1b3d-459b-b8f6-dcb554136c4a"},"vehicle_type_id":"4","last_reported":1678668007,"current_range_meters":4400,"station_id":"","pricing_plan_id":"free"},{"bike_id":"cd839ef1-3016-4cff-adb4-f6b7c32b4749","system_id":"levelo_inurba_marseille","lat":43.305347,"lon":5.3843,"is_reserved":false,"is_disabled":false,"rental_uris":{"android":"levelo://app?vid=cd839ef1-3016-4cff-adb4-f6b7c32b4749","ios":"levelo://app?vid=cd839ef1-3016-4cff-adb4-f6b7c32b4749"},"vehicle_type_id":"4","last_reported":1678668007,"current_range_meters":0,"station_id":"","pricing_plan_id":"free"},{"bike_id":"14648f7f-ed02-42a0-b115-fed06cf8dbf1","system_id":"levelo_inurba_marseille","lat":43.311722,"lon":5.387247,"is_reserved":false,"is_disabled":false,"rental_uris":{"android":"levelo://app?vid=14648f7f-ed02-42a0-b115-fed06cf8dbf1","ios":"levelo://app?vid=14648f7f-ed02-42a0-b115-fed06cf8dbf1"},"vehicle_type_id":"4","last_reported":1678668007,"current_range_meters":19600,"station_id":"ce4bgv12rcd13ifvqcp0","pricing_plan_id":"free"},{"bike_id":"d728da3b-f5f1-4eef-a643-45536ee5d4b8","system_id":"levelo_inurba_marseille","lat":43.311722,"lon":5.387247,"is_reserved":false,"is_disabled":false,"rental_uris":{"android":"levelo://app?vid=d728da3b-f5f1-4eef-a643-45536ee5d4b8","ios":"levelo://app?vid=d728da3b-f5f1-4eef-a643-45536ee5d4b8"},"vehicle_type_id":"4","last_reported":1678668007,"current_range_meters":0,"station_id":"ce4bgv12rcd13ifvqcp0","pricing_plan_id":"free"},{"bike_id":"ca3f983f-206a-480d-8649-e5152dd816ce","system_id":"levelo_inurba_marseille","lat":43.311722,"lon":5.387247,"is_reserved":false,"is_disabled":false,"rental_uris":{"android":"levelo://app?vid=ca3f983f-206a-480d-8649-e5152dd816ce","ios":"levelo://app?vid=ca3f983f-206a-480d-8649-e5152dd816ce"},"vehicle_type_id":"4","last_reported":1678668007,"current_range_meters":16400,"station_id":"ce4bgv12rcd13ifvqcp0","pricing_plan_id":"free"},{"bike_id":"de4a2d43-6a9f-4970-afcc-f987a53efc04","system_id":"levelo_inurba_marseille","lat":43.311722,"lon":5.387247,"is_reserved":false,"is_disabled":false,"rental_uris":{"android":"levelo://app?vid=de4a2d43-6a9f-4970-afcc-f987a53efc04","ios":"levelo://app?vid=de4a2d43-6a9f-4970-afcc-f987a53efc04"},"vehicle_type_id":"4","last_reported":1678668007,"current_range_meters":31600,"station_id":"ce4bgv12rcd13ifvqcp0","pricing_plan_id":"free"},{"bike_id":"9cc133f7-327f-4994-8273-3a226184bf40","system_id":"levelo_inurba_marseille","lat":43.311692,"lon":5.38716,"is_reserved":false,"is_disabled":false,"rental_uris":{"android":"levelo://app?vid=9cc133f7-327f-4994-8273-3a226184bf40","ios":"levelo://app?vid=9cc133f7-327f-4994-8273-3a226184bf40"},"vehicle_type_id":"4","last_reported":1678668007,"current_range_meters":0,"station_id":"","pricing_plan_id":"free"},{"bike_id":"c6319ee4-bb1d-4bed-942c-4ba248b86a60","system_id":"levelo_inurba_marseille","lat":43.297191,"lon":5.37657,"is_reserved":false,"is_disabled":false,"rental_uris":{"android":"levelo://app?vid=c6319ee4-bb1d-4bed-942c-4ba248b86a60","ios":"levelo://app?vid=c6319ee4-bb1d-4bed-942c-4ba248b86a60"},"vehicle_type_id":"4","last_reported":1678668007,"current_range_meters":0,"station_id":"","pricing_plan_id":"free"},{"bike_id":"1674f8b6-33e1-4edc-bed3-f74dd8766953","system_id":"levelo_inurba_marseille","lat":43.30955,"lon":5.39037,"is_reserved":false,"is_disabled":false,"rental_uris":{"android":"levelo://app?vid=1674f8b6-33e1-4edc-bed3-f74dd8766953","ios":"levelo://app?vid=1674f8b6-33e1-4edc-bed3-f74dd8766953"},"vehicle_type_id":"4","last_reported":1678668007,"current_range_meters":24000,"station_id":"","pricing_plan_id":"free"},{"bike_id":"631fe7a5-0e31-4c0e-93ca-6f30f658bbd7","system_id":"levelo_inurba_marseille","lat":43.31726,"lon":5.389957,"is_reserved":false,"is_disabled":false,"rental_uris":{"android":"levelo://app?vid=631fe7a5-0e31-4c0e-93ca-6f30f658bbd7","ios":"levelo://app?vid=631fe7a5-0e31-4c0e-93ca-6f30f658bbd7"},"vehicle_type_id":"4","last_reported":1678668007,"current_range_meters":24800,"station_id":"ce4bhqp2rcd13ifvqhng","pricing_plan_id":"free"},{"bike_id":"71c414ba-5bfe-438f-aed1-c0003f6e6312","system_id":"levelo_inurba_marseille","lat":43.299028,"lon":5.381509,"is_reserved":false,"is_disabled":false,"rental_uris":{"android":"levelo://app?vid=71c414ba-5bfe-438f-aed1-c0003f6e6312","ios":"levelo://app?vid=71c414ba-5bfe-438f-aed1-c0003f6e6312"},"vehicle_type_id":"4","last_reported":1678668007,"current_range_meters":4400,"station_id":"ce4bgj12rcd13ifvqbc0","pricing_plan_id":"free"},{"bike_id":"c925a46b-304c-48fd-970d-f1dfe031248f","system_id":"levelo_inurba_marseille","lat":43.295793,"lon":5.374991,"is_reserved":false,"is_disabled":false,"rental_uris":{"android":"levelo://app?vid=c925a46b-304c-48fd-970d-f1dfe031248f","ios":"levelo://app?vid=c925a46b-304c-48fd-970d-f1dfe031248f"},"vehicle_type_id":"4","last_reported":1678668007,"current_range_meters":0,"station_id":"ce4bgh92rcd13ifvqb50","pricing_plan_id":"free"},{"bike_id":"265bdc8b-200a-43b2-926f-8147753737ca","system_id":"levelo_inurba_marseille","lat":43.304278,"lon":5.388868,"is_reserved":false,"is_disabled":false,"rental_uris":{"android":"levelo://app?vid=265bdc8b-200a-43b2-926f-8147753737ca","ios":"levelo://app?vid=265bdc8b-200a-43b2-926f-8147753737ca"},"vehicle_type_id":"4","last_reported":1678668007,"current_range_meters":2000,"station_id":"ce4bgk12rcd13ifvqbi0","pricing_plan_id":"free"},{"bike_id":"d57938ba-8ac7-4bdf-81f6-f308d021fab4","system_id":"levelo_inurba_marseille","lat":43.29794,"lon":5.38115,"is_reserved":false,"is_disabled":false,"rental_uris":{"android":"levelo://app?vid=d57938ba-8ac7-4bdf-81f6-f308d021fab4","ios":"levelo://app?vid=d57938ba-8ac7-4bdf-81f6-f308d021fab4"},"vehicle_type_id":"4","last_reported":1678668007,"current_range_meters":0,"station_id":"ce4bgip2rcd13ifvqbb0","pricing_plan_id":"free"},{"bike_id":"41b9bdbf-cefc-4400-ba60-1553a7181c43","system_id":"levelo_inurba_marseille","lat":43.295279,"lon":5.375048,"is_reserved":false,"is_disabled":false,"rental_uris":{"android":"levelo://app?vid=41b9bdbf-cefc-4400-ba60-1553a7181c43","ios":"levelo://app?vid=41b9bdbf-cefc-4400-ba60-1553a7181c43"},"vehicle_type_id":"4","last_reported":1678668007,"current_range_meters":0,"station_id":"ce4bgkp2rcd13ifvqbmg","pricing_plan_id":"free"},{"bike_id":"1a0c3dc4-6e7f-409a-a344-9625418c0846","system_id":"levelo_inurba_marseille","lat":43.29964,"lon":5.38504,"is_reserved":false,"is_disabled":false,"rental_uris":{"android":"levelo://app?vid=1a0c3dc4-6e7f-409a-a344-9625418c0846","ios":"levelo://app?vid=1a0c3dc4-6e7f-409a-a344-9625418c0846"},"vehicle_type_id":"4","last_reported":1678668007,"current_range_meters":7600,"station_id":"ce4bgj92rcd13ifvqbd0","pricing_plan_id":"free"},{"bike_id":"afbc2c89-f1f0-4e21-b692-52ae893df334","system_id":"levelo_inurba_marseille","lat":43.313457,"lon":5.394882,"is_reserved":false,"is_disabled":false,"rental_uris":{"android":"levelo://app?vid=afbc2c89-f1f0-4e21-b692-52ae893df334","ios":"levelo://app?vid=afbc2c89-f1f0-4e21-b692-52ae893df334"},"vehicle_type_id":"4","last_reported":1678668007,"current_range_meters":0,"station_id":"","pricing_plan_id":"free"},{"bike_id":"a27eaf7a-c723-4e09-b9ab-b2c4fd9ac542","system_id":"levelo_inurba_marseille","lat":43.305994,"lon":5.393687,"is_reserved":false,"is_disabled":false,"rental_uris":{"android":"levelo://app?vid=a27eaf7a-c723-4e09-b9ab-b2c4fd9ac542","ios":"levelo://app?vid=a27eaf7a-c723-4e09-b9ab-b2c4fd9ac542"},"vehicle_type_id":"4","last_reported":1678668007,"current_range_meters":5600,"station_id":"ce4bh0p2rcd13ifvqd80","pricing_plan_id":"free"},{"bike_id":"62953f08-e2cc-4a6c-8638-96ac27945c25","system_id":"levelo_inurba_marseille","lat":43.293009,"lon":5.374584,"is_reserved":false,"is_disabled":false,"rental_uris":{"android":"levelo://app?vid=62953f08-e2cc-4a6c-8638-96ac27945c25","ios":"levelo://app?vid=62953f08-e2cc-4a6c-8638-96ac27945c25"},"vehicle_type_id":"4","last_reported":1678668007,"current_range_meters":18000,"station_id":"ce4bgi12rcd13ifvqb70","pricing_plan_id":"free"},{"bike_id":"bcbd3f11-3661-4e17-84d8-589c949eabd3","system_id":"levelo_inurba_marseille","lat":43.305994,"lon":5.393687,"is_reserved":false,"is_disabled":false,"rental_uris":{"android":"levelo://app?vid=bcbd3f11-3661-4e17-84d8-589c949eabd3","ios":"levelo://app?vid=bcbd3f11-3661-4e17-84d8-589c949eabd3"},"vehicle_type_id":"4","last_reported":1678668007,"current_range_meters":9600,"station_id":"ce4bh0p2rcd13ifvqd80","pricing_plan_id":"free"},{"bike_id":"ca19ec06-13d4-48f3-98d5-ef5e60e67cfd","system_id":"levelo_inurba_marseille","lat":43.293695,"lon":5.37835,"is_reserved":false,"is_disabled":false,"rental_uris":{"android":"levelo://app?vid=ca19ec06-13d4-48f3-98d5-ef5e60e67cfd","ios":"levelo://app?vid=ca19ec06-13d4-48f3-98d5-ef5e60e67cfd"},"vehicle_type_id":"4","last_reported":1678668007,"current_range_meters":0,"station_id":"ce4bgjh2rcd13ifvqbf0","pricing_plan_id":"free"},{"bike_id":"9b4aa143-4196-4c2d-a9af-e4a5d79b4692","system_id":"levelo_inurba_marseille","lat":43.298764,"lon":5.388973,"is_reserved":false,"is_disabled":false,"rental_uris":{"android":"levelo://app?vid=9b4aa143-4196-4c2d-a9af-e4a5d79b4692","ios":"levelo://app?vid=9b4aa143-4196-4c2d-a9af-e4a5d79b4692"},"vehicle_type_id":"4","last_reported":1678668007,"current_range_meters":22000,"station_id":"ce4bh392rcd13ifvqdl0","pricing_plan_id":"free"},{"bike_id":"48175dce-81ac-4622-84bd-8ff2d6c919ce","system_id":"levelo_inurba_marseille","lat":43.298764,"lon":5.388973,"is_reserved":false,"is_disabled":false,"rental_uris":{"android":"levelo://app?vid=48175dce-81ac-4622-84bd-8ff2d6c919ce","ios":"levelo://app?vid=48175dce-81ac-4622-84bd-8ff2d6c919ce"},"vehicle_type_id":"4","last_reported":1678668007,"current_range_meters":18400,"station_id":"ce4bh392rcd13ifvqdl0","pricing_plan_id":"free"},{"bike_id":"7fa9d0bd-8a18-450c-9903-43f5b1a4696c","system_id":"levelo_inurba_marseille","lat":43.298764,"lon":5.388973,"is_reserved":false,"is_disabled":false,"rental_uris":{"android":"levelo://app?vid=7fa9d0bd-8a18-450c-9903-43f5b1a4696c","ios":"levelo://app?vid=7fa9d0bd-8a18-450c-9903-43f5b1a4696c"},"vehicle_type_id":"4","last_reported":1678668007,"current_range_meters":17200,"station_id":"ce4bh392rcd13ifvqdl0","pricing_plan_id":"free"},{"bike_id":"8499c6f7-153f-469a-8c3f-b9614d854a4c","system_id":"levelo_inurba_marseille","lat":43.31333,"lon":5.39691,"is_reserved":false,"is_disabled":false,"rental_uris":{"android":"levelo://app?vid=8499c6f7-153f-469a-8c3f-b9614d854a4c","ios":"levelo://app?vid=8499c6f7-153f-469a-8c3f-b9614d854a4c"},"vehicle_type_id":"4","last_reported":1678668007,"current_range_meters":2400,"station_id":"ce4bgvp2rcd13ifvqcu0","pricing_plan_id":"free"},{"bike_id":"546a8573-e8f3-4ca5-82f0-8460584eb6ff","system_id":"levelo_inurba_marseille","lat":43.3133,"lon":5.39693,"is_reserved":false,"is_disabled":false,"rental_uris":{"android":"levelo://app?vid=546a8573-e8f3-4ca5-82f0-8460584eb6ff","ios":"levelo://app?vid=546a8573-e8f3-4ca5-82f0-8460584eb6ff"},"vehicle_type_id":"4","last_reported":1678668007,"current_range_meters":20800,"station_id":"","pricing_plan_id":"free"},{"bike_id":"e637d885-ea85-4bc1-a5c3-d7510e1e280c","system_id":"levelo_inurba_marseille","lat":43.31331,"lon":5.39693,"is_reserved":false,"is_disabled":false,"rental_uris":{"android":"levelo://app?vid=e637d885-ea85-4bc1-a5c3-d7510e1e280c","ios":"levelo://app?vid=e637d885-ea85-4bc1-a5c3-d7510e1e280c"},"vehicle_type_id":"4","last_reported":1678668007,"current_range_meters":5200,"station_id":"","pricing_plan_id":"free"},{"bike_id":"98c2ca01-735e-4c8c-b1f9-e33fe698d7c7","system_id":"levelo_inurba_marseille","lat":43.29529,"lon":5.385581,"is_reserved":false,"is_disabled":false,"rental_uris":{"android":"levelo://app?vid=98c2ca01-735e-4c8c-b1f9-e33fe698d7c7","ios":"levelo://app?vid=98c2ca01-735e-4c8c-b1f9-e33fe698d7c7"},"vehicle_type_id":"4","last_reported":1678668007,"current_range_meters":12800,"station_id":"ce4bgih2rcd13ifvqba0","pricing_plan_id":"free"},{"bike_id":"c2efb9ea-3643-41c2-a59f-49c48a559fef","system_id":"levelo_inurba_marseille","lat":43.322533,"lon":5.394633,"is_reserved":false,"is_disabled":false,"rental_uris":{"android":"levelo://app?vid=c2efb9ea-3643-41c2-a59f-49c48a559fef","ios":"levelo://app?vid=c2efb9ea-3643-41c2-a59f-49c48a559fef"},"vehicle_type_id":"4","last_reported":1678668007,"current_range_meters":13600,"station_id":"","pricing_plan_id":"free"},{"bike_id":"502b969f-9179-4102-93db-491ee164fbd2","system_id":"levelo_inurba_marseille","lat":43.290624,"lon":5.359245,"is_reserved":false,"is_disabled":false,"rental_uris":{"android":"levelo://app?vid=502b969f-9179-4102-93db-491ee164fbd2","ios":"levelo://app?vid=502b969f-9179-4102-93db-491ee164fbd2"},"vehicle_type_id":"4","last_reported":1678668007,"current_range_meters":27600,"station_id":"ce4bha92rcd13ifvqeg0","pricing_plan_id":"free"},{"bike_id":"4ae5bf9c-f3a0-4d96-90dc-4330f683b2be","system_id":"levelo_inurba_marseille","lat":43.290624,"lon":5.359245,"is_reserved":false,"is_disabled":false,"rental_uris":{"android":"levelo://app?vid=4ae5bf9c-f3a0-4d96-90dc-4330f683b2be","ios":"levelo://app?vid=4ae5bf9c-f3a0-4d96-90dc-4330f683b2be"},"vehicle_type_id":"4","last_reported":1678668007,"current_range_meters":6000,"station_id":"ce4bha92rcd13ifvqeg0","pricing_plan_id":"free"},{"bike_id":"f29eacb3-bed5-4725-8e45-7efcb9b469a8","system_id":"levelo_inurba_marseille","lat":43.28937,"lon":5.36631,"is_reserved":false,"is_disabled":false,"rental_uris":{"android":"levelo://app?vid=f29eacb3-bed5-4725-8e45-7efcb9b469a8","ios":"levelo://app?vid=f29eacb3-bed5-4725-8e45-7efcb9b469a8"},"vehicle_type_id":"4","last_reported":1678668007,"current_range_meters":22800,"station_id":"","pricing_plan_id":"free"},{"bike_id":"feb28912-94a7-412f-8dcd-ab2550497011","system_id":"levelo_inurba_marseille","lat":43.289184,"lon":5.366408,"is_reserved":false,"is_disabled":false,"rental_uris":{"android":"levelo://app?vid=feb28912-94a7-412f-8dcd-ab2550497011","ios":"levelo://app?vid=feb28912-94a7-412f-8dcd-ab2550497011"},"vehicle_type_id":"4","last_reported":1678668007,"current_range_meters":14800,"station_id":"ce4bhap2rcd13ifvqek0","pricing_plan_id":"free"},{"bike_id":"b3b6fcb3-0306-43af-92e1-57324fcd2e38","system_id":"levelo_inurba_marseille","lat":43.28936,"lon":5.36634,"is_reserved":false,"is_disabled":false,"rental_uris":{"android":"levelo://app?vid=b3b6fcb3-0306-43af-92e1-57324fcd2e38","ios":"levelo://app?vid=b3b6fcb3-0306-43af-92e1-57324fcd2e38"},"vehicle_type_id":"4","last_reported":1678668007,"current_range_meters":30400,"station_id":"","pricing_plan_id":"free"},{"bike_id":"5bbf4f11-2e2e-4d80-ae29-886cada9e8b1","system_id":"levelo_inurba_marseille","lat":43.289468,"lon":5.363719,"is_reserved":false,"is_disabled":false,"rental_uris":{"android":"levelo://app?vid=5bbf4f11-2e2e-4d80-ae29-886cada9e8b1","ios":"levelo://app?vid=5bbf4f11-2e2e-4d80-ae29-886cada9e8b1"},"vehicle_type_id":"4","last_reported":1678668007,"current_range_meters":31600,"station_id":"ce4bhc92rcd13ifvqetg","pricing_plan_id":"free"},{"bike_id":"03b8c4ad-6ec8-4f00-bffb-a135a9399191","system_id":"levelo_inurba_marseille","lat":43.289468,"lon":5.363719,"is_reserved":false,"is_disabled":false,"rental_uris":{"android":"levelo://app?vid=03b8c4ad-6ec8-4f00-bffb-a135a9399191","ios":"levelo://app?vid=03b8c4ad-6ec8-4f00-bffb-a135a9399191"},"vehicle_type_id":"4","last_reported":1678668007,"current_range_meters":22000,"station_id":"ce4bhc92rcd13ifvqetg","pricing_plan_id":"free"},{"bike_id":"b50e7039-1bb6-49a5-83be-2a333f028c91","system_id":"levelo_inurba_marseille","lat":43.289468,"lon":5.363719,"is_reserved":false,"is_disabled":false,"rental_uris":{"android":"levelo://app?vid=b50e7039-1bb6-49a5-83be-2a333f028c91","ios":"levelo://app?vid=b50e7039-1bb6-49a5-83be-2a333f028c91"},"vehicle_type_id":"4","last_reported":1678668007,"current_range_meters":31200,"station_id":"ce4bhc92rcd13ifvqetg","pricing_plan_id":"free"},{"bike_id":"6f3854a7-6dbc-41c0-90da-17535c29443a","system_id":"levelo_inurba_marseille","lat":43.289468,"lon":5.363719,"is_reserved":false,"is_disabled":false,"rental_uris":{"android":"levelo://app?vid=6f3854a7-6dbc-41c0-90da-17535c29443a","ios":"levelo://app?vid=6f3854a7-6dbc-41c0-90da-17535c29443a"},"vehicle_type_id":"4","last_reported":1678668007,"current_range_meters":21600,"station_id":"ce4bhc92rcd13ifvqetg","pricing_plan_id":"free"},{"bike_id":"444ea9cd-d864-47e1-a4c0-af205c3ea33f","system_id":"levelo_inurba_marseille","lat":43.330442,"lon":5.389148,"is_reserved":false,"is_disabled":false,"rental_uris":{"android":"levelo://app?vid=444ea9cd-d864-47e1-a4c0-af205c3ea33f","ios":"levelo://app?vid=444ea9cd-d864-47e1-a4c0-af205c3ea33f"},"vehicle_type_id":"4","last_reported":1678668007,"current_range_meters":16800,"station_id":"ce4bhr92rcd13ifvqhrg","pricing_plan_id":"free"},{"bike_id":"ec867014-d7c3-49d0-a94e-f547d31edc02","system_id":"levelo_inurba_marseille","lat":43.33045,"lon":5.3892,"is_reserved":false,"is_disabled":false,"rental_uris":{"android":"levelo://app?vid=ec867014-d7c3-49d0-a94e-f547d31edc02","ios":"levelo://app?vid=ec867014-d7c3-49d0-a94e-f547d31edc02"},"vehicle_type_id":"4","last_reported":1678668007,"current_range_meters":0,"station_id":"","pricing_plan_id":"free"},{"bike_id":"133d5d80-049d-465f-99ac-0f3d1a1117cc","system_id":"levelo_inurba_marseille","lat":43.290104,"lon":5.356111,"is_reserved":false,"is_disabled":false,"rental_uris":{"android":"levelo://app?vid=133d5d80-049d-465f-99ac-0f3d1a1117cc","ios":"levelo://app?vid=133d5d80-049d-465f-99ac-0f3d1a1117cc"},"vehicle_type_id":"4","last_reported":1678668007,"current_range_meters":12800,"station_id":"ce4bhb92rcd13ifvqen0","pricing_plan_id":"free"},{"bike_id":"436d82e8-87b1-43b0-b50d-e185417984bf","system_id":"levelo_inurba_marseille","lat":43.290104,"lon":5.356111,"is_reserved":false,"is_disabled":false,"rental_uris":{"android":"levelo://app?vid=436d82e8-87b1-43b0-b50d-e185417984bf","ios":"levelo://app?vid=436d82e8-87b1-43b0-b50d-e185417984bf"},"vehicle_type_id":"4","last_reported":1678668007,"current_range_meters":0,"station_id":"ce4bhb92rcd13ifvqen0","pricing_plan_id":"free"},{"bike_id":"0678080e-4815-40e4-a6f8-a899a60b4fbb","system_id":"levelo_inurba_marseille","lat":43.289787,"lon":5.378384,"is_reserved":false,"is_disabled":false,"rental_uris":{"android":"levelo://app?vid=0678080e-4815-40e4-a6f8-a899a60b4fbb","ios":"levelo://app?vid=0678080e-4815-40e4-a6f8-a899a60b4fbb"},"vehicle_type_id":"4","last_reported":1678668007,"current_range_meters":9600,"station_id":"","pricing_plan_id":"free"},{"bike_id":"ab038d84-b8e2-4d12-8588-b66cc924b8b7","system_id":"levelo_inurba_marseille","lat":43.289776,"lon":5.37841,"is_reserved":false,"is_disabled":false,"rental_uris":{"android":"levelo://app?vid=ab038d84-b8e2-4d12-8588-b66cc924b8b7","ios":"levelo://app?vid=ab038d84-b8e2-4d12-8588-b66cc924b8b7"},"vehicle_type_id":"4","last_reported":1678668007,"current_range_meters":24800,"station_id":"ce4bh9p2rcd13ifvqed0","pricing_plan_id":"free"},{"bike_id":"1858d2d4-35d0-4bdc-aad5-6875cdb33fff","system_id":"levelo_inurba_marseille","lat":43.289763,"lon":5.378377,"is_reserved":false,"is_disabled":false,"rental_uris":{"android":"levelo://app?vid=1858d2d4-35d0-4bdc-aad5-6875cdb33fff","ios":"levelo://app?vid=1858d2d4-35d0-4bdc-aad5-6875cdb33fff"},"vehicle_type_id":"4","last_reported":1678668007,"current_range_meters":14000,"station_id":"","pricing_plan_id":"free"},{"bike_id":"ed1e7f20-cf6d-42a3-ba9d-c006cd5a14b3","system_id":"levelo_inurba_marseille","lat":43.295169,"lon":5.390426,"is_reserved":false,"is_disabled":false,"rental_uris":{"android":"levelo://app?vid=ed1e7f20-cf6d-42a3-ba9d-c006cd5a14b3","ios":"levelo://app?vid=ed1e7f20-cf6d-42a3-ba9d-c006cd5a14b3"},"vehicle_type_id":"4","last_reported":1678668007,"current_range_meters":20000,"station_id":"ce4bh3p2rcd13ifvqdp0","pricing_plan_id":"free"},{"bike_id":"411716ec-dad7-47c6-b374-09cd0bf001dc","system_id":"levelo_inurba_marseille","lat":43.28856,"lon":5.358371,"is_reserved":false,"is_disabled":false,"rental_uris":{"android":"levelo://app?vid=411716ec-dad7-47c6-b374-09cd0bf001dc","ios":"levelo://app?vid=411716ec-dad7-47c6-b374-09cd0bf001dc"},"vehicle_type_id":"4","last_reported":1678668007,"current_range_meters":30000,"station_id":"ce4bhb12rcd13ifvqem0","pricing_plan_id":"free"},{"bike_id":"cd3f9b1f-6795-470a-9733-b67028abf34d","system_id":"levelo_inurba_marseille","lat":43.28856,"lon":5.358371,"is_reserved":false,"is_disabled":false,"rental_uris":{"android":"levelo://app?vid=cd3f9b1f-6795-470a-9733-b67028abf34d","ios":"levelo://app?vid=cd3f9b1f-6795-470a-9733-b67028abf34d"},"vehicle_type_id":"4","last_reported":1678668007,"current_range_meters":29200,"station_id":"ce4bhb12rcd13ifvqem0","pricing_plan_id":"free"},{"bike_id":"7ec322c6-f8b9-4f82-ae38-798351da813c","system_id":"levelo_inurba_marseille","lat":43.288497,"lon":5.358483,"is_reserved":false,"is_disabled":false,"rental_uris":{"android":"levelo://app?vid=7ec322c6-f8b9-4f82-ae38-798351da813c","ios":"levelo://app?vid=7ec322c6-f8b9-4f82-ae38-798351da813c"},"vehicle_type_id":"4","last_reported":1678668007,"current_range_meters":4400,"station_id":"ce4bhb12rcd13ifvqem0","pricing_plan_id":"free"},{"bike_id":"668bfe00-daa4-4575-869a-2cdfaff24d6a","system_id":"levelo_inurba_marseille","lat":43.30642,"lon":5.401031,"is_reserved":false,"is_disabled":false,"rental_uris":{"android":"levelo://app?vid=668bfe00-daa4-4575-869a-2cdfaff24d6a","ios":"levelo://app?vid=668bfe00-daa4-4575-869a-2cdfaff24d6a"},"vehicle_type_id":"4","last_reported":1678668007,"current_range_meters":6000,"station_id":"ce4bh112rcd13ifvqda0","pricing_plan_id":"free"},{"bike_id":"0665f26a-19c7-4715-9fef-5dc8d2ed1329","system_id":"levelo_inurba_marseille","lat":43.30644,"lon":5.40077,"is_reserved":false,"is_disabled":false,"rental_uris":{"android":"levelo://app?vid=0665f26a-19c7-4715-9fef-5dc8d2ed1329","ios":"levelo://app?vid=0665f26a-19c7-4715-9fef-5dc8d2ed1329"},"vehicle_type_id":"4","last_reported":1678668007,"current_range_meters":1200,"station_id":"","pricing_plan_id":"free"},{"bike_id":"6785c485-fde6-4128-b5fb-56d98af1442f","system_id":"levelo_inurba_marseille","lat":43.30642,"lon":5.401031,"is_reserved":false,"is_disabled":false,"rental_uris":{"android":"levelo://app?vid=6785c485-fde6-4128-b5fb-56d98af1442f","ios":"levelo://app?vid=6785c485-fde6-4128-b5fb-56d98af1442f"},"vehicle_type_id":"4","last_reported":1678668007,"current_range_meters":12400,"station_id":"ce4bh112rcd13ifvqda0","pricing_plan_id":"free"},{"bike_id":"8b15a270-d728-4e18-b715-6f54bcb9cdb6","system_id":"levelo_inurba_marseille","lat":43.30642,"lon":5.401031,"is_reserved":false,"is_disabled":false,"rental_uris":{"android":"levelo://app?vid=8b15a270-d728-4e18-b715-6f54bcb9cdb6","ios":"levelo://app?vid=8b15a270-d728-4e18-b715-6f54bcb9cdb6"},"vehicle_type_id":"4","last_reported":1678668007,"current_range_meters":22800,"station_id":"ce4bh112rcd13ifvqda0","pricing_plan_id":"free"},{"bike_id":"8ca39b63-cce5-44b4-b7fd-287f26d38d4f","system_id":"levelo_inurba_marseille","lat":43.30642,"lon":5.401031,"is_reserved":false,"is_disabled":false,"rental_uris":{"android":"levelo://app?vid=8ca39b63-cce5-44b4-b7fd-287f26d38d4f","ios":"levelo://app?vid=8ca39b63-cce5-44b4-b7fd-287f26d38d4f"},"vehicle_type_id":"4","last_reported":1678668007,"current_range_meters":3200,"station_id":"ce4bh112rcd13ifvqda0","pricing_plan_id":"free"},{"bike_id":"f759bb27-4162-4568-8260-e181267a6c55","system_id":"levelo_inurba_marseille","lat":43.301117,"lon":5.398795,"is_reserved":false,"is_disabled":false,"rental_uris":{"android":"levelo://app?vid=f759bb27-4162-4568-8260-e181267a6c55","ios":"levelo://app?vid=f759bb27-4162-4568-8260-e181267a6c55"},"vehicle_type_id":"4","last_reported":1678668007,"current_range_meters":26400,"station_id":"ce4bh0h2rcd13ifvqd40","pricing_plan_id":"free"},{"bike_id":"9ae8db53-cb6c-4000-881e-ba4e2b3a9785","system_id":"levelo_inurba_marseille","lat":43.301117,"lon":5.398795,"is_reserved":false,"is_disabled":false,"rental_uris":{"android":"levelo://app?vid=9ae8db53-cb6c-4000-881e-ba4e2b3a9785","ios":"levelo://app?vid=9ae8db53-cb6c-4000-881e-ba4e2b3a9785"},"vehicle_type_id":"4","last_reported":1678668007,"current_range_meters":24800,"station_id":"ce4bh0h2rcd13ifvqd40","pricing_plan_id":"free"},{"bike_id":"e2144990-68b3-46fe-acab-46f272ff8c7f","system_id":"levelo_inurba_marseille","lat":43.298681,"lon":5.397225,"is_reserved":false,"is_disabled":false,"rental_uris":{"android":"levelo://app?vid=e2144990-68b3-46fe-acab-46f272ff8c7f","ios":"levelo://app?vid=e2144990-68b3-46fe-acab-46f272ff8c7f"},"vehicle_type_id":"4","last_reported":1678668007,"current_range_meters":30000,"station_id":"ce4bh0h2rcd13ifvqd50","pricing_plan_id":"free"},{"bike_id":"cab8ca37-1ef7-4611-9d50-8b552a8c42dd","system_id":"levelo_inurba_marseille","lat":43.286593,"lon":5.363346,"is_reserved":false,"is_disabled":false,"rental_uris":{"android":"levelo://app?vid=cab8ca37-1ef7-4611-9d50-8b552a8c42dd","ios":"levelo://app?vid=cab8ca37-1ef7-4611-9d50-8b552a8c42dd"},"vehicle_type_id":"4","last_reported":1678668007,"current_range_meters":29600,"station_id":"ce4bhah2rcd13ifvqej0","pricing_plan_id":"free"},{"bike_id":"b65eead5-6de8-4edf-a837-cf8d0954dd58","system_id":"levelo_inurba_marseille","lat":43.286593,"lon":5.363346,"is_reserved":false,"is_disabled":false,"rental_uris":{"android":"levelo://app?vid=b65eead5-6de8-4edf-a837-cf8d0954dd58","ios":"levelo://app?vid=b65eead5-6de8-4edf-a837-cf8d0954dd58"},"vehicle_type_id":"4","last_reported":1678668007,"current_range_meters":0,"station_id":"ce4bhah2rcd13ifvqej0","pricing_plan_id":"free"},{"bike_id":"3ca84fb6-6700-4b41-98b0-86d9938dbd55","system_id":"levelo_inurba_marseille","lat":43.286593,"lon":5.363346,"is_reserved":false,"is_disabled":false,"rental_uris":{"android":"levelo://app?vid=3ca84fb6-6700-4b41-98b0-86d9938dbd55","ios":"levelo://app?vid=3ca84fb6-6700-4b41-98b0-86d9938dbd55"},"vehicle_type_id":"4","last_reported":1678668007,"current_range_meters":29200,"station_id":"ce4bhah2rcd13ifvqej0","pricing_plan_id":"free"},{"bike_id":"44bc1d77-8cdc-421f-b68a-c1fa10da1014","system_id":"levelo_inurba_marseille","lat":43.298681,"lon":5.397225,"is_reserved":false,"is_disabled":false,"rental_uris":{"android":"levelo://app?vid=44bc1d77-8cdc-421f-b68a-c1fa10da1014","ios":"levelo://app?vid=44bc1d77-8cdc-421f-b68a-c1fa10da1014"},"vehicle_type_id":"4","last_reported":1678668007,"current_range_meters":20800,"station_id":"ce4bh0h2rcd13ifvqd50","pricing_plan_id":"free"},{"bike_id":"f0adb541-1343-4fcf-a961-58067645773a","system_id":"levelo_inurba_marseille","lat":43.286593,"lon":5.363346,"is_reserved":false,"is_disabled":false,"rental_uris":{"android":"levelo://app?vid=f0adb541-1343-4fcf-a961-58067645773a","ios":"levelo://app?vid=f0adb541-1343-4fcf-a961-58067645773a"},"vehicle_type_id":"4","last_reported":1678668007,"current_range_meters":0,"station_id":"ce4bhah2rcd13ifvqej0","pricing_plan_id":"free"},{"bike_id":"b68a8815-0fb2-4d86-80c6-b76dea458ff0","system_id":"levelo_inurba_marseille","lat":43.298681,"lon":5.397225,"is_reserved":false,"is_disabled":false,"rental_uris":{"android":"levelo://app?vid=b68a8815-0fb2-4d86-80c6-b76dea458ff0","ios":"levelo://app?vid=b68a8815-0fb2-4d86-80c6-b76dea458ff0"},"vehicle_type_id":"4","last_reported":1678668007,"current_range_meters":28400,"station_id":"ce4bh0h2rcd13ifvqd50","pricing_plan_id":"free"},{"bike_id":"fa77a1a2-3b12-44b5-8bc3-b049ab0bc796","system_id":"levelo_inurba_marseille","lat":43.295216,"lon":5.393974,"is_reserved":false,"is_disabled":false,"rental_uris":{"android":"levelo://app?vid=fa77a1a2-3b12-44b5-8bc3-b049ab0bc796","ios":"levelo://app?vid=fa77a1a2-3b12-44b5-8bc3-b049ab0bc796"},"vehicle_type_id":"4","last_reported":1678668007,"current_range_meters":31600,"station_id":"ce4bh212rcd13ifvqde0","pricing_plan_id":"free"},{"bike_id":"8083d8c1-f039-4429-bc18-ff6eff75eeeb","system_id":"levelo_inurba_marseille","lat":43.29513,"lon":5.39395,"is_reserved":false,"is_disabled":false,"rental_uris":{"android":"levelo://app?vid=8083d8c1-f039-4429-bc18-ff6eff75eeeb","ios":"levelo://app?vid=8083d8c1-f039-4429-bc18-ff6eff75eeeb"},"vehicle_type_id":"4","last_reported":1678668007,"current_range_meters":5600,"station_id":"ce4bh212rcd13ifvqde0","pricing_plan_id":"free"},{"bike_id":"678b6dc3-5d97-45bd-b4da-800a42622684","system_id":"levelo_inurba_marseille","lat":43.295132,"lon":5.393968,"is_reserved":false,"is_disabled":false,"rental_uris":{"android":"levelo://app?vid=678b6dc3-5d97-45bd-b4da-800a42622684","ios":"levelo://app?vid=678b6dc3-5d97-45bd-b4da-800a42622684"},"vehicle_type_id":"4","last_reported":1678668007,"current_range_meters":22800,"station_id":"ce4bh212rcd13ifvqde0","pricing_plan_id":"free"},{"bike_id":"5858f89d-dd40-4b50-86ba-fa8497d1aab8","system_id":"levelo_inurba_marseille","lat":43.295157,"lon":5.394003,"is_reserved":false,"is_disabled":false,"rental_uris":{"android":"levelo://app?vid=5858f89d-dd40-4b50-86ba-fa8497d1aab8","ios":"levelo://app?vid=5858f89d-dd40-4b50-86ba-fa8497d1aab8"},"vehicle_type_id":"4","last_reported":1678668007,"current_range_meters":20400,"station_id":"ce4bh212rcd13ifvqde0","pricing_plan_id":"free"},{"bike_id":"4cb2f82e-9bf8-4dbe-acd3-284268f214fe","system_id":"levelo_inurba_marseille","lat":43.295153,"lon":5.394021,"is_reserved":false,"is_disabled":false,"rental_uris":{"android":"levelo://app?vid=4cb2f82e-9bf8-4dbe-acd3-284268f214fe","ios":"levelo://app?vid=4cb2f82e-9bf8-4dbe-acd3-284268f214fe"},"vehicle_type_id":"4","last_reported":1678668007,"current_range_meters":800,"station_id":"ce4bh212rcd13ifvqde0","pricing_plan_id":"free"},{"bike_id":"1bbbb34b-9fa0-48d5-ae27-bd59b50aebfb","system_id":"levelo_inurba_marseille","lat":43.302759,"lon":5.400793,"is_reserved":false,"is_disabled":false,"rental_uris":{"android":"levelo://app?vid=1bbbb34b-9fa0-48d5-ae27-bd59b50aebfb","ios":"levelo://app?vid=1bbbb34b-9fa0-48d5-ae27-bd59b50aebfb"},"vehicle_type_id":"4","last_reported":1678668007,"current_range_meters":20000,"station_id":"ce4bgvh2rcd13ifvqcs0","pricing_plan_id":"free"},{"bike_id":"a1c2a6b7-054f-4bd4-b36b-3bd14bea6bcc","system_id":"levelo_inurba_marseille","lat":43.302759,"lon":5.400793,"is_reserved":false,"is_disabled":false,"rental_uris":{"android":"levelo://app?vid=a1c2a6b7-054f-4bd4-b36b-3bd14bea6bcc","ios":"levelo://app?vid=a1c2a6b7-054f-4bd4-b36b-3bd14bea6bcc"},"vehicle_type_id":"4","last_reported":1678668007,"current_range_meters":8400,"station_id":"ce4bgvh2rcd13ifvqcs0","pricing_plan_id":"free"},{"bike_id":"934c6068-2377-4ddc-8555-985a0e03aeee","system_id":"levelo_inurba_marseille","lat":43.2903,"lon":5.38638,"is_reserved":false,"is_disabled":false,"rental_uris":{"android":"levelo://app?vid=934c6068-2377-4ddc-8555-985a0e03aeee","ios":"levelo://app?vid=934c6068-2377-4ddc-8555-985a0e03aeee"},"vehicle_type_id":"4","last_reported":1678668007,"current_range_meters":19200,"station_id":"ce4bh4p2rcd13ifvqe0g","pricing_plan_id":"free"},{"bike_id":"67a7ba44-7953-48b5-85af-9f3005e692ef","system_id":"levelo_inurba_marseille","lat":43.29027,"lon":5.38647,"is_reserved":false,"is_disabled":false,"rental_uris":{"android":"levelo://app?vid=67a7ba44-7953-48b5-85af-9f3005e692ef","ios":"levelo://app?vid=67a7ba44-7953-48b5-85af-9f3005e692ef"},"vehicle_type_id":"4","last_reported":1678668007,"current_range_meters":28000,"station_id":"ce4bh4p2rcd13ifvqe0g","pricing_plan_id":"free"},{"bike_id":"916a6e40-859d-4d7e-a716-264e7ae82484","system_id":"levelo_inurba_marseille","lat":43.302759,"lon":5.400793,"is_reserved":false,"is_disabled":false,"rental_uris":{"android":"levelo://app?vid=916a6e40-859d-4d7e-a716-264e7ae82484","ios":"levelo://app?vid=916a6e40-859d-4d7e-a716-264e7ae82484"},"vehicle_type_id":"4","last_reported":1678668007,"current_range_meters":0,"station_id":"ce4bgvh2rcd13ifvqcs0","pricing_plan_id":"free"},{"bike_id":"fac0a16e-ee50-4f09-a8b5-3f19285763af","system_id":"levelo_inurba_marseille","lat":43.286039,"lon":5.370681,"is_reserved":false,"is_disabled":false,"rental_uris":{"android":"levelo://app?vid=fac0a16e-ee50-4f09-a8b5-3f19285763af","ios":"levelo://app?vid=fac0a16e-ee50-4f09-a8b5-3f19285763af"},"vehicle_type_id":"4","last_reported":1678668007,"current_range_meters":0,"station_id":"ce4bht12rcd13ifvqi60","pricing_plan_id":"free"},{"bike_id":"f4f53740-5be9-47f7-a7b0-2c585cf72e09","system_id":"levelo_inurba_marseille","lat":43.2861,"lon":5.3707,"is_reserved":false,"is_disabled":false,"rental_uris":{"android":"levelo://app?vid=f4f53740-5be9-47f7-a7b0-2c585cf72e09","ios":"levelo://app?vid=f4f53740-5be9-47f7-a7b0-2c585cf72e09"},"vehicle_type_id":"4","last_reported":1678668007,"current_range_meters":0,"station_id":"","pricing_plan_id":"free"},{"bike_id":"f14ea414-65ba-4880-b800-7fbc82d692bf","system_id":"levelo_inurba_marseille","lat":43.287185,"lon":5.379373,"is_reserved":false,"is_disabled":false,"rental_uris":{"android":"levelo://app?vid=f14ea414-65ba-4880-b800-7fbc82d692bf","ios":"levelo://app?vid=f14ea414-65ba-4880-b800-7fbc82d692bf"},"vehicle_type_id":"4","last_reported":1678668007,"current_range_meters":0,"station_id":"ce4bh9p2rcd13ifvqec0","pricing_plan_id":"free"},{"bike_id":"da49e252-a807-4b3f-8e7a-89a8f7e80b16","system_id":"levelo_inurba_marseille","lat":43.316517,"lon":5.404375,"is_reserved":false,"is_disabled":false,"rental_uris":{"android":"levelo://app?vid=da49e252-a807-4b3f-8e7a-89a8f7e80b16","ios":"levelo://app?vid=da49e252-a807-4b3f-8e7a-89a8f7e80b16"},"vehicle_type_id":"4","last_reported":1678668007,"current_range_meters":0,"station_id":"ce4bh012rcd13ifvqd00","pricing_plan_id":"free"},{"bike_id":"757265b1-f2f1-4ba0-a638-29463a108660","system_id":"levelo_inurba_marseille","lat":43.284538,"lon":5.358657,"is_reserved":false,"is_disabled":false,"rental_uris":{"android":"levelo://app?vid=757265b1-f2f1-4ba0-a638-29463a108660","ios":"levelo://app?vid=757265b1-f2f1-4ba0-a638-29463a108660"},"vehicle_type_id":"4","last_reported":1678668007,"current_range_meters":2800,"station_id":"ce4bhah2rcd13ifvqei0","pricing_plan_id":"free"},{"bike_id":"b1ef9f17-6a37-4609-9316-0d29903e6c7c","system_id":"levelo_inurba_marseille","lat":43.284534,"lon":5.358662,"is_reserved":false,"is_disabled":false,"rental_uris":{"android":"levelo://app?vid=b1ef9f17-6a37-4609-9316-0d29903e6c7c","ios":"levelo://app?vid=b1ef9f17-6a37-4609-9316-0d29903e6c7c"},"vehicle_type_id":"4","last_reported":1678668007,"current_range_meters":2800,"station_id":"ce4bhah2rcd13ifvqei0","pricing_plan_id":"free"},{"bike_id":"2c392f95-7b8e-4557-b0c0-b421da857efe","system_id":"levelo_inurba_marseille","lat":43.284534,"lon":5.358662,"is_reserved":false,"is_disabled":false,"rental_uris":{"android":"levelo://app?vid=2c392f95-7b8e-4557-b0c0-b421da857efe","ios":"levelo://app?vid=2c392f95-7b8e-4557-b0c0-b421da857efe"},"vehicle_type_id":"4","last_reported":1678668007,"current_range_meters":12800,"station_id":"ce4bhah2rcd13ifvqei0","pricing_plan_id":"free"},{"bike_id":"e5b7a53e-5191-40b6-874d-2ac1985e9d6c","system_id":"levelo_inurba_marseille","lat":43.284534,"lon":5.358662,"is_reserved":false,"is_disabled":false,"rental_uris":{"android":"levelo://app?vid=e5b7a53e-5191-40b6-874d-2ac1985e9d6c","ios":"levelo://app?vid=e5b7a53e-5191-40b6-874d-2ac1985e9d6c"},"vehicle_type_id":"4","last_reported":1678668007,"current_range_meters":2800,"station_id":"ce4bhah2rcd13ifvqei0","pricing_plan_id":"free"},{"bike_id":"3e2126ee-0211-4208-802b-f2fbad65e601","system_id":"levelo_inurba_marseille","lat":43.284534,"lon":5.358662,"is_reserved":false,"is_disabled":false,"rental_uris":{"android":"levelo://app?vid=3e2126ee-0211-4208-802b-f2fbad65e601","ios":"levelo://app?vid=3e2126ee-0211-4208-802b-f2fbad65e601"},"vehicle_type_id":"4","last_reported":1678668007,"current_range_meters":9600,"station_id":"ce4bhah2rcd13ifvqei0","pricing_plan_id":"free"},{"bike_id":"d8e2015a-e989-49ff-9221-4b33e330649c","system_id":"levelo_inurba_marseille","lat":43.284534,"lon":5.358662,"is_reserved":false,"is_disabled":false,"rental_uris":{"android":"levelo://app?vid=d8e2015a-e989-49ff-9221-4b33e330649c","ios":"levelo://app?vid=d8e2015a-e989-49ff-9221-4b33e330649c"},"vehicle_type_id":"4","last_reported":1678668007,"current_range_meters":1600,"station_id":"ce4bhah2rcd13ifvqei0","pricing_plan_id":"free"},{"bike_id":"6e009b25-f22a-4c9e-b2b2-34327ac8ff8f","system_id":"levelo_inurba_marseille","lat":43.284534,"lon":5.358662,"is_reserved":false,"is_disabled":false,"rental_uris":{"android":"levelo://app?vid=6e009b25-f22a-4c9e-b2b2-34327ac8ff8f","ios":"levelo://app?vid=6e009b25-f22a-4c9e-b2b2-34327ac8ff8f"},"vehicle_type_id":"4","last_reported":1678668007,"current_range_meters":22400,"station_id":"ce4bhah2rcd13ifvqei0","pricing_plan_id":"free"},{"bike_id":"ddd6bbb4-cb84-4e7b-bb5a-3cbff728381c","system_id":"levelo_inurba_marseille","lat":43.286595,"lon":5.386795,"is_reserved":false,"is_disabled":false,"rental_uris":{"android":"levelo://app?vid=ddd6bbb4-cb84-4e7b-bb5a-3cbff728381c","ios":"levelo://app?vid=ddd6bbb4-cb84-4e7b-bb5a-3cbff728381c"},"vehicle_type_id":"4","last_reported":1678668007,"current_range_meters":15200,"station_id":"ce4bh492rcd13ifvqdug","pricing_plan_id":"free"},{"bike_id":"f389488b-00c7-4564-ac95-727af7a75f77","system_id":"levelo_inurba_marseille","lat":43.32336,"lon":5.40619,"is_reserved":false,"is_disabled":false,"rental_uris":{"android":"levelo://app?vid=f389488b-00c7-4564-ac95-727af7a75f77","ios":"levelo://app?vid=f389488b-00c7-4564-ac95-727af7a75f77"},"vehicle_type_id":"4","last_reported":1678668007,"current_range_meters":11600,"station_id":"","pricing_plan_id":"free"},{"bike_id":"3e5fdd79-897d-484c-b748-5f23973f5e2b","system_id":"levelo_inurba_marseille","lat":43.270721,"lon":5.422764,"is_reserved":false,"is_disabled":false,"rental_uris":{"android":"levelo://app?vid=3e5fdd79-897d-484c-b748-5f23973f5e2b","ios":"levelo://app?vid=3e5fdd79-897d-484c-b748-5f23973f5e2b"},"vehicle_type_id":"4","last_reported":1678668007,"current_range_meters":16800,"station_id":"ce4bhk92rcd13ifvqgb0","pricing_plan_id":"free"},{"bike_id":"eb413d9b-de53-484e-8d3c-d421fdf108d7","system_id":"levelo_inurba_marseille","lat":43.288497,"lon":5.393089,"is_reserved":false,"is_disabled":false,"rental_uris":{"android":"levelo://app?vid=eb413d9b-de53-484e-8d3c-d421fdf108d7","ios":"levelo://app?vid=eb413d9b-de53-484e-8d3c-d421fdf108d7"},"vehicle_type_id":"4","last_reported":1678668007,"current_range_meters":22000,"station_id":"ce4bh2p2rcd13ifvqdi0","pricing_plan_id":"free"},{"bike_id":"1dba8002-b3c6-4b79-a02f-26af725e23f1","system_id":"levelo_inurba_marseille","lat":43.288497,"lon":5.393089,"is_reserved":false,"is_disabled":false,"rental_uris":{"android":"levelo://app?vid=1dba8002-b3c6-4b79-a02f-26af725e23f1","ios":"levelo://app?vid=1dba8002-b3c6-4b79-a02f-26af725e23f1"},"vehicle_type_id":"4","last_reported":1678668007,"current_range_meters":10800,"station_id":"ce4bh2p2rcd13ifvqdi0","pricing_plan_id":"free"},{"bike_id":"cdb8412a-9b6b-41e9-87e2-23a847c774f3","system_id":"levelo_inurba_marseille","lat":43.284219,"lon":5.3497,"is_reserved":false,"is_disabled":false,"rental_uris":{"android":"levelo://app?vid=cdb8412a-9b6b-41e9-87e2-23a847c774f3","ios":"levelo://app?vid=cdb8412a-9b6b-41e9-87e2-23a847c774f3"},"vehicle_type_id":"4","last_reported":1678668007,"current_range_meters":12800,"station_id":"ce4bhbh2rcd13ifvqepg","pricing_plan_id":"free"},{"bike_id":"55a43897-7dce-4522-8ca0-002698e1d8ac","system_id":"levelo_inurba_marseille","lat":43.288497,"lon":5.393089,"is_reserved":false,"is_disabled":false,"rental_uris":{"android":"levelo://app?vid=55a43897-7dce-4522-8ca0-002698e1d8ac","ios":"levelo://app?vid=55a43897-7dce-4522-8ca0-002698e1d8ac"},"vehicle_type_id":"4","last_reported":1678668007,"current_range_meters":8800,"station_id":"ce4bh2p2rcd13ifvqdi0","pricing_plan_id":"free"},{"bike_id":"ddbbbbff-4a04-40a5-96f7-8aaeeaeab9a2","system_id":"levelo_inurba_marseille","lat":43.289363,"lon":5.396322,"is_reserved":false,"is_disabled":false,"rental_uris":{"android":"levelo://app?vid=ddbbbbff-4a04-40a5-96f7-8aaeeaeab9a2","ios":"levelo://app?vid=ddbbbbff-4a04-40a5-96f7-8aaeeaeab9a2"},"vehicle_type_id":"4","last_reported":1678668007,"current_range_meters":18400,"station_id":"ce4bh3h2rcd13ifvqdn0","pricing_plan_id":"free"},{"bike_id":"070dd43f-79de-4f5d-a556-fbf0e620030a","system_id":"levelo_inurba_marseille","lat":43.289363,"lon":5.396322,"is_reserved":false,"is_disabled":false,"rental_uris":{"android":"levelo://app?vid=070dd43f-79de-4f5d-a556-fbf0e620030a","ios":"levelo://app?vid=070dd43f-79de-4f5d-a556-fbf0e620030a"},"vehicle_type_id":"4","last_reported":1678668007,"current_range_meters":14800,"station_id":"ce4bh3h2rcd13ifvqdn0","pricing_plan_id":"free"},{"bike_id":"515ff452-ae9b-4050-b17f-41093d4b8871","system_id":"levelo_inurba_marseille","lat":43.282806,"lon":5.350734,"is_reserved":false,"is_disabled":false,"rental_uris":{"android":"levelo://app?vid=515ff452-ae9b-4050-b17f-41093d4b8871","ios":"levelo://app?vid=515ff452-ae9b-4050-b17f-41093d4b8871"},"vehicle_type_id":"4","last_reported":1678668007,"current_range_meters":14000,"station_id":"ce4bhbp2rcd13ifvqerg","pricing_plan_id":"free"},{"bike_id":"940e4c5d-e934-4d7b-a727-6d827eb1269e","system_id":"levelo_inurba_marseille","lat":43.282744,"lon":5.350533,"is_reserved":false,"is_disabled":false,"rental_uris":{"android":"levelo://app?vid=940e4c5d-e934-4d7b-a727-6d827eb1269e","ios":"levelo://app?vid=940e4c5d-e934-4d7b-a727-6d827eb1269e"},"vehicle_type_id":"4","last_reported":1678668007,"current_range_meters":2800,"station_id":"ce4bhbp2rcd13ifvqerg","pricing_plan_id":"free"},{"bike_id":"7d66fb51-8c7c-4ac0-9d63-acbf066dc94e","system_id":"levelo_inurba_marseille","lat":43.282686,"lon":5.350575,"is_reserved":false,"is_disabled":false,"rental_uris":{"android":"levelo://app?vid=7d66fb51-8c7c-4ac0-9d63-acbf066dc94e","ios":"levelo://app?vid=7d66fb51-8c7c-4ac0-9d63-acbf066dc94e"},"vehicle_type_id":"4","last_reported":1678668007,"current_range_meters":21200,"station_id":"","pricing_plan_id":"free"},{"bike_id":"bef7987b-84a7-430d-b955-1236da8457c7","system_id":"levelo_inurba_marseille","lat":43.28039,"lon":5.369297,"is_reserved":false,"is_disabled":false,"rental_uris":{"android":"levelo://app?vid=bef7987b-84a7-430d-b955-1236da8457c7","ios":"levelo://app?vid=bef7987b-84a7-430d-b955-1236da8457c7"},"vehicle_type_id":"4","last_reported":1678668007,"current_range_meters":14400,"station_id":"ce4bha12rcd13ifvqef0","pricing_plan_id":"free"},{"bike_id":"8bdb4c29-b9e6-4b9e-9152-7de14c0eb705","system_id":"levelo_inurba_marseille","lat":43.28039,"lon":5.369297,"is_reserved":false,"is_disabled":false,"rental_uris":{"android":"levelo://app?vid=8bdb4c29-b9e6-4b9e-9152-7de14c0eb705","ios":"levelo://app?vid=8bdb4c29-b9e6-4b9e-9152-7de14c0eb705"},"vehicle_type_id":"4","last_reported":1678668007,"current_range_meters":31200,"station_id":"ce4bha12rcd13ifvqef0","pricing_plan_id":"free"},{"bike_id":"32da4d79-7e2e-452d-9fb2-2cf72e4506c1","system_id":"levelo_inurba_marseille","lat":43.280382,"lon":5.369291,"is_reserved":false,"is_disabled":false,"rental_uris":{"android":"levelo://app?vid=32da4d79-7e2e-452d-9fb2-2cf72e4506c1","ios":"levelo://app?vid=32da4d79-7e2e-452d-9fb2-2cf72e4506c1"},"vehicle_type_id":"4","last_reported":1678668007,"current_range_meters":0,"station_id":"ce4bha12rcd13ifvqef0","pricing_plan_id":"free"},{"bike_id":"f43302ed-a77d-47db-b901-2a6e6f6449d4","system_id":"levelo_inurba_marseille","lat":43.28108,"lon":5.37847,"is_reserved":false,"is_disabled":false,"rental_uris":{"android":"levelo://app?vid=f43302ed-a77d-47db-b901-2a6e6f6449d4","ios":"levelo://app?vid=f43302ed-a77d-47db-b901-2a6e6f6449d4"},"vehicle_type_id":"4","last_reported":1678668007,"current_range_meters":5600,"station_id":"ce4bha12rcd13ifvqee0","pricing_plan_id":"free"},{"bike_id":"4217de5c-a88e-419b-bf09-e2394b09e0e8","system_id":"levelo_inurba_marseille","lat":43.296263,"lon":5.40601,"is_reserved":false,"is_disabled":false,"rental_uris":{"android":"levelo://app?vid=4217de5c-a88e-419b-bf09-e2394b09e0e8","ios":"levelo://app?vid=4217de5c-a88e-419b-bf09-e2394b09e0e8"},"vehicle_type_id":"4","last_reported":1678668007,"current_range_meters":28800,"station_id":"ce4bh0h2rcd13ifvqd60","pricing_plan_id":"free"},{"bike_id":"7cac18be-35f6-423a-b231-6bea369ab491","system_id":"levelo_inurba_marseille","lat":43.29628,"lon":5.40595,"is_reserved":false,"is_disabled":false,"rental_uris":{"android":"levelo://app?vid=7cac18be-35f6-423a-b231-6bea369ab491","ios":"levelo://app?vid=7cac18be-35f6-423a-b231-6bea369ab491"},"vehicle_type_id":"4","last_reported":1678668007,"current_range_meters":15600,"station_id":"","pricing_plan_id":"free"},{"bike_id":"015f2d19-656f-4ed4-8ade-b4f804523a9a","system_id":"levelo_inurba_marseille","lat":43.290265,"lon":5.400571,"is_reserved":false,"is_disabled":false,"rental_uris":{"android":"levelo://app?vid=015f2d19-656f-4ed4-8ade-b4f804523a9a","ios":"levelo://app?vid=015f2d19-656f-4ed4-8ade-b4f804523a9a"},"vehicle_type_id":"4","last_reported":1678668007,"current_range_meters":0,"station_id":"","pricing_plan_id":"free"},{"bike_id":"df2b700b-7bba-4568-8776-f5cf3e525c39","system_id":"levelo_inurba_marseille","lat":43.28448,"lon":5.39183,"is_reserved":false,"is_disabled":false,"rental_uris":{"android":"levelo://app?vid=df2b700b-7bba-4568-8776-f5cf3e525c39","ios":"levelo://app?vid=df2b700b-7bba-4568-8776-f5cf3e525c39"},"vehicle_type_id":"4","last_reported":1678668007,"current_range_meters":18000,"station_id":"ce4bhoh2rcd13ifvqh5g","pricing_plan_id":"free"},{"bike_id":"6392fec6-7ed0-457d-9ddf-5adbbee8be9c","system_id":"levelo_inurba_marseille","lat":43.304225,"lon":5.412875,"is_reserved":false,"is_disabled":false,"rental_uris":{"android":"levelo://app?vid=6392fec6-7ed0-457d-9ddf-5adbbee8be9c","ios":"levelo://app?vid=6392fec6-7ed0-457d-9ddf-5adbbee8be9c"},"vehicle_type_id":"4","last_reported":1678668007,"current_range_meters":2000,"station_id":"","pricing_plan_id":"free"},{"bike_id":"dd29deed-aedd-4e10-a32b-f65fcba11ab6","system_id":"levelo_inurba_marseille","lat":43.287154,"lon":5.399979,"is_reserved":false,"is_disabled":false,"rental_uris":{"android":"levelo://app?vid=dd29deed-aedd-4e10-a32b-f65fcba11ab6","ios":"levelo://app?vid=dd29deed-aedd-4e10-a32b-f65fcba11ab6"},"vehicle_type_id":"4","last_reported":1678668007,"current_range_meters":31600,"station_id":"ce4bho92rcd13ifvqh3g","pricing_plan_id":"free"},{"bike_id":"1c267169-eb88-45fc-9694-2923dabf1668","system_id":"levelo_inurba_marseille","lat":43.287154,"lon":5.399979,"is_reserved":false,"is_disabled":false,"rental_uris":{"android":"levelo://app?vid=1c267169-eb88-45fc-9694-2923dabf1668","ios":"levelo://app?vid=1c267169-eb88-45fc-9694-2923dabf1668"},"vehicle_type_id":"4","last_reported":1678668007,"current_range_meters":20800,"station_id":"ce4bho92rcd13ifvqh3g","pricing_plan_id":"free"},{"bike_id":"1130759f-082f-4e44-94b9-f8f5a9b00b52","system_id":"levelo_inurba_marseille","lat":43.32043,"lon":5.41552,"is_reserved":false,"is_disabled":false,"rental_uris":{"android":"levelo://app?vid=1130759f-082f-4e44-94b9-f8f5a9b00b52","ios":"levelo://app?vid=1130759f-082f-4e44-94b9-f8f5a9b00b52"},"vehicle_type_id":"4","last_reported":1678668007,"current_range_meters":19200,"station_id":"","pricing_plan_id":"free"},{"bike_id":"6830e293-3654-4199-83dc-34d621a7da4b","system_id":"levelo_inurba_marseille","lat":43.320343,"lon":5.41574,"is_reserved":false,"is_disabled":false,"rental_uris":{"android":"levelo://app?vid=6830e293-3654-4199-83dc-34d621a7da4b","ios":"levelo://app?vid=6830e293-3654-4199-83dc-34d621a7da4b"},"vehicle_type_id":"4","last_reported":1678668007,"current_range_meters":0,"station_id":"","pricing_plan_id":"free"},{"bike_id":"77f1547a-62c9-4b6f-8a30-2fe90ffd46c5","system_id":"levelo_inurba_marseille","lat":43.292565,"lon":5.409027,"is_reserved":false,"is_disabled":false,"rental_uris":{"android":"levelo://app?vid=77f1547a-62c9-4b6f-8a30-2fe90ffd46c5","ios":"levelo://app?vid=77f1547a-62c9-4b6f-8a30-2fe90ffd46c5"},"vehicle_type_id":"4","last_reported":1678668007,"current_range_meters":12400,"station_id":"","pricing_plan_id":"free"},{"bike_id":"7cdd874f-0476-4a50-a778-0239c61f9aa8","system_id":"levelo_inurba_marseille","lat":43.292557,"lon":5.409023,"is_reserved":false,"is_disabled":false,"rental_uris":{"android":"levelo://app?vid=7cdd874f-0476-4a50-a778-0239c61f9aa8","ios":"levelo://app?vid=7cdd874f-0476-4a50-a778-0239c61f9aa8"},"vehicle_type_id":"4","last_reported":1678668007,"current_range_meters":13600,"station_id":"ce4bh192rcd13ifvqdc0","pricing_plan_id":"free"},{"bike_id":"8b15ab4a-9f26-40ee-b30a-7d1049be1f0b","system_id":"levelo_inurba_marseille","lat":43.292569,"lon":5.409107,"is_reserved":false,"is_disabled":false,"rental_uris":{"android":"levelo://app?vid=8b15ab4a-9f26-40ee-b30a-7d1049be1f0b","ios":"levelo://app?vid=8b15ab4a-9f26-40ee-b30a-7d1049be1f0b"},"vehicle_type_id":"4","last_reported":1678668007,"current_range_meters":21600,"station_id":"ce4bh192rcd13ifvqdc0","pricing_plan_id":"free"},{"bike_id":"82aae38d-0b3c-4c37-ab68-9ce60052c7f4","system_id":"levelo_inurba_marseille","lat":43.276643,"lon":5.357753,"is_reserved":false,"is_disabled":false,"rental_uris":{"android":"levelo://app?vid=82aae38d-0b3c-4c37-ab68-9ce60052c7f4","ios":"levelo://app?vid=82aae38d-0b3c-4c37-ab68-9ce60052c7f4"},"vehicle_type_id":"4","last_reported":1678668007,"current_range_meters":0,"station_id":"","pricing_plan_id":"free"},{"bike_id":"16c5675a-d369-4d0b-bb00-26bc340b4fc5","system_id":"levelo_inurba_marseille","lat":43.292569,"lon":5.409107,"is_reserved":false,"is_disabled":false,"rental_uris":{"android":"levelo://app?vid=16c5675a-d369-4d0b-bb00-26bc340b4fc5","ios":"levelo://app?vid=16c5675a-d369-4d0b-bb00-26bc340b4fc5"},"vehicle_type_id":"4","last_reported":1678668007,"current_range_meters":7600,"station_id":"ce4bh192rcd13ifvqdc0","pricing_plan_id":"free"},{"bike_id":"95df217f-be48-4ded-87ff-33de22d94118","system_id":"levelo_inurba_marseille","lat":43.292569,"lon":5.409107,"is_reserved":false,"is_disabled":false,"rental_uris":{"android":"levelo://app?vid=95df217f-be48-4ded-87ff-33de22d94118","ios":"levelo://app?vid=95df217f-be48-4ded-87ff-33de22d94118"},"vehicle_type_id":"4","last_reported":1678668007,"current_range_meters":800,"station_id":"ce4bh192rcd13ifvqdc0","pricing_plan_id":"free"},{"bike_id":"6faefa24-4e72-487d-a2da-e198a15882be","system_id":"levelo_inurba_marseille","lat":43.292569,"lon":5.409107,"is_reserved":false,"is_disabled":false,"rental_uris":{"android":"levelo://app?vid=6faefa24-4e72-487d-a2da-e198a15882be","ios":"levelo://app?vid=6faefa24-4e72-487d-a2da-e198a15882be"},"vehicle_type_id":"4","last_reported":1678668007,"current_range_meters":400,"station_id":"ce4bh192rcd13ifvqdc0","pricing_plan_id":"free"},{"bike_id":"6a3b843b-b04b-4d5b-85eb-ea9ea1481fc5","system_id":"levelo_inurba_marseille","lat":43.292569,"lon":5.409107,"is_reserved":false,"is_disabled":false,"rental_uris":{"android":"levelo://app?vid=6a3b843b-b04b-4d5b-85eb-ea9ea1481fc5","ios":"levelo://app?vid=6a3b843b-b04b-4d5b-85eb-ea9ea1481fc5"},"vehicle_type_id":"4","last_reported":1678668007,"current_range_meters":5600,"station_id":"ce4bh192rcd13ifvqdc0","pricing_plan_id":"free"},{"bike_id":"168ab727-63d0-4118-a0df-08aa4433a039","system_id":"levelo_inurba_marseille","lat":43.292569,"lon":5.409107,"is_reserved":false,"is_disabled":false,"rental_uris":{"android":"levelo://app?vid=168ab727-63d0-4118-a0df-08aa4433a039","ios":"levelo://app?vid=168ab727-63d0-4118-a0df-08aa4433a039"},"vehicle_type_id":"4","last_reported":1678668007,"current_range_meters":0,"station_id":"ce4bh192rcd13ifvqdc0","pricing_plan_id":"free"},{"bike_id":"cc341f43-f836-4396-a48e-30b0bce61b7f","system_id":"levelo_inurba_marseille","lat":43.325243,"lon":5.414326,"is_reserved":false,"is_disabled":false,"rental_uris":{"android":"levelo://app?vid=cc341f43-f836-4396-a48e-30b0bce61b7f","ios":"levelo://app?vid=cc341f43-f836-4396-a48e-30b0bce61b7f"},"vehicle_type_id":"4","last_reported":1678668007,"current_range_meters":28000,"station_id":"ce4bhq12rcd13ifvqhhg","pricing_plan_id":"free"},{"bike_id":"711aed41-5d77-456e-ad65-4fd6d36d930a","system_id":"levelo_inurba_marseille","lat":43.280784,"lon":5.396622,"is_reserved":false,"is_disabled":false,"rental_uris":{"android":"levelo://app?vid=711aed41-5d77-456e-ad65-4fd6d36d930a","ios":"levelo://app?vid=711aed41-5d77-456e-ad65-4fd6d36d930a"},"vehicle_type_id":"4","last_reported":1678668007,"current_range_meters":10400,"station_id":"ce4bho12rcd13ifvqh2g","pricing_plan_id":"free"},{"bike_id":"afd5f434-5135-405c-9971-08d68cd8384c","system_id":"levelo_inurba_marseille","lat":43.335157,"lon":5.410355,"is_reserved":false,"is_disabled":false,"rental_uris":{"android":"levelo://app?vid=afd5f434-5135-405c-9971-08d68cd8384c","ios":"levelo://app?vid=afd5f434-5135-405c-9971-08d68cd8384c"},"vehicle_type_id":"4","last_reported":1678668007,"current_range_meters":9600,"station_id":"","pricing_plan_id":"free"},{"bike_id":"b6659bdc-cb4c-420a-8ed9-0c11dbcba36b","system_id":"levelo_inurba_marseille","lat":43.33612,"lon":5.410321,"is_reserved":false,"is_disabled":false,"rental_uris":{"android":"levelo://app?vid=b6659bdc-cb4c-420a-8ed9-0c11dbcba36b","ios":"levelo://app?vid=b6659bdc-cb4c-420a-8ed9-0c11dbcba36b"},"vehicle_type_id":"4","last_reported":1678668007,"current_range_meters":5200,"station_id":"ce4bhqh2rcd13ifvqhmg","pricing_plan_id":"free"},{"bike_id":"27d4211b-2dc7-4658-a1f9-ca1145ad399e","system_id":"levelo_inurba_marseille","lat":43.33612,"lon":5.410321,"is_reserved":false,"is_disabled":false,"rental_uris":{"android":"levelo://app?vid=27d4211b-2dc7-4658-a1f9-ca1145ad399e","ios":"levelo://app?vid=27d4211b-2dc7-4658-a1f9-ca1145ad399e"},"vehicle_type_id":"4","last_reported":1678668007,"current_range_meters":7600,"station_id":"ce4bhqh2rcd13ifvqhmg","pricing_plan_id":"free"},{"bike_id":"ef166762-8391-4f1b-831d-048d798cc464","system_id":"levelo_inurba_marseille","lat":43.33609,"lon":5.41031,"is_reserved":false,"is_disabled":false,"rental_uris":{"android":"levelo://app?vid=ef166762-8391-4f1b-831d-048d798cc464","ios":"levelo://app?vid=ef166762-8391-4f1b-831d-048d798cc464"},"vehicle_type_id":"4","last_reported":1678668007,"current_range_meters":19200,"station_id":"ce4bhqh2rcd13ifvqhmg","pricing_plan_id":"free"},{"bike_id":"a6beba10-2248-4dd7-93f7-18857393970f","system_id":"levelo_inurba_marseille","lat":43.33476,"lon":5.41509,"is_reserved":false,"is_disabled":false,"rental_uris":{"android":"levelo://app?vid=a6beba10-2248-4dd7-93f7-18857393970f","ios":"levelo://app?vid=a6beba10-2248-4dd7-93f7-18857393970f"},"vehicle_type_id":"4","last_reported":1678668007,"current_range_meters":0,"station_id":"","pricing_plan_id":"free"},{"bike_id":"e02d7976-862a-4ea8-bbdd-e4266c905e02","system_id":"levelo_inurba_marseille","lat":43.31723,"lon":5.42396,"is_reserved":false,"is_disabled":false,"rental_uris":{"android":"levelo://app?vid=e02d7976-862a-4ea8-bbdd-e4266c905e02","ios":"levelo://app?vid=e02d7976-862a-4ea8-bbdd-e4266c905e02"},"vehicle_type_id":"4","last_reported":1678668007,"current_range_meters":2000,"station_id":"ce4bhp92rcd13ifvqhbg","pricing_plan_id":"free"},{"bike_id":"7e950919-70cd-49eb-88ef-a1aa9e3f473d","system_id":"levelo_inurba_marseille","lat":43.317121,"lon":5.423936,"is_reserved":false,"is_disabled":false,"rental_uris":{"android":"levelo://app?vid=7e950919-70cd-49eb-88ef-a1aa9e3f473d","ios":"levelo://app?vid=7e950919-70cd-49eb-88ef-a1aa9e3f473d"},"vehicle_type_id":"4","last_reported":1678668007,"current_range_meters":28000,"station_id":"ce4bhp92rcd13ifvqhbg","pricing_plan_id":"free"},{"bike_id":"d1ecd035-ad86-44f9-a0ca-9817e86b1643","system_id":"levelo_inurba_marseille","lat":43.279451,"lon":5.404314,"is_reserved":false,"is_disabled":false,"rental_uris":{"android":"levelo://app?vid=d1ecd035-ad86-44f9-a0ca-9817e86b1643","ios":"levelo://app?vid=d1ecd035-ad86-44f9-a0ca-9817e86b1643"},"vehicle_type_id":"4","last_reported":1678668007,"current_range_meters":17200,"station_id":"","pricing_plan_id":"free"},{"bike_id":"4a1abeac-cd6a-4549-9587-322da6ec4b59","system_id":"levelo_inurba_marseille","lat":43.295523,"lon":5.422926,"is_reserved":false,"is_disabled":false,"rental_uris":{"android":"levelo://app?vid=4a1abeac-cd6a-4549-9587-322da6ec4b59","ios":"levelo://app?vid=4a1abeac-cd6a-4549-9587-322da6ec4b59"},"vehicle_type_id":"4","last_reported":1678668007,"current_range_meters":23600,"station_id":"ce4bhph2rcd13ifvqhdg","pricing_plan_id":"free"},{"bike_id":"25c5a0cd-a2cd-4182-8cb5-43299ab1b8d6","system_id":"levelo_inurba_marseille","lat":43.295547,"lon":5.422767,"is_reserved":false,"is_disabled":false,"rental_uris":{"android":"levelo://app?vid=25c5a0cd-a2cd-4182-8cb5-43299ab1b8d6","ios":"levelo://app?vid=25c5a0cd-a2cd-4182-8cb5-43299ab1b8d6"},"vehicle_type_id":"4","last_reported":1678668007,"current_range_meters":4800,"station_id":"ce4bhph2rcd13ifvqhdg","pricing_plan_id":"free"},{"bike_id":"09d1b7e1-107f-4e1f-993e-9bbf4b29caf5","system_id":"levelo_inurba_marseille","lat":43.29559,"lon":5.4228,"is_reserved":false,"is_disabled":false,"rental_uris":{"android":"levelo://app?vid=09d1b7e1-107f-4e1f-993e-9bbf4b29caf5","ios":"levelo://app?vid=09d1b7e1-107f-4e1f-993e-9bbf4b29caf5"},"vehicle_type_id":"4","last_reported":1678668007,"current_range_meters":25600,"station_id":"ce4bhph2rcd13ifvqhdg","pricing_plan_id":"free"},{"bike_id":"8bcee478-b047-4545-bc9a-f2ae418c9659","system_id":"levelo_inurba_marseille","lat":43.295523,"lon":5.422926,"is_reserved":false,"is_disabled":false,"rental_uris":{"android":"levelo://app?vid=8bcee478-b047-4545-bc9a-f2ae418c9659","ios":"levelo://app?vid=8bcee478-b047-4545-bc9a-f2ae418c9659"},"vehicle_type_id":"4","last_reported":1678668007,"current_range_meters":18400,"station_id":"ce4bhph2rcd13ifvqhdg","pricing_plan_id":"free"},{"bike_id":"b584efb8-35a3-48ee-9294-4ac661a38ebc","system_id":"levelo_inurba_marseille","lat":43.295523,"lon":5.422926,"is_reserved":false,"is_disabled":false,"rental_uris":{"android":"levelo://app?vid=b584efb8-35a3-48ee-9294-4ac661a38ebc","ios":"levelo://app?vid=b584efb8-35a3-48ee-9294-4ac661a38ebc"},"vehicle_type_id":"4","last_reported":1678668007,"current_range_meters":19600,"station_id":"ce4bhph2rcd13ifvqhdg","pricing_plan_id":"free"},{"bike_id":"0d59d3c1-4e2f-45c5-91da-86fa742ad0f6","system_id":"levelo_inurba_marseille","lat":43.29552,"lon":5.42283,"is_reserved":false,"is_disabled":false,"rental_uris":{"android":"levelo://app?vid=0d59d3c1-4e2f-45c5-91da-86fa742ad0f6","ios":"levelo://app?vid=0d59d3c1-4e2f-45c5-91da-86fa742ad0f6"},"vehicle_type_id":"4","last_reported":1678668007,"current_range_meters":24400,"station_id":"","pricing_plan_id":"free"},{"bike_id":"cb8fda6d-cd77-4bb1-9d8c-ccc580981c90","system_id":"levelo_inurba_marseille","lat":43.295523,"lon":5.422926,"is_reserved":false,"is_disabled":false,"rental_uris":{"android":"levelo://app?vid=cb8fda6d-cd77-4bb1-9d8c-ccc580981c90","ios":"levelo://app?vid=cb8fda6d-cd77-4bb1-9d8c-ccc580981c90"},"vehicle_type_id":"4","last_reported":1678668007,"current_range_meters":22400,"station_id":"ce4bhph2rcd13ifvqhdg","pricing_plan_id":"free"},{"bike_id":"2c293236-5ccd-462a-be3f-d68c4578fa49","system_id":"levelo_inurba_marseille","lat":43.29551,"lon":5.42285,"is_reserved":false,"is_disabled":false,"rental_uris":{"android":"levelo://app?vid=2c293236-5ccd-462a-be3f-d68c4578fa49","ios":"levelo://app?vid=2c293236-5ccd-462a-be3f-d68c4578fa49"},"vehicle_type_id":"4","last_reported":1678668007,"current_range_meters":22800,"station_id":"ce4bhph2rcd13ifvqhdg","pricing_plan_id":"free"},{"bike_id":"67dc6dbb-1c34-4f73-8cd6-e42763cf071a","system_id":"levelo_inurba_marseille","lat":43.2955,"lon":5.42286,"is_reserved":false,"is_disabled":false,"rental_uris":{"android":"levelo://app?vid=67dc6dbb-1c34-4f73-8cd6-e42763cf071a","ios":"levelo://app?vid=67dc6dbb-1c34-4f73-8cd6-e42763cf071a"},"vehicle_type_id":"4","last_reported":1678668007,"current_range_meters":27200,"station_id":"ce4bhph2rcd13ifvqhdg","pricing_plan_id":"free"},{"bike_id":"d6aa68be-8680-4e8a-a07d-1ef564ca5fd1","system_id":"levelo_inurba_marseille","lat":43.295523,"lon":5.422926,"is_reserved":false,"is_disabled":false,"rental_uris":{"android":"levelo://app?vid=d6aa68be-8680-4e8a-a07d-1ef564ca5fd1","ios":"levelo://app?vid=d6aa68be-8680-4e8a-a07d-1ef564ca5fd1"},"vehicle_type_id":"4","last_reported":1678668007,"current_range_meters":6800,"station_id":"ce4bhph2rcd13ifvqhdg","pricing_plan_id":"free"},{"bike_id":"9166cd20-a929-416a-a932-6645e85aa343","system_id":"levelo_inurba_marseille","lat":43.27209,"lon":5.391737,"is_reserved":false,"is_disabled":false,"rental_uris":{"android":"levelo://app?vid=9166cd20-a929-416a-a932-6645e85aa343","ios":"levelo://app?vid=9166cd20-a929-416a-a932-6645e85aa343"},"vehicle_type_id":"4","last_reported":1678668007,"current_range_meters":0,"station_id":"ce4bhhp2rcd13ifvqfm0","pricing_plan_id":"free"},{"bike_id":"d7be38c8-e07f-487e-96f9-3d97ddd0e298","system_id":"levelo_inurba_marseille","lat":43.278128,"lon":5.407195,"is_reserved":false,"is_disabled":false,"rental_uris":{"android":"levelo://app?vid=d7be38c8-e07f-487e-96f9-3d97ddd0e298","ios":"levelo://app?vid=d7be38c8-e07f-487e-96f9-3d97ddd0e298"},"vehicle_type_id":"4","last_reported":1678668007,"current_range_meters":18400,"station_id":"ce4bhnh2rcd13ifvqgtg","pricing_plan_id":"free"},{"bike_id":"d34b8275-2944-4ea5-899c-671bb5d3384a","system_id":"levelo_inurba_marseille","lat":43.278128,"lon":5.407195,"is_reserved":false,"is_disabled":false,"rental_uris":{"android":"levelo://app?vid=d34b8275-2944-4ea5-899c-671bb5d3384a","ios":"levelo://app?vid=d34b8275-2944-4ea5-899c-671bb5d3384a"},"vehicle_type_id":"4","last_reported":1678668007,"current_range_meters":23200,"station_id":"ce4bhnh2rcd13ifvqgtg","pricing_plan_id":"free"},{"bike_id":"4a724b85-dffb-4436-9812-5011cd75babd","system_id":"levelo_inurba_marseille","lat":43.278128,"lon":5.407195,"is_reserved":false,"is_disabled":false,"rental_uris":{"android":"levelo://app?vid=4a724b85-dffb-4436-9812-5011cd75babd","ios":"levelo://app?vid=4a724b85-dffb-4436-9812-5011cd75babd"},"vehicle_type_id":"4","last_reported":1678668007,"current_range_meters":15600,"station_id":"ce4bhnh2rcd13ifvqgtg","pricing_plan_id":"free"},{"bike_id":"d2b1ec5f-48b4-4f2f-8452-387c777cf03d","system_id":"levelo_inurba_marseille","lat":43.278128,"lon":5.407195,"is_reserved":false,"is_disabled":false,"rental_uris":{"android":"levelo://app?vid=d2b1ec5f-48b4-4f2f-8452-387c777cf03d","ios":"levelo://app?vid=d2b1ec5f-48b4-4f2f-8452-387c777cf03d"},"vehicle_type_id":"4","last_reported":1678668007,"current_range_meters":31600,"station_id":"ce4bhnh2rcd13ifvqgtg","pricing_plan_id":"free"},{"bike_id":"414719ef-eeb2-48b8-8aa6-6fc096eb3ba2","system_id":"levelo_inurba_marseille","lat":43.26681,"lon":5.382694,"is_reserved":false,"is_disabled":false,"rental_uris":{"android":"levelo://app?vid=414719ef-eeb2-48b8-8aa6-6fc096eb3ba2","ios":"levelo://app?vid=414719ef-eeb2-48b8-8aa6-6fc096eb3ba2"},"vehicle_type_id":"4","last_reported":1678668007,"current_range_meters":30000,"station_id":"ce4bhg92rcd13ifvqf90","pricing_plan_id":"free"},{"bike_id":"0a98bea4-1dcf-4758-b988-0c2a1c0a0253","system_id":"levelo_inurba_marseille","lat":43.279946,"lon":5.416576,"is_reserved":false,"is_disabled":false,"rental_uris":{"android":"levelo://app?vid=0a98bea4-1dcf-4758-b988-0c2a1c0a0253","ios":"levelo://app?vid=0a98bea4-1dcf-4758-b988-0c2a1c0a0253"},"vehicle_type_id":"4","last_reported":1678668007,"current_range_meters":18000,"station_id":"ce4bho12rcd13ifvqh1g","pricing_plan_id":"free"},{"bike_id":"84bd6496-7a4b-4f42-afdb-9dbd91f37b53","system_id":"levelo_inurba_marseille","lat":43.279954,"lon":5.416594,"is_reserved":false,"is_disabled":false,"rental_uris":{"android":"levelo://app?vid=84bd6496-7a4b-4f42-afdb-9dbd91f37b53","ios":"levelo://app?vid=84bd6496-7a4b-4f42-afdb-9dbd91f37b53"},"vehicle_type_id":"4","last_reported":1678668007,"current_range_meters":26800,"station_id":"","pricing_plan_id":"free"},{"bike_id":"1424b4ec-7257-401c-9fcd-ebf407232e35","system_id":"levelo_inurba_marseille","lat":43.279945,"lon":5.416585,"is_reserved":false,"is_disabled":false,"rental_uris":{"android":"levelo://app?vid=1424b4ec-7257-401c-9fcd-ebf407232e35","ios":"levelo://app?vid=1424b4ec-7257-401c-9fcd-ebf407232e35"},"vehicle_type_id":"4","last_reported":1678668007,"current_range_meters":28400,"station_id":"ce4bho12rcd13ifvqh1g","pricing_plan_id":"free"},{"bike_id":"7fad437e-5acf-494b-a3da-3c8b1f73d4ac","system_id":"levelo_inurba_marseille","lat":43.27995,"lon":5.41662,"is_reserved":false,"is_disabled":false,"rental_uris":{"android":"levelo://app?vid=7fad437e-5acf-494b-a3da-3c8b1f73d4ac","ios":"levelo://app?vid=7fad437e-5acf-494b-a3da-3c8b1f73d4ac"},"vehicle_type_id":"4","last_reported":1678668007,"current_range_meters":9200,"station_id":"","pricing_plan_id":"free"},{"bike_id":"87472abf-01b2-4445-b22d-7054e8aa8d14","system_id":"levelo_inurba_marseille","lat":43.279891,"lon":5.416564,"is_reserved":false,"is_disabled":false,"rental_uris":{"android":"levelo://app?vid=87472abf-01b2-4445-b22d-7054e8aa8d14","ios":"levelo://app?vid=87472abf-01b2-4445-b22d-7054e8aa8d14"},"vehicle_type_id":"4","last_reported":1678668007,"current_range_meters":26000,"station_id":"ce4bho12rcd13ifvqh1g","pricing_plan_id":"free"},{"bike_id":"a9f1c301-b8bd-4345-8b57-177ab0156b11","system_id":"levelo_inurba_marseille","lat":43.27993,"lon":5.41663,"is_reserved":false,"is_disabled":false,"rental_uris":{"android":"levelo://app?vid=a9f1c301-b8bd-4345-8b57-177ab0156b11","ios":"levelo://app?vid=a9f1c301-b8bd-4345-8b57-177ab0156b11"},"vehicle_type_id":"4","last_reported":1678668007,"current_range_meters":14400,"station_id":"","pricing_plan_id":"free"},{"bike_id":"c13f31eb-b018-47eb-9416-3a8a57c3831e","system_id":"levelo_inurba_marseille","lat":43.27988,"lon":5.41658,"is_reserved":false,"is_disabled":false,"rental_uris":{"android":"levelo://app?vid=c13f31eb-b018-47eb-9416-3a8a57c3831e","ios":"levelo://app?vid=c13f31eb-b018-47eb-9416-3a8a57c3831e"},"vehicle_type_id":"4","last_reported":1678668007,"current_range_meters":6000,"station_id":"","pricing_plan_id":"free"},{"bike_id":"6603199d-4d85-44e8-b1aa-229372dbd013","system_id":"levelo_inurba_marseille","lat":43.27996,"lon":5.416624,"is_reserved":false,"is_disabled":false,"rental_uris":{"android":"levelo://app?vid=6603199d-4d85-44e8-b1aa-229372dbd013","ios":"levelo://app?vid=6603199d-4d85-44e8-b1aa-229372dbd013"},"vehicle_type_id":"4","last_reported":1678668007,"current_range_meters":6400,"station_id":"ce4bho12rcd13ifvqh1g","pricing_plan_id":"free"},{"bike_id":"a1b0b731-caea-4580-b5c6-a31b045b415c","system_id":"levelo_inurba_marseille","lat":43.27996,"lon":5.416624,"is_reserved":false,"is_disabled":false,"rental_uris":{"android":"levelo://app?vid=a1b0b731-caea-4580-b5c6-a31b045b415c","ios":"levelo://app?vid=a1b0b731-caea-4580-b5c6-a31b045b415c"},"vehicle_type_id":"4","last_reported":1678668007,"current_range_meters":11200,"station_id":"ce4bho12rcd13ifvqh1g","pricing_plan_id":"free"},{"bike_id":"7452a54f-9512-404b-a470-e1f94f8c63a3","system_id":"levelo_inurba_marseille","lat":43.308051,"lon":5.43527,"is_reserved":false,"is_disabled":false,"rental_uris":{"android":"levelo://app?vid=7452a54f-9512-404b-a470-e1f94f8c63a3","ios":"levelo://app?vid=7452a54f-9512-404b-a470-e1f94f8c63a3"},"vehicle_type_id":"4","last_reported":1678668007,"current_range_meters":3200,"station_id":"ce4bhph2rcd13ifvqheg","pricing_plan_id":"free"},{"bike_id":"a420caa2-762a-4648-aea4-4c170859be4d","system_id":"levelo_inurba_marseille","lat":43.261782,"lon":5.374515,"is_reserved":false,"is_disabled":false,"rental_uris":{"android":"levelo://app?vid=a420caa2-762a-4648-aea4-4c170859be4d","ios":"levelo://app?vid=a420caa2-762a-4648-aea4-4c170859be4d"},"vehicle_type_id":"4","last_reported":1678668007,"current_range_meters":21600,"station_id":"ce4bhgp2rcd13ifvqfc0","pricing_plan_id":"free"},{"bike_id":"fcb2b9bc-0372-43d6-a7e5-85da4bfbfba0","system_id":"levelo_inurba_marseille","lat":43.317104,"lon":5.436818,"is_reserved":false,"is_disabled":false,"rental_uris":{"android":"levelo://app?vid=fcb2b9bc-0372-43d6-a7e5-85da4bfbfba0","ios":"levelo://app?vid=fcb2b9bc-0372-43d6-a7e5-85da4bfbfba0"},"vehicle_type_id":"4","last_reported":1678668007,"current_range_meters":0,"station_id":"ce4bhp92rcd13ifvqhcg","pricing_plan_id":"free"},{"bike_id":"4e2a87d4-bf65-438b-a3fa-e49ea097d41a","system_id":"levelo_inurba_marseille","lat":43.317104,"lon":5.436818,"is_reserved":false,"is_disabled":false,"rental_uris":{"android":"levelo://app?vid=4e2a87d4-bf65-438b-a3fa-e49ea097d41a","ios":"levelo://app?vid=4e2a87d4-bf65-438b-a3fa-e49ea097d41a"},"vehicle_type_id":"4","last_reported":1678668007,"current_range_meters":4800,"station_id":"ce4bhp92rcd13ifvqhcg","pricing_plan_id":"free"},{"bike_id":"5ce92140-64d1-4739-81d8-e978a68c68ee","system_id":"levelo_inurba_marseille","lat":43.317104,"lon":5.436818,"is_reserved":false,"is_disabled":false,"rental_uris":{"android":"levelo://app?vid=5ce92140-64d1-4739-81d8-e978a68c68ee","ios":"levelo://app?vid=5ce92140-64d1-4739-81d8-e978a68c68ee"},"vehicle_type_id":"4","last_reported":1678668007,"current_range_meters":18000,"station_id":"ce4bhp92rcd13ifvqhcg","pricing_plan_id":"free"},{"bike_id":"e68185ae-37f9-4f22-9254-720d19af31a5","system_id":"levelo_inurba_marseille","lat":43.317104,"lon":5.436818,"is_reserved":false,"is_disabled":false,"rental_uris":{"android":"levelo://app?vid=e68185ae-37f9-4f22-9254-720d19af31a5","ios":"levelo://app?vid=e68185ae-37f9-4f22-9254-720d19af31a5"},"vehicle_type_id":"4","last_reported":1678668007,"current_range_meters":22400,"station_id":"ce4bhp92rcd13ifvqhcg","pricing_plan_id":"free"},{"bike_id":"4d5dbde2-b494-499e-96d8-f8febe9156c9","system_id":"levelo_inurba_marseille","lat":43.317104,"lon":5.436818,"is_reserved":false,"is_disabled":false,"rental_uris":{"android":"levelo://app?vid=4d5dbde2-b494-499e-96d8-f8febe9156c9","ios":"levelo://app?vid=4d5dbde2-b494-499e-96d8-f8febe9156c9"},"vehicle_type_id":"4","last_reported":1678668007,"current_range_meters":4000,"station_id":"ce4bhp92rcd13ifvqhcg","pricing_plan_id":"free"},{"bike_id":"0e66a6e7-816a-4e31-80bb-ac7d5477ca26","system_id":"levelo_inurba_marseille","lat":43.26808,"lon":5.40258,"is_reserved":false,"is_disabled":false,"rental_uris":{"android":"levelo://app?vid=0e66a6e7-816a-4e31-80bb-ac7d5477ca26","ios":"levelo://app?vid=0e66a6e7-816a-4e31-80bb-ac7d5477ca26"},"vehicle_type_id":"4","last_reported":1678668007,"current_range_meters":9200,"station_id":"ce501612rcd8frsf0b60","pricing_plan_id":"free"},{"bike_id":"dd15c710-f7f9-40fe-9db6-22ab047ed356","system_id":"levelo_inurba_marseille","lat":43.260219,"lon":5.37546,"is_reserved":false,"is_disabled":false,"rental_uris":{"android":"levelo://app?vid=dd15c710-f7f9-40fe-9db6-22ab047ed356","ios":"levelo://app?vid=dd15c710-f7f9-40fe-9db6-22ab047ed356"},"vehicle_type_id":"4","last_reported":1678668007,"current_range_meters":24400,"station_id":"ce4bhgh2rcd13ifvqfa0","pricing_plan_id":"free"},{"bike_id":"ea14c040-fea6-4419-a013-fda792e5021c","system_id":"levelo_inurba_marseille","lat":43.2607,"lon":5.393983,"is_reserved":false,"is_disabled":false,"rental_uris":{"android":"levelo://app?vid=ea14c040-fea6-4419-a013-fda792e5021c","ios":"levelo://app?vid=ea14c040-fea6-4419-a013-fda792e5021c"},"vehicle_type_id":"4","last_reported":1678668007,"current_range_meters":26000,"station_id":"ce4bhh92rcd13ifvqfj0","pricing_plan_id":"free"},{"bike_id":"26e80a9a-36cd-423c-a3cb-995b2e63904c","system_id":"levelo_inurba_marseille","lat":43.255756,"lon":5.382303,"is_reserved":false,"is_disabled":false,"rental_uris":{"android":"levelo://app?vid=26e80a9a-36cd-423c-a3cb-995b2e63904c","ios":"levelo://app?vid=26e80a9a-36cd-423c-a3cb-995b2e63904c"},"vehicle_type_id":"4","last_reported":1678668007,"current_range_meters":4000,"station_id":"ce4bhih2rcd13ifvqfs0","pricing_plan_id":"free"},{"bike_id":"6a7b88e4-af62-471b-a004-f88c9153461b","system_id":"levelo_inurba_marseille","lat":43.255756,"lon":5.382303,"is_reserved":false,"is_disabled":false,"rental_uris":{"android":"levelo://app?vid=6a7b88e4-af62-471b-a004-f88c9153461b","ios":"levelo://app?vid=6a7b88e4-af62-471b-a004-f88c9153461b"},"vehicle_type_id":"4","last_reported":1678668007,"current_range_meters":13200,"station_id":"ce4bhih2rcd13ifvqfs0","pricing_plan_id":"free"},{"bike_id":"0beef71e-5964-45f7-91cb-b37e6365162a","system_id":"levelo_inurba_marseille","lat":43.270721,"lon":5.422764,"is_reserved":false,"is_disabled":false,"rental_uris":{"android":"levelo://app?vid=0beef71e-5964-45f7-91cb-b37e6365162a","ios":"levelo://app?vid=0beef71e-5964-45f7-91cb-b37e6365162a"},"vehicle_type_id":"4","last_reported":1678668007,"current_range_meters":0,"station_id":"ce4bhk92rcd13ifvqgb0","pricing_plan_id":"free"},{"bike_id":"7f00de8c-8367-4d4b-bab3-b4e74097f4e3","system_id":"levelo_inurba_marseille","lat":43.270721,"lon":5.422764,"is_reserved":false,"is_disabled":false,"rental_uris":{"android":"levelo://app?vid=7f00de8c-8367-4d4b-bab3-b4e74097f4e3","ios":"levelo://app?vid=7f00de8c-8367-4d4b-bab3-b4e74097f4e3"},"vehicle_type_id":"4","last_reported":1678668007,"current_range_meters":22800,"station_id":"ce4bhk92rcd13ifvqgb0","pricing_plan_id":"free"},{"bike_id":"45490877-4370-448a-9239-e85debfc83ff","system_id":"levelo_inurba_marseille","lat":43.270721,"lon":5.422764,"is_reserved":false,"is_disabled":false,"rental_uris":{"android":"levelo://app?vid=45490877-4370-448a-9239-e85debfc83ff","ios":"levelo://app?vid=45490877-4370-448a-9239-e85debfc83ff"},"vehicle_type_id":"4","last_reported":1678668007,"current_range_meters":19600,"station_id":"ce4bhk92rcd13ifvqgb0","pricing_plan_id":"free"},{"bike_id":"5afb75cc-ebb1-4519-a22d-4b07569f93cb","system_id":"levelo_inurba_marseille","lat":43.270721,"lon":5.422764,"is_reserved":false,"is_disabled":false,"rental_uris":{"android":"levelo://app?vid=5afb75cc-ebb1-4519-a22d-4b07569f93cb","ios":"levelo://app?vid=5afb75cc-ebb1-4519-a22d-4b07569f93cb"},"vehicle_type_id":"4","last_reported":1678668007,"current_range_meters":5600,"station_id":"ce4bhk92rcd13ifvqgb0","pricing_plan_id":"free"},{"bike_id":"45f912ee-5b29-42fe-81ed-3e9fb3369dd0","system_id":"levelo_inurba_marseille","lat":43.270721,"lon":5.422764,"is_reserved":false,"is_disabled":false,"rental_uris":{"android":"levelo://app?vid=45f912ee-5b29-42fe-81ed-3e9fb3369dd0","ios":"levelo://app?vid=45f912ee-5b29-42fe-81ed-3e9fb3369dd0"},"vehicle_type_id":"4","last_reported":1678668007,"current_range_meters":18000,"station_id":"ce4bhk92rcd13ifvqgb0","pricing_plan_id":"free"},{"bike_id":"1cdfbe25-116f-48d9-b8de-df7cd60a39aa","system_id":"levelo_inurba_marseille","lat":43.270683,"lon":5.422793,"is_reserved":false,"is_disabled":false,"rental_uris":{"android":"levelo://app?vid=1cdfbe25-116f-48d9-b8de-df7cd60a39aa","ios":"levelo://app?vid=1cdfbe25-116f-48d9-b8de-df7cd60a39aa"},"vehicle_type_id":"4","last_reported":1678668007,"current_range_meters":2800,"station_id":"ce4bhk92rcd13ifvqgb0","pricing_plan_id":"free"},{"bike_id":"f41a01e9-01d5-4f02-a4b3-9346bd2ae727","system_id":"levelo_inurba_marseille","lat":43.29507,"lon":5.444087,"is_reserved":false,"is_disabled":false,"rental_uris":{"android":"levelo://app?vid=f41a01e9-01d5-4f02-a4b3-9346bd2ae727","ios":"levelo://app?vid=f41a01e9-01d5-4f02-a4b3-9346bd2ae727"},"vehicle_type_id":"4","last_reported":1678668007,"current_range_meters":2800,"station_id":"","pricing_plan_id":"free"},{"bike_id":"3e12bfdd-93b8-4750-880f-dc3f38cddbec","system_id":"levelo_inurba_marseille","lat":43.258658,"lon":5.398935,"is_reserved":false,"is_disabled":false,"rental_uris":{"android":"levelo://app?vid=3e12bfdd-93b8-4750-880f-dc3f38cddbec","ios":"levelo://app?vid=3e12bfdd-93b8-4750-880f-dc3f38cddbec"},"vehicle_type_id":"4","last_reported":1678668007,"current_range_meters":26400,"station_id":"ce4bhl92rcd13ifvqghg","pricing_plan_id":"free"},{"bike_id":"70cfd2d3-28dc-4a6f-b4b6-507e306f3ad3","system_id":"levelo_inurba_marseille","lat":43.258658,"lon":5.398935,"is_reserved":false,"is_disabled":false,"rental_uris":{"android":"levelo://app?vid=70cfd2d3-28dc-4a6f-b4b6-507e306f3ad3","ios":"levelo://app?vid=70cfd2d3-28dc-4a6f-b4b6-507e306f3ad3"},"vehicle_type_id":"4","last_reported":1678668007,"current_range_meters":13200,"station_id":"ce4bhl92rcd13ifvqghg","pricing_plan_id":"free"},{"bike_id":"15fa8b08-0646-4610-acd9-343bcd2d9232","system_id":"levelo_inurba_marseille","lat":43.250023,"lon":5.38919,"is_reserved":false,"is_disabled":false,"rental_uris":{"android":"levelo://app?vid=15fa8b08-0646-4610-acd9-343bcd2d9232","ios":"levelo://app?vid=15fa8b08-0646-4610-acd9-343bcd2d9232"},"vehicle_type_id":"4","last_reported":1678668007,"current_range_meters":800,"station_id":"ce4bhgp2rcd13ifvqfd0","pricing_plan_id":"free"},{"bike_id":"9f9eadba-a84e-4742-8c57-42345462b30f","system_id":"levelo_inurba_marseille","lat":43.24814,"lon":5.37462,"is_reserved":false,"is_disabled":false,"rental_uris":{"android":"levelo://app?vid=9f9eadba-a84e-4742-8c57-42345462b30f","ios":"levelo://app?vid=9f9eadba-a84e-4742-8c57-42345462b30f"},"vehicle_type_id":"4","last_reported":1678668007,"current_range_meters":29200,"station_id":"ce4bhgh2rcd13ifvqfb0","pricing_plan_id":"free"},{"bike_id":"db9673e9-9598-4654-8d0d-6b51dc683c4d","system_id":"levelo_inurba_marseille","lat":43.2479,"lon":5.374457,"is_reserved":false,"is_disabled":false,"rental_uris":{"android":"levelo://app?vid=db9673e9-9598-4654-8d0d-6b51dc683c4d","ios":"levelo://app?vid=db9673e9-9598-4654-8d0d-6b51dc683c4d"},"vehicle_type_id":"4","last_reported":1678668007,"current_range_meters":25200,"station_id":"ce4bhgh2rcd13ifvqfb0","pricing_plan_id":"free"},{"bike_id":"5f0b4892-af08-4bd3-ba2a-fd3be7e38514","system_id":"levelo_inurba_marseille","lat":43.2479,"lon":5.374457,"is_reserved":false,"is_disabled":false,"rental_uris":{"android":"levelo://app?vid=5f0b4892-af08-4bd3-ba2a-fd3be7e38514","ios":"levelo://app?vid=5f0b4892-af08-4bd3-ba2a-fd3be7e38514"},"vehicle_type_id":"4","last_reported":1678668007,"current_range_meters":0,"station_id":"ce4bhgh2rcd13ifvqfb0","pricing_plan_id":"free"},{"bike_id":"cd654933-bcc6-4bca-add0-94bc9e334724","system_id":"levelo_inurba_marseille","lat":43.250856,"lon":5.395109,"is_reserved":false,"is_disabled":false,"rental_uris":{"android":"levelo://app?vid=cd654933-bcc6-4bca-add0-94bc9e334724","ios":"levelo://app?vid=cd654933-bcc6-4bca-add0-94bc9e334724"},"vehicle_type_id":"4","last_reported":1678668007,"current_range_meters":8800,"station_id":"","pricing_plan_id":"free"},{"bike_id":"24b5a86f-edfc-47b4-9de9-7be22d74ddd7","system_id":"levelo_inurba_marseille","lat":43.25087,"lon":5.395243,"is_reserved":false,"is_disabled":false,"rental_uris":{"android":"levelo://app?vid=24b5a86f-edfc-47b4-9de9-7be22d74ddd7","ios":"levelo://app?vid=24b5a86f-edfc-47b4-9de9-7be22d74ddd7"},"vehicle_type_id":"4","last_reported":1678668007,"current_range_meters":15600,"station_id":"","pricing_plan_id":"free"},{"bike_id":"d1b09801-f117-4fbc-bce8-3b4e6615f3fd","system_id":"levelo_inurba_marseille","lat":43.250835,"lon":5.395158,"is_reserved":false,"is_disabled":false,"rental_uris":{"android":"levelo://app?vid=d1b09801-f117-4fbc-bce8-3b4e6615f3fd","ios":"levelo://app?vid=d1b09801-f117-4fbc-bce8-3b4e6615f3fd"},"vehicle_type_id":"4","last_reported":1678668007,"current_range_meters":7200,"station_id":"ce4bhm12rcd13ifvqgkg","pricing_plan_id":"free"},{"bike_id":"e32a25e7-ab16-47c2-aabd-07f6b1b01173","system_id":"levelo_inurba_marseille","lat":43.2474,"lon":5.3747,"is_reserved":false,"is_disabled":false,"rental_uris":{"android":"levelo://app?vid=e32a25e7-ab16-47c2-aabd-07f6b1b01173","ios":"levelo://app?vid=e32a25e7-ab16-47c2-aabd-07f6b1b01173"},"vehicle_type_id":"4","last_reported":1678668007,"current_range_meters":21600,"station_id":"","pricing_plan_id":"free"},{"bike_id":"f3568252-0a4d-46f4-acb6-f1abbb1665e9","system_id":"levelo_inurba_marseille","lat":43.24693,"lon":5.382096,"is_reserved":false,"is_disabled":false,"rental_uris":{"android":"levelo://app?vid=f3568252-0a4d-46f4-acb6-f1abbb1665e9","ios":"levelo://app?vid=f3568252-0a4d-46f4-acb6-f1abbb1665e9"},"vehicle_type_id":"4","last_reported":1678668007,"current_range_meters":23200,"station_id":"ce4bhih2rcd13ifvqfr0","pricing_plan_id":"free"},{"bike_id":"223b4ae0-24c1-4d5b-9807-42f0ec13826e","system_id":"levelo_inurba_marseille","lat":43.24693,"lon":5.382096,"is_reserved":false,"is_disabled":false,"rental_uris":{"android":"levelo://app?vid=223b4ae0-24c1-4d5b-9807-42f0ec13826e","ios":"levelo://app?vid=223b4ae0-24c1-4d5b-9807-42f0ec13826e"},"vehicle_type_id":"4","last_reported":1678668007,"current_range_meters":28400,"station_id":"ce4bhih2rcd13ifvqfr0","pricing_plan_id":"free"},{"bike_id":"f8386ed7-fef6-4ff7-940c-4bb2a6bbcad0","system_id":"levelo_inurba_marseille","lat":43.24693,"lon":5.382096,"is_reserved":false,"is_disabled":false,"rental_uris":{"android":"levelo://app?vid=f8386ed7-fef6-4ff7-940c-4bb2a6bbcad0","ios":"levelo://app?vid=f8386ed7-fef6-4ff7-940c-4bb2a6bbcad0"},"vehicle_type_id":"4","last_reported":1678668007,"current_range_meters":24000,"station_id":"ce4bhih2rcd13ifvqfr0","pricing_plan_id":"free"},{"bike_id":"919e3fb1-9703-4704-adb8-f90448cfe040","system_id":"levelo_inurba_marseille","lat":43.24693,"lon":5.382096,"is_reserved":false,"is_disabled":false,"rental_uris":{"android":"levelo://app?vid=919e3fb1-9703-4704-adb8-f90448cfe040","ios":"levelo://app?vid=919e3fb1-9703-4704-adb8-f90448cfe040"},"vehicle_type_id":"4","last_reported":1678668007,"current_range_meters":6000,"station_id":"ce4bhih2rcd13ifvqfr0","pricing_plan_id":"free"},{"bike_id":"b9390e61-80e8-4f16-b426-70750fff31a7","system_id":"levelo_inurba_marseille","lat":43.25102,"lon":5.403214,"is_reserved":false,"is_disabled":false,"rental_uris":{"android":"levelo://app?vid=b9390e61-80e8-4f16-b426-70750fff31a7","ios":"levelo://app?vid=b9390e61-80e8-4f16-b426-70750fff31a7"},"vehicle_type_id":"4","last_reported":1678668007,"current_range_meters":24400,"station_id":"ce4bhlh2rcd13ifvqgig","pricing_plan_id":"free"},{"bike_id":"35483b97-8ac9-42d1-a43c-21b0367a5ae2","system_id":"levelo_inurba_marseille","lat":43.25102,"lon":5.403214,"is_reserved":false,"is_disabled":false,"rental_uris":{"android":"levelo://app?vid=35483b97-8ac9-42d1-a43c-21b0367a5ae2","ios":"levelo://app?vid=35483b97-8ac9-42d1-a43c-21b0367a5ae2"},"vehicle_type_id":"4","last_reported":1678668007,"current_range_meters":30800,"station_id":"ce4bhlh2rcd13ifvqgig","pricing_plan_id":"free"},{"bike_id":"eb96a0e7-dcc7-4ed8-bdb0-95594f69ee3a","system_id":"levelo_inurba_marseille","lat":43.25102,"lon":5.403214,"is_reserved":false,"is_disabled":false,"rental_uris":{"android":"levelo://app?vid=eb96a0e7-dcc7-4ed8-bdb0-95594f69ee3a","ios":"levelo://app?vid=eb96a0e7-dcc7-4ed8-bdb0-95594f69ee3a"},"vehicle_type_id":"4","last_reported":1678668007,"current_range_meters":28000,"station_id":"ce4bhlh2rcd13ifvqgig","pricing_plan_id":"free"},