{"last_updated":1736165882,"ttl":60,"version":"2.2","data":{"bikes":[{"bike_id":"dac6d463-fb57-4a19-8c5c-55d8a85c731d","system_id":"levelo_inurba_marseille","lat":43.30522,"lon":5.36543,"is_reserved":false,"is_disabled":false,"rental_uris":{"android":"levelo://app?vid=dac6d463-fb57-4a19-8c5c-55d8a85c731d","ios":"levelo://app?vid=dac6d463-fb57-4a19-8c5c-55d8a85c731d"},"vehicle_type_id":"4","last_reported":1736165882,"current_range_meters":38800,"station_id":"ce4bgs12rcd13ifvqcag","pricing_plan_id":"cebpf4jnsgd1na2vs0mg"},{"bike_id":"8f29603c-5d9a-4bc6-963d-711ada2a168a","system_id":"levelo_inurba_marseille","lat":43.24671,"lon":5.39864,"is_reserved":false,"is_disabled":true,"rental_uris":{"android":"levelo://app?vid=8f29603c-5d9a-4bc6-963d-711ada2a168a","ios":"levelo://app?vid=8f29603c-5d9a-4bc6-963d-711ada2a168a"},"vehicle_type_id":"4","last_reported":1736165882,"current_range_meters":20800,"station_id":"","pricing_plan_id":"cebpf4jnsgd1na2vs0mg"},{"bike_id":"10713e37-afc7-43d1-b51d-2b4416e38ed1","system_id":"levelo_inurba_marseille","lat":43.28718,"lon":5.4,"is_reserved":false,"is_disabled":true,"rental_uris":{"android":"levelo://app?vid=10713e37-afc7-43d1-b51d-2b4416e38ed1","ios":"levelo://app?vid=10713e37-afc7-43d1-b51d-2b4416e38ed1"},"vehicle_type_id":"4","last_reported":1736165882,"current_range_meters":38400,"station_id":"ce4bho92rcd13ifvqh3g","pricing_plan_id":"cebpf4jnsgd1na2vs0mg"},{"bike_id":"e98989a0-dc89-4989-9e20-edd91030c33c","system_id":"levelo_inurba_marseille","lat":43.30087,"lon":5.38147,"is_reserved":false,"is_disabled":false,"rental_uris":{"android":"levelo://app?vid=e98989a0-dc89-4989-9e20-edd91030c33c","ios":"levelo://app?vid=e98989a0-dc89-4989-9e20-edd91030c33c"},"vehicle_type_id":"4","last_reported":1736165882,"current_range_meters":38800,"station_id":"","pricing_plan_id":"cebpf4jnsgd1na2vs0mg"},{"bike_id":"e6e04223-7392-4eda-8306-7771efe8f77c","system_id":"levelo_inurba_marseille","lat":43.31284,"lon":5.36745,"is_reserved":false,"is_disabled":false,"rental_uris":{"android":"levelo://app?vid=e6e04223-7392-4eda-8306-7771efe8f77c","ios":"levelo://app?vid=e6e04223-7392-4eda-8306-7771efe8f77c"},"vehicle_type_id":"4","last_reported":1736165882,"current_range_meters":38800,"station_id":"ce4bgr92rcd13ifvqc6g","pricing_plan_id":"cebpf4jnsgd1na2vs0mg"},{"bike_id":"610b5042-5ff8-4e4f-babe-ff113d29d7eb","system_id":"levelo_inurba_marseille","lat":43.32109,"lon":5.36771,"is_reserved":false,"is_disabled":false,"rental_uris":{"android":"levelo://app?vid=610b5042-5ff8-4e4f-babe-ff113d29d7eb","ios":"levelo://app?vid=610b5042-5ff8-4e4f-babe-ff113d29d7eb"},"vehicle_type_id":"4","last_reported":1736165882,"current_range_meters":33600,"station_id":"ce4bhrh2rcd13ifvqhug","pricing_plan_id":"cebpf4jnsgd1na2vs0mg"},{"bike_id":"1d188ec8-9b96-4eea-87fe-accd3cc99bb3","system_id":"levelo_inurba_marseille","lat":43.29937,"lon":5.36545,"is_reserved":false,"is_disabled":false,"rental_uris":{"android":"levelo://app?vid=1d188ec8-9b96-4eea-87fe-accd3cc99bb3","ios":"levelo://app?vid=1d188ec8-9b96-4eea-87fe-accd3cc99bb3"},"vehicle_type_id":"4","last_reported":1736165882,"current_range_meters":38000,"station_id":"ce4bgm92rcd13ifvqbr0","pricing_plan_id":"cebpf4jnsgd1na2vs0mg"},{"bike_id":"0153ae28-9422-4039-87f8-952c80b8c9cc","system_id":"levelo_inurba_marseille","lat":43.272991,"lon":5.391319,"is_reserved":false,"is_disabled":true,"rental_uris":{"android":"levelo://app?vid=0153ae28-9422-4039-87f8-952c80b8c9cc","ios":"levelo://app?vid=0153ae28-9422-4039-87f8-952c80b8c9cc"},"vehicle_type_id":"4","last_reported":1736165882,"current_range_meters":36400,"station_id":"","pricing_plan_id":"cebpf4jnsgd1na2vs0mg"},{"bike_id":"644279f7-4445-4d30-99aa-a227038b7217","system_id":"levelo_inurba_marseille","lat":43.32,"lon":5.38167,"is_reserved":false,"is_disabled":false,"rental_uris":{"android":"levelo://app?vid=644279f7-4445-4d30-99aa-a227038b7217","ios":"levelo://app?vid=644279f7-4445-4d30-99aa-a227038b7217"},"vehicle_type_id":"4","last_reported":1736165882,"current_range_meters":36800,"station_id":"ce4bhr12rcd13ifvqhpg","pricing_plan_id":"cebpf4jnsgd1na2vs0mg"},{"bike_id":"86f35daa-bb86-4cde-a6d9-a74ee03a5396","system_id":"levelo_inurba_marseille","lat":43.27812,"lon":5.40711,"is_reserved":false,"is_disabled":false,"rental_uris":{"android":"levelo://app?vid=86f35daa-bb86-4cde-a6d9-a74ee03a5396","ios":"levelo://app?vid=86f35daa-bb86-4cde-a6d9-a74ee03a5396"},"vehicle_type_id":"4","last_reported":1736165882,"current_range_meters":25200,"station_id":"ce4bhnh2rcd13ifvqgtg","pricing_plan_id":"cebpf4jnsgd1na2vs0mg"},{"bike_id":"bcf0bc77-feb4-4e25-93da-4721812265a5","system_id":"levelo_inurba_marseille","lat":43.29858,"lon":5.36279,"is_reserved":false,"is_disabled":false,"rental_uris":{"android":"levelo://app?vid=bcf0bc77-feb4-4e25-93da-4721812265a5","ios":"levelo://app?vid=bcf0bc77-feb4-4e25-93da-4721812265a5"},"vehicle_type_id":"4","last_reported":1736165882,"current_range_meters":37600,"station_id":"ce4bgpp2rcd13ifvqc3g","pricing_plan_id":"cebpf4jnsgd1na2vs0mg"},{"bike_id":"aa3d4a6d-1203-4d0c-85b4-452c0e9a57b3","system_id":"levelo_inurba_marseille","lat":43.27941,"lon":5.41047,"is_reserved":false,"is_disabled":false,"rental_uris":{"android":"levelo://app?vid=aa3d4a6d-1203-4d0c-85b4-452c0e9a57b3","ios":"levelo://app?vid=aa3d4a6d-1203-4d0c-85b4-452c0e9a57b3"},"vehicle_type_id":"4","last_reported":1736165882,"current_range_meters":7200,"station_id":"ce4bhnp2rcd13ifvqh0g","pricing_plan_id":"cebpf4jnsgd1na2vs0mg"},{"bike_id":"730144be-fcee-4065-ac38-325ca1d5cbf7","system_id":"levelo_inurba_marseille","lat":43.25695,"lon":5.41158,"is_reserved":false,"is_disabled":false,"rental_uris":{"android":"levelo://app?vid=730144be-fcee-4065-ac38-325ca1d5cbf7","ios":"levelo://app?vid=730144be-fcee-4065-ac38-325ca1d5cbf7"},"vehicle_type_id":"4","last_reported":1736165882,"current_range_meters":27600,"station_id":"ce4bhkp2rcd13ifvqgd0","pricing_plan_id":"cebpf4jnsgd1na2vs0mg"},{"bike_id":"a8456ab5-29af-4c22-9b7c-acbc25c3568a","system_id":"levelo_inurba_marseille","lat":43.25004,"lon":5.38929,"is_reserved":false,"is_disabled":false,"rental_uris":{"android":"levelo://app?vid=a8456ab5-29af-4c22-9b7c-acbc25c3568a","ios":"levelo://app?vid=a8456ab5-29af-4c22-9b7c-acbc25c3568a"},"vehicle_type_id":"4","last_reported":1736165882,"current_range_meters":24400,"station_id":"ce4bhgp2rcd13ifvqfd0","pricing_plan_id":"cebpf4jnsgd1na2vs0mg"},{"bike_id":"cfa9ca20-27d4-44a2-a7d9-d2b75ed2f4ac","system_id":"levelo_inurba_marseille","lat":43.31076,"lon":5.38349,"is_reserved":false,"is_disabled":true,"rental_uris":{"android":"levelo://app?vid=cfa9ca20-27d4-44a2-a7d9-d2b75ed2f4ac","ios":"levelo://app?vid=cfa9ca20-27d4-44a2-a7d9-d2b75ed2f4ac"},"vehicle_type_id":"4","last_reported":1736165882,"current_range_meters":3200,"station_id":"ce4bgv92rcd13ifvqcr0","pricing_plan_id":"cebpf4jnsgd1na2vs0mg"},{"bike_id":"2e3020fc-739e-484f-aff1-968aa18f2ac1","system_id":"levelo_inurba_marseille","lat":43.27984,"lon":5.41659,"is_reserved":false,"is_disabled":true,"rental_uris":{"android":"levelo://app?vid=2e3020fc-739e-484f-aff1-968aa18f2ac1","ios":"levelo://app?vid=2e3020fc-739e-484f-aff1-968aa18f2ac1"},"vehicle_type_id":"4","last_reported":1736165882,"current_range_meters":0,"station_id":"ce4bho12rcd13ifvqh1g","pricing_plan_id":"cebpf4jnsgd1na2vs0mg"},{"bike_id":"71dd2f5b-102e-4770-9024-a06bbe2347d6","system_id":"levelo_inurba_marseille","lat":43.29744,"lon":5.36576,"is_reserved":false,"is_disabled":false,"rental_uris":{"android":"levelo://app?vid=71dd2f5b-102e-4770-9024-a06bbe2347d6","ios":"levelo://app?vid=71dd2f5b-102e-4770-9024-a06bbe2347d6"},"vehicle_type_id":"4","last_reported":1736165882,"current_range_meters":25600,"station_id":"ce4bgn12rcd13ifvqbt0","pricing_plan_id":"cebpf4jnsgd1na2vs0mg"},{"bike_id":"ac652f58-654e-4ec0-aa79-a7d6eb1181b2","system_id":"levelo_inurba_marseille","lat":43.23151,"lon":5.43714,"is_reserved":false,"is_disabled":false,"rental_uris":{"android":"levelo://app?vid=ac652f58-654e-4ec0-aa79-a7d6eb1181b2","ios":"levelo://app?vid=ac652f58-654e-4ec0-aa79-a7d6eb1181b2"},"vehicle_type_id":"4","last_reported":1736165882,"current_range_meters":30000,"station_id":"ce4bhmp2rcd13ifvqgog","pricing_plan_id":"cebpf4jnsgd1na2vs0mg"},{"bike_id":"593d8424-f565-422e-8480-e0f50e2c043e","system_id":"levelo_inurba_marseille","lat":43.27944,"lon":5.38725,"is_reserved":false,"is_disabled":true,"rental_uris":{"android":"levelo://app?vid=593d8424-f565-422e-8480-e0f50e2c043e","ios":"levelo://app?vid=593d8424-f565-422e-8480-e0f50e2c043e"},"vehicle_type_id":"4","last_reported":1736165882,"current_range_meters":29600,"station_id":"ce4bhg12rcd13ifvqf80","pricing_plan_id":"cebpf4jnsgd1na2vs0mg"},{"bike_id":"a944f865-f260-4d6e-8bfb-34b22d4c0ecd","system_id":"levelo_inurba_marseille","lat":43.30179,"lon":5.36664,"is_reserved":false,"is_disabled":true,"rental_uris":{"android":"levelo://app?vid=a944f865-f260-4d6e-8bfb-34b22d4c0ecd","ios":"levelo://app?vid=a944f865-f260-4d6e-8bfb-34b22d4c0ecd"},"vehicle_type_id":"4","last_reported":1736165882,"current_range_meters":23200,"station_id":"ce4bgrh2rcd13ifvqc8g","pricing_plan_id":"cebpf4jnsgd1na2vs0mg"},{"bike_id":"c8a25243-6bf8-4087-96b9-5d0e1081e879","system_id":"levelo_inurba_marseille","lat":43.30627,"lon":5.39285,"is_reserved":false,"is_disabled":false,"rental_uris":{"android":"levelo://app?vid=c8a25243-6bf8-4087-96b9-5d0e1081e879","ios":"levelo://app?vid=c8a25243-6bf8-4087-96b9-5d0e1081e879"},"vehicle_type_id":"4","last_reported":1736165882,"current_range_meters":37600,"station_id":"ce4bh0p2rcd13ifvqd80","pricing_plan_id":"cebpf4jnsgd1na2vs0mg"},{"bike_id":"30510128-dc1c-4935-a0ea-69ca27e06ddc","system_id":"levelo_inurba_marseille","lat":43.28468,"lon":5.35902,"is_reserved":false,"is_disabled":false,"rental_uris":{"android":"levelo://app?vid=30510128-dc1c-4935-a0ea-69ca27e06ddc","ios":"levelo://app?vid=30510128-dc1c-4935-a0ea-69ca27e06ddc"},"vehicle_type_id":"4","last_reported":1736165882,"current_range_meters":24800,"station_id":"ce4bhah2rcd13ifvqei0","pricing_plan_id":"cebpf4jnsgd1na2vs0mg"},{"bike_id":"7785ab47-fc21-464f-82e3-4fad2439c0ee","system_id":"levelo_inurba_marseille","lat":43.298255,"lon":5.437168,"is_reserved":false,"is_disabled":false,"rental_uris":{"android":"levelo://app?vid=7785ab47-fc21-464f-82e3-4fad2439c0ee","ios":"levelo://app?vid=7785ab47-fc21-464f-82e3-4fad2439c0ee"},"vehicle_type_id":"4","last_reported":1736165882,"current_range_meters":21600,"station_id":"","pricing_plan_id":"cebpf4jnsgd1na2vs0mg"},{"bike_id":"738d1603-9f27-4f7b-bbd0-b0114e19cd0a","system_id":"levelo_inurba_marseille","lat":43.284,"lon":5.37511,"is_reserved":false,"is_disabled":false,"rental_uris":{"android":"levelo://app?vid=738d1603-9f27-4f7b-bbd0-b0114e19cd0a","ios":"levelo://app?vid=738d1603-9f27-4f7b-bbd0-b0114e19cd0a"},"vehicle_type_id":"4","last_reported":1736165882,"current_range_meters":28400,"station_id":"ce4bh412rcd13ifvqds0","pricing_plan_id":"cebpf4jnsgd1na2vs0mg"},{"bike_id":"465268ab-90aa-4006-9bf9-43f4f7cc1c1e","system_id":"levelo_inurba_marseille","lat":43.30324,"lon":5.36894,"is_reserved":false,"is_disabled":false,"rental_uris":{"android":"levelo://app?vid=465268ab-90aa-4006-9bf9-43f4f7cc1c1e","ios":"levelo://app?vid=465268ab-90aa-4006-9bf9-43f4f7cc1c1e"},"vehicle_type_id":"4","last_reported":1736165882,"current_range_meters":37600,"station_id":"ce4bgqh2rcd13ifvqc5g","pricing_plan_id":"cebpf4jnsgd1na2vs0mg"},{"bike_id":"ca1bd4fa-dc43-48f4-ad2b-1efde1394bb4","system_id":"levelo_inurba_marseille","lat":43.27808,"lon":5.40738,"is_reserved":false,"is_disabled":false,"rental_uris":{"android":"levelo://app?vid=ca1bd4fa-dc43-48f4-ad2b-1efde1394bb4","ios":"levelo://app?vid=ca1bd4fa-dc43-48f4-ad2b-1efde1394bb4"},"vehicle_type_id":"4","last_reported":1736165882,"current_range_meters":38000,"station_id":"ce4bhnh2rcd13ifvqgtg","pricing_plan_id":"cebpf4jnsgd1na2vs0mg"},{"bike_id":"75539ff0-fe32-4da7-83df-96fa72019050","system_id":"levelo_inurba_marseille","lat":43.31096,"lon":5.42411,"is_reserved":false,"is_disabled":false,"rental_uris":{"android":"levelo://app?vid=75539ff0-fe32-4da7-83df-96fa72019050","ios":"levelo://app?vid=75539ff0-fe32-4da7-83df-96fa72019050"},"vehicle_type_id":"4","last_reported":1736165882,"current_range_meters":38400,"station_id":"ce4bhp92rcd13ifvqhag","pricing_plan_id":"cebpf4jnsgd1na2vs0mg"},{"bike_id":"c023aed8-c4af-47de-bf55-7ec6cfb1c879","system_id":"levelo_inurba_marseille","lat":43.26208,"lon":5.37486,"is_reserved":false,"is_disabled":true,"rental_uris":{"android":"levelo://app?vid=c023aed8-c4af-47de-bf55-7ec6cfb1c879","ios":"levelo://app?vid=c023aed8-c4af-47de-bf55-7ec6cfb1c879"},"vehicle_type_id":"4","last_reported":1736165882,"current_range_meters":31200,"station_id":"ce4bhgp2rcd13ifvqfc0","pricing_plan_id":"cebpf4jnsgd1na2vs0mg"},{"bike_id":"ebf65e80-1869-4c83-a4e9-e1600f07fee4","system_id":"levelo_inurba_marseille","lat":43.23181,"lon":5.39986,"is_reserved":false,"is_disabled":false,"rental_uris":{"android":"levelo://app?vid=ebf65e80-1869-4c83-a4e9-e1600f07fee4","ios":"levelo://app?vid=ebf65e80-1869-4c83-a4e9-e1600f07fee4"},"vehicle_type_id":"4","last_reported":1736165882,"current_range_meters":38800,"station_id":"ce4bhn12rcd13ifvqgqg","pricing_plan_id":"cebpf4jnsgd1na2vs0mg"},{"bike_id":"ad036647-e9f4-4246-953d-37ee6601db50","system_id":"levelo_inurba_marseille","lat":43.246813,"lon":5.381692,"is_reserved":false,"is_disabled":false,"rental_uris":{"android":"levelo://app?vid=ad036647-e9f4-4246-953d-37ee6601db50","ios":"levelo://app?vid=ad036647-e9f4-4246-953d-37ee6601db50"},"vehicle_type_id":"4","last_reported":1736165882,"current_range_meters":22000,"station_id":"ce4bhih2rcd13ifvqfr0","pricing_plan_id":"cebpf4jnsgd1na2vs0mg"},{"bike_id":"c3496726-b8ea-47ac-a44b-66bc69a8d7e9","system_id":"levelo_inurba_marseille","lat":43.2986,"lon":5.36269,"is_reserved":false,"is_disabled":false,"rental_uris":{"android":"levelo://app?vid=c3496726-b8ea-47ac-a44b-66bc69a8d7e9","ios":"levelo://app?vid=c3496726-b8ea-47ac-a44b-66bc69a8d7e9"},"vehicle_type_id":"4","last_reported":1736165882,"current_range_meters":29600,"station_id":"ce4bgpp2rcd13ifvqc3g","pricing_plan_id":"cebpf4jnsgd1na2vs0mg"},{"bike_id":"427f5f0f-1078-4838-8256-aa947f1974b5","system_id":"levelo_inurba_marseille","lat":43.31304,"lon":5.36739,"is_reserved":false,"is_disabled":false,"rental_uris":{"android":"levelo://app?vid=427f5f0f-1078-4838-8256-aa947f1974b5","ios":"levelo://app?vid=427f5f0f-1078-4838-8256-aa947f1974b5"},"vehicle_type_id":"4","last_reported":1736165882,"current_range_meters":13600,"station_id":"ce4bgl92rcd13ifvqbq0","pricing_plan_id":"cebpf4jnsgd1na2vs0mg"},{"bike_id":"75d3e57a-b9bf-4f80-9f61-2812f05e5b86","system_id":"levelo_inurba_marseille","lat":43.28173,"lon":5.42626,"is_reserved":false,"is_disabled":false,"rental_uris":{"android":"levelo://app?vid=75d3e57a-b9bf-4f80-9f61-2812f05e5b86","ios":"levelo://app?vid=75d3e57a-b9bf-4f80-9f61-2812f05e5b86"},"vehicle_type_id":"4","last_reported":1736165882,"current_range_meters":16400,"station_id":"ce4bhnh2rcd13ifvqgug","pricing_plan_id":"cebpf4jnsgd1na2vs0mg"},{"bike_id":"9caacfd3-a903-4f76-bdc1-cc907961349f","system_id":"levelo_inurba_marseille","lat":43.30178,"lon":5.3663,"is_reserved":false,"is_disabled":false,"rental_uris":{"android":"levelo://app?vid=9caacfd3-a903-4f76-bdc1-cc907961349f","ios":"levelo://app?vid=9caacfd3-a903-4f76-bdc1-cc907961349f"},"vehicle_type_id":"4","last_reported":1736165882,"current_range_meters":38000,"station_id":"ce4bgrh2rcd13ifvqc8g","pricing_plan_id":"cebpf4jnsgd1na2vs0mg"},{"bike_id":"f950f68e-763d-458f-8358-255933d8bbd3","system_id":"levelo_inurba_marseille","lat":43.27922,"lon":5.38033,"is_reserved":false,"is_disabled":false,"rental_uris":{"android":"levelo://app?vid=f950f68e-763d-458f-8358-255933d8bbd3","ios":"levelo://app?vid=f950f68e-763d-458f-8358-255933d8bbd3"},"vehicle_type_id":"4","last_reported":1736165882,"current_range_meters":28800,"station_id":"ce4bhf92rcd13ifvqf50","pricing_plan_id":"cebpf4jnsgd1na2vs0mg"},{"bike_id":"f2107d97-861e-478f-aae7-bc0c7527ce03","system_id":"levelo_inurba_marseille","lat":43.31484,"lon":5.37289,"is_reserved":false,"is_disabled":false,"rental_uris":{"android":"levelo://app?vid=f2107d97-861e-478f-aae7-bc0c7527ce03","ios":"levelo://app?vid=f2107d97-861e-478f-aae7-bc0c7527ce03"},"vehicle_type_id":"4","last_reported":1736165882,"current_range_meters":30400,"station_id":"ce4bgt12rcd13ifvqcd0","pricing_plan_id":"cebpf4jnsgd1na2vs0mg"},{"bike_id":"85a03191-8e93-4953-b6b1-749f7cedd7f5","system_id":"levelo_inurba_marseille","lat":43.24549,"lon":5.39528,"is_reserved":false,"is_disabled":false,"rental_uris":{"android":"levelo://app?vid=85a03191-8e93-4953-b6b1-749f7cedd7f5","ios":"levelo://app?vid=85a03191-8e93-4953-b6b1-749f7cedd7f5"},"vehicle_type_id":"4","last_reported":1736165882,"current_range_meters":38000,"station_id":"ce4bhlp2rcd13ifvqgjg","pricing_plan_id":"cebpf4jnsgd1na2vs0mg"},{"bike_id":"acc1ab7e-0fac-4d85-98c1-a4f278fd4c17","system_id":"levelo_inurba_marseille","lat":43.24555,"lon":5.39537,"is_reserved":false,"is_disabled":false,"rental_uris":{"android":"levelo://app?vid=acc1ab7e-0fac-4d85-98c1-a4f278fd4c17","ios":"levelo://app?vid=acc1ab7e-0fac-4d85-98c1-a4f278fd4c17"},"vehicle_type_id":"4","last_reported":1736165882,"current_range_meters":24800,"station_id":"ce4bhlp2rcd13ifvqgjg","pricing_plan_id":"cebpf4jnsgd1na2vs0mg"},{"bike_id":"51fd24ab-1192-47ab-bf16-696df7091d95","system_id":"levelo_inurba_marseille","lat":43.29846,"lon":5.36269,"is_reserved":false,"is_disabled":false,"rental_uris":{"android":"levelo://app?vid=51fd24ab-1192-47ab-bf16-696df7091d95","ios":"levelo://app?vid=51fd24ab-1192-47ab-bf16-696df7091d95"},"vehicle_type_id":"4","last_reported":1736165882,"current_range_meters":22000,"station_id":"ce4bgpp2rcd13ifvqc3g","pricing_plan_id":"cebpf4jnsgd1na2vs0mg"},{"bike_id":"56e4e1b5-9e13-43a2-864c-71b304a89ef7","system_id":"levelo_inurba_marseille","lat":43.30133,"lon":5.37441,"is_reserved":false,"is_disabled":false,"rental_uris":{"android":"levelo://app?vid=56e4e1b5-9e13-43a2-864c-71b304a89ef7","ios":"levelo://app?vid=56e4e1b5-9e13-43a2-864c-71b304a89ef7"},"vehicle_type_id":"4","last_reported":1736165882,"current_range_meters":18000,"station_id":"ce4bgs92rcd13ifvqcc0","pricing_plan_id":"cebpf4jnsgd1na2vs0mg"},{"bike_id":"ad3cfa00-37f4-43d9-9ffd-7cdc7e2b8792","system_id":"levelo_inurba_marseille","lat":43.25815,"lon":5.39442,"is_reserved":false,"is_disabled":false,"rental_uris":{"android":"levelo://app?vid=ad3cfa00-37f4-43d9-9ffd-7cdc7e2b8792","ios":"levelo://app?vid=ad3cfa00-37f4-43d9-9ffd-7cdc7e2b8792"},"vehicle_type_id":"4","last_reported":1736165882,"current_range_meters":35200,"station_id":"ce4bhip2rcd13ifvqft0","pricing_plan_id":"cebpf4jnsgd1na2vs0mg"},{"bike_id":"54cbe6e2-79dc-4eb7-b2d2-277b8c2ee356","system_id":"levelo_inurba_marseille","lat":43.2603,"lon":5.37549,"is_reserved":false,"is_disabled":false,"rental_uris":{"android":"levelo://app?vid=54cbe6e2-79dc-4eb7-b2d2-277b8c2ee356","ios":"levelo://app?vid=54cbe6e2-79dc-4eb7-b2d2-277b8c2ee356"},"vehicle_type_id":"4","last_reported":1736165882,"current_range_meters":7200,"station_id":"ce4bhgh2rcd13ifvqfa0","pricing_plan_id":"cebpf4jnsgd1na2vs0mg"},{"bike_id":"6df4001c-2cbd-460a-8a1a-91496e0a14d1","system_id":"levelo_inurba_marseille","lat":43.25823,"lon":5.39433,"is_reserved":false,"is_disabled":false,"rental_uris":{"android":"levelo://app?vid=6df4001c-2cbd-460a-8a1a-91496e0a14d1","ios":"levelo://app?vid=6df4001c-2cbd-460a-8a1a-91496e0a14d1"},"vehicle_type_id":"4","last_reported":1736165882,"current_range_meters":28400,"station_id":"ce4bhip2rcd13ifvqft0","pricing_plan_id":"cebpf4jnsgd1na2vs0mg"},{"bike_id":"ba2b0799-90e5-436b-a8ac-d2a80ff5da69","system_id":"levelo_inurba_marseille","lat":43.24795,"lon":5.37467,"is_reserved":false,"is_disabled":false,"rental_uris":{"android":"levelo://app?vid=ba2b0799-90e5-436b-a8ac-d2a80ff5da69","ios":"levelo://app?vid=ba2b0799-90e5-436b-a8ac-d2a80ff5da69"},"vehicle_type_id":"4","last_reported":1736165882,"current_range_meters":38800,"station_id":"ce4bhgh2rcd13ifvqfb0","pricing_plan_id":"cebpf4jnsgd1na2vs0mg"},{"bike_id":"34e0e10d-adda-4cb6-8029-5f67f4d9d3b3","system_id":"levelo_inurba_marseille","lat":43.30785,"lon":5.3764,"is_reserved":false,"is_disabled":false,"rental_uris":{"android":"levelo://app?vid=34e0e10d-adda-4cb6-8029-5f67f4d9d3b3","ios":"levelo://app?vid=34e0e10d-adda-4cb6-8029-5f67f4d9d3b3"},"vehicle_type_id":"4","last_reported":1736165882,"current_range_meters":38000,"station_id":"ce4bgv92rcd13ifvqcq0","pricing_plan_id":"cebpf4jnsgd1na2vs0mg"},{"bike_id":"ea233be6-a510-4304-a1b1-39263d74d6f7","system_id":"levelo_inurba_marseille","lat":43.28327,"lon":5.38106,"is_reserved":false,"is_disabled":false,"rental_uris":{"android":"levelo://app?vid=ea233be6-a510-4304-a1b1-39263d74d6f7","ios":"levelo://app?vid=ea233be6-a510-4304-a1b1-39263d74d6f7"},"vehicle_type_id":"4","last_reported":1736165882,"current_range_meters":3200,"station_id":"ce4bh412rcd13ifvqdr0","pricing_plan_id":"cebpf4jnsgd1na2vs0mg"},{"bike_id":"4cf124dd-dcf2-4856-bef1-ad42d48f6a5d","system_id":"levelo_inurba_marseille","lat":43.29257,"lon":5.40903,"is_reserved":false,"is_disabled":false,"rental_uris":{"android":"levelo://app?vid=4cf124dd-dcf2-4856-bef1-ad42d48f6a5d","ios":"levelo://app?vid=4cf124dd-dcf2-4856-bef1-ad42d48f6a5d"},"vehicle_type_id":"4","last_reported":1736165882,"current_range_meters":30400,"station_id":"ce4bh192rcd13ifvqdc0","pricing_plan_id":"cebpf4jnsgd1na2vs0mg"},{"bike_id":"e95bb54d-583b-4328-8deb-2f42d6df9b6c","system_id":"levelo_inurba_marseille","lat":43.29122,"lon":5.40095,"is_reserved":false,"is_disabled":false,"rental_uris":{"android":"levelo://app?vid=e95bb54d-583b-4328-8deb-2f42d6df9b6c","ios":"levelo://app?vid=e95bb54d-583b-4328-8deb-2f42d6df9b6c"},"vehicle_type_id":"4","last_reported":1736165882,"current_range_meters":33600,"station_id":"","pricing_plan_id":"cebpf4jnsgd1na2vs0mg"},{"bike_id":"cbc638ef-e540-4f9c-ac5d-e16032597628","system_id":"levelo_inurba_marseille","lat":43.295976,"lon":5.380961,"is_reserved":false,"is_disabled":true,"rental_uris":{"android":"levelo://app?vid=cbc638ef-e540-4f9c-ac5d-e16032597628","ios":"levelo://app?vid=cbc638ef-e540-4f9c-ac5d-e16032597628"},"vehicle_type_id":"4","last_reported":1736165882,"current_range_meters":33200,"station_id":"ce4bgl12rcd13ifvqbo0","pricing_plan_id":"cebpf4jnsgd1na2vs0mg"},{"bike_id":"b804163a-18ae-4fe2-92e6-39887cfee4aa","system_id":"levelo_inurba_marseille","lat":43.29838,"lon":5.36268,"is_reserved":false,"is_disabled":false,"rental_uris":{"android":"levelo://app?vid=b804163a-18ae-4fe2-92e6-39887cfee4aa","ios":"levelo://app?vid=b804163a-18ae-4fe2-92e6-39887cfee4aa"},"vehicle_type_id":"4","last_reported":1736165882,"current_range_meters":35200,"station_id":"ce4bgpp2rcd13ifvqc3g","pricing_plan_id":"cebpf4jnsgd1na2vs0mg"},{"bike_id":"6b130e3d-9e99-4d5f-a8ea-9a076f5f9590","system_id":"levelo_inurba_marseille","lat":43.28338,"lon":5.38121,"is_reserved":false,"is_disabled":false,"rental_uris":{"android":"levelo://app?vid=6b130e3d-9e99-4d5f-a8ea-9a076f5f9590","ios":"levelo://app?vid=6b130e3d-9e99-4d5f-a8ea-9a076f5f9590"},"vehicle_type_id":"4","last_reported":1736165882,"current_range_meters":38800,"station_id":"ce4bh412rcd13ifvqdr0","pricing_plan_id":"cebpf4jnsgd1na2vs0mg"},{"bike_id":"575d52f9-bc84-4e60-9a38-d5e37b52f387","system_id":"levelo_inurba_marseille","lat":43.29113,"lon":5.38124,"is_reserved":false,"is_disabled":false,"rental_uris":{"android":"levelo://app?vid=575d52f9-bc84-4e60-9a38-d5e37b52f387","ios":"levelo://app?vid=575d52f9-bc84-4e60-9a38-d5e37b52f387"},"vehicle_type_id":"4","last_reported":1736165882,"current_range_meters":39200,"station_id":"ce4bh512rcd13ifvqe2g","pricing_plan_id":"cebpf4jnsgd1na2vs0mg"},{"bike_id":"e16c1c8f-94b8-492d-9800-16d000a7444d","system_id":"levelo_inurba_marseille","lat":43.25707,"lon":5.41152,"is_reserved":false,"is_disabled":false,"rental_uris":{"android":"levelo://app?vid=e16c1c8f-94b8-492d-9800-16d000a7444d","ios":"levelo://app?vid=e16c1c8f-94b8-492d-9800-16d000a7444d"},"vehicle_type_id":"4","last_reported":1736165882,"current_range_meters":19600,"station_id":"ce4bhkp2rcd13ifvqgd0","pricing_plan_id":"cebpf4jnsgd1na2vs0mg"},{"bike_id":"7f1ce4ed-0cd0-4d23-b89e-099e0df8c108","system_id":"levelo_inurba_marseille","lat":43.25734,"lon":5.41103,"is_reserved":false,"is_disabled":false,"rental_uris":{"android":"levelo://app?vid=7f1ce4ed-0cd0-4d23-b89e-099e0df8c108","ios":"levelo://app?vid=7f1ce4ed-0cd0-4d23-b89e-099e0df8c108"},"vehicle_type_id":"4","last_reported":1736165882,"current_range_meters":37600,"station_id":"ce4bhkp2rcd13ifvqgd0","pricing_plan_id":"cebpf4jnsgd1na2vs0mg"},{"bike_id":"3158a10a-8be5-4ea0-a427-2f986a71dd04","system_id":"levelo_inurba_marseille","lat":43.3066,"lon":5.40083,"is_reserved":false,"is_disabled":false,"rental_uris":{"android":"levelo://app?vid=3158a10a-8be5-4ea0-a427-2f986a71dd04","ios":"levelo://app?vid=3158a10a-8be5-4ea0-a427-2f986a71dd04"},"vehicle_type_id":"4","last_reported":1736165882,"current_range_meters":38800,"station_id":"ce4bh112rcd13ifvqda0","pricing_plan_id":"cebpf4jnsgd1na2vs0mg"},{"bike_id":"f8142e8a-f886-4c5e-b399-88d8fa1c1d32","system_id":"levelo_inurba_marseille","lat":43.2466,"lon":5.38213,"is_reserved":false,"is_disabled":false,"rental_uris":{"android":"levelo://app?vid=f8142e8a-f886-4c5e-b399-88d8fa1c1d32","ios":"levelo://app?vid=f8142e8a-f886-4c5e-b399-88d8fa1c1d32"},"vehicle_type_id":"4","last_reported":1736165882,"current_range_meters":22800,"station_id":"ce4bhih2rcd13ifvqfr0","pricing_plan_id":"cebpf4jnsgd1na2vs0mg"},{"bike_id":"38179190-6512-4bd2-be05-40d8db0b403b","system_id":"levelo_inurba_marseille","lat":43.29576,"lon":5.3752,"is_reserved":false,"is_disabled":false,"rental_uris":{"android":"levelo://app?vid=38179190-6512-4bd2-be05-40d8db0b403b","ios":"levelo://app?vid=38179190-6512-4bd2-be05-40d8db0b403b"},"vehicle_type_id":"4","last_reported":1736165882,"current_range_meters":11600,"station_id":"ce4bgh92rcd13ifvqb50","pricing_plan_id":"cebpf4jnsgd1na2vs0mg"},{"bike_id":"f3d41f41-839d-41a5-aa6d-f2ba87ff18f0","system_id":"levelo_inurba_marseille","lat":43.24094,"lon":5.3775,"is_reserved":false,"is_disabled":true,"rental_uris":{"android":"levelo://app?vid=f3d41f41-839d-41a5-aa6d-f2ba87ff18f0","ios":"levelo://app?vid=f3d41f41-839d-41a5-aa6d-f2ba87ff18f0"},"vehicle_type_id":"4","last_reported":1736165882,"current_range_meters":36000,"station_id":"ce4bhnp2rcd13ifvqgvg","pricing_plan_id":"cebpf4jnsgd1na2vs0mg"},{"bike_id":"70bfb69f-712e-40a7-9a70-88e082c6ca06","system_id":"levelo_inurba_marseille","lat":43.32294,"lon":5.38269,"is_reserved":false,"is_disabled":false,"rental_uris":{"android":"levelo://app?vid=70bfb69f-712e-40a7-9a70-88e082c6ca06","ios":"levelo://app?vid=70bfb69f-712e-40a7-9a70-88e082c6ca06"},"vehicle_type_id":"4","last_reported":1736165882,"current_range_meters":38800,"station_id":"ce4bhr12rcd13ifvqhqg","pricing_plan_id":"cebpf4jnsgd1na2vs0mg"},{"bike_id":"5a231d4e-1469-4389-a9bc-0d65fec09d5f","system_id":"levelo_inurba_marseille","lat":43.283046,"lon":5.433181,"is_reserved":false,"is_disabled":false,"rental_uris":{"android":"levelo://app?vid=5a231d4e-1469-4389-a9bc-0d65fec09d5f","ios":"levelo://app?vid=5a231d4e-1469-4389-a9bc-0d65fec09d5f"},"vehicle_type_id":"4","last_reported":1736165882,"current_range_meters":9200,"station_id":"","pricing_plan_id":"cebpf4jnsgd1na2vs0mg"},{"bike_id":"ae6d41e5-4b94-4495-98dc-268a5104df03","system_id":"levelo_inurba_marseille","lat":43.315,"lon":5.37304,"is_reserved":false,"is_disabled":false,"rental_uris":{"android":"levelo://app?vid=ae6d41e5-4b94-4495-98dc-268a5104df03","ios":"levelo://app?vid=ae6d41e5-4b94-4495-98dc-268a5104df03"},"vehicle_type_id":"4","last_reported":1736165882,"current_range_meters":39200,"station_id":"ce4bgt12rcd13ifvqcd0","pricing_plan_id":"cebpf4jnsgd1na2vs0mg"},{"bike_id":"eb07fbd4-b824-4dfe-b2fb-1cbdd1685231","system_id":"levelo_inurba_marseille","lat":43.29038,"lon":5.39974,"is_reserved":false,"is_disabled":false,"rental_uris":{"android":"levelo://app?vid=eb07fbd4-b824-4dfe-b2fb-1cbdd1685231","ios":"levelo://app?vid=eb07fbd4-b824-4dfe-b2fb-1cbdd1685231"},"vehicle_type_id":"4","last_reported":1736165882,"current_range_meters":16000,"station_id":"ce4bh392rcd13ifvqdm0","pricing_plan_id":"cebpf4jnsgd1na2vs0mg"},{"bike_id":"322cb96b-3234-42eb-b612-02042895e99b","system_id":"levelo_inurba_marseille","lat":43.32684,"lon":5.40976,"is_reserved":false,"is_disabled":false,"rental_uris":{"android":"levelo://app?vid=322cb96b-3234-42eb-b612-02042895e99b","ios":"levelo://app?vid=322cb96b-3234-42eb-b612-02042895e99b"},"vehicle_type_id":"4","last_reported":1736165882,"current_range_meters":26000,"station_id":"ce4bhpp2rcd13ifvqhgg","pricing_plan_id":"cebpf4jnsgd1na2vs0mg"},{"bike_id":"7b78d5e2-5142-402d-a4f8-0f3037a6c533","system_id":"levelo_inurba_marseille","lat":43.269459,"lon":5.386266,"is_reserved":false,"is_disabled":true,"rental_uris":{"android":"levelo://app?vid=7b78d5e2-5142-402d-a4f8-0f3037a6c533","ios":"levelo://app?vid=7b78d5e2-5142-402d-a4f8-0f3037a6c533"},"vehicle_type_id":"4","last_reported":1736165882,"current_range_meters":36800,"station_id":"ce4bhh92rcd13ifvqfh0","pricing_plan_id":"cebpf4jnsgd1na2vs0mg"},{"bike_id":"7e46465d-6885-4570-aa72-1a895ebe18b8","system_id":"levelo_inurba_marseille","lat":43.30539,"lon":5.36545,"is_reserved":false,"is_disabled":false,"rental_uris":{"android":"levelo://app?vid=7e46465d-6885-4570-aa72-1a895ebe18b8","ios":"levelo://app?vid=7e46465d-6885-4570-aa72-1a895ebe18b8"},"vehicle_type_id":"4","last_reported":1736165882,"current_range_meters":16000,"station_id":"ce4bgs12rcd13ifvqcag","pricing_plan_id":"cebpf4jnsgd1na2vs0mg"},{"bike_id":"2f33d4dd-c94f-41e6-bce5-42d4c6341eb0","system_id":"levelo_inurba_marseille","lat":43.29902,"lon":5.43676,"is_reserved":false,"is_disabled":false,"rental_uris":{"android":"levelo://app?vid=2f33d4dd-c94f-41e6-bce5-42d4c6341eb0","ios":"levelo://app?vid=2f33d4dd-c94f-41e6-bce5-42d4c6341eb0"},"vehicle_type_id":"4","last_reported":1736165882,"current_range_meters":29600,"station_id":"ce4bhpp2rcd13ifvqhfg","pricing_plan_id":"cebpf4jnsgd1na2vs0mg"},{"bike_id":"d0d21930-fe1d-478b-8251-bcf89564599d","system_id":"levelo_inurba_marseille","lat":43.29556,"lon":5.42285,"is_reserved":false,"is_disabled":false,"rental_uris":{"android":"levelo://app?vid=d0d21930-fe1d-478b-8251-bcf89564599d","ios":"levelo://app?vid=d0d21930-fe1d-478b-8251-bcf89564599d"},"vehicle_type_id":"4","last_reported":1736165882,"current_range_meters":24400,"station_id":"ce4bhph2rcd13ifvqhdg","pricing_plan_id":"cebpf4jnsgd1na2vs0mg"},{"bike_id":"793e61cf-3f17-4ddb-a802-7a02054d1a95","system_id":"levelo_inurba_marseille","lat":43.23146,"lon":5.43728,"is_reserved":false,"is_disabled":false,"rental_uris":{"android":"levelo://app?vid=793e61cf-3f17-4ddb-a802-7a02054d1a95","ios":"levelo://app?vid=793e61cf-3f17-4ddb-a802-7a02054d1a95"},"vehicle_type_id":"4","last_reported":1736165882,"current_range_meters":39200,"station_id":"ce4bhmp2rcd13ifvqgog","pricing_plan_id":"cebpf4jnsgd1na2vs0mg"},{"bike_id":"c7255973-6584-4696-a208-d50a2d896042","system_id":"levelo_inurba_marseille","lat":43.31375,"lon":5.38492,"is_reserved":false,"is_disabled":false,"rental_uris":{"android":"levelo://app?vid=c7255973-6584-4696-a208-d50a2d896042","ios":"levelo://app?vid=c7255973-6584-4696-a208-d50a2d896042"},"vehicle_type_id":"4","last_reported":1736165882,"current_range_meters":22400,"station_id":"ce4bgt92rcd13ifvqcf0","pricing_plan_id":"cebpf4jnsgd1na2vs0mg"},{"bike_id":"0ca9f1ed-7278-4491-949d-86ca3eae7e1c","system_id":"levelo_inurba_marseille","lat":43.28967,"lon":5.37856,"is_reserved":false,"is_disabled":false,"rental_uris":{"android":"levelo://app?vid=0ca9f1ed-7278-4491-949d-86ca3eae7e1c","ios":"levelo://app?vid=0ca9f1ed-7278-4491-949d-86ca3eae7e1c"},"vehicle_type_id":"4","last_reported":1736165882,"current_range_meters":24000,"station_id":"ce4bh9p2rcd13ifvqed0","pricing_plan_id":"cebpf4jnsgd1na2vs0mg"},{"bike_id":"41fe54d0-11c0-4553-a6fb-e68574612562","system_id":"levelo_inurba_marseille","lat":43.30426,"lon":5.41291,"is_reserved":false,"is_disabled":false,"rental_uris":{"android":"levelo://app?vid=41fe54d0-11c0-4553-a6fb-e68574612562","ios":"levelo://app?vid=41fe54d0-11c0-4553-a6fb-e68574612562"},"vehicle_type_id":"4","last_reported":1736165882,"current_range_meters":34800,"station_id":"ce4bhop2rcd13ifvqh8g","pricing_plan_id":"cebpf4jnsgd1na2vs0mg"},{"bike_id":"7f20d7b8-4846-436e-ad99-d9ab147c448e","system_id":"levelo_inurba_marseille","lat":43.29975,"lon":5.37176,"is_reserved":false,"is_disabled":false,"rental_uris":{"android":"levelo://app?vid=7f20d7b8-4846-436e-ad99-d9ab147c448e","ios":"levelo://app?vid=7f20d7b8-4846-436e-ad99-d9ab147c448e"},"vehicle_type_id":"4","last_reported":1736165882,"current_range_meters":10800,"station_id":"ce4bgr92rcd13ifvqc7g","pricing_plan_id":"cebpf4jnsgd1na2vs0mg"},{"bike_id":"569c0e07-1419-4914-b870-00b0f2f58196","system_id":"levelo_inurba_marseille","lat":43.29595,"lon":5.38119,"is_reserved":false,"is_disabled":false,"rental_uris":{"android":"levelo://app?vid=569c0e07-1419-4914-b870-00b0f2f58196","ios":"levelo://app?vid=569c0e07-1419-4914-b870-00b0f2f58196"},"vehicle_type_id":"4","last_reported":1736165882,"current_range_meters":39200,"station_id":"ce4bgl12rcd13ifvqbo0","pricing_plan_id":"cebpf4jnsgd1na2vs0mg"},{"bike_id":"5cad4397-d7fe-427d-9b9c-8acb185fe024","system_id":"levelo_inurba_marseille","lat":43.25067,"lon":5.39536,"is_reserved":false,"is_disabled":false,"rental_uris":{"android":"levelo://app?vid=5cad4397-d7fe-427d-9b9c-8acb185fe024","ios":"levelo://app?vid=5cad4397-d7fe-427d-9b9c-8acb185fe024"},"vehicle_type_id":"4","last_reported":1736165882,"current_range_meters":5600,"station_id":"ce4bhm12rcd13ifvqgkg","pricing_plan_id":"cebpf4jnsgd1na2vs0mg"},{"bike_id":"23e54c6b-b5cd-4034-80b5-a112b5c645e7","system_id":"levelo_inurba_marseille","lat":43.32659,"lon":5.41001,"is_reserved":false,"is_disabled":false,"rental_uris":{"android":"levelo://app?vid=23e54c6b-b5cd-4034-80b5-a112b5c645e7","ios":"levelo://app?vid=23e54c6b-b5cd-4034-80b5-a112b5c645e7"},"vehicle_type_id":"4","last_reported":1736165882,"current_range_meters":38800,"station_id":"ce4bhpp2rcd13ifvqhgg","pricing_plan_id":"cebpf4jnsgd1na2vs0mg"},{"bike_id":"b78c62c1-7e72-4036-9558-5091bc269d21","system_id":"levelo_inurba_marseille","lat":43.29554,"lon":5.42289,"is_reserved":false,"is_disabled":false,"rental_uris":{"android":"levelo://app?vid=b78c62c1-7e72-4036-9558-5091bc269d21","ios":"levelo://app?vid=b78c62c1-7e72-4036-9558-5091bc269d21"},"vehicle_type_id":"4","last_reported":1736165882,"current_range_meters":6800,"station_id":"ce4bhph2rcd13ifvqhdg","pricing_plan_id":"cebpf4jnsgd1na2vs0mg"},{"bike_id":"8785ddf2-7225-4c15-a282-1f8baeace2a7","system_id":"levelo_inurba_marseille","lat":43.26053,"lon":5.39385,"is_reserved":false,"is_disabled":false,"rental_uris":{"android":"levelo://app?vid=8785ddf2-7225-4c15-a282-1f8baeace2a7","ios":"levelo://app?vid=8785ddf2-7225-4c15-a282-1f8baeace2a7"},"vehicle_type_id":"4","last_reported":1736165882,"current_range_meters":22400,"station_id":"ce4bhh92rcd13ifvqfj0","pricing_plan_id":"cebpf4jnsgd1na2vs0mg"},{"bike_id":"4d7727df-ac8f-431e-a279-50fc8c6a1628","system_id":"levelo_inurba_marseille","lat":43.31517,"lon":5.37295,"is_reserved":false,"is_disabled":false,"rental_uris":{"android":"levelo://app?vid=4d7727df-ac8f-431e-a279-50fc8c6a1628","ios":"levelo://app?vid=4d7727df-ac8f-431e-a279-50fc8c6a1628"},"vehicle_type_id":"4","last_reported":1736165882,"current_range_meters":39200,"station_id":"ce4bgt12rcd13ifvqcd0","pricing_plan_id":"cebpf4jnsgd1na2vs0mg"},{"bike_id":"f640d27d-7507-4ab5-820d-f001c7fcd03d","system_id":"levelo_inurba_marseille","lat":43.3013,"lon":5.38782,"is_reserved":false,"is_disabled":false,"rental_uris":{"android":"levelo://app?vid=f640d27d-7507-4ab5-820d-f001c7fcd03d","ios":"levelo://app?vid=f640d27d-7507-4ab5-820d-f001c7fcd03d"},"vehicle_type_id":"4","last_reported":1736165882,"current_range_meters":32800,"station_id":"ce4bghh2rcd13ifvqb60","pricing_plan_id":"cebpf4jnsgd1na2vs0mg"},{"bike_id":"420d8542-0ee9-4138-890f-2a1f30a47e9f","system_id":"levelo_inurba_marseille","lat":43.28459,"lon":5.35886,"is_reserved":false,"is_disabled":false,"rental_uris":{"android":"levelo://app?vid=420d8542-0ee9-4138-890f-2a1f30a47e9f","ios":"levelo://app?vid=420d8542-0ee9-4138-890f-2a1f30a47e9f"},"vehicle_type_id":"4","last_reported":1736165882,"current_range_meters":38800,"station_id":"ce4bhah2rcd13ifvqei0","pricing_plan_id":"cebpf4jnsgd1na2vs0mg"},{"bike_id":"c8a399e0-2250-4120-9a38-58485bf7bc36","system_id":"levelo_inurba_marseille","lat":43.29277,"lon":5.40118,"is_reserved":false,"is_disabled":false,"rental_uris":{"android":"levelo://app?vid=c8a399e0-2250-4120-9a38-58485bf7bc36","ios":"levelo://app?vid=c8a399e0-2250-4120-9a38-58485bf7bc36"},"vehicle_type_id":"4","last_reported":1736165882,"current_range_meters":11600,"station_id":"ce4bh312rcd13ifvqdk0","pricing_plan_id":"cebpf4jnsgd1na2vs0mg"},{"bike_id":"debe4c5f-4743-4cfb-88bd-9bd4502d24d0","system_id":"levelo_inurba_marseille","lat":43.29702,"lon":5.36602,"is_reserved":false,"is_disabled":false,"rental_uris":{"android":"levelo://app?vid=debe4c5f-4743-4cfb-88bd-9bd4502d24d0","ios":"levelo://app?vid=debe4c5f-4743-4cfb-88bd-9bd4502d24d0"},"vehicle_type_id":"4","last_reported":1736165882,"current_range_meters":38800,"station_id":"ce4bgn12rcd13ifvqbt0","pricing_plan_id":"cebpf4jnsgd1na2vs0mg"},{"bike_id":"a2fad600-bcdc-4fe2-b5cf-418b8c47104e","system_id":"levelo_inurba_marseille","lat":43.24648,"lon":5.38911,"is_reserved":false,"is_disabled":false,"rental_uris":{"android":"levelo://app?vid=a2fad600-bcdc-4fe2-b5cf-418b8c47104e","ios":"levelo://app?vid=a2fad600-bcdc-4fe2-b5cf-418b8c47104e"},"vehicle_type_id":"4","last_reported":1736165882,"current_range_meters":28400,"station_id":"ce4bhg12rcd13ifvqf60","pricing_plan_id":"cebpf4jnsgd1na2vs0mg"},{"bike_id":"92c070a2-822d-4ada-a5ee-9b7bdd0e61f1","system_id":"levelo_inurba_marseille","lat":43.32668,"lon":5.40982,"is_reserved":false,"is_disabled":false,"rental_uris":{"android":"levelo://app?vid=92c070a2-822d-4ada-a5ee-9b7bdd0e61f1","ios":"levelo://app?vid=92c070a2-822d-4ada-a5ee-9b7bdd0e61f1"},"vehicle_type_id":"4","last_reported":1736165882,"current_range_meters":34000,"station_id":"ce4bhpp2rcd13ifvqhgg","pricing_plan_id":"cebpf4jnsgd1na2vs0mg"},{"bike_id":"9d1941f3-5850-4bc3-bc96-16d2fe4e98d3","system_id":"levelo_inurba_marseille","lat":43.2406,"lon":5.37784,"is_reserved":false,"is_disabled":false,"rental_uris":{"android":"levelo://app?vid=9d1941f3-5850-4bc3-bc96-16d2fe4e98d3","ios":"levelo://app?vid=9d1941f3-5850-4bc3-bc96-16d2fe4e98d3"},"vehicle_type_id":"4","last_reported":1736165882,"current_range_meters":8800,"station_id":"ce4bhnp2rcd13ifvqgvg","pricing_plan_id":"cebpf4jnsgd1na2vs0mg"},{"bike_id":"28d4df31-50ce-4391-8c10-6a3513e978aa","system_id":"levelo_inurba_marseille","lat":43.25137,"lon":5.3944,"is_reserved":false,"is_disabled":false,"rental_uris":{"android":"levelo://app?vid=28d4df31-50ce-4391-8c10-6a3513e978aa","ios":"levelo://app?vid=28d4df31-50ce-4391-8c10-6a3513e978aa"},"vehicle_type_id":"4","last_reported":1736165882,"current_range_meters":5600,"station_id":"ce4bhm12rcd13ifvqgkg","pricing_plan_id":"cebpf4jnsgd1na2vs0mg"},{"bike_id":"fa6ce15d-ea38-43ad-8363-6d9492b07bfd","system_id":"levelo_inurba_marseille","lat":43.30931,"lon":5.4014,"is_reserved":false,"is_disabled":false,"rental_uris":{"android":"levelo://app?vid=fa6ce15d-ea38-43ad-8363-6d9492b07bfd","ios":"levelo://app?vid=fa6ce15d-ea38-43ad-8363-6d9492b07bfd"},"vehicle_type_id":"4","last_reported":1736165882,"current_range_meters":37600,"station_id":"ce4bgvp2rcd13ifvqct0","pricing_plan_id":"cebpf4jnsgd1na2vs0mg"},{"bike_id":"9acca917-b463-44d0-a0bf-7c7079388585","system_id":"levelo_inurba_marseille","lat":43.30535,"lon":5.36719,"is_reserved":false,"is_disabled":false,"rental_uris":{"android":"levelo://app?vid=9acca917-b463-44d0-a0bf-7c7079388585","ios":"levelo://app?vid=9acca917-b463-44d0-a0bf-7c7079388585"},"vehicle_type_id":"4","last_reported":1736165882,"current_range_meters":25200,"station_id":"ce4bgrp2rcd13ifvqc9g","pricing_plan_id":"cebpf4jnsgd1na2vs0mg"},{"bike_id":"6a595de3-0911-46a9-bdbf-4cca5437105e","system_id":"levelo_inurba_marseille","lat":43.23211,"lon":5.35554,"is_reserved":false,"is_disabled":false,"rental_uris":{"android":"levelo://app?vid=6a595de3-0911-46a9-bdbf-4cca5437105e","ios":"levelo://app?vid=6a595de3-0911-46a9-bdbf-4cca5437105e"},"vehicle_type_id":"4","last_reported":1736165882,"current_range_meters":22000,"station_id":"ce4bhu92rcd13ifvqi70","pricing_plan_id":"cebpf4jnsgd1na2vs0mg"},{"bike_id":"641d8acc-50b2-4173-ab23-c70f2a11d28e","system_id":"levelo_inurba_marseille","lat":43.28156,"lon":5.42615,"is_reserved":false,"is_disabled":true,"rental_uris":{"android":"levelo://app?vid=641d8acc-50b2-4173-ab23-c70f2a11d28e","ios":"levelo://app?vid=641d8acc-50b2-4173-ab23-c70f2a11d28e"},"vehicle_type_id":"4","last_reported":1736165882,"current_range_meters":27600,"station_id":"ce4bhnh2rcd13ifvqgug","pricing_plan_id":"cebpf4jnsgd1na2vs0mg"},{"bike_id":"15e503f5-1d52-42d6-a98f-33a61fd8b554","system_id":"levelo_inurba_marseille","lat":43.28462,"lon":5.35896,"is_reserved":false,"is_disabled":true,"rental_uris":{"android":"levelo://app?vid=15e503f5-1d52-42d6-a98f-33a61fd8b554","ios":"levelo://app?vid=15e503f5-1d52-42d6-a98f-33a61fd8b554"},"vehicle_type_id":"4","last_reported":1736165882,"current_range_meters":22400,"station_id":"ce4bhah2rcd13ifvqei0","pricing_plan_id":"cebpf4jnsgd1na2vs0mg"},{"bike_id":"6a6cde56-543d-4320-b530-a8d4d4944794","system_id":"levelo_inurba_marseille","lat":43.29911,"lon":5.43664,"is_reserved":false,"is_disabled":false,"rental_uris":{"android":"levelo://app?vid=6a6cde56-543d-4320-b530-a8d4d4944794","ios":"levelo://app?vid=6a6cde56-543d-4320-b530-a8d4d4944794"},"vehicle_type_id":"4","last_reported":1736165882,"current_range_meters":24400,"station_id":"ce4bhpp2rcd13ifvqhfg","pricing_plan_id":"cebpf4jnsgd1na2vs0mg"},{"bike_id":"73592c3a-584f-4d66-b4b1-5f9363f590c2","system_id":"levelo_inurba_marseille","lat":43.309,"lon":5.36937,"is_reserved":false,"is_disabled":false,"rental_uris":{"android":"levelo://app?vid=73592c3a-584f-4d66-b4b1-5f9363f590c2","ios":"levelo://app?vid=73592c3a-584f-4d66-b4b1-5f9363f590c2"},"vehicle_type_id":"4","last_reported":1736165882,"current_range_meters":35600,"station_id":"","pricing_plan_id":"cebpf4jnsgd1na2vs0mg"},{"bike_id":"88fbd2f9-edba-4674-927d-ce8a9c56a0e7","system_id":"levelo_inurba_marseille","lat":43.28158,"lon":5.42652,"is_reserved":false,"is_disabled":false,"rental_uris":{"android":"levelo://app?vid=88fbd2f9-edba-4674-927d-ce8a9c56a0e7","ios":"levelo://app?vid=88fbd2f9-edba-4674-927d-ce8a9c56a0e7"},"vehicle_type_id":"4","last_reported":1736165882,"current_range_meters":28000,"station_id":"ce4bhnh2rcd13ifvqgug","pricing_plan_id":"cebpf4jnsgd1na2vs0mg"},{"bike_id":"1d0bbe0f-f700-4582-ac8d-9f2887749fbf","system_id":"levelo_inurba_marseille","lat":43.28444,"lon":5.38435,"is_reserved":false,"is_disabled":true,"rental_uris":{"android":"levelo://app?vid=1d0bbe0f-f700-4582-ac8d-9f2887749fbf","ios":"levelo://app?vid=1d0bbe0f-f700-4582-ac8d-9f2887749fbf"},"vehicle_type_id":"4","last_reported":1736165882,"current_range_meters":36800,"station_id":"ce4bh512rcd13ifvqe3g","pricing_plan_id":"cebpf4jnsgd1na2vs0mg"},{"bike_id":"a864bbcb-fe97-460f-a2fe-41c317977af9","system_id":"levelo_inurba_marseille","lat":43.28155,"lon":5.42642,"is_reserved":false,"is_disabled":false,"rental_uris":{"android":"levelo://app?vid=a864bbcb-fe97-460f-a2fe-41c317977af9","ios":"levelo://app?vid=a864bbcb-fe97-460f-a2fe-41c317977af9"},"vehicle_type_id":"4","last_reported":1736165882,"current_range_meters":24400,"station_id":"ce4bhnh2rcd13ifvqgug","pricing_plan_id":"cebpf4jnsgd1na2vs0mg"},{"bike_id":"d8538a53-e15d-474e-a4bb-dd6a4f69ead9","system_id":"levelo_inurba_marseille","lat":43.24655,"lon":5.38893,"is_reserved":false,"is_disabled":false,"rental_uris":{"android":"levelo://app?vid=d8538a53-e15d-474e-a4bb-dd6a4f69ead9","ios":"levelo://app?vid=d8538a53-e15d-474e-a4bb-dd6a4f69ead9"},"vehicle_type_id":"4","last_reported":1736165882,"current_range_meters":15200,"station_id":"ce4bhg12rcd13ifvqf60","pricing_plan_id":"cebpf4jnsgd1na2vs0mg"},{"bike_id":"98078c68-713a-4a78-873e-a3a8e67f221b","system_id":"levelo_inurba_marseille","lat":43.30605,"lon":5.37219,"is_reserved":false,"is_disabled":false,"rental_uris":{"android":"levelo://app?vid=98078c68-713a-4a78-873e-a3a8e67f221b","ios":"levelo://app?vid=98078c68-713a-4a78-873e-a3a8e67f221b"},"vehicle_type_id":"4","last_reported":1736165882,"current_range_meters":38400,"station_id":"ce4bgqh2rcd13ifvqc4g","pricing_plan_id":"cebpf4jnsgd1na2vs0mg"},{"bike_id":"e945b5ed-7c2f-49e9-a5ab-87433ef88f1a","system_id":"levelo_inurba_marseille","lat":43.24999,"lon":5.3895,"is_reserved":false,"is_disabled":false,"rental_uris":{"android":"levelo://app?vid=e945b5ed-7c2f-49e9-a5ab-87433ef88f1a","ios":"levelo://app?vid=e945b5ed-7c2f-49e9-a5ab-87433ef88f1a"},"vehicle_type_id":"4","last_reported":1736165882,"current_range_meters":12800,"station_id":"ce4bhgp2rcd13ifvqfd0","pricing_plan_id":"cebpf4jnsgd1na2vs0mg"},{"bike_id":"237eb7a7-7331-4631-9377-6cdbdc6e4e98","system_id":"levelo_inurba_marseille","lat":43.265557,"lon":5.390153,"is_reserved":false,"is_disabled":true,"rental_uris":{"android":"levelo://app?vid=237eb7a7-7331-4631-9377-6cdbdc6e4e98","ios":"levelo://app?vid=237eb7a7-7331-4631-9377-6cdbdc6e4e98"},"vehicle_type_id":"4","last_reported":1736165882,"current_range_meters":36000,"station_id":"ce4bhe12rcd13ifvqf30","pricing_plan_id":"cebpf4jnsgd1na2vs0mg"},{"bike_id":"b2b93227-fa6c-4ec7-999c-861a4aa7028e","system_id":"levelo_inurba_marseille","lat":43.25946,"lon":5.40893,"is_reserved":false,"is_disabled":true,"rental_uris":{"android":"levelo://app?vid=b2b93227-fa6c-4ec7-999c-861a4aa7028e","ios":"levelo://app?vid=b2b93227-fa6c-4ec7-999c-861a4aa7028e"},"vehicle_type_id":"4","last_reported":1736165882,"current_range_meters":0,"station_id":"ce4bhm92rcd13ifvqglg","pricing_plan_id":"cebpf4jnsgd1na2vs0mg"},{"bike_id":"f72bc202-65c3-48d4-84be-fd7cacb541fe","system_id":"levelo_inurba_marseille","lat":43.30613,"lon":5.393549,"is_reserved":false,"is_disabled":true,"rental_uris":{"android":"levelo://app?vid=f72bc202-65c3-48d4-84be-fd7cacb541fe","ios":"levelo://app?vid=f72bc202-65c3-48d4-84be-fd7cacb541fe"},"vehicle_type_id":"4","last_reported":1736165882,"current_range_meters":37600,"station_id":"ce4bh0p2rcd13ifvqd80","pricing_plan_id":"cebpf4jnsgd1na2vs0mg"},{"bike_id":"983a939f-0c90-4b41-8e07-1ba37a328643","system_id":"levelo_inurba_marseille","lat":43.24173,"lon":5.364037,"is_reserved":false,"is_disabled":false,"rental_uris":{"android":"levelo://app?vid=983a939f-0c90-4b41-8e07-1ba37a328643","ios":"levelo://app?vid=983a939f-0c90-4b41-8e07-1ba37a328643"},"vehicle_type_id":"4","last_reported":1736165882,"current_range_meters":16400,"station_id":"cpo36qri1sfpv3e86is0","pricing_plan_id":"cebpf4jnsgd1na2vs0mg"},{"bike_id":"00a90d78-1997-499c-9491-16973d059e3f","system_id":"levelo_inurba_marseille","lat":43.24016,"lon":5.37836,"is_reserved":false,"is_disabled":false,"rental_uris":{"android":"levelo://app?vid=00a90d78-1997-499c-9491-16973d059e3f","ios":"levelo://app?vid=00a90d78-1997-499c-9491-16973d059e3f"},"vehicle_type_id":"4","last_reported":1736165882,"current_range_meters":37600,"station_id":"","pricing_plan_id":"cebpf4jnsgd1na2vs0mg"},{"bike_id":"3ec6d27e-c1f1-4ff1-9bef-517a01fb783d","system_id":"levelo_inurba_marseille","lat":43.2926,"lon":5.38445,"is_reserved":false,"is_disabled":false,"rental_uris":{"android":"levelo://app?vid=3ec6d27e-c1f1-4ff1-9bef-517a01fb783d","ios":"levelo://app?vid=3ec6d27e-c1f1-4ff1-9bef-517a01fb783d"},"vehicle_type_id":"4","last_reported":1736165882,"current_range_meters":16400,"station_id":"ce4bh692rcd13ifvqea0","pricing_plan_id":"cebpf4jnsgd1na2vs0mg"},{"bike_id":"4ebf1dec-c564-4a9c-9b5e-add771991590","system_id":"levelo_inurba_marseille","lat":43.30658,"lon":5.39523,"is_reserved":false,"is_disabled":true,"rental_uris":{"android":"levelo://app?vid=4ebf1dec-c564-4a9c-9b5e-add771991590","ios":"levelo://app?vid=4ebf1dec-c564-4a9c-9b5e-add771991590"},"vehicle_type_id":"4","last_reported":1736165882,"current_range_meters":0,"station_id":"ce4bh012rcd13ifvqcv0","pricing_plan_id":"cebpf4jnsgd1na2vs0mg"},{"bike_id":"794820a8-3ae3-4e47-b94b-63ea56986ff5","system_id":"levelo_inurba_marseille","lat":43.29546,"lon":5.42287,"is_reserved":false,"is_disabled":false,"rental_uris":{"android":"levelo://app?vid=794820a8-3ae3-4e47-b94b-63ea56986ff5","ios":"levelo://app?vid=794820a8-3ae3-4e47-b94b-63ea56986ff5"},"vehicle_type_id":"4","last_reported":1736165882,"current_range_meters":17200,"station_id":"ce4bhph2rcd13ifvqhdg","pricing_plan_id":"cebpf4jnsgd1na2vs0mg"},{"bike_id":"f4d8c4ef-8386-4f21-ac5a-4d5f45998a58","system_id":"levelo_inurba_marseille","lat":43.3268,"lon":5.40973,"is_reserved":false,"is_disabled":false,"rental_uris":{"android":"levelo://app?vid=f4d8c4ef-8386-4f21-ac5a-4d5f45998a58","ios":"levelo://app?vid=f4d8c4ef-8386-4f21-ac5a-4d5f45998a58"},"vehicle_type_id":"4","last_reported":1736165882,"current_range_meters":27200,"station_id":"ce4bhpp2rcd13ifvqhgg","pricing_plan_id":"cebpf4jnsgd1na2vs0mg"},{"bike_id":"73881a79-d492-4189-92f3-51eb971610eb","system_id":"levelo_inurba_marseille","lat":43.2468,"lon":5.38162,"is_reserved":false,"is_disabled":false,"rental_uris":{"android":"levelo://app?vid=73881a79-d492-4189-92f3-51eb971610eb","ios":"levelo://app?vid=73881a79-d492-4189-92f3-51eb971610eb"},"vehicle_type_id":"4","last_reported":1736165882,"current_range_meters":20800,"station_id":"ce4bhih2rcd13ifvqfr0","pricing_plan_id":"cebpf4jnsgd1na2vs0mg"},{"bike_id":"471f9cd4-a334-48ed-b8cf-9b2f6a07f465","system_id":"levelo_inurba_marseille","lat":43.27371,"lon":5.36263,"is_reserved":false,"is_disabled":false,"rental_uris":{"android":"levelo://app?vid=471f9cd4-a334-48ed-b8cf-9b2f6a07f465","ios":"levelo://app?vid=471f9cd4-a334-48ed-b8cf-9b2f6a07f465"},"vehicle_type_id":"4","last_reported":1736165882,"current_range_meters":36400,"station_id":"ce4bhbh2rcd13ifvqeo0","pricing_plan_id":"cebpf4jnsgd1na2vs0mg"},{"bike_id":"06532eee-b42e-4f78-9a66-21eddface788","system_id":"levelo_inurba_marseille","lat":43.27061,"lon":5.40266,"is_reserved":false,"is_disabled":false,"rental_uris":{"android":"levelo://app?vid=06532eee-b42e-4f78-9a66-21eddface788","ios":"levelo://app?vid=06532eee-b42e-4f78-9a66-21eddface788"},"vehicle_type_id":"4","last_reported":1736165882,"current_range_meters":36400,"station_id":"ce4bhk92rcd13ifvqgc0","pricing_plan_id":"cebpf4jnsgd1na2vs0mg"},{"bike_id":"cca2f7c7-45e7-4f8a-80d9-cffca2b70c93","system_id":"levelo_inurba_marseille","lat":43.267,"lon":5.38298,"is_reserved":false,"is_disabled":true,"rental_uris":{"android":"levelo://app?vid=cca2f7c7-45e7-4f8a-80d9-cffca2b70c93","ios":"levelo://app?vid=cca2f7c7-45e7-4f8a-80d9-cffca2b70c93"},"vehicle_type_id":"4","last_reported":1736165882,"current_range_meters":36400,"station_id":"ce4bhg92rcd13ifvqf90","pricing_plan_id":"cebpf4jnsgd1na2vs0mg"},{"bike_id":"126c71b7-4a16-436e-b681-5136670049ce","system_id":"levelo_inurba_marseille","lat":43.29527,"lon":5.375,"is_reserved":false,"is_disabled":false,"rental_uris":{"android":"levelo://app?vid=126c71b7-4a16-436e-b681-5136670049ce","ios":"levelo://app?vid=126c71b7-4a16-436e-b681-5136670049ce"},"vehicle_type_id":"4","last_reported":1736165882,"current_range_meters":38800,"station_id":"ce4bgkp2rcd13ifvqbmg","pricing_plan_id":"cebpf4jnsgd1na2vs0mg"},{"bike_id":"de61784b-9926-4849-b558-4384f26dad49","system_id":"levelo_inurba_marseille","lat":43.28491,"lon":5.38448,"is_reserved":false,"is_disabled":true,"rental_uris":{"android":"levelo://app?vid=de61784b-9926-4849-b558-4384f26dad49","ios":"levelo://app?vid=de61784b-9926-4849-b558-4384f26dad49"},"vehicle_type_id":"4","last_reported":1736165882,"current_range_meters":37600,"station_id":"ce4bh512rcd13ifvqe3g","pricing_plan_id":"cebpf4jnsgd1na2vs0mg"},{"bike_id":"eaa56ca3-4c6b-4de4-a931-283a9cae878e","system_id":"levelo_inurba_marseille","lat":43.29025,"lon":5.35609,"is_reserved":false,"is_disabled":false,"rental_uris":{"android":"levelo://app?vid=eaa56ca3-4c6b-4de4-a931-283a9cae878e","ios":"levelo://app?vid=eaa56ca3-4c6b-4de4-a931-283a9cae878e"},"vehicle_type_id":"4","last_reported":1736165882,"current_range_meters":38000,"station_id":"ce4bhb92rcd13ifvqen0","pricing_plan_id":"cebpf4jnsgd1na2vs0mg"},{"bike_id":"130e7941-22e2-4c3a-bfb7-ba61e8cffc8f","system_id":"levelo_inurba_marseille","lat":43.25,"lon":5.38958,"is_reserved":false,"is_disabled":false,"rental_uris":{"android":"levelo://app?vid=130e7941-22e2-4c3a-bfb7-ba61e8cffc8f","ios":"levelo://app?vid=130e7941-22e2-4c3a-bfb7-ba61e8cffc8f"},"vehicle_type_id":"4","last_reported":1736165882,"current_range_meters":28000,"station_id":"ce4bhgp2rcd13ifvqfd0","pricing_plan_id":"cebpf4jnsgd1na2vs0mg"},{"bike_id":"182c8827-ad8b-4aa6-9862-5b2da55309dc","system_id":"levelo_inurba_marseille","lat":43.2922,"lon":5.36053,"is_reserved":false,"is_disabled":true,"rental_uris":{"android":"levelo://app?vid=182c8827-ad8b-4aa6-9862-5b2da55309dc","ios":"levelo://app?vid=182c8827-ad8b-4aa6-9862-5b2da55309dc"},"vehicle_type_id":"4","last_reported":1736165882,"current_range_meters":35600,"station_id":"ce4bhbh2rcd13ifvqeqg","pricing_plan_id":"cebpf4jnsgd1na2vs0mg"},{"bike_id":"2e7da6b8-496a-44c3-ad7d-f5a4807c2107","system_id":"levelo_inurba_marseille","lat":43.30956,"lon":5.3904,"is_reserved":false,"is_disabled":false,"rental_uris":{"android":"levelo://app?vid=2e7da6b8-496a-44c3-ad7d-f5a4807c2107","ios":"levelo://app?vid=2e7da6b8-496a-44c3-ad7d-f5a4807c2107"},"vehicle_type_id":"4","last_reported":1736165882,"current_range_meters":33600,"station_id":"ce4bgup2rcd13ifvqco0","pricing_plan_id":"cebpf4jnsgd1na2vs0mg"},{"bike_id":"f170f9ff-52ce-45f9-9007-9645ad23bf1c","system_id":"levelo_inurba_marseille","lat":43.27553,"lon":5.38419,"is_reserved":false,"is_disabled":false,"rental_uris":{"android":"levelo://app?vid=f170f9ff-52ce-45f9-9007-9645ad23bf1c","ios":"levelo://app?vid=f170f9ff-52ce-45f9-9007-9645ad23bf1c"},"vehicle_type_id":"4","last_reported":1736165882,"current_range_meters":37600,"station_id":"ce4bhh92rcd13ifvqfi0","pricing_plan_id":"cebpf4jnsgd1na2vs0mg"},{"bike_id":"8780694d-9f05-454a-aacd-f689675979ff","system_id":"levelo_inurba_marseille","lat":43.25945,"lon":5.40901,"is_reserved":false,"is_disabled":false,"rental_uris":{"android":"levelo://app?vid=8780694d-9f05-454a-aacd-f689675979ff","ios":"levelo://app?vid=8780694d-9f05-454a-aacd-f689675979ff"},"vehicle_type_id":"4","last_reported":1736165882,"current_range_meters":27200,"station_id":"ce4bhm92rcd13ifvqglg","pricing_plan_id":"cebpf4jnsgd1na2vs0mg"},{"bike_id":"5ae5e8bc-3e5d-44b3-b3b3-d5eaed6a0f9f","system_id":"levelo_inurba_marseille","lat":43.25573,"lon":5.38243,"is_reserved":false,"is_disabled":false,"rental_uris":{"android":"levelo://app?vid=5ae5e8bc-3e5d-44b3-b3b3-d5eaed6a0f9f","ios":"levelo://app?vid=5ae5e8bc-3e5d-44b3-b3b3-d5eaed6a0f9f"},"vehicle_type_id":"4","last_reported":1736165882,"current_range_meters":30800,"station_id":"ce4bhih2rcd13ifvqfs0","pricing_plan_id":"cebpf4jnsgd1na2vs0mg"},{"bike_id":"6799158d-6f54-4f3c-a3df-060cd2bab971","system_id":"levelo_inurba_marseille","lat":43.30453,"lon":5.37907,"is_reserved":false,"is_disabled":false,"rental_uris":{"android":"levelo://app?vid=6799158d-6f54-4f3c-a3df-060cd2bab971","ios":"levelo://app?vid=6799158d-6f54-4f3c-a3df-060cd2bab971"},"vehicle_type_id":"4","last_reported":1736165882,"current_range_meters":27200,"station_id":"ce4bgup2rcd13ifvqcn0","pricing_plan_id":"cebpf4jnsgd1na2vs0mg"},{"bike_id":"8bacdaca-b499-4837-9d6b-73ff9ef5b0d7","system_id":"levelo_inurba_marseille","lat":43.305003,"lon":5.380927,"is_reserved":false,"is_disabled":false,"rental_uris":{"android":"levelo://app?vid=8bacdaca-b499-4837-9d6b-73ff9ef5b0d7","ios":"levelo://app?vid=8bacdaca-b499-4837-9d6b-73ff9ef5b0d7"},"vehicle_type_id":"4","last_reported":1736165882,"current_range_meters":28000,"station_id":"","pricing_plan_id":"cebpf4jnsgd1na2vs0mg"},{"bike_id":"5dd391b3-b1bb-414b-b947-e01c598ef37e","system_id":"levelo_inurba_marseille","lat":43.28478,"lon":5.38409,"is_reserved":false,"is_disabled":false,"rental_uris":{"android":"levelo://app?vid=5dd391b3-b1bb-414b-b947-e01c598ef37e","ios":"levelo://app?vid=5dd391b3-b1bb-414b-b947-e01c598ef37e"},"vehicle_type_id":"4","last_reported":1736165882,"current_range_meters":13600,"station_id":"ce4bh512rcd13ifvqe3g","pricing_plan_id":"cebpf4jnsgd1na2vs0mg"},{"bike_id":"355eb815-c703-4d97-82e0-9308ba4036e5","system_id":"levelo_inurba_marseille","lat":43.23964,"lon":5.36642,"is_reserved":false,"is_disabled":false,"rental_uris":{"android":"levelo://app?vid=355eb815-c703-4d97-82e0-9308ba4036e5","ios":"levelo://app?vid=355eb815-c703-4d97-82e0-9308ba4036e5"},"vehicle_type_id":"4","last_reported":1736165882,"current_range_meters":5600,"station_id":"ce4bhi12rcd13ifvqfp0","pricing_plan_id":"cebpf4jnsgd1na2vs0mg"},{"bike_id":"bacd7571-be15-43c7-8506-8086a631a213","system_id":"levelo_inurba_marseille","lat":43.25107,"lon":5.40368,"is_reserved":false,"is_disabled":false,"rental_uris":{"android":"levelo://app?vid=bacd7571-be15-43c7-8506-8086a631a213","ios":"levelo://app?vid=bacd7571-be15-43c7-8506-8086a631a213"},"vehicle_type_id":"4","last_reported":1736165882,"current_range_meters":38400,"station_id":"ce4bhlh2rcd13ifvqgig","pricing_plan_id":"cebpf4jnsgd1na2vs0mg"},{"bike_id":"3b4b2fb1-edc9-404a-8f75-6ab03fc9e621","system_id":"levelo_inurba_marseille","lat":43.29264,"lon":5.38441,"is_reserved":false,"is_disabled":false,"rental_uris":{"android":"levelo://app?vid=3b4b2fb1-edc9-404a-8f75-6ab03fc9e621","ios":"levelo://app?vid=3b4b2fb1-edc9-404a-8f75-6ab03fc9e621"},"vehicle_type_id":"4","last_reported":1736165882,"current_range_meters":28000,"station_id":"ce4bh692rcd13ifvqea0","pricing_plan_id":"cebpf4jnsgd1na2vs0mg"},{"bike_id":"6c15ab7d-af59-4769-b84d-bc2dfca3aa2d","system_id":"levelo_inurba_marseille","lat":43.30204,"lon":5.36595,"is_reserved":false,"is_disabled":false,"rental_uris":{"android":"levelo://app?vid=6c15ab7d-af59-4769-b84d-bc2dfca3aa2d","ios":"levelo://app?vid=6c15ab7d-af59-4769-b84d-bc2dfca3aa2d"},"vehicle_type_id":"4","last_reported":1736165882,"current_range_meters":38800,"station_id":"ce4bgrh2rcd13ifvqc8g","pricing_plan_id":"cebpf4jnsgd1na2vs0mg"},{"bike_id":"583935a9-66ac-4274-8425-07ab27dfb415","system_id":"levelo_inurba_marseille","lat":43.29648,"lon":5.37163,"is_reserved":false,"is_disabled":false,"rental_uris":{"android":"levelo://app?vid=583935a9-66ac-4274-8425-07ab27dfb415","ios":"levelo://app?vid=583935a9-66ac-4274-8425-07ab27dfb415"},"vehicle_type_id":"4","last_reported":1736165882,"current_range_meters":36000,"station_id":"ce4bgnh2rcd13ifvqc0g","pricing_plan_id":"cebpf4jnsgd1na2vs0mg"},{"bike_id":"24bccac7-1e4b-45e8-bc23-0feeff5509f0","system_id":"levelo_inurba_marseille","lat":43.26479,"lon":5.39578,"is_reserved":false,"is_disabled":true,"rental_uris":{"android":"levelo://app?vid=24bccac7-1e4b-45e8-bc23-0feeff5509f0","ios":"levelo://app?vid=24bccac7-1e4b-45e8-bc23-0feeff5509f0"},"vehicle_type_id":"4","last_reported":1736165882,"current_range_meters":0,"station_id":"ce4bhi12rcd13ifvqfq0","pricing_plan_id":"cebpf4jnsgd1na2vs0mg"},{"bike_id":"3595a3b2-dd09-4e04-956c-9f82dab970c3","system_id":"levelo_inurba_marseille","lat":43.30308,"lon":5.36893,"is_reserved":false,"is_disabled":false,"rental_uris":{"android":"levelo://app?vid=3595a3b2-dd09-4e04-956c-9f82dab970c3","ios":"levelo://app?vid=3595a3b2-dd09-4e04-956c-9f82dab970c3"},"vehicle_type_id":"4","last_reported":1736165882,"current_range_meters":32000,"station_id":"ce4bgqh2rcd13ifvqc5g","pricing_plan_id":"cebpf4jnsgd1na2vs0mg"},{"bike_id":"e5886f72-2e29-4636-9d03-65c8d6714f43","system_id":"levelo_inurba_marseille","lat":43.32509,"lon":5.36533,"is_reserved":false,"is_disabled":false,"rental_uris":{"android":"levelo://app?vid=e5886f72-2e29-4636-9d03-65c8d6714f43","ios":"levelo://app?vid=e5886f72-2e29-4636-9d03-65c8d6714f43"},"vehicle_type_id":"4","last_reported":1736165882,"current_range_meters":28400,"station_id":"ce4bhs12rcd13ifvqhvg","pricing_plan_id":"cebpf4jnsgd1na2vs0mg"},{"bike_id":"d400eb61-16e5-4772-875c-c1ea2e3b188d","system_id":"levelo_inurba_marseille","lat":43.27655,"lon":5.38943,"is_reserved":false,"is_disabled":false,"rental_uris":{"android":"levelo://app?vid=d400eb61-16e5-4772-875c-c1ea2e3b188d","ios":"levelo://app?vid=d400eb61-16e5-4772-875c-c1ea2e3b188d"},"vehicle_type_id":"4","last_reported":1736165882,"current_range_meters":38000,"station_id":"","pricing_plan_id":"cebpf4jnsgd1na2vs0mg"},{"bike_id":"cffd017d-8541-4adb-92a2-b3ad33d37f2a","system_id":"levelo_inurba_marseille","lat":43.29297,"lon":5.40138,"is_reserved":false,"is_disabled":true,"rental_uris":{"android":"levelo://app?vid=cffd017d-8541-4adb-92a2-b3ad33d37f2a","ios":"levelo://app?vid=cffd017d-8541-4adb-92a2-b3ad33d37f2a"},"vehicle_type_id":"4","last_reported":1736165882,"current_range_meters":37600,"station_id":"ce4bh312rcd13ifvqdk0","pricing_plan_id":"cebpf4jnsgd1na2vs0mg"},{"bike_id":"7f4f4843-1036-4d54-bcf2-9a2a2084dc13","system_id":"levelo_inurba_marseille","lat":43.29028,"lon":5.3594,"is_reserved":false,"is_disabled":false,"rental_uris":{"android":"levelo://app?vid=7f4f4843-1036-4d54-bcf2-9a2a2084dc13","ios":"levelo://app?vid=7f4f4843-1036-4d54-bcf2-9a2a2084dc13"},"vehicle_type_id":"4","last_reported":1736165882,"current_range_meters":38400,"station_id":"ce4bha92rcd13ifvqeg0","pricing_plan_id":"cebpf4jnsgd1na2vs0mg"},{"bike_id":"11577b5a-a84e-4228-9a0b-e7255b2e539f","system_id":"levelo_inurba_marseille","lat":43.23157,"lon":5.43709,"is_reserved":false,"is_disabled":false,"rental_uris":{"android":"levelo://app?vid=11577b5a-a84e-4228-9a0b-e7255b2e539f","ios":"levelo://app?vid=11577b5a-a84e-4228-9a0b-e7255b2e539f"},"vehicle_type_id":"4","last_reported":1736165882,"current_range_meters":8800,"station_id":"ce4bhmp2rcd13ifvqgog","pricing_plan_id":"cebpf4jnsgd1na2vs0mg"},{"bike_id":"d45d0089-5e8c-41ac-a04c-9866c8dc94cc","system_id":"levelo_inurba_marseille","lat":43.23191,"lon":5.35558,"is_reserved":false,"is_disabled":false,"rental_uris":{"android":"levelo://app?vid=d45d0089-5e8c-41ac-a04c-9866c8dc94cc","ios":"levelo://app?vid=d45d0089-5e8c-41ac-a04c-9866c8dc94cc"},"vehicle_type_id":"4","last_reported":1736165882,"current_range_meters":8000,"station_id":"ce4bhu92rcd13ifvqi70","pricing_plan_id":"cebpf4jnsgd1na2vs0mg"},{"bike_id":"b5de95e0-8f34-41aa-a5fc-c4e76e03a994","system_id":"levelo_inurba_marseille","lat":43.28094,"lon":5.39655,"is_reserved":false,"is_disabled":true,"rental_uris":{"android":"levelo://app?vid=b5de95e0-8f34-41aa-a5fc-c4e76e03a994","ios":"levelo://app?vid=b5de95e0-8f34-41aa-a5fc-c4e76e03a994"},"vehicle_type_id":"4","last_reported":1736165882,"current_range_meters":27600,"station_id":"ce4bho12rcd13ifvqh2g","pricing_plan_id":"cebpf4jnsgd1na2vs0mg"},{"bike_id":"aa33a53e-f806-43a8-ad7e-8e2bd9644426","system_id":"levelo_inurba_marseille","lat":43.32345,"lon":5.40629,"is_reserved":false,"is_disabled":true,"rental_uris":{"android":"levelo://app?vid=aa33a53e-f806-43a8-ad7e-8e2bd9644426","ios":"levelo://app?vid=aa33a53e-f806-43a8-ad7e-8e2bd9644426"},"vehicle_type_id":"4","last_reported":1736165882,"current_range_meters":0,"station_id":"ce4bhq92rcd13ifvqhjg","pricing_plan_id":"cebpf4jnsgd1na2vs0mg"},{"bike_id":"d2a73df2-90e3-4a47-8395-bdd8c5ec07b0","system_id":"levelo_inurba_marseille","lat":43.2904,"lon":5.39974,"is_reserved":false,"is_disabled":false,"rental_uris":{"android":"levelo://app?vid=d2a73df2-90e3-4a47-8395-bdd8c5ec07b0","ios":"levelo://app?vid=d2a73df2-90e3-4a47-8395-bdd8c5ec07b0"},"vehicle_type_id":"4","last_reported":1736165882,"current_range_meters":33600,"station_id":"ce4bh392rcd13ifvqdm0","pricing_plan_id":"cebpf4jnsgd1na2vs0mg"},{"bike_id":"6d1d397b-1776-44d9-95c4-b65da798f285","system_id":"levelo_inurba_marseille","lat":43.31965,"lon":5.38134,"is_reserved":false,"is_disabled":false,"rental_uris":{"android":"levelo://app?vid=6d1d397b-1776-44d9-95c4-b65da798f285","ios":"levelo://app?vid=6d1d397b-1776-44d9-95c4-b65da798f285"},"vehicle_type_id":"4","last_reported":1736165882,"current_range_meters":18800,"station_id":"ce4bhr12rcd13ifvqhpg","pricing_plan_id":"cebpf4jnsgd1na2vs0mg"},{"bike_id":"bb896405-905f-4110-a07e-defff063aef8","system_id":"levelo_inurba_marseille","lat":43.29317,"lon":5.37438,"is_reserved":false,"is_disabled":true,"rental_uris":{"android":"levelo://app?vid=bb896405-905f-4110-a07e-defff063aef8","ios":"levelo://app?vid=bb896405-905f-4110-a07e-defff063aef8"},"vehicle_type_id":"4","last_reported":1736165882,"current_range_meters":33600,"station_id":"ce4bgi12rcd13ifvqb70","pricing_plan_id":"cebpf4jnsgd1na2vs0mg"},{"bike_id":"8df41abf-ed14-4589-9867-b5613d43a037","system_id":"levelo_inurba_marseille","lat":43.32465,"lon":5.36565,"is_reserved":false,"is_disabled":false,"rental_uris":{"android":"levelo://app?vid=8df41abf-ed14-4589-9867-b5613d43a037","ios":"levelo://app?vid=8df41abf-ed14-4589-9867-b5613d43a037"},"vehicle_type_id":"4","last_reported":1736165882,"current_range_meters":38000,"station_id":"ce4bhs12rcd13ifvqhvg","pricing_plan_id":"cebpf4jnsgd1na2vs0mg"},{"bike_id":"72aa27b6-580e-44c5-9bd2-168553fdc64a","system_id":"levelo_inurba_marseille","lat":43.29022,"lon":5.37599,"is_reserved":false,"is_disabled":true,"rental_uris":{"android":"levelo://app?vid=72aa27b6-580e-44c5-9bd2-168553fdc64a","ios":"levelo://app?vid=72aa27b6-580e-44c5-9bd2-168553fdc64a"},"vehicle_type_id":"4","last_reported":1736165882,"current_range_meters":4800,"station_id":"ce4bh692rcd13ifvqe90","pricing_plan_id":"cebpf4jnsgd1na2vs0mg"},{"bike_id":"4b58e51b-4bad-48ef-914d-4f0886868fb9","system_id":"levelo_inurba_marseille","lat":43.2836,"lon":5.38104,"is_reserved":false,"is_disabled":false,"rental_uris":{"android":"levelo://app?vid=4b58e51b-4bad-48ef-914d-4f0886868fb9","ios":"levelo://app?vid=4b58e51b-4bad-48ef-914d-4f0886868fb9"},"vehicle_type_id":"4","last_reported":1736165882,"current_range_meters":34800,"station_id":"ce4bh412rcd13ifvqdr0","pricing_plan_id":"cebpf4jnsgd1na2vs0mg"},{"bike_id":"71d48daa-c41c-4371-a864-66e4cdd77445","system_id":"levelo_inurba_marseille","lat":43.30646,"lon":5.40093,"is_reserved":false,"is_disabled":false,"rental_uris":{"android":"levelo://app?vid=71d48daa-c41c-4371-a864-66e4cdd77445","ios":"levelo://app?vid=71d48daa-c41c-4371-a864-66e4cdd77445"},"vehicle_type_id":"4","last_reported":1736165882,"current_range_meters":37600,"station_id":"ce4bh112rcd13ifvqda0","pricing_plan_id":"cebpf4jnsgd1na2vs0mg"},{"bike_id":"e14fc727-e110-4847-a3c5-e82ea6a6fcb8","system_id":"levelo_inurba_marseille","lat":43.28939,"lon":5.3968,"is_reserved":false,"is_disabled":true,"rental_uris":{"android":"levelo://app?vid=e14fc727-e110-4847-a3c5-e82ea6a6fcb8","ios":"levelo://app?vid=e14fc727-e110-4847-a3c5-e82ea6a6fcb8"},"vehicle_type_id":"4","last_reported":1736165882,"current_range_meters":31200,"station_id":"ce4bh3h2rcd13ifvqdn0","pricing_plan_id":"cebpf4jnsgd1na2vs0mg"},{"bike_id":"1fab812a-bd0a-4070-a0a7-ad4c89294c57","system_id":"levelo_inurba_marseille","lat":43.29003,"lon":5.35629,"is_reserved":false,"is_disabled":false,"rental_uris":{"android":"levelo://app?vid=1fab812a-bd0a-4070-a0a7-ad4c89294c57","ios":"levelo://app?vid=1fab812a-bd0a-4070-a0a7-ad4c89294c57"},"vehicle_type_id":"4","last_reported":1736165882,"current_range_meters":26800,"station_id":"ce4bhb92rcd13ifvqen0","pricing_plan_id":"cebpf4jnsgd1na2vs0mg"},{"bike_id":"d0541b38-8e7e-4e1e-8666-5868b43eb4cc","system_id":"levelo_inurba_marseille","lat":43.25102,"lon":5.40326,"is_reserved":false,"is_disabled":false,"rental_uris":{"android":"levelo://app?vid=d0541b38-8e7e-4e1e-8666-5868b43eb4cc","ios":"levelo://app?vid=d0541b38-8e7e-4e1e-8666-5868b43eb4cc"},"vehicle_type_id":"4","last_reported":1736165882,"current_range_meters":38400,"station_id":"ce4bhlh2rcd13ifvqgig","pricing_plan_id":"cebpf4jnsgd1na2vs0mg"},{"bike_id":"33ed57af-07a7-49dd-919e-f88779d29474","system_id":"levelo_inurba_marseille","lat":43.29804,"lon":5.38088,"is_reserved":false,"is_disabled":false,"rental_uris":{"android":"levelo://app?vid=33ed57af-07a7-49dd-919e-f88779d29474","ios":"levelo://app?vid=33ed57af-07a7-49dd-919e-f88779d29474"},"vehicle_type_id":"4","last_reported":1736165882,"current_range_meters":39200,"station_id":"ce4bgip2rcd13ifvqbb0","pricing_plan_id":"cebpf4jnsgd1na2vs0mg"},{"bike_id":"e6a1844a-411d-4e2e-827d-f13a0839a281","system_id":"levelo_inurba_marseille","lat":43.25723,"lon":5.41114,"is_reserved":false,"is_disabled":false,"rental_uris":{"android":"levelo://app?vid=e6a1844a-411d-4e2e-827d-f13a0839a281","ios":"levelo://app?vid=e6a1844a-411d-4e2e-827d-f13a0839a281"},"vehicle_type_id":"4","last_reported":1736165882,"current_range_meters":23200,"station_id":"ce4bhkp2rcd13ifvqgd0","pricing_plan_id":"cebpf4jnsgd1na2vs0mg"},{"bike_id":"2695e22a-2701-46a0-b18d-57ebb8e5faf1","system_id":"levelo_inurba_marseille","lat":43.2942,"lon":5.38627,"is_reserved":false,"is_disabled":false,"rental_uris":{"android":"levelo://app?vid=2695e22a-2701-46a0-b18d-57ebb8e5faf1","ios":"levelo://app?vid=2695e22a-2701-46a0-b18d-57ebb8e5faf1"},"vehicle_type_id":"4","last_reported":1736165882,"current_range_meters":27600,"station_id":"ce4bh2h2rcd13ifvqdh0","pricing_plan_id":"cebpf4jnsgd1na2vs0mg"},{"bike_id":"8f93c91d-583d-401b-a129-e8e6c314f53c","system_id":"levelo_inurba_marseille","lat":43.30915,"lon":5.36868,"is_reserved":false,"is_disabled":false,"rental_uris":{"android":"levelo://app?vid=8f93c91d-583d-401b-a129-e8e6c314f53c","ios":"levelo://app?vid=8f93c91d-583d-401b-a129-e8e6c314f53c"},"vehicle_type_id":"4","last_reported":1736165882,"current_range_meters":38800,"station_id":"ce4bgn92rcd13ifvqbvg","pricing_plan_id":"cebpf4jnsgd1na2vs0mg"},{"bike_id":"c3bafefb-7b46-4cde-9628-e3d15e678d44","system_id":"levelo_inurba_marseille","lat":43.32036,"lon":5.41574,"is_reserved":false,"is_disabled":false,"rental_uris":{"android":"levelo://app?vid=c3bafefb-7b46-4cde-9628-e3d15e678d44","ios":"levelo://app?vid=c3bafefb-7b46-4cde-9628-e3d15e678d44"},"vehicle_type_id":"4","last_reported":1736165882,"current_range_meters":39200,"station_id":"ce4bhq92rcd13ifvqhkg","pricing_plan_id":"cebpf4jnsgd1na2vs0mg"},{"bike_id":"7fc19ca3-c84c-4273-b7bc-e0e75f83036c","system_id":"levelo_inurba_marseille","lat":43.28495,"lon":5.38424,"is_reserved":false,"is_disabled":false,"rental_uris":{"android":"levelo://app?vid=7fc19ca3-c84c-4273-b7bc-e0e75f83036c","ios":"levelo://app?vid=7fc19ca3-c84c-4273-b7bc-e0e75f83036c"},"vehicle_type_id":"4","last_reported":1736165882,"current_range_meters":30400,"station_id":"ce4bh512rcd13ifvqe3g","pricing_plan_id":"cebpf4jnsgd1na2vs0mg"},{"bike_id":"8a474426-cd46-4cf8-9edc-ef843a0ca02e","system_id":"levelo_inurba_marseille","lat":43.26531,"lon":5.39065,"is_reserved":false,"is_disabled":true,"rental_uris":{"android":"levelo://app?vid=8a474426-cd46-4cf8-9edc-ef843a0ca02e","ios":"levelo://app?vid=8a474426-cd46-4cf8-9edc-ef843a0ca02e"},"vehicle_type_id":"4","last_reported":1736165882,"current_range_meters":34000,"station_id":"","pricing_plan_id":"cebpf4jnsgd1na2vs0mg"},{"bike_id":"d0234cf8-3190-48a6-bab2-6c84efe1b44c","system_id":"levelo_inurba_marseille","lat":43.24815,"lon":5.37454,"is_reserved":false,"is_disabled":false,"rental_uris":{"android":"levelo://app?vid=d0234cf8-3190-48a6-bab2-6c84efe1b44c","ios":"levelo://app?vid=d0234cf8-3190-48a6-bab2-6c84efe1b44c"},"vehicle_type_id":"4","last_reported":1736165882,"current_range_meters":38800,"station_id":"ce4bhgh2rcd13ifvqfb0","pricing_plan_id":"cebpf4jnsgd1na2vs0mg"},{"bike_id":"bbf998ea-d252-4590-8711-16d78ff4b07c","system_id":"levelo_inurba_marseille","lat":43.24646,"lon":5.38898,"is_reserved":false,"is_disabled":false,"rental_uris":{"android":"levelo://app?vid=bbf998ea-d252-4590-8711-16d78ff4b07c","ios":"levelo://app?vid=bbf998ea-d252-4590-8711-16d78ff4b07c"},"vehicle_type_id":"4","last_reported":1736165882,"current_range_meters":30000,"station_id":"ce4bhg12rcd13ifvqf60","pricing_plan_id":"cebpf4jnsgd1na2vs0mg"},{"bike_id":"0b7cadd8-7943-4fc7-8c59-e33631a2b60d","system_id":"levelo_inurba_marseille","lat":43.29014,"lon":5.35612,"is_reserved":false,"is_disabled":false,"rental_uris":{"android":"levelo://app?vid=0b7cadd8-7943-4fc7-8c59-e33631a2b60d","ios":"levelo://app?vid=0b7cadd8-7943-4fc7-8c59-e33631a2b60d"},"vehicle_type_id":"4","last_reported":1736165882,"current_range_meters":14400,"station_id":"ce4bhb92rcd13ifvqen0","pricing_plan_id":"cebpf4jnsgd1na2vs0mg"},{"bike_id":"6beafd2b-7c5e-4830-a75b-f831cbbaf529","system_id":"levelo_inurba_marseille","lat":43.28976,"lon":5.37834,"is_reserved":false,"is_disabled":false,"rental_uris":{"android":"levelo://app?vid=6beafd2b-7c5e-4830-a75b-f831cbbaf529","ios":"levelo://app?vid=6beafd2b-7c5e-4830-a75b-f831cbbaf529"},"vehicle_type_id":"4","last_reported":1736165882,"current_range_meters":16000,"station_id":"ce4bh9p2rcd13ifvqed0","pricing_plan_id":"cebpf4jnsgd1na2vs0mg"},{"bike_id":"51dbe372-d9e7-4790-b8fc-9c508cc9272b","system_id":"levelo_inurba_marseille","lat":43.32546,"lon":5.41424,"is_reserved":false,"is_disabled":false,"rental_uris":{"android":"levelo://app?vid=51dbe372-d9e7-4790-b8fc-9c508cc9272b","ios":"levelo://app?vid=51dbe372-d9e7-4790-b8fc-9c508cc9272b"},"vehicle_type_id":"4","last_reported":1736165882,"current_range_meters":34000,"station_id":"ce4bhq12rcd13ifvqhhg","pricing_plan_id":"cebpf4jnsgd1na2vs0mg"},{"bike_id":"f5a4a49b-f269-4ec2-b80a-e579bf67a966","system_id":"levelo_inurba_marseille","lat":43.295232,"lon":5.361522,"is_reserved":false,"is_disabled":true,"rental_uris":{"android":"levelo://app?vid=f5a4a49b-f269-4ec2-b80a-e579bf67a966","ios":"levelo://app?vid=f5a4a49b-f269-4ec2-b80a-e579bf67a966"},"vehicle_type_id":"4","last_reported":1736165882,"current_range_meters":30800,"station_id":"","pricing_plan_id":"cebpf4jnsgd1na2vs0mg"},{"bike_id":"664044e6-e824-440a-a874-8e818a3a1b1b","system_id":"levelo_inurba_marseille","lat":43.28569,"lon":5.39507,"is_reserved":false,"is_disabled":true,"rental_uris":{"android":"levelo://app?vid=664044e6-e824-440a-a874-8e818a3a1b1b","ios":"levelo://app?vid=664044e6-e824-440a-a874-8e818a3a1b1b"},"vehicle_type_id":"4","last_reported":1736165882,"current_range_meters":38800,"station_id":"ce4bh292rcd13ifvqdg0","pricing_plan_id":"cebpf4jnsgd1na2vs0mg"},{"bike_id":"714738de-0c80-47dd-b7c3-d3bd0c0bbb4b","system_id":"levelo_inurba_marseille","lat":43.32559,"lon":5.41475,"is_reserved":false,"is_disabled":false,"rental_uris":{"android":"levelo://app?vid=714738de-0c80-47dd-b7c3-d3bd0c0bbb4b","ios":"levelo://app?vid=714738de-0c80-47dd-b7c3-d3bd0c0bbb4b"},"vehicle_type_id":"4","last_reported":1736165882,"current_range_meters":36400,"station_id":"","pricing_plan_id":"cebpf4jnsgd1na2vs0mg"},{"bike_id":"22be6a65-747a-4b4c-8841-974b07e60f8e","system_id":"levelo_inurba_marseille","lat":43.26952,"lon":5.38632,"is_reserved":false,"is_disabled":false,"rental_uris":{"android":"levelo://app?vid=22be6a65-747a-4b4c-8841-974b07e60f8e","ios":"levelo://app?vid=22be6a65-747a-4b4c-8841-974b07e60f8e"},"vehicle_type_id":"4","last_reported":1736165882,"current_range_meters":36800,"station_id":"ce4bhh92rcd13ifvqfh0","pricing_plan_id":"cebpf4jnsgd1na2vs0mg"},{"bike_id":"858f9172-df7a-4ab1-ab9f-59caf13f4ec8","system_id":"levelo_inurba_marseille","lat":43.29273,"lon":5.38449,"is_reserved":false,"is_disabled":false,"rental_uris":{"android":"levelo://app?vid=858f9172-df7a-4ab1-ab9f-59caf13f4ec8","ios":"levelo://app?vid=858f9172-df7a-4ab1-ab9f-59caf13f4ec8"},"vehicle_type_id":"4","last_reported":1736165882,"current_range_meters":39200,"station_id":"ce4bh692rcd13ifvqea0","pricing_plan_id":"cebpf4jnsgd1na2vs0mg"},{"bike_id":"5e7a6007-9492-4275-b255-7b669e9d31d0","system_id":"levelo_inurba_marseille","lat":43.3079,"lon":5.37648,"is_reserved":false,"is_disabled":false,"rental_uris":{"android":"levelo://app?vid=5e7a6007-9492-4275-b255-7b669e9d31d0","ios":"levelo://app?vid=5e7a6007-9492-4275-b255-7b669e9d31d0"},"vehicle_type_id":"4","last_reported":1736165882,"current_range_meters":29600,"station_id":"ce4bgv92rcd13ifvqcq0","pricing_plan_id":"cebpf4jnsgd1na2vs0mg"},{"bike_id":"0bcfea18-61ca-412d-bded-b63f59943884","system_id":"levelo_inurba_marseille","lat":43.28611,"lon":5.35105,"is_reserved":false,"is_disabled":true,"rental_uris":{"android":"levelo://app?vid=0bcfea18-61ca-412d-bded-b63f59943884","ios":"levelo://app?vid=0bcfea18-61ca-412d-bded-b63f59943884"},"vehicle_type_id":"4","last_reported":1736165882,"current_range_meters":33600,"station_id":"ce4bhch2rcd13ifvqeug","pricing_plan_id":"cebpf4jnsgd1na2vs0mg"},{"bike_id":"5befd006-a601-4f1d-8fbe-6e419c854ac0","system_id":"levelo_inurba_marseille","lat":43.24074,"lon":5.37764,"is_reserved":false,"is_disabled":false,"rental_uris":{"android":"levelo://app?vid=5befd006-a601-4f1d-8fbe-6e419c854ac0","ios":"levelo://app?vid=5befd006-a601-4f1d-8fbe-6e419c854ac0"},"vehicle_type_id":"4","last_reported":1736165882,"current_range_meters":39200,"station_id":"ce4bhnp2rcd13ifvqgvg","pricing_plan_id":"cebpf4jnsgd1na2vs0mg"},{"bike_id":"df7516d7-d70e-4721-8e87-07601ec33c6e","system_id":"levelo_inurba_marseille","lat":43.26961,"lon":5.38635,"is_reserved":false,"is_disabled":false,"rental_uris":{"android":"levelo://app?vid=df7516d7-d70e-4721-8e87-07601ec33c6e","ios":"levelo://app?vid=df7516d7-d70e-4721-8e87-07601ec33c6e"},"vehicle_type_id":"4","last_reported":1736165882,"current_range_meters":30800,"station_id":"ce4bhh92rcd13ifvqfh0","pricing_plan_id":"cebpf4jnsgd1na2vs0mg"},{"bike_id":"96b16fe9-3911-44a3-8a8b-8e1e8036d081","system_id":"levelo_inurba_marseille","lat":43.29677,"lon":5.37728,"is_reserved":false,"is_disabled":false,"rental_uris":{"android":"levelo://app?vid=96b16fe9-3911-44a3-8a8b-8e1e8036d081","ios":"levelo://app?vid=96b16fe9-3911-44a3-8a8b-8e1e8036d081"},"vehicle_type_id":"4","last_reported":1736165882,"current_range_meters":26800,"station_id":"ce4bgkh2rcd13ifvqbl0","pricing_plan_id":"cebpf4jnsgd1na2vs0mg"},{"bike_id":"a050707e-2e6b-4d81-bc9b-da54752fec0b","system_id":"levelo_inurba_marseille","lat":43.30561,"lon":5.36529,"is_reserved":false,"is_disabled":false,"rental_uris":{"android":"levelo://app?vid=a050707e-2e6b-4d81-bc9b-da54752fec0b","ios":"levelo://app?vid=a050707e-2e6b-4d81-bc9b-da54752fec0b"},"vehicle_type_id":"4","last_reported":1736165882,"current_range_meters":38800,"station_id":"ce4bgs12rcd13ifvqcag","pricing_plan_id":"cebpf4jnsgd1na2vs0mg"},{"bike_id":"49b4e61c-1891-455d-9835-a58927b42085","system_id":"levelo_inurba_marseille","lat":43.29018,"lon":5.38141,"is_reserved":false,"is_disabled":false,"rental_uris":{"android":"levelo://app?vid=49b4e61c-1891-455d-9835-a58927b42085","ios":"levelo://app?vid=49b4e61c-1891-455d-9835-a58927b42085"},"vehicle_type_id":"4","last_reported":1736165882,"current_range_meters":38800,"station_id":"ce4bh4p2rcd13ifvqe1g","pricing_plan_id":"cebpf4jnsgd1na2vs0mg"},{"bike_id":"848571f8-713d-43b7-8532-226899c73429","system_id":"levelo_inurba_marseille","lat":43.24169,"lon":5.39758,"is_reserved":false,"is_disabled":false,"rental_uris":{"android":"levelo://app?vid=848571f8-713d-43b7-8532-226899c73429","ios":"levelo://app?vid=848571f8-713d-43b7-8532-226899c73429"},"vehicle_type_id":"4","last_reported":1736165882,"current_range_meters":38800,"station_id":"ce4bhn12rcd13ifvqgpg","pricing_plan_id":"cebpf4jnsgd1na2vs0mg"},{"bike_id":"266d97a0-8b6a-4815-8e1e-a29e516886ab","system_id":"levelo_inurba_marseille","lat":43.323613,"lon":5.367675,"is_reserved":false,"is_disabled":false,"rental_uris":{"android":"levelo://app?vid=266d97a0-8b6a-4815-8e1e-a29e516886ab","ios":"levelo://app?vid=266d97a0-8b6a-4815-8e1e-a29e516886ab"},"vehicle_type_id":"4","last_reported":1736165882,"current_range_meters":27600,"station_id":"ce4bhsh2rcd13ifvqi2g","pricing_plan_id":"cebpf4jnsgd1na2vs0mg"},{"bike_id":"bc5b5855-1cf6-4cdc-af1a-e3906d45046d","system_id":"levelo_inurba_marseille","lat":43.25002,"lon":5.38937,"is_reserved":false,"is_disabled":false,"rental_uris":{"android":"levelo://app?vid=bc5b5855-1cf6-4cdc-af1a-e3906d45046d","ios":"levelo://app?vid=bc5b5855-1cf6-4cdc-af1a-e3906d45046d"},"vehicle_type_id":"4","last_reported":1736165882,"current_range_meters":28000,"station_id":"ce4bhgp2rcd13ifvqfd0","pricing_plan_id":"cebpf4jnsgd1na2vs0mg"},{"bike_id":"2da73168-f20b-4ee3-963b-3efd00935f7a","system_id":"levelo_inurba_marseille","lat":43.25802,"lon":5.39455,"is_reserved":false,"is_disabled":false,"rental_uris":{"android":"levelo://app?vid=2da73168-f20b-4ee3-963b-3efd00935f7a","ios":"levelo://app?vid=2da73168-f20b-4ee3-963b-3efd00935f7a"},"vehicle_type_id":"4","last_reported":1736165882,"current_range_meters":15200,"station_id":"ce4bhip2rcd13ifvqft0","pricing_plan_id":"cebpf4jnsgd1na2vs0mg"},{"bike_id":"d473f3b4-0f35-41e8-a757-cef6a791d6d9","system_id":"levelo_inurba_marseille","lat":43.28907,"lon":5.39639,"is_reserved":false,"is_disabled":true,"rental_uris":{"android":"levelo://app?vid=d473f3b4-0f35-41e8-a757-cef6a791d6d9","ios":"levelo://app?vid=d473f3b4-0f35-41e8-a757-cef6a791d6d9"},"vehicle_type_id":"4","last_reported":1736165882,"current_range_meters":38400,"station_id":"ce4bh3h2rcd13ifvqdn0","pricing_plan_id":"cebpf4jnsgd1na2vs0mg"},{"bike_id":"2937c8f0-6f06-4c7f-8240-41ad44bc55fa","system_id":"levelo_inurba_marseille","lat":43.23191,"lon":5.40012,"is_reserved":false,"is_disabled":false,"rental_uris":{"android":"levelo://app?vid=2937c8f0-6f06-4c7f-8240-41ad44bc55fa","ios":"levelo://app?vid=2937c8f0-6f06-4c7f-8240-41ad44bc55fa"},"vehicle_type_id":"4","last_reported":1736165882,"current_range_meters":16400,"station_id":"ce4bhn12rcd13ifvqgqg","pricing_plan_id":"cebpf4jnsgd1na2vs0mg"},{"bike_id":"ce655d1f-dce4-4c44-a57a-32ca039513b8","system_id":"levelo_inurba_marseille","lat":43.29592,"lon":5.381,"is_reserved":false,"is_disabled":false,"rental_uris":{"android":"levelo://app?vid=ce655d1f-dce4-4c44-a57a-32ca039513b8","ios":"levelo://app?vid=ce655d1f-dce4-4c44-a57a-32ca039513b8"},"vehicle_type_id":"4","last_reported":1736165882,"current_range_meters":39200,"station_id":"ce4bgl12rcd13ifvqbo0","pricing_plan_id":"cebpf4jnsgd1na2vs0mg"},{"bike_id":"b3751db7-6c74-4812-a64f-4863f7549997","system_id":"levelo_inurba_marseille","lat":43.31211,"lon":5.37941,"is_reserved":false,"is_disabled":false,"rental_uris":{"android":"levelo://app?vid=b3751db7-6c74-4812-a64f-4863f7549997","ios":"levelo://app?vid=b3751db7-6c74-4812-a64f-4863f7549997"},"vehicle_type_id":"4","last_reported":1736165882,"current_range_meters":6000,"station_id":"","pricing_plan_id":"cebpf4jnsgd1na2vs0mg"},{"bike_id":"a08bb803-2e43-4c2e-835c-80814db6204b","system_id":"levelo_inurba_marseille","lat":43.24076,"lon":5.37733,"is_reserved":false,"is_disabled":false,"rental_uris":{"android":"levelo://app?vid=a08bb803-2e43-4c2e-835c-80814db6204b","ios":"levelo://app?vid=a08bb803-2e43-4c2e-835c-80814db6204b"},"vehicle_type_id":"4","last_reported":1736165882,"current_range_meters":36800,"station_id":"ce4bhnp2rcd13ifvqgvg","pricing_plan_id":"cebpf4jnsgd1na2vs0mg"},{"bike_id":"f49298c6-b208-404d-bb0c-160ccbda2eed","system_id":"levelo_inurba_marseille","lat":43.27994,"lon":5.40018,"is_reserved":false,"is_disabled":true,"rental_uris":{"android":"levelo://app?vid=f49298c6-b208-404d-bb0c-160ccbda2eed","ios":"levelo://app?vid=f49298c6-b208-404d-bb0c-160ccbda2eed"},"vehicle_type_id":"4","last_reported":1736165882,"current_range_meters":36000,"station_id":"ce4bho92rcd13ifvqh4g","pricing_plan_id":"cebpf4jnsgd1na2vs0mg"},{"bike_id":"d014f699-d84d-436b-b3bf-8c059d18ea89","system_id":"levelo_inurba_marseille","lat":43.22876,"lon":5.35476,"is_reserved":false,"is_disabled":false,"rental_uris":{"android":"levelo://app?vid=d014f699-d84d-436b-b3bf-8c059d18ea89","ios":"levelo://app?vid=d014f699-d84d-436b-b3bf-8c059d18ea89"},"vehicle_type_id":"4","last_reported":1736165882,"current_range_meters":12000,"station_id":"cpo3532slgdg3j2ikp40","pricing_plan_id":"cebpf4jnsgd1na2vs0mg"},{"bike_id":"205f032b-b173-45d4-97d0-4a2ebfd757ad","system_id":"levelo_inurba_marseille","lat":43.30903,"lon":5.36849,"is_reserved":false,"is_disabled":false,"rental_uris":{"android":"levelo://app?vid=205f032b-b173-45d4-97d0-4a2ebfd757ad","ios":"levelo://app?vid=205f032b-b173-45d4-97d0-4a2ebfd757ad"},"vehicle_type_id":"4","last_reported":1736165882,"current_range_meters":38400,"station_id":"ce4bgn92rcd13ifvqbvg","pricing_plan_id":"cebpf4jnsgd1na2vs0mg"},{"bike_id":"3093b4f6-32f4-4dec-aab8-9d4da00d0520","system_id":"levelo_inurba_marseille","lat":43.231915,"lon":5.355545,"is_reserved":false,"is_disabled":false,"rental_uris":{"android":"levelo://app?vid=3093b4f6-32f4-4dec-aab8-9d4da00d0520","ios":"levelo://app?vid=3093b4f6-32f4-4dec-aab8-9d4da00d0520"},"vehicle_type_id":"4","last_reported":1736165882,"current_range_meters":38000,"station_id":"ce4bhu92rcd13ifvqi70","pricing_plan_id":"cebpf4jnsgd1na2vs0mg"},{"bike_id":"1890c580-28b2-4ff5-b3a8-be5294155b05","system_id":"levelo_inurba_marseille","lat":43.29279,"lon":5.36861,"is_reserved":false,"is_disabled":false,"rental_uris":{"android":"levelo://app?vid=1890c580-28b2-4ff5-b3a8-be5294155b05","ios":"levelo://app?vid=1890c580-28b2-4ff5-b3a8-be5294155b05"},"vehicle_type_id":"4","last_reported":1736165882,"current_range_meters":38000,"station_id":"ce4bhbp2rcd13ifvqesg","pricing_plan_id":"cebpf4jnsgd1na2vs0mg"},{"bike_id":"c420422e-e5ff-46aa-9ade-56c25e82f06d","system_id":"levelo_inurba_marseille","lat":43.23206,"lon":5.35552,"is_reserved":false,"is_disabled":false,"rental_uris":{"android":"levelo://app?vid=c420422e-e5ff-46aa-9ade-56c25e82f06d","ios":"levelo://app?vid=c420422e-e5ff-46aa-9ade-56c25e82f06d"},"vehicle_type_id":"4","last_reported":1736165882,"current_range_meters":38800,"station_id":"ce4bhu92rcd13ifvqi70","pricing_plan_id":"cebpf4jnsgd1na2vs0mg"},{"bike_id":"ef72cdb4-465d-4178-b952-49906f159c48","system_id":"levelo_inurba_marseille","lat":43.28134,"lon":5.42664,"is_reserved":false,"is_disabled":false,"rental_uris":{"android":"levelo://app?vid=ef72cdb4-465d-4178-b952-49906f159c48","ios":"levelo://app?vid=ef72cdb4-465d-4178-b952-49906f159c48"},"vehicle_type_id":"4","last_reported":1736165882,"current_range_meters":6400,"station_id":"ce4bhnh2rcd13ifvqgug","pricing_plan_id":"cebpf4jnsgd1na2vs0mg"},{"bike_id":"90ece7ec-0223-43df-b957-d4d51efa03ca","system_id":"levelo_inurba_marseille","lat":43.3093,"lon":5.40141,"is_reserved":false,"is_disabled":false,"rental_uris":{"android":"levelo://app?vid=90ece7ec-0223-43df-b957-d4d51efa03ca","ios":"levelo://app?vid=90ece7ec-0223-43df-b957-d4d51efa03ca"},"vehicle_type_id":"4","last_reported":1736165882,"current_range_meters":36000,"station_id":"ce4bgvp2rcd13ifvqct0","pricing_plan_id":"cebpf4jnsgd1na2vs0mg"},{"bike_id":"f949af9a-2683-4ec9-b4bf-168b31b3bcb2","system_id":"levelo_inurba_marseille","lat":43.2466,"lon":5.38889,"is_reserved":false,"is_disabled":false,"rental_uris":{"android":"levelo://app?vid=f949af9a-2683-4ec9-b4bf-168b31b3bcb2","ios":"levelo://app?vid=f949af9a-2683-4ec9-b4bf-168b31b3bcb2"},"vehicle_type_id":"4","last_reported":1736165882,"current_range_meters":23200,"station_id":"ce4bhg12rcd13ifvqf60","pricing_plan_id":"cebpf4jnsgd1na2vs0mg"},{"bike_id":"98005984-ec2d-47ed-96ab-51552169bde8","system_id":"levelo_inurba_marseille","lat":43.28464,"lon":5.35885,"is_reserved":false,"is_disabled":false,"rental_uris":{"android":"levelo://app?vid=98005984-ec2d-47ed-96ab-51552169bde8","ios":"levelo://app?vid=98005984-ec2d-47ed-96ab-51552169bde8"},"vehicle_type_id":"4","last_reported":1736165882,"current_range_meters":5600,"station_id":"ce4bhah2rcd13ifvqei0","pricing_plan_id":"cebpf4jnsgd1na2vs0mg"},{"bike_id":"baace2ec-3cd9-4824-8855-4d8f73a429f0","system_id":"levelo_inurba_marseille","lat":43.29582,"lon":5.37517,"is_reserved":false,"is_disabled":false,"rental_uris":{"android":"levelo://app?vid=baace2ec-3cd9-4824-8855-4d8f73a429f0","ios":"levelo://app?vid=baace2ec-3cd9-4824-8855-4d8f73a429f0"},"vehicle_type_id":"4","last_reported":1736165882,"current_range_meters":36800,"station_id":"ce4bgh92rcd13ifvqb50","pricing_plan_id":"cebpf4jnsgd1na2vs0mg"},{"bike_id":"72aabe9b-7b64-4f2a-b710-9b724e1c5843","system_id":"levelo_inurba_marseille","lat":43.2656,"lon":5.3728,"is_reserved":false,"is_disabled":false,"rental_uris":{"android":"levelo://app?vid=72aabe9b-7b64-4f2a-b710-9b724e1c5843","ios":"levelo://app?vid=72aabe9b-7b64-4f2a-b710-9b724e1c5843"},"vehicle_type_id":"4","last_reported":1736165882,"current_range_meters":36800,"station_id":"ce4bhg12rcd13ifvqf70","pricing_plan_id":"cebpf4jnsgd1na2vs0mg"},{"bike_id":"a0f52a77-2968-414d-8f71-291812cb835e","system_id":"levelo_inurba_marseille","lat":43.25692,"lon":5.41038,"is_reserved":false,"is_disabled":false,"rental_uris":{"android":"levelo://app?vid=a0f52a77-2968-414d-8f71-291812cb835e","ios":"levelo://app?vid=a0f52a77-2968-414d-8f71-291812cb835e"},"vehicle_type_id":"4","last_reported":1736165882,"current_range_meters":28000,"station_id":"ce4bhkp2rcd13ifvqgd0","pricing_plan_id":"cebpf4jnsgd1na2vs0mg"},{"bike_id":"ff06450f-74ec-42bf-8f62-b8c7fe21a606","system_id":"levelo_inurba_marseille","lat":43.29708,"lon":5.36604,"is_reserved":false,"is_disabled":false,"rental_uris":{"android":"levelo://app?vid=ff06450f-74ec-42bf-8f62-b8c7fe21a606","ios":"levelo://app?vid=ff06450f-74ec-42bf-8f62-b8c7fe21a606"},"vehicle_type_id":"4","last_reported":1736165882,"current_range_meters":39200,"station_id":"ce4bgn12rcd13ifvqbt0","pricing_plan_id":"cebpf4jnsgd1na2vs0mg"},{"bike_id":"1307f9da-ff9b-48a7-93be-7ab8cbbfc9be","system_id":"levelo_inurba_marseille","lat":43.25078,"lon":5.3953,"is_reserved":false,"is_disabled":false,"rental_uris":{"android":"levelo://app?vid=1307f9da-ff9b-48a7-93be-7ab8cbbfc9be","ios":"levelo://app?vid=1307f9da-ff9b-48a7-93be-7ab8cbbfc9be"},"vehicle_type_id":"4","last_reported":1736165882,"current_range_meters":39200,"station_id":"ce4bhm12rcd13ifvqgkg","pricing_plan_id":"cebpf4jnsgd1na2vs0mg"},{"bike_id":"363263c8-d60e-4662-a7da-a78eb019f47f","system_id":"levelo_inurba_marseille","lat":43.292,"lon":5.35868,"is_reserved":false,"is_disabled":true,"rental_uris":{"android":"levelo://app?vid=363263c8-d60e-4662-a7da-a78eb019f47f","ios":"levelo://app?vid=363263c8-d60e-4662-a7da-a78eb019f47f"},"vehicle_type_id":"4","last_reported":1736165882,"current_range_meters":0,"station_id":"ce4bhb12rcd13ifvqel0","pricing_plan_id":"cebpf4jnsgd1na2vs0mg"},{"bike_id":"2239df43-c1cc-4e23-8f42-373ea7edda2d","system_id":"levelo_inurba_marseille","lat":43.26808,"lon":5.40271,"is_reserved":false,"is_disabled":false,"rental_uris":{"android":"levelo://app?vid=2239df43-c1cc-4e23-8f42-373ea7edda2d","ios":"levelo://app?vid=2239df43-c1cc-4e23-8f42-373ea7edda2d"},"vehicle_type_id":"4","last_reported":1736165882,"current_range_meters":17600,"station_id":"ce501612rcd8frsf0b60","pricing_plan_id":"cebpf4jnsgd1na2vs0mg"},{"bike_id":"071cb88d-a2b8-4264-9c5f-60b6cbf3f959","system_id":"levelo_inurba_marseille","lat":43.30576,"lon":5.36531,"is_reserved":false,"is_disabled":false,"rental_uris":{"android":"levelo://app?vid=071cb88d-a2b8-4264-9c5f-60b6cbf3f959","ios":"levelo://app?vid=071cb88d-a2b8-4264-9c5f-60b6cbf3f959"},"vehicle_type_id":"4","last_reported":1736165882,"current_range_meters":10800,"station_id":"ce4bgs12rcd13ifvqcag","pricing_plan_id":"cebpf4jnsgd1na2vs0mg"},{"bike_id":"e09ce0e0-3dd9-4080-a03a-cd3d9b33daac","system_id":"levelo_inurba_marseille","lat":43.29526,"lon":5.37509,"is_reserved":false,"is_disabled":false,"rental_uris":{"android":"levelo://app?vid=e09ce0e0-3dd9-4080-a03a-cd3d9b33daac","ios":"levelo://app?vid=e09ce0e0-3dd9-4080-a03a-cd3d9b33daac"},"vehicle_type_id":"4","last_reported":1736165882,"current_range_meters":39200,"station_id":"ce4bgkp2rcd13ifvqbmg","pricing_plan_id":"cebpf4jnsgd1na2vs0mg"},{"bike_id":"e4fb0db6-c070-4f7c-b34e-a54f29d45562","system_id":"levelo_inurba_marseille","lat":43.27994,"lon":5.41644,"is_reserved":false,"is_disabled":false,"rental_uris":{"android":"levelo://app?vid=e4fb0db6-c070-4f7c-b34e-a54f29d45562","ios":"levelo://app?vid=e4fb0db6-c070-4f7c-b34e-a54f29d45562"},"vehicle_type_id":"4","last_reported":1736165882,"current_range_meters":10800,"station_id":"ce4bho12rcd13ifvqh1g","pricing_plan_id":"cebpf4jnsgd1na2vs0mg"},{"bike_id":"910941b5-ac13-46ee-b9eb-054c18e54b63","system_id":"levelo_inurba_marseille","lat":43.25139,"lon":5.39049,"is_reserved":false,"is_disabled":false,"rental_uris":{"android":"levelo://app?vid=910941b5-ac13-46ee-b9eb-054c18e54b63","ios":"levelo://app?vid=910941b5-ac13-46ee-b9eb-054c18e54b63"},"vehicle_type_id":"4","last_reported":1736165882,"current_range_meters":6800,"station_id":"","pricing_plan_id":"cebpf4jnsgd1na2vs0mg"},{"bike_id":"b8eb8935-6c88-48c4-aeb6-64a63940d3b1","system_id":"levelo_inurba_marseille","lat":43.32105,"lon":5.36806,"is_reserved":false,"is_disabled":false,"rental_uris":{"android":"levelo://app?vid=b8eb8935-6c88-48c4-aeb6-64a63940d3b1","ios":"levelo://app?vid=b8eb8935-6c88-48c4-aeb6-64a63940d3b1"},"vehicle_type_id":"4","last_reported":1736165882,"current_range_meters":37600,"station_id":"ce4bhrh2rcd13ifvqhug","pricing_plan_id":"cebpf4jnsgd1na2vs0mg"},{"bike_id":"5ccd9219-bb74-4866-8ab3-e0b8d4a98a85","system_id":"levelo_inurba_marseille","lat":43.2467,"lon":5.3816,"is_reserved":false,"is_disabled":false,"rental_uris":{"android":"levelo://app?vid=5ccd9219-bb74-4866-8ab3-e0b8d4a98a85","ios":"levelo://app?vid=5ccd9219-bb74-4866-8ab3-e0b8d4a98a85"},"vehicle_type_id":"4","last_reported":1736165882,"current_range_meters":36800,"station_id":"ce4bhih2rcd13ifvqfr0","pricing_plan_id":"cebpf4jnsgd1na2vs0mg"},{"bike_id":"70d1fae7-1346-4be5-88c1-c1dd75c31512","system_id":"levelo_inurba_marseille","lat":43.26047,"lon":5.39411,"is_reserved":false,"is_disabled":false,"rental_uris":{"android":"levelo://app?vid=70d1fae7-1346-4be5-88c1-c1dd75c31512","ios":"levelo://app?vid=70d1fae7-1346-4be5-88c1-c1dd75c31512"},"vehicle_type_id":"4","last_reported":1736165882,"current_range_meters":25200,"station_id":"ce4bhh92rcd13ifvqfj0","pricing_plan_id":"cebpf4jnsgd1na2vs0mg"},{"bike_id":"c6cbc9c5-72b9-4058-a9b5-b478aea1af99","system_id":"levelo_inurba_marseille","lat":43.30466,"lon":5.37905,"is_reserved":false,"is_disabled":false,"rental_uris":{"android":"levelo://app?vid=c6cbc9c5-72b9-4058-a9b5-b478aea1af99","ios":"levelo://app?vid=c6cbc9c5-72b9-4058-a9b5-b478aea1af99"},"vehicle_type_id":"4","last_reported":1736165882,"current_range_meters":38000,"station_id":"ce4bgup2rcd13ifvqcn0","pricing_plan_id":"cebpf4jnsgd1na2vs0mg"},{"bike_id":"21e96d46-8c59-4156-b0ec-b72260738c19","system_id":"levelo_inurba_marseille","lat":43.30445,"lon":5.38899,"is_reserved":false,"is_disabled":false,"rental_uris":{"android":"levelo://app?vid=21e96d46-8c59-4156-b0ec-b72260738c19","ios":"levelo://app?vid=21e96d46-8c59-4156-b0ec-b72260738c19"},"vehicle_type_id":"4","last_reported":1736165882,"current_range_meters":17600,"station_id":"ce4bgk12rcd13ifvqbi0","pricing_plan_id":"cebpf4jnsgd1na2vs0mg"},{"bike_id":"36fcd030-bc01-47e4-a10e-7f11718e6790","system_id":"levelo_inurba_marseille","lat":43.30131,"lon":5.37419,"is_reserved":false,"is_disabled":false,"rental_uris":{"android":"levelo://app?vid=36fcd030-bc01-47e4-a10e-7f11718e6790","ios":"levelo://app?vid=36fcd030-bc01-47e4-a10e-7f11718e6790"},"vehicle_type_id":"4","last_reported":1736165882,"current_range_meters":35600,"station_id":"ce4bgs92rcd13ifvqcc0","pricing_plan_id":"cebpf4jnsgd1na2vs0mg"},{"bike_id":"a8304853-007a-4c87-bbb4-ac3c77fb92b1","system_id":"levelo_inurba_marseille","lat":43.28624,"lon":5.35116,"is_reserved":false,"is_disabled":false,"rental_uris":{"android":"levelo://app?vid=a8304853-007a-4c87-bbb4-ac3c77fb92b1","ios":"levelo://app?vid=a8304853-007a-4c87-bbb4-ac3c77fb92b1"},"vehicle_type_id":"4","last_reported":1736165882,"current_range_meters":16000,"station_id":"ce4bhch2rcd13ifvqeug","pricing_plan_id":"cebpf4jnsgd1na2vs0mg"},{"bike_id":"0c19c7d9-f005-4498-be99-e5caf9c11fd3","system_id":"levelo_inurba_marseille","lat":43.24081,"lon":5.37741,"is_reserved":false,"is_disabled":false,"rental_uris":{"android":"levelo://app?vid=0c19c7d9-f005-4498-be99-e5caf9c11fd3","ios":"levelo://app?vid=0c19c7d9-f005-4498-be99-e5caf9c11fd3"},"vehicle_type_id":"4","last_reported":1736165882,"current_range_meters":38800,"station_id":"ce4bhnp2rcd13ifvqgvg","pricing_plan_id":"cebpf4jnsgd1na2vs0mg"},{"bike_id":"a7281c84-0f5e-4046-ad71-02b0ed25003e","system_id":"levelo_inurba_marseille","lat":43.310746,"lon":5.424451,"is_reserved":false,"is_disabled":false,"rental_uris":{"android":"levelo://app?vid=a7281c84-0f5e-4046-ad71-02b0ed25003e","ios":"levelo://app?vid=a7281c84-0f5e-4046-ad71-02b0ed25003e"},"vehicle_type_id":"4","last_reported":1736165882,"current_range_meters":38800,"station_id":"ce4bhp92rcd13ifvqhag","pricing_plan_id":"cebpf4jnsgd1na2vs0mg"},{"bike_id":"b8a2a04a-6d93-42d5-a4c1-f253dcfc4761","system_id":"levelo_inurba_marseille","lat":43.28713,"lon":5.39984,"is_reserved":false,"is_disabled":false,"rental_uris":{"android":"levelo://app?vid=b8a2a04a-6d93-42d5-a4c1-f253dcfc4761","ios":"levelo://app?vid=b8a2a04a-6d93-42d5-a4c1-f253dcfc4761"},"vehicle_type_id":"4","last_reported":1736165882,"current_range_meters":32400,"station_id":"ce4bho92rcd13ifvqh3g","pricing_plan_id":"cebpf4jnsgd1na2vs0mg"},{"bike_id":"5d8bbb24-0598-4729-a09d-5011ebcc6748","system_id":"levelo_inurba_marseille","lat":43.29769,"lon":5.38127,"is_reserved":false,"is_disabled":true,"rental_uris":{"android":"levelo://app?vid=5d8bbb24-0598-4729-a09d-5011ebcc6748","ios":"levelo://app?vid=5d8bbb24-0598-4729-a09d-5011ebcc6748"},"vehicle_type_id":"4","last_reported":1736165882,"current_range_meters":33200,"station_id":"ce4bgip2rcd13ifvqbb0","pricing_plan_id":"cebpf4jnsgd1na2vs0mg"},{"bike_id":"eab4cc49-8deb-4a4a-a3f9-1dc709db20a6","system_id":"levelo_inurba_marseille","lat":43.29384,"lon":5.37854,"is_reserved":false,"is_disabled":false,"rental_uris":{"android":"levelo://app?vid=eab4cc49-8deb-4a4a-a3f9-1dc709db20a6","ios":"levelo://app?vid=eab4cc49-8deb-4a4a-a3f9-1dc709db20a6"},"vehicle_type_id":"4","last_reported":1736165882,"current_range_meters":16800,"station_id":"ce4bgjh2rcd13ifvqbf0","pricing_plan_id":"cebpf4jnsgd1na2vs0mg"},{"bike_id":"68718a12-ff84-4ece-9441-164a64035f89","system_id":"levelo_inurba_marseille","lat":43.24839,"lon":5.37506,"is_reserved":false,"is_disabled":false,"rental_uris":{"android":"levelo://app?vid=68718a12-ff84-4ece-9441-164a64035f89","ios":"levelo://app?vid=68718a12-ff84-4ece-9441-164a64035f89"},"vehicle_type_id":"4","last_reported":1736165882,"current_range_meters":18800,"station_id":"","pricing_plan_id":"cebpf4jnsgd1na2vs0mg"},{"bike_id":"93086e61-990c-4be7-a83d-429168f32858","system_id":"levelo_inurba_marseille","lat":43.29037,"lon":5.39977,"is_reserved":false,"is_disabled":false,"rental_uris":{"android":"levelo://app?vid=93086e61-990c-4be7-a83d-429168f32858","ios":"levelo://app?vid=93086e61-990c-4be7-a83d-429168f32858"},"vehicle_type_id":"4","last_reported":1736165882,"current_range_meters":37600,"station_id":"ce4bh392rcd13ifvqdm0","pricing_plan_id":"cebpf4jnsgd1na2vs0mg"},{"bike_id":"aad4a535-b699-4598-8dc1-ecd244317ca1","system_id":"levelo_inurba_marseille","lat":43.23193,"lon":5.40003,"is_reserved":false,"is_disabled":false,"rental_uris":{"android":"levelo://app?vid=aad4a535-b699-4598-8dc1-ecd244317ca1","ios":"levelo://app?vid=aad4a535-b699-4598-8dc1-ecd244317ca1"},"vehicle_type_id":"4","last_reported":1736165882,"current_range_meters":15200,"station_id":"ce4bhn12rcd13ifvqgqg","pricing_plan_id":"cebpf4jnsgd1na2vs0mg"},{"bike_id":"752534e8-bbef-4d0c-a9d3-c3cf1356e7d5","system_id":"levelo_inurba_marseille","lat":43.29798,"lon":5.37671,"is_reserved":false,"is_disabled":false,"rental_uris":{"android":"levelo://app?vid=752534e8-bbef-4d0c-a9d3-c3cf1356e7d5","ios":"levelo://app?vid=752534e8-bbef-4d0c-a9d3-c3cf1356e7d5"},"vehicle_type_id":"4","last_reported":1736165882,"current_range_meters":38800,"station_id":"","pricing_plan_id":"cebpf4jnsgd1na2vs0mg"},