{"last_updated":1715440011,"ttl":30,"version":"2.2","data":{"bikes":[{"bike_id":"9d7973b0-434c-4311-98dd-1f1a46b1ab7d","system_id":"levelo_inurba_marseille","lat":43.3119,"lon":5.36744,"is_reserved":false,"is_disabled":false,"rental_uris":{"android":"levelo://app?vid=9d7973b0-434c-4311-98dd-1f1a46b1ab7d","ios":"levelo://app?vid=9d7973b0-434c-4311-98dd-1f1a46b1ab7d"},"vehicle_type_id":"4","last_reported":1715440011,"current_range_meters":0,"station_id":"","pricing_plan_id":"cebpf4jnsgd1na2vs0mg"},{"bike_id":"312160d1-8fa2-468a-8ebf-fd60da90dc8a","system_id":"levelo_inurba_marseille","lat":43.312239,"lon":5.368562,"is_reserved":false,"is_disabled":false,"rental_uris":{"android":"levelo://app?vid=312160d1-8fa2-468a-8ebf-fd60da90dc8a","ios":"levelo://app?vid=312160d1-8fa2-468a-8ebf-fd60da90dc8a"},"vehicle_type_id":"4","last_reported":1715440011,"current_range_meters":26800,"station_id":"ce4bgl92rcd13ifvqbq0","pricing_plan_id":"cebpf4jnsgd1na2vs0mg"},{"bike_id":"b6d5adf7-e3cf-42dc-bd46-9e38f2887abe","system_id":"levelo_inurba_marseille","lat":43.312452,"lon":5.368497,"is_reserved":false,"is_disabled":false,"rental_uris":{"android":"levelo://app?vid=b6d5adf7-e3cf-42dc-bd46-9e38f2887abe","ios":"levelo://app?vid=b6d5adf7-e3cf-42dc-bd46-9e38f2887abe"},"vehicle_type_id":"4","last_reported":1715440011,"current_range_meters":6400,"station_id":"ce4bgl92rcd13ifvqbq0","pricing_plan_id":"cebpf4jnsgd1na2vs0mg"},{"bike_id":"53f30ddc-cf79-48c1-9ab3-2d5989634860","system_id":"levelo_inurba_marseille","lat":43.312239,"lon":5.368562,"is_reserved":false,"is_disabled":false,"rental_uris":{"android":"levelo://app?vid=53f30ddc-cf79-48c1-9ab3-2d5989634860","ios":"levelo://app?vid=53f30ddc-cf79-48c1-9ab3-2d5989634860"},"vehicle_type_id":"4","last_reported":1715440011,"current_range_meters":0,"station_id":"ce4bgl92rcd13ifvqbq0","pricing_plan_id":"cebpf4jnsgd1na2vs0mg"},{"bike_id":"951ba2d0-4582-4924-b7ab-624285c2612b","system_id":"levelo_inurba_marseille","lat":43.309076,"lon":5.368465,"is_reserved":false,"is_disabled":false,"rental_uris":{"android":"levelo://app?vid=951ba2d0-4582-4924-b7ab-624285c2612b","ios":"levelo://app?vid=951ba2d0-4582-4924-b7ab-624285c2612b"},"vehicle_type_id":"4","last_reported":1715440011,"current_range_meters":31200,"station_id":"ce4bgn92rcd13ifvqbvg","pricing_plan_id":"cebpf4jnsgd1na2vs0mg"},{"bike_id":"b7939173-f85b-4266-950c-6a3f6eabb060","system_id":"levelo_inurba_marseille","lat":43.314811,"lon":5.373103,"is_reserved":false,"is_disabled":false,"rental_uris":{"android":"levelo://app?vid=b7939173-f85b-4266-950c-6a3f6eabb060","ios":"levelo://app?vid=b7939173-f85b-4266-950c-6a3f6eabb060"},"vehicle_type_id":"4","last_reported":1715440011,"current_range_meters":13600,"station_id":"ce4bgt12rcd13ifvqcd0","pricing_plan_id":"cebpf4jnsgd1na2vs0mg"},{"bike_id":"dd587adb-a724-4873-96cb-4a7b041f2906","system_id":"levelo_inurba_marseille","lat":43.314811,"lon":5.373103,"is_reserved":false,"is_disabled":false,"rental_uris":{"android":"levelo://app?vid=dd587adb-a724-4873-96cb-4a7b041f2906","ios":"levelo://app?vid=dd587adb-a724-4873-96cb-4a7b041f2906"},"vehicle_type_id":"4","last_reported":1715440011,"current_range_meters":28800,"station_id":"ce4bgt12rcd13ifvqcd0","pricing_plan_id":"cebpf4jnsgd1na2vs0mg"},{"bike_id":"8b54b4a3-0179-4865-bcd2-ab2f260edd6e","system_id":"levelo_inurba_marseille","lat":43.314811,"lon":5.373103,"is_reserved":false,"is_disabled":false,"rental_uris":{"android":"levelo://app?vid=8b54b4a3-0179-4865-bcd2-ab2f260edd6e","ios":"levelo://app?vid=8b54b4a3-0179-4865-bcd2-ab2f260edd6e"},"vehicle_type_id":"4","last_reported":1715440011,"current_range_meters":31200,"station_id":"ce4bgt12rcd13ifvqcd0","pricing_plan_id":"cebpf4jnsgd1na2vs0mg"},{"bike_id":"916b226f-e842-4523-9696-624a752d047d","system_id":"levelo_inurba_marseille","lat":43.3157,"lon":5.37411,"is_reserved":false,"is_disabled":false,"rental_uris":{"android":"levelo://app?vid=916b226f-e842-4523-9696-624a752d047d","ios":"levelo://app?vid=916b226f-e842-4523-9696-624a752d047d"},"vehicle_type_id":"4","last_reported":1715440011,"current_range_meters":0,"station_id":"","pricing_plan_id":"cebpf4jnsgd1na2vs0mg"},{"bike_id":"e3e5b3e1-d518-4037-a4fb-e31ed2086ce2","system_id":"levelo_inurba_marseille","lat":43.30545,"lon":5.36684,"is_reserved":false,"is_disabled":false,"rental_uris":{"android":"levelo://app?vid=e3e5b3e1-d518-4037-a4fb-e31ed2086ce2","ios":"levelo://app?vid=e3e5b3e1-d518-4037-a4fb-e31ed2086ce2"},"vehicle_type_id":"4","last_reported":1715440011,"current_range_meters":0,"station_id":"ce4bgrp2rcd13ifvqc9g","pricing_plan_id":"cebpf4jnsgd1na2vs0mg"},{"bike_id":"2632289d-7798-4177-a737-15440dd9a197","system_id":"levelo_inurba_marseille","lat":43.305368,"lon":5.367343,"is_reserved":false,"is_disabled":false,"rental_uris":{"android":"levelo://app?vid=2632289d-7798-4177-a737-15440dd9a197","ios":"levelo://app?vid=2632289d-7798-4177-a737-15440dd9a197"},"vehicle_type_id":"4","last_reported":1715440011,"current_range_meters":20000,"station_id":"ce4bgrp2rcd13ifvqc9g","pricing_plan_id":"cebpf4jnsgd1na2vs0mg"},{"bike_id":"c8e71bbc-614c-44ae-8c9b-a6cdad09cf63","system_id":"levelo_inurba_marseille","lat":43.30537,"lon":5.367345,"is_reserved":false,"is_disabled":false,"rental_uris":{"android":"levelo://app?vid=c8e71bbc-614c-44ae-8c9b-a6cdad09cf63","ios":"levelo://app?vid=c8e71bbc-614c-44ae-8c9b-a6cdad09cf63"},"vehicle_type_id":"4","last_reported":1715440011,"current_range_meters":27200,"station_id":"ce4bgrp2rcd13ifvqc9g","pricing_plan_id":"cebpf4jnsgd1na2vs0mg"},{"bike_id":"fd930422-84ce-4ce5-bc7e-1b21180df1e6","system_id":"levelo_inurba_marseille","lat":43.305714,"lon":5.365633,"is_reserved":false,"is_disabled":false,"rental_uris":{"android":"levelo://app?vid=fd930422-84ce-4ce5-bc7e-1b21180df1e6","ios":"levelo://app?vid=fd930422-84ce-4ce5-bc7e-1b21180df1e6"},"vehicle_type_id":"4","last_reported":1715440011,"current_range_meters":22800,"station_id":"ce4bgs12rcd13ifvqcag","pricing_plan_id":"cebpf4jnsgd1na2vs0mg"},{"bike_id":"c8b9849f-09bc-4565-813a-43532871cf5c","system_id":"levelo_inurba_marseille","lat":43.305714,"lon":5.365633,"is_reserved":false,"is_disabled":false,"rental_uris":{"android":"levelo://app?vid=c8b9849f-09bc-4565-813a-43532871cf5c","ios":"levelo://app?vid=c8b9849f-09bc-4565-813a-43532871cf5c"},"vehicle_type_id":"4","last_reported":1715440011,"current_range_meters":25200,"station_id":"ce4bgs12rcd13ifvqcag","pricing_plan_id":"cebpf4jnsgd1na2vs0mg"},{"bike_id":"89df9f4d-5d6b-45c5-9ee8-be12cad0beb5","system_id":"levelo_inurba_marseille","lat":43.305714,"lon":5.365633,"is_reserved":false,"is_disabled":false,"rental_uris":{"android":"levelo://app?vid=89df9f4d-5d6b-45c5-9ee8-be12cad0beb5","ios":"levelo://app?vid=89df9f4d-5d6b-45c5-9ee8-be12cad0beb5"},"vehicle_type_id":"4","last_reported":1715440011,"current_range_meters":22800,"station_id":"ce4bgs12rcd13ifvqcag","pricing_plan_id":"cebpf4jnsgd1na2vs0mg"},{"bike_id":"5d524a82-26f3-4b71-9aaf-066cb9758992","system_id":"levelo_inurba_marseille","lat":43.305368,"lon":5.367343,"is_reserved":false,"is_disabled":false,"rental_uris":{"android":"levelo://app?vid=5d524a82-26f3-4b71-9aaf-066cb9758992","ios":"levelo://app?vid=5d524a82-26f3-4b71-9aaf-066cb9758992"},"vehicle_type_id":"4","last_reported":1715440011,"current_range_meters":8000,"station_id":"ce4bgrp2rcd13ifvqc9g","pricing_plan_id":"cebpf4jnsgd1na2vs0mg"},{"bike_id":"fe3acdc9-390a-43c0-8685-594e7d375538","system_id":"levelo_inurba_marseille","lat":43.305714,"lon":5.365633,"is_reserved":false,"is_disabled":false,"rental_uris":{"android":"levelo://app?vid=fe3acdc9-390a-43c0-8685-594e7d375538","ios":"levelo://app?vid=fe3acdc9-390a-43c0-8685-594e7d375538"},"vehicle_type_id":"4","last_reported":1715440011,"current_range_meters":27200,"station_id":"ce4bgs12rcd13ifvqcag","pricing_plan_id":"cebpf4jnsgd1na2vs0mg"},{"bike_id":"fdeb6e29-4a01-42b0-89b0-945a2e9bb43e","system_id":"levelo_inurba_marseille","lat":43.305714,"lon":5.365633,"is_reserved":false,"is_disabled":false,"rental_uris":{"android":"levelo://app?vid=fdeb6e29-4a01-42b0-89b0-945a2e9bb43e","ios":"levelo://app?vid=fdeb6e29-4a01-42b0-89b0-945a2e9bb43e"},"vehicle_type_id":"4","last_reported":1715440011,"current_range_meters":27600,"station_id":"ce4bgs12rcd13ifvqcag","pricing_plan_id":"cebpf4jnsgd1na2vs0mg"},{"bike_id":"3ef372d9-19c4-445a-bbee-87ed517403c2","system_id":"levelo_inurba_marseille","lat":43.305706,"lon":5.365654,"is_reserved":false,"is_disabled":false,"rental_uris":{"android":"levelo://app?vid=3ef372d9-19c4-445a-bbee-87ed517403c2","ios":"levelo://app?vid=3ef372d9-19c4-445a-bbee-87ed517403c2"},"vehicle_type_id":"4","last_reported":1715440011,"current_range_meters":25200,"station_id":"ce4bgs12rcd13ifvqcag","pricing_plan_id":"cebpf4jnsgd1na2vs0mg"},{"bike_id":"e639ddc1-b0e8-4f4f-9ffc-82c78f8c346c","system_id":"levelo_inurba_marseille","lat":43.305989,"lon":5.37225,"is_reserved":false,"is_disabled":false,"rental_uris":{"android":"levelo://app?vid=e639ddc1-b0e8-4f4f-9ffc-82c78f8c346c","ios":"levelo://app?vid=e639ddc1-b0e8-4f4f-9ffc-82c78f8c346c"},"vehicle_type_id":"4","last_reported":1715440011,"current_range_meters":2400,"station_id":"ce4bgqh2rcd13ifvqc4g","pricing_plan_id":"cebpf4jnsgd1na2vs0mg"},{"bike_id":"a8420d12-5ea1-4553-ba77-74153419b9a1","system_id":"levelo_inurba_marseille","lat":43.307945,"lon":5.376487,"is_reserved":false,"is_disabled":false,"rental_uris":{"android":"levelo://app?vid=a8420d12-5ea1-4553-ba77-74153419b9a1","ios":"levelo://app?vid=a8420d12-5ea1-4553-ba77-74153419b9a1"},"vehicle_type_id":"4","last_reported":1715440011,"current_range_meters":31600,"station_id":"ce4bgv92rcd13ifvqcq0","pricing_plan_id":"cebpf4jnsgd1na2vs0mg"},{"bike_id":"57bfcfa3-d8f1-477e-8e4e-2651cb101ed9","system_id":"levelo_inurba_marseille","lat":43.310804,"lon":5.38359,"is_reserved":false,"is_disabled":false,"rental_uris":{"android":"levelo://app?vid=57bfcfa3-d8f1-477e-8e4e-2651cb101ed9","ios":"levelo://app?vid=57bfcfa3-d8f1-477e-8e4e-2651cb101ed9"},"vehicle_type_id":"4","last_reported":1715440011,"current_range_meters":23600,"station_id":"ce4bgv92rcd13ifvqcr0","pricing_plan_id":"cebpf4jnsgd1na2vs0mg"},{"bike_id":"66a33c65-31aa-4ae6-ba53-323b71d02f4d","system_id":"levelo_inurba_marseille","lat":43.315289,"lon":5.380349,"is_reserved":false,"is_disabled":false,"rental_uris":{"android":"levelo://app?vid=66a33c65-31aa-4ae6-ba53-323b71d02f4d","ios":"levelo://app?vid=66a33c65-31aa-4ae6-ba53-323b71d02f4d"},"vehicle_type_id":"4","last_reported":1715440011,"current_range_meters":21200,"station_id":"ce4bhsp2rcd13ifvqi50","pricing_plan_id":"cebpf4jnsgd1na2vs0mg"},{"bike_id":"1c7cafee-e030-43eb-a330-eeb527a21816","system_id":"levelo_inurba_marseille","lat":43.302359,"lon":5.373098,"is_reserved":false,"is_disabled":false,"rental_uris":{"android":"levelo://app?vid=1c7cafee-e030-43eb-a330-eeb527a21816","ios":"levelo://app?vid=1c7cafee-e030-43eb-a330-eeb527a21816"},"vehicle_type_id":"4","last_reported":1715440011,"current_range_meters":10000,"station_id":"","pricing_plan_id":"cebpf4jnsgd1na2vs0mg"},{"bike_id":"89665213-f563-4d91-9d6d-32b079432aa7","system_id":"levelo_inurba_marseille","lat":43.308012,"lon":5.381511,"is_reserved":false,"is_disabled":false,"rental_uris":{"android":"levelo://app?vid=89665213-f563-4d91-9d6d-32b079432aa7","ios":"levelo://app?vid=89665213-f563-4d91-9d6d-32b079432aa7"},"vehicle_type_id":"4","last_reported":1715440011,"current_range_meters":24800,"station_id":"ce4bgt12rcd13ifvqce0","pricing_plan_id":"cebpf4jnsgd1na2vs0mg"},{"bike_id":"93daa6b7-133f-4fcf-8364-479c17c018e1","system_id":"levelo_inurba_marseille","lat":43.304606,"lon":5.379026,"is_reserved":false,"is_disabled":false,"rental_uris":{"android":"levelo://app?vid=93daa6b7-133f-4fcf-8364-479c17c018e1","ios":"levelo://app?vid=93daa6b7-133f-4fcf-8364-479c17c018e1"},"vehicle_type_id":"4","last_reported":1715440011,"current_range_meters":17200,"station_id":"ce4bgup2rcd13ifvqcn0","pricing_plan_id":"cebpf4jnsgd1na2vs0mg"},{"bike_id":"d449aead-0274-477e-810e-4da5728cc69b","system_id":"levelo_inurba_marseille","lat":43.30468,"lon":5.37907,"is_reserved":false,"is_disabled":false,"rental_uris":{"android":"levelo://app?vid=d449aead-0274-477e-810e-4da5728cc69b","ios":"levelo://app?vid=d449aead-0274-477e-810e-4da5728cc69b"},"vehicle_type_id":"4","last_reported":1715440011,"current_range_meters":26800,"station_id":"ce4bgup2rcd13ifvqcn0","pricing_plan_id":"cebpf4jnsgd1na2vs0mg"},{"bike_id":"c1618a16-0dd1-4d1a-836d-a3ebc1404afb","system_id":"levelo_inurba_marseille","lat":43.304606,"lon":5.379026,"is_reserved":false,"is_disabled":false,"rental_uris":{"android":"levelo://app?vid=c1618a16-0dd1-4d1a-836d-a3ebc1404afb","ios":"levelo://app?vid=c1618a16-0dd1-4d1a-836d-a3ebc1404afb"},"vehicle_type_id":"4","last_reported":1715440011,"current_range_meters":0,"station_id":"ce4bgup2rcd13ifvqcn0","pricing_plan_id":"cebpf4jnsgd1na2vs0mg"},{"bike_id":"0344709e-7a18-4dc5-b6f3-314bf71d107e","system_id":"levelo_inurba_marseille","lat":43.304606,"lon":5.379026,"is_reserved":false,"is_disabled":false,"rental_uris":{"android":"levelo://app?vid=0344709e-7a18-4dc5-b6f3-314bf71d107e","ios":"levelo://app?vid=0344709e-7a18-4dc5-b6f3-314bf71d107e"},"vehicle_type_id":"4","last_reported":1715440011,"current_range_meters":19600,"station_id":"ce4bgup2rcd13ifvqcn0","pricing_plan_id":"cebpf4jnsgd1na2vs0mg"},{"bike_id":"c05b7e5d-1281-4bad-8034-db9d92250dee","system_id":"levelo_inurba_marseille","lat":43.30464,"lon":5.37916,"is_reserved":false,"is_disabled":false,"rental_uris":{"android":"levelo://app?vid=c05b7e5d-1281-4bad-8034-db9d92250dee","ios":"levelo://app?vid=c05b7e5d-1281-4bad-8034-db9d92250dee"},"vehicle_type_id":"4","last_reported":1715440011,"current_range_meters":25200,"station_id":"ce4bgup2rcd13ifvqcn0","pricing_plan_id":"cebpf4jnsgd1na2vs0mg"},{"bike_id":"3269a82e-20fd-46cb-9087-cc49c8cec2db","system_id":"levelo_inurba_marseille","lat":43.324739,"lon":5.365592,"is_reserved":false,"is_disabled":false,"rental_uris":{"android":"levelo://app?vid=3269a82e-20fd-46cb-9087-cc49c8cec2db","ios":"levelo://app?vid=3269a82e-20fd-46cb-9087-cc49c8cec2db"},"vehicle_type_id":"4","last_reported":1715440011,"current_range_meters":7200,"station_id":"ce4bhs12rcd13ifvqhvg","pricing_plan_id":"cebpf4jnsgd1na2vs0mg"},{"bike_id":"2114249c-3dff-465f-b357-f2ad49a043a2","system_id":"levelo_inurba_marseille","lat":43.304637,"lon":5.379184,"is_reserved":false,"is_disabled":false,"rental_uris":{"android":"levelo://app?vid=2114249c-3dff-465f-b357-f2ad49a043a2","ios":"levelo://app?vid=2114249c-3dff-465f-b357-f2ad49a043a2"},"vehicle_type_id":"4","last_reported":1715440011,"current_range_meters":14000,"station_id":"ce4bgup2rcd13ifvqcn0","pricing_plan_id":"cebpf4jnsgd1na2vs0mg"},{"bike_id":"a0605689-a74b-4e34-b090-ec563479ccbb","system_id":"levelo_inurba_marseille","lat":43.304623,"lon":5.379187,"is_reserved":false,"is_disabled":false,"rental_uris":{"android":"levelo://app?vid=a0605689-a74b-4e34-b090-ec563479ccbb","ios":"levelo://app?vid=a0605689-a74b-4e34-b090-ec563479ccbb"},"vehicle_type_id":"4","last_reported":1715440011,"current_range_meters":26400,"station_id":"ce4bgup2rcd13ifvqcn0","pricing_plan_id":"cebpf4jnsgd1na2vs0mg"},{"bike_id":"4ae65bde-232b-4288-8061-ada071597d22","system_id":"levelo_inurba_marseille","lat":43.304606,"lon":5.379026,"is_reserved":false,"is_disabled":false,"rental_uris":{"android":"levelo://app?vid=4ae65bde-232b-4288-8061-ada071597d22","ios":"levelo://app?vid=4ae65bde-232b-4288-8061-ada071597d22"},"vehicle_type_id":"4","last_reported":1715440011,"current_range_meters":22000,"station_id":"ce4bgup2rcd13ifvqcn0","pricing_plan_id":"cebpf4jnsgd1na2vs0mg"},{"bike_id":"5f4eac95-47d6-49a1-8882-ab0b5cfededc","system_id":"levelo_inurba_marseille","lat":43.304606,"lon":5.379026,"is_reserved":false,"is_disabled":false,"rental_uris":{"android":"levelo://app?vid=5f4eac95-47d6-49a1-8882-ab0b5cfededc","ios":"levelo://app?vid=5f4eac95-47d6-49a1-8882-ab0b5cfededc"},"vehicle_type_id":"4","last_reported":1715440011,"current_range_meters":24800,"station_id":"ce4bgup2rcd13ifvqcn0","pricing_plan_id":"cebpf4jnsgd1na2vs0mg"},{"bike_id":"ea680955-82dc-4d00-b144-0fd0767daee1","system_id":"levelo_inurba_marseille","lat":43.304606,"lon":5.379026,"is_reserved":false,"is_disabled":false,"rental_uris":{"android":"levelo://app?vid=ea680955-82dc-4d00-b144-0fd0767daee1","ios":"levelo://app?vid=ea680955-82dc-4d00-b144-0fd0767daee1"},"vehicle_type_id":"4","last_reported":1715440011,"current_range_meters":21600,"station_id":"ce4bgup2rcd13ifvqcn0","pricing_plan_id":"cebpf4jnsgd1na2vs0mg"},{"bike_id":"c64135e9-9908-40dc-adfd-6686ebfa9bb8","system_id":"levelo_inurba_marseille","lat":43.304606,"lon":5.379026,"is_reserved":false,"is_disabled":false,"rental_uris":{"android":"levelo://app?vid=c64135e9-9908-40dc-adfd-6686ebfa9bb8","ios":"levelo://app?vid=c64135e9-9908-40dc-adfd-6686ebfa9bb8"},"vehicle_type_id":"4","last_reported":1715440011,"current_range_meters":29600,"station_id":"ce4bgup2rcd13ifvqcn0","pricing_plan_id":"cebpf4jnsgd1na2vs0mg"},{"bike_id":"e2354895-f119-42cf-8042-a802d00aed57","system_id":"levelo_inurba_marseille","lat":43.304606,"lon":5.379026,"is_reserved":false,"is_disabled":false,"rental_uris":{"android":"levelo://app?vid=e2354895-f119-42cf-8042-a802d00aed57","ios":"levelo://app?vid=e2354895-f119-42cf-8042-a802d00aed57"},"vehicle_type_id":"4","last_reported":1715440011,"current_range_meters":24800,"station_id":"ce4bgup2rcd13ifvqcn0","pricing_plan_id":"cebpf4jnsgd1na2vs0mg"},{"bike_id":"7d725402-757b-4cd9-84ff-6dd57d0cc79e","system_id":"levelo_inurba_marseille","lat":43.32479,"lon":5.36571,"is_reserved":false,"is_disabled":false,"rental_uris":{"android":"levelo://app?vid=7d725402-757b-4cd9-84ff-6dd57d0cc79e","ios":"levelo://app?vid=7d725402-757b-4cd9-84ff-6dd57d0cc79e"},"vehicle_type_id":"4","last_reported":1715440011,"current_range_meters":28400,"station_id":"ce4bhs12rcd13ifvqhvg","pricing_plan_id":"cebpf4jnsgd1na2vs0mg"},{"bike_id":"732ac486-f0fc-4ef5-857a-63c76ff3ed35","system_id":"levelo_inurba_marseille","lat":43.324771,"lon":5.36557,"is_reserved":false,"is_disabled":false,"rental_uris":{"android":"levelo://app?vid=732ac486-f0fc-4ef5-857a-63c76ff3ed35","ios":"levelo://app?vid=732ac486-f0fc-4ef5-857a-63c76ff3ed35"},"vehicle_type_id":"4","last_reported":1715440011,"current_range_meters":14400,"station_id":"ce4bhs12rcd13ifvqhvg","pricing_plan_id":"cebpf4jnsgd1na2vs0mg"},{"bike_id":"a7364010-c030-4dda-9787-1388278fadb5","system_id":"levelo_inurba_marseille","lat":43.324771,"lon":5.36557,"is_reserved":false,"is_disabled":false,"rental_uris":{"android":"levelo://app?vid=a7364010-c030-4dda-9787-1388278fadb5","ios":"levelo://app?vid=a7364010-c030-4dda-9787-1388278fadb5"},"vehicle_type_id":"4","last_reported":1715440011,"current_range_meters":0,"station_id":"ce4bhs12rcd13ifvqhvg","pricing_plan_id":"cebpf4jnsgd1na2vs0mg"},{"bike_id":"4f292309-8e70-423f-8286-cbad3763fa2c","system_id":"levelo_inurba_marseille","lat":43.324771,"lon":5.36557,"is_reserved":false,"is_disabled":false,"rental_uris":{"android":"levelo://app?vid=4f292309-8e70-423f-8286-cbad3763fa2c","ios":"levelo://app?vid=4f292309-8e70-423f-8286-cbad3763fa2c"},"vehicle_type_id":"4","last_reported":1715440011,"current_range_meters":23600,"station_id":"ce4bhs12rcd13ifvqhvg","pricing_plan_id":"cebpf4jnsgd1na2vs0mg"},{"bike_id":"43d74cbd-e3cd-451f-9c64-78bfb99aca35","system_id":"levelo_inurba_marseille","lat":43.324771,"lon":5.36557,"is_reserved":false,"is_disabled":false,"rental_uris":{"android":"levelo://app?vid=43d74cbd-e3cd-451f-9c64-78bfb99aca35","ios":"levelo://app?vid=43d74cbd-e3cd-451f-9c64-78bfb99aca35"},"vehicle_type_id":"4","last_reported":1715440011,"current_range_meters":10800,"station_id":"ce4bhs12rcd13ifvqhvg","pricing_plan_id":"cebpf4jnsgd1na2vs0mg"},{"bike_id":"62a5870d-12d7-4609-b3af-286379531473","system_id":"levelo_inurba_marseille","lat":43.324771,"lon":5.36557,"is_reserved":false,"is_disabled":false,"rental_uris":{"android":"levelo://app?vid=62a5870d-12d7-4609-b3af-286379531473","ios":"levelo://app?vid=62a5870d-12d7-4609-b3af-286379531473"},"vehicle_type_id":"4","last_reported":1715440011,"current_range_meters":23200,"station_id":"ce4bhs12rcd13ifvqhvg","pricing_plan_id":"cebpf4jnsgd1na2vs0mg"},{"bike_id":"c77fdd61-f3c7-4d1d-a582-d438a034deb6","system_id":"levelo_inurba_marseille","lat":43.314811,"lon":5.373103,"is_reserved":false,"is_disabled":false,"rental_uris":{"android":"levelo://app?vid=c77fdd61-f3c7-4d1d-a582-d438a034deb6","ios":"levelo://app?vid=c77fdd61-f3c7-4d1d-a582-d438a034deb6"},"vehicle_type_id":"4","last_reported":1715440011,"current_range_meters":31200,"station_id":"ce4bgt12rcd13ifvqcd0","pricing_plan_id":"cebpf4jnsgd1na2vs0mg"},{"bike_id":"3ce38b94-ef7e-4c9f-b469-79d03c51b806","system_id":"levelo_inurba_marseille","lat":43.302784,"lon":5.377158,"is_reserved":false,"is_disabled":false,"rental_uris":{"android":"levelo://app?vid=3ce38b94-ef7e-4c9f-b469-79d03c51b806","ios":"levelo://app?vid=3ce38b94-ef7e-4c9f-b469-79d03c51b806"},"vehicle_type_id":"4","last_reported":1715440011,"current_range_meters":16800,"station_id":"ce4bguh2rcd13ifvqcj0","pricing_plan_id":"cebpf4jnsgd1na2vs0mg"},{"bike_id":"378f7a47-3ba4-4fbc-a67d-3c9782672f07","system_id":"levelo_inurba_marseille","lat":43.313571,"lon":5.384829,"is_reserved":false,"is_disabled":false,"rental_uris":{"android":"levelo://app?vid=378f7a47-3ba4-4fbc-a67d-3c9782672f07","ios":"levelo://app?vid=378f7a47-3ba4-4fbc-a67d-3c9782672f07"},"vehicle_type_id":"4","last_reported":1715440011,"current_range_meters":0,"station_id":"ce4bgt92rcd13ifvqcf0","pricing_plan_id":"cebpf4jnsgd1na2vs0mg"},{"bike_id":"c28b05a3-2de6-480e-a728-611329099520","system_id":"levelo_inurba_marseille","lat":43.301939,"lon":5.366286,"is_reserved":false,"is_disabled":false,"rental_uris":{"android":"levelo://app?vid=c28b05a3-2de6-480e-a728-611329099520","ios":"levelo://app?vid=c28b05a3-2de6-480e-a728-611329099520"},"vehicle_type_id":"4","last_reported":1715440011,"current_range_meters":6800,"station_id":"ce4bgrh2rcd13ifvqc8g","pricing_plan_id":"cebpf4jnsgd1na2vs0mg"},{"bike_id":"24df8cb3-2f17-4e19-ad95-2cc81e010874","system_id":"levelo_inurba_marseille","lat":43.298433,"lon":5.362774,"is_reserved":false,"is_disabled":false,"rental_uris":{"android":"levelo://app?vid=24df8cb3-2f17-4e19-ad95-2cc81e010874","ios":"levelo://app?vid=24df8cb3-2f17-4e19-ad95-2cc81e010874"},"vehicle_type_id":"4","last_reported":1715440011,"current_range_meters":21200,"station_id":"ce4bgpp2rcd13ifvqc3g","pricing_plan_id":"cebpf4jnsgd1na2vs0mg"},{"bike_id":"2bf6cfe9-1d4f-4eaa-92ae-d90258069e51","system_id":"levelo_inurba_marseille","lat":43.322872,"lon":5.382756,"is_reserved":false,"is_disabled":false,"rental_uris":{"android":"levelo://app?vid=2bf6cfe9-1d4f-4eaa-92ae-d90258069e51","ios":"levelo://app?vid=2bf6cfe9-1d4f-4eaa-92ae-d90258069e51"},"vehicle_type_id":"4","last_reported":1715440011,"current_range_meters":30000,"station_id":"ce4bhr12rcd13ifvqhqg","pricing_plan_id":"cebpf4jnsgd1na2vs0mg"},{"bike_id":"8d4c06b3-4626-444e-a849-29e815a69458","system_id":"levelo_inurba_marseille","lat":43.322872,"lon":5.382756,"is_reserved":false,"is_disabled":false,"rental_uris":{"android":"levelo://app?vid=8d4c06b3-4626-444e-a849-29e815a69458","ios":"levelo://app?vid=8d4c06b3-4626-444e-a849-29e815a69458"},"vehicle_type_id":"4","last_reported":1715440011,"current_range_meters":28800,"station_id":"ce4bhr12rcd13ifvqhqg","pricing_plan_id":"cebpf4jnsgd1na2vs0mg"},{"bike_id":"40534047-acd7-4dd4-8009-6dfee596ddba","system_id":"levelo_inurba_marseille","lat":43.2968,"lon":5.37291,"is_reserved":false,"is_disabled":false,"rental_uris":{"android":"levelo://app?vid=40534047-acd7-4dd4-8009-6dfee596ddba","ios":"levelo://app?vid=40534047-acd7-4dd4-8009-6dfee596ddba"},"vehicle_type_id":"4","last_reported":1715440011,"current_range_meters":0,"station_id":"ce4bgk12rcd13ifvqbj0","pricing_plan_id":"cebpf4jnsgd1na2vs0mg"},{"bike_id":"6e8ae624-95e6-4ad5-8deb-e6e99cfc4b60","system_id":"levelo_inurba_marseille","lat":43.296131,"lon":5.370791,"is_reserved":false,"is_disabled":false,"rental_uris":{"android":"levelo://app?vid=6e8ae624-95e6-4ad5-8deb-e6e99cfc4b60","ios":"levelo://app?vid=6e8ae624-95e6-4ad5-8deb-e6e99cfc4b60"},"vehicle_type_id":"4","last_reported":1715440011,"current_range_meters":14800,"station_id":"ce4bgnh2rcd13ifvqc0g","pricing_plan_id":"cebpf4jnsgd1na2vs0mg"},{"bike_id":"0c187ab3-fb1a-46f5-b019-cf80de3aa132","system_id":"levelo_inurba_marseille","lat":43.296129,"lon":5.370777,"is_reserved":false,"is_disabled":false,"rental_uris":{"android":"levelo://app?vid=0c187ab3-fb1a-46f5-b019-cf80de3aa132","ios":"levelo://app?vid=0c187ab3-fb1a-46f5-b019-cf80de3aa132"},"vehicle_type_id":"4","last_reported":1715440011,"current_range_meters":0,"station_id":"ce4bgnh2rcd13ifvqc0g","pricing_plan_id":"cebpf4jnsgd1na2vs0mg"},{"bike_id":"e44b65cf-4824-4db6-b47c-44fef71b73fc","system_id":"levelo_inurba_marseille","lat":43.29573,"lon":5.367355,"is_reserved":false,"is_disabled":false,"rental_uris":{"android":"levelo://app?vid=e44b65cf-4824-4db6-b47c-44fef71b73fc","ios":"levelo://app?vid=e44b65cf-4824-4db6-b47c-44fef71b73fc"},"vehicle_type_id":"4","last_reported":1715440011,"current_range_meters":11600,"station_id":"ce4bgph2rcd13ifvqc2g","pricing_plan_id":"cebpf4jnsgd1na2vs0mg"},{"bike_id":"0e4984fc-e8a3-4f2f-83a6-b936665ef2be","system_id":"levelo_inurba_marseille","lat":43.29726,"lon":5.37691,"is_reserved":false,"is_disabled":false,"rental_uris":{"android":"levelo://app?vid=0e4984fc-e8a3-4f2f-83a6-b936665ef2be","ios":"levelo://app?vid=0e4984fc-e8a3-4f2f-83a6-b936665ef2be"},"vehicle_type_id":"4","last_reported":1715440011,"current_range_meters":7600,"station_id":"","pricing_plan_id":"cebpf4jnsgd1na2vs0mg"},{"bike_id":"f23ffd3d-d50d-462a-8e20-349a50982847","system_id":"levelo_inurba_marseille","lat":43.29719,"lon":5.37694,"is_reserved":false,"is_disabled":false,"rental_uris":{"android":"levelo://app?vid=f23ffd3d-d50d-462a-8e20-349a50982847","ios":"levelo://app?vid=f23ffd3d-d50d-462a-8e20-349a50982847"},"vehicle_type_id":"4","last_reported":1715440011,"current_range_meters":0,"station_id":"ce4bgkh2rcd13ifvqbl0","pricing_plan_id":"cebpf4jnsgd1na2vs0mg"},{"bike_id":"ea54dd5a-a0ca-4b01-8e03-b1f9b5bcaedb","system_id":"levelo_inurba_marseille","lat":43.309589,"lon":5.390258,"is_reserved":false,"is_disabled":false,"rental_uris":{"android":"levelo://app?vid=ea54dd5a-a0ca-4b01-8e03-b1f9b5bcaedb","ios":"levelo://app?vid=ea54dd5a-a0ca-4b01-8e03-b1f9b5bcaedb"},"vehicle_type_id":"4","last_reported":1715440011,"current_range_meters":23600,"station_id":"ce4bgup2rcd13ifvqco0","pricing_plan_id":"cebpf4jnsgd1na2vs0mg"},{"bike_id":"c08229e7-56b0-4496-ab2f-c16b0f278ef1","system_id":"levelo_inurba_marseille","lat":43.299028,"lon":5.381509,"is_reserved":false,"is_disabled":false,"rental_uris":{"android":"levelo://app?vid=c08229e7-56b0-4496-ab2f-c16b0f278ef1","ios":"levelo://app?vid=c08229e7-56b0-4496-ab2f-c16b0f278ef1"},"vehicle_type_id":"4","last_reported":1715440011,"current_range_meters":24000,"station_id":"ce4bgj12rcd13ifvqbc0","pricing_plan_id":"cebpf4jnsgd1na2vs0mg"},{"bike_id":"41688487-ea40-4530-b941-afa0b79ae098","system_id":"levelo_inurba_marseille","lat":43.29793,"lon":5.38088,"is_reserved":false,"is_disabled":false,"rental_uris":{"android":"levelo://app?vid=41688487-ea40-4530-b941-afa0b79ae098","ios":"levelo://app?vid=41688487-ea40-4530-b941-afa0b79ae098"},"vehicle_type_id":"4","last_reported":1715440011,"current_range_meters":10400,"station_id":"ce4bgip2rcd13ifvqbb0","pricing_plan_id":"cebpf4jnsgd1na2vs0mg"},{"bike_id":"2aea2eaa-41cf-49ea-a9d6-eb6a4e85d169","system_id":"levelo_inurba_marseille","lat":43.29795,"lon":5.38101,"is_reserved":false,"is_disabled":false,"rental_uris":{"android":"levelo://app?vid=2aea2eaa-41cf-49ea-a9d6-eb6a4e85d169","ios":"levelo://app?vid=2aea2eaa-41cf-49ea-a9d6-eb6a4e85d169"},"vehicle_type_id":"4","last_reported":1715440011,"current_range_meters":12400,"station_id":"ce4bgip2rcd13ifvqbb0","pricing_plan_id":"cebpf4jnsgd1na2vs0mg"},{"bike_id":"69bd789f-8ac6-41f9-a8d5-37f1c21cd9b2","system_id":"levelo_inurba_marseille","lat":43.296263,"lon":5.377094,"is_reserved":false,"is_disabled":false,"rental_uris":{"android":"levelo://app?vid=69bd789f-8ac6-41f9-a8d5-37f1c21cd9b2","ios":"levelo://app?vid=69bd789f-8ac6-41f9-a8d5-37f1c21cd9b2"},"vehicle_type_id":"4","last_reported":1715440011,"current_range_meters":6400,"station_id":"ce4bgi92rcd13ifvqb90","pricing_plan_id":"cebpf4jnsgd1na2vs0mg"},{"bike_id":"04faef2c-01bb-456e-8691-c750af759e9d","system_id":"levelo_inurba_marseille","lat":43.258658,"lon":5.398935,"is_reserved":false,"is_disabled":false,"rental_uris":{"android":"levelo://app?vid=04faef2c-01bb-456e-8691-c750af759e9d","ios":"levelo://app?vid=04faef2c-01bb-456e-8691-c750af759e9d"},"vehicle_type_id":"4","last_reported":1715440011,"current_range_meters":3600,"station_id":"ce4bhl92rcd13ifvqghg","pricing_plan_id":"cebpf4jnsgd1na2vs0mg"},{"bike_id":"2b00398d-2bcd-488a-8e72-115f77b954a6","system_id":"levelo_inurba_marseille","lat":43.295748,"lon":5.37522,"is_reserved":false,"is_disabled":false,"rental_uris":{"android":"levelo://app?vid=2b00398d-2bcd-488a-8e72-115f77b954a6","ios":"levelo://app?vid=2b00398d-2bcd-488a-8e72-115f77b954a6"},"vehicle_type_id":"4","last_reported":1715440011,"current_range_meters":0,"station_id":"ce4bgh92rcd13ifvqb50","pricing_plan_id":"cebpf4jnsgd1na2vs0mg"},{"bike_id":"920c0b19-193d-4ff6-9797-0f5f716e3464","system_id":"levelo_inurba_marseille","lat":43.296277,"lon":5.377108,"is_reserved":false,"is_disabled":false,"rental_uris":{"android":"levelo://app?vid=920c0b19-193d-4ff6-9797-0f5f716e3464","ios":"levelo://app?vid=920c0b19-193d-4ff6-9797-0f5f716e3464"},"vehicle_type_id":"4","last_reported":1715440011,"current_range_meters":15600,"station_id":"ce4bgi92rcd13ifvqb90","pricing_plan_id":"cebpf4jnsgd1na2vs0mg"},{"bike_id":"2ea09999-adae-47d4-96af-83b869adfaa8","system_id":"levelo_inurba_marseille","lat":43.298037,"lon":5.381066,"is_reserved":false,"is_disabled":false,"rental_uris":{"android":"levelo://app?vid=2ea09999-adae-47d4-96af-83b869adfaa8","ios":"levelo://app?vid=2ea09999-adae-47d4-96af-83b869adfaa8"},"vehicle_type_id":"4","last_reported":1715440011,"current_range_meters":20400,"station_id":"ce4bgip2rcd13ifvqbb0","pricing_plan_id":"cebpf4jnsgd1na2vs0mg"},{"bike_id":"1e0aec4d-0694-43be-b2c7-f47218dbe182","system_id":"levelo_inurba_marseille","lat":43.29972,"lon":5.38494,"is_reserved":false,"is_disabled":false,"rental_uris":{"android":"levelo://app?vid=1e0aec4d-0694-43be-b2c7-f47218dbe182","ios":"levelo://app?vid=1e0aec4d-0694-43be-b2c7-f47218dbe182"},"vehicle_type_id":"4","last_reported":1715440011,"current_range_meters":0,"station_id":"ce4bgj92rcd13ifvqbd0","pricing_plan_id":"cebpf4jnsgd1na2vs0mg"},{"bike_id":"145b35e5-5114-4790-9c4c-68574a0091aa","system_id":"levelo_inurba_marseille","lat":43.303002,"lon":5.392142,"is_reserved":false,"is_disabled":false,"rental_uris":{"android":"levelo://app?vid=145b35e5-5114-4790-9c4c-68574a0091aa","ios":"levelo://app?vid=145b35e5-5114-4790-9c4c-68574a0091aa"},"vehicle_type_id":"4","last_reported":1715440011,"current_range_meters":1600,"station_id":"ce4bgkh2rcd13ifvqbk0","pricing_plan_id":"cebpf4jnsgd1na2vs0mg"},{"bike_id":"9a11041f-0b1b-436f-aafe-69410159ac7b","system_id":"levelo_inurba_marseille","lat":43.32367,"lon":5.388836,"is_reserved":false,"is_disabled":false,"rental_uris":{"android":"levelo://app?vid=9a11041f-0b1b-436f-aafe-69410159ac7b","ios":"levelo://app?vid=9a11041f-0b1b-436f-aafe-69410159ac7b"},"vehicle_type_id":"4","last_reported":1715440011,"current_range_meters":15200,"station_id":"ce4bhqp2rcd13ifvqhog","pricing_plan_id":"cebpf4jnsgd1na2vs0mg"},{"bike_id":"69995006-29fa-49fd-b220-01d3c6787783","system_id":"levelo_inurba_marseille","lat":43.293249,"lon":5.371578,"is_reserved":false,"is_disabled":false,"rental_uris":{"android":"levelo://app?vid=69995006-29fa-49fd-b220-01d3c6787783","ios":"levelo://app?vid=69995006-29fa-49fd-b220-01d3c6787783"},"vehicle_type_id":"4","last_reported":1715440011,"current_range_meters":26000,"station_id":"ce4bgh92rcd13ifvqb40","pricing_plan_id":"cebpf4jnsgd1na2vs0mg"},{"bike_id":"b6e86e19-de8f-4235-be30-d6f1b27d21ee","system_id":"levelo_inurba_marseille","lat":43.29602,"lon":5.381084,"is_reserved":false,"is_disabled":false,"rental_uris":{"android":"levelo://app?vid=b6e86e19-de8f-4235-be30-d6f1b27d21ee","ios":"levelo://app?vid=b6e86e19-de8f-4235-be30-d6f1b27d21ee"},"vehicle_type_id":"4","last_reported":1715440011,"current_range_meters":12000,"station_id":"ce4bgl12rcd13ifvqbo0","pricing_plan_id":"cebpf4jnsgd1na2vs0mg"},{"bike_id":"cbf4044d-35dc-453c-807a-2f2bfe46857e","system_id":"levelo_inurba_marseille","lat":43.293392,"lon":5.37384,"is_reserved":false,"is_disabled":false,"rental_uris":{"android":"levelo://app?vid=cbf4044d-35dc-453c-807a-2f2bfe46857e","ios":"levelo://app?vid=cbf4044d-35dc-453c-807a-2f2bfe46857e"},"vehicle_type_id":"4","last_reported":1715440011,"current_range_meters":24800,"station_id":"","pricing_plan_id":"cebpf4jnsgd1na2vs0mg"},{"bike_id":"66b6d794-b3fd-4217-9f32-7373c7193b9a","system_id":"levelo_inurba_marseille","lat":43.29271,"lon":5.36832,"is_reserved":false,"is_disabled":false,"rental_uris":{"android":"levelo://app?vid=66b6d794-b3fd-4217-9f32-7373c7193b9a","ios":"levelo://app?vid=66b6d794-b3fd-4217-9f32-7373c7193b9a"},"vehicle_type_id":"4","last_reported":1715440011,"current_range_meters":0,"station_id":"ce4bhbp2rcd13ifvqesg","pricing_plan_id":"cebpf4jnsgd1na2vs0mg"},{"bike_id":"12f1b7b2-1e4b-48ab-b11b-37db696a8c63","system_id":"levelo_inurba_marseille","lat":43.29261,"lon":5.3685,"is_reserved":false,"is_disabled":false,"rental_uris":{"android":"levelo://app?vid=12f1b7b2-1e4b-48ab-b11b-37db696a8c63","ios":"levelo://app?vid=12f1b7b2-1e4b-48ab-b11b-37db696a8c63"},"vehicle_type_id":"4","last_reported":1715440011,"current_range_meters":0,"station_id":"ce4bhbp2rcd13ifvqesg","pricing_plan_id":"cebpf4jnsgd1na2vs0mg"},{"bike_id":"fa5de4b1-8d13-4331-8db2-164bdfd506af","system_id":"levelo_inurba_marseille","lat":43.303002,"lon":5.392142,"is_reserved":false,"is_disabled":false,"rental_uris":{"android":"levelo://app?vid=fa5de4b1-8d13-4331-8db2-164bdfd506af","ios":"levelo://app?vid=fa5de4b1-8d13-4331-8db2-164bdfd506af"},"vehicle_type_id":"4","last_reported":1715440011,"current_range_meters":16400,"station_id":"ce4bgkh2rcd13ifvqbk0","pricing_plan_id":"cebpf4jnsgd1na2vs0mg"},{"bike_id":"db2e8d7d-1d96-4859-89de-6b86b46813d4","system_id":"levelo_inurba_marseille","lat":43.302992,"lon":5.392136,"is_reserved":false,"is_disabled":false,"rental_uris":{"android":"levelo://app?vid=db2e8d7d-1d96-4859-89de-6b86b46813d4","ios":"levelo://app?vid=db2e8d7d-1d96-4859-89de-6b86b46813d4"},"vehicle_type_id":"4","last_reported":1715440011,"current_range_meters":3200,"station_id":"ce4bgkh2rcd13ifvqbk0","pricing_plan_id":"cebpf4jnsgd1na2vs0mg"},{"bike_id":"fab7c794-94a3-4e47-ad73-d0dd378ff125","system_id":"levelo_inurba_marseille","lat":43.303002,"lon":5.392142,"is_reserved":false,"is_disabled":false,"rental_uris":{"android":"levelo://app?vid=fab7c794-94a3-4e47-ad73-d0dd378ff125","ios":"levelo://app?vid=fab7c794-94a3-4e47-ad73-d0dd378ff125"},"vehicle_type_id":"4","last_reported":1715440011,"current_range_meters":1600,"station_id":"ce4bgkh2rcd13ifvqbk0","pricing_plan_id":"cebpf4jnsgd1na2vs0mg"},{"bike_id":"af7667fc-43d4-4cb0-ba89-0808d25c8e24","system_id":"levelo_inurba_marseille","lat":43.302964,"lon":5.392234,"is_reserved":false,"is_disabled":false,"rental_uris":{"android":"levelo://app?vid=af7667fc-43d4-4cb0-ba89-0808d25c8e24","ios":"levelo://app?vid=af7667fc-43d4-4cb0-ba89-0808d25c8e24"},"vehicle_type_id":"4","last_reported":1715440011,"current_range_meters":6000,"station_id":"ce4bgkh2rcd13ifvqbk0","pricing_plan_id":"cebpf4jnsgd1na2vs0mg"},{"bike_id":"b5c074fa-13df-4b9d-988a-27dbdfdb9994","system_id":"levelo_inurba_marseille","lat":43.292311,"lon":5.360731,"is_reserved":false,"is_disabled":false,"rental_uris":{"android":"levelo://app?vid=b5c074fa-13df-4b9d-988a-27dbdfdb9994","ios":"levelo://app?vid=b5c074fa-13df-4b9d-988a-27dbdfdb9994"},"vehicle_type_id":"4","last_reported":1715440011,"current_range_meters":0,"station_id":"ce4bhbh2rcd13ifvqeqg","pricing_plan_id":"cebpf4jnsgd1na2vs0mg"},{"bike_id":"9e8198c7-eb50-4db2-a6d5-b5e8ba6947f7","system_id":"levelo_inurba_marseille","lat":43.292311,"lon":5.360731,"is_reserved":false,"is_disabled":false,"rental_uris":{"android":"levelo://app?vid=9e8198c7-eb50-4db2-a6d5-b5e8ba6947f7","ios":"levelo://app?vid=9e8198c7-eb50-4db2-a6d5-b5e8ba6947f7"},"vehicle_type_id":"4","last_reported":1715440011,"current_range_meters":0,"station_id":"ce4bhbh2rcd13ifvqeqg","pricing_plan_id":"cebpf4jnsgd1na2vs0mg"},{"bike_id":"807b5c95-0e88-4d17-a65a-87cf9ec0f382","system_id":"levelo_inurba_marseille","lat":43.29222,"lon":5.3608,"is_reserved":false,"is_disabled":false,"rental_uris":{"android":"levelo://app?vid=807b5c95-0e88-4d17-a65a-87cf9ec0f382","ios":"levelo://app?vid=807b5c95-0e88-4d17-a65a-87cf9ec0f382"},"vehicle_type_id":"4","last_reported":1715440011,"current_range_meters":13600,"station_id":"","pricing_plan_id":"cebpf4jnsgd1na2vs0mg"},{"bike_id":"14955f78-5354-4958-a6c1-4cac8b5b8c99","system_id":"levelo_inurba_marseille","lat":43.30085,"lon":5.390856,"is_reserved":false,"is_disabled":false,"rental_uris":{"android":"levelo://app?vid=14955f78-5354-4958-a6c1-4cac8b5b8c99","ios":"levelo://app?vid=14955f78-5354-4958-a6c1-4cac8b5b8c99"},"vehicle_type_id":"4","last_reported":1715440011,"current_range_meters":18400,"station_id":"ce4bh192rcd13ifvqdb0","pricing_plan_id":"cebpf4jnsgd1na2vs0mg"},{"bike_id":"a95fc995-7ddb-406e-967e-a039a7d354fb","system_id":"levelo_inurba_marseille","lat":43.30085,"lon":5.390856,"is_reserved":false,"is_disabled":false,"rental_uris":{"android":"levelo://app?vid=a95fc995-7ddb-406e-967e-a039a7d354fb","ios":"levelo://app?vid=a95fc995-7ddb-406e-967e-a039a7d354fb"},"vehicle_type_id":"4","last_reported":1715440011,"current_range_meters":3600,"station_id":"ce4bh192rcd13ifvqdb0","pricing_plan_id":"cebpf4jnsgd1na2vs0mg"},{"bike_id":"05123769-5afc-42e0-a974-64203711d8fc","system_id":"levelo_inurba_marseille","lat":43.29169,"lon":5.37159,"is_reserved":false,"is_disabled":false,"rental_uris":{"android":"levelo://app?vid=05123769-5afc-42e0-a974-64203711d8fc","ios":"levelo://app?vid=05123769-5afc-42e0-a974-64203711d8fc"},"vehicle_type_id":"4","last_reported":1715440011,"current_range_meters":0,"station_id":"ce4bha92rcd13ifvqeh0","pricing_plan_id":"cebpf4jnsgd1na2vs0mg"},{"bike_id":"ec18bea3-b9ba-47f5-a058-c913c328bca4","system_id":"levelo_inurba_marseille","lat":43.309047,"lon":5.396551,"is_reserved":false,"is_disabled":false,"rental_uris":{"android":"levelo://app?vid=ec18bea3-b9ba-47f5-a058-c913c328bca4","ios":"levelo://app?vid=ec18bea3-b9ba-47f5-a058-c913c328bca4"},"vehicle_type_id":"4","last_reported":1715440011,"current_range_meters":14400,"station_id":"ce4bh012rcd13ifvqcv0","pricing_plan_id":"cebpf4jnsgd1na2vs0mg"},{"bike_id":"05700681-9f1f-4334-bcaa-deeeca763244","system_id":"levelo_inurba_marseille","lat":43.309047,"lon":5.396551,"is_reserved":false,"is_disabled":false,"rental_uris":{"android":"levelo://app?vid=05700681-9f1f-4334-bcaa-deeeca763244","ios":"levelo://app?vid=05700681-9f1f-4334-bcaa-deeeca763244"},"vehicle_type_id":"4","last_reported":1715440011,"current_range_meters":27200,"station_id":"ce4bh012rcd13ifvqcv0","pricing_plan_id":"cebpf4jnsgd1na2vs0mg"},{"bike_id":"c6f559a3-2b0e-4650-a21e-ff40b6361510","system_id":"levelo_inurba_marseille","lat":43.29197,"lon":5.35795,"is_reserved":false,"is_disabled":false,"rental_uris":{"android":"levelo://app?vid=c6f559a3-2b0e-4650-a21e-ff40b6361510","ios":"levelo://app?vid=c6f559a3-2b0e-4650-a21e-ff40b6361510"},"vehicle_type_id":"4","last_reported":1715440011,"current_range_meters":31200,"station_id":"ce4bhb12rcd13ifvqel0","pricing_plan_id":"cebpf4jnsgd1na2vs0mg"},{"bike_id":"b33c8176-c9e1-477d-a350-17b9e1b464f1","system_id":"levelo_inurba_marseille","lat":43.313291,"lon":5.396838,"is_reserved":false,"is_disabled":false,"rental_uris":{"android":"levelo://app?vid=b33c8176-c9e1-477d-a350-17b9e1b464f1","ios":"levelo://app?vid=b33c8176-c9e1-477d-a350-17b9e1b464f1"},"vehicle_type_id":"4","last_reported":1715440011,"current_range_meters":21600,"station_id":"ce4bgvp2rcd13ifvqcu0","pricing_plan_id":"cebpf4jnsgd1na2vs0mg"},{"bike_id":"f09baab0-386b-4288-9d45-6be2d9bb6d8f","system_id":"levelo_inurba_marseille","lat":43.313291,"lon":5.396838,"is_reserved":false,"is_disabled":false,"rental_uris":{"android":"levelo://app?vid=f09baab0-386b-4288-9d45-6be2d9bb6d8f","ios":"levelo://app?vid=f09baab0-386b-4288-9d45-6be2d9bb6d8f"},"vehicle_type_id":"4","last_reported":1715440011,"current_range_meters":22400,"station_id":"ce4bgvp2rcd13ifvqcu0","pricing_plan_id":"cebpf4jnsgd1na2vs0mg"},{"bike_id":"e32385ff-f6c1-4277-9f2d-a4bad7d93a43","system_id":"levelo_inurba_marseille","lat":43.32367,"lon":5.388836,"is_reserved":false,"is_disabled":false,"rental_uris":{"android":"levelo://app?vid=e32385ff-f6c1-4277-9f2d-a4bad7d93a43","ios":"levelo://app?vid=e32385ff-f6c1-4277-9f2d-a4bad7d93a43"},"vehicle_type_id":"4","last_reported":1715440011,"current_range_meters":20800,"station_id":"ce4bhqp2rcd13ifvqhog","pricing_plan_id":"cebpf4jnsgd1na2vs0mg"},{"bike_id":"ca776409-637e-48a4-b127-2e6480edea9b","system_id":"levelo_inurba_marseille","lat":43.29535,"lon":5.3854,"is_reserved":false,"is_disabled":false,"rental_uris":{"android":"levelo://app?vid=ca776409-637e-48a4-b127-2e6480edea9b","ios":"levelo://app?vid=ca776409-637e-48a4-b127-2e6480edea9b"},"vehicle_type_id":"4","last_reported":1715440011,"current_range_meters":0,"station_id":"ce4bgih2rcd13ifvqba0","pricing_plan_id":"cebpf4jnsgd1na2vs0mg"},{"bike_id":"ea9e7760-9133-494e-9548-086dad4f4378","system_id":"levelo_inurba_marseille","lat":43.290779,"lon":5.371482,"is_reserved":false,"is_disabled":false,"rental_uris":{"android":"levelo://app?vid=ea9e7760-9133-494e-9548-086dad4f4378","ios":"levelo://app?vid=ea9e7760-9133-494e-9548-086dad4f4378"},"vehicle_type_id":"4","last_reported":1715440011,"current_range_meters":9600,"station_id":"ce4bh5p2rcd13ifvqe4g","pricing_plan_id":"cebpf4jnsgd1na2vs0mg"},{"bike_id":"541765d6-2633-40e8-80ed-354c6d979f9b","system_id":"levelo_inurba_marseille","lat":43.290779,"lon":5.371482,"is_reserved":false,"is_disabled":false,"rental_uris":{"android":"levelo://app?vid=541765d6-2633-40e8-80ed-354c6d979f9b","ios":"levelo://app?vid=541765d6-2633-40e8-80ed-354c6d979f9b"},"vehicle_type_id":"4","last_reported":1715440011,"current_range_meters":1200,"station_id":"ce4bh5p2rcd13ifvqe4g","pricing_plan_id":"cebpf4jnsgd1na2vs0mg"},{"bike_id":"3c176c1e-d7be-40e1-ab8f-edfaa6dbe64a","system_id":"levelo_inurba_marseille","lat":43.302008,"lon":5.394694,"is_reserved":false,"is_disabled":false,"rental_uris":{"android":"levelo://app?vid=3c176c1e-d7be-40e1-ab8f-edfaa6dbe64a","ios":"levelo://app?vid=3c176c1e-d7be-40e1-ab8f-edfaa6dbe64a"},"vehicle_type_id":"4","last_reported":1715440011,"current_range_meters":6400,"station_id":"ce4bh0p2rcd13ifvqd70","pricing_plan_id":"cebpf4jnsgd1na2vs0mg"},{"bike_id":"82d2259c-7444-40cb-9276-ff3dd2e4e529","system_id":"levelo_inurba_marseille","lat":43.290631,"lon":5.359244,"is_reserved":false,"is_disabled":false,"rental_uris":{"android":"levelo://app?vid=82d2259c-7444-40cb-9276-ff3dd2e4e529","ios":"levelo://app?vid=82d2259c-7444-40cb-9276-ff3dd2e4e529"},"vehicle_type_id":"4","last_reported":1715440011,"current_range_meters":22800,"station_id":"ce4bha92rcd13ifvqeg0","pricing_plan_id":"cebpf4jnsgd1na2vs0mg"},{"bike_id":"7578ecab-a260-4fe7-8046-db6a0402a033","system_id":"levelo_inurba_marseille","lat":43.289444,"lon":5.366501,"is_reserved":false,"is_disabled":false,"rental_uris":{"android":"levelo://app?vid=7578ecab-a260-4fe7-8046-db6a0402a033","ios":"levelo://app?vid=7578ecab-a260-4fe7-8046-db6a0402a033"},"vehicle_type_id":"4","last_reported":1715440011,"current_range_meters":21600,"station_id":"","pricing_plan_id":"cebpf4jnsgd1na2vs0mg"},{"bike_id":"d6e00bae-37e7-4416-8c11-4dba65e14e01","system_id":"levelo_inurba_marseille","lat":43.289184,"lon":5.366408,"is_reserved":false,"is_disabled":false,"rental_uris":{"android":"levelo://app?vid=d6e00bae-37e7-4416-8c11-4dba65e14e01","ios":"levelo://app?vid=d6e00bae-37e7-4416-8c11-4dba65e14e01"},"vehicle_type_id":"4","last_reported":1715440011,"current_range_meters":23200,"station_id":"ce4bhap2rcd13ifvqek0","pricing_plan_id":"cebpf4jnsgd1na2vs0mg"},{"bike_id":"3efa3753-5d77-4d84-ba8c-db5602100edf","system_id":"levelo_inurba_marseille","lat":43.294162,"lon":5.386292,"is_reserved":false,"is_disabled":false,"rental_uris":{"android":"levelo://app?vid=3efa3753-5d77-4d84-ba8c-db5602100edf","ios":"levelo://app?vid=3efa3753-5d77-4d84-ba8c-db5602100edf"},"vehicle_type_id":"4","last_reported":1715440011,"current_range_meters":11200,"station_id":"ce4bh2h2rcd13ifvqdh0","pricing_plan_id":"cebpf4jnsgd1na2vs0mg"},{"bike_id":"21a6b137-e5b5-4799-b497-1b8433215c9e","system_id":"levelo_inurba_marseille","lat":43.289184,"lon":5.366408,"is_reserved":false,"is_disabled":false,"rental_uris":{"android":"levelo://app?vid=21a6b137-e5b5-4799-b497-1b8433215c9e","ios":"levelo://app?vid=21a6b137-e5b5-4799-b497-1b8433215c9e"},"vehicle_type_id":"4","last_reported":1715440011,"current_range_meters":19200,"station_id":"ce4bhap2rcd13ifvqek0","pricing_plan_id":"cebpf4jnsgd1na2vs0mg"},{"bike_id":"018e53a2-7a20-44cd-be56-e0c488e4cd74","system_id":"levelo_inurba_marseille","lat":43.290327,"lon":5.375711,"is_reserved":false,"is_disabled":false,"rental_uris":{"android":"levelo://app?vid=018e53a2-7a20-44cd-be56-e0c488e4cd74","ios":"levelo://app?vid=018e53a2-7a20-44cd-be56-e0c488e4cd74"},"vehicle_type_id":"4","last_reported":1715440011,"current_range_meters":7200,"station_id":"ce4bh692rcd13ifvqe90","pricing_plan_id":"cebpf4jnsgd1na2vs0mg"},{"bike_id":"b897838a-5096-423c-8da8-cad23068d45b","system_id":"levelo_inurba_marseille","lat":43.289468,"lon":5.363719,"is_reserved":false,"is_disabled":false,"rental_uris":{"android":"levelo://app?vid=b897838a-5096-423c-8da8-cad23068d45b","ios":"levelo://app?vid=b897838a-5096-423c-8da8-cad23068d45b"},"vehicle_type_id":"4","last_reported":1715440011,"current_range_meters":6800,"station_id":"ce4bhc92rcd13ifvqetg","pricing_plan_id":"cebpf4jnsgd1na2vs0mg"},{"bike_id":"0990b073-8920-4372-beb4-776ee26c331d","system_id":"levelo_inurba_marseille","lat":43.289468,"lon":5.363719,"is_reserved":false,"is_disabled":false,"rental_uris":{"android":"levelo://app?vid=0990b073-8920-4372-beb4-776ee26c331d","ios":"levelo://app?vid=0990b073-8920-4372-beb4-776ee26c331d"},"vehicle_type_id":"4","last_reported":1715440011,"current_range_meters":23200,"station_id":"ce4bhc92rcd13ifvqetg","pricing_plan_id":"cebpf4jnsgd1na2vs0mg"},{"bike_id":"0e0864d8-ff75-4f46-901e-218f7c62915f","system_id":"levelo_inurba_marseille","lat":43.292908,"lon":5.384048,"is_reserved":false,"is_disabled":false,"rental_uris":{"android":"levelo://app?vid=0e0864d8-ff75-4f46-901e-218f7c62915f","ios":"levelo://app?vid=0e0864d8-ff75-4f46-901e-218f7c62915f"},"vehicle_type_id":"4","last_reported":1715440011,"current_range_meters":0,"station_id":"ce4bh692rcd13ifvqea0","pricing_plan_id":"cebpf4jnsgd1na2vs0mg"},{"bike_id":"db5ad9d0-305e-4730-96f6-aac420399f17","system_id":"levelo_inurba_marseille","lat":43.289468,"lon":5.363719,"is_reserved":false,"is_disabled":false,"rental_uris":{"android":"levelo://app?vid=db5ad9d0-305e-4730-96f6-aac420399f17","ios":"levelo://app?vid=db5ad9d0-305e-4730-96f6-aac420399f17"},"vehicle_type_id":"4","last_reported":1715440011,"current_range_meters":20400,"station_id":"ce4bhc92rcd13ifvqetg","pricing_plan_id":"cebpf4jnsgd1na2vs0mg"},{"bike_id":"edd81e91-a69e-42fe-8c53-c48c8d82994f","system_id":"levelo_inurba_marseille","lat":43.294162,"lon":5.386292,"is_reserved":false,"is_disabled":false,"rental_uris":{"android":"levelo://app?vid=edd81e91-a69e-42fe-8c53-c48c8d82994f","ios":"levelo://app?vid=edd81e91-a69e-42fe-8c53-c48c8d82994f"},"vehicle_type_id":"4","last_reported":1715440011,"current_range_meters":4800,"station_id":"ce4bh2h2rcd13ifvqdh0","pricing_plan_id":"cebpf4jnsgd1na2vs0mg"},{"bike_id":"f802fe83-663a-465d-b622-a65b0a559a2d","system_id":"levelo_inurba_marseille","lat":43.29265,"lon":5.384225,"is_reserved":false,"is_disabled":false,"rental_uris":{"android":"levelo://app?vid=f802fe83-663a-465d-b622-a65b0a559a2d","ios":"levelo://app?vid=f802fe83-663a-465d-b622-a65b0a559a2d"},"vehicle_type_id":"4","last_reported":1715440011,"current_range_meters":12400,"station_id":"ce4bh692rcd13ifvqea0","pricing_plan_id":"cebpf4jnsgd1na2vs0mg"},{"bike_id":"3c2436be-8d67-4755-ba4c-e886982fb23a","system_id":"levelo_inurba_marseille","lat":43.289184,"lon":5.366408,"is_reserved":false,"is_disabled":false,"rental_uris":{"android":"levelo://app?vid=3c2436be-8d67-4755-ba4c-e886982fb23a","ios":"levelo://app?vid=3c2436be-8d67-4755-ba4c-e886982fb23a"},"vehicle_type_id":"4","last_reported":1715440011,"current_range_meters":6800,"station_id":"ce4bhap2rcd13ifvqek0","pricing_plan_id":"cebpf4jnsgd1na2vs0mg"},{"bike_id":"51e9a1d3-383d-4a6e-95de-782dafb05cf2","system_id":"levelo_inurba_marseille","lat":43.292642,"lon":5.384254,"is_reserved":false,"is_disabled":false,"rental_uris":{"android":"levelo://app?vid=51e9a1d3-383d-4a6e-95de-782dafb05cf2","ios":"levelo://app?vid=51e9a1d3-383d-4a6e-95de-782dafb05cf2"},"vehicle_type_id":"4","last_reported":1715440011,"current_range_meters":8400,"station_id":"ce4bh692rcd13ifvqea0","pricing_plan_id":"cebpf4jnsgd1na2vs0mg"},{"bike_id":"2a68e5a1-3fb5-420d-8e50-09162f39d2d1","system_id":"levelo_inurba_marseille","lat":43.292642,"lon":5.384254,"is_reserved":false,"is_disabled":false,"rental_uris":{"android":"levelo://app?vid=2a68e5a1-3fb5-420d-8e50-09162f39d2d1","ios":"levelo://app?vid=2a68e5a1-3fb5-420d-8e50-09162f39d2d1"},"vehicle_type_id":"4","last_reported":1715440011,"current_range_meters":31200,"station_id":"ce4bh692rcd13ifvqea0","pricing_plan_id":"cebpf4jnsgd1na2vs0mg"},{"bike_id":"fc141b38-4308-4a51-9bed-cc9a837e3dfd","system_id":"levelo_inurba_marseille","lat":43.289184,"lon":5.366408,"is_reserved":false,"is_disabled":false,"rental_uris":{"android":"levelo://app?vid=fc141b38-4308-4a51-9bed-cc9a837e3dfd","ios":"levelo://app?vid=fc141b38-4308-4a51-9bed-cc9a837e3dfd"},"vehicle_type_id":"4","last_reported":1715440011,"current_range_meters":10000,"station_id":"ce4bhap2rcd13ifvqek0","pricing_plan_id":"cebpf4jnsgd1na2vs0mg"},{"bike_id":"1a4b8e70-d8cf-49ae-bdb9-55b0f08b92ff","system_id":"levelo_inurba_marseille","lat":43.289901,"lon":5.35643,"is_reserved":false,"is_disabled":false,"rental_uris":{"android":"levelo://app?vid=1a4b8e70-d8cf-49ae-bdb9-55b0f08b92ff","ios":"levelo://app?vid=1a4b8e70-d8cf-49ae-bdb9-55b0f08b92ff"},"vehicle_type_id":"4","last_reported":1715440011,"current_range_meters":24400,"station_id":"","pricing_plan_id":"cebpf4jnsgd1na2vs0mg"},{"bike_id":"f695d1df-abe8-4edb-b5e7-4fdb0b3be4f8","system_id":"levelo_inurba_marseille","lat":43.290995,"lon":5.381361,"is_reserved":false,"is_disabled":false,"rental_uris":{"android":"levelo://app?vid=f695d1df-abe8-4edb-b5e7-4fdb0b3be4f8","ios":"levelo://app?vid=f695d1df-abe8-4edb-b5e7-4fdb0b3be4f8"},"vehicle_type_id":"4","last_reported":1715440011,"current_range_meters":1200,"station_id":"ce4bh512rcd13ifvqe2g","pricing_plan_id":"cebpf4jnsgd1na2vs0mg"},{"bike_id":"1864db42-5966-4aca-898d-58f4825cf90f","system_id":"levelo_inurba_marseille","lat":43.290995,"lon":5.381361,"is_reserved":false,"is_disabled":false,"rental_uris":{"android":"levelo://app?vid=1864db42-5966-4aca-898d-58f4825cf90f","ios":"levelo://app?vid=1864db42-5966-4aca-898d-58f4825cf90f"},"vehicle_type_id":"4","last_reported":1715440011,"current_range_meters":19600,"station_id":"ce4bh512rcd13ifvqe2g","pricing_plan_id":"cebpf4jnsgd1na2vs0mg"},{"bike_id":"4c8dc81e-ba12-42d7-bdb4-39141abe788d","system_id":"levelo_inurba_marseille","lat":43.330442,"lon":5.389148,"is_reserved":false,"is_disabled":false,"rental_uris":{"android":"levelo://app?vid=4c8dc81e-ba12-42d7-bdb4-39141abe788d","ios":"levelo://app?vid=4c8dc81e-ba12-42d7-bdb4-39141abe788d"},"vehicle_type_id":"4","last_reported":1715440011,"current_range_meters":22400,"station_id":"ce4bhr92rcd13ifvqhrg","pricing_plan_id":"cebpf4jnsgd1na2vs0mg"},{"bike_id":"90285aec-a2bf-4f4a-b5a6-67522edccaec","system_id":"levelo_inurba_marseille","lat":43.289468,"lon":5.363719,"is_reserved":false,"is_disabled":false,"rental_uris":{"android":"levelo://app?vid=90285aec-a2bf-4f4a-b5a6-67522edccaec","ios":"levelo://app?vid=90285aec-a2bf-4f4a-b5a6-67522edccaec"},"vehicle_type_id":"4","last_reported":1715440011,"current_range_meters":24800,"station_id":"ce4bhc92rcd13ifvqetg","pricing_plan_id":"cebpf4jnsgd1na2vs0mg"},{"bike_id":"2f18983f-4d2b-4075-a8a8-9d2e6e675ad0","system_id":"levelo_inurba_marseille","lat":43.28856,"lon":5.358371,"is_reserved":false,"is_disabled":false,"rental_uris":{"android":"levelo://app?vid=2f18983f-4d2b-4075-a8a8-9d2e6e675ad0","ios":"levelo://app?vid=2f18983f-4d2b-4075-a8a8-9d2e6e675ad0"},"vehicle_type_id":"4","last_reported":1715440011,"current_range_meters":9600,"station_id":"ce4bhb12rcd13ifvqem0","pricing_plan_id":"cebpf4jnsgd1na2vs0mg"},{"bike_id":"a6fe3be9-2ae1-42ce-9d62-911bb3dea5fa","system_id":"levelo_inurba_marseille","lat":43.28856,"lon":5.358371,"is_reserved":false,"is_disabled":false,"rental_uris":{"android":"levelo://app?vid=a6fe3be9-2ae1-42ce-9d62-911bb3dea5fa","ios":"levelo://app?vid=a6fe3be9-2ae1-42ce-9d62-911bb3dea5fa"},"vehicle_type_id":"4","last_reported":1715440011,"current_range_meters":30800,"station_id":"ce4bhb12rcd13ifvqem0","pricing_plan_id":"cebpf4jnsgd1na2vs0mg"},{"bike_id":"7d33c6fe-2f4f-4d87-be31-0ae36a388358","system_id":"levelo_inurba_marseille","lat":43.312609,"lon":5.401662,"is_reserved":false,"is_disabled":false,"rental_uris":{"android":"levelo://app?vid=7d33c6fe-2f4f-4d87-be31-0ae36a388358","ios":"levelo://app?vid=7d33c6fe-2f4f-4d87-be31-0ae36a388358"},"vehicle_type_id":"4","last_reported":1715440011,"current_range_meters":8000,"station_id":"ce4bh092rcd13ifvqd30","pricing_plan_id":"cebpf4jnsgd1na2vs0mg"},{"bike_id":"3e4dd869-2094-4f47-992e-745805c36724","system_id":"levelo_inurba_marseille","lat":43.287859,"lon":5.373601,"is_reserved":false,"is_disabled":false,"rental_uris":{"android":"levelo://app?vid=3e4dd869-2094-4f47-992e-745805c36724","ios":"levelo://app?vid=3e4dd869-2094-4f47-992e-745805c36724"},"vehicle_type_id":"4","last_reported":1715440011,"current_range_meters":3200,"station_id":"ce4bh3p2rcd13ifvqdq0","pricing_plan_id":"cebpf4jnsgd1na2vs0mg"},{"bike_id":"2c8ad259-3ed2-4212-98d9-4efe5df1c45d","system_id":"levelo_inurba_marseille","lat":43.309371,"lon":5.401449,"is_reserved":false,"is_disabled":false,"rental_uris":{"android":"levelo://app?vid=2c8ad259-3ed2-4212-98d9-4efe5df1c45d","ios":"levelo://app?vid=2c8ad259-3ed2-4212-98d9-4efe5df1c45d"},"vehicle_type_id":"4","last_reported":1715440011,"current_range_meters":18800,"station_id":"ce4bgvp2rcd13ifvqct0","pricing_plan_id":"cebpf4jnsgd1na2vs0mg"},{"bike_id":"bf2f0537-cfcd-4033-9402-e1af37e38f58","system_id":"levelo_inurba_marseille","lat":43.294162,"lon":5.386292,"is_reserved":false,"is_disabled":false,"rental_uris":{"android":"levelo://app?vid=bf2f0537-cfcd-4033-9402-e1af37e38f58","ios":"levelo://app?vid=bf2f0537-cfcd-4033-9402-e1af37e38f58"},"vehicle_type_id":"4","last_reported":1715440011,"current_range_meters":800,"station_id":"ce4bh2h2rcd13ifvqdh0","pricing_plan_id":"cebpf4jnsgd1na2vs0mg"},{"bike_id":"f7932a42-aa5c-439b-b535-65dd8ccd41cf","system_id":"levelo_inurba_marseille","lat":43.33751,"lon":5.37493,"is_reserved":false,"is_disabled":false,"rental_uris":{"android":"levelo://app?vid=f7932a42-aa5c-439b-b535-65dd8ccd41cf","ios":"levelo://app?vid=f7932a42-aa5c-439b-b535-65dd8ccd41cf"},"vehicle_type_id":"4","last_reported":1715440011,"current_range_meters":29200,"station_id":"","pricing_plan_id":"cebpf4jnsgd1na2vs0mg"},{"bike_id":"98b7dbe4-6af0-4086-be72-4c43a7dfb989","system_id":"levelo_inurba_marseille","lat":43.337606,"lon":5.374358,"is_reserved":false,"is_disabled":false,"rental_uris":{"android":"levelo://app?vid=98b7dbe4-6af0-4086-be72-4c43a7dfb989","ios":"levelo://app?vid=98b7dbe4-6af0-4086-be72-4c43a7dfb989"},"vehicle_type_id":"4","last_reported":1715440011,"current_range_meters":12400,"station_id":"","pricing_plan_id":"cebpf4jnsgd1na2vs0mg"},{"bike_id":"91d9714b-b35f-47ce-8f34-022bf351236f","system_id":"levelo_inurba_marseille","lat":43.33762,"lon":5.37436,"is_reserved":false,"is_disabled":false,"rental_uris":{"android":"levelo://app?vid=91d9714b-b35f-47ce-8f34-022bf351236f","ios":"levelo://app?vid=91d9714b-b35f-47ce-8f34-022bf351236f"},"vehicle_type_id":"4","last_reported":1715440011,"current_range_meters":24800,"station_id":"","pricing_plan_id":"cebpf4jnsgd1na2vs0mg"},{"bike_id":"ee5d62b5-ae70-4a05-a46f-46a3a9068ffa","system_id":"levelo_inurba_marseille","lat":43.301117,"lon":5.398795,"is_reserved":false,"is_disabled":false,"rental_uris":{"android":"levelo://app?vid=ee5d62b5-ae70-4a05-a46f-46a3a9068ffa","ios":"levelo://app?vid=ee5d62b5-ae70-4a05-a46f-46a3a9068ffa"},"vehicle_type_id":"4","last_reported":1715440011,"current_range_meters":23600,"station_id":"ce4bh0h2rcd13ifvqd40","pricing_plan_id":"cebpf4jnsgd1na2vs0mg"},{"bike_id":"e3d3f308-23e3-4903-8505-193efdfcd82b","system_id":"levelo_inurba_marseille","lat":43.301117,"lon":5.398795,"is_reserved":false,"is_disabled":false,"rental_uris":{"android":"levelo://app?vid=e3d3f308-23e3-4903-8505-193efdfcd82b","ios":"levelo://app?vid=e3d3f308-23e3-4903-8505-193efdfcd82b"},"vehicle_type_id":"4","last_reported":1715440011,"current_range_meters":0,"station_id":"ce4bh0h2rcd13ifvqd40","pricing_plan_id":"cebpf4jnsgd1na2vs0mg"},{"bike_id":"91266183-f089-41f9-b680-9b6f42362c41","system_id":"levelo_inurba_marseille","lat":43.28714,"lon":5.360948,"is_reserved":false,"is_disabled":false,"rental_uris":{"android":"levelo://app?vid=91266183-f089-41f9-b680-9b6f42362c41","ios":"levelo://app?vid=91266183-f089-41f9-b680-9b6f42362c41"},"vehicle_type_id":"4","last_reported":1715440011,"current_range_meters":24000,"station_id":"","pricing_plan_id":"cebpf4jnsgd1na2vs0mg"},{"bike_id":"fc9312cc-357d-42b6-ba79-175065b45010","system_id":"levelo_inurba_marseille","lat":43.287071,"lon":5.373691,"is_reserved":false,"is_disabled":false,"rental_uris":{"android":"levelo://app?vid=fc9312cc-357d-42b6-ba79-175065b45010","ios":"levelo://app?vid=fc9312cc-357d-42b6-ba79-175065b45010"},"vehicle_type_id":"4","last_reported":1715440011,"current_range_meters":0,"station_id":"ce4bh3p2rcd13ifvqdq0","pricing_plan_id":"cebpf4jnsgd1na2vs0mg"},{"bike_id":"ad353a68-2275-4629-9f57-9f160a21eb37","system_id":"levelo_inurba_marseille","lat":43.28669,"lon":5.36346,"is_reserved":false,"is_disabled":false,"rental_uris":{"android":"levelo://app?vid=ad353a68-2275-4629-9f57-9f160a21eb37","ios":"levelo://app?vid=ad353a68-2275-4629-9f57-9f160a21eb37"},"vehicle_type_id":"4","last_reported":1715440011,"current_range_meters":15600,"station_id":"ce4bhah2rcd13ifvqej0","pricing_plan_id":"cebpf4jnsgd1na2vs0mg"},{"bike_id":"58676f3b-6bad-4807-b72a-4057cdd152d4","system_id":"levelo_inurba_marseille","lat":43.286591,"lon":5.363346,"is_reserved":false,"is_disabled":false,"rental_uris":{"android":"levelo://app?vid=58676f3b-6bad-4807-b72a-4057cdd152d4","ios":"levelo://app?vid=58676f3b-6bad-4807-b72a-4057cdd152d4"},"vehicle_type_id":"4","last_reported":1715440011,"current_range_meters":28000,"station_id":"ce4bhah2rcd13ifvqej0","pricing_plan_id":"cebpf4jnsgd1na2vs0mg"},{"bike_id":"baf15fd0-1745-4cf3-abde-b92e62d75193","system_id":"levelo_inurba_marseille","lat":43.286593,"lon":5.363346,"is_reserved":false,"is_disabled":false,"rental_uris":{"android":"levelo://app?vid=baf15fd0-1745-4cf3-abde-b92e62d75193","ios":"levelo://app?vid=baf15fd0-1745-4cf3-abde-b92e62d75193"},"vehicle_type_id":"4","last_reported":1715440011,"current_range_meters":26400,"station_id":"ce4bhah2rcd13ifvqej0","pricing_plan_id":"cebpf4jnsgd1na2vs0mg"},{"bike_id":"7e9d4284-219d-4551-83f4-469a5400f5ab","system_id":"levelo_inurba_marseille","lat":43.295194,"lon":5.39397,"is_reserved":false,"is_disabled":false,"rental_uris":{"android":"levelo://app?vid=7e9d4284-219d-4551-83f4-469a5400f5ab","ios":"levelo://app?vid=7e9d4284-219d-4551-83f4-469a5400f5ab"},"vehicle_type_id":"4","last_reported":1715440011,"current_range_meters":0,"station_id":"ce4bh292rcd13ifvqdf0","pricing_plan_id":"cebpf4jnsgd1na2vs0mg"},{"bike_id":"4a5edcbb-5263-480d-8aec-56cd4519094b","system_id":"levelo_inurba_marseille","lat":43.295194,"lon":5.39397,"is_reserved":false,"is_disabled":false,"rental_uris":{"android":"levelo://app?vid=4a5edcbb-5263-480d-8aec-56cd4519094b","ios":"levelo://app?vid=4a5edcbb-5263-480d-8aec-56cd4519094b"},"vehicle_type_id":"4","last_reported":1715440011,"current_range_meters":24400,"station_id":"ce4bh292rcd13ifvqdf0","pricing_plan_id":"cebpf4jnsgd1na2vs0mg"},{"bike_id":"f003c4d2-390e-42b2-a2c7-6ebadf09fae7","system_id":"levelo_inurba_marseille","lat":43.29029,"lon":5.38649,"is_reserved":false,"is_disabled":false,"rental_uris":{"android":"levelo://app?vid=f003c4d2-390e-42b2-a2c7-6ebadf09fae7","ios":"levelo://app?vid=f003c4d2-390e-42b2-a2c7-6ebadf09fae7"},"vehicle_type_id":"4","last_reported":1715440011,"current_range_meters":0,"station_id":"","pricing_plan_id":"cebpf4jnsgd1na2vs0mg"},{"bike_id":"6a4e92b3-24bd-4be8-8e35-14fd5ff9b2db","system_id":"levelo_inurba_marseille","lat":43.29027,"lon":5.38646,"is_reserved":false,"is_disabled":false,"rental_uris":{"android":"levelo://app?vid=6a4e92b3-24bd-4be8-8e35-14fd5ff9b2db","ios":"levelo://app?vid=6a4e92b3-24bd-4be8-8e35-14fd5ff9b2db"},"vehicle_type_id":"4","last_reported":1715440011,"current_range_meters":0,"station_id":"ce4bh4p2rcd13ifvqe0g","pricing_plan_id":"cebpf4jnsgd1na2vs0mg"},{"bike_id":"5297256a-aa17-4e0f-bf4a-1c6da28955bd","system_id":"levelo_inurba_marseille","lat":43.286039,"lon":5.370679,"is_reserved":false,"is_disabled":false,"rental_uris":{"android":"levelo://app?vid=5297256a-aa17-4e0f-bf4a-1c6da28955bd","ios":"levelo://app?vid=5297256a-aa17-4e0f-bf4a-1c6da28955bd"},"vehicle_type_id":"4","last_reported":1715440011,"current_range_meters":18800,"station_id":"ce4bht12rcd13ifvqi60","pricing_plan_id":"cebpf4jnsgd1na2vs0mg"},{"bike_id":"1098c258-8781-47ec-80ea-cbea8b30af21","system_id":"levelo_inurba_marseille","lat":43.286039,"lon":5.370679,"is_reserved":false,"is_disabled":false,"rental_uris":{"android":"levelo://app?vid=1098c258-8781-47ec-80ea-cbea8b30af21","ios":"levelo://app?vid=1098c258-8781-47ec-80ea-cbea8b30af21"},"vehicle_type_id":"4","last_reported":1715440011,"current_range_meters":13200,"station_id":"ce4bht12rcd13ifvqi60","pricing_plan_id":"cebpf4jnsgd1na2vs0mg"},{"bike_id":"66fe358f-f139-48a9-90b8-ba738bb553ad","system_id":"levelo_inurba_marseille","lat":43.286039,"lon":5.370681,"is_reserved":false,"is_disabled":false,"rental_uris":{"android":"levelo://app?vid=66fe358f-f139-48a9-90b8-ba738bb553ad","ios":"levelo://app?vid=66fe358f-f139-48a9-90b8-ba738bb553ad"},"vehicle_type_id":"4","last_reported":1715440011,"current_range_meters":0,"station_id":"ce4bht12rcd13ifvqi60","pricing_plan_id":"cebpf4jnsgd1na2vs0mg"},{"bike_id":"2c193be0-b660-4ce3-852d-bfa112b3972d","system_id":"levelo_inurba_marseille","lat":43.286039,"lon":5.370679,"is_reserved":false,"is_disabled":false,"rental_uris":{"android":"levelo://app?vid=2c193be0-b660-4ce3-852d-bfa112b3972d","ios":"levelo://app?vid=2c193be0-b660-4ce3-852d-bfa112b3972d"},"vehicle_type_id":"4","last_reported":1715440011,"current_range_meters":14000,"station_id":"ce4bht12rcd13ifvqi60","pricing_plan_id":"cebpf4jnsgd1na2vs0mg"},{"bike_id":"ea8a9b64-8c64-4b85-a75b-d7fcd46bcc2e","system_id":"levelo_inurba_marseille","lat":43.31665,"lon":5.40463,"is_reserved":false,"is_disabled":false,"rental_uris":{"android":"levelo://app?vid=ea8a9b64-8c64-4b85-a75b-d7fcd46bcc2e","ios":"levelo://app?vid=ea8a9b64-8c64-4b85-a75b-d7fcd46bcc2e"},"vehicle_type_id":"4","last_reported":1715440011,"current_range_meters":15200,"station_id":"","pricing_plan_id":"cebpf4jnsgd1na2vs0mg"},{"bike_id":"cd207e12-da7d-4e20-820d-9503d3c2a96c","system_id":"levelo_inurba_marseille","lat":43.316828,"lon":5.404723,"is_reserved":false,"is_disabled":false,"rental_uris":{"android":"levelo://app?vid=cd207e12-da7d-4e20-820d-9503d3c2a96c","ios":"levelo://app?vid=cd207e12-da7d-4e20-820d-9503d3c2a96c"},"vehicle_type_id":"4","last_reported":1715440011,"current_range_meters":22400,"station_id":"ce4bh012rcd13ifvqd00","pricing_plan_id":"cebpf4jnsgd1na2vs0mg"},{"bike_id":"e58a377c-867e-425d-bb45-61d12cea9b90","system_id":"levelo_inurba_marseille","lat":43.31692,"lon":5.40481,"is_reserved":false,"is_disabled":false,"rental_uris":{"android":"levelo://app?vid=e58a377c-867e-425d-bb45-61d12cea9b90","ios":"levelo://app?vid=e58a377c-867e-425d-bb45-61d12cea9b90"},"vehicle_type_id":"4","last_reported":1715440011,"current_range_meters":28000,"station_id":"ce4bh012rcd13ifvqd00","pricing_plan_id":"cebpf4jnsgd1na2vs0mg"},{"bike_id":"59ab49a6-dce2-4132-836c-901aa7dfeb78","system_id":"levelo_inurba_marseille","lat":43.284538,"lon":5.358657,"is_reserved":false,"is_disabled":false,"rental_uris":{"android":"levelo://app?vid=59ab49a6-dce2-4132-836c-901aa7dfeb78","ios":"levelo://app?vid=59ab49a6-dce2-4132-836c-901aa7dfeb78"},"vehicle_type_id":"4","last_reported":1715440011,"current_range_meters":30000,"station_id":"ce4bhah2rcd13ifvqei0","pricing_plan_id":"cebpf4jnsgd1na2vs0mg"},{"bike_id":"9c1e8c64-dd09-4c26-ae3a-3378b446ed12","system_id":"levelo_inurba_marseille","lat":43.284538,"lon":5.358657,"is_reserved":false,"is_disabled":false,"rental_uris":{"android":"levelo://app?vid=9c1e8c64-dd09-4c26-ae3a-3378b446ed12","ios":"levelo://app?vid=9c1e8c64-dd09-4c26-ae3a-3378b446ed12"},"vehicle_type_id":"4","last_reported":1715440011,"current_range_meters":15600,"station_id":"ce4bhah2rcd13ifvqei0","pricing_plan_id":"cebpf4jnsgd1na2vs0mg"},{"bike_id":"4b32f47d-4ae6-4b4e-9e64-d5c97bd1ad56","system_id":"levelo_inurba_marseille","lat":43.284538,"lon":5.358657,"is_reserved":false,"is_disabled":false,"rental_uris":{"android":"levelo://app?vid=4b32f47d-4ae6-4b4e-9e64-d5c97bd1ad56","ios":"levelo://app?vid=4b32f47d-4ae6-4b4e-9e64-d5c97bd1ad56"},"vehicle_type_id":"4","last_reported":1715440011,"current_range_meters":17200,"station_id":"ce4bhah2rcd13ifvqei0","pricing_plan_id":"cebpf4jnsgd1na2vs0mg"},{"bike_id":"5aaa816e-4b3d-474e-8f57-abd1026aa5bd","system_id":"levelo_inurba_marseille","lat":43.284538,"lon":5.358657,"is_reserved":false,"is_disabled":false,"rental_uris":{"android":"levelo://app?vid=5aaa816e-4b3d-474e-8f57-abd1026aa5bd","ios":"levelo://app?vid=5aaa816e-4b3d-474e-8f57-abd1026aa5bd"},"vehicle_type_id":"4","last_reported":1715440011,"current_range_meters":3200,"station_id":"ce4bhah2rcd13ifvqei0","pricing_plan_id":"cebpf4jnsgd1na2vs0mg"},{"bike_id":"407ce749-2a5d-4f9e-9ff3-5a394deca8f9","system_id":"levelo_inurba_marseille","lat":43.284534,"lon":5.358662,"is_reserved":false,"is_disabled":false,"rental_uris":{"android":"levelo://app?vid=407ce749-2a5d-4f9e-9ff3-5a394deca8f9","ios":"levelo://app?vid=407ce749-2a5d-4f9e-9ff3-5a394deca8f9"},"vehicle_type_id":"4","last_reported":1715440011,"current_range_meters":9600,"station_id":"ce4bhah2rcd13ifvqei0","pricing_plan_id":"cebpf4jnsgd1na2vs0mg"},{"bike_id":"691fca45-d108-4942-9b41-58338ba21933","system_id":"levelo_inurba_marseille","lat":43.284534,"lon":5.358662,"is_reserved":false,"is_disabled":false,"rental_uris":{"android":"levelo://app?vid=691fca45-d108-4942-9b41-58338ba21933","ios":"levelo://app?vid=691fca45-d108-4942-9b41-58338ba21933"},"vehicle_type_id":"4","last_reported":1715440011,"current_range_meters":14400,"station_id":"ce4bhah2rcd13ifvqei0","pricing_plan_id":"cebpf4jnsgd1na2vs0mg"},{"bike_id":"eb76b5f7-c58b-4567-943a-387dffb69201","system_id":"levelo_inurba_marseille","lat":43.284534,"lon":5.358662,"is_reserved":false,"is_disabled":false,"rental_uris":{"android":"levelo://app?vid=eb76b5f7-c58b-4567-943a-387dffb69201","ios":"levelo://app?vid=eb76b5f7-c58b-4567-943a-387dffb69201"},"vehicle_type_id":"4","last_reported":1715440011,"current_range_meters":12800,"station_id":"ce4bhah2rcd13ifvqei0","pricing_plan_id":"cebpf4jnsgd1na2vs0mg"},{"bike_id":"c3a38c51-1993-4128-9595-da6963619fae","system_id":"levelo_inurba_marseille","lat":43.294314,"lon":5.397498,"is_reserved":false,"is_disabled":false,"rental_uris":{"android":"levelo://app?vid=c3a38c51-1993-4128-9595-da6963619fae","ios":"levelo://app?vid=c3a38c51-1993-4128-9595-da6963619fae"},"vehicle_type_id":"4","last_reported":1715440011,"current_range_meters":14000,"station_id":"ce4bh3h2rcd13ifvqdo0","pricing_plan_id":"cebpf4jnsgd1na2vs0mg"},{"bike_id":"d5664e63-cd35-43e5-895a-06ed0d2292af","system_id":"levelo_inurba_marseille","lat":43.285856,"lon":5.350771,"is_reserved":false,"is_disabled":false,"rental_uris":{"android":"levelo://app?vid=d5664e63-cd35-43e5-895a-06ed0d2292af","ios":"levelo://app?vid=d5664e63-cd35-43e5-895a-06ed0d2292af"},"vehicle_type_id":"4","last_reported":1715440011,"current_range_meters":27200,"station_id":"ce4bhch2rcd13ifvqeug","pricing_plan_id":"cebpf4jnsgd1na2vs0mg"},{"bike_id":"ce9f4a3d-98c7-4f24-89e2-cd87e039f778","system_id":"levelo_inurba_marseille","lat":43.285848,"lon":5.350787,"is_reserved":false,"is_disabled":false,"rental_uris":{"android":"levelo://app?vid=ce9f4a3d-98c7-4f24-89e2-cd87e039f778","ios":"levelo://app?vid=ce9f4a3d-98c7-4f24-89e2-cd87e039f778"},"vehicle_type_id":"4","last_reported":1715440011,"current_range_meters":0,"station_id":"ce4bhch2rcd13ifvqeug","pricing_plan_id":"cebpf4jnsgd1na2vs0mg"},{"bike_id":"d66afcd5-567b-4738-8b29-0ff1e293a69c","system_id":"levelo_inurba_marseille","lat":43.28614,"lon":5.35109,"is_reserved":false,"is_disabled":false,"rental_uris":{"android":"levelo://app?vid=d66afcd5-567b-4738-8b29-0ff1e293a69c","ios":"levelo://app?vid=d66afcd5-567b-4738-8b29-0ff1e293a69c"},"vehicle_type_id":"4","last_reported":1715440011,"current_range_meters":0,"station_id":"ce4bhch2rcd13ifvqeug","pricing_plan_id":"cebpf4jnsgd1na2vs0mg"},{"bike_id":"ef1e1ae6-f3a1-4070-b570-30196606a81c","system_id":"levelo_inurba_marseille","lat":43.28613,"lon":5.35101,"is_reserved":false,"is_disabled":false,"rental_uris":{"android":"levelo://app?vid=ef1e1ae6-f3a1-4070-b570-30196606a81c","ios":"levelo://app?vid=ef1e1ae6-f3a1-4070-b570-30196606a81c"},"vehicle_type_id":"4","last_reported":1715440011,"current_range_meters":0,"station_id":"","pricing_plan_id":"cebpf4jnsgd1na2vs0mg"},{"bike_id":"0fc04f45-8a9d-4adc-89d3-46977a352032","system_id":"levelo_inurba_marseille","lat":43.28612,"lon":5.35098,"is_reserved":false,"is_disabled":false,"rental_uris":{"android":"levelo://app?vid=0fc04f45-8a9d-4adc-89d3-46977a352032","ios":"levelo://app?vid=0fc04f45-8a9d-4adc-89d3-46977a352032"},"vehicle_type_id":"4","last_reported":1715440011,"current_range_meters":0,"station_id":"ce4bhch2rcd13ifvqeug","pricing_plan_id":"cebpf4jnsgd1na2vs0mg"},{"bike_id":"c395a7c7-274a-4bf2-86fe-ef9ac78da959","system_id":"levelo_inurba_marseille","lat":43.2861,"lon":5.35102,"is_reserved":false,"is_disabled":false,"rental_uris":{"android":"levelo://app?vid=c395a7c7-274a-4bf2-86fe-ef9ac78da959","ios":"levelo://app?vid=c395a7c7-274a-4bf2-86fe-ef9ac78da959"},"vehicle_type_id":"4","last_reported":1715440011,"current_range_meters":0,"station_id":"ce4bhch2rcd13ifvqeug","pricing_plan_id":"cebpf4jnsgd1na2vs0mg"},{"bike_id":"911aea8f-82c4-4833-864d-544297f0b274","system_id":"levelo_inurba_marseille","lat":43.2861,"lon":5.35098,"is_reserved":false,"is_disabled":false,"rental_uris":{"android":"levelo://app?vid=911aea8f-82c4-4833-864d-544297f0b274","ios":"levelo://app?vid=911aea8f-82c4-4833-864d-544297f0b274"},"vehicle_type_id":"4","last_reported":1715440011,"current_range_meters":4800,"station_id":"ce4bhch2rcd13ifvqeug","pricing_plan_id":"cebpf4jnsgd1na2vs0mg"},{"bike_id":"71c33163-fc66-4839-8857-11461ad156ee","system_id":"levelo_inurba_marseille","lat":43.283998,"lon":5.375062,"is_reserved":false,"is_disabled":false,"rental_uris":{"android":"levelo://app?vid=71c33163-fc66-4839-8857-11461ad156ee","ios":"levelo://app?vid=71c33163-fc66-4839-8857-11461ad156ee"},"vehicle_type_id":"4","last_reported":1715440011,"current_range_meters":0,"station_id":"ce4bh412rcd13ifvqds0","pricing_plan_id":"cebpf4jnsgd1na2vs0mg"},{"bike_id":"6873f79f-3c4b-48f5-8361-e2af66e0bbfd","system_id":"levelo_inurba_marseille","lat":43.283998,"lon":5.375062,"is_reserved":false,"is_disabled":false,"rental_uris":{"android":"levelo://app?vid=6873f79f-3c4b-48f5-8361-e2af66e0bbfd","ios":"levelo://app?vid=6873f79f-3c4b-48f5-8361-e2af66e0bbfd"},"vehicle_type_id":"4","last_reported":1715440011,"current_range_meters":12000,"station_id":"ce4bh412rcd13ifvqds0","pricing_plan_id":"cebpf4jnsgd1na2vs0mg"},{"bike_id":"4d1c3b5b-9fc5-449a-a46a-d940725ac952","system_id":"levelo_inurba_marseille","lat":43.283998,"lon":5.375062,"is_reserved":false,"is_disabled":false,"rental_uris":{"android":"levelo://app?vid=4d1c3b5b-9fc5-449a-a46a-d940725ac952","ios":"levelo://app?vid=4d1c3b5b-9fc5-449a-a46a-d940725ac952"},"vehicle_type_id":"4","last_reported":1715440011,"current_range_meters":8000,"station_id":"ce4bh412rcd13ifvqds0","pricing_plan_id":"cebpf4jnsgd1na2vs0mg"},{"bike_id":"90ce9076-9854-413d-b778-e9d464d1ef54","system_id":"levelo_inurba_marseille","lat":43.283998,"lon":5.375062,"is_reserved":false,"is_disabled":false,"rental_uris":{"android":"levelo://app?vid=90ce9076-9854-413d-b778-e9d464d1ef54","ios":"levelo://app?vid=90ce9076-9854-413d-b778-e9d464d1ef54"},"vehicle_type_id":"4","last_reported":1715440011,"current_range_meters":800,"station_id":"ce4bh412rcd13ifvqds0","pricing_plan_id":"cebpf4jnsgd1na2vs0mg"},{"bike_id":"890df91d-92c0-4ca9-a9a7-affacd1224cf","system_id":"levelo_inurba_marseille","lat":43.283998,"lon":5.375062,"is_reserved":false,"is_disabled":false,"rental_uris":{"android":"levelo://app?vid=890df91d-92c0-4ca9-a9a7-affacd1224cf","ios":"levelo://app?vid=890df91d-92c0-4ca9-a9a7-affacd1224cf"},"vehicle_type_id":"4","last_reported":1715440011,"current_range_meters":5200,"station_id":"ce4bh412rcd13ifvqds0","pricing_plan_id":"cebpf4jnsgd1na2vs0mg"},{"bike_id":"eab63f7a-188e-4121-876c-4eb4ff080aea","system_id":"levelo_inurba_marseille","lat":43.295713,"lon":5.399639,"is_reserved":false,"is_disabled":false,"rental_uris":{"android":"levelo://app?vid=eab63f7a-188e-4121-876c-4eb4ff080aea","ios":"levelo://app?vid=eab63f7a-188e-4121-876c-4eb4ff080aea"},"vehicle_type_id":"4","last_reported":1715440011,"current_range_meters":20800,"station_id":"ce4bh312rcd13ifvqdj0","pricing_plan_id":"cebpf4jnsgd1na2vs0mg"},{"bike_id":"d3f04f1c-6232-418b-a427-f4f752dc3278","system_id":"levelo_inurba_marseille","lat":43.283998,"lon":5.375062,"is_reserved":false,"is_disabled":false,"rental_uris":{"android":"levelo://app?vid=d3f04f1c-6232-418b-a427-f4f752dc3278","ios":"levelo://app?vid=d3f04f1c-6232-418b-a427-f4f752dc3278"},"vehicle_type_id":"4","last_reported":1715440011,"current_range_meters":26800,"station_id":"ce4bh412rcd13ifvqds0","pricing_plan_id":"cebpf4jnsgd1na2vs0mg"},{"bike_id":"d8ed31ff-a357-414a-a735-5949619c3671","system_id":"levelo_inurba_marseille","lat":43.283998,"lon":5.375062,"is_reserved":false,"is_disabled":false,"rental_uris":{"android":"levelo://app?vid=d8ed31ff-a357-414a-a735-5949619c3671","ios":"levelo://app?vid=d8ed31ff-a357-414a-a735-5949619c3671"},"vehicle_type_id":"4","last_reported":1715440011,"current_range_meters":28800,"station_id":"ce4bh412rcd13ifvqds0","pricing_plan_id":"cebpf4jnsgd1na2vs0mg"},{"bike_id":"3c3a6cb5-0c0d-4112-bb88-777c8e46274f","system_id":"levelo_inurba_marseille","lat":43.286595,"lon":5.386795,"is_reserved":false,"is_disabled":false,"rental_uris":{"android":"levelo://app?vid=3c3a6cb5-0c0d-4112-bb88-777c8e46274f","ios":"levelo://app?vid=3c3a6cb5-0c0d-4112-bb88-777c8e46274f"},"vehicle_type_id":"4","last_reported":1715440011,"current_range_meters":23200,"station_id":"ce4bh492rcd13ifvqdug","pricing_plan_id":"cebpf4jnsgd1na2vs0mg"},{"bike_id":"294601b1-f239-443b-b18c-d684f0542154","system_id":"levelo_inurba_marseille","lat":43.286595,"lon":5.386795,"is_reserved":false,"is_disabled":false,"rental_uris":{"android":"levelo://app?vid=294601b1-f239-443b-b18c-d684f0542154","ios":"levelo://app?vid=294601b1-f239-443b-b18c-d684f0542154"},"vehicle_type_id":"4","last_reported":1715440011,"current_range_meters":23600,"station_id":"ce4bh492rcd13ifvqdug","pricing_plan_id":"cebpf4jnsgd1na2vs0mg"},{"bike_id":"117a7e5b-e8f8-4302-bda8-1cc6eeff9cb7","system_id":"levelo_inurba_marseille","lat":43.319179,"lon":5.407725,"is_reserved":false,"is_disabled":false,"rental_uris":{"android":"levelo://app?vid=117a7e5b-e8f8-4302-bda8-1cc6eeff9cb7","ios":"levelo://app?vid=117a7e5b-e8f8-4302-bda8-1cc6eeff9cb7"},"vehicle_type_id":"4","last_reported":1715440011,"current_range_meters":30400,"station_id":"ce4bhq12rcd13ifvqhig","pricing_plan_id":"cebpf4jnsgd1na2vs0mg"},{"bike_id":"30ee191d-9e4a-4016-b3e5-c39b523b74d9","system_id":"levelo_inurba_marseille","lat":43.28523,"lon":5.38384,"is_reserved":false,"is_disabled":false,"rental_uris":{"android":"levelo://app?vid=30ee191d-9e4a-4016-b3e5-c39b523b74d9","ios":"levelo://app?vid=30ee191d-9e4a-4016-b3e5-c39b523b74d9"},"vehicle_type_id":"4","last_reported":1715440011,"current_range_meters":0,"station_id":"","pricing_plan_id":"cebpf4jnsgd1na2vs0mg"},{"bike_id":"9f33d57b-e32b-4fc1-90ae-4be03761260f","system_id":"levelo_inurba_marseille","lat":43.323464,"lon":5.406297,"is_reserved":false,"is_disabled":false,"rental_uris":{"android":"levelo://app?vid=9f33d57b-e32b-4fc1-90ae-4be03761260f","ios":"levelo://app?vid=9f33d57b-e32b-4fc1-90ae-4be03761260f"},"vehicle_type_id":"4","last_reported":1715440011,"current_range_meters":14400,"station_id":"ce4bhq92rcd13ifvqhjg","pricing_plan_id":"cebpf4jnsgd1na2vs0mg"},{"bike_id":"3abd7269-0153-4119-99eb-ae82a8e0cf45","system_id":"levelo_inurba_marseille","lat":43.323464,"lon":5.406297,"is_reserved":false,"is_disabled":false,"rental_uris":{"android":"levelo://app?vid=3abd7269-0153-4119-99eb-ae82a8e0cf45","ios":"levelo://app?vid=3abd7269-0153-4119-99eb-ae82a8e0cf45"},"vehicle_type_id":"4","last_reported":1715440011,"current_range_meters":16400,"station_id":"ce4bhq92rcd13ifvqhjg","pricing_plan_id":"cebpf4jnsgd1na2vs0mg"},{"bike_id":"a56ade2d-e1f9-405d-9276-9e05132f8d64","system_id":"levelo_inurba_marseille","lat":43.323464,"lon":5.406297,"is_reserved":false,"is_disabled":false,"rental_uris":{"android":"levelo://app?vid=a56ade2d-e1f9-405d-9276-9e05132f8d64","ios":"levelo://app?vid=a56ade2d-e1f9-405d-9276-9e05132f8d64"},"vehicle_type_id":"4","last_reported":1715440011,"current_range_meters":18400,"station_id":"ce4bhq92rcd13ifvqhjg","pricing_plan_id":"cebpf4jnsgd1na2vs0mg"},{"bike_id":"7d38d2a2-0902-41c5-8d93-6a5c61e9b4a1","system_id":"levelo_inurba_marseille","lat":43.284787,"lon":5.384116,"is_reserved":false,"is_disabled":false,"rental_uris":{"android":"levelo://app?vid=7d38d2a2-0902-41c5-8d93-6a5c61e9b4a1","ios":"levelo://app?vid=7d38d2a2-0902-41c5-8d93-6a5c61e9b4a1"},"vehicle_type_id":"4","last_reported":1715440011,"current_range_meters":20400,"station_id":"ce4bh512rcd13ifvqe3g","pricing_plan_id":"cebpf4jnsgd1na2vs0mg"},{"bike_id":"8267ee26-40a4-41ac-b472-918ad359e478","system_id":"levelo_inurba_marseille","lat":43.284787,"lon":5.384116,"is_reserved":false,"is_disabled":false,"rental_uris":{"android":"levelo://app?vid=8267ee26-40a4-41ac-b472-918ad359e478","ios":"levelo://app?vid=8267ee26-40a4-41ac-b472-918ad359e478"},"vehicle_type_id":"4","last_reported":1715440011,"current_range_meters":13600,"station_id":"ce4bh512rcd13ifvqe3g","pricing_plan_id":"cebpf4jnsgd1na2vs0mg"},{"bike_id":"89206e3a-6440-48d7-bc26-6072bb362195","system_id":"levelo_inurba_marseille","lat":43.28454,"lon":5.35001,"is_reserved":false,"is_disabled":false,"rental_uris":{"android":"levelo://app?vid=89206e3a-6440-48d7-bc26-6072bb362195","ios":"levelo://app?vid=89206e3a-6440-48d7-bc26-6072bb362195"},"vehicle_type_id":"4","last_reported":1715440011,"current_range_meters":13600,"station_id":"ce4bhbh2rcd13ifvqepg","pricing_plan_id":"cebpf4jnsgd1na2vs0mg"},{"bike_id":"ff56703f-5a01-4791-95f0-d91415c6ed26","system_id":"levelo_inurba_marseille","lat":43.32532,"lon":5.40562,"is_reserved":false,"is_disabled":false,"rental_uris":{"android":"levelo://app?vid=ff56703f-5a01-4791-95f0-d91415c6ed26","ios":"levelo://app?vid=ff56703f-5a01-4791-95f0-d91415c6ed26"},"vehicle_type_id":"4","last_reported":1715440011,"current_range_meters":7600,"station_id":"","pricing_plan_id":"cebpf4jnsgd1na2vs0mg"},{"bike_id":"bf090e17-a344-47b4-8e97-cb9a5c86fb2c","system_id":"levelo_inurba_marseille","lat":43.32526,"lon":5.40568,"is_reserved":false,"is_disabled":false,"rental_uris":{"android":"levelo://app?vid=bf090e17-a344-47b4-8e97-cb9a5c86fb2c","ios":"levelo://app?vid=bf090e17-a344-47b4-8e97-cb9a5c86fb2c"},"vehicle_type_id":"4","last_reported":1715440011,"current_range_meters":24000,"station_id":"","pricing_plan_id":"cebpf4jnsgd1na2vs0mg"},{"bike_id":"d701c008-5bd5-44ba-a2cf-070a179d3585","system_id":"levelo_inurba_marseille","lat":43.32522,"lon":5.4058,"is_reserved":false,"is_disabled":false,"rental_uris":{"android":"levelo://app?vid=d701c008-5bd5-44ba-a2cf-070a179d3585","ios":"levelo://app?vid=d701c008-5bd5-44ba-a2cf-070a179d3585"},"vehicle_type_id":"4","last_reported":1715440011,"current_range_meters":2400,"station_id":"","pricing_plan_id":"cebpf4jnsgd1na2vs0mg"},{"bike_id":"c37bbd43-a8f8-40bb-ac66-56c431cad1e4","system_id":"levelo_inurba_marseille","lat":43.32525,"lon":5.405796,"is_reserved":false,"is_disabled":false,"rental_uris":{"android":"levelo://app?vid=c37bbd43-a8f8-40bb-ac66-56c431cad1e4","ios":"levelo://app?vid=c37bbd43-a8f8-40bb-ac66-56c431cad1e4"},"vehicle_type_id":"4","last_reported":1715440011,"current_range_meters":20000,"station_id":"","pricing_plan_id":"cebpf4jnsgd1na2vs0mg"},{"bike_id":"55e1d26c-74f7-4964-840e-6c1c570285a3","system_id":"levelo_inurba_marseille","lat":43.283494,"lon":5.380945,"is_reserved":false,"is_disabled":false,"rental_uris":{"android":"levelo://app?vid=55e1d26c-74f7-4964-840e-6c1c570285a3","ios":"levelo://app?vid=55e1d26c-74f7-4964-840e-6c1c570285a3"},"vehicle_type_id":"4","last_reported":1715440011,"current_range_meters":0,"station_id":"ce4bh412rcd13ifvqdr0","pricing_plan_id":"cebpf4jnsgd1na2vs0mg"},{"bike_id":"a98e840b-7619-4ebf-b046-6ab466d52536","system_id":"levelo_inurba_marseille","lat":43.284312,"lon":5.349867,"is_reserved":false,"is_disabled":false,"rental_uris":{"android":"levelo://app?vid=a98e840b-7619-4ebf-b046-6ab466d52536","ios":"levelo://app?vid=a98e840b-7619-4ebf-b046-6ab466d52536"},"vehicle_type_id":"4","last_reported":1715440011,"current_range_meters":20800,"station_id":"ce4bhbh2rcd13ifvqepg","pricing_plan_id":"cebpf4jnsgd1na2vs0mg"},{"bike_id":"0a136433-784a-4e2a-9921-d0365f30ea99","system_id":"levelo_inurba_marseille","lat":43.28423,"lon":5.34998,"is_reserved":false,"is_disabled":false,"rental_uris":{"android":"levelo://app?vid=0a136433-784a-4e2a-9921-d0365f30ea99","ios":"levelo://app?vid=0a136433-784a-4e2a-9921-d0365f30ea99"},"vehicle_type_id":"4","last_reported":1715440011,"current_range_meters":6000,"station_id":"ce4bhbh2rcd13ifvqepg","pricing_plan_id":"cebpf4jnsgd1na2vs0mg"},{"bike_id":"7bb7edde-ec63-46a2-abf9-54af1bf10dc4","system_id":"levelo_inurba_marseille","lat":43.28422,"lon":5.34998,"is_reserved":false,"is_disabled":false,"rental_uris":{"android":"levelo://app?vid=7bb7edde-ec63-46a2-abf9-54af1bf10dc4","ios":"levelo://app?vid=7bb7edde-ec63-46a2-abf9-54af1bf10dc4"},"vehicle_type_id":"4","last_reported":1715440011,"current_range_meters":20800,"station_id":"ce4bhbh2rcd13ifvqepg","pricing_plan_id":"cebpf4jnsgd1na2vs0mg"},{"bike_id":"fffa11e6-6a0f-48ec-b360-aff3b9cef812","system_id":"levelo_inurba_marseille","lat":43.28425,"lon":5.34988,"is_reserved":false,"is_disabled":false,"rental_uris":{"android":"levelo://app?vid=fffa11e6-6a0f-48ec-b360-aff3b9cef812","ios":"levelo://app?vid=fffa11e6-6a0f-48ec-b360-aff3b9cef812"},"vehicle_type_id":"4","last_reported":1715440011,"current_range_meters":20000,"station_id":"ce4bhbh2rcd13ifvqepg","pricing_plan_id":"cebpf4jnsgd1na2vs0mg"},{"bike_id":"6b141c6b-3997-44d7-846f-b9bc128b22f4","system_id":"levelo_inurba_marseille","lat":43.28426,"lon":5.34977,"is_reserved":false,"is_disabled":false,"rental_uris":{"android":"levelo://app?vid=6b141c6b-3997-44d7-846f-b9bc128b22f4","ios":"levelo://app?vid=6b141c6b-3997-44d7-846f-b9bc128b22f4"},"vehicle_type_id":"4","last_reported":1715440011,"current_range_meters":22000,"station_id":"ce4bhbh2rcd13ifvqepg","pricing_plan_id":"cebpf4jnsgd1na2vs0mg"},{"bike_id":"2284530e-40f3-4ad0-a218-eed7a1e64d3b","system_id":"levelo_inurba_marseille","lat":43.28422,"lon":5.34988,"is_reserved":false,"is_disabled":false,"rental_uris":{"android":"levelo://app?vid=2284530e-40f3-4ad0-a218-eed7a1e64d3b","ios":"levelo://app?vid=2284530e-40f3-4ad0-a218-eed7a1e64d3b"},"vehicle_type_id":"4","last_reported":1715440011,"current_range_meters":14000,"station_id":"ce4bhbh2rcd13ifvqepg","pricing_plan_id":"cebpf4jnsgd1na2vs0mg"},{"bike_id":"e251785f-f5c3-4c53-8775-a42949a1da18","system_id":"levelo_inurba_marseille","lat":43.284203,"lon":5.349929,"is_reserved":false,"is_disabled":false,"rental_uris":{"android":"levelo://app?vid=e251785f-f5c3-4c53-8775-a42949a1da18","ios":"levelo://app?vid=e251785f-f5c3-4c53-8775-a42949a1da18"},"vehicle_type_id":"4","last_reported":1715440011,"current_range_meters":29600,"station_id":"ce4bhbh2rcd13ifvqepg","pricing_plan_id":"cebpf4jnsgd1na2vs0mg"},{"bike_id":"c940c6ec-e2ad-4a78-a14c-30b702e674ca","system_id":"levelo_inurba_marseille","lat":43.28423,"lon":5.34983,"is_reserved":false,"is_disabled":false,"rental_uris":{"android":"levelo://app?vid=c940c6ec-e2ad-4a78-a14c-30b702e674ca","ios":"levelo://app?vid=c940c6ec-e2ad-4a78-a14c-30b702e674ca"},"vehicle_type_id":"4","last_reported":1715440011,"current_range_meters":19600,"station_id":"ce4bhbh2rcd13ifvqepg","pricing_plan_id":"cebpf4jnsgd1na2vs0mg"},{"bike_id":"fb21e6aa-7ace-41af-bdf7-25de0a05b7bf","system_id":"levelo_inurba_marseille","lat":43.2842,"lon":5.34987,"is_reserved":false,"is_disabled":false,"rental_uris":{"android":"levelo://app?vid=fb21e6aa-7ace-41af-bdf7-25de0a05b7bf","ios":"levelo://app?vid=fb21e6aa-7ace-41af-bdf7-25de0a05b7bf"},"vehicle_type_id":"4","last_reported":1715440011,"current_range_meters":22000,"station_id":"","pricing_plan_id":"cebpf4jnsgd1na2vs0mg"},{"bike_id":"dc7f55a0-feb9-4b08-88f1-3f103417dcf2","system_id":"levelo_inurba_marseille","lat":43.28419,"lon":5.3499,"is_reserved":false,"is_disabled":false,"rental_uris":{"android":"levelo://app?vid=dc7f55a0-feb9-4b08-88f1-3f103417dcf2","ios":"levelo://app?vid=dc7f55a0-feb9-4b08-88f1-3f103417dcf2"},"vehicle_type_id":"4","last_reported":1715440011,"current_range_meters":22000,"station_id":"ce4bhbh2rcd13ifvqepg","pricing_plan_id":"cebpf4jnsgd1na2vs0mg"},{"bike_id":"d8487e45-114e-42b5-a329-629898c8c04e","system_id":"levelo_inurba_marseille","lat":43.28419,"lon":5.34989,"is_reserved":false,"is_disabled":false,"rental_uris":{"android":"levelo://app?vid=d8487e45-114e-42b5-a329-629898c8c04e","ios":"levelo://app?vid=d8487e45-114e-42b5-a329-629898c8c04e"},"vehicle_type_id":"4","last_reported":1715440011,"current_range_meters":20400,"station_id":"ce4bhbh2rcd13ifvqepg","pricing_plan_id":"cebpf4jnsgd1na2vs0mg"},{"bike_id":"465fb229-37db-441b-b945-16711e9c8cf8","system_id":"levelo_inurba_marseille","lat":43.325383,"lon":5.406025,"is_reserved":false,"is_disabled":false,"rental_uris":{"android":"levelo://app?vid=465fb229-37db-441b-b945-16711e9c8cf8","ios":"levelo://app?vid=465fb229-37db-441b-b945-16711e9c8cf8"},"vehicle_type_id":"4","last_reported":1715440011,"current_range_meters":23600,"station_id":"","pricing_plan_id":"cebpf4jnsgd1na2vs0mg"},{"bike_id":"53f5f263-1053-40b9-8a75-6ff57ad53678","system_id":"levelo_inurba_marseille","lat":43.28419,"lon":5.34987,"is_reserved":false,"is_disabled":false,"rental_uris":{"android":"levelo://app?vid=53f5f263-1053-40b9-8a75-6ff57ad53678","ios":"levelo://app?vid=53f5f263-1053-40b9-8a75-6ff57ad53678"},"vehicle_type_id":"4","last_reported":1715440011,"current_range_meters":10800,"station_id":"ce4bhbh2rcd13ifvqepg","pricing_plan_id":"cebpf4jnsgd1na2vs0mg"},{"bike_id":"7a055989-6d6a-401f-a238-6000ccc581af","system_id":"levelo_inurba_marseille","lat":43.28419,"lon":5.34987,"is_reserved":false,"is_disabled":false,"rental_uris":{"android":"levelo://app?vid=7a055989-6d6a-401f-a238-6000ccc581af","ios":"levelo://app?vid=7a055989-6d6a-401f-a238-6000ccc581af"},"vehicle_type_id":"4","last_reported":1715440011,"current_range_meters":27600,"station_id":"ce4bhbh2rcd13ifvqepg","pricing_plan_id":"cebpf4jnsgd1na2vs0mg"},{"bike_id":"c7089460-6801-4120-9b56-91add87e01b5","system_id":"levelo_inurba_marseille","lat":43.28419,"lon":5.34986,"is_reserved":false,"is_disabled":false,"rental_uris":{"android":"levelo://app?vid=c7089460-6801-4120-9b56-91add87e01b5","ios":"levelo://app?vid=c7089460-6801-4120-9b56-91add87e01b5"},"vehicle_type_id":"4","last_reported":1715440011,"current_range_meters":30800,"station_id":"ce4bhbh2rcd13ifvqepg","pricing_plan_id":"cebpf4jnsgd1na2vs0mg"},{"bike_id":"7b67b7a7-43b0-4b6a-9e57-7dfc3df4dbef","system_id":"levelo_inurba_marseille","lat":43.28419,"lon":5.34986,"is_reserved":false,"is_disabled":false,"rental_uris":{"android":"levelo://app?vid=7b67b7a7-43b0-4b6a-9e57-7dfc3df4dbef","ios":"levelo://app?vid=7b67b7a7-43b0-4b6a-9e57-7dfc3df4dbef"},"vehicle_type_id":"4","last_reported":1715440011,"current_range_meters":6400,"station_id":"ce4bhbh2rcd13ifvqepg","pricing_plan_id":"cebpf4jnsgd1na2vs0mg"},{"bike_id":"ab81c99b-1393-4682-ba1c-02a5a1d9fe04","system_id":"levelo_inurba_marseille","lat":43.28417,"lon":5.34991,"is_reserved":false,"is_disabled":false,"rental_uris":{"android":"levelo://app?vid=ab81c99b-1393-4682-ba1c-02a5a1d9fe04","ios":"levelo://app?vid=ab81c99b-1393-4682-ba1c-02a5a1d9fe04"},"vehicle_type_id":"4","last_reported":1715440011,"current_range_meters":24000,"station_id":"ce4bhbh2rcd13ifvqepg","pricing_plan_id":"cebpf4jnsgd1na2vs0mg"},{"bike_id":"bb7150bf-cc32-4c86-8360-3090f1ddb6d6","system_id":"levelo_inurba_marseille","lat":43.28423,"lon":5.34972,"is_reserved":false,"is_disabled":false,"rental_uris":{"android":"levelo://app?vid=bb7150bf-cc32-4c86-8360-3090f1ddb6d6","ios":"levelo://app?vid=bb7150bf-cc32-4c86-8360-3090f1ddb6d6"},"vehicle_type_id":"4","last_reported":1715440011,"current_range_meters":14000,"station_id":"ce4bhbh2rcd13ifvqepg","pricing_plan_id":"cebpf4jnsgd1na2vs0mg"},{"bike_id":"fa0aa8ff-7b8e-421a-bf1e-e19e52543cbe","system_id":"levelo_inurba_marseille","lat":43.28417,"lon":5.3499,"is_reserved":false,"is_disabled":false,"rental_uris":{"android":"levelo://app?vid=fa0aa8ff-7b8e-421a-bf1e-e19e52543cbe","ios":"levelo://app?vid=fa0aa8ff-7b8e-421a-bf1e-e19e52543cbe"},"vehicle_type_id":"4","last_reported":1715440011,"current_range_meters":20000,"station_id":"ce4bhbh2rcd13ifvqepg","pricing_plan_id":"cebpf4jnsgd1na2vs0mg"},{"bike_id":"ffcb601b-8251-44a7-9eb8-facb0cbc0e58","system_id":"levelo_inurba_marseille","lat":43.28419,"lon":5.34981,"is_reserved":false,"is_disabled":false,"rental_uris":{"android":"levelo://app?vid=ffcb601b-8251-44a7-9eb8-facb0cbc0e58","ios":"levelo://app?vid=ffcb601b-8251-44a7-9eb8-facb0cbc0e58"},"vehicle_type_id":"4","last_reported":1715440011,"current_range_meters":12800,"station_id":"ce4bhbh2rcd13ifvqepg","pricing_plan_id":"cebpf4jnsgd1na2vs0mg"},{"bike_id":"a92c25b7-f87e-43dc-aeb3-67e06a1bec61","system_id":"levelo_inurba_marseille","lat":43.28416,"lon":5.3499,"is_reserved":false,"is_disabled":false,"rental_uris":{"android":"levelo://app?vid=a92c25b7-f87e-43dc-aeb3-67e06a1bec61","ios":"levelo://app?vid=a92c25b7-f87e-43dc-aeb3-67e06a1bec61"},"vehicle_type_id":"4","last_reported":1715440011,"current_range_meters":16000,"station_id":"ce4bhbh2rcd13ifvqepg","pricing_plan_id":"cebpf4jnsgd1na2vs0mg"},{"bike_id":"b99014ba-26ce-47bd-96e2-e7761148cf6d","system_id":"levelo_inurba_marseille","lat":43.28417,"lon":5.34985,"is_reserved":false,"is_disabled":false,"rental_uris":{"android":"levelo://app?vid=b99014ba-26ce-47bd-96e2-e7761148cf6d","ios":"levelo://app?vid=b99014ba-26ce-47bd-96e2-e7761148cf6d"},"vehicle_type_id":"4","last_reported":1715440011,"current_range_meters":24400,"station_id":"ce4bhbh2rcd13ifvqepg","pricing_plan_id":"cebpf4jnsgd1na2vs0mg"},{"bike_id":"3708399d-786d-4c45-b17d-531330b92c59","system_id":"levelo_inurba_marseille","lat":43.28416,"lon":5.34987,"is_reserved":false,"is_disabled":false,"rental_uris":{"android":"levelo://app?vid=3708399d-786d-4c45-b17d-531330b92c59","ios":"levelo://app?vid=3708399d-786d-4c45-b17d-531330b92c59"},"vehicle_type_id":"4","last_reported":1715440011,"current_range_meters":23200,"station_id":"ce4bhbh2rcd13ifvqepg","pricing_plan_id":"cebpf4jnsgd1na2vs0mg"},{"bike_id":"33f66575-e51b-486e-b67e-7ad7e2dc1a19","system_id":"levelo_inurba_marseille","lat":43.284214,"lon":5.349706,"is_reserved":false,"is_disabled":false,"rental_uris":{"android":"levelo://app?vid=33f66575-e51b-486e-b67e-7ad7e2dc1a19","ios":"levelo://app?vid=33f66575-e51b-486e-b67e-7ad7e2dc1a19"},"vehicle_type_id":"4","last_reported":1715440011,"current_range_meters":31200,"station_id":"ce4bhbh2rcd13ifvqepg","pricing_plan_id":"cebpf4jnsgd1na2vs0mg"},{"bike_id":"da7e215d-ec72-4156-85b4-11eae1bdeac3","system_id":"levelo_inurba_marseille","lat":43.284162,"lon":5.349862,"is_reserved":false,"is_disabled":false,"rental_uris":{"android":"levelo://app?vid=da7e215d-ec72-4156-85b4-11eae1bdeac3","ios":"levelo://app?vid=da7e215d-ec72-4156-85b4-11eae1bdeac3"},"vehicle_type_id":"4","last_reported":1715440011,"current_range_meters":25600,"station_id":"ce4bhbh2rcd13ifvqepg","pricing_plan_id":"cebpf4jnsgd1na2vs0mg"},{"bike_id":"aafeb596-4fbb-4a35-acb6-70aa4d3b1713","system_id":"levelo_inurba_marseille","lat":43.28418,"lon":5.3498,"is_reserved":false,"is_disabled":false,"rental_uris":{"android":"levelo://app?vid=aafeb596-4fbb-4a35-acb6-70aa4d3b1713","ios":"levelo://app?vid=aafeb596-4fbb-4a35-acb6-70aa4d3b1713"},"vehicle_type_id":"4","last_reported":1715440011,"current_range_meters":22400,"station_id":"ce4bhbh2rcd13ifvqepg","pricing_plan_id":"cebpf4jnsgd1na2vs0mg"},{"bike_id":"5b379034-9c1f-490b-a030-27980cb2361c","system_id":"levelo_inurba_marseille","lat":43.28414,"lon":5.34992,"is_reserved":false,"is_disabled":false,"rental_uris":{"android":"levelo://app?vid=5b379034-9c1f-490b-a030-27980cb2361c","ios":"levelo://app?vid=5b379034-9c1f-490b-a030-27980cb2361c"},"vehicle_type_id":"4","last_reported":1715440011,"current_range_meters":14800,"station_id":"ce4bhbh2rcd13ifvqepg","pricing_plan_id":"cebpf4jnsgd1na2vs0mg"},{"bike_id":"6abdb77f-6a48-4191-9ae1-ea2ed2eed9f1","system_id":"levelo_inurba_marseille","lat":43.28413,"lon":5.34995,"is_reserved":false,"is_disabled":false,"rental_uris":{"android":"levelo://app?vid=6abdb77f-6a48-4191-9ae1-ea2ed2eed9f1","ios":"levelo://app?vid=6abdb77f-6a48-4191-9ae1-ea2ed2eed9f1"},"vehicle_type_id":"4","last_reported":1715440011,"current_range_meters":5200,"station_id":"ce4bhbh2rcd13ifvqepg","pricing_plan_id":"cebpf4jnsgd1na2vs0mg"},{"bike_id":"09bcaa1a-cbc7-4af4-bd71-5a609eb1b00b","system_id":"levelo_inurba_marseille","lat":43.28413,"lon":5.34993,"is_reserved":false,"is_disabled":false,"rental_uris":{"android":"levelo://app?vid=09bcaa1a-cbc7-4af4-bd71-5a609eb1b00b","ios":"levelo://app?vid=09bcaa1a-cbc7-4af4-bd71-5a609eb1b00b"},"vehicle_type_id":"4","last_reported":1715440011,"current_range_meters":22800,"station_id":"ce4bhbh2rcd13ifvqepg","pricing_plan_id":"cebpf4jnsgd1na2vs0mg"},{"bike_id":"1bd843c2-171a-409b-8f59-c2dde4bacbf2","system_id":"levelo_inurba_marseille","lat":43.28412,"lon":5.34994,"is_reserved":false,"is_disabled":false,"rental_uris":{"android":"levelo://app?vid=1bd843c2-171a-409b-8f59-c2dde4bacbf2","ios":"levelo://app?vid=1bd843c2-171a-409b-8f59-c2dde4bacbf2"},"vehicle_type_id":"4","last_reported":1715440011,"current_range_meters":18400,"station_id":"ce4bhbh2rcd13ifvqepg","pricing_plan_id":"cebpf4jnsgd1na2vs0mg"},{"bike_id":"1ac76a2f-2dc8-4e76-8a73-637783ffbb03","system_id":"levelo_inurba_marseille","lat":43.28414,"lon":5.34985,"is_reserved":false,"is_disabled":false,"rental_uris":{"android":"levelo://app?vid=1ac76a2f-2dc8-4e76-8a73-637783ffbb03","ios":"levelo://app?vid=1ac76a2f-2dc8-4e76-8a73-637783ffbb03"},"vehicle_type_id":"4","last_reported":1715440011,"current_range_meters":8400,"station_id":"ce4bhbh2rcd13ifvqepg","pricing_plan_id":"cebpf4jnsgd1na2vs0mg"},{"bike_id":"f930b784-378c-48f8-85d7-3987d2d5d1a0","system_id":"levelo_inurba_marseille","lat":43.28419,"lon":5.34969,"is_reserved":false,"is_disabled":false,"rental_uris":{"android":"levelo://app?vid=f930b784-378c-48f8-85d7-3987d2d5d1a0","ios":"levelo://app?vid=f930b784-378c-48f8-85d7-3987d2d5d1a0"},"vehicle_type_id":"4","last_reported":1715440011,"current_range_meters":18800,"station_id":"ce4bhbh2rcd13ifvqepg","pricing_plan_id":"cebpf4jnsgd1na2vs0mg"},{"bike_id":"4190a5a5-12b1-445f-a100-961828ce9560","system_id":"levelo_inurba_marseille","lat":43.28416,"lon":5.34978,"is_reserved":false,"is_disabled":false,"rental_uris":{"android":"levelo://app?vid=4190a5a5-12b1-445f-a100-961828ce9560","ios":"levelo://app?vid=4190a5a5-12b1-445f-a100-961828ce9560"},"vehicle_type_id":"4","last_reported":1715440011,"current_range_meters":1600,"station_id":"ce4bhbh2rcd13ifvqepg","pricing_plan_id":"cebpf4jnsgd1na2vs0mg"},{"bike_id":"dc7f8a3d-743d-49be-ac84-aab7badd3650","system_id":"levelo_inurba_marseille","lat":43.28413,"lon":5.34987,"is_reserved":false,"is_disabled":false,"rental_uris":{"android":"levelo://app?vid=dc7f8a3d-743d-49be-ac84-aab7badd3650","ios":"levelo://app?vid=dc7f8a3d-743d-49be-ac84-aab7badd3650"},"vehicle_type_id":"4","last_reported":1715440011,"current_range_meters":29200,"station_id":"ce4bhbh2rcd13ifvqepg","pricing_plan_id":"cebpf4jnsgd1na2vs0mg"},{"bike_id":"1170b0cb-4b18-4866-8b46-72bec3fa5f0e","system_id":"levelo_inurba_marseille","lat":43.28417,"lon":5.34974,"is_reserved":false,"is_disabled":false,"rental_uris":{"android":"levelo://app?vid=1170b0cb-4b18-4866-8b46-72bec3fa5f0e","ios":"levelo://app?vid=1170b0cb-4b18-4866-8b46-72bec3fa5f0e"},"vehicle_type_id":"4","last_reported":1715440011,"current_range_meters":2400,"station_id":"ce4bhbh2rcd13ifvqepg","pricing_plan_id":"cebpf4jnsgd1na2vs0mg"},{"bike_id":"ce71b9cd-5d69-4913-ac4f-1ca6df5cedca","system_id":"levelo_inurba_marseille","lat":43.284217,"lon":5.349697,"is_reserved":false,"is_disabled":false,"rental_uris":{"android":"levelo://app?vid=ce71b9cd-5d69-4913-ac4f-1ca6df5cedca","ios":"levelo://app?vid=ce71b9cd-5d69-4913-ac4f-1ca6df5cedca"},"vehicle_type_id":"4","last_reported":1715440011,"current_range_meters":30800,"station_id":"ce4bhbh2rcd13ifvqepg","pricing_plan_id":"cebpf4jnsgd1na2vs0mg"},{"bike_id":"4227311d-2d1b-461a-9d4d-3bd4f31d4177","system_id":"levelo_inurba_marseille","lat":43.28417,"lon":5.34971,"is_reserved":false,"is_disabled":false,"rental_uris":{"android":"levelo://app?vid=4227311d-2d1b-461a-9d4d-3bd4f31d4177","ios":"levelo://app?vid=4227311d-2d1b-461a-9d4d-3bd4f31d4177"},"vehicle_type_id":"4","last_reported":1715440011,"current_range_meters":14400,"station_id":"ce4bhbh2rcd13ifvqepg","pricing_plan_id":"cebpf4jnsgd1na2vs0mg"},{"bike_id":"f2b094f9-e0d2-4509-8172-8aca75fe8ae3","system_id":"levelo_inurba_marseille","lat":43.28414,"lon":5.34979,"is_reserved":false,"is_disabled":false,"rental_uris":{"android":"levelo://app?vid=f2b094f9-e0d2-4509-8172-8aca75fe8ae3","ios":"levelo://app?vid=f2b094f9-e0d2-4509-8172-8aca75fe8ae3"},"vehicle_type_id":"4","last_reported":1715440011,"current_range_meters":24000,"station_id":"ce4bhbh2rcd13ifvqepg","pricing_plan_id":"cebpf4jnsgd1na2vs0mg"},{"bike_id":"a9a54c28-8e23-44da-bc26-e3b5478f07c0","system_id":"levelo_inurba_marseille","lat":43.28413,"lon":5.34982,"is_reserved":false,"is_disabled":false,"rental_uris":{"android":"levelo://app?vid=a9a54c28-8e23-44da-bc26-e3b5478f07c0","ios":"levelo://app?vid=a9a54c28-8e23-44da-bc26-e3b5478f07c0"},"vehicle_type_id":"4","last_reported":1715440011,"current_range_meters":6800,"station_id":"ce4bhbh2rcd13ifvqepg","pricing_plan_id":"cebpf4jnsgd1na2vs0mg"},