{"last_updated":1687446559,"ttl":30,"version":"2.2","data":{"bikes":[{"bike_id":"fe7b337c-52cd-4734-a5c9-68e277c0ad43","system_id":"levelo_inurba_marseille","lat":43.31341,"lon":5.367098,"is_reserved":false,"is_disabled":false,"rental_uris":{"android":"levelo://app?vid=fe7b337c-52cd-4734-a5c9-68e277c0ad43","ios":"levelo://app?vid=fe7b337c-52cd-4734-a5c9-68e277c0ad43"},"vehicle_type_id":"4","last_reported":1687446560,"current_range_meters":28000,"station_id":"ce4bgr92rcd13ifvqc6g","pricing_plan_id":"free"},{"bike_id":"6e4fd040-1866-4783-872c-dd21a7ae18af","system_id":"levelo_inurba_marseille","lat":43.31358,"lon":5.37067,"is_reserved":false,"is_disabled":false,"rental_uris":{"android":"levelo://app?vid=6e4fd040-1866-4783-872c-dd21a7ae18af","ios":"levelo://app?vid=6e4fd040-1866-4783-872c-dd21a7ae18af"},"vehicle_type_id":"4","last_reported":1687446560,"current_range_meters":4800,"station_id":"","pricing_plan_id":"free"},{"bike_id":"fcafc66d-da8f-4462-b0f1-56b7016d5b26","system_id":"levelo_inurba_marseille","lat":43.314811,"lon":5.373104,"is_reserved":false,"is_disabled":false,"rental_uris":{"android":"levelo://app?vid=fcafc66d-da8f-4462-b0f1-56b7016d5b26","ios":"levelo://app?vid=fcafc66d-da8f-4462-b0f1-56b7016d5b26"},"vehicle_type_id":"4","last_reported":1687446560,"current_range_meters":12000,"station_id":"ce4bgt12rcd13ifvqcd0","pricing_plan_id":"free"},{"bike_id":"f8eb131f-dfee-4a33-99c1-9a70c3ba3c12","system_id":"levelo_inurba_marseille","lat":43.305368,"lon":5.367343,"is_reserved":false,"is_disabled":false,"rental_uris":{"android":"levelo://app?vid=f8eb131f-dfee-4a33-99c1-9a70c3ba3c12","ios":"levelo://app?vid=f8eb131f-dfee-4a33-99c1-9a70c3ba3c12"},"vehicle_type_id":"4","last_reported":1687446560,"current_range_meters":5200,"station_id":"ce4bgrp2rcd13ifvqc9g","pricing_plan_id":"free"},{"bike_id":"93b65680-3de2-48e3-8247-9040bdd53a52","system_id":"levelo_inurba_marseille","lat":43.305706,"lon":5.365654,"is_reserved":false,"is_disabled":false,"rental_uris":{"android":"levelo://app?vid=93b65680-3de2-48e3-8247-9040bdd53a52","ios":"levelo://app?vid=93b65680-3de2-48e3-8247-9040bdd53a52"},"vehicle_type_id":"4","last_reported":1687446560,"current_range_meters":0,"station_id":"ce4bgs12rcd13ifvqcag","pricing_plan_id":"free"},{"bike_id":"8fcb220d-474f-46f4-b72a-68e1492bd67f","system_id":"levelo_inurba_marseille","lat":43.305706,"lon":5.365654,"is_reserved":false,"is_disabled":false,"rental_uris":{"android":"levelo://app?vid=8fcb220d-474f-46f4-b72a-68e1492bd67f","ios":"levelo://app?vid=8fcb220d-474f-46f4-b72a-68e1492bd67f"},"vehicle_type_id":"4","last_reported":1687446560,"current_range_meters":20000,"station_id":"ce4bgs12rcd13ifvqcag","pricing_plan_id":"free"},{"bike_id":"ff2f4489-0aa8-47b5-8ce2-920f0f92f413","system_id":"levelo_inurba_marseille","lat":43.311131,"lon":5.377651,"is_reserved":false,"is_disabled":false,"rental_uris":{"android":"levelo://app?vid=ff2f4489-0aa8-47b5-8ce2-920f0f92f413","ios":"levelo://app?vid=ff2f4489-0aa8-47b5-8ce2-920f0f92f413"},"vehicle_type_id":"4","last_reported":1687446560,"current_range_meters":21200,"station_id":"ce4bgt92rcd13ifvqcg0","pricing_plan_id":"free"},{"bike_id":"7f82168c-0a26-4877-b5bb-cbbe88a3c954","system_id":"levelo_inurba_marseille","lat":43.311131,"lon":5.377651,"is_reserved":false,"is_disabled":false,"rental_uris":{"android":"levelo://app?vid=7f82168c-0a26-4877-b5bb-cbbe88a3c954","ios":"levelo://app?vid=7f82168c-0a26-4877-b5bb-cbbe88a3c954"},"vehicle_type_id":"4","last_reported":1687446560,"current_range_meters":24400,"station_id":"ce4bgt92rcd13ifvqcg0","pricing_plan_id":"free"},{"bike_id":"fa4cc3fa-333d-418b-a449-95a701eb6fea","system_id":"levelo_inurba_marseille","lat":43.30769,"lon":5.37676,"is_reserved":false,"is_disabled":false,"rental_uris":{"android":"levelo://app?vid=fa4cc3fa-333d-418b-a449-95a701eb6fea","ios":"levelo://app?vid=fa4cc3fa-333d-418b-a449-95a701eb6fea"},"vehicle_type_id":"4","last_reported":1687446560,"current_range_meters":8800,"station_id":"","pricing_plan_id":"free"},{"bike_id":"4f4c7b51-1158-4ea2-bff7-758c50c3c56a","system_id":"levelo_inurba_marseille","lat":43.31713,"lon":5.37748,"is_reserved":false,"is_disabled":false,"rental_uris":{"android":"levelo://app?vid=4f4c7b51-1158-4ea2-bff7-758c50c3c56a","ios":"levelo://app?vid=4f4c7b51-1158-4ea2-bff7-758c50c3c56a"},"vehicle_type_id":"4","last_reported":1687446560,"current_range_meters":29200,"station_id":"ce4bgth2rcd13ifvqch0","pricing_plan_id":"free"},{"bike_id":"426257a8-352e-4f3c-a45b-237d09fdc3ba","system_id":"levelo_inurba_marseille","lat":43.301939,"lon":5.366286,"is_reserved":false,"is_disabled":false,"rental_uris":{"android":"levelo://app?vid=426257a8-352e-4f3c-a45b-237d09fdc3ba","ios":"levelo://app?vid=426257a8-352e-4f3c-a45b-237d09fdc3ba"},"vehicle_type_id":"4","last_reported":1687446560,"current_range_meters":21600,"station_id":"ce4bgrh2rcd13ifvqc8g","pricing_plan_id":"free"},{"bike_id":"c98c824a-5a21-41d7-a2b3-cfad705b7985","system_id":"levelo_inurba_marseille","lat":43.292642,"lon":5.384254,"is_reserved":false,"is_disabled":false,"rental_uris":{"android":"levelo://app?vid=c98c824a-5a21-41d7-a2b3-cfad705b7985","ios":"levelo://app?vid=c98c824a-5a21-41d7-a2b3-cfad705b7985"},"vehicle_type_id":"4","last_reported":1687446560,"current_range_meters":2000,"station_id":"ce4bh692rcd13ifvqea0","pricing_plan_id":"free"},{"bike_id":"92651ccb-05b5-424f-8034-1d7168b9452d","system_id":"levelo_inurba_marseille","lat":43.308012,"lon":5.381511,"is_reserved":false,"is_disabled":false,"rental_uris":{"android":"levelo://app?vid=92651ccb-05b5-424f-8034-1d7168b9452d","ios":"levelo://app?vid=92651ccb-05b5-424f-8034-1d7168b9452d"},"vehicle_type_id":"4","last_reported":1687446560,"current_range_meters":0,"station_id":"ce4bgt12rcd13ifvqce0","pricing_plan_id":"free"},{"bike_id":"fdab6931-be83-4922-8350-1082b4ab1cef","system_id":"levelo_inurba_marseille","lat":43.308012,"lon":5.381511,"is_reserved":false,"is_disabled":false,"rental_uris":{"android":"levelo://app?vid=fdab6931-be83-4922-8350-1082b4ab1cef","ios":"levelo://app?vid=fdab6931-be83-4922-8350-1082b4ab1cef"},"vehicle_type_id":"4","last_reported":1687446560,"current_range_meters":6000,"station_id":"ce4bgt12rcd13ifvqce0","pricing_plan_id":"free"},{"bike_id":"43fc693e-f2a9-4aec-8fd9-d094bb02cb70","system_id":"levelo_inurba_marseille","lat":43.304606,"lon":5.379026,"is_reserved":false,"is_disabled":false,"rental_uris":{"android":"levelo://app?vid=43fc693e-f2a9-4aec-8fd9-d094bb02cb70","ios":"levelo://app?vid=43fc693e-f2a9-4aec-8fd9-d094bb02cb70"},"vehicle_type_id":"4","last_reported":1687446560,"current_range_meters":1600,"station_id":"ce4bgup2rcd13ifvqcn0","pricing_plan_id":"free"},{"bike_id":"3e0b08ed-93a7-4601-9463-d6ed1c32eec6","system_id":"levelo_inurba_marseille","lat":43.308012,"lon":5.381511,"is_reserved":false,"is_disabled":false,"rental_uris":{"android":"levelo://app?vid=3e0b08ed-93a7-4601-9463-d6ed1c32eec6","ios":"levelo://app?vid=3e0b08ed-93a7-4601-9463-d6ed1c32eec6"},"vehicle_type_id":"4","last_reported":1687446560,"current_range_meters":30400,"station_id":"ce4bgt12rcd13ifvqce0","pricing_plan_id":"free"},{"bike_id":"4a86f5c3-d260-483f-a9cb-acd8b5a914a4","system_id":"levelo_inurba_marseille","lat":43.298433,"lon":5.362774,"is_reserved":false,"is_disabled":false,"rental_uris":{"android":"levelo://app?vid=4a86f5c3-d260-483f-a9cb-acd8b5a914a4","ios":"levelo://app?vid=4a86f5c3-d260-483f-a9cb-acd8b5a914a4"},"vehicle_type_id":"4","last_reported":1687446560,"current_range_meters":13600,"station_id":"ce4bgpp2rcd13ifvqc3g","pricing_plan_id":"free"},{"bike_id":"ad5db808-b6d7-4d9e-a553-e75bee40b39e","system_id":"levelo_inurba_marseille","lat":43.319935,"lon":5.381699,"is_reserved":false,"is_disabled":false,"rental_uris":{"android":"levelo://app?vid=ad5db808-b6d7-4d9e-a553-e75bee40b39e","ios":"levelo://app?vid=ad5db808-b6d7-4d9e-a553-e75bee40b39e"},"vehicle_type_id":"4","last_reported":1687446560,"current_range_meters":6800,"station_id":"ce4bhr12rcd13ifvqhpg","pricing_plan_id":"free"},{"bike_id":"c175a2e9-a4f1-468a-8291-0f6842b4b326","system_id":"levelo_inurba_marseille","lat":43.319935,"lon":5.381699,"is_reserved":false,"is_disabled":false,"rental_uris":{"android":"levelo://app?vid=c175a2e9-a4f1-468a-8291-0f6842b4b326","ios":"levelo://app?vid=c175a2e9-a4f1-468a-8291-0f6842b4b326"},"vehicle_type_id":"4","last_reported":1687446560,"current_range_meters":17200,"station_id":"ce4bhr12rcd13ifvqhpg","pricing_plan_id":"free"},{"bike_id":"3240ca38-13b4-40f3-9891-e0cec12987a1","system_id":"levelo_inurba_marseille","lat":43.32004,"lon":5.38166,"is_reserved":false,"is_disabled":false,"rental_uris":{"android":"levelo://app?vid=3240ca38-13b4-40f3-9891-e0cec12987a1","ios":"levelo://app?vid=3240ca38-13b4-40f3-9891-e0cec12987a1"},"vehicle_type_id":"4","last_reported":1687446560,"current_range_meters":11200,"station_id":"ce4bhr12rcd13ifvqhpg","pricing_plan_id":"free"},{"bike_id":"8e5ad890-a728-487a-b24f-bcb84a7c3d08","system_id":"levelo_inurba_marseille","lat":43.299222,"lon":5.365554,"is_reserved":false,"is_disabled":false,"rental_uris":{"android":"levelo://app?vid=8e5ad890-a728-487a-b24f-bcb84a7c3d08","ios":"levelo://app?vid=8e5ad890-a728-487a-b24f-bcb84a7c3d08"},"vehicle_type_id":"4","last_reported":1687446560,"current_range_meters":29200,"station_id":"ce4bgm92rcd13ifvqbr0","pricing_plan_id":"free"},{"bike_id":"cc7ccaed-aeac-4fb6-a249-e3eec1cb8751","system_id":"levelo_inurba_marseille","lat":43.32281,"lon":5.3795,"is_reserved":false,"is_disabled":false,"rental_uris":{"android":"levelo://app?vid=cc7ccaed-aeac-4fb6-a249-e3eec1cb8751","ios":"levelo://app?vid=cc7ccaed-aeac-4fb6-a249-e3eec1cb8751"},"vehicle_type_id":"4","last_reported":1687446560,"current_range_meters":30400,"station_id":"","pricing_plan_id":"free"},{"bike_id":"191c4112-bf87-459e-8458-9e9c4acf2005","system_id":"levelo_inurba_marseille","lat":43.298433,"lon":5.362774,"is_reserved":false,"is_disabled":false,"rental_uris":{"android":"levelo://app?vid=191c4112-bf87-459e-8458-9e9c4acf2005","ios":"levelo://app?vid=191c4112-bf87-459e-8458-9e9c4acf2005"},"vehicle_type_id":"4","last_reported":1687446560,"current_range_meters":27600,"station_id":"ce4bgpp2rcd13ifvqc3g","pricing_plan_id":"free"},{"bike_id":"0b54c8fb-c547-4c7f-8f76-595726babf22","system_id":"levelo_inurba_marseille","lat":43.298433,"lon":5.362774,"is_reserved":false,"is_disabled":false,"rental_uris":{"android":"levelo://app?vid=0b54c8fb-c547-4c7f-8f76-595726babf22","ios":"levelo://app?vid=0b54c8fb-c547-4c7f-8f76-595726babf22"},"vehicle_type_id":"4","last_reported":1687446560,"current_range_meters":0,"station_id":"ce4bgpp2rcd13ifvqc3g","pricing_plan_id":"free"},{"bike_id":"91f4b555-9597-4ba9-a29c-7e4d31552c57","system_id":"levelo_inurba_marseille","lat":43.298433,"lon":5.362774,"is_reserved":false,"is_disabled":false,"rental_uris":{"android":"levelo://app?vid=91f4b555-9597-4ba9-a29c-7e4d31552c57","ios":"levelo://app?vid=91f4b555-9597-4ba9-a29c-7e4d31552c57"},"vehicle_type_id":"4","last_reported":1687446560,"current_range_meters":12800,"station_id":"ce4bgpp2rcd13ifvqc3g","pricing_plan_id":"free"},{"bike_id":"e6ea61d5-da20-4ad2-b344-94c2975133fa","system_id":"levelo_inurba_marseille","lat":43.32274,"lon":5.38177,"is_reserved":false,"is_disabled":false,"rental_uris":{"android":"levelo://app?vid=e6ea61d5-da20-4ad2-b344-94c2975133fa","ios":"levelo://app?vid=e6ea61d5-da20-4ad2-b344-94c2975133fa"},"vehicle_type_id":"4","last_reported":1687446560,"current_range_meters":800,"station_id":"","pricing_plan_id":"free"},{"bike_id":"5e4c4fa2-882c-4c1b-9b83-6fcde89bbec4","system_id":"levelo_inurba_marseille","lat":43.299243,"lon":5.37481,"is_reserved":false,"is_disabled":false,"rental_uris":{"android":"levelo://app?vid=5e4c4fa2-882c-4c1b-9b83-6fcde89bbec4","ios":"levelo://app?vid=5e4c4fa2-882c-4c1b-9b83-6fcde89bbec4"},"vehicle_type_id":"4","last_reported":1687446560,"current_range_meters":400,"station_id":"ce4bgjh2rcd13ifvqbg0","pricing_plan_id":"free"},{"bike_id":"ea372316-1322-4cab-adc8-27d2521d039c","system_id":"levelo_inurba_marseille","lat":43.32767,"lon":5.36702,"is_reserved":false,"is_disabled":false,"rental_uris":{"android":"levelo://app?vid=ea372316-1322-4cab-adc8-27d2521d039c","ios":"levelo://app?vid=ea372316-1322-4cab-adc8-27d2521d039c"},"vehicle_type_id":"4","last_reported":1687446560,"current_range_meters":21600,"station_id":"","pricing_plan_id":"free"},{"bike_id":"c3339efb-c603-45cb-8da9-01d5c529aca8","system_id":"levelo_inurba_marseille","lat":43.32338,"lon":5.38172,"is_reserved":false,"is_disabled":false,"rental_uris":{"android":"levelo://app?vid=c3339efb-c603-45cb-8da9-01d5c529aca8","ios":"levelo://app?vid=c3339efb-c603-45cb-8da9-01d5c529aca8"},"vehicle_type_id":"4","last_reported":1687446560,"current_range_meters":14800,"station_id":"","pricing_plan_id":"free"},{"bike_id":"d4c51306-0fdb-447a-b4a4-ef4d6f32bbb2","system_id":"levelo_inurba_marseille","lat":43.297774,"lon":5.370875,"is_reserved":false,"is_disabled":false,"rental_uris":{"android":"levelo://app?vid=d4c51306-0fdb-447a-b4a4-ef4d6f32bbb2","ios":"levelo://app?vid=d4c51306-0fdb-447a-b4a4-ef4d6f32bbb2"},"vehicle_type_id":"4","last_reported":1687446560,"current_range_meters":19200,"station_id":"ce4bgop2rcd13ifvqc1g","pricing_plan_id":"free"},{"bike_id":"10ff8e86-a543-4e23-84e1-2c1f105f10e2","system_id":"levelo_inurba_marseille","lat":43.297774,"lon":5.370875,"is_reserved":false,"is_disabled":false,"rental_uris":{"android":"levelo://app?vid=10ff8e86-a543-4e23-84e1-2c1f105f10e2","ios":"levelo://app?vid=10ff8e86-a543-4e23-84e1-2c1f105f10e2"},"vehicle_type_id":"4","last_reported":1687446560,"current_range_meters":31200,"station_id":"ce4bgop2rcd13ifvqc1g","pricing_plan_id":"free"},{"bike_id":"89e27a70-6bae-4e1c-ae02-5f755f1e8443","system_id":"levelo_inurba_marseille","lat":43.297774,"lon":5.370875,"is_reserved":false,"is_disabled":false,"rental_uris":{"android":"levelo://app?vid=89e27a70-6bae-4e1c-ae02-5f755f1e8443","ios":"levelo://app?vid=89e27a70-6bae-4e1c-ae02-5f755f1e8443"},"vehicle_type_id":"4","last_reported":1687446560,"current_range_meters":0,"station_id":"ce4bgop2rcd13ifvqc1g","pricing_plan_id":"free"},{"bike_id":"2ba7ba8b-c721-4ca6-a631-4a07b5e691fa","system_id":"levelo_inurba_marseille","lat":43.3282,"lon":5.3669,"is_reserved":false,"is_disabled":false,"rental_uris":{"android":"levelo://app?vid=2ba7ba8b-c721-4ca6-a631-4a07b5e691fa","ios":"levelo://app?vid=2ba7ba8b-c721-4ca6-a631-4a07b5e691fa"},"vehicle_type_id":"4","last_reported":1687446560,"current_range_meters":23600,"station_id":"ce4bhs92rcd13ifvqi0g","pricing_plan_id":"free"},{"bike_id":"8850331c-2ad3-4b0c-b826-d616fe110df7","system_id":"levelo_inurba_marseille","lat":43.29758,"lon":5.37114,"is_reserved":false,"is_disabled":false,"rental_uris":{"android":"levelo://app?vid=8850331c-2ad3-4b0c-b826-d616fe110df7","ios":"levelo://app?vid=8850331c-2ad3-4b0c-b826-d616fe110df7"},"vehicle_type_id":"4","last_reported":1687446560,"current_range_meters":20400,"station_id":"","pricing_plan_id":"free"},{"bike_id":"0e448aa2-df21-4863-8116-1260bcdfe0fe","system_id":"levelo_inurba_marseille","lat":43.297163,"lon":5.365866,"is_reserved":false,"is_disabled":false,"rental_uris":{"android":"levelo://app?vid=0e448aa2-df21-4863-8116-1260bcdfe0fe","ios":"levelo://app?vid=0e448aa2-df21-4863-8116-1260bcdfe0fe"},"vehicle_type_id":"4","last_reported":1687446560,"current_range_meters":20400,"station_id":"ce4bgn12rcd13ifvqbt0","pricing_plan_id":"free"},{"bike_id":"d6aa4b8f-0fbd-492f-a726-f1b64033634e","system_id":"levelo_inurba_marseille","lat":43.29704,"lon":5.36416,"is_reserved":false,"is_disabled":false,"rental_uris":{"android":"levelo://app?vid=d6aa4b8f-0fbd-492f-a726-f1b64033634e","ios":"levelo://app?vid=d6aa4b8f-0fbd-492f-a726-f1b64033634e"},"vehicle_type_id":"4","last_reported":1687446560,"current_range_meters":14800,"station_id":"","pricing_plan_id":"free"},{"bike_id":"0bd2abfa-fca2-4c6b-9fae-0e534bcf5cd5","system_id":"levelo_inurba_marseille","lat":43.29683,"lon":5.37285,"is_reserved":false,"is_disabled":false,"rental_uris":{"android":"levelo://app?vid=0bd2abfa-fca2-4c6b-9fae-0e534bcf5cd5","ios":"levelo://app?vid=0bd2abfa-fca2-4c6b-9fae-0e534bcf5cd5"},"vehicle_type_id":"4","last_reported":1687446560,"current_range_meters":27200,"station_id":"ce4bgk12rcd13ifvqbj0","pricing_plan_id":"free"},{"bike_id":"49a2eba2-01d2-4bc9-b762-fbf7e8d80873","system_id":"levelo_inurba_marseille","lat":43.2968,"lon":5.37291,"is_reserved":false,"is_disabled":false,"rental_uris":{"android":"levelo://app?vid=49a2eba2-01d2-4bc9-b762-fbf7e8d80873","ios":"levelo://app?vid=49a2eba2-01d2-4bc9-b762-fbf7e8d80873"},"vehicle_type_id":"4","last_reported":1687446560,"current_range_meters":0,"station_id":"ce4bgk12rcd13ifvqbj0","pricing_plan_id":"free"},{"bike_id":"73b044e0-2562-4aff-b397-34e96161f751","system_id":"levelo_inurba_marseille","lat":43.29573,"lon":5.367355,"is_reserved":false,"is_disabled":false,"rental_uris":{"android":"levelo://app?vid=73b044e0-2562-4aff-b397-34e96161f751","ios":"levelo://app?vid=73b044e0-2562-4aff-b397-34e96161f751"},"vehicle_type_id":"4","last_reported":1687446560,"current_range_meters":0,"station_id":"ce4bgph2rcd13ifvqc2g","pricing_plan_id":"free"},{"bike_id":"041bc147-ef2f-419b-bb81-deca3bdf89e2","system_id":"levelo_inurba_marseille","lat":43.29611,"lon":5.36046,"is_reserved":false,"is_disabled":false,"rental_uris":{"android":"levelo://app?vid=041bc147-ef2f-419b-bb81-deca3bdf89e2","ios":"levelo://app?vid=041bc147-ef2f-419b-bb81-deca3bdf89e2"},"vehicle_type_id":"4","last_reported":1687446560,"current_range_meters":14000,"station_id":"","pricing_plan_id":"free"},{"bike_id":"ebf5df7c-1f00-45a4-9f02-f9044047b9f3","system_id":"levelo_inurba_marseille","lat":43.309589,"lon":5.390258,"is_reserved":false,"is_disabled":false,"rental_uris":{"android":"levelo://app?vid=ebf5df7c-1f00-45a4-9f02-f9044047b9f3","ios":"levelo://app?vid=ebf5df7c-1f00-45a4-9f02-f9044047b9f3"},"vehicle_type_id":"4","last_reported":1687446560,"current_range_meters":4800,"station_id":"ce4bgup2rcd13ifvqco0","pricing_plan_id":"free"},{"bike_id":"945456a1-3df1-4f7a-ac6c-616d1ae2fb1c","system_id":"levelo_inurba_marseille","lat":43.317557,"lon":5.390173,"is_reserved":false,"is_disabled":false,"rental_uris":{"android":"levelo://app?vid=945456a1-3df1-4f7a-ac6c-616d1ae2fb1c","ios":"levelo://app?vid=945456a1-3df1-4f7a-ac6c-616d1ae2fb1c"},"vehicle_type_id":"4","last_reported":1687446560,"current_range_meters":6800,"station_id":"ce4bhqp2rcd13ifvqhng","pricing_plan_id":"free"},{"bike_id":"f078e703-6dc3-4161-bcf0-352f8f3c3407","system_id":"levelo_inurba_marseille","lat":43.295684,"lon":5.375066,"is_reserved":false,"is_disabled":false,"rental_uris":{"android":"levelo://app?vid=f078e703-6dc3-4161-bcf0-352f8f3c3407","ios":"levelo://app?vid=f078e703-6dc3-4161-bcf0-352f8f3c3407"},"vehicle_type_id":"4","last_reported":1687446560,"current_range_meters":1200,"station_id":"","pricing_plan_id":"free"},{"bike_id":"9cd41769-5218-4059-8351-3e3f0d1e37cb","system_id":"levelo_inurba_marseille","lat":43.304278,"lon":5.388868,"is_reserved":false,"is_disabled":false,"rental_uris":{"android":"levelo://app?vid=9cd41769-5218-4059-8351-3e3f0d1e37cb","ios":"levelo://app?vid=9cd41769-5218-4059-8351-3e3f0d1e37cb"},"vehicle_type_id":"4","last_reported":1687446560,"current_range_meters":17600,"station_id":"ce4bgk12rcd13ifvqbi0","pricing_plan_id":"free"},{"bike_id":"df2d6f6f-f975-42de-968d-0734b99ae774","system_id":"levelo_inurba_marseille","lat":43.304274,"lon":5.388873,"is_reserved":false,"is_disabled":false,"rental_uris":{"android":"levelo://app?vid=df2d6f6f-f975-42de-968d-0734b99ae774","ios":"levelo://app?vid=df2d6f6f-f975-42de-968d-0734b99ae774"},"vehicle_type_id":"4","last_reported":1687446560,"current_range_meters":1600,"station_id":"ce4bgk12rcd13ifvqbi0","pricing_plan_id":"free"},{"bike_id":"11bfd3fe-e149-45d7-8fab-b36fe62e4e06","system_id":"levelo_inurba_marseille","lat":43.29655,"lon":5.37823,"is_reserved":false,"is_disabled":false,"rental_uris":{"android":"levelo://app?vid=11bfd3fe-e149-45d7-8fab-b36fe62e4e06","ios":"levelo://app?vid=11bfd3fe-e149-45d7-8fab-b36fe62e4e06"},"vehicle_type_id":"4","last_reported":1687446560,"current_range_meters":22800,"station_id":"","pricing_plan_id":"free"},{"bike_id":"6b80a9ff-aa51-4c14-b08d-ad0f64187eab","system_id":"levelo_inurba_marseille","lat":43.297774,"lon":5.370875,"is_reserved":false,"is_disabled":false,"rental_uris":{"android":"levelo://app?vid=6b80a9ff-aa51-4c14-b08d-ad0f64187eab","ios":"levelo://app?vid=6b80a9ff-aa51-4c14-b08d-ad0f64187eab"},"vehicle_type_id":"4","last_reported":1687446560,"current_range_meters":19200,"station_id":"ce4bgop2rcd13ifvqc1g","pricing_plan_id":"free"},{"bike_id":"9a1772bf-3bfc-4296-9306-742ee3517f54","system_id":"levelo_inurba_marseille","lat":43.304374,"lon":5.389135,"is_reserved":false,"is_disabled":false,"rental_uris":{"android":"levelo://app?vid=9a1772bf-3bfc-4296-9306-742ee3517f54","ios":"levelo://app?vid=9a1772bf-3bfc-4296-9306-742ee3517f54"},"vehicle_type_id":"4","last_reported":1687446560,"current_range_meters":31200,"station_id":"ce4bgk12rcd13ifvqbi0","pricing_plan_id":"free"},{"bike_id":"1e4904a8-94a3-4c19-b5e0-3709f00b0e65","system_id":"levelo_inurba_marseille","lat":43.299707,"lon":5.384859,"is_reserved":false,"is_disabled":false,"rental_uris":{"android":"levelo://app?vid=1e4904a8-94a3-4c19-b5e0-3709f00b0e65","ios":"levelo://app?vid=1e4904a8-94a3-4c19-b5e0-3709f00b0e65"},"vehicle_type_id":"4","last_reported":1687446560,"current_range_meters":4800,"station_id":"ce4bgj92rcd13ifvqbd0","pricing_plan_id":"free"},{"bike_id":"cf7014bc-49c1-465b-a116-1efbbe1210c8","system_id":"levelo_inurba_marseille","lat":43.32363,"lon":5.38882,"is_reserved":false,"is_disabled":false,"rental_uris":{"android":"levelo://app?vid=cf7014bc-49c1-465b-a116-1efbbe1210c8","ios":"levelo://app?vid=cf7014bc-49c1-465b-a116-1efbbe1210c8"},"vehicle_type_id":"4","last_reported":1687446560,"current_range_meters":23200,"station_id":"ce4bhqp2rcd13ifvqhog","pricing_plan_id":"free"},{"bike_id":"e9a5f79a-69b5-4c7c-81b9-81e43f3bff7b","system_id":"levelo_inurba_marseille","lat":43.32367,"lon":5.388836,"is_reserved":false,"is_disabled":false,"rental_uris":{"android":"levelo://app?vid=e9a5f79a-69b5-4c7c-81b9-81e43f3bff7b","ios":"levelo://app?vid=e9a5f79a-69b5-4c7c-81b9-81e43f3bff7b"},"vehicle_type_id":"4","last_reported":1687446560,"current_range_meters":21200,"station_id":"ce4bhqp2rcd13ifvqhog","pricing_plan_id":"free"},{"bike_id":"9c01e023-7357-4377-b904-d0661aa499b3","system_id":"levelo_inurba_marseille","lat":43.32358,"lon":5.38887,"is_reserved":false,"is_disabled":false,"rental_uris":{"android":"levelo://app?vid=9c01e023-7357-4377-b904-d0661aa499b3","ios":"levelo://app?vid=9c01e023-7357-4377-b904-d0661aa499b3"},"vehicle_type_id":"4","last_reported":1687446560,"current_range_meters":24000,"station_id":"ce4bhqp2rcd13ifvqhog","pricing_plan_id":"free"},{"bike_id":"62e1e21f-3f88-43a4-83a5-bbb9f2a86bae","system_id":"levelo_inurba_marseille","lat":43.32367,"lon":5.388836,"is_reserved":false,"is_disabled":false,"rental_uris":{"android":"levelo://app?vid=62e1e21f-3f88-43a4-83a5-bbb9f2a86bae","ios":"levelo://app?vid=62e1e21f-3f88-43a4-83a5-bbb9f2a86bae"},"vehicle_type_id":"4","last_reported":1687446560,"current_range_meters":16800,"station_id":"ce4bhqp2rcd13ifvqhog","pricing_plan_id":"free"},{"bike_id":"e041460a-54ae-4871-ad9f-b6135e0ef88f","system_id":"levelo_inurba_marseille","lat":43.32365,"lon":5.38887,"is_reserved":false,"is_disabled":false,"rental_uris":{"android":"levelo://app?vid=e041460a-54ae-4871-ad9f-b6135e0ef88f","ios":"levelo://app?vid=e041460a-54ae-4871-ad9f-b6135e0ef88f"},"vehicle_type_id":"4","last_reported":1687446560,"current_range_meters":28800,"station_id":"ce4bhqp2rcd13ifvqhog","pricing_plan_id":"free"},{"bike_id":"601c304b-aa61-4184-8aa3-f8ac704f9b82","system_id":"levelo_inurba_marseille","lat":43.32367,"lon":5.388836,"is_reserved":false,"is_disabled":false,"rental_uris":{"android":"levelo://app?vid=601c304b-aa61-4184-8aa3-f8ac704f9b82","ios":"levelo://app?vid=601c304b-aa61-4184-8aa3-f8ac704f9b82"},"vehicle_type_id":"4","last_reported":1687446560,"current_range_meters":27600,"station_id":"ce4bhqp2rcd13ifvqhog","pricing_plan_id":"free"},{"bike_id":"6afa4d3c-fcc0-429b-9ddf-7a76f7ae1a9b","system_id":"levelo_inurba_marseille","lat":43.32367,"lon":5.388836,"is_reserved":false,"is_disabled":false,"rental_uris":{"android":"levelo://app?vid=6afa4d3c-fcc0-429b-9ddf-7a76f7ae1a9b","ios":"levelo://app?vid=6afa4d3c-fcc0-429b-9ddf-7a76f7ae1a9b"},"vehicle_type_id":"4","last_reported":1687446560,"current_range_meters":18400,"station_id":"ce4bhqp2rcd13ifvqhog","pricing_plan_id":"free"},{"bike_id":"fe0efc2f-dafd-46c3-b01b-b7b8dd1e78b9","system_id":"levelo_inurba_marseille","lat":43.32367,"lon":5.388836,"is_reserved":false,"is_disabled":false,"rental_uris":{"android":"levelo://app?vid=fe0efc2f-dafd-46c3-b01b-b7b8dd1e78b9","ios":"levelo://app?vid=fe0efc2f-dafd-46c3-b01b-b7b8dd1e78b9"},"vehicle_type_id":"4","last_reported":1687446560,"current_range_meters":25600,"station_id":"ce4bhqp2rcd13ifvqhog","pricing_plan_id":"free"},{"bike_id":"c3fbb4a3-e617-4385-8b3a-3eafa1a81ef4","system_id":"levelo_inurba_marseille","lat":43.292749,"lon":5.368398,"is_reserved":false,"is_disabled":false,"rental_uris":{"android":"levelo://app?vid=c3fbb4a3-e617-4385-8b3a-3eafa1a81ef4","ios":"levelo://app?vid=c3fbb4a3-e617-4385-8b3a-3eafa1a81ef4"},"vehicle_type_id":"4","last_reported":1687446560,"current_range_meters":26800,"station_id":"ce4bhbp2rcd13ifvqesg","pricing_plan_id":"free"},{"bike_id":"2f9a304e-9512-4096-b1c3-309c3a36c7f8","system_id":"levelo_inurba_marseille","lat":43.292775,"lon":5.368405,"is_reserved":false,"is_disabled":false,"rental_uris":{"android":"levelo://app?vid=2f9a304e-9512-4096-b1c3-309c3a36c7f8","ios":"levelo://app?vid=2f9a304e-9512-4096-b1c3-309c3a36c7f8"},"vehicle_type_id":"4","last_reported":1687446560,"current_range_meters":22000,"station_id":"","pricing_plan_id":"free"},{"bike_id":"2fdd1bb0-a7bf-49ca-bf78-f7464139cc99","system_id":"levelo_inurba_marseille","lat":43.29298,"lon":5.37462,"is_reserved":false,"is_disabled":false,"rental_uris":{"android":"levelo://app?vid=2fdd1bb0-a7bf-49ca-bf78-f7464139cc99","ios":"levelo://app?vid=2fdd1bb0-a7bf-49ca-bf78-f7464139cc99"},"vehicle_type_id":"4","last_reported":1687446560,"current_range_meters":400,"station_id":"ce4bgi12rcd13ifvqb70","pricing_plan_id":"free"},{"bike_id":"eb97f971-dc54-4d68-ab24-4210a59af5cd","system_id":"levelo_inurba_marseille","lat":43.302992,"lon":5.392136,"is_reserved":false,"is_disabled":false,"rental_uris":{"android":"levelo://app?vid=eb97f971-dc54-4d68-ab24-4210a59af5cd","ios":"levelo://app?vid=eb97f971-dc54-4d68-ab24-4210a59af5cd"},"vehicle_type_id":"4","last_reported":1687446560,"current_range_meters":21200,"station_id":"ce4bgkh2rcd13ifvqbk0","pricing_plan_id":"free"},{"bike_id":"82962bf2-4310-4efb-af0e-e0c2985b458f","system_id":"levelo_inurba_marseille","lat":43.29262,"lon":5.35964,"is_reserved":false,"is_disabled":false,"rental_uris":{"android":"levelo://app?vid=82962bf2-4310-4efb-af0e-e0c2985b458f","ios":"levelo://app?vid=82962bf2-4310-4efb-af0e-e0c2985b458f"},"vehicle_type_id":"4","last_reported":1687446560,"current_range_meters":28800,"station_id":"","pricing_plan_id":"free"},{"bike_id":"620709df-d2a3-4b69-b5fd-326f2233dfee","system_id":"levelo_inurba_marseille","lat":43.2936,"lon":5.37835,"is_reserved":false,"is_disabled":false,"rental_uris":{"android":"levelo://app?vid=620709df-d2a3-4b69-b5fd-326f2233dfee","ios":"levelo://app?vid=620709df-d2a3-4b69-b5fd-326f2233dfee"},"vehicle_type_id":"4","last_reported":1687446560,"current_range_meters":1200,"station_id":"ce4bgjh2rcd13ifvqbf0","pricing_plan_id":"free"},{"bike_id":"4f5f3364-d90a-417b-b078-8d210bca89a3","system_id":"levelo_inurba_marseille","lat":43.292311,"lon":5.360731,"is_reserved":false,"is_disabled":false,"rental_uris":{"android":"levelo://app?vid=4f5f3364-d90a-417b-b078-8d210bca89a3","ios":"levelo://app?vid=4f5f3364-d90a-417b-b078-8d210bca89a3"},"vehicle_type_id":"4","last_reported":1687446560,"current_range_meters":19600,"station_id":"ce4bhbh2rcd13ifvqeqg","pricing_plan_id":"free"},{"bike_id":"1aaea7a3-6de0-48f9-a3d2-5d3b3274a9ac","system_id":"levelo_inurba_marseille","lat":43.292311,"lon":5.360731,"is_reserved":false,"is_disabled":false,"rental_uris":{"android":"levelo://app?vid=1aaea7a3-6de0-48f9-a3d2-5d3b3274a9ac","ios":"levelo://app?vid=1aaea7a3-6de0-48f9-a3d2-5d3b3274a9ac"},"vehicle_type_id":"4","last_reported":1687446560,"current_range_meters":29200,"station_id":"ce4bhbh2rcd13ifvqeqg","pricing_plan_id":"free"},{"bike_id":"9bc89577-4921-4078-b836-419d24d724e0","system_id":"levelo_inurba_marseille","lat":43.292311,"lon":5.360731,"is_reserved":false,"is_disabled":false,"rental_uris":{"android":"levelo://app?vid=9bc89577-4921-4078-b836-419d24d724e0","ios":"levelo://app?vid=9bc89577-4921-4078-b836-419d24d724e0"},"vehicle_type_id":"4","last_reported":1687446560,"current_range_meters":31600,"station_id":"ce4bhbh2rcd13ifvqeqg","pricing_plan_id":"free"},{"bike_id":"c7359128-dfb8-4c22-8f7f-38836d6fbee7","system_id":"levelo_inurba_marseille","lat":43.292311,"lon":5.360731,"is_reserved":false,"is_disabled":false,"rental_uris":{"android":"levelo://app?vid=c7359128-dfb8-4c22-8f7f-38836d6fbee7","ios":"levelo://app?vid=c7359128-dfb8-4c22-8f7f-38836d6fbee7"},"vehicle_type_id":"4","last_reported":1687446560,"current_range_meters":18000,"station_id":"ce4bhbh2rcd13ifvqeqg","pricing_plan_id":"free"},{"bike_id":"6a6becdf-2fff-41a1-a97e-a0f4aada92a5","system_id":"levelo_inurba_marseille","lat":43.292311,"lon":5.360731,"is_reserved":false,"is_disabled":false,"rental_uris":{"android":"levelo://app?vid=6a6becdf-2fff-41a1-a97e-a0f4aada92a5","ios":"levelo://app?vid=6a6becdf-2fff-41a1-a97e-a0f4aada92a5"},"vehicle_type_id":"4","last_reported":1687446560,"current_range_meters":31200,"station_id":"ce4bhbh2rcd13ifvqeqg","pricing_plan_id":"free"},{"bike_id":"4a23bcdd-d6a9-44a1-ab99-5eafaf235355","system_id":"levelo_inurba_marseille","lat":43.292311,"lon":5.360731,"is_reserved":false,"is_disabled":false,"rental_uris":{"android":"levelo://app?vid=4a23bcdd-d6a9-44a1-ab99-5eafaf235355","ios":"levelo://app?vid=4a23bcdd-d6a9-44a1-ab99-5eafaf235355"},"vehicle_type_id":"4","last_reported":1687446560,"current_range_meters":31200,"station_id":"ce4bhbh2rcd13ifvqeqg","pricing_plan_id":"free"},{"bike_id":"e57d81ca-f33b-4a94-87a0-fdf98ca78aed","system_id":"levelo_inurba_marseille","lat":43.292311,"lon":5.360731,"is_reserved":false,"is_disabled":false,"rental_uris":{"android":"levelo://app?vid=e57d81ca-f33b-4a94-87a0-fdf98ca78aed","ios":"levelo://app?vid=e57d81ca-f33b-4a94-87a0-fdf98ca78aed"},"vehicle_type_id":"4","last_reported":1687446560,"current_range_meters":31200,"station_id":"ce4bhbh2rcd13ifvqeqg","pricing_plan_id":"free"},{"bike_id":"f180c423-902b-478f-9ac2-50c8c8615ec4","system_id":"levelo_inurba_marseille","lat":43.292311,"lon":5.360731,"is_reserved":false,"is_disabled":false,"rental_uris":{"android":"levelo://app?vid=f180c423-902b-478f-9ac2-50c8c8615ec4","ios":"levelo://app?vid=f180c423-902b-478f-9ac2-50c8c8615ec4"},"vehicle_type_id":"4","last_reported":1687446560,"current_range_meters":31200,"station_id":"ce4bhbh2rcd13ifvqeqg","pricing_plan_id":"free"},{"bike_id":"386285fa-61d5-4830-97a2-fea07c7625e8","system_id":"levelo_inurba_marseille","lat":43.298764,"lon":5.388973,"is_reserved":false,"is_disabled":false,"rental_uris":{"android":"levelo://app?vid=386285fa-61d5-4830-97a2-fea07c7625e8","ios":"levelo://app?vid=386285fa-61d5-4830-97a2-fea07c7625e8"},"vehicle_type_id":"4","last_reported":1687446560,"current_range_meters":17600,"station_id":"ce4bh392rcd13ifvqdl0","pricing_plan_id":"free"},{"bike_id":"38d0f126-0a50-4b29-8064-9d52b4fb5330","system_id":"levelo_inurba_marseille","lat":43.298764,"lon":5.388973,"is_reserved":false,"is_disabled":false,"rental_uris":{"android":"levelo://app?vid=38d0f126-0a50-4b29-8064-9d52b4fb5330","ios":"levelo://app?vid=38d0f126-0a50-4b29-8064-9d52b4fb5330"},"vehicle_type_id":"4","last_reported":1687446560,"current_range_meters":7600,"station_id":"ce4bh392rcd13ifvqdl0","pricing_plan_id":"free"},{"bike_id":"33b3e661-670e-4848-9329-404ebaff95f2","system_id":"levelo_inurba_marseille","lat":43.29192,"lon":5.35808,"is_reserved":false,"is_disabled":false,"rental_uris":{"android":"levelo://app?vid=33b3e661-670e-4848-9329-404ebaff95f2","ios":"levelo://app?vid=33b3e661-670e-4848-9329-404ebaff95f2"},"vehicle_type_id":"4","last_reported":1687446560,"current_range_meters":20400,"station_id":"ce4bhb12rcd13ifvqel0","pricing_plan_id":"free"},{"bike_id":"a2981d36-910b-4b86-bcca-6b894a6c8c7e","system_id":"levelo_inurba_marseille","lat":43.313291,"lon":5.396838,"is_reserved":false,"is_disabled":false,"rental_uris":{"android":"levelo://app?vid=a2981d36-910b-4b86-bcca-6b894a6c8c7e","ios":"levelo://app?vid=a2981d36-910b-4b86-bcca-6b894a6c8c7e"},"vehicle_type_id":"4","last_reported":1687446560,"current_range_meters":21600,"station_id":"ce4bgvp2rcd13ifvqcu0","pricing_plan_id":"free"},{"bike_id":"cb53d5ba-aa99-44d2-8045-68f76fcf3577","system_id":"levelo_inurba_marseille","lat":43.313291,"lon":5.396838,"is_reserved":false,"is_disabled":false,"rental_uris":{"android":"levelo://app?vid=cb53d5ba-aa99-44d2-8045-68f76fcf3577","ios":"levelo://app?vid=cb53d5ba-aa99-44d2-8045-68f76fcf3577"},"vehicle_type_id":"4","last_reported":1687446560,"current_range_meters":5200,"station_id":"ce4bgvp2rcd13ifvqcu0","pricing_plan_id":"free"},{"bike_id":"24a7a30d-9be5-4604-bfce-0a04d1a7202f","system_id":"levelo_inurba_marseille","lat":43.291994,"lon":5.357886,"is_reserved":false,"is_disabled":false,"rental_uris":{"android":"levelo://app?vid=24a7a30d-9be5-4604-bfce-0a04d1a7202f","ios":"levelo://app?vid=24a7a30d-9be5-4604-bfce-0a04d1a7202f"},"vehicle_type_id":"4","last_reported":1687446560,"current_range_meters":13600,"station_id":"ce4bhb12rcd13ifvqel0","pricing_plan_id":"free"},{"bike_id":"c97a7a82-d1d8-4604-9357-c18070d50cd7","system_id":"levelo_inurba_marseille","lat":43.313291,"lon":5.396838,"is_reserved":false,"is_disabled":false,"rental_uris":{"android":"levelo://app?vid=c97a7a82-d1d8-4604-9357-c18070d50cd7","ios":"levelo://app?vid=c97a7a82-d1d8-4604-9357-c18070d50cd7"},"vehicle_type_id":"4","last_reported":1687446560,"current_range_meters":31200,"station_id":"ce4bgvp2rcd13ifvqcu0","pricing_plan_id":"free"},{"bike_id":"fa0fb0e3-d1a6-4aa2-8c8a-d013f7732d47","system_id":"levelo_inurba_marseille","lat":43.313291,"lon":5.396838,"is_reserved":false,"is_disabled":false,"rental_uris":{"android":"levelo://app?vid=fa0fb0e3-d1a6-4aa2-8c8a-d013f7732d47","ios":"levelo://app?vid=fa0fb0e3-d1a6-4aa2-8c8a-d013f7732d47"},"vehicle_type_id":"4","last_reported":1687446560,"current_range_meters":14000,"station_id":"ce4bgvp2rcd13ifvqcu0","pricing_plan_id":"free"},{"bike_id":"023d5a26-b5ed-41b9-8aee-d75a7cf0cafa","system_id":"levelo_inurba_marseille","lat":43.309038,"lon":5.396546,"is_reserved":false,"is_disabled":false,"rental_uris":{"android":"levelo://app?vid=023d5a26-b5ed-41b9-8aee-d75a7cf0cafa","ios":"levelo://app?vid=023d5a26-b5ed-41b9-8aee-d75a7cf0cafa"},"vehicle_type_id":"4","last_reported":1687446560,"current_range_meters":25600,"station_id":"ce4bh012rcd13ifvqcv0","pricing_plan_id":"free"},{"bike_id":"ee409b66-5471-4851-9e4c-7a4d205dbbf2","system_id":"levelo_inurba_marseille","lat":43.291994,"lon":5.357886,"is_reserved":false,"is_disabled":false,"rental_uris":{"android":"levelo://app?vid=ee409b66-5471-4851-9e4c-7a4d205dbbf2","ios":"levelo://app?vid=ee409b66-5471-4851-9e4c-7a4d205dbbf2"},"vehicle_type_id":"4","last_reported":1687446560,"current_range_meters":16800,"station_id":"ce4bhb12rcd13ifvqel0","pricing_plan_id":"free"},{"bike_id":"21bb9447-e45f-4046-b0c7-92051a8e71c3","system_id":"levelo_inurba_marseille","lat":43.291994,"lon":5.357886,"is_reserved":false,"is_disabled":false,"rental_uris":{"android":"levelo://app?vid=21bb9447-e45f-4046-b0c7-92051a8e71c3","ios":"levelo://app?vid=21bb9447-e45f-4046-b0c7-92051a8e71c3"},"vehicle_type_id":"4","last_reported":1687446560,"current_range_meters":31200,"station_id":"ce4bhb12rcd13ifvqel0","pricing_plan_id":"free"},{"bike_id":"92b40867-ea51-428d-b924-b9316488f0be","system_id":"levelo_inurba_marseille","lat":43.309038,"lon":5.396546,"is_reserved":false,"is_disabled":false,"rental_uris":{"android":"levelo://app?vid=92b40867-ea51-428d-b924-b9316488f0be","ios":"levelo://app?vid=92b40867-ea51-428d-b924-b9316488f0be"},"vehicle_type_id":"4","last_reported":1687446560,"current_range_meters":3200,"station_id":"ce4bh012rcd13ifvqcv0","pricing_plan_id":"free"},{"bike_id":"426be1a7-465a-4eeb-88df-6be1815517fd","system_id":"levelo_inurba_marseille","lat":43.29529,"lon":5.385581,"is_reserved":false,"is_disabled":false,"rental_uris":{"android":"levelo://app?vid=426be1a7-465a-4eeb-88df-6be1815517fd","ios":"levelo://app?vid=426be1a7-465a-4eeb-88df-6be1815517fd"},"vehicle_type_id":"4","last_reported":1687446560,"current_range_meters":15600,"station_id":"ce4bgih2rcd13ifvqba0","pricing_plan_id":"free"},{"bike_id":"42c4b17a-3c58-4267-9ba9-5fcd8857b2db","system_id":"levelo_inurba_marseille","lat":43.290327,"lon":5.375711,"is_reserved":false,"is_disabled":false,"rental_uris":{"android":"levelo://app?vid=42c4b17a-3c58-4267-9ba9-5fcd8857b2db","ios":"levelo://app?vid=42c4b17a-3c58-4267-9ba9-5fcd8857b2db"},"vehicle_type_id":"4","last_reported":1687446560,"current_range_meters":18400,"station_id":"ce4bh692rcd13ifvqe90","pricing_plan_id":"free"},{"bike_id":"3e36dbd4-61ec-4a46-95ce-ef63a3cb073e","system_id":"levelo_inurba_marseille","lat":43.29411,"lon":5.38614,"is_reserved":false,"is_disabled":false,"rental_uris":{"android":"levelo://app?vid=3e36dbd4-61ec-4a46-95ce-ef63a3cb073e","ios":"levelo://app?vid=3e36dbd4-61ec-4a46-95ce-ef63a3cb073e"},"vehicle_type_id":"4","last_reported":1687446560,"current_range_meters":26400,"station_id":"","pricing_plan_id":"free"},{"bike_id":"0c052697-babf-4a78-93a2-1928b0e11de5","system_id":"levelo_inurba_marseille","lat":43.28943,"lon":5.36639,"is_reserved":false,"is_disabled":false,"rental_uris":{"android":"levelo://app?vid=0c052697-babf-4a78-93a2-1928b0e11de5","ios":"levelo://app?vid=0c052697-babf-4a78-93a2-1928b0e11de5"},"vehicle_type_id":"4","last_reported":1687446560,"current_range_meters":6000,"station_id":"","pricing_plan_id":"free"},{"bike_id":"8ceccf94-2328-4f49-bada-ec90f641821c","system_id":"levelo_inurba_marseille","lat":43.29416,"lon":5.38628,"is_reserved":false,"is_disabled":false,"rental_uris":{"android":"levelo://app?vid=8ceccf94-2328-4f49-bada-ec90f641821c","ios":"levelo://app?vid=8ceccf94-2328-4f49-bada-ec90f641821c"},"vehicle_type_id":"4","last_reported":1687446560,"current_range_meters":13600,"station_id":"ce4bh2h2rcd13ifvqdh0","pricing_plan_id":"free"},{"bike_id":"f041d1b5-0ffe-4d34-b8d9-8a121e9fd4a2","system_id":"levelo_inurba_marseille","lat":43.289184,"lon":5.366408,"is_reserved":false,"is_disabled":false,"rental_uris":{"android":"levelo://app?vid=f041d1b5-0ffe-4d34-b8d9-8a121e9fd4a2","ios":"levelo://app?vid=f041d1b5-0ffe-4d34-b8d9-8a121e9fd4a2"},"vehicle_type_id":"4","last_reported":1687446560,"current_range_meters":16000,"station_id":"ce4bhap2rcd13ifvqek0","pricing_plan_id":"free"},{"bike_id":"7fd3b1b7-7e1d-4a85-9843-d02a88d8c586","system_id":"levelo_inurba_marseille","lat":43.28934,"lon":5.36641,"is_reserved":false,"is_disabled":false,"rental_uris":{"android":"levelo://app?vid=7fd3b1b7-7e1d-4a85-9843-d02a88d8c586","ios":"levelo://app?vid=7fd3b1b7-7e1d-4a85-9843-d02a88d8c586"},"vehicle_type_id":"4","last_reported":1687446560,"current_range_meters":22800,"station_id":"ce4bhap2rcd13ifvqek0","pricing_plan_id":"free"},{"bike_id":"fa1a9936-288b-481a-90c9-a908c18d602f","system_id":"levelo_inurba_marseille","lat":43.289468,"lon":5.363719,"is_reserved":false,"is_disabled":false,"rental_uris":{"android":"levelo://app?vid=fa1a9936-288b-481a-90c9-a908c18d602f","ios":"levelo://app?vid=fa1a9936-288b-481a-90c9-a908c18d602f"},"vehicle_type_id":"4","last_reported":1687446560,"current_range_meters":25200,"station_id":"ce4bhc92rcd13ifvqetg","pricing_plan_id":"free"},{"bike_id":"42758c01-5f48-4b45-9f66-0b6656b95186","system_id":"levelo_inurba_marseille","lat":43.292642,"lon":5.384254,"is_reserved":false,"is_disabled":false,"rental_uris":{"android":"levelo://app?vid=42758c01-5f48-4b45-9f66-0b6656b95186","ios":"levelo://app?vid=42758c01-5f48-4b45-9f66-0b6656b95186"},"vehicle_type_id":"4","last_reported":1687446560,"current_range_meters":26400,"station_id":"ce4bh692rcd13ifvqea0","pricing_plan_id":"free"},{"bike_id":"907c4ebb-e8b9-4754-80f5-8bee55062296","system_id":"levelo_inurba_marseille","lat":43.30469,"lon":5.39787,"is_reserved":false,"is_disabled":false,"rental_uris":{"android":"levelo://app?vid=907c4ebb-e8b9-4754-80f5-8bee55062296","ios":"levelo://app?vid=907c4ebb-e8b9-4754-80f5-8bee55062296"},"vehicle_type_id":"4","last_reported":1687446560,"current_range_meters":17200,"station_id":"","pricing_plan_id":"free"},{"bike_id":"ef361d4d-c160-4632-8902-db8f7aba55ff","system_id":"levelo_inurba_marseille","lat":43.3304,"lon":5.38919,"is_reserved":false,"is_disabled":false,"rental_uris":{"android":"levelo://app?vid=ef361d4d-c160-4632-8902-db8f7aba55ff","ios":"levelo://app?vid=ef361d4d-c160-4632-8902-db8f7aba55ff"},"vehicle_type_id":"4","last_reported":1687446560,"current_range_meters":10000,"station_id":"ce4bhr92rcd13ifvqhrg","pricing_plan_id":"free"},{"bike_id":"ab990c51-1ffe-43dd-a6cd-9353811d08e6","system_id":"levelo_inurba_marseille","lat":43.33041,"lon":5.38918,"is_reserved":false,"is_disabled":false,"rental_uris":{"android":"levelo://app?vid=ab990c51-1ffe-43dd-a6cd-9353811d08e6","ios":"levelo://app?vid=ab990c51-1ffe-43dd-a6cd-9353811d08e6"},"vehicle_type_id":"4","last_reported":1687446560,"current_range_meters":11600,"station_id":"ce4bhr92rcd13ifvqhrg","pricing_plan_id":"free"},{"bike_id":"3816a034-3320-43e5-92ea-425f5a3e4c23","system_id":"levelo_inurba_marseille","lat":43.290104,"lon":5.356111,"is_reserved":false,"is_disabled":false,"rental_uris":{"android":"levelo://app?vid=3816a034-3320-43e5-92ea-425f5a3e4c23","ios":"levelo://app?vid=3816a034-3320-43e5-92ea-425f5a3e4c23"},"vehicle_type_id":"4","last_reported":1687446560,"current_range_meters":27600,"station_id":"ce4bhb92rcd13ifvqen0","pricing_plan_id":"free"},{"bike_id":"557e9ccd-7ce4-4813-ba1f-e16b7b338639","system_id":"levelo_inurba_marseille","lat":43.33042,"lon":5.38922,"is_reserved":false,"is_disabled":false,"rental_uris":{"android":"levelo://app?vid=557e9ccd-7ce4-4813-ba1f-e16b7b338639","ios":"levelo://app?vid=557e9ccd-7ce4-4813-ba1f-e16b7b338639"},"vehicle_type_id":"4","last_reported":1687446560,"current_range_meters":14800,"station_id":"ce4bhr92rcd13ifvqhrg","pricing_plan_id":"free"},{"bike_id":"cff14dfa-f93b-4cdc-bd83-edb664ab2efc","system_id":"levelo_inurba_marseille","lat":43.290104,"lon":5.356111,"is_reserved":false,"is_disabled":false,"rental_uris":{"android":"levelo://app?vid=cff14dfa-f93b-4cdc-bd83-edb664ab2efc","ios":"levelo://app?vid=cff14dfa-f93b-4cdc-bd83-edb664ab2efc"},"vehicle_type_id":"4","last_reported":1687446560,"current_range_meters":22800,"station_id":"ce4bhb92rcd13ifvqen0","pricing_plan_id":"free"},{"bike_id":"faac9297-f83f-41ce-9201-4341c1f54869","system_id":"levelo_inurba_marseille","lat":43.29006,"lon":5.35613,"is_reserved":false,"is_disabled":false,"rental_uris":{"android":"levelo://app?vid=faac9297-f83f-41ce-9201-4341c1f54869","ios":"levelo://app?vid=faac9297-f83f-41ce-9201-4341c1f54869"},"vehicle_type_id":"4","last_reported":1687446560,"current_range_meters":31200,"station_id":"ce4bhb92rcd13ifvqen0","pricing_plan_id":"free"},{"bike_id":"33b690ca-e5f5-42ca-8843-34291005a3f9","system_id":"levelo_inurba_marseille","lat":43.290104,"lon":5.356111,"is_reserved":false,"is_disabled":false,"rental_uris":{"android":"levelo://app?vid=33b690ca-e5f5-42ca-8843-34291005a3f9","ios":"levelo://app?vid=33b690ca-e5f5-42ca-8843-34291005a3f9"},"vehicle_type_id":"4","last_reported":1687446560,"current_range_meters":30000,"station_id":"ce4bhb92rcd13ifvqen0","pricing_plan_id":"free"},{"bike_id":"358d741f-0f3f-4bf6-956b-82c173768c03","system_id":"levelo_inurba_marseille","lat":43.290103,"lon":5.356114,"is_reserved":false,"is_disabled":false,"rental_uris":{"android":"levelo://app?vid=358d741f-0f3f-4bf6-956b-82c173768c03","ios":"levelo://app?vid=358d741f-0f3f-4bf6-956b-82c173768c03"},"vehicle_type_id":"4","last_reported":1687446560,"current_range_meters":0,"station_id":"ce4bhb92rcd13ifvqen0","pricing_plan_id":"free"},{"bike_id":"c73d2cc7-61ec-4fd2-a002-ffa050603a67","system_id":"levelo_inurba_marseille","lat":43.33047,"lon":5.38918,"is_reserved":false,"is_disabled":false,"rental_uris":{"android":"levelo://app?vid=c73d2cc7-61ec-4fd2-a002-ffa050603a67","ios":"levelo://app?vid=c73d2cc7-61ec-4fd2-a002-ffa050603a67"},"vehicle_type_id":"4","last_reported":1687446560,"current_range_meters":2800,"station_id":"ce4bhr92rcd13ifvqhrg","pricing_plan_id":"free"},{"bike_id":"8f3f2ae0-cf34-439b-818d-2c39a055cbf9","system_id":"levelo_inurba_marseille","lat":43.33048,"lon":5.38917,"is_reserved":false,"is_disabled":false,"rental_uris":{"android":"levelo://app?vid=8f3f2ae0-cf34-439b-818d-2c39a055cbf9","ios":"levelo://app?vid=8f3f2ae0-cf34-439b-818d-2c39a055cbf9"},"vehicle_type_id":"4","last_reported":1687446560,"current_range_meters":0,"station_id":"ce4bhr92rcd13ifvqhrg","pricing_plan_id":"free"},{"bike_id":"e1a45b0a-bebd-4c51-9017-f46b52c8e6b7","system_id":"levelo_inurba_marseille","lat":43.33045,"lon":5.38922,"is_reserved":false,"is_disabled":false,"rental_uris":{"android":"levelo://app?vid=e1a45b0a-bebd-4c51-9017-f46b52c8e6b7","ios":"levelo://app?vid=e1a45b0a-bebd-4c51-9017-f46b52c8e6b7"},"vehicle_type_id":"4","last_reported":1687446560,"current_range_meters":30400,"station_id":"ce4bhr92rcd13ifvqhrg","pricing_plan_id":"free"},{"bike_id":"7ea7c0f6-85fe-4b85-8f06-d007570eda48","system_id":"levelo_inurba_marseille","lat":43.290103,"lon":5.356114,"is_reserved":false,"is_disabled":false,"rental_uris":{"android":"levelo://app?vid=7ea7c0f6-85fe-4b85-8f06-d007570eda48","ios":"levelo://app?vid=7ea7c0f6-85fe-4b85-8f06-d007570eda48"},"vehicle_type_id":"4","last_reported":1687446560,"current_range_meters":28000,"station_id":"ce4bhb92rcd13ifvqen0","pricing_plan_id":"free"},{"bike_id":"52b9460d-d5dc-4ae2-984a-52ec63be9300","system_id":"levelo_inurba_marseille","lat":43.29114,"lon":5.38352,"is_reserved":false,"is_disabled":false,"rental_uris":{"android":"levelo://app?vid=52b9460d-d5dc-4ae2-984a-52ec63be9300","ios":"levelo://app?vid=52b9460d-d5dc-4ae2-984a-52ec63be9300"},"vehicle_type_id":"4","last_reported":1687446560,"current_range_meters":28800,"station_id":"","pricing_plan_id":"free"},{"bike_id":"932b74c3-99b3-488a-999b-1342abbc00f9","system_id":"levelo_inurba_marseille","lat":43.29017,"lon":5.38134,"is_reserved":false,"is_disabled":false,"rental_uris":{"android":"levelo://app?vid=932b74c3-99b3-488a-999b-1342abbc00f9","ios":"levelo://app?vid=932b74c3-99b3-488a-999b-1342abbc00f9"},"vehicle_type_id":"4","last_reported":1687446560,"current_range_meters":13600,"station_id":"ce4bh4p2rcd13ifvqe1g","pricing_plan_id":"free"},{"bike_id":"5f8008a4-dbe1-4222-b29b-0f0289a173c7","system_id":"levelo_inurba_marseille","lat":43.28856,"lon":5.358371,"is_reserved":false,"is_disabled":false,"rental_uris":{"android":"levelo://app?vid=5f8008a4-dbe1-4222-b29b-0f0289a173c7","ios":"levelo://app?vid=5f8008a4-dbe1-4222-b29b-0f0289a173c7"},"vehicle_type_id":"4","last_reported":1687446560,"current_range_meters":24000,"station_id":"ce4bhb12rcd13ifvqem0","pricing_plan_id":"free"},{"bike_id":"3f8a925a-6a54-4259-a38f-9cf091aab246","system_id":"levelo_inurba_marseille","lat":43.29267,"lon":5.38749,"is_reserved":false,"is_disabled":false,"rental_uris":{"android":"levelo://app?vid=3f8a925a-6a54-4259-a38f-9cf091aab246","ios":"levelo://app?vid=3f8a925a-6a54-4259-a38f-9cf091aab246"},"vehicle_type_id":"4","last_reported":1687446560,"current_range_meters":29600,"station_id":"","pricing_plan_id":"free"},{"bike_id":"c2d35b26-6dce-40d0-b984-305911ab9d2a","system_id":"levelo_inurba_marseille","lat":43.309371,"lon":5.401449,"is_reserved":false,"is_disabled":false,"rental_uris":{"android":"levelo://app?vid=c2d35b26-6dce-40d0-b984-305911ab9d2a","ios":"levelo://app?vid=c2d35b26-6dce-40d0-b984-305911ab9d2a"},"vehicle_type_id":"4","last_reported":1687446560,"current_range_meters":18000,"station_id":"ce4bgvp2rcd13ifvqct0","pricing_plan_id":"free"},{"bike_id":"fc98e483-28b7-4819-8950-df24c97df0ad","system_id":"levelo_inurba_marseille","lat":43.3093,"lon":5.40145,"is_reserved":false,"is_disabled":false,"rental_uris":{"android":"levelo://app?vid=fc98e483-28b7-4819-8950-df24c97df0ad","ios":"levelo://app?vid=fc98e483-28b7-4819-8950-df24c97df0ad"},"vehicle_type_id":"4","last_reported":1687446560,"current_range_meters":16000,"station_id":"ce4bgvp2rcd13ifvqct0","pricing_plan_id":"free"},{"bike_id":"36f0b8f0-beed-4cc6-a30f-f81197a5649d","system_id":"levelo_inurba_marseille","lat":43.337474,"lon":5.374758,"is_reserved":false,"is_disabled":false,"rental_uris":{"android":"levelo://app?vid=36f0b8f0-beed-4cc6-a30f-f81197a5649d","ios":"levelo://app?vid=36f0b8f0-beed-4cc6-a30f-f81197a5649d"},"vehicle_type_id":"4","last_reported":1687446560,"current_range_meters":23600,"station_id":"","pricing_plan_id":"free"},{"bike_id":"3433a528-dd6a-4ac7-b9d2-b8d42e81ea38","system_id":"levelo_inurba_marseille","lat":43.33746,"lon":5.37487,"is_reserved":false,"is_disabled":false,"rental_uris":{"android":"levelo://app?vid=3433a528-dd6a-4ac7-b9d2-b8d42e81ea38","ios":"levelo://app?vid=3433a528-dd6a-4ac7-b9d2-b8d42e81ea38"},"vehicle_type_id":"4","last_reported":1687446560,"current_range_meters":28000,"station_id":"","pricing_plan_id":"free"},{"bike_id":"71a50c1f-09f0-47f2-bd28-cfcd0711a6bd","system_id":"levelo_inurba_marseille","lat":43.33755,"lon":5.3745,"is_reserved":false,"is_disabled":false,"rental_uris":{"android":"levelo://app?vid=71a50c1f-09f0-47f2-bd28-cfcd0711a6bd","ios":"levelo://app?vid=71a50c1f-09f0-47f2-bd28-cfcd0711a6bd"},"vehicle_type_id":"4","last_reported":1687446560,"current_range_meters":30400,"station_id":"","pricing_plan_id":"free"},{"bike_id":"112511b9-25f0-4e79-9768-2b3ce9e32c52","system_id":"levelo_inurba_marseille","lat":43.309371,"lon":5.401449,"is_reserved":false,"is_disabled":false,"rental_uris":{"android":"levelo://app?vid=112511b9-25f0-4e79-9768-2b3ce9e32c52","ios":"levelo://app?vid=112511b9-25f0-4e79-9768-2b3ce9e32c52"},"vehicle_type_id":"4","last_reported":1687446560,"current_range_meters":0,"station_id":"ce4bgvp2rcd13ifvqct0","pricing_plan_id":"free"},{"bike_id":"e98fd470-ba5c-4335-83c7-0d48f777407a","system_id":"levelo_inurba_marseille","lat":43.337542,"lon":5.374646,"is_reserved":false,"is_disabled":false,"rental_uris":{"android":"levelo://app?vid=e98fd470-ba5c-4335-83c7-0d48f777407a","ios":"levelo://app?vid=e98fd470-ba5c-4335-83c7-0d48f777407a"},"vehicle_type_id":"4","last_reported":1687446560,"current_range_meters":31200,"station_id":"","pricing_plan_id":"free"},{"bike_id":"97d90dc5-625f-4517-872f-813b49a11683","system_id":"levelo_inurba_marseille","lat":43.30931,"lon":5.40156,"is_reserved":false,"is_disabled":false,"rental_uris":{"android":"levelo://app?vid=97d90dc5-625f-4517-872f-813b49a11683","ios":"levelo://app?vid=97d90dc5-625f-4517-872f-813b49a11683"},"vehicle_type_id":"4","last_reported":1687446560,"current_range_meters":1200,"station_id":"ce4bgvp2rcd13ifvqct0","pricing_plan_id":"free"},{"bike_id":"b0bd3bcb-bd35-4f75-8285-8f528f09b8d5","system_id":"levelo_inurba_marseille","lat":43.337575,"lon":5.374489,"is_reserved":false,"is_disabled":false,"rental_uris":{"android":"levelo://app?vid=b0bd3bcb-bd35-4f75-8285-8f528f09b8d5","ios":"levelo://app?vid=b0bd3bcb-bd35-4f75-8285-8f528f09b8d5"},"vehicle_type_id":"4","last_reported":1687446560,"current_range_meters":15600,"station_id":"","pricing_plan_id":"free"},{"bike_id":"05e52c95-648b-4ca9-90f2-9b47b1f02fa2","system_id":"levelo_inurba_marseille","lat":43.306412,"lon":5.401035,"is_reserved":false,"is_disabled":false,"rental_uris":{"android":"levelo://app?vid=05e52c95-648b-4ca9-90f2-9b47b1f02fa2","ios":"levelo://app?vid=05e52c95-648b-4ca9-90f2-9b47b1f02fa2"},"vehicle_type_id":"4","last_reported":1687446560,"current_range_meters":13600,"station_id":"ce4bh112rcd13ifvqda0","pricing_plan_id":"free"},{"bike_id":"fde9a637-42df-4e9d-bd83-54354a09420c","system_id":"levelo_inurba_marseille","lat":43.30642,"lon":5.401031,"is_reserved":false,"is_disabled":false,"rental_uris":{"android":"levelo://app?vid=fde9a637-42df-4e9d-bd83-54354a09420c","ios":"levelo://app?vid=fde9a637-42df-4e9d-bd83-54354a09420c"},"vehicle_type_id":"4","last_reported":1687446560,"current_range_meters":4000,"station_id":"ce4bh112rcd13ifvqda0","pricing_plan_id":"free"},{"bike_id":"d74474a7-d1ea-4940-94c7-db1e07163ef0","system_id":"levelo_inurba_marseille","lat":43.337726,"lon":5.374674,"is_reserved":false,"is_disabled":false,"rental_uris":{"android":"levelo://app?vid=d74474a7-d1ea-4940-94c7-db1e07163ef0","ios":"levelo://app?vid=d74474a7-d1ea-4940-94c7-db1e07163ef0"},"vehicle_type_id":"4","last_reported":1687446560,"current_range_meters":12000,"station_id":"","pricing_plan_id":"free"},{"bike_id":"9fd818fe-b2ac-4983-9f4a-c89a2424a56f","system_id":"levelo_inurba_marseille","lat":43.301117,"lon":5.398795,"is_reserved":false,"is_disabled":false,"rental_uris":{"android":"levelo://app?vid=9fd818fe-b2ac-4983-9f4a-c89a2424a56f","ios":"levelo://app?vid=9fd818fe-b2ac-4983-9f4a-c89a2424a56f"},"vehicle_type_id":"4","last_reported":1687446560,"current_range_meters":27600,"station_id":"ce4bh0h2rcd13ifvqd40","pricing_plan_id":"free"},{"bike_id":"cd7cc60b-d41d-4322-8cf6-6104dcc35bee","system_id":"levelo_inurba_marseille","lat":43.286591,"lon":5.363346,"is_reserved":false,"is_disabled":false,"rental_uris":{"android":"levelo://app?vid=cd7cc60b-d41d-4322-8cf6-6104dcc35bee","ios":"levelo://app?vid=cd7cc60b-d41d-4322-8cf6-6104dcc35bee"},"vehicle_type_id":"4","last_reported":1687446560,"current_range_meters":30400,"station_id":"ce4bhah2rcd13ifvqej0","pricing_plan_id":"free"},{"bike_id":"ca243649-ecd3-466a-b308-adfd4d9cc50c","system_id":"levelo_inurba_marseille","lat":43.295196,"lon":5.39397,"is_reserved":false,"is_disabled":false,"rental_uris":{"android":"levelo://app?vid=ca243649-ecd3-466a-b308-adfd4d9cc50c","ios":"levelo://app?vid=ca243649-ecd3-466a-b308-adfd4d9cc50c"},"vehicle_type_id":"4","last_reported":1687446560,"current_range_meters":7200,"station_id":"ce4bh292rcd13ifvqdf0","pricing_plan_id":"free"},{"bike_id":"9ed0df23-39b2-4987-b4f4-d85af016702f","system_id":"levelo_inurba_marseille","lat":43.302759,"lon":5.400793,"is_reserved":false,"is_disabled":false,"rental_uris":{"android":"levelo://app?vid=9ed0df23-39b2-4987-b4f4-d85af016702f","ios":"levelo://app?vid=9ed0df23-39b2-4987-b4f4-d85af016702f"},"vehicle_type_id":"4","last_reported":1687446560,"current_range_meters":6800,"station_id":"ce4bgvh2rcd13ifvqcs0","pricing_plan_id":"free"},{"bike_id":"72726205-3c95-4d86-9f3d-11268f2a39e1","system_id":"levelo_inurba_marseille","lat":43.287184,"lon":5.37937,"is_reserved":false,"is_disabled":false,"rental_uris":{"android":"levelo://app?vid=72726205-3c95-4d86-9f3d-11268f2a39e1","ios":"levelo://app?vid=72726205-3c95-4d86-9f3d-11268f2a39e1"},"vehicle_type_id":"4","last_reported":1687446560,"current_range_meters":17200,"station_id":"ce4bh9p2rcd13ifvqec0","pricing_plan_id":"free"},{"bike_id":"f3aa63c3-29fb-49ae-95cf-ab506f812f5c","system_id":"levelo_inurba_marseille","lat":43.286039,"lon":5.370679,"is_reserved":false,"is_disabled":false,"rental_uris":{"android":"levelo://app?vid=f3aa63c3-29fb-49ae-95cf-ab506f812f5c","ios":"levelo://app?vid=f3aa63c3-29fb-49ae-95cf-ab506f812f5c"},"vehicle_type_id":"4","last_reported":1687446560,"current_range_meters":2800,"station_id":"ce4bht12rcd13ifvqi60","pricing_plan_id":"free"},{"bike_id":"9e497937-7d00-44f9-970e-a5e1da7caecf","system_id":"levelo_inurba_marseille","lat":43.287184,"lon":5.37937,"is_reserved":false,"is_disabled":false,"rental_uris":{"android":"levelo://app?vid=9e497937-7d00-44f9-970e-a5e1da7caecf","ios":"levelo://app?vid=9e497937-7d00-44f9-970e-a5e1da7caecf"},"vehicle_type_id":"4","last_reported":1687446560,"current_range_meters":15600,"station_id":"ce4bh9p2rcd13ifvqec0","pricing_plan_id":"free"},{"bike_id":"22f2afe1-0bb7-48f1-aaf7-9e299c6181fa","system_id":"levelo_inurba_marseille","lat":43.316523,"lon":5.404367,"is_reserved":false,"is_disabled":false,"rental_uris":{"android":"levelo://app?vid=22f2afe1-0bb7-48f1-aaf7-9e299c6181fa","ios":"levelo://app?vid=22f2afe1-0bb7-48f1-aaf7-9e299c6181fa"},"vehicle_type_id":"4","last_reported":1687446560,"current_range_meters":17600,"station_id":"ce4bh012rcd13ifvqd00","pricing_plan_id":"free"},{"bike_id":"68697afe-724c-4868-a093-57e275718f8c","system_id":"levelo_inurba_marseille","lat":43.316517,"lon":5.404375,"is_reserved":false,"is_disabled":false,"rental_uris":{"android":"levelo://app?vid=68697afe-724c-4868-a093-57e275718f8c","ios":"levelo://app?vid=68697afe-724c-4868-a093-57e275718f8c"},"vehicle_type_id":"4","last_reported":1687446560,"current_range_meters":14800,"station_id":"ce4bh012rcd13ifvqd00","pricing_plan_id":"free"},{"bike_id":"7b9d2688-4405-4fcc-89e7-455aaebb7f87","system_id":"levelo_inurba_marseille","lat":43.316523,"lon":5.404367,"is_reserved":false,"is_disabled":false,"rental_uris":{"android":"levelo://app?vid=7b9d2688-4405-4fcc-89e7-455aaebb7f87","ios":"levelo://app?vid=7b9d2688-4405-4fcc-89e7-455aaebb7f87"},"vehicle_type_id":"4","last_reported":1687446560,"current_range_meters":5600,"station_id":"ce4bh012rcd13ifvqd00","pricing_plan_id":"free"},{"bike_id":"5c15edaa-2c7a-4481-8d92-257139932805","system_id":"levelo_inurba_marseille","lat":43.284534,"lon":5.358662,"is_reserved":false,"is_disabled":false,"rental_uris":{"android":"levelo://app?vid=5c15edaa-2c7a-4481-8d92-257139932805","ios":"levelo://app?vid=5c15edaa-2c7a-4481-8d92-257139932805"},"vehicle_type_id":"4","last_reported":1687446560,"current_range_meters":26400,"station_id":"ce4bhah2rcd13ifvqei0","pricing_plan_id":"free"},{"bike_id":"96b6c881-c699-45d0-9ee7-6de6a8f3ab8e","system_id":"levelo_inurba_marseille","lat":43.284534,"lon":5.358662,"is_reserved":false,"is_disabled":false,"rental_uris":{"android":"levelo://app?vid=96b6c881-c699-45d0-9ee7-6de6a8f3ab8e","ios":"levelo://app?vid=96b6c881-c699-45d0-9ee7-6de6a8f3ab8e"},"vehicle_type_id":"4","last_reported":1687446560,"current_range_meters":11200,"station_id":"ce4bhah2rcd13ifvqei0","pricing_plan_id":"free"},{"bike_id":"37aae3df-d73b-479d-8ba8-bd8127808a93","system_id":"levelo_inurba_marseille","lat":43.284534,"lon":5.358662,"is_reserved":false,"is_disabled":false,"rental_uris":{"android":"levelo://app?vid=37aae3df-d73b-479d-8ba8-bd8127808a93","ios":"levelo://app?vid=37aae3df-d73b-479d-8ba8-bd8127808a93"},"vehicle_type_id":"4","last_reported":1687446560,"current_range_meters":31200,"station_id":"ce4bhah2rcd13ifvqei0","pricing_plan_id":"free"},{"bike_id":"284a45aa-f927-4fe0-90b1-940a485be2fd","system_id":"levelo_inurba_marseille","lat":43.28623,"lon":5.35115,"is_reserved":false,"is_disabled":false,"rental_uris":{"android":"levelo://app?vid=284a45aa-f927-4fe0-90b1-940a485be2fd","ios":"levelo://app?vid=284a45aa-f927-4fe0-90b1-940a485be2fd"},"vehicle_type_id":"4","last_reported":1687446560,"current_range_meters":31200,"station_id":"ce4bhch2rcd13ifvqeug","pricing_plan_id":"free"},{"bike_id":"8eb28708-2b36-4d40-bed9-1e9a9e4513c1","system_id":"levelo_inurba_marseille","lat":43.2862,"lon":5.35108,"is_reserved":false,"is_disabled":false,"rental_uris":{"android":"levelo://app?vid=8eb28708-2b36-4d40-bed9-1e9a9e4513c1","ios":"levelo://app?vid=8eb28708-2b36-4d40-bed9-1e9a9e4513c1"},"vehicle_type_id":"4","last_reported":1687446560,"current_range_meters":800,"station_id":"ce4bhch2rcd13ifvqeug","pricing_plan_id":"free"},{"bike_id":"a9e3a32b-e89b-4983-baea-ebccb96d5e5f","system_id":"levelo_inurba_marseille","lat":43.286142,"lon":5.351121,"is_reserved":false,"is_disabled":false,"rental_uris":{"android":"levelo://app?vid=a9e3a32b-e89b-4983-baea-ebccb96d5e5f","ios":"levelo://app?vid=a9e3a32b-e89b-4983-baea-ebccb96d5e5f"},"vehicle_type_id":"4","last_reported":1687446560,"current_range_meters":13600,"station_id":"ce4bhch2rcd13ifvqeug","pricing_plan_id":"free"},{"bike_id":"10fc331b-40b2-44df-ad4a-299aa69d1ddb","system_id":"levelo_inurba_marseille","lat":43.283998,"lon":5.375062,"is_reserved":false,"is_disabled":false,"rental_uris":{"android":"levelo://app?vid=10fc331b-40b2-44df-ad4a-299aa69d1ddb","ios":"levelo://app?vid=10fc331b-40b2-44df-ad4a-299aa69d1ddb"},"vehicle_type_id":"4","last_reported":1687446560,"current_range_meters":23600,"station_id":"ce4bh412rcd13ifvqds0","pricing_plan_id":"free"},{"bike_id":"f2cb2388-7cd8-4de2-aed1-c00d7e94e4d9","system_id":"levelo_inurba_marseille","lat":43.295713,"lon":5.399639,"is_reserved":false,"is_disabled":false,"rental_uris":{"android":"levelo://app?vid=f2cb2388-7cd8-4de2-aed1-c00d7e94e4d9","ios":"levelo://app?vid=f2cb2388-7cd8-4de2-aed1-c00d7e94e4d9"},"vehicle_type_id":"4","last_reported":1687446560,"current_range_meters":14400,"station_id":"ce4bh312rcd13ifvqdj0","pricing_plan_id":"free"},{"bike_id":"04d15189-fa75-4f26-9369-786c1fc4427c","system_id":"levelo_inurba_marseille","lat":43.28403,"lon":5.375,"is_reserved":false,"is_disabled":false,"rental_uris":{"android":"levelo://app?vid=04d15189-fa75-4f26-9369-786c1fc4427c","ios":"levelo://app?vid=04d15189-fa75-4f26-9369-786c1fc4427c"},"vehicle_type_id":"4","last_reported":1687446560,"current_range_meters":24800,"station_id":"ce4bh412rcd13ifvqds0","pricing_plan_id":"free"},{"bike_id":"f6fda2f2-04f1-4377-bae3-2fc212d95c47","system_id":"levelo_inurba_marseille","lat":43.3422,"lon":5.36213,"is_reserved":false,"is_disabled":false,"rental_uris":{"android":"levelo://app?vid=f6fda2f2-04f1-4377-bae3-2fc212d95c47","ios":"levelo://app?vid=f6fda2f2-04f1-4377-bae3-2fc212d95c47"},"vehicle_type_id":"4","last_reported":1687446560,"current_range_meters":800,"station_id":"","pricing_plan_id":"free"},{"bike_id":"ba8cb97a-9761-481e-8cde-764a004af740","system_id":"levelo_inurba_marseille","lat":43.286595,"lon":5.386795,"is_reserved":false,"is_disabled":false,"rental_uris":{"android":"levelo://app?vid=ba8cb97a-9761-481e-8cde-764a004af740","ios":"levelo://app?vid=ba8cb97a-9761-481e-8cde-764a004af740"},"vehicle_type_id":"4","last_reported":1687446560,"current_range_meters":23600,"station_id":"ce4bh492rcd13ifvqdug","pricing_plan_id":"free"},{"bike_id":"69611f83-0041-4f61-a592-f803d1a4f0d5","system_id":"levelo_inurba_marseille","lat":43.286595,"lon":5.386795,"is_reserved":false,"is_disabled":false,"rental_uris":{"android":"levelo://app?vid=69611f83-0041-4f61-a592-f803d1a4f0d5","ios":"levelo://app?vid=69611f83-0041-4f61-a592-f803d1a4f0d5"},"vehicle_type_id":"4","last_reported":1687446560,"current_range_meters":4400,"station_id":"ce4bh492rcd13ifvqdug","pricing_plan_id":"free"},{"bike_id":"12b45373-f60c-451a-9c96-185c6ffc675a","system_id":"levelo_inurba_marseille","lat":43.323464,"lon":5.406297,"is_reserved":false,"is_disabled":false,"rental_uris":{"android":"levelo://app?vid=12b45373-f60c-451a-9c96-185c6ffc675a","ios":"levelo://app?vid=12b45373-f60c-451a-9c96-185c6ffc675a"},"vehicle_type_id":"4","last_reported":1687446560,"current_range_meters":31600,"station_id":"ce4bhq92rcd13ifvqhjg","pricing_plan_id":"free"},{"bike_id":"9cdbf4b4-9eb6-4c2b-a340-39610fc02d49","system_id":"levelo_inurba_marseille","lat":43.323464,"lon":5.406297,"is_reserved":false,"is_disabled":false,"rental_uris":{"android":"levelo://app?vid=9cdbf4b4-9eb6-4c2b-a340-39610fc02d49","ios":"levelo://app?vid=9cdbf4b4-9eb6-4c2b-a340-39610fc02d49"},"vehicle_type_id":"4","last_reported":1687446560,"current_range_meters":22800,"station_id":"ce4bhq92rcd13ifvqhjg","pricing_plan_id":"free"},{"bike_id":"66618d6b-708e-4edf-af5d-d0c52471fcff","system_id":"levelo_inurba_marseille","lat":43.323464,"lon":5.406297,"is_reserved":false,"is_disabled":false,"rental_uris":{"android":"levelo://app?vid=66618d6b-708e-4edf-af5d-d0c52471fcff","ios":"levelo://app?vid=66618d6b-708e-4edf-af5d-d0c52471fcff"},"vehicle_type_id":"4","last_reported":1687446560,"current_range_meters":8400,"station_id":"ce4bhq92rcd13ifvqhjg","pricing_plan_id":"free"},{"bike_id":"b4c950db-352f-4a1a-8e3c-c05101a6dad0","system_id":"levelo_inurba_marseille","lat":43.288497,"lon":5.393089,"is_reserved":false,"is_disabled":false,"rental_uris":{"android":"levelo://app?vid=b4c950db-352f-4a1a-8e3c-c05101a6dad0","ios":"levelo://app?vid=b4c950db-352f-4a1a-8e3c-c05101a6dad0"},"vehicle_type_id":"4","last_reported":1687446560,"current_range_meters":30400,"station_id":"ce4bh2p2rcd13ifvqdi0","pricing_plan_id":"free"},{"bike_id":"fdf33776-3ddc-4b1e-84bb-5ad9794fcf26","system_id":"levelo_inurba_marseille","lat":43.283494,"lon":5.380945,"is_reserved":false,"is_disabled":false,"rental_uris":{"android":"levelo://app?vid=fdf33776-3ddc-4b1e-84bb-5ad9794fcf26","ios":"levelo://app?vid=fdf33776-3ddc-4b1e-84bb-5ad9794fcf26"},"vehicle_type_id":"4","last_reported":1687446560,"current_range_meters":30000,"station_id":"ce4bh412rcd13ifvqdr0","pricing_plan_id":"free"},{"bike_id":"d66ea138-e37e-4c47-9721-f5f0c3a18f42","system_id":"levelo_inurba_marseille","lat":43.2842,"lon":5.34988,"is_reserved":false,"is_disabled":false,"rental_uris":{"android":"levelo://app?vid=d66ea138-e37e-4c47-9721-f5f0c3a18f42","ios":"levelo://app?vid=d66ea138-e37e-4c47-9721-f5f0c3a18f42"},"vehicle_type_id":"4","last_reported":1687446560,"current_range_meters":31200,"station_id":"ce4bhbh2rcd13ifvqepg","pricing_plan_id":"free"},{"bike_id":"fa989877-752e-4f60-b55c-e7664f4ad75f","system_id":"levelo_inurba_marseille","lat":43.28421,"lon":5.34977,"is_reserved":false,"is_disabled":false,"rental_uris":{"android":"levelo://app?vid=fa989877-752e-4f60-b55c-e7664f4ad75f","ios":"levelo://app?vid=fa989877-752e-4f60-b55c-e7664f4ad75f"},"vehicle_type_id":"4","last_reported":1687446560,"current_range_meters":28000,"station_id":"ce4bhbh2rcd13ifvqepg","pricing_plan_id":"free"},{"bike_id":"efea3996-08eb-416d-8b37-d836bd62d6a8","system_id":"levelo_inurba_marseille","lat":43.28416,"lon":5.3499,"is_reserved":false,"is_disabled":false,"rental_uris":{"android":"levelo://app?vid=efea3996-08eb-416d-8b37-d836bd62d6a8","ios":"levelo://app?vid=efea3996-08eb-416d-8b37-d836bd62d6a8"},"vehicle_type_id":"4","last_reported":1687446560,"current_range_meters":31200,"station_id":"ce4bhbh2rcd13ifvqepg","pricing_plan_id":"free"},{"bike_id":"0a9ad9ae-5333-4805-8717-51443d4dc447","system_id":"levelo_inurba_marseille","lat":43.284217,"lon":5.349697,"is_reserved":false,"is_disabled":false,"rental_uris":{"android":"levelo://app?vid=0a9ad9ae-5333-4805-8717-51443d4dc447","ios":"levelo://app?vid=0a9ad9ae-5333-4805-8717-51443d4dc447"},"vehicle_type_id":"4","last_reported":1687446560,"current_range_meters":31600,"station_id":"ce4bhbh2rcd13ifvqepg","pricing_plan_id":"free"},{"bike_id":"2107ed21-3d29-4e1e-ab7c-776e8c7d99d0","system_id":"levelo_inurba_marseille","lat":43.2842,"lon":5.34976,"is_reserved":false,"is_disabled":false,"rental_uris":{"android":"levelo://app?vid=2107ed21-3d29-4e1e-ab7c-776e8c7d99d0","ios":"levelo://app?vid=2107ed21-3d29-4e1e-ab7c-776e8c7d99d0"},"vehicle_type_id":"4","last_reported":1687446560,"current_range_meters":29600,"station_id":"ce4bhbh2rcd13ifvqepg","pricing_plan_id":"free"},{"bike_id":"7d19eedb-6976-4964-bbdd-c38c4ae81069","system_id":"levelo_inurba_marseille","lat":43.28419,"lon":5.34978,"is_reserved":false,"is_disabled":false,"rental_uris":{"android":"levelo://app?vid=7d19eedb-6976-4964-bbdd-c38c4ae81069","ios":"levelo://app?vid=7d19eedb-6976-4964-bbdd-c38c4ae81069"},"vehicle_type_id":"4","last_reported":1687446560,"current_range_meters":24400,"station_id":"ce4bhbh2rcd13ifvqepg","pricing_plan_id":"free"},{"bike_id":"43d114cc-db39-41eb-a810-fb1eea293316","system_id":"levelo_inurba_marseille","lat":43.284217,"lon":5.349697,"is_reserved":false,"is_disabled":false,"rental_uris":{"android":"levelo://app?vid=43d114cc-db39-41eb-a810-fb1eea293316","ios":"levelo://app?vid=43d114cc-db39-41eb-a810-fb1eea293316"},"vehicle_type_id":"4","last_reported":1687446560,"current_range_meters":31200,"station_id":"ce4bhbh2rcd13ifvqepg","pricing_plan_id":"free"},{"bike_id":"78695999-bf51-4ba4-85e4-58c95e5e69df","system_id":"levelo_inurba_marseille","lat":43.284217,"lon":5.349697,"is_reserved":false,"is_disabled":false,"rental_uris":{"android":"levelo://app?vid=78695999-bf51-4ba4-85e4-58c95e5e69df","ios":"levelo://app?vid=78695999-bf51-4ba4-85e4-58c95e5e69df"},"vehicle_type_id":"4","last_reported":1687446560,"current_range_meters":31200,"station_id":"ce4bhbh2rcd13ifvqepg","pricing_plan_id":"free"},{"bike_id":"6356e00e-2367-4a26-88f7-8fa525cc0fcb","system_id":"levelo_inurba_marseille","lat":43.284217,"lon":5.349697,"is_reserved":false,"is_disabled":false,"rental_uris":{"android":"levelo://app?vid=6356e00e-2367-4a26-88f7-8fa525cc0fcb","ios":"levelo://app?vid=6356e00e-2367-4a26-88f7-8fa525cc0fcb"},"vehicle_type_id":"4","last_reported":1687446560,"current_range_meters":16400,"station_id":"ce4bhbh2rcd13ifvqepg","pricing_plan_id":"free"},{"bike_id":"a9ab003f-dd0b-477d-af42-9916e3e20211","system_id":"levelo_inurba_marseille","lat":43.284217,"lon":5.349697,"is_reserved":false,"is_disabled":false,"rental_uris":{"android":"levelo://app?vid=a9ab003f-dd0b-477d-af42-9916e3e20211","ios":"levelo://app?vid=a9ab003f-dd0b-477d-af42-9916e3e20211"},"vehicle_type_id":"4","last_reported":1687446560,"current_range_meters":28000,"station_id":"ce4bhbh2rcd13ifvqepg","pricing_plan_id":"free"},{"bike_id":"5ac7441b-13aa-4014-aa22-406a68e87427","system_id":"levelo_inurba_marseille","lat":43.284149,"lon":5.349731,"is_reserved":false,"is_disabled":false,"rental_uris":{"android":"levelo://app?vid=5ac7441b-13aa-4014-aa22-406a68e87427","ios":"levelo://app?vid=5ac7441b-13aa-4014-aa22-406a68e87427"},"vehicle_type_id":"4","last_reported":1687446560,"current_range_meters":16800,"station_id":"ce4bhbh2rcd13ifvqepg","pricing_plan_id":"free"},{"bike_id":"01f86a73-f136-44ca-b3bd-99d4a90b9026","system_id":"levelo_inurba_marseille","lat":43.284217,"lon":5.349697,"is_reserved":false,"is_disabled":false,"rental_uris":{"android":"levelo://app?vid=01f86a73-f136-44ca-b3bd-99d4a90b9026","ios":"levelo://app?vid=01f86a73-f136-44ca-b3bd-99d4a90b9026"},"vehicle_type_id":"4","last_reported":1687446560,"current_range_meters":25200,"station_id":"ce4bhbh2rcd13ifvqepg","pricing_plan_id":"free"},{"bike_id":"b91f6a7f-acf7-433f-848e-a049932c5462","system_id":"levelo_inurba_marseille","lat":43.284217,"lon":5.349697,"is_reserved":false,"is_disabled":false,"rental_uris":{"android":"levelo://app?vid=b91f6a7f-acf7-433f-848e-a049932c5462","ios":"levelo://app?vid=b91f6a7f-acf7-433f-848e-a049932c5462"},"vehicle_type_id":"4","last_reported":1687446560,"current_range_meters":31200,"station_id":"ce4bhbh2rcd13ifvqepg","pricing_plan_id":"free"},{"bike_id":"798ff125-43bd-4d30-bb2a-a7d48a1e8283","system_id":"levelo_inurba_marseille","lat":43.284142,"lon":5.349733,"is_reserved":false,"is_disabled":false,"rental_uris":{"android":"levelo://app?vid=798ff125-43bd-4d30-bb2a-a7d48a1e8283","ios":"levelo://app?vid=798ff125-43bd-4d30-bb2a-a7d48a1e8283"},"vehicle_type_id":"4","last_reported":1687446560,"current_range_meters":28000,"station_id":"ce4bhbh2rcd13ifvqepg","pricing_plan_id":"free"},{"bike_id":"7f2b9f43-5b36-4e58-a57d-c6b764c1c037","system_id":"levelo_inurba_marseille","lat":43.284217,"lon":5.349697,"is_reserved":false,"is_disabled":false,"rental_uris":{"android":"levelo://app?vid=7f2b9f43-5b36-4e58-a57d-c6b764c1c037","ios":"levelo://app?vid=7f2b9f43-5b36-4e58-a57d-c6b764c1c037"},"vehicle_type_id":"4","last_reported":1687446560,"current_range_meters":18000,"station_id":"ce4bhbh2rcd13ifvqepg","pricing_plan_id":"free"},{"bike_id":"aafa6f3c-4974-46e9-9f83-b59031455ef9","system_id":"levelo_inurba_marseille","lat":43.28412,"lon":5.349792,"is_reserved":false,"is_disabled":false,"rental_uris":{"android":"levelo://app?vid=aafa6f3c-4974-46e9-9f83-b59031455ef9","ios":"levelo://app?vid=aafa6f3c-4974-46e9-9f83-b59031455ef9"},"vehicle_type_id":"4","last_reported":1687446560,"current_range_meters":23600,"station_id":"ce4bhbh2rcd13ifvqepg","pricing_plan_id":"free"},{"bike_id":"8f870e7d-396f-422d-a8af-260f71aab4a1","system_id":"levelo_inurba_marseille","lat":43.282953,"lon":5.350888,"is_reserved":false,"is_disabled":false,"rental_uris":{"android":"levelo://app?vid=8f870e7d-396f-422d-a8af-260f71aab4a1","ios":"levelo://app?vid=8f870e7d-396f-422d-a8af-260f71aab4a1"},"vehicle_type_id":"4","last_reported":1687446560,"current_range_meters":0,"station_id":"ce4bhbp2rcd13ifvqerg","pricing_plan_id":"free"},{"bike_id":"d86b5c4e-58c7-4f3e-b021-a188b0a234e7","system_id":"levelo_inurba_marseille","lat":43.28277,"lon":5.35058,"is_reserved":false,"is_disabled":false,"rental_uris":{"android":"levelo://app?vid=d86b5c4e-58c7-4f3e-b021-a188b0a234e7","ios":"levelo://app?vid=d86b5c4e-58c7-4f3e-b021-a188b0a234e7"},"vehicle_type_id":"4","last_reported":1687446560,"current_range_meters":13600,"station_id":"ce4bhbp2rcd13ifvqerg","pricing_plan_id":"free"},{"bike_id":"74d51b56-dde2-40c6-a22c-b8d34695f485","system_id":"levelo_inurba_marseille","lat":43.28269,"lon":5.35076,"is_reserved":false,"is_disabled":false,"rental_uris":{"android":"levelo://app?vid=74d51b56-dde2-40c6-a22c-b8d34695f485","ios":"levelo://app?vid=74d51b56-dde2-40c6-a22c-b8d34695f485"},"vehicle_type_id":"4","last_reported":1687446560,"current_range_meters":0,"station_id":"ce4bhbp2rcd13ifvqerg","pricing_plan_id":"free"},{"bike_id":"14ead247-11bc-43d1-a9c0-16120214d076","system_id":"levelo_inurba_marseille","lat":43.282744,"lon":5.350533,"is_reserved":false,"is_disabled":false,"rental_uris":{"android":"levelo://app?vid=14ead247-11bc-43d1-a9c0-16120214d076","ios":"levelo://app?vid=14ead247-11bc-43d1-a9c0-16120214d076"},"vehicle_type_id":"4","last_reported":1687446560,"current_range_meters":31200,"station_id":"ce4bhbp2rcd13ifvqerg","pricing_plan_id":"free"},{"bike_id":"40b0845d-64e4-4cf2-a617-66839388583d","system_id":"levelo_inurba_marseille","lat":43.28267,"lon":5.35076,"is_reserved":false,"is_disabled":false,"rental_uris":{"android":"levelo://app?vid=40b0845d-64e4-4cf2-a617-66839388583d","ios":"levelo://app?vid=40b0845d-64e4-4cf2-a617-66839388583d"},"vehicle_type_id":"4","last_reported":1687446560,"current_range_meters":0,"station_id":"ce4bhbp2rcd13ifvqerg","pricing_plan_id":"free"},{"bike_id":"669fab05-b927-48fb-b822-361fd92de062","system_id":"levelo_inurba_marseille","lat":43.2827,"lon":5.35061,"is_reserved":false,"is_disabled":false,"rental_uris":{"android":"levelo://app?vid=669fab05-b927-48fb-b822-361fd92de062","ios":"levelo://app?vid=669fab05-b927-48fb-b822-361fd92de062"},"vehicle_type_id":"4","last_reported":1687446560,"current_range_meters":21600,"station_id":"ce4bhbp2rcd13ifvqerg","pricing_plan_id":"free"},{"bike_id":"614ae049-a3ed-4f80-ac41-24e5b41d42bc","system_id":"levelo_inurba_marseille","lat":43.28269,"lon":5.35058,"is_reserved":false,"is_disabled":false,"rental_uris":{"android":"levelo://app?vid=614ae049-a3ed-4f80-ac41-24e5b41d42bc","ios":"levelo://app?vid=614ae049-a3ed-4f80-ac41-24e5b41d42bc"},"vehicle_type_id":"4","last_reported":1687446560,"current_range_meters":4800,"station_id":"ce4bhbp2rcd13ifvqerg","pricing_plan_id":"free"},{"bike_id":"c04d20fe-dbf8-49dd-be51-d9d2302349fa","system_id":"levelo_inurba_marseille","lat":43.28266,"lon":5.35066,"is_reserved":false,"is_disabled":false,"rental_uris":{"android":"levelo://app?vid=c04d20fe-dbf8-49dd-be51-d9d2302349fa","ios":"levelo://app?vid=c04d20fe-dbf8-49dd-be51-d9d2302349fa"},"vehicle_type_id":"4","last_reported":1687446560,"current_range_meters":23600,"station_id":"","pricing_plan_id":"free"},{"bike_id":"98b4b9d3-95bb-437c-a4ea-42c032d21a8f","system_id":"levelo_inurba_marseille","lat":43.282744,"lon":5.350533,"is_reserved":false,"is_disabled":false,"rental_uris":{"android":"levelo://app?vid=98b4b9d3-95bb-437c-a4ea-42c032d21a8f","ios":"levelo://app?vid=98b4b9d3-95bb-437c-a4ea-42c032d21a8f"},"vehicle_type_id":"4","last_reported":1687446560,"current_range_meters":12000,"station_id":"ce4bhbp2rcd13ifvqerg","pricing_plan_id":"free"},{"bike_id":"5cb18544-b58e-490b-b81e-21a68879f71d","system_id":"levelo_inurba_marseille","lat":43.2826,"lon":5.35085,"is_reserved":false,"is_disabled":false,"rental_uris":{"android":"levelo://app?vid=5cb18544-b58e-490b-b81e-21a68879f71d","ios":"levelo://app?vid=5cb18544-b58e-490b-b81e-21a68879f71d"},"vehicle_type_id":"4","last_reported":1687446560,"current_range_meters":4800,"station_id":"","pricing_plan_id":"free"},{"bike_id":"aa534883-dfd7-4dfc-b8d2-9a7dbfd5873a","system_id":"levelo_inurba_marseille","lat":43.28261,"lon":5.35078,"is_reserved":false,"is_disabled":false,"rental_uris":{"android":"levelo://app?vid=aa534883-dfd7-4dfc-b8d2-9a7dbfd5873a","ios":"levelo://app?vid=aa534883-dfd7-4dfc-b8d2-9a7dbfd5873a"},"vehicle_type_id":"4","last_reported":1687446560,"current_range_meters":28800,"station_id":"ce4bhbp2rcd13ifvqerg","pricing_plan_id":"free"},{"bike_id":"e97ceeac-76e9-45b8-b0eb-43d9ca40606f","system_id":"levelo_inurba_marseille","lat":43.282744,"lon":5.350533,"is_reserved":false,"is_disabled":false,"rental_uris":{"android":"levelo://app?vid=e97ceeac-76e9-45b8-b0eb-43d9ca40606f","ios":"levelo://app?vid=e97ceeac-76e9-45b8-b0eb-43d9ca40606f"},"vehicle_type_id":"4","last_reported":1687446560,"current_range_meters":18000,"station_id":"ce4bhbp2rcd13ifvqerg","pricing_plan_id":"free"},{"bike_id":"4cce0fdf-c277-4f71-b53d-cdadbeb8933b","system_id":"levelo_inurba_marseille","lat":43.28262,"lon":5.35072,"is_reserved":false,"is_disabled":false,"rental_uris":{"android":"levelo://app?vid=4cce0fdf-c277-4f71-b53d-cdadbeb8933b","ios":"levelo://app?vid=4cce0fdf-c277-4f71-b53d-cdadbeb8933b"},"vehicle_type_id":"4","last_reported":1687446560,"current_range_meters":10400,"station_id":"ce4bhbp2rcd13ifvqerg","pricing_plan_id":"free"},{"bike_id":"56d5e1bd-7d80-468d-b831-e32c6a016868","system_id":"levelo_inurba_marseille","lat":43.28261,"lon":5.35073,"is_reserved":false,"is_disabled":false,"rental_uris":{"android":"levelo://app?vid=56d5e1bd-7d80-468d-b831-e32c6a016868","ios":"levelo://app?vid=56d5e1bd-7d80-468d-b831-e32c6a016868"},"vehicle_type_id":"4","last_reported":1687446560,"current_range_meters":21200,"station_id":"ce4bhbp2rcd13ifvqerg","pricing_plan_id":"free"},{"bike_id":"73db6fca-72ae-454d-8222-7159b601dd09","system_id":"levelo_inurba_marseille","lat":43.28255,"lon":5.35067,"is_reserved":false,"is_disabled":false,"rental_uris":{"android":"levelo://app?vid=73db6fca-72ae-454d-8222-7159b601dd09","ios":"levelo://app?vid=73db6fca-72ae-454d-8222-7159b601dd09"},"vehicle_type_id":"4","last_reported":1687446560,"current_range_meters":8400,"station_id":"ce4bhbp2rcd13ifvqerg","pricing_plan_id":"free"},{"bike_id":"15fa2ba1-fe06-40b3-9645-f51dfdbeb207","system_id":"levelo_inurba_marseille","lat":43.280382,"lon":5.369291,"is_reserved":false,"is_disabled":false,"rental_uris":{"android":"levelo://app?vid=15fa2ba1-fe06-40b3-9645-f51dfdbeb207","ios":"levelo://app?vid=15fa2ba1-fe06-40b3-9645-f51dfdbeb207"},"vehicle_type_id":"4","last_reported":1687446560,"current_range_meters":31200,"station_id":"ce4bha12rcd13ifvqef0","pricing_plan_id":"free"},{"bike_id":"f701703d-e046-46e2-a460-205c558b0e11","system_id":"levelo_inurba_marseille","lat":43.290426,"lon":5.399584,"is_reserved":false,"is_disabled":false,"rental_uris":{"android":"levelo://app?vid=f701703d-e046-46e2-a460-205c558b0e11","ios":"levelo://app?vid=f701703d-e046-46e2-a460-205c558b0e11"},"vehicle_type_id":"4","last_reported":1687446560,"current_range_meters":0,"station_id":"","pricing_plan_id":"free"},{"bike_id":"6e2becd5-68a2-4070-a16e-51025cb90792","system_id":"levelo_inurba_marseille","lat":43.290412,"lon":5.399633,"is_reserved":false,"is_disabled":false,"rental_uris":{"android":"levelo://app?vid=6e2becd5-68a2-4070-a16e-51025cb90792","ios":"levelo://app?vid=6e2becd5-68a2-4070-a16e-51025cb90792"},"vehicle_type_id":"4","last_reported":1687446560,"current_range_meters":13600,"station_id":"ce4bh392rcd13ifvqdm0","pricing_plan_id":"free"},{"bike_id":"882cca3b-734a-4847-8c84-7789dc7f3813","system_id":"levelo_inurba_marseille","lat":43.296263,"lon":5.40601,"is_reserved":false,"is_disabled":false,"rental_uris":{"android":"levelo://app?vid=882cca3b-734a-4847-8c84-7789dc7f3813","ios":"levelo://app?vid=882cca3b-734a-4847-8c84-7789dc7f3813"},"vehicle_type_id":"4","last_reported":1687446560,"current_range_meters":12000,"station_id":"ce4bh0h2rcd13ifvqd60","pricing_plan_id":"free"},{"bike_id":"3cd10ad7-a316-4ed6-a3d9-f31d3f3622ac","system_id":"levelo_inurba_marseille","lat":43.3447,"lon":5.37776,"is_reserved":false,"is_disabled":false,"rental_uris":{"android":"levelo://app?vid=3cd10ad7-a316-4ed6-a3d9-f31d3f3622ac","ios":"levelo://app?vid=3cd10ad7-a316-4ed6-a3d9-f31d3f3622ac"},"vehicle_type_id":"4","last_reported":1687446560,"current_range_meters":5200,"station_id":"","pricing_plan_id":"free"},{"bike_id":"ff60adae-f71a-4e2f-9c03-c28e9ecc3c45","system_id":"levelo_inurba_marseille","lat":43.32728,"lon":5.4077,"is_reserved":false,"is_disabled":false,"rental_uris":{"android":"levelo://app?vid=ff60adae-f71a-4e2f-9c03-c28e9ecc3c45","ios":"levelo://app?vid=ff60adae-f71a-4e2f-9c03-c28e9ecc3c45"},"vehicle_type_id":"4","last_reported":1687446560,"current_range_meters":14400,"station_id":"","pricing_plan_id":"free"},{"bike_id":"aad6ef24-63b0-4b37-9ebf-7ea3dfe799de","system_id":"levelo_inurba_marseille","lat":43.28444,"lon":5.39181,"is_reserved":false,"is_disabled":false,"rental_uris":{"android":"levelo://app?vid=aad6ef24-63b0-4b37-9ebf-7ea3dfe799de","ios":"levelo://app?vid=aad6ef24-63b0-4b37-9ebf-7ea3dfe799de"},"vehicle_type_id":"4","last_reported":1687446560,"current_range_meters":0,"station_id":"ce4bhoh2rcd13ifvqh5g","pricing_plan_id":"free"},{"bike_id":"c2642c15-2ad6-49f8-b94a-f7d900d277b3","system_id":"levelo_inurba_marseille","lat":43.285742,"lon":5.395004,"is_reserved":false,"is_disabled":false,"rental_uris":{"android":"levelo://app?vid=c2642c15-2ad6-49f8-b94a-f7d900d277b3","ios":"levelo://app?vid=c2642c15-2ad6-49f8-b94a-f7d900d277b3"},"vehicle_type_id":"4","last_reported":1687446560,"current_range_meters":17600,"station_id":"ce4bh292rcd13ifvqdg0","pricing_plan_id":"free"},{"bike_id":"80063b69-58d7-45b2-9599-f1cfec2549a4","system_id":"levelo_inurba_marseille","lat":43.285742,"lon":5.395004,"is_reserved":false,"is_disabled":false,"rental_uris":{"android":"levelo://app?vid=80063b69-58d7-45b2-9599-f1cfec2549a4","ios":"levelo://app?vid=80063b69-58d7-45b2-9599-f1cfec2549a4"},"vehicle_type_id":"4","last_reported":1687446560,"current_range_meters":30000,"station_id":"ce4bh292rcd13ifvqdg0","pricing_plan_id":"free"},{"bike_id":"546dda5f-b471-4bc2-b5d9-55bab3e43af0","system_id":"levelo_inurba_marseille","lat":43.32661,"lon":5.40978,"is_reserved":false,"is_disabled":false,"rental_uris":{"android":"levelo://app?vid=546dda5f-b471-4bc2-b5d9-55bab3e43af0","ios":"levelo://app?vid=546dda5f-b471-4bc2-b5d9-55bab3e43af0"},"vehicle_type_id":"4","last_reported":1687446560,"current_range_meters":29200,"station_id":"ce4bhpp2rcd13ifvqhgg","pricing_plan_id":"free"},{"bike_id":"fb25e0f1-b0e3-4da9-84c4-364e5027f457","system_id":"levelo_inurba_marseille","lat":43.3266,"lon":5.40984,"is_reserved":false,"is_disabled":false,"rental_uris":{"android":"levelo://app?vid=fb25e0f1-b0e3-4da9-84c4-364e5027f457","ios":"levelo://app?vid=fb25e0f1-b0e3-4da9-84c4-364e5027f457"},"vehicle_type_id":"4","last_reported":1687446560,"current_range_meters":26800,"station_id":"ce4bhpp2rcd13ifvqhgg","pricing_plan_id":"free"},{"bike_id":"68241cb3-62a0-4fe8-bb17-6018636123ac","system_id":"levelo_inurba_marseille","lat":43.32654,"lon":5.4099,"is_reserved":false,"is_disabled":false,"rental_uris":{"android":"levelo://app?vid=68241cb3-62a0-4fe8-bb17-6018636123ac","ios":"levelo://app?vid=68241cb3-62a0-4fe8-bb17-6018636123ac"},"vehicle_type_id":"4","last_reported":1687446560,"current_range_meters":22400,"station_id":"ce4bhpp2rcd13ifvqhgg","pricing_plan_id":"free"},{"bike_id":"8723e477-234a-4530-ad9f-b038f424cde0","system_id":"levelo_inurba_marseille","lat":43.32659,"lon":5.40991,"is_reserved":false,"is_disabled":false,"rental_uris":{"android":"levelo://app?vid=8723e477-234a-4530-ad9f-b038f424cde0","ios":"levelo://app?vid=8723e477-234a-4530-ad9f-b038f424cde0"},"vehicle_type_id":"4","last_reported":1687446560,"current_range_meters":11600,"station_id":"ce4bhpp2rcd13ifvqhgg","pricing_plan_id":"free"},{"bike_id":"ca7a0894-e511-4f97-bb05-aea8eecf0774","system_id":"levelo_inurba_marseille","lat":43.326565,"lon":5.409975,"is_reserved":false,"is_disabled":false,"rental_uris":{"android":"levelo://app?vid=ca7a0894-e511-4f97-bb05-aea8eecf0774","ios":"levelo://app?vid=ca7a0894-e511-4f97-bb05-aea8eecf0774"},"vehicle_type_id":"4","last_reported":1687446560,"current_range_meters":10800,"station_id":"ce4bhpp2rcd13ifvqhgg","pricing_plan_id":"free"},{"bike_id":"d45e5023-90d3-4bdb-ad61-fec6cb831f11","system_id":"levelo_inurba_marseille","lat":43.32635,"lon":5.41034,"is_reserved":false,"is_disabled":false,"rental_uris":{"android":"levelo://app?vid=d45e5023-90d3-4bdb-ad61-fec6cb831f11","ios":"levelo://app?vid=d45e5023-90d3-4bdb-ad61-fec6cb831f11"},"vehicle_type_id":"4","last_reported":1687446560,"current_range_meters":28800,"station_id":"","pricing_plan_id":"free"},{"bike_id":"dd772762-1f79-4eda-8041-eca67c79436e","system_id":"levelo_inurba_marseille","lat":43.304,"lon":5.41268,"is_reserved":false,"is_disabled":false,"rental_uris":{"android":"levelo://app?vid=dd772762-1f79-4eda-8041-eca67c79436e","ios":"levelo://app?vid=dd772762-1f79-4eda-8041-eca67c79436e"},"vehicle_type_id":"4","last_reported":1687446560,"current_range_meters":16800,"station_id":"","pricing_plan_id":"free"},{"bike_id":"12398442-242b-4e75-ae17-2040467cc6b4","system_id":"levelo_inurba_marseille","lat":43.3042,"lon":5.4128,"is_reserved":false,"is_disabled":false,"rental_uris":{"android":"levelo://app?vid=12398442-242b-4e75-ae17-2040467cc6b4","ios":"levelo://app?vid=12398442-242b-4e75-ae17-2040467cc6b4"},"vehicle_type_id":"4","last_reported":1687446560,"current_range_meters":2800,"station_id":"ce4bhop2rcd13ifvqh8g","pricing_plan_id":"free"},{"bike_id":"b86456f6-970d-4180-abac-e194e6a79e2f","system_id":"levelo_inurba_marseille","lat":43.30418,"lon":5.41285,"is_reserved":false,"is_disabled":false,"rental_uris":{"android":"levelo://app?vid=b86456f6-970d-4180-abac-e194e6a79e2f","ios":"levelo://app?vid=b86456f6-970d-4180-abac-e194e6a79e2f"},"vehicle_type_id":"4","last_reported":1687446560,"current_range_meters":31200,"station_id":"ce4bhop2rcd13ifvqh8g","pricing_plan_id":"free"},{"bike_id":"8389efe7-5dd6-44cf-9f07-8dd70099b154","system_id":"levelo_inurba_marseille","lat":43.30414,"lon":5.4129,"is_reserved":false,"is_disabled":false,"rental_uris":{"android":"levelo://app?vid=8389efe7-5dd6-44cf-9f07-8dd70099b154","ios":"levelo://app?vid=8389efe7-5dd6-44cf-9f07-8dd70099b154"},"vehicle_type_id":"4","last_reported":1687446560,"current_range_meters":19600,"station_id":"ce4bhop2rcd13ifvqh8g","pricing_plan_id":"free"},{"bike_id":"0d8da25e-5cc6-494f-a615-dd03497f5be9","system_id":"levelo_inurba_marseille","lat":43.304188,"lon":5.412904,"is_reserved":false,"is_disabled":false,"rental_uris":{"android":"levelo://app?vid=0d8da25e-5cc6-494f-a615-dd03497f5be9","ios":"levelo://app?vid=0d8da25e-5cc6-494f-a615-dd03497f5be9"},"vehicle_type_id":"4","last_reported":1687446560,"current_range_meters":26800,"station_id":"ce4bhop2rcd13ifvqh8g","pricing_plan_id":"free"},{"bike_id":"f47d889e-f3a7-4cf7-b89b-498d12032e77","system_id":"levelo_inurba_marseille","lat":43.2929,"lon":5.40667,"is_reserved":false,"is_disabled":false,"rental_uris":{"android":"levelo://app?vid=f47d889e-f3a7-4cf7-b89b-498d12032e77","ios":"levelo://app?vid=f47d889e-f3a7-4cf7-b89b-498d12032e77"},"vehicle_type_id":"4","last_reported":1687446560,"current_range_meters":13600,"station_id":"","pricing_plan_id":"free"},{"bike_id":"459ffa9f-8018-4a92-97ac-261ec22bab60","system_id":"levelo_inurba_marseille","lat":43.320045,"lon":5.415048,"is_reserved":false,"is_disabled":false,"rental_uris":{"android":"levelo://app?vid=459ffa9f-8018-4a92-97ac-261ec22bab60","ios":"levelo://app?vid=459ffa9f-8018-4a92-97ac-261ec22bab60"},"vehicle_type_id":"4","last_reported":1687446560,"current_range_meters":30800,"station_id":"ce4bhq92rcd13ifvqhkg","pricing_plan_id":"free"},{"bike_id":"33a55ff3-fa3b-493d-ad3b-c50091b945d6","system_id":"levelo_inurba_marseille","lat":43.31674,"lon":5.41604,"is_reserved":false,"is_disabled":false,"rental_uris":{"android":"levelo://app?vid=33a55ff3-fa3b-493d-ad3b-c50091b945d6","ios":"levelo://app?vid=33a55ff3-fa3b-493d-ad3b-c50091b945d6"},"vehicle_type_id":"4","last_reported":1687446560,"current_range_meters":22400,"station_id":"","pricing_plan_id":"free"},{"bike_id":"198f985f-aac9-4566-a5fe-349fe6f4ae53","system_id":"levelo_inurba_marseille","lat":43.320045,"lon":5.415046,"is_reserved":false,"is_disabled":false,"rental_uris":{"android":"levelo://app?vid=198f985f-aac9-4566-a5fe-349fe6f4ae53","ios":"levelo://app?vid=198f985f-aac9-4566-a5fe-349fe6f4ae53"},"vehicle_type_id":"4","last_reported":1687446560,"current_range_meters":29600,"station_id":"ce4bhq92rcd13ifvqhkg","pricing_plan_id":"free"},{"bike_id":"6b12a7d2-d177-4c0a-8ed5-6d985dd5fdd2","system_id":"levelo_inurba_marseille","lat":43.320045,"lon":5.415048,"is_reserved":false,"is_disabled":false,"rental_uris":{"android":"levelo://app?vid=6b12a7d2-d177-4c0a-8ed5-6d985dd5fdd2","ios":"levelo://app?vid=6b12a7d2-d177-4c0a-8ed5-6d985dd5fdd2"},"vehicle_type_id":"4","last_reported":1687446560,"current_range_meters":30400,"station_id":"ce4bhq92rcd13ifvqhkg","pricing_plan_id":"free"},{"bike_id":"1a79f92e-83e3-4d02-8c89-92ded79107db","system_id":"levelo_inurba_marseille","lat":43.320045,"lon":5.415046,"is_reserved":false,"is_disabled":false,"rental_uris":{"android":"levelo://app?vid=1a79f92e-83e3-4d02-8c89-92ded79107db","ios":"levelo://app?vid=1a79f92e-83e3-4d02-8c89-92ded79107db"},"vehicle_type_id":"4","last_reported":1687446560,"current_range_meters":31600,"station_id":"ce4bhq92rcd13ifvqhkg","pricing_plan_id":"free"},{"bike_id":"04459729-8e18-4bda-a6d4-db02f2762b05","system_id":"levelo_inurba_marseille","lat":43.320045,"lon":5.415046,"is_reserved":false,"is_disabled":false,"rental_uris":{"android":"levelo://app?vid=04459729-8e18-4bda-a6d4-db02f2762b05","ios":"levelo://app?vid=04459729-8e18-4bda-a6d4-db02f2762b05"},"vehicle_type_id":"4","last_reported":1687446560,"current_range_meters":20800,"station_id":"ce4bhq92rcd13ifvqhkg","pricing_plan_id":"free"},{"bike_id":"1a5a8c3b-25c8-4526-b854-09b986caebf3","system_id":"levelo_inurba_marseille","lat":43.320045,"lon":5.415048,"is_reserved":false,"is_disabled":false,"rental_uris":{"android":"levelo://app?vid=1a5a8c3b-25c8-4526-b854-09b986caebf3","ios":"levelo://app?vid=1a5a8c3b-25c8-4526-b854-09b986caebf3"},"vehicle_type_id":"4","last_reported":1687446560,"current_range_meters":31200,"station_id":"ce4bhq92rcd13ifvqhkg","pricing_plan_id":"free"},{"bike_id":"09333610-6cb4-4b66-b005-c48b45200d19","system_id":"levelo_inurba_marseille","lat":43.320045,"lon":5.415046,"is_reserved":false,"is_disabled":false,"rental_uris":{"android":"levelo://app?vid=09333610-6cb4-4b66-b005-c48b45200d19","ios":"levelo://app?vid=09333610-6cb4-4b66-b005-c48b45200d19"},"vehicle_type_id":"4","last_reported":1687446560,"current_range_meters":31200,"station_id":"ce4bhq92rcd13ifvqhkg","pricing_plan_id":"free"},{"bike_id":"803c2d0a-7002-4365-abbc-043c810c00b9","system_id":"levelo_inurba_marseille","lat":43.320045,"lon":5.415048,"is_reserved":false,"is_disabled":false,"rental_uris":{"android":"levelo://app?vid=803c2d0a-7002-4365-abbc-043c810c00b9","ios":"levelo://app?vid=803c2d0a-7002-4365-abbc-043c810c00b9"},"vehicle_type_id":"4","last_reported":1687446560,"current_range_meters":31200,"station_id":"ce4bhq92rcd13ifvqhkg","pricing_plan_id":"free"},{"bike_id":"be6895a8-1c37-42f6-a858-92629fc55429","system_id":"levelo_inurba_marseille","lat":43.320045,"lon":5.415046,"is_reserved":false,"is_disabled":false,"rental_uris":{"android":"levelo://app?vid=be6895a8-1c37-42f6-a858-92629fc55429","ios":"levelo://app?vid=be6895a8-1c37-42f6-a858-92629fc55429"},"vehicle_type_id":"4","last_reported":1687446560,"current_range_meters":22400,"station_id":"ce4bhq92rcd13ifvqhkg","pricing_plan_id":"free"},{"bike_id":"6a63649f-c152-4b3e-84f3-42ff7be7e2fc","system_id":"levelo_inurba_marseille","lat":43.320045,"lon":5.415048,"is_reserved":false,"is_disabled":false,"rental_uris":{"android":"levelo://app?vid=6a63649f-c152-4b3e-84f3-42ff7be7e2fc","ios":"levelo://app?vid=6a63649f-c152-4b3e-84f3-42ff7be7e2fc"},"vehicle_type_id":"4","last_reported":1687446560,"current_range_meters":31200,"station_id":"ce4bhq92rcd13ifvqhkg","pricing_plan_id":"free"},{"bike_id":"be46e206-a2a3-4f3e-b9f9-22717b8bcba0","system_id":"levelo_inurba_marseille","lat":43.320045,"lon":5.415046,"is_reserved":false,"is_disabled":false,"rental_uris":{"android":"levelo://app?vid=be46e206-a2a3-4f3e-b9f9-22717b8bcba0","ios":"levelo://app?vid=be46e206-a2a3-4f3e-b9f9-22717b8bcba0"},"vehicle_type_id":"4","last_reported":1687446560,"current_range_meters":12800,"station_id":"ce4bhq92rcd13ifvqhkg","pricing_plan_id":"free"},{"bike_id":"6e61cdb5-95f2-49e5-a3cd-7a8b8cb3df40","system_id":"levelo_inurba_marseille","lat":43.320045,"lon":5.415046,"is_reserved":false,"is_disabled":false,"rental_uris":{"android":"levelo://app?vid=6e61cdb5-95f2-49e5-a3cd-7a8b8cb3df40","ios":"levelo://app?vid=6e61cdb5-95f2-49e5-a3cd-7a8b8cb3df40"},"vehicle_type_id":"4","last_reported":1687446560,"current_range_meters":31200,"station_id":"ce4bhq92rcd13ifvqhkg","pricing_plan_id":"free"},{"bike_id":"a97d545c-26d2-4c45-b705-8811ac84eef5","system_id":"levelo_inurba_marseille","lat":43.320045,"lon":5.415046,"is_reserved":false,"is_disabled":false,"rental_uris":{"android":"levelo://app?vid=a97d545c-26d2-4c45-b705-8811ac84eef5","ios":"levelo://app?vid=a97d545c-26d2-4c45-b705-8811ac84eef5"},"vehicle_type_id":"4","last_reported":1687446560,"current_range_meters":29200,"station_id":"ce4bhq92rcd13ifvqhkg","pricing_plan_id":"free"},{"bike_id":"2a760644-dddc-4b4b-926b-6347fed91a4d","system_id":"levelo_inurba_marseille","lat":43.320045,"lon":5.415046,"is_reserved":false,"is_disabled":false,"rental_uris":{"android":"levelo://app?vid=2a760644-dddc-4b4b-926b-6347fed91a4d","ios":"levelo://app?vid=2a760644-dddc-4b4b-926b-6347fed91a4d"},"vehicle_type_id":"4","last_reported":1687446560,"current_range_meters":31200,"station_id":"ce4bhq92rcd13ifvqhkg","pricing_plan_id":"free"},{"bike_id":"57f59bbc-7e7e-4e59-9279-3c534fb3ccf9","system_id":"levelo_inurba_marseille","lat":43.320045,"lon":5.415046,"is_reserved":false,"is_disabled":false,"rental_uris":{"android":"levelo://app?vid=57f59bbc-7e7e-4e59-9279-3c534fb3ccf9","ios":"levelo://app?vid=57f59bbc-7e7e-4e59-9279-3c534fb3ccf9"},"vehicle_type_id":"4","last_reported":1687446560,"current_range_meters":28800,"station_id":"ce4bhq92rcd13ifvqhkg","pricing_plan_id":"free"},{"bike_id":"09cfde6a-7210-4ba2-90bf-16363a3b8c7e","system_id":"levelo_inurba_marseille","lat":43.292569,"lon":5.409107,"is_reserved":false,"is_disabled":false,"rental_uris":{"android":"levelo://app?vid=09cfde6a-7210-4ba2-90bf-16363a3b8c7e","ios":"levelo://app?vid=09cfde6a-7210-4ba2-90bf-16363a3b8c7e"},"vehicle_type_id":"4","last_reported":1687446560,"current_range_meters":18800,"station_id":"ce4bh192rcd13ifvqdc0","pricing_plan_id":"free"},{"bike_id":"4f04077b-94c1-4a7f-afb5-e235ab980987","system_id":"levelo_inurba_marseille","lat":43.32537,"lon":5.41429,"is_reserved":false,"is_disabled":false,"rental_uris":{"android":"levelo://app?vid=4f04077b-94c1-4a7f-afb5-e235ab980987","ios":"levelo://app?vid=4f04077b-94c1-4a7f-afb5-e235ab980987"},"vehicle_type_id":"4","last_reported":1687446560,"current_range_meters":19600,"station_id":"ce4bhq12rcd13ifvqhhg","pricing_plan_id":"free"},{"bike_id":"024222b3-e7ae-4a68-9464-dffccdc8bc60","system_id":"levelo_inurba_marseille","lat":43.292569,"lon":5.409107,"is_reserved":false,"is_disabled":false,"rental_uris":{"android":"levelo://app?vid=024222b3-e7ae-4a68-9464-dffccdc8bc60","ios":"levelo://app?vid=024222b3-e7ae-4a68-9464-dffccdc8bc60"},"vehicle_type_id":"4","last_reported":1687446560,"current_range_meters":17600,"station_id":"ce4bh192rcd13ifvqdc0","pricing_plan_id":"free"},{"bike_id":"a58b6923-e914-4495-af70-8c32f13d33aa","system_id":"levelo_inurba_marseille","lat":43.325233,"lon":5.414318,"is_reserved":false,"is_disabled":false,"rental_uris":{"android":"levelo://app?vid=a58b6923-e914-4495-af70-8c32f13d33aa","ios":"levelo://app?vid=a58b6923-e914-4495-af70-8c32f13d33aa"},"vehicle_type_id":"4","last_reported":1687446560,"current_range_meters":31200,"station_id":"ce4bhq12rcd13ifvqhhg","pricing_plan_id":"free"},{"bike_id":"9d9c684e-04cd-44e1-83de-3b3bfd61b23b","system_id":"levelo_inurba_marseille","lat":43.29251,"lon":5.40913,"is_reserved":false,"is_disabled":false,"rental_uris":{"android":"levelo://app?vid=9d9c684e-04cd-44e1-83de-3b3bfd61b23b","ios":"levelo://app?vid=9d9c684e-04cd-44e1-83de-3b3bfd61b23b"},"vehicle_type_id":"4","last_reported":1687446560,"current_range_meters":23600,"station_id":"ce4bh192rcd13ifvqdc0","pricing_plan_id":"free"},{"bike_id":"51fde9a9-3891-475b-a795-03dc838271f5","system_id":"levelo_inurba_marseille","lat":43.276179,"lon":5.361009,"is_reserved":false,"is_disabled":false,"rental_uris":{"android":"levelo://app?vid=51fde9a9-3891-475b-a795-03dc838271f5","ios":"levelo://app?vid=51fde9a9-3891-475b-a795-03dc838271f5"},"vehicle_type_id":"4","last_reported":1687446560,"current_range_meters":10000,"station_id":"ce4bgj92rcd13ifvqbe0","pricing_plan_id":"free"},{"bike_id":"9bf054e8-842b-4954-bb0a-b8f1edb28a78","system_id":"levelo_inurba_marseille","lat":43.325233,"lon":5.414318,"is_reserved":false,"is_disabled":false,"rental_uris":{"android":"levelo://app?vid=9bf054e8-842b-4954-bb0a-b8f1edb28a78","ios":"levelo://app?vid=9bf054e8-842b-4954-bb0a-b8f1edb28a78"},"vehicle_type_id":"4","last_reported":1687446560,"current_range_meters":27600,"station_id":"ce4bhq12rcd13ifvqhhg","pricing_plan_id":"free"},{"bike_id":"67931933-8aa6-4865-b4bd-774e8850f95e","system_id":"levelo_inurba_marseille","lat":43.325233,"lon":5.414318,"is_reserved":false,"is_disabled":false,"rental_uris":{"android":"levelo://app?vid=67931933-8aa6-4865-b4bd-774e8850f95e","ios":"levelo://app?vid=67931933-8aa6-4865-b4bd-774e8850f95e"},"vehicle_type_id":"4","last_reported":1687446560,"current_range_meters":31200,"station_id":"ce4bhq12rcd13ifvqhhg","pricing_plan_id":"free"},{"bike_id":"cd64dde6-631c-4bc5-80ff-09aa08cc797e","system_id":"levelo_inurba_marseille","lat":43.276179,"lon":5.361009,"is_reserved":false,"is_disabled":false,"rental_uris":{"android":"levelo://app?vid=cd64dde6-631c-4bc5-80ff-09aa08cc797e","ios":"levelo://app?vid=cd64dde6-631c-4bc5-80ff-09aa08cc797e"},"vehicle_type_id":"4","last_reported":1687446560,"current_range_meters":2000,"station_id":"ce4bgj92rcd13ifvqbe0","pricing_plan_id":"free"},{"bike_id":"a68c501a-ebe4-415b-8978-5915cecc6c49","system_id":"levelo_inurba_marseille","lat":43.3035,"lon":5.41871,"is_reserved":false,"is_disabled":false,"rental_uris":{"android":"levelo://app?vid=a68c501a-ebe4-415b-8978-5915cecc6c49","ios":"levelo://app?vid=a68c501a-ebe4-415b-8978-5915cecc6c49"},"vehicle_type_id":"4","last_reported":1687446560,"current_range_meters":6800,"station_id":"","pricing_plan_id":"free"},{"bike_id":"3647c508-8820-4317-a7cc-a961bb8f81fc","system_id":"levelo_inurba_marseille","lat":43.303837,"lon":5.418724,"is_reserved":false,"is_disabled":false,"rental_uris":{"android":"levelo://app?vid=3647c508-8820-4317-a7cc-a961bb8f81fc","ios":"levelo://app?vid=3647c508-8820-4317-a7cc-a961bb8f81fc"},"vehicle_type_id":"4","last_reported":1687446560,"current_range_meters":27600,"station_id":"ce4bhop2rcd13ifvqh7g","pricing_plan_id":"free"},{"bike_id":"5ceda87b-b92b-4575-b56c-0cb0ba4645c3","system_id":"levelo_inurba_marseille","lat":43.30357,"lon":5.41884,"is_reserved":false,"is_disabled":false,"rental_uris":{"android":"levelo://app?vid=5ceda87b-b92b-4575-b56c-0cb0ba4645c3","ios":"levelo://app?vid=5ceda87b-b92b-4575-b56c-0cb0ba4645c3"},