{"last_updated":1747059081,"ttl":60,"version":"2.2","data":{"bikes":[{"bike_id":"d9d7149d-4b52-4910-a4c6-bb38355b7b76","system_id":"levelo_inurba_marseille","lat":43.27919,"lon":5.39577,"is_reserved":false,"is_disabled":false,"rental_uris":{"android":"levelo://app?vid=d9d7149d-4b52-4910-a4c6-bb38355b7b76","ios":"levelo://app?vid=d9d7149d-4b52-4910-a4c6-bb38355b7b76"},"vehicle_type_id":"4","last_reported":1747059081,"current_range_meters":2800,"station_id":"ce4bhf92rcd13ifvqf40","pricing_plan_id":"cebpf4jnsgd1na2vs0mg"},{"bike_id":"05590690-5a7c-4f74-b3fe-0d851a34d7dc","system_id":"levelo_inurba_marseille","lat":43.24177,"lon":5.3638,"is_reserved":false,"is_disabled":false,"rental_uris":{"android":"levelo://app?vid=05590690-5a7c-4f74-b3fe-0d851a34d7dc","ios":"levelo://app?vid=05590690-5a7c-4f74-b3fe-0d851a34d7dc"},"vehicle_type_id":"4","last_reported":1747059081,"current_range_meters":2800,"station_id":"cpo36qri1sfpv3e86is0","pricing_plan_id":"cebpf4jnsgd1na2vs0mg"},{"bike_id":"ea0bc1b2-de8f-4d3d-9e71-f337bcd8a66f","system_id":"levelo_inurba_marseille","lat":43.2512,"lon":5.40315,"is_reserved":false,"is_disabled":false,"rental_uris":{"android":"levelo://app?vid=ea0bc1b2-de8f-4d3d-9e71-f337bcd8a66f","ios":"levelo://app?vid=ea0bc1b2-de8f-4d3d-9e71-f337bcd8a66f"},"vehicle_type_id":"4","last_reported":1747059081,"current_range_meters":3200,"station_id":"ce4bhlh2rcd13ifvqgig","pricing_plan_id":"cebpf4jnsgd1na2vs0mg"},{"bike_id":"acd74622-a2fe-4fba-a791-529ab8c18194","system_id":"levelo_inurba_marseille","lat":43.28265,"lon":5.35063,"is_reserved":false,"is_disabled":false,"rental_uris":{"android":"levelo://app?vid=acd74622-a2fe-4fba-a791-529ab8c18194","ios":"levelo://app?vid=acd74622-a2fe-4fba-a791-529ab8c18194"},"vehicle_type_id":"4","last_reported":1747059081,"current_range_meters":3200,"station_id":"ce4bhbp2rcd13ifvqerg","pricing_plan_id":"cebpf4jnsgd1na2vs0mg"},{"bike_id":"3ba9ad2e-7e3b-4b8e-a3f6-e821ba4c1d58","system_id":"levelo_inurba_marseille","lat":43.27382,"lon":5.36254,"is_reserved":false,"is_disabled":false,"rental_uris":{"android":"levelo://app?vid=3ba9ad2e-7e3b-4b8e-a3f6-e821ba4c1d58","ios":"levelo://app?vid=3ba9ad2e-7e3b-4b8e-a3f6-e821ba4c1d58"},"vehicle_type_id":"4","last_reported":1747059081,"current_range_meters":3200,"station_id":"ce4bhbh2rcd13ifvqeo0","pricing_plan_id":"cebpf4jnsgd1na2vs0mg"},{"bike_id":"6c72afdd-f596-415e-8ec2-fb59436b7489","system_id":"levelo_inurba_marseille","lat":43.29198,"lon":5.358,"is_reserved":false,"is_disabled":false,"rental_uris":{"android":"levelo://app?vid=6c72afdd-f596-415e-8ec2-fb59436b7489","ios":"levelo://app?vid=6c72afdd-f596-415e-8ec2-fb59436b7489"},"vehicle_type_id":"4","last_reported":1747059081,"current_range_meters":3200,"station_id":"ce4bhb12rcd13ifvqel0","pricing_plan_id":"cebpf4jnsgd1na2vs0mg"},{"bike_id":"87b3aa4f-805b-438e-b9ee-55d51e92c2cf","system_id":"levelo_inurba_marseille","lat":43.21749,"lon":5.34602,"is_reserved":false,"is_disabled":false,"rental_uris":{"android":"levelo://app?vid=87b3aa4f-805b-438e-b9ee-55d51e92c2cf","ios":"levelo://app?vid=87b3aa4f-805b-438e-b9ee-55d51e92c2cf"},"vehicle_type_id":"4","last_reported":1747059081,"current_range_meters":3600,"station_id":"st_cvj6r9ubvosntc0bgbag","pricing_plan_id":"cebpf4jnsgd1na2vs0mg"},{"bike_id":"bc91798e-281c-4a6f-83cf-d162523a2217","system_id":"levelo_inurba_marseille","lat":43.24079,"lon":5.37782,"is_reserved":false,"is_disabled":false,"rental_uris":{"android":"levelo://app?vid=bc91798e-281c-4a6f-83cf-d162523a2217","ios":"levelo://app?vid=bc91798e-281c-4a6f-83cf-d162523a2217"},"vehicle_type_id":"4","last_reported":1747059081,"current_range_meters":3600,"station_id":"ce4bhnp2rcd13ifvqgvg","pricing_plan_id":"cebpf4jnsgd1na2vs0mg"},{"bike_id":"99f2d1fd-cd77-4c50-b260-cd2ac75409dd","system_id":"levelo_inurba_marseille","lat":43.31068,"lon":5.38364,"is_reserved":false,"is_disabled":false,"rental_uris":{"android":"levelo://app?vid=99f2d1fd-cd77-4c50-b260-cd2ac75409dd","ios":"levelo://app?vid=99f2d1fd-cd77-4c50-b260-cd2ac75409dd"},"vehicle_type_id":"4","last_reported":1747059081,"current_range_meters":3600,"station_id":"ce4bgv92rcd13ifvqcr0","pricing_plan_id":"cebpf4jnsgd1na2vs0mg"},{"bike_id":"86c43b4a-222d-4a87-a94f-7f17d7c4c50e","system_id":"levelo_inurba_marseille","lat":43.30552,"lon":5.367,"is_reserved":false,"is_disabled":false,"rental_uris":{"android":"levelo://app?vid=86c43b4a-222d-4a87-a94f-7f17d7c4c50e","ios":"levelo://app?vid=86c43b4a-222d-4a87-a94f-7f17d7c4c50e"},"vehicle_type_id":"4","last_reported":1747059081,"current_range_meters":4000,"station_id":"ce4bgrp2rcd13ifvqc9g","pricing_plan_id":"cebpf4jnsgd1na2vs0mg"},{"bike_id":"482c3e0c-270b-4d8d-8775-a9d2c9654e0a","system_id":"levelo_inurba_marseille","lat":43.29854,"lon":5.36291,"is_reserved":false,"is_disabled":false,"rental_uris":{"android":"levelo://app?vid=482c3e0c-270b-4d8d-8775-a9d2c9654e0a","ios":"levelo://app?vid=482c3e0c-270b-4d8d-8775-a9d2c9654e0a"},"vehicle_type_id":"4","last_reported":1747059081,"current_range_meters":4000,"station_id":"ce4bgpp2rcd13ifvqc3g","pricing_plan_id":"cebpf4jnsgd1na2vs0mg"},{"bike_id":"e02662af-e5e0-47d3-b44e-2ff0c200b1c7","system_id":"levelo_inurba_marseille","lat":43.27968,"lon":5.38473,"is_reserved":false,"is_disabled":false,"rental_uris":{"android":"levelo://app?vid=e02662af-e5e0-47d3-b44e-2ff0c200b1c7","ios":"levelo://app?vid=e02662af-e5e0-47d3-b44e-2ff0c200b1c7"},"vehicle_type_id":"4","last_reported":1747059081,"current_range_meters":4000,"station_id":"","pricing_plan_id":"cebpf4jnsgd1na2vs0mg"},{"bike_id":"fb6c969b-754c-446d-a615-af4f285b93eb","system_id":"levelo_inurba_marseille","lat":43.29419,"lon":5.38626,"is_reserved":false,"is_disabled":false,"rental_uris":{"android":"levelo://app?vid=fb6c969b-754c-446d-a615-af4f285b93eb","ios":"levelo://app?vid=fb6c969b-754c-446d-a615-af4f285b93eb"},"vehicle_type_id":"4","last_reported":1747059081,"current_range_meters":4000,"station_id":"ce4bh2h2rcd13ifvqdh0","pricing_plan_id":"cebpf4jnsgd1na2vs0mg"},{"bike_id":"51427e7e-9ecd-4d2d-832d-1e48a2c83714","system_id":"levelo_inurba_marseille","lat":43.2996,"lon":5.37186,"is_reserved":false,"is_disabled":false,"rental_uris":{"android":"levelo://app?vid=51427e7e-9ecd-4d2d-832d-1e48a2c83714","ios":"levelo://app?vid=51427e7e-9ecd-4d2d-832d-1e48a2c83714"},"vehicle_type_id":"4","last_reported":1747059081,"current_range_meters":4400,"station_id":"ce4bgr92rcd13ifvqc7g","pricing_plan_id":"cebpf4jnsgd1na2vs0mg"},{"bike_id":"a3c4889d-4901-4592-a081-4b85837eba71","system_id":"levelo_inurba_marseille","lat":43.29982,"lon":5.371807,"is_reserved":false,"is_disabled":false,"rental_uris":{"android":"levelo://app?vid=a3c4889d-4901-4592-a081-4b85837eba71","ios":"levelo://app?vid=a3c4889d-4901-4592-a081-4b85837eba71"},"vehicle_type_id":"4","last_reported":1747059081,"current_range_meters":4400,"station_id":"ce4bgr92rcd13ifvqc7g","pricing_plan_id":"cebpf4jnsgd1na2vs0mg"},{"bike_id":"b67b1743-5c75-4809-902d-dd4bb35197e0","system_id":"levelo_inurba_marseille","lat":43.3057,"lon":5.36553,"is_reserved":false,"is_disabled":false,"rental_uris":{"android":"levelo://app?vid=b67b1743-5c75-4809-902d-dd4bb35197e0","ios":"levelo://app?vid=b67b1743-5c75-4809-902d-dd4bb35197e0"},"vehicle_type_id":"4","last_reported":1747059081,"current_range_meters":4400,"station_id":"ce4bgs12rcd13ifvqcag","pricing_plan_id":"cebpf4jnsgd1na2vs0mg"},{"bike_id":"8fcecb2c-9448-4339-9a6a-19f79482cffb","system_id":"levelo_inurba_marseille","lat":43.24078,"lon":5.37686,"is_reserved":false,"is_disabled":false,"rental_uris":{"android":"levelo://app?vid=8fcecb2c-9448-4339-9a6a-19f79482cffb","ios":"levelo://app?vid=8fcecb2c-9448-4339-9a6a-19f79482cffb"},"vehicle_type_id":"4","last_reported":1747059081,"current_range_meters":4400,"station_id":"","pricing_plan_id":"cebpf4jnsgd1na2vs0mg"},{"bike_id":"8b55bba5-551a-493a-a344-9748a902b597","system_id":"levelo_inurba_marseille","lat":43.23169,"lon":5.43715,"is_reserved":false,"is_disabled":false,"rental_uris":{"android":"levelo://app?vid=8b55bba5-551a-493a-a344-9748a902b597","ios":"levelo://app?vid=8b55bba5-551a-493a-a344-9748a902b597"},"vehicle_type_id":"4","last_reported":1747059081,"current_range_meters":4400,"station_id":"ce4bhmp2rcd13ifvqgog","pricing_plan_id":"cebpf4jnsgd1na2vs0mg"},{"bike_id":"715a715a-46c2-454a-acfa-e26e2a197578","system_id":"levelo_inurba_marseille","lat":43.28706,"lon":5.37377,"is_reserved":false,"is_disabled":false,"rental_uris":{"android":"levelo://app?vid=715a715a-46c2-454a-acfa-e26e2a197578","ios":"levelo://app?vid=715a715a-46c2-454a-acfa-e26e2a197578"},"vehicle_type_id":"4","last_reported":1747059081,"current_range_meters":4800,"station_id":"ce4bh3p2rcd13ifvqdq0","pricing_plan_id":"cebpf4jnsgd1na2vs0mg"},{"bike_id":"fc2577e7-1497-425b-9d4f-ab8d7dc843c6","system_id":"levelo_inurba_marseille","lat":43.33771,"lon":5.37485,"is_reserved":false,"is_disabled":false,"rental_uris":{"android":"levelo://app?vid=fc2577e7-1497-425b-9d4f-ab8d7dc843c6","ios":"levelo://app?vid=fc2577e7-1497-425b-9d4f-ab8d7dc843c6"},"vehicle_type_id":"4","last_reported":1747059081,"current_range_meters":5600,"station_id":"","pricing_plan_id":"cebpf4jnsgd1na2vs0mg"},{"bike_id":"7ed792d0-a49c-4187-8715-1c0c2456aa54","system_id":"levelo_inurba_marseille","lat":43.28617,"lon":5.35113,"is_reserved":false,"is_disabled":false,"rental_uris":{"android":"levelo://app?vid=7ed792d0-a49c-4187-8715-1c0c2456aa54","ios":"levelo://app?vid=7ed792d0-a49c-4187-8715-1c0c2456aa54"},"vehicle_type_id":"4","last_reported":1747059081,"current_range_meters":5600,"station_id":"ce4bhch2rcd13ifvqeug","pricing_plan_id":"cebpf4jnsgd1na2vs0mg"},{"bike_id":"d3a43fa7-b823-4530-9b2e-c4c3528c25a0","system_id":"levelo_inurba_marseille","lat":43.29918,"lon":5.37475,"is_reserved":false,"is_disabled":false,"rental_uris":{"android":"levelo://app?vid=d3a43fa7-b823-4530-9b2e-c4c3528c25a0","ios":"levelo://app?vid=d3a43fa7-b823-4530-9b2e-c4c3528c25a0"},"vehicle_type_id":"4","last_reported":1747059081,"current_range_meters":5600,"station_id":"ce4bgjh2rcd13ifvqbg0","pricing_plan_id":"cebpf4jnsgd1na2vs0mg"},{"bike_id":"b4b04175-1553-484a-a4dd-389ab8a5a0de","system_id":"levelo_inurba_marseille","lat":43.29526,"lon":5.38533,"is_reserved":false,"is_disabled":false,"rental_uris":{"android":"levelo://app?vid=b4b04175-1553-484a-a4dd-389ab8a5a0de","ios":"levelo://app?vid=b4b04175-1553-484a-a4dd-389ab8a5a0de"},"vehicle_type_id":"4","last_reported":1747059081,"current_range_meters":6000,"station_id":"ce4bgih2rcd13ifvqba0","pricing_plan_id":"cebpf4jnsgd1na2vs0mg"},{"bike_id":"5eb8285b-24dc-4568-b2e0-fe42b35d90aa","system_id":"levelo_inurba_marseille","lat":43.25121,"lon":5.40315,"is_reserved":false,"is_disabled":false,"rental_uris":{"android":"levelo://app?vid=5eb8285b-24dc-4568-b2e0-fe42b35d90aa","ios":"levelo://app?vid=5eb8285b-24dc-4568-b2e0-fe42b35d90aa"},"vehicle_type_id":"4","last_reported":1747059081,"current_range_meters":6000,"station_id":"ce4bhlh2rcd13ifvqgig","pricing_plan_id":"cebpf4jnsgd1na2vs0mg"},{"bike_id":"a7eb231c-f793-4180-b95f-1769a61c041b","system_id":"levelo_inurba_marseille","lat":43.29199,"lon":5.39328,"is_reserved":false,"is_disabled":false,"rental_uris":{"android":"levelo://app?vid=a7eb231c-f793-4180-b95f-1769a61c041b","ios":"levelo://app?vid=a7eb231c-f793-4180-b95f-1769a61c041b"},"vehicle_type_id":"4","last_reported":1747059081,"current_range_meters":6000,"station_id":"ce4bh192rcd13ifvqdd0","pricing_plan_id":"cebpf4jnsgd1na2vs0mg"},{"bike_id":"834790a0-6df8-4a2a-878d-e90b3e12c69b","system_id":"levelo_inurba_marseille","lat":43.31171,"lon":5.3871,"is_reserved":false,"is_disabled":false,"rental_uris":{"android":"levelo://app?vid=834790a0-6df8-4a2a-878d-e90b3e12c69b","ios":"levelo://app?vid=834790a0-6df8-4a2a-878d-e90b3e12c69b"},"vehicle_type_id":"4","last_reported":1747059081,"current_range_meters":5600,"station_id":"ce4bgv12rcd13ifvqcp0","pricing_plan_id":"cebpf4jnsgd1na2vs0mg"},{"bike_id":"1fede54a-6f7a-4e8b-a661-e223636d4456","system_id":"levelo_inurba_marseille","lat":43.26059,"lon":5.39399,"is_reserved":false,"is_disabled":false,"rental_uris":{"android":"levelo://app?vid=1fede54a-6f7a-4e8b-a661-e223636d4456","ios":"levelo://app?vid=1fede54a-6f7a-4e8b-a661-e223636d4456"},"vehicle_type_id":"4","last_reported":1747059081,"current_range_meters":6000,"station_id":"ce4bhh92rcd13ifvqfj0","pricing_plan_id":"cebpf4jnsgd1na2vs0mg"},{"bike_id":"0eca9522-89a8-4e9b-bc23-f3e16d0eef1e","system_id":"levelo_inurba_marseille","lat":43.31175,"lon":5.38694,"is_reserved":false,"is_disabled":false,"rental_uris":{"android":"levelo://app?vid=0eca9522-89a8-4e9b-bc23-f3e16d0eef1e","ios":"levelo://app?vid=0eca9522-89a8-4e9b-bc23-f3e16d0eef1e"},"vehicle_type_id":"4","last_reported":1747059081,"current_range_meters":6400,"station_id":"ce4bgv12rcd13ifvqcp0","pricing_plan_id":"cebpf4jnsgd1na2vs0mg"},{"bike_id":"027c4464-f91d-4abf-bca1-6b92cbfd23f5","system_id":"levelo_inurba_marseille","lat":43.28935,"lon":5.36637,"is_reserved":false,"is_disabled":false,"rental_uris":{"android":"levelo://app?vid=027c4464-f91d-4abf-bca1-6b92cbfd23f5","ios":"levelo://app?vid=027c4464-f91d-4abf-bca1-6b92cbfd23f5"},"vehicle_type_id":"4","last_reported":1747059081,"current_range_meters":6400,"station_id":"ce4bhap2rcd13ifvqek0","pricing_plan_id":"cebpf4jnsgd1na2vs0mg"},{"bike_id":"ff13d115-af78-4c78-bbb3-6e9b2c80ea02","system_id":"levelo_inurba_marseille","lat":43.28271,"lon":5.3506,"is_reserved":false,"is_disabled":false,"rental_uris":{"android":"levelo://app?vid=ff13d115-af78-4c78-bbb3-6e9b2c80ea02","ios":"levelo://app?vid=ff13d115-af78-4c78-bbb3-6e9b2c80ea02"},"vehicle_type_id":"4","last_reported":1747059081,"current_range_meters":6400,"station_id":"ce4bhbp2rcd13ifvqerg","pricing_plan_id":"cebpf4jnsgd1na2vs0mg"},{"bike_id":"85582c70-fbb2-48b4-b189-a73dc0ad8cfc","system_id":"levelo_inurba_marseille","lat":43.23152,"lon":5.43718,"is_reserved":false,"is_disabled":false,"rental_uris":{"android":"levelo://app?vid=85582c70-fbb2-48b4-b189-a73dc0ad8cfc","ios":"levelo://app?vid=85582c70-fbb2-48b4-b189-a73dc0ad8cfc"},"vehicle_type_id":"4","last_reported":1747059081,"current_range_meters":8000,"station_id":"ce4bhmp2rcd13ifvqgog","pricing_plan_id":"cebpf4jnsgd1na2vs0mg"},{"bike_id":"77943619-9466-4c61-a0ac-75e889dc6394","system_id":"levelo_inurba_marseille","lat":43.27948,"lon":5.41049,"is_reserved":false,"is_disabled":false,"rental_uris":{"android":"levelo://app?vid=77943619-9466-4c61-a0ac-75e889dc6394","ios":"levelo://app?vid=77943619-9466-4c61-a0ac-75e889dc6394"},"vehicle_type_id":"4","last_reported":1747059081,"current_range_meters":6800,"station_id":"ce4bhnp2rcd13ifvqh0g","pricing_plan_id":"cebpf4jnsgd1na2vs0mg"},{"bike_id":"f240594f-15b8-450c-8149-9a498d685101","system_id":"levelo_inurba_marseille","lat":43.27619,"lon":5.3612,"is_reserved":false,"is_disabled":false,"rental_uris":{"android":"levelo://app?vid=f240594f-15b8-450c-8149-9a498d685101","ios":"levelo://app?vid=f240594f-15b8-450c-8149-9a498d685101"},"vehicle_type_id":"4","last_reported":1747059081,"current_range_meters":6800,"station_id":"ce4bgj92rcd13ifvqbe0","pricing_plan_id":"cebpf4jnsgd1na2vs0mg"},{"bike_id":"dda8e3bc-850e-49bf-a20a-dbdf609ad063","system_id":"levelo_inurba_marseille","lat":43.24663,"lon":5.38166,"is_reserved":false,"is_disabled":false,"rental_uris":{"android":"levelo://app?vid=dda8e3bc-850e-49bf-a20a-dbdf609ad063","ios":"levelo://app?vid=dda8e3bc-850e-49bf-a20a-dbdf609ad063"},"vehicle_type_id":"4","last_reported":1747059081,"current_range_meters":6800,"station_id":"ce4bhih2rcd13ifvqfr0","pricing_plan_id":"cebpf4jnsgd1na2vs0mg"},{"bike_id":"cf9860f7-3e02-43e1-85ec-e44677810871","system_id":"levelo_inurba_marseille","lat":43.29526,"lon":5.38562,"is_reserved":false,"is_disabled":false,"rental_uris":{"android":"levelo://app?vid=cf9860f7-3e02-43e1-85ec-e44677810871","ios":"levelo://app?vid=cf9860f7-3e02-43e1-85ec-e44677810871"},"vehicle_type_id":"4","last_reported":1747059081,"current_range_meters":6800,"station_id":"ce4bgih2rcd13ifvqba0","pricing_plan_id":"cebpf4jnsgd1na2vs0mg"},{"bike_id":"b9dcc1d1-f51b-4c46-850e-5c60c8b7f5e6","system_id":"levelo_inurba_marseille","lat":43.32365,"lon":5.36711,"is_reserved":false,"is_disabled":false,"rental_uris":{"android":"levelo://app?vid=b9dcc1d1-f51b-4c46-850e-5c60c8b7f5e6","ios":"levelo://app?vid=b9dcc1d1-f51b-4c46-850e-5c60c8b7f5e6"},"vehicle_type_id":"4","last_reported":1747059081,"current_range_meters":6800,"station_id":"ce4bhsh2rcd13ifvqi2g","pricing_plan_id":"cebpf4jnsgd1na2vs0mg"},{"bike_id":"cb4aa7f8-5e58-4103-827e-f5aa7f653469","system_id":"levelo_inurba_marseille","lat":43.23182,"lon":5.3556,"is_reserved":false,"is_disabled":false,"rental_uris":{"android":"levelo://app?vid=cb4aa7f8-5e58-4103-827e-f5aa7f653469","ios":"levelo://app?vid=cb4aa7f8-5e58-4103-827e-f5aa7f653469"},"vehicle_type_id":"4","last_reported":1747059081,"current_range_meters":6800,"station_id":"ce4bhu92rcd13ifvqi70","pricing_plan_id":"cebpf4jnsgd1na2vs0mg"},{"bike_id":"e4437e79-7ae7-4e76-9945-983097177f97","system_id":"levelo_inurba_marseille","lat":43.29502,"lon":5.39043,"is_reserved":false,"is_disabled":false,"rental_uris":{"android":"levelo://app?vid=e4437e79-7ae7-4e76-9945-983097177f97","ios":"levelo://app?vid=e4437e79-7ae7-4e76-9945-983097177f97"},"vehicle_type_id":"4","last_reported":1747059081,"current_range_meters":6400,"station_id":"ce4bh3p2rcd13ifvqdp0","pricing_plan_id":"cebpf4jnsgd1na2vs0mg"},{"bike_id":"7b52222b-d51c-4220-93ab-b65a0261c035","system_id":"levelo_inurba_marseille","lat":43.244002,"lon":5.370556,"is_reserved":false,"is_disabled":false,"rental_uris":{"android":"levelo://app?vid=7b52222b-d51c-4220-93ab-b65a0261c035","ios":"levelo://app?vid=7b52222b-d51c-4220-93ab-b65a0261c035"},"vehicle_type_id":"4","last_reported":1747059081,"current_range_meters":6800,"station_id":"ce4bhhh2rcd13ifvqfk0","pricing_plan_id":"cebpf4jnsgd1na2vs0mg"},{"bike_id":"07a6cd69-61d4-425a-9eee-e86231c82e9d","system_id":"levelo_inurba_marseille","lat":43.26681,"lon":5.38269,"is_reserved":false,"is_disabled":false,"rental_uris":{"android":"levelo://app?vid=07a6cd69-61d4-425a-9eee-e86231c82e9d","ios":"levelo://app?vid=07a6cd69-61d4-425a-9eee-e86231c82e9d"},"vehicle_type_id":"4","last_reported":1747059081,"current_range_meters":4800,"station_id":"ce4bhg92rcd13ifvqf90","pricing_plan_id":"cebpf4jnsgd1na2vs0mg"},{"bike_id":"e9a18b87-b0df-4792-b1d9-b78e13b71886","system_id":"levelo_inurba_marseille","lat":43.28007,"lon":5.38757,"is_reserved":false,"is_disabled":false,"rental_uris":{"android":"levelo://app?vid=e9a18b87-b0df-4792-b1d9-b78e13b71886","ios":"levelo://app?vid=e9a18b87-b0df-4792-b1d9-b78e13b71886"},"vehicle_type_id":"4","last_reported":1747059081,"current_range_meters":6800,"station_id":"ce4bhg12rcd13ifvqf80","pricing_plan_id":"cebpf4jnsgd1na2vs0mg"},{"bike_id":"2f50b8d1-9b93-47d7-8d25-889ccdb3aef1","system_id":"levelo_inurba_marseille","lat":43.24109,"lon":5.37757,"is_reserved":false,"is_disabled":false,"rental_uris":{"android":"levelo://app?vid=2f50b8d1-9b93-47d7-8d25-889ccdb3aef1","ios":"levelo://app?vid=2f50b8d1-9b93-47d7-8d25-889ccdb3aef1"},"vehicle_type_id":"4","last_reported":1747059081,"current_range_meters":6800,"station_id":"ce4bhnp2rcd13ifvqgvg","pricing_plan_id":"cebpf4jnsgd1na2vs0mg"},{"bike_id":"5e7c8447-c135-493a-9de3-5973976cd0c9","system_id":"levelo_inurba_marseille","lat":43.28264,"lon":5.35063,"is_reserved":false,"is_disabled":false,"rental_uris":{"android":"levelo://app?vid=5e7c8447-c135-493a-9de3-5973976cd0c9","ios":"levelo://app?vid=5e7c8447-c135-493a-9de3-5973976cd0c9"},"vehicle_type_id":"4","last_reported":1747059081,"current_range_meters":6800,"station_id":"ce4bhbp2rcd13ifvqerg","pricing_plan_id":"cebpf4jnsgd1na2vs0mg"},{"bike_id":"b4fca09d-6794-4b6a-af65-fb587e5307ab","system_id":"levelo_inurba_marseille","lat":43.31122,"lon":5.37754,"is_reserved":false,"is_disabled":false,"rental_uris":{"android":"levelo://app?vid=b4fca09d-6794-4b6a-af65-fb587e5307ab","ios":"levelo://app?vid=b4fca09d-6794-4b6a-af65-fb587e5307ab"},"vehicle_type_id":"4","last_reported":1747059081,"current_range_meters":7200,"station_id":"ce4bgt92rcd13ifvqcg0","pricing_plan_id":"cebpf4jnsgd1na2vs0mg"},{"bike_id":"9b4c6d61-d91b-4c29-a260-8e37646db1af","system_id":"levelo_inurba_marseille","lat":43.284637,"lon":5.358813,"is_reserved":false,"is_disabled":false,"rental_uris":{"android":"levelo://app?vid=9b4c6d61-d91b-4c29-a260-8e37646db1af","ios":"levelo://app?vid=9b4c6d61-d91b-4c29-a260-8e37646db1af"},"vehicle_type_id":"4","last_reported":1747059081,"current_range_meters":7200,"station_id":"ce4bhah2rcd13ifvqei0","pricing_plan_id":"cebpf4jnsgd1na2vs0mg"},{"bike_id":"e75a84cd-56e3-4868-aeae-42fc5dd9c76e","system_id":"levelo_inurba_marseille","lat":43.27206,"lon":5.39023,"is_reserved":false,"is_disabled":false,"rental_uris":{"android":"levelo://app?vid=e75a84cd-56e3-4868-aeae-42fc5dd9c76e","ios":"levelo://app?vid=e75a84cd-56e3-4868-aeae-42fc5dd9c76e"},"vehicle_type_id":"4","last_reported":1747059081,"current_range_meters":7200,"station_id":"","pricing_plan_id":"cebpf4jnsgd1na2vs0mg"},{"bike_id":"32f607e3-86f4-4b83-a00e-3860ca594338","system_id":"levelo_inurba_marseille","lat":43.31712,"lon":5.42402,"is_reserved":false,"is_disabled":false,"rental_uris":{"android":"levelo://app?vid=32f607e3-86f4-4b83-a00e-3860ca594338","ios":"levelo://app?vid=32f607e3-86f4-4b83-a00e-3860ca594338"},"vehicle_type_id":"4","last_reported":1747059081,"current_range_meters":8000,"station_id":"ce4bhp92rcd13ifvqhbg","pricing_plan_id":"cebpf4jnsgd1na2vs0mg"},{"bike_id":"aa4cbe41-5dff-4ef7-8dab-b261f610bce5","system_id":"levelo_inurba_marseille","lat":43.23147,"lon":5.43725,"is_reserved":false,"is_disabled":false,"rental_uris":{"android":"levelo://app?vid=aa4cbe41-5dff-4ef7-8dab-b261f610bce5","ios":"levelo://app?vid=aa4cbe41-5dff-4ef7-8dab-b261f610bce5"},"vehicle_type_id":"4","last_reported":1747059081,"current_range_meters":8000,"station_id":"ce4bhmp2rcd13ifvqgog","pricing_plan_id":"cebpf4jnsgd1na2vs0mg"},{"bike_id":"ac5317a2-6615-4e1b-8bb9-01a4899d2385","system_id":"levelo_inurba_marseille","lat":43.25943,"lon":5.40893,"is_reserved":false,"is_disabled":false,"rental_uris":{"android":"levelo://app?vid=ac5317a2-6615-4e1b-8bb9-01a4899d2385","ios":"levelo://app?vid=ac5317a2-6615-4e1b-8bb9-01a4899d2385"},"vehicle_type_id":"4","last_reported":1747059081,"current_range_meters":8000,"station_id":"ce4bhm92rcd13ifvqglg","pricing_plan_id":"cebpf4jnsgd1na2vs0mg"},{"bike_id":"6bcba9bb-a77e-495e-81f5-2d8977b4bfa4","system_id":"levelo_inurba_marseille","lat":43.30529,"lon":5.36713,"is_reserved":false,"is_disabled":false,"rental_uris":{"android":"levelo://app?vid=6bcba9bb-a77e-495e-81f5-2d8977b4bfa4","ios":"levelo://app?vid=6bcba9bb-a77e-495e-81f5-2d8977b4bfa4"},"vehicle_type_id":"4","last_reported":1747059081,"current_range_meters":3600,"station_id":"ce4bgrp2rcd13ifvqc9g","pricing_plan_id":"cebpf4jnsgd1na2vs0mg"},{"bike_id":"c0ea7b5f-8e82-47ef-968b-b02736cb59af","system_id":"levelo_inurba_marseille","lat":43.24179,"lon":5.36399,"is_reserved":false,"is_disabled":false,"rental_uris":{"android":"levelo://app?vid=c0ea7b5f-8e82-47ef-968b-b02736cb59af","ios":"levelo://app?vid=c0ea7b5f-8e82-47ef-968b-b02736cb59af"},"vehicle_type_id":"4","last_reported":1747059081,"current_range_meters":8000,"station_id":"cpo36qri1sfpv3e86is0","pricing_plan_id":"cebpf4jnsgd1na2vs0mg"},{"bike_id":"f5e1c9f5-a154-49f8-8534-f9af92664802","system_id":"levelo_inurba_marseille","lat":43.270718,"lon":5.422757,"is_reserved":false,"is_disabled":false,"rental_uris":{"android":"levelo://app?vid=f5e1c9f5-a154-49f8-8534-f9af92664802","ios":"levelo://app?vid=f5e1c9f5-a154-49f8-8534-f9af92664802"},"vehicle_type_id":"4","last_reported":1747059081,"current_range_meters":8000,"station_id":"ce4bhk92rcd13ifvqgb0","pricing_plan_id":"cebpf4jnsgd1na2vs0mg"},{"bike_id":"92aab0a4-3243-4697-8966-91fbdd536967","system_id":"levelo_inurba_marseille","lat":43.28416,"lon":5.34983,"is_reserved":false,"is_disabled":false,"rental_uris":{"android":"levelo://app?vid=92aab0a4-3243-4697-8966-91fbdd536967","ios":"levelo://app?vid=92aab0a4-3243-4697-8966-91fbdd536967"},"vehicle_type_id":"4","last_reported":1747059081,"current_range_meters":8000,"station_id":"ce4bhbh2rcd13ifvqepg","pricing_plan_id":"cebpf4jnsgd1na2vs0mg"},{"bike_id":"6b65af71-450c-4d20-990b-ad43e0c893a0","system_id":"levelo_inurba_marseille","lat":43.29569,"lon":5.39966,"is_reserved":false,"is_disabled":false,"rental_uris":{"android":"levelo://app?vid=6b65af71-450c-4d20-990b-ad43e0c893a0","ios":"levelo://app?vid=6b65af71-450c-4d20-990b-ad43e0c893a0"},"vehicle_type_id":"4","last_reported":1747059081,"current_range_meters":8400,"station_id":"ce4bh312rcd13ifvqdj0","pricing_plan_id":"cebpf4jnsgd1na2vs0mg"},{"bike_id":"2deb1013-2a4e-4281-83f4-5de1b133ca70","system_id":"levelo_inurba_marseille","lat":43.29901,"lon":5.43675,"is_reserved":false,"is_disabled":false,"rental_uris":{"android":"levelo://app?vid=2deb1013-2a4e-4281-83f4-5de1b133ca70","ios":"levelo://app?vid=2deb1013-2a4e-4281-83f4-5de1b133ca70"},"vehicle_type_id":"4","last_reported":1747059081,"current_range_meters":8000,"station_id":"ce4bhpp2rcd13ifvqhfg","pricing_plan_id":"cebpf4jnsgd1na2vs0mg"},{"bike_id":"0471dfe3-9d4f-459b-acc4-f1e57cd7ae86","system_id":"levelo_inurba_marseille","lat":43.25582,"lon":5.38224,"is_reserved":false,"is_disabled":false,"rental_uris":{"android":"levelo://app?vid=0471dfe3-9d4f-459b-acc4-f1e57cd7ae86","ios":"levelo://app?vid=0471dfe3-9d4f-459b-acc4-f1e57cd7ae86"},"vehicle_type_id":"4","last_reported":1747059081,"current_range_meters":8000,"station_id":"ce4bhih2rcd13ifvqfs0","pricing_plan_id":"cebpf4jnsgd1na2vs0mg"},{"bike_id":"ab0bc05a-4645-4c70-9a99-49cc702f659f","system_id":"levelo_inurba_marseille","lat":43.24074,"lon":5.3776,"is_reserved":false,"is_disabled":false,"rental_uris":{"android":"levelo://app?vid=ab0bc05a-4645-4c70-9a99-49cc702f659f","ios":"levelo://app?vid=ab0bc05a-4645-4c70-9a99-49cc702f659f"},"vehicle_type_id":"4","last_reported":1747059081,"current_range_meters":8400,"station_id":"ce4bhnp2rcd13ifvqgvg","pricing_plan_id":"cebpf4jnsgd1na2vs0mg"},{"bike_id":"98c01e1d-c54a-48f0-80ca-193f0fc528f3","system_id":"levelo_inurba_marseille","lat":43.27374,"lon":5.36258,"is_reserved":false,"is_disabled":false,"rental_uris":{"android":"levelo://app?vid=98c01e1d-c54a-48f0-80ca-193f0fc528f3","ios":"levelo://app?vid=98c01e1d-c54a-48f0-80ca-193f0fc528f3"},"vehicle_type_id":"4","last_reported":1747059081,"current_range_meters":8400,"station_id":"ce4bhbh2rcd13ifvqeo0","pricing_plan_id":"cebpf4jnsgd1na2vs0mg"},{"bike_id":"0e1382a7-17bf-409b-a2c0-0067da4c4e92","system_id":"levelo_inurba_marseille","lat":43.2902,"lon":5.38631,"is_reserved":false,"is_disabled":false,"rental_uris":{"android":"levelo://app?vid=0e1382a7-17bf-409b-a2c0-0067da4c4e92","ios":"levelo://app?vid=0e1382a7-17bf-409b-a2c0-0067da4c4e92"},"vehicle_type_id":"4","last_reported":1747059081,"current_range_meters":8400,"station_id":"ce4bh4p2rcd13ifvqe0g","pricing_plan_id":"cebpf4jnsgd1na2vs0mg"},{"bike_id":"fbdd7b17-020c-43bd-b398-3e054b4ff4e5","system_id":"levelo_inurba_marseille","lat":43.27072,"lon":5.42282,"is_reserved":false,"is_disabled":false,"rental_uris":{"android":"levelo://app?vid=fbdd7b17-020c-43bd-b398-3e054b4ff4e5","ios":"levelo://app?vid=fbdd7b17-020c-43bd-b398-3e054b4ff4e5"},"vehicle_type_id":"4","last_reported":1747059081,"current_range_meters":8400,"station_id":"ce4bhk92rcd13ifvqgb0","pricing_plan_id":"cebpf4jnsgd1na2vs0mg"},{"bike_id":"e0372e11-e2d7-499e-bc01-d37180083c7d","system_id":"levelo_inurba_marseille","lat":43.32347,"lon":5.36574,"is_reserved":false,"is_disabled":false,"rental_uris":{"android":"levelo://app?vid=e0372e11-e2d7-499e-bc01-d37180083c7d","ios":"levelo://app?vid=e0372e11-e2d7-499e-bc01-d37180083c7d"},"vehicle_type_id":"4","last_reported":1747059081,"current_range_meters":8400,"station_id":"ce4bhs12rcd13ifvqhvg","pricing_plan_id":"cebpf4jnsgd1na2vs0mg"},{"bike_id":"f1c412b2-72a9-4ae9-9300-180b883f0c3d","system_id":"levelo_inurba_marseille","lat":43.27369,"lon":5.36259,"is_reserved":false,"is_disabled":false,"rental_uris":{"android":"levelo://app?vid=f1c412b2-72a9-4ae9-9300-180b883f0c3d","ios":"levelo://app?vid=f1c412b2-72a9-4ae9-9300-180b883f0c3d"},"vehicle_type_id":"4","last_reported":1747059081,"current_range_meters":8800,"station_id":"ce4bhbh2rcd13ifvqeo0","pricing_plan_id":"cebpf4jnsgd1na2vs0mg"},{"bike_id":"042b3dc3-c51a-4f23-941b-2ed058374260","system_id":"levelo_inurba_marseille","lat":43.24169,"lon":5.36395,"is_reserved":false,"is_disabled":false,"rental_uris":{"android":"levelo://app?vid=042b3dc3-c51a-4f23-941b-2ed058374260","ios":"levelo://app?vid=042b3dc3-c51a-4f23-941b-2ed058374260"},"vehicle_type_id":"4","last_reported":1747059081,"current_range_meters":8800,"station_id":"cpo36qri1sfpv3e86is0","pricing_plan_id":"cebpf4jnsgd1na2vs0mg"},{"bike_id":"a9c38557-5124-45c5-9ded-c5a68570db24","system_id":"levelo_inurba_marseille","lat":43.31348,"lon":5.38512,"is_reserved":false,"is_disabled":false,"rental_uris":{"android":"levelo://app?vid=a9c38557-5124-45c5-9ded-c5a68570db24","ios":"levelo://app?vid=a9c38557-5124-45c5-9ded-c5a68570db24"},"vehicle_type_id":"4","last_reported":1747059081,"current_range_meters":8800,"station_id":"ce4bgt92rcd13ifvqcf0","pricing_plan_id":"cebpf4jnsgd1na2vs0mg"},{"bike_id":"5d0042ec-91be-42b0-b2e3-5fa5a861b033","system_id":"levelo_inurba_marseille","lat":43.28926,"lon":5.38415,"is_reserved":false,"is_disabled":false,"rental_uris":{"android":"levelo://app?vid=5d0042ec-91be-42b0-b2e3-5fa5a861b033","ios":"levelo://app?vid=5d0042ec-91be-42b0-b2e3-5fa5a861b033"},"vehicle_type_id":"4","last_reported":1747059081,"current_range_meters":8800,"station_id":"ce4bh612rcd13ifvqe6g","pricing_plan_id":"cebpf4jnsgd1na2vs0mg"},{"bike_id":"62100530-94ee-4f19-a74d-4c243f9fc0b5","system_id":"levelo_inurba_marseille","lat":43.29615,"lon":5.37722,"is_reserved":false,"is_disabled":false,"rental_uris":{"android":"levelo://app?vid=62100530-94ee-4f19-a74d-4c243f9fc0b5","ios":"levelo://app?vid=62100530-94ee-4f19-a74d-4c243f9fc0b5"},"vehicle_type_id":"4","last_reported":1747059081,"current_range_meters":8800,"station_id":"ce4bgi92rcd13ifvqb90","pricing_plan_id":"cebpf4jnsgd1na2vs0mg"},{"bike_id":"05a9eeea-0da4-45f8-bdfa-a179db7009ac","system_id":"levelo_inurba_marseille","lat":43.28269,"lon":5.35059,"is_reserved":false,"is_disabled":false,"rental_uris":{"android":"levelo://app?vid=05a9eeea-0da4-45f8-bdfa-a179db7009ac","ios":"levelo://app?vid=05a9eeea-0da4-45f8-bdfa-a179db7009ac"},"vehicle_type_id":"4","last_reported":1747059081,"current_range_meters":8800,"station_id":"ce4bhbp2rcd13ifvqerg","pricing_plan_id":"cebpf4jnsgd1na2vs0mg"},{"bike_id":"36686910-33f9-490e-9f5e-6329a2d27f3d","system_id":"levelo_inurba_marseille","lat":43.262,"lon":5.37456,"is_reserved":false,"is_disabled":false,"rental_uris":{"android":"levelo://app?vid=36686910-33f9-490e-9f5e-6329a2d27f3d","ios":"levelo://app?vid=36686910-33f9-490e-9f5e-6329a2d27f3d"},"vehicle_type_id":"4","last_reported":1747059081,"current_range_meters":9200,"station_id":"ce4bhgp2rcd13ifvqfc0","pricing_plan_id":"cebpf4jnsgd1na2vs0mg"},{"bike_id":"89251ead-989e-4058-9af4-1dce8f07f5da","system_id":"levelo_inurba_marseille","lat":43.28613,"lon":5.35098,"is_reserved":false,"is_disabled":false,"rental_uris":{"android":"levelo://app?vid=89251ead-989e-4058-9af4-1dce8f07f5da","ios":"levelo://app?vid=89251ead-989e-4058-9af4-1dce8f07f5da"},"vehicle_type_id":"4","last_reported":1747059081,"current_range_meters":9200,"station_id":"ce4bhch2rcd13ifvqeug","pricing_plan_id":"cebpf4jnsgd1na2vs0mg"},{"bike_id":"de4a530f-3b17-41b9-bd98-d22e64d46bdc","system_id":"levelo_inurba_marseille","lat":43.321044,"lon":5.367768,"is_reserved":false,"is_disabled":false,"rental_uris":{"android":"levelo://app?vid=de4a530f-3b17-41b9-bd98-d22e64d46bdc","ios":"levelo://app?vid=de4a530f-3b17-41b9-bd98-d22e64d46bdc"},"vehicle_type_id":"4","last_reported":1747059081,"current_range_meters":9200,"station_id":"ce4bhrh2rcd13ifvqhug","pricing_plan_id":"cebpf4jnsgd1na2vs0mg"},{"bike_id":"da28b554-8b5b-4ca6-9f3b-f087512d379f","system_id":"levelo_inurba_marseille","lat":43.31369,"lon":5.36692,"is_reserved":false,"is_disabled":false,"rental_uris":{"android":"levelo://app?vid=da28b554-8b5b-4ca6-9f3b-f087512d379f","ios":"levelo://app?vid=da28b554-8b5b-4ca6-9f3b-f087512d379f"},"vehicle_type_id":"4","last_reported":1747059081,"current_range_meters":9600,"station_id":"ce4bgr92rcd13ifvqc6g","pricing_plan_id":"cebpf4jnsgd1na2vs0mg"},{"bike_id":"b0b8e085-965b-4548-acef-24fa5f5e1bdd","system_id":"levelo_inurba_marseille","lat":43.29715,"lon":5.37715,"is_reserved":false,"is_disabled":false,"rental_uris":{"android":"levelo://app?vid=b0b8e085-965b-4548-acef-24fa5f5e1bdd","ios":"levelo://app?vid=b0b8e085-965b-4548-acef-24fa5f5e1bdd"},"vehicle_type_id":"4","last_reported":1747059081,"current_range_meters":9600,"station_id":"ce4bgkh2rcd13ifvqbl0","pricing_plan_id":"cebpf4jnsgd1na2vs0mg"},{"bike_id":"93196d12-7c0a-419a-bdfb-b27f022da1bb","system_id":"levelo_inurba_marseille","lat":43.28931,"lon":5.38389,"is_reserved":false,"is_disabled":false,"rental_uris":{"android":"levelo://app?vid=93196d12-7c0a-419a-bdfb-b27f022da1bb","ios":"levelo://app?vid=93196d12-7c0a-419a-bdfb-b27f022da1bb"},"vehicle_type_id":"4","last_reported":1747059081,"current_range_meters":9200,"station_id":"ce4bh612rcd13ifvqe6g","pricing_plan_id":"cebpf4jnsgd1na2vs0mg"},{"bike_id":"ef5ff6a6-0941-4194-a3ee-43ae0b7ba1c9","system_id":"levelo_inurba_marseille","lat":43.29665,"lon":5.36868,"is_reserved":false,"is_disabled":false,"rental_uris":{"android":"levelo://app?vid=ef5ff6a6-0941-4194-a3ee-43ae0b7ba1c9","ios":"levelo://app?vid=ef5ff6a6-0941-4194-a3ee-43ae0b7ba1c9"},"vehicle_type_id":"4","last_reported":1747059081,"current_range_meters":9600,"station_id":"","pricing_plan_id":"cebpf4jnsgd1na2vs0mg"},{"bike_id":"987e9629-e4dc-453c-9b3b-29bf2e8fbd12","system_id":"levelo_inurba_marseille","lat":43.29902,"lon":5.43671,"is_reserved":false,"is_disabled":false,"rental_uris":{"android":"levelo://app?vid=987e9629-e4dc-453c-9b3b-29bf2e8fbd12","ios":"levelo://app?vid=987e9629-e4dc-453c-9b3b-29bf2e8fbd12"},"vehicle_type_id":"4","last_reported":1747059081,"current_range_meters":9600,"station_id":"ce4bhpp2rcd13ifvqhfg","pricing_plan_id":"cebpf4jnsgd1na2vs0mg"},{"bike_id":"bbba9b2a-8e9d-4a1d-a5f2-90d259e41385","system_id":"levelo_inurba_marseille","lat":43.317573,"lon":5.390146,"is_reserved":false,"is_disabled":false,"rental_uris":{"android":"levelo://app?vid=bbba9b2a-8e9d-4a1d-a5f2-90d259e41385","ios":"levelo://app?vid=bbba9b2a-8e9d-4a1d-a5f2-90d259e41385"},"vehicle_type_id":"4","last_reported":1747059081,"current_range_meters":9600,"station_id":"ce4bhqp2rcd13ifvqhng","pricing_plan_id":"cebpf4jnsgd1na2vs0mg"},{"bike_id":"193857da-ac97-4db6-8622-82398b4a72eb","system_id":"levelo_inurba_marseille","lat":43.29526,"lon":5.38541,"is_reserved":false,"is_disabled":false,"rental_uris":{"android":"levelo://app?vid=193857da-ac97-4db6-8622-82398b4a72eb","ios":"levelo://app?vid=193857da-ac97-4db6-8622-82398b4a72eb"},"vehicle_type_id":"4","last_reported":1747059081,"current_range_meters":10000,"station_id":"ce4bgih2rcd13ifvqba0","pricing_plan_id":"cebpf4jnsgd1na2vs0mg"},{"bike_id":"e2af6c77-76ad-420b-84af-dbf854def128","system_id":"levelo_inurba_marseille","lat":43.26499,"lon":5.39537,"is_reserved":false,"is_disabled":false,"rental_uris":{"android":"levelo://app?vid=e2af6c77-76ad-420b-84af-dbf854def128","ios":"levelo://app?vid=e2af6c77-76ad-420b-84af-dbf854def128"},"vehicle_type_id":"4","last_reported":1747059081,"current_range_meters":10000,"station_id":"ce4bhi12rcd13ifvqfq0","pricing_plan_id":"cebpf4jnsgd1na2vs0mg"},{"bike_id":"0d1b9028-eaed-4da4-b7e5-462e7bd32a25","system_id":"levelo_inurba_marseille","lat":43.23187,"lon":5.39982,"is_reserved":false,"is_disabled":false,"rental_uris":{"android":"levelo://app?vid=0d1b9028-eaed-4da4-b7e5-462e7bd32a25","ios":"levelo://app?vid=0d1b9028-eaed-4da4-b7e5-462e7bd32a25"},"vehicle_type_id":"4","last_reported":1747059081,"current_range_meters":10000,"station_id":"ce4bhn12rcd13ifvqgqg","pricing_plan_id":"cebpf4jnsgd1na2vs0mg"},{"bike_id":"a5493eae-5f3d-4555-9782-fd7880f5b635","system_id":"levelo_inurba_marseille","lat":43.30782,"lon":5.37642,"is_reserved":false,"is_disabled":false,"rental_uris":{"android":"levelo://app?vid=a5493eae-5f3d-4555-9782-fd7880f5b635","ios":"levelo://app?vid=a5493eae-5f3d-4555-9782-fd7880f5b635"},"vehicle_type_id":"4","last_reported":1747059081,"current_range_meters":10000,"station_id":"ce4bgv92rcd13ifvqcq0","pricing_plan_id":"cebpf4jnsgd1na2vs0mg"},{"bike_id":"63bec25a-1453-4fe4-b106-97d9d0f462d0","system_id":"levelo_inurba_marseille","lat":43.28416,"lon":5.34984,"is_reserved":false,"is_disabled":false,"rental_uris":{"android":"levelo://app?vid=63bec25a-1453-4fe4-b106-97d9d0f462d0","ios":"levelo://app?vid=63bec25a-1453-4fe4-b106-97d9d0f462d0"},"vehicle_type_id":"4","last_reported":1747059081,"current_range_meters":10800,"station_id":"ce4bhbh2rcd13ifvqepg","pricing_plan_id":"cebpf4jnsgd1na2vs0mg"},{"bike_id":"8b827dcb-ed75-4a46-90c1-0302d0b88ed3","system_id":"levelo_inurba_marseille","lat":43.27664,"lon":5.38881,"is_reserved":false,"is_disabled":false,"rental_uris":{"android":"levelo://app?vid=8b827dcb-ed75-4a46-90c1-0302d0b88ed3","ios":"levelo://app?vid=8b827dcb-ed75-4a46-90c1-0302d0b88ed3"},"vehicle_type_id":"4","last_reported":1747059081,"current_range_meters":10000,"station_id":"ce4bhi12rcd13ifvqfo0","pricing_plan_id":"cebpf4jnsgd1na2vs0mg"},{"bike_id":"8de57010-270d-4f7d-a9ab-54b58b266fd4","system_id":"levelo_inurba_marseille","lat":43.28668,"lon":5.38667,"is_reserved":false,"is_disabled":false,"rental_uris":{"android":"levelo://app?vid=8de57010-270d-4f7d-a9ab-54b58b266fd4","ios":"levelo://app?vid=8de57010-270d-4f7d-a9ab-54b58b266fd4"},"vehicle_type_id":"4","last_reported":1747059081,"current_range_meters":10000,"station_id":"ce4bh492rcd13ifvqdug","pricing_plan_id":"cebpf4jnsgd1na2vs0mg"},{"bike_id":"c11f5370-b645-4ef2-8d4e-1408ee0786f1","system_id":"levelo_inurba_marseille","lat":43.31707,"lon":5.37747,"is_reserved":false,"is_disabled":false,"rental_uris":{"android":"levelo://app?vid=c11f5370-b645-4ef2-8d4e-1408ee0786f1","ios":"levelo://app?vid=c11f5370-b645-4ef2-8d4e-1408ee0786f1"},"vehicle_type_id":"4","last_reported":1747059081,"current_range_meters":10800,"station_id":"ce4bgth2rcd13ifvqch0","pricing_plan_id":"cebpf4jnsgd1na2vs0mg"},{"bike_id":"30dbe550-237c-40fe-b415-e791ee09eec9","system_id":"levelo_inurba_marseille","lat":43.30144,"lon":5.381,"is_reserved":false,"is_disabled":false,"rental_uris":{"android":"levelo://app?vid=30dbe550-237c-40fe-b415-e791ee09eec9","ios":"levelo://app?vid=30dbe550-237c-40fe-b415-e791ee09eec9"},"vehicle_type_id":"4","last_reported":1747059081,"current_range_meters":10800,"station_id":"ce4bgjp2rcd13ifvqbh0","pricing_plan_id":"cebpf4jnsgd1na2vs0mg"},{"bike_id":"ea59cac2-c4e5-4f48-a07f-3be15e185663","system_id":"levelo_inurba_marseille","lat":43.27371,"lon":5.36259,"is_reserved":false,"is_disabled":false,"rental_uris":{"android":"levelo://app?vid=ea59cac2-c4e5-4f48-a07f-3be15e185663","ios":"levelo://app?vid=ea59cac2-c4e5-4f48-a07f-3be15e185663"},"vehicle_type_id":"4","last_reported":1747059081,"current_range_meters":10800,"station_id":"ce4bhbh2rcd13ifvqeo0","pricing_plan_id":"cebpf4jnsgd1na2vs0mg"},{"bike_id":"17d0692d-2878-42ec-86db-3ae8a4d4f771","system_id":"levelo_inurba_marseille","lat":43.28694,"lon":5.37383,"is_reserved":false,"is_disabled":false,"rental_uris":{"android":"levelo://app?vid=17d0692d-2878-42ec-86db-3ae8a4d4f771","ios":"levelo://app?vid=17d0692d-2878-42ec-86db-3ae8a4d4f771"},"vehicle_type_id":"4","last_reported":1747059081,"current_range_meters":10800,"station_id":"ce4bh3p2rcd13ifvqdq0","pricing_plan_id":"cebpf4jnsgd1na2vs0mg"},{"bike_id":"32fea203-99c0-48db-8ec4-db735bc6bb70","system_id":"levelo_inurba_marseille","lat":43.23182,"lon":5.39989,"is_reserved":false,"is_disabled":false,"rental_uris":{"android":"levelo://app?vid=32fea203-99c0-48db-8ec4-db735bc6bb70","ios":"levelo://app?vid=32fea203-99c0-48db-8ec4-db735bc6bb70"},"vehicle_type_id":"4","last_reported":1747059081,"current_range_meters":10000,"station_id":"ce4bhn12rcd13ifvqgqg","pricing_plan_id":"cebpf4jnsgd1na2vs0mg"},{"bike_id":"bed5fa46-1c13-4995-acb3-dae01a50ac06","system_id":"levelo_inurba_marseille","lat":43.2418,"lon":5.39734,"is_reserved":false,"is_disabled":false,"rental_uris":{"android":"levelo://app?vid=bed5fa46-1c13-4995-acb3-dae01a50ac06","ios":"levelo://app?vid=bed5fa46-1c13-4995-acb3-dae01a50ac06"},"vehicle_type_id":"4","last_reported":1747059081,"current_range_meters":10800,"station_id":"ce4bhn12rcd13ifvqgpg","pricing_plan_id":"cebpf4jnsgd1na2vs0mg"},{"bike_id":"2ee4d910-0ee1-4bc5-86c8-c77afad12b4f","system_id":"levelo_inurba_marseille","lat":43.32101,"lon":5.36804,"is_reserved":false,"is_disabled":false,"rental_uris":{"android":"levelo://app?vid=2ee4d910-0ee1-4bc5-86c8-c77afad12b4f","ios":"levelo://app?vid=2ee4d910-0ee1-4bc5-86c8-c77afad12b4f"},"vehicle_type_id":"4","last_reported":1747059081,"current_range_meters":10800,"station_id":"ce4bhrh2rcd13ifvqhug","pricing_plan_id":"cebpf4jnsgd1na2vs0mg"},{"bike_id":"11e4597e-c0da-4b11-b293-5b1f7659f2d6","system_id":"levelo_inurba_marseille","lat":43.313661,"lon":5.367014,"is_reserved":false,"is_disabled":false,"rental_uris":{"android":"levelo://app?vid=11e4597e-c0da-4b11-b293-5b1f7659f2d6","ios":"levelo://app?vid=11e4597e-c0da-4b11-b293-5b1f7659f2d6"},"vehicle_type_id":"4","last_reported":1747059081,"current_range_meters":11200,"station_id":"ce4bgr92rcd13ifvqc6g","pricing_plan_id":"cebpf4jnsgd1na2vs0mg"},{"bike_id":"f4f4d196-8fdf-49ef-9786-b2592296ab46","system_id":"levelo_inurba_marseille","lat":43.31524,"lon":5.38035,"is_reserved":false,"is_disabled":false,"rental_uris":{"android":"levelo://app?vid=f4f4d196-8fdf-49ef-9786-b2592296ab46","ios":"levelo://app?vid=f4f4d196-8fdf-49ef-9786-b2592296ab46"},"vehicle_type_id":"4","last_reported":1747059081,"current_range_meters":11200,"station_id":"ce4bhsp2rcd13ifvqi50","pricing_plan_id":"cebpf4jnsgd1na2vs0mg"},{"bike_id":"0b3fc1f2-b856-4f39-bb34-74fe5962893b","system_id":"levelo_inurba_marseille","lat":43.25933,"lon":5.40915,"is_reserved":false,"is_disabled":false,"rental_uris":{"android":"levelo://app?vid=0b3fc1f2-b856-4f39-bb34-74fe5962893b","ios":"levelo://app?vid=0b3fc1f2-b856-4f39-bb34-74fe5962893b"},"vehicle_type_id":"4","last_reported":1747059081,"current_range_meters":11200,"station_id":"ce4bhm92rcd13ifvqglg","pricing_plan_id":"cebpf4jnsgd1na2vs0mg"},{"bike_id":"a1e882b6-da04-4872-9ba4-928945ea7a28","system_id":"levelo_inurba_marseille","lat":43.2857,"lon":5.39493,"is_reserved":false,"is_disabled":false,"rental_uris":{"android":"levelo://app?vid=a1e882b6-da04-4872-9ba4-928945ea7a28","ios":"levelo://app?vid=a1e882b6-da04-4872-9ba4-928945ea7a28"},"vehicle_type_id":"4","last_reported":1747059081,"current_range_meters":10800,"station_id":"ce4bh292rcd13ifvqdg0","pricing_plan_id":"cebpf4jnsgd1na2vs0mg"},{"bike_id":"834b81d6-a251-4db6-9c29-dcf3c446e73a","system_id":"levelo_inurba_marseille","lat":43.32659,"lon":5.41006,"is_reserved":false,"is_disabled":false,"rental_uris":{"android":"levelo://app?vid=834b81d6-a251-4db6-9c29-dcf3c446e73a","ios":"levelo://app?vid=834b81d6-a251-4db6-9c29-dcf3c446e73a"},"vehicle_type_id":"4","last_reported":1747059081,"current_range_meters":11600,"station_id":"ce4bhpp2rcd13ifvqhgg","pricing_plan_id":"cebpf4jnsgd1na2vs0mg"},{"bike_id":"515bb9bf-628e-4241-bab8-f92638bfff4a","system_id":"levelo_inurba_marseille","lat":43.32535,"lon":5.41427,"is_reserved":false,"is_disabled":false,"rental_uris":{"android":"levelo://app?vid=515bb9bf-628e-4241-bab8-f92638bfff4a","ios":"levelo://app?vid=515bb9bf-628e-4241-bab8-f92638bfff4a"},"vehicle_type_id":"4","last_reported":1747059081,"current_range_meters":11600,"station_id":"ce4bhq12rcd13ifvqhhg","pricing_plan_id":"cebpf4jnsgd1na2vs0mg"},{"bike_id":"0bf31d40-2ad2-494c-afdd-13acdb3f7f8d","system_id":"levelo_inurba_marseille","lat":43.2955,"lon":5.423,"is_reserved":false,"is_disabled":false,"rental_uris":{"android":"levelo://app?vid=0bf31d40-2ad2-494c-afdd-13acdb3f7f8d","ios":"levelo://app?vid=0bf31d40-2ad2-494c-afdd-13acdb3f7f8d"},"vehicle_type_id":"4","last_reported":1747059081,"current_range_meters":11600,"station_id":"ce4bhph2rcd13ifvqhdg","pricing_plan_id":"cebpf4jnsgd1na2vs0mg"},{"bike_id":"14974396-773a-4225-b2c9-f2fca04895a5","system_id":"levelo_inurba_marseille","lat":43.28434,"lon":5.35893,"is_reserved":false,"is_disabled":false,"rental_uris":{"android":"levelo://app?vid=14974396-773a-4225-b2c9-f2fca04895a5","ios":"levelo://app?vid=14974396-773a-4225-b2c9-f2fca04895a5"},"vehicle_type_id":"4","last_reported":1747059081,"current_range_meters":11600,"station_id":"ce4bhah2rcd13ifvqei0","pricing_plan_id":"cebpf4jnsgd1na2vs0mg"},{"bike_id":"c717b955-1d23-42a6-bf63-f39e0d9342dd","system_id":"levelo_inurba_marseille","lat":43.28291,"lon":5.43115,"is_reserved":false,"is_disabled":false,"rental_uris":{"android":"levelo://app?vid=c717b955-1d23-42a6-bf63-f39e0d9342dd","ios":"levelo://app?vid=c717b955-1d23-42a6-bf63-f39e0d9342dd"},"vehicle_type_id":"4","last_reported":1747059081,"current_range_meters":11600,"station_id":"","pricing_plan_id":"cebpf4jnsgd1na2vs0mg"},{"bike_id":"39b88f85-2091-4903-befa-0252e780fea2","system_id":"levelo_inurba_marseille","lat":43.24163,"lon":5.36394,"is_reserved":false,"is_disabled":false,"rental_uris":{"android":"levelo://app?vid=39b88f85-2091-4903-befa-0252e780fea2","ios":"levelo://app?vid=39b88f85-2091-4903-befa-0252e780fea2"},"vehicle_type_id":"4","last_reported":1747059081,"current_range_meters":11600,"station_id":"cpo36qri1sfpv3e86is0","pricing_plan_id":"cebpf4jnsgd1na2vs0mg"},{"bike_id":"a43525cd-9e63-4936-bd35-bf5623ec381b","system_id":"levelo_inurba_marseille","lat":43.2417,"lon":5.36396,"is_reserved":false,"is_disabled":false,"rental_uris":{"android":"levelo://app?vid=a43525cd-9e63-4936-bd35-bf5623ec381b","ios":"levelo://app?vid=a43525cd-9e63-4936-bd35-bf5623ec381b"},"vehicle_type_id":"4","last_reported":1747059081,"current_range_meters":11600,"station_id":"cpo36qri1sfpv3e86is0","pricing_plan_id":"cebpf4jnsgd1na2vs0mg"},{"bike_id":"a6ebce1f-8da1-4ad9-991a-689d1a03b67a","system_id":"levelo_inurba_marseille","lat":43.29312,"lon":5.37158,"is_reserved":false,"is_disabled":false,"rental_uris":{"android":"levelo://app?vid=a6ebce1f-8da1-4ad9-991a-689d1a03b67a","ios":"levelo://app?vid=a6ebce1f-8da1-4ad9-991a-689d1a03b67a"},"vehicle_type_id":"4","last_reported":1747059081,"current_range_meters":11600,"station_id":"ce4bgh92rcd13ifvqb40","pricing_plan_id":"cebpf4jnsgd1na2vs0mg"},{"bike_id":"c0494a68-2606-4b7b-be37-3c6ea6e4b26e","system_id":"levelo_inurba_marseille","lat":43.30802,"lon":5.38158,"is_reserved":false,"is_disabled":false,"rental_uris":{"android":"levelo://app?vid=c0494a68-2606-4b7b-be37-3c6ea6e4b26e","ios":"levelo://app?vid=c0494a68-2606-4b7b-be37-3c6ea6e4b26e"},"vehicle_type_id":"4","last_reported":1747059081,"current_range_meters":11600,"station_id":"ce4bgt12rcd13ifvqce0","pricing_plan_id":"cebpf4jnsgd1na2vs0mg"},{"bike_id":"5f52521a-d049-43c9-a0aa-2a86317057b2","system_id":"levelo_inurba_marseille","lat":43.29631,"lon":5.40593,"is_reserved":false,"is_disabled":false,"rental_uris":{"android":"levelo://app?vid=5f52521a-d049-43c9-a0aa-2a86317057b2","ios":"levelo://app?vid=5f52521a-d049-43c9-a0aa-2a86317057b2"},"vehicle_type_id":"4","last_reported":1747059081,"current_range_meters":12000,"station_id":"ce4bh0h2rcd13ifvqd60","pricing_plan_id":"cebpf4jnsgd1na2vs0mg"},{"bike_id":"109dda17-8560-4d46-8c18-4352468e000f","system_id":"levelo_inurba_marseille","lat":43.27902,"lon":5.38003,"is_reserved":false,"is_disabled":false,"rental_uris":{"android":"levelo://app?vid=109dda17-8560-4d46-8c18-4352468e000f","ios":"levelo://app?vid=109dda17-8560-4d46-8c18-4352468e000f"},"vehicle_type_id":"4","last_reported":1747059081,"current_range_meters":11600,"station_id":"ce4bhf92rcd13ifvqf50","pricing_plan_id":"cebpf4jnsgd1na2vs0mg"},{"bike_id":"211dc8e2-7b99-4cdb-a3f8-b716fb167062","system_id":"levelo_inurba_marseille","lat":43.32485,"lon":5.36555,"is_reserved":false,"is_disabled":false,"rental_uris":{"android":"levelo://app?vid=211dc8e2-7b99-4cdb-a3f8-b716fb167062","ios":"levelo://app?vid=211dc8e2-7b99-4cdb-a3f8-b716fb167062"},"vehicle_type_id":"4","last_reported":1747059081,"current_range_meters":12000,"station_id":"ce4bhs12rcd13ifvqhvg","pricing_plan_id":"cebpf4jnsgd1na2vs0mg"},{"bike_id":"20e81c6b-d2d6-451d-bae7-b9d104d18d63","system_id":"levelo_inurba_marseille","lat":43.30877,"lon":5.3719,"is_reserved":false,"is_disabled":false,"rental_uris":{"android":"levelo://app?vid=20e81c6b-d2d6-451d-bae7-b9d104d18d63","ios":"levelo://app?vid=20e81c6b-d2d6-451d-bae7-b9d104d18d63"},"vehicle_type_id":"4","last_reported":1747059081,"current_range_meters":12000,"station_id":"ce4bguh2rcd13ifvqckg","pricing_plan_id":"cebpf4jnsgd1na2vs0mg"},{"bike_id":"ec2d1924-153c-4381-bd7a-d1274f2a248a","system_id":"levelo_inurba_marseille","lat":43.24164,"lon":5.36396,"is_reserved":false,"is_disabled":false,"rental_uris":{"android":"levelo://app?vid=ec2d1924-153c-4381-bd7a-d1274f2a248a","ios":"levelo://app?vid=ec2d1924-153c-4381-bd7a-d1274f2a248a"},"vehicle_type_id":"4","last_reported":1747059081,"current_range_meters":12800,"station_id":"cpo36qri1sfpv3e86is0","pricing_plan_id":"cebpf4jnsgd1na2vs0mg"},{"bike_id":"f5e5f561-148c-4b92-aca5-ecd369593638","system_id":"levelo_inurba_marseille","lat":43.27814,"lon":5.40713,"is_reserved":false,"is_disabled":false,"rental_uris":{"android":"levelo://app?vid=f5e5f561-148c-4b92-aca5-ecd369593638","ios":"levelo://app?vid=f5e5f561-148c-4b92-aca5-ecd369593638"},"vehicle_type_id":"4","last_reported":1747059081,"current_range_meters":12400,"station_id":"ce4bhnh2rcd13ifvqgtg","pricing_plan_id":"cebpf4jnsgd1na2vs0mg"},{"bike_id":"20b7684f-82dc-4844-8af6-04d88a3aa48c","system_id":"levelo_inurba_marseille","lat":43.31174,"lon":5.38712,"is_reserved":false,"is_disabled":false,"rental_uris":{"android":"levelo://app?vid=20b7684f-82dc-4844-8af6-04d88a3aa48c","ios":"levelo://app?vid=20b7684f-82dc-4844-8af6-04d88a3aa48c"},"vehicle_type_id":"4","last_reported":1747059081,"current_range_meters":12800,"station_id":"ce4bgv12rcd13ifvqcp0","pricing_plan_id":"cebpf4jnsgd1na2vs0mg"},{"bike_id":"2426c398-e9ff-4bc6-af2e-6b6e8459674c","system_id":"levelo_inurba_marseille","lat":43.28428,"lon":5.34985,"is_reserved":false,"is_disabled":false,"rental_uris":{"android":"levelo://app?vid=2426c398-e9ff-4bc6-af2e-6b6e8459674c","ios":"levelo://app?vid=2426c398-e9ff-4bc6-af2e-6b6e8459674c"},"vehicle_type_id":"4","last_reported":1747059081,"current_range_meters":12800,"station_id":"ce4bhbh2rcd13ifvqepg","pricing_plan_id":"cebpf4jnsgd1na2vs0mg"},{"bike_id":"9fd88e59-eb45-4f11-8259-ddd80107b370","system_id":"levelo_inurba_marseille","lat":43.29281,"lon":5.40115,"is_reserved":false,"is_disabled":false,"rental_uris":{"android":"levelo://app?vid=9fd88e59-eb45-4f11-8259-ddd80107b370","ios":"levelo://app?vid=9fd88e59-eb45-4f11-8259-ddd80107b370"},"vehicle_type_id":"4","last_reported":1747059081,"current_range_meters":12800,"station_id":"ce4bh312rcd13ifvqdk0","pricing_plan_id":"cebpf4jnsgd1na2vs0mg"},{"bike_id":"09667552-604c-472f-b05c-2be0e1fd2bf4","system_id":"levelo_inurba_marseille","lat":43.280325,"lon":5.3695,"is_reserved":false,"is_disabled":false,"rental_uris":{"android":"levelo://app?vid=09667552-604c-472f-b05c-2be0e1fd2bf4","ios":"levelo://app?vid=09667552-604c-472f-b05c-2be0e1fd2bf4"},"vehicle_type_id":"4","last_reported":1747059081,"current_range_meters":12800,"station_id":"ce4bha12rcd13ifvqef0","pricing_plan_id":"cebpf4jnsgd1na2vs0mg"},{"bike_id":"2815ef8a-e8a4-4312-8c50-c88e2160e175","system_id":"levelo_inurba_marseille","lat":43.29009,"lon":5.3561,"is_reserved":false,"is_disabled":false,"rental_uris":{"android":"levelo://app?vid=2815ef8a-e8a4-4312-8c50-c88e2160e175","ios":"levelo://app?vid=2815ef8a-e8a4-4312-8c50-c88e2160e175"},"vehicle_type_id":"4","last_reported":1747059081,"current_range_meters":12800,"station_id":"ce4bhb92rcd13ifvqen0","pricing_plan_id":"cebpf4jnsgd1na2vs0mg"},{"bike_id":"a7f5bfa8-9ef1-4d91-acb4-246bfbc69c85","system_id":"levelo_inurba_marseille","lat":43.25584,"lon":5.38222,"is_reserved":false,"is_disabled":false,"rental_uris":{"android":"levelo://app?vid=a7f5bfa8-9ef1-4d91-acb4-246bfbc69c85","ios":"levelo://app?vid=a7f5bfa8-9ef1-4d91-acb4-246bfbc69c85"},"vehicle_type_id":"4","last_reported":1747059081,"current_range_meters":12800,"station_id":"ce4bhih2rcd13ifvqfs0","pricing_plan_id":"cebpf4jnsgd1na2vs0mg"},{"bike_id":"f310baa9-e3d6-4735-ae56-d8b9cbc6276d","system_id":"levelo_inurba_marseille","lat":43.28939,"lon":5.36633,"is_reserved":false,"is_disabled":false,"rental_uris":{"android":"levelo://app?vid=f310baa9-e3d6-4735-ae56-d8b9cbc6276d","ios":"levelo://app?vid=f310baa9-e3d6-4735-ae56-d8b9cbc6276d"},"vehicle_type_id":"4","last_reported":1747059081,"current_range_meters":13600,"station_id":"ce4bhap2rcd13ifvqek0","pricing_plan_id":"cebpf4jnsgd1na2vs0mg"},{"bike_id":"1a6f2ab8-a315-4735-a1d2-13a18e290355","system_id":"levelo_inurba_marseille","lat":43.217525,"lon":5.346051,"is_reserved":false,"is_disabled":false,"rental_uris":{"android":"levelo://app?vid=1a6f2ab8-a315-4735-a1d2-13a18e290355","ios":"levelo://app?vid=1a6f2ab8-a315-4735-a1d2-13a18e290355"},"vehicle_type_id":"4","last_reported":1747059081,"current_range_meters":13600,"station_id":"st_cvj6r9ubvosntc0bgbag","pricing_plan_id":"cebpf4jnsgd1na2vs0mg"},{"bike_id":"9839bbfd-b265-48dd-9fb5-0a386045d4fb","system_id":"levelo_inurba_marseille","lat":43.2408,"lon":5.37755,"is_reserved":false,"is_disabled":false,"rental_uris":{"android":"levelo://app?vid=9839bbfd-b265-48dd-9fb5-0a386045d4fb","ios":"levelo://app?vid=9839bbfd-b265-48dd-9fb5-0a386045d4fb"},"vehicle_type_id":"4","last_reported":1747059081,"current_range_meters":13600,"station_id":"ce4bhnp2rcd13ifvqgvg","pricing_plan_id":"cebpf4jnsgd1na2vs0mg"},{"bike_id":"f8159897-beeb-4bf5-8a68-6aeb5ae271f3","system_id":"levelo_inurba_marseille","lat":43.24182,"lon":5.39725,"is_reserved":false,"is_disabled":false,"rental_uris":{"android":"levelo://app?vid=f8159897-beeb-4bf5-8a68-6aeb5ae271f3","ios":"levelo://app?vid=f8159897-beeb-4bf5-8a68-6aeb5ae271f3"},"vehicle_type_id":"4","last_reported":1747059081,"current_range_meters":14000,"station_id":"ce4bhn12rcd13ifvqgpg","pricing_plan_id":"cebpf4jnsgd1na2vs0mg"},{"bike_id":"347dd91d-2f23-4e25-a27e-d3305bb962e5","system_id":"levelo_inurba_marseille","lat":43.32659,"lon":5.40999,"is_reserved":false,"is_disabled":false,"rental_uris":{"android":"levelo://app?vid=347dd91d-2f23-4e25-a27e-d3305bb962e5","ios":"levelo://app?vid=347dd91d-2f23-4e25-a27e-d3305bb962e5"},"vehicle_type_id":"4","last_reported":1747059081,"current_range_meters":14400,"station_id":"ce4bhpp2rcd13ifvqhgg","pricing_plan_id":"cebpf4jnsgd1na2vs0mg"},{"bike_id":"2e03d7d5-efaa-423c-ab00-3c7da783c031","system_id":"levelo_inurba_marseille","lat":43.2781,"lon":5.40712,"is_reserved":false,"is_disabled":false,"rental_uris":{"android":"levelo://app?vid=2e03d7d5-efaa-423c-ab00-3c7da783c031","ios":"levelo://app?vid=2e03d7d5-efaa-423c-ab00-3c7da783c031"},"vehicle_type_id":"4","last_reported":1747059081,"current_range_meters":14400,"station_id":"ce4bhnh2rcd13ifvqgtg","pricing_plan_id":"cebpf4jnsgd1na2vs0mg"},{"bike_id":"dca696d5-5f93-425f-a0d2-e72fd777d3e0","system_id":"levelo_inurba_marseille","lat":43.26232,"lon":5.40448,"is_reserved":false,"is_disabled":false,"rental_uris":{"android":"levelo://app?vid=dca696d5-5f93-425f-a0d2-e72fd777d3e0","ios":"levelo://app?vid=dca696d5-5f93-425f-a0d2-e72fd777d3e0"},"vehicle_type_id":"4","last_reported":1747059081,"current_range_meters":14400,"station_id":"ce4bhmh2rcd13ifvqgmg","pricing_plan_id":"cebpf4jnsgd1na2vs0mg"},{"bike_id":"b108b0f9-14cf-4565-ba0c-4c4e434abb0a","system_id":"levelo_inurba_marseille","lat":43.28927,"lon":5.38385,"is_reserved":false,"is_disabled":false,"rental_uris":{"android":"levelo://app?vid=b108b0f9-14cf-4565-ba0c-4c4e434abb0a","ios":"levelo://app?vid=b108b0f9-14cf-4565-ba0c-4c4e434abb0a"},"vehicle_type_id":"4","last_reported":1747059081,"current_range_meters":14400,"station_id":"ce4bh612rcd13ifvqe6g","pricing_plan_id":"cebpf4jnsgd1na2vs0mg"},{"bike_id":"d6484563-d9fb-4659-b31c-b9b088834717","system_id":"levelo_inurba_marseille","lat":43.28624,"lon":5.35114,"is_reserved":false,"is_disabled":false,"rental_uris":{"android":"levelo://app?vid=d6484563-d9fb-4659-b31c-b9b088834717","ios":"levelo://app?vid=d6484563-d9fb-4659-b31c-b9b088834717"},"vehicle_type_id":"4","last_reported":1747059081,"current_range_meters":14400,"station_id":"ce4bhch2rcd13ifvqeug","pricing_plan_id":"cebpf4jnsgd1na2vs0mg"},{"bike_id":"fc8890f4-4388-45df-a327-ba03d14caef2","system_id":"levelo_inurba_marseille","lat":43.2417,"lon":5.363907,"is_reserved":false,"is_disabled":false,"rental_uris":{"android":"levelo://app?vid=fc8890f4-4388-45df-a327-ba03d14caef2","ios":"levelo://app?vid=fc8890f4-4388-45df-a327-ba03d14caef2"},"vehicle_type_id":"4","last_reported":1747059081,"current_range_meters":14400,"station_id":"cpo36qri1sfpv3e86is0","pricing_plan_id":"cebpf4jnsgd1na2vs0mg"},{"bike_id":"a06347fb-5387-4565-b21d-250e119b3ce6","system_id":"levelo_inurba_marseille","lat":43.30814,"lon":5.38144,"is_reserved":false,"is_disabled":false,"rental_uris":{"android":"levelo://app?vid=a06347fb-5387-4565-b21d-250e119b3ce6","ios":"levelo://app?vid=a06347fb-5387-4565-b21d-250e119b3ce6"},"vehicle_type_id":"4","last_reported":1747059081,"current_range_meters":14800,"station_id":"ce4bgt12rcd13ifvqce0","pricing_plan_id":"cebpf4jnsgd1na2vs0mg"},{"bike_id":"a68ef539-b508-47fe-b9d5-e9bdcaf82503","system_id":"levelo_inurba_marseille","lat":43.23198,"lon":5.35553,"is_reserved":false,"is_disabled":false,"rental_uris":{"android":"levelo://app?vid=a68ef539-b508-47fe-b9d5-e9bdcaf82503","ios":"levelo://app?vid=a68ef539-b508-47fe-b9d5-e9bdcaf82503"},"vehicle_type_id":"4","last_reported":1747059081,"current_range_meters":14800,"station_id":"ce4bhu92rcd13ifvqi70","pricing_plan_id":"cebpf4jnsgd1na2vs0mg"},{"bike_id":"27ad4924-d31d-4164-96bb-590bc1e25b86","system_id":"levelo_inurba_marseille","lat":43.23959,"lon":5.36636,"is_reserved":false,"is_disabled":false,"rental_uris":{"android":"levelo://app?vid=27ad4924-d31d-4164-96bb-590bc1e25b86","ios":"levelo://app?vid=27ad4924-d31d-4164-96bb-590bc1e25b86"},"vehicle_type_id":"4","last_reported":1747059081,"current_range_meters":14800,"station_id":"ce4bhi12rcd13ifvqfp0","pricing_plan_id":"cebpf4jnsgd1na2vs0mg"},{"bike_id":"0596e3f9-2edd-405c-921f-d82c6aecf2ec","system_id":"levelo_inurba_marseille","lat":43.31491,"lon":5.37311,"is_reserved":false,"is_disabled":false,"rental_uris":{"android":"levelo://app?vid=0596e3f9-2edd-405c-921f-d82c6aecf2ec","ios":"levelo://app?vid=0596e3f9-2edd-405c-921f-d82c6aecf2ec"},"vehicle_type_id":"4","last_reported":1747059081,"current_range_meters":15200,"station_id":"ce4bgt12rcd13ifvqcd0","pricing_plan_id":"cebpf4jnsgd1na2vs0mg"},{"bike_id":"ca189185-ade3-4e36-aca6-40c71d0d16f2","system_id":"levelo_inurba_marseille","lat":43.30926,"lon":5.36855,"is_reserved":false,"is_disabled":false,"rental_uris":{"android":"levelo://app?vid=ca189185-ade3-4e36-aca6-40c71d0d16f2","ios":"levelo://app?vid=ca189185-ade3-4e36-aca6-40c71d0d16f2"},"vehicle_type_id":"4","last_reported":1747059081,"current_range_meters":15200,"station_id":"ce4bgn92rcd13ifvqbvg","pricing_plan_id":"cebpf4jnsgd1na2vs0mg"},{"bike_id":"f69257da-8878-41a7-b8f6-c7f02aa7ae1d","system_id":"levelo_inurba_marseille","lat":43.25926,"lon":5.40914,"is_reserved":false,"is_disabled":false,"rental_uris":{"android":"levelo://app?vid=f69257da-8878-41a7-b8f6-c7f02aa7ae1d","ios":"levelo://app?vid=f69257da-8878-41a7-b8f6-c7f02aa7ae1d"},"vehicle_type_id":"4","last_reported":1747059081,"current_range_meters":16000,"station_id":"ce4bhm92rcd13ifvqglg","pricing_plan_id":"cebpf4jnsgd1na2vs0mg"},{"bike_id":"a618bd84-b224-41c3-8f2a-0f8d8b6eaeaf","system_id":"levelo_inurba_marseille","lat":43.28036,"lon":5.36945,"is_reserved":false,"is_disabled":false,"rental_uris":{"android":"levelo://app?vid=a618bd84-b224-41c3-8f2a-0f8d8b6eaeaf","ios":"levelo://app?vid=a618bd84-b224-41c3-8f2a-0f8d8b6eaeaf"},"vehicle_type_id":"4","last_reported":1747059081,"current_range_meters":15200,"station_id":"ce4bha12rcd13ifvqef0","pricing_plan_id":"cebpf4jnsgd1na2vs0mg"},{"bike_id":"b1b6cc35-f7fd-4545-9353-fc07e96bd078","system_id":"levelo_inurba_marseille","lat":43.2863,"lon":5.35091,"is_reserved":false,"is_disabled":false,"rental_uris":{"android":"levelo://app?vid=b1b6cc35-f7fd-4545-9353-fc07e96bd078","ios":"levelo://app?vid=b1b6cc35-f7fd-4545-9353-fc07e96bd078"},"vehicle_type_id":"4","last_reported":1747059081,"current_range_meters":16400,"station_id":"","pricing_plan_id":"cebpf4jnsgd1na2vs0mg"},{"bike_id":"bbc0fba8-7851-4c62-a8d6-4604f7436fb9","system_id":"levelo_inurba_marseille","lat":43.29185,"lon":5.35797,"is_reserved":false,"is_disabled":false,"rental_uris":{"android":"levelo://app?vid=bbc0fba8-7851-4c62-a8d6-4604f7436fb9","ios":"levelo://app?vid=bbc0fba8-7851-4c62-a8d6-4604f7436fb9"},"vehicle_type_id":"4","last_reported":1747059081,"current_range_meters":16000,"station_id":"ce4bhb12rcd13ifvqel0","pricing_plan_id":"cebpf4jnsgd1na2vs0mg"},{"bike_id":"a90c8d72-4db5-4d6c-8c54-f4a52051742e","system_id":"levelo_inurba_marseille","lat":43.27678,"lon":5.38935,"is_reserved":false,"is_disabled":false,"rental_uris":{"android":"levelo://app?vid=a90c8d72-4db5-4d6c-8c54-f4a52051742e","ios":"levelo://app?vid=a90c8d72-4db5-4d6c-8c54-f4a52051742e"},"vehicle_type_id":"4","last_reported":1747059081,"current_range_meters":16400,"station_id":"ce4bhi12rcd13ifvqfo0","pricing_plan_id":"cebpf4jnsgd1na2vs0mg"},{"bike_id":"8a341e20-e785-47db-96fd-85d8c325b819","system_id":"levelo_inurba_marseille","lat":43.255015,"lon":5.376511,"is_reserved":false,"is_disabled":false,"rental_uris":{"android":"levelo://app?vid=8a341e20-e785-47db-96fd-85d8c325b819","ios":"levelo://app?vid=8a341e20-e785-47db-96fd-85d8c325b819"},"vehicle_type_id":"4","last_reported":1747059081,"current_range_meters":16400,"station_id":"ce4bhh12rcd13ifvqff0","pricing_plan_id":"cebpf4jnsgd1na2vs0mg"},{"bike_id":"6b3d1533-31e5-4ab3-aaa2-a3db3b9b356e","system_id":"levelo_inurba_marseille","lat":43.24535,"lon":5.39526,"is_reserved":false,"is_disabled":false,"rental_uris":{"android":"levelo://app?vid=6b3d1533-31e5-4ab3-aaa2-a3db3b9b356e","ios":"levelo://app?vid=6b3d1533-31e5-4ab3-aaa2-a3db3b9b356e"},"vehicle_type_id":"4","last_reported":1747059081,"current_range_meters":16400,"station_id":"ce4bhlp2rcd13ifvqgjg","pricing_plan_id":"cebpf4jnsgd1na2vs0mg"},{"bike_id":"271c5912-31ce-4676-b35e-cdb23c727367","system_id":"levelo_inurba_marseille","lat":43.267991,"lon":5.402602,"is_reserved":false,"is_disabled":false,"rental_uris":{"android":"levelo://app?vid=271c5912-31ce-4676-b35e-cdb23c727367","ios":"levelo://app?vid=271c5912-31ce-4676-b35e-cdb23c727367"},"vehicle_type_id":"4","last_reported":1747059081,"current_range_meters":16400,"station_id":"ce501612rcd8frsf0b60","pricing_plan_id":"cebpf4jnsgd1na2vs0mg"},{"bike_id":"98b480af-95ae-4e2f-8fdc-6829113de4f5","system_id":"levelo_inurba_marseille","lat":43.29982,"lon":5.38494,"is_reserved":false,"is_disabled":false,"rental_uris":{"android":"levelo://app?vid=98b480af-95ae-4e2f-8fdc-6829113de4f5","ios":"levelo://app?vid=98b480af-95ae-4e2f-8fdc-6829113de4f5"},"vehicle_type_id":"4","last_reported":1747059081,"current_range_meters":16000,"station_id":"ce4bgj92rcd13ifvqbd0","pricing_plan_id":"cebpf4jnsgd1na2vs0mg"},{"bike_id":"c27d8d40-65a4-4f64-9339-810ba3888ebd","system_id":"levelo_inurba_marseille","lat":43.28616,"lon":5.35106,"is_reserved":false,"is_disabled":false,"rental_uris":{"android":"levelo://app?vid=c27d8d40-65a4-4f64-9339-810ba3888ebd","ios":"levelo://app?vid=c27d8d40-65a4-4f64-9339-810ba3888ebd"},"vehicle_type_id":"4","last_reported":1747059081,"current_range_meters":16800,"station_id":"ce4bhch2rcd13ifvqeug","pricing_plan_id":"cebpf4jnsgd1na2vs0mg"},{"bike_id":"2683a781-d2bf-4aca-8fb9-474631380f85","system_id":"levelo_inurba_marseille","lat":43.290367,"lon":5.37569,"is_reserved":false,"is_disabled":false,"rental_uris":{"android":"levelo://app?vid=2683a781-d2bf-4aca-8fb9-474631380f85","ios":"levelo://app?vid=2683a781-d2bf-4aca-8fb9-474631380f85"},"vehicle_type_id":"4","last_reported":1747059081,"current_range_meters":16800,"station_id":"ce4bh692rcd13ifvqe90","pricing_plan_id":"cebpf4jnsgd1na2vs0mg"},{"bike_id":"9070461e-8b6b-4090-ad90-e8030643a930","system_id":"levelo_inurba_marseille","lat":43.29187,"lon":5.35785,"is_reserved":false,"is_disabled":false,"rental_uris":{"android":"levelo://app?vid=9070461e-8b6b-4090-ad90-e8030643a930","ios":"levelo://app?vid=9070461e-8b6b-4090-ad90-e8030643a930"},"vehicle_type_id":"4","last_reported":1747059081,"current_range_meters":16800,"station_id":"ce4bhb12rcd13ifvqel0","pricing_plan_id":"cebpf4jnsgd1na2vs0mg"},{"bike_id":"04be18fb-28f2-4aaa-a90a-6b195a3f55a8","system_id":"levelo_inurba_marseille","lat":43.28418,"lon":5.34983,"is_reserved":false,"is_disabled":false,"rental_uris":{"android":"levelo://app?vid=04be18fb-28f2-4aaa-a90a-6b195a3f55a8","ios":"levelo://app?vid=04be18fb-28f2-4aaa-a90a-6b195a3f55a8"},"vehicle_type_id":"4","last_reported":1747059081,"current_range_meters":16800,"station_id":"ce4bhbh2rcd13ifvqepg","pricing_plan_id":"cebpf4jnsgd1na2vs0mg"},{"bike_id":"172f944a-ef04-477c-8d98-b425f70ee08c","system_id":"levelo_inurba_marseille","lat":43.28462,"lon":5.35886,"is_reserved":false,"is_disabled":false,"rental_uris":{"android":"levelo://app?vid=172f944a-ef04-477c-8d98-b425f70ee08c","ios":"levelo://app?vid=172f944a-ef04-477c-8d98-b425f70ee08c"},"vehicle_type_id":"4","last_reported":1747059081,"current_range_meters":16800,"station_id":"ce4bhah2rcd13ifvqei0","pricing_plan_id":"cebpf4jnsgd1na2vs0mg"},{"bike_id":"aed54943-02e4-40d7-9e7d-bd03d9ec6745","system_id":"levelo_inurba_marseille","lat":43.28461,"lon":5.35888,"is_reserved":false,"is_disabled":false,"rental_uris":{"android":"levelo://app?vid=aed54943-02e4-40d7-9e7d-bd03d9ec6745","ios":"levelo://app?vid=aed54943-02e4-40d7-9e7d-bd03d9ec6745"},"vehicle_type_id":"4","last_reported":1747059081,"current_range_meters":16800,"station_id":"ce4bhah2rcd13ifvqei0","pricing_plan_id":"cebpf4jnsgd1na2vs0mg"},{"bike_id":"2aeca25e-88ec-49c3-a3e4-c4a8595ea415","system_id":"levelo_inurba_marseille","lat":43.30891,"lon":5.396265,"is_reserved":false,"is_disabled":false,"rental_uris":{"android":"levelo://app?vid=2aeca25e-88ec-49c3-a3e4-c4a8595ea415","ios":"levelo://app?vid=2aeca25e-88ec-49c3-a3e4-c4a8595ea415"},"vehicle_type_id":"4","last_reported":1747059081,"current_range_meters":17200,"station_id":"ce4bh012rcd13ifvqcv0","pricing_plan_id":"cebpf4jnsgd1na2vs0mg"},{"bike_id":"cca30e24-5285-4346-806f-8a51c4cdca1a","system_id":"levelo_inurba_marseille","lat":43.26936,"lon":5.40257,"is_reserved":false,"is_disabled":false,"rental_uris":{"android":"levelo://app?vid=cca30e24-5285-4346-806f-8a51c4cdca1a","ios":"levelo://app?vid=cca30e24-5285-4346-806f-8a51c4cdca1a"},"vehicle_type_id":"4","last_reported":1747059081,"current_range_meters":16800,"station_id":"cjm6bp8fraef2m0cb0m0","pricing_plan_id":"cebpf4jnsgd1na2vs0mg"},{"bike_id":"804843b6-a7ff-4640-bdad-34b7cd484d70","system_id":"levelo_inurba_marseille","lat":43.29624,"lon":5.3772,"is_reserved":false,"is_disabled":false,"rental_uris":{"android":"levelo://app?vid=804843b6-a7ff-4640-bdad-34b7cd484d70","ios":"levelo://app?vid=804843b6-a7ff-4640-bdad-34b7cd484d70"},"vehicle_type_id":"4","last_reported":1747059081,"current_range_meters":17600,"station_id":"ce4bgi92rcd13ifvqb90","pricing_plan_id":"cebpf4jnsgd1na2vs0mg"},{"bike_id":"dcff86c8-70be-418a-877f-23036e34e8e6","system_id":"levelo_inurba_marseille","lat":43.245789,"lon":5.395183,"is_reserved":false,"is_disabled":false,"rental_uris":{"android":"levelo://app?vid=dcff86c8-70be-418a-877f-23036e34e8e6","ios":"levelo://app?vid=dcff86c8-70be-418a-877f-23036e34e8e6"},"vehicle_type_id":"4","last_reported":1747059081,"current_range_meters":17200,"station_id":"ce4bhu92rcd13ifvqi70","pricing_plan_id":"cebpf4jnsgd1na2vs0mg"},{"bike_id":"6d27065c-621c-414e-8b3e-0078ae3c6dcb","system_id":"levelo_inurba_marseille","lat":43.30601,"lon":5.37221,"is_reserved":false,"is_disabled":false,"rental_uris":{"android":"levelo://app?vid=6d27065c-621c-414e-8b3e-0078ae3c6dcb","ios":"levelo://app?vid=6d27065c-621c-414e-8b3e-0078ae3c6dcb"},"vehicle_type_id":"4","last_reported":1747059081,"current_range_meters":17200,"station_id":"ce4bgqh2rcd13ifvqc4g","pricing_plan_id":"cebpf4jnsgd1na2vs0mg"},{"bike_id":"d29db1d8-c0c6-4c0c-bcb6-754a7be260fd","system_id":"levelo_inurba_marseille","lat":43.28688,"lon":5.37389,"is_reserved":false,"is_disabled":false,"rental_uris":{"android":"levelo://app?vid=d29db1d8-c0c6-4c0c-bcb6-754a7be260fd","ios":"levelo://app?vid=d29db1d8-c0c6-4c0c-bcb6-754a7be260fd"},"vehicle_type_id":"4","last_reported":1747059081,"current_range_meters":17200,"station_id":"ce4bh3p2rcd13ifvqdq0","pricing_plan_id":"cebpf4jnsgd1na2vs0mg"},{"bike_id":"26522498-9f0b-497c-90ec-17ccb584e581","system_id":"levelo_inurba_marseille","lat":43.21744,"lon":5.34606,"is_reserved":false,"is_disabled":false,"rental_uris":{"android":"levelo://app?vid=26522498-9f0b-497c-90ec-17ccb584e581","ios":"levelo://app?vid=26522498-9f0b-497c-90ec-17ccb584e581"},"vehicle_type_id":"4","last_reported":1747059081,"current_range_meters":17200,"station_id":"st_cvj6r9ubvosntc0bgbag","pricing_plan_id":"cebpf4jnsgd1na2vs0mg"},{"bike_id":"715d8b42-b1bd-4aa4-8895-068be4561a16","system_id":"levelo_inurba_marseille","lat":43.2799,"lon":5.41663,"is_reserved":false,"is_disabled":false,"rental_uris":{"android":"levelo://app?vid=715d8b42-b1bd-4aa4-8895-068be4561a16","ios":"levelo://app?vid=715d8b42-b1bd-4aa4-8895-068be4561a16"},"vehicle_type_id":"4","last_reported":1747059081,"current_range_meters":17200,"station_id":"ce4bho12rcd13ifvqh1g","pricing_plan_id":"cebpf4jnsgd1na2vs0mg"},{"bike_id":"6f4f1eff-89e4-491b-8e26-dcc2da661074","system_id":"levelo_inurba_marseille","lat":43.28665,"lon":5.36342,"is_reserved":false,"is_disabled":false,"rental_uris":{"android":"levelo://app?vid=6f4f1eff-89e4-491b-8e26-dcc2da661074","ios":"levelo://app?vid=6f4f1eff-89e4-491b-8e26-dcc2da661074"},"vehicle_type_id":"4","last_reported":1747059081,"current_range_meters":17200,"station_id":"ce4bhah2rcd13ifvqej0","pricing_plan_id":"cebpf4jnsgd1na2vs0mg"},{"bike_id":"d2c85fce-4bf1-4dc9-8e0a-3da06a55db3f","system_id":"levelo_inurba_marseille","lat":43.28939,"lon":5.36629,"is_reserved":false,"is_disabled":false,"rental_uris":{"android":"levelo://app?vid=d2c85fce-4bf1-4dc9-8e0a-3da06a55db3f","ios":"levelo://app?vid=d2c85fce-4bf1-4dc9-8e0a-3da06a55db3f"},"vehicle_type_id":"4","last_reported":1747059081,"current_range_meters":17200,"station_id":"ce4bhap2rcd13ifvqek0","pricing_plan_id":"cebpf4jnsgd1na2vs0mg"},{"bike_id":"3201c4c7-1e74-4fc4-80df-5750ce7d9b94","system_id":"levelo_inurba_marseille","lat":43.27942,"lon":5.41044,"is_reserved":false,"is_disabled":false,"rental_uris":{"android":"levelo://app?vid=3201c4c7-1e74-4fc4-80df-5750ce7d9b94","ios":"levelo://app?vid=3201c4c7-1e74-4fc4-80df-5750ce7d9b94"},"vehicle_type_id":"4","last_reported":1747059081,"current_range_meters":17200,"station_id":"ce4bhnp2rcd13ifvqh0g","pricing_plan_id":"cebpf4jnsgd1na2vs0mg"},{"bike_id":"fc6e693c-992c-41f9-b827-1151421c293f","system_id":"levelo_inurba_marseille","lat":43.25942,"lon":5.40937,"is_reserved":false,"is_disabled":false,"rental_uris":{"android":"levelo://app?vid=fc6e693c-992c-41f9-b827-1151421c293f","ios":"levelo://app?vid=fc6e693c-992c-41f9-b827-1151421c293f"},"vehicle_type_id":"4","last_reported":1747059081,"current_range_meters":17200,"station_id":"ce4bhm92rcd13ifvqglg","pricing_plan_id":"cebpf4jnsgd1na2vs0mg"},{"bike_id":"eb531f1c-b339-452d-aab6-0dba3bc32cc8","system_id":"levelo_inurba_marseille","lat":43.21747,"lon":5.34602,"is_reserved":false,"is_disabled":false,"rental_uris":{"android":"levelo://app?vid=eb531f1c-b339-452d-aab6-0dba3bc32cc8","ios":"levelo://app?vid=eb531f1c-b339-452d-aab6-0dba3bc32cc8"},"vehicle_type_id":"4","last_reported":1747059081,"current_range_meters":17600,"station_id":"st_cvj6r9ubvosntc0bgbag","pricing_plan_id":"cebpf4jnsgd1na2vs0mg"},{"bike_id":"f8dc9e04-d2ee-4752-9e41-df75a435cdb1","system_id":"levelo_inurba_marseille","lat":43.32535,"lon":5.41462,"is_reserved":false,"is_disabled":false,"rental_uris":{"android":"levelo://app?vid=f8dc9e04-d2ee-4752-9e41-df75a435cdb1","ios":"levelo://app?vid=f8dc9e04-d2ee-4752-9e41-df75a435cdb1"},"vehicle_type_id":"4","last_reported":1747059081,"current_range_meters":17600,"station_id":"ce4bhq12rcd13ifvqhhg","pricing_plan_id":"cebpf4jnsgd1na2vs0mg"},{"bike_id":"2a8c2e37-6885-4202-8960-3b555ee20076","system_id":"levelo_inurba_marseille","lat":43.2315,"lon":5.43718,"is_reserved":false,"is_disabled":false,"rental_uris":{"android":"levelo://app?vid=2a8c2e37-6885-4202-8960-3b555ee20076","ios":"levelo://app?vid=2a8c2e37-6885-4202-8960-3b555ee20076"},"vehicle_type_id":"4","last_reported":1747059081,"current_range_meters":17600,"station_id":"ce4bhmp2rcd13ifvqgog","pricing_plan_id":"cebpf4jnsgd1na2vs0mg"},{"bike_id":"1228b166-43df-41df-b208-ffffce2ba20a","system_id":"levelo_inurba_marseille","lat":43.28944,"lon":5.36632,"is_reserved":false,"is_disabled":false,"rental_uris":{"android":"levelo://app?vid=1228b166-43df-41df-b208-ffffce2ba20a","ios":"levelo://app?vid=1228b166-43df-41df-b208-ffffce2ba20a"},"vehicle_type_id":"4","last_reported":1747059081,"current_range_meters":18000,"station_id":"ce4bhap2rcd13ifvqek0","pricing_plan_id":"cebpf4jnsgd1na2vs0mg"},{"bike_id":"2ac95525-4e8c-410f-9a90-e578faae70bb","system_id":"levelo_inurba_marseille","lat":43.28454,"lon":5.35891,"is_reserved":false,"is_disabled":false,"rental_uris":{"android":"levelo://app?vid=2ac95525-4e8c-410f-9a90-e578faae70bb","ios":"levelo://app?vid=2ac95525-4e8c-410f-9a90-e578faae70bb"},"vehicle_type_id":"4","last_reported":1747059081,"current_range_meters":18000,"station_id":"ce4bhah2rcd13ifvqei0","pricing_plan_id":"cebpf4jnsgd1na2vs0mg"},{"bike_id":"b7e880e1-52c9-4aa8-acb9-2a4869eb902f","system_id":"levelo_inurba_marseille","lat":43.26192,"lon":5.37467,"is_reserved":false,"is_disabled":false,"rental_uris":{"android":"levelo://app?vid=b7e880e1-52c9-4aa8-acb9-2a4869eb902f","ios":"levelo://app?vid=b7e880e1-52c9-4aa8-acb9-2a4869eb902f"},"vehicle_type_id":"4","last_reported":1747059081,"current_range_meters":18000,"station_id":"ce4bhgp2rcd13ifvqfc0","pricing_plan_id":"cebpf4jnsgd1na2vs0mg"},{"bike_id":"9c9976d0-0d98-4533-86d0-5b42d0b923a2","system_id":"levelo_inurba_marseille","lat":43.3091,"lon":5.36837,"is_reserved":false,"is_disabled":false,"rental_uris":{"android":"levelo://app?vid=9c9976d0-0d98-4533-86d0-5b42d0b923a2","ios":"levelo://app?vid=9c9976d0-0d98-4533-86d0-5b42d0b923a2"},"vehicle_type_id":"4","last_reported":1747059081,"current_range_meters":18000,"station_id":"ce4bgn92rcd13ifvqbvg","pricing_plan_id":"cebpf4jnsgd1na2vs0mg"},{"bike_id":"78a336b2-7d28-4a19-a82c-6806dcf329c6","system_id":"levelo_inurba_marseille","lat":43.286141,"lon":5.351082,"is_reserved":false,"is_disabled":false,"rental_uris":{"android":"levelo://app?vid=78a336b2-7d28-4a19-a82c-6806dcf329c6","ios":"levelo://app?vid=78a336b2-7d28-4a19-a82c-6806dcf329c6"},"vehicle_type_id":"4","last_reported":1747059081,"current_range_meters":18000,"station_id":"ce4bhch2rcd13ifvqeug","pricing_plan_id":"cebpf4jnsgd1na2vs0mg"},{"bike_id":"af2bd149-3fdf-4bc5-bb5d-c08327e708fd","system_id":"levelo_inurba_marseille","lat":43.30799,"lon":5.38157,"is_reserved":false,"is_disabled":false,"rental_uris":{"android":"levelo://app?vid=af2bd149-3fdf-4bc5-bb5d-c08327e708fd","ios":"levelo://app?vid=af2bd149-3fdf-4bc5-bb5d-c08327e708fd"},"vehicle_type_id":"4","last_reported":1747059081,"current_range_meters":17600,"station_id":"ce4bgt12rcd13ifvqce0","pricing_plan_id":"cebpf4jnsgd1na2vs0mg"},{"bike_id":"86689108-8b6c-425a-98ae-946b288cf2c2","system_id":"levelo_inurba_marseille","lat":43.28469,"lon":5.35882,"is_reserved":false,"is_disabled":false,"rental_uris":{"android":"levelo://app?vid=86689108-8b6c-425a-98ae-946b288cf2c2","ios":"levelo://app?vid=86689108-8b6c-425a-98ae-946b288cf2c2"},"vehicle_type_id":"4","last_reported":1747059081,"current_range_meters":18000,"station_id":"ce4bhah2rcd13ifvqei0","pricing_plan_id":"cebpf4jnsgd1na2vs0mg"},{"bike_id":"76e853fc-7070-47ca-8b27-58967fe64b61","system_id":"levelo_inurba_marseille","lat":43.29815,"lon":5.3811,"is_reserved":false,"is_disabled":false,"rental_uris":{"android":"levelo://app?vid=76e853fc-7070-47ca-8b27-58967fe64b61","ios":"levelo://app?vid=76e853fc-7070-47ca-8b27-58967fe64b61"},"vehicle_type_id":"4","last_reported":1747059081,"current_range_meters":18000,"station_id":"ce4bgip2rcd13ifvqbb0","pricing_plan_id":"cebpf4jnsgd1na2vs0mg"},{"bike_id":"d9ced790-526f-4a4b-8046-76ed359a515a","system_id":"levelo_inurba_marseille","lat":43.2843,"lon":5.34972,"is_reserved":false,"is_disabled":false,"rental_uris":{"android":"levelo://app?vid=d9ced790-526f-4a4b-8046-76ed359a515a","ios":"levelo://app?vid=d9ced790-526f-4a4b-8046-76ed359a515a"},"vehicle_type_id":"4","last_reported":1747059081,"current_range_meters":18000,"station_id":"ce4bhbh2rcd13ifvqepg","pricing_plan_id":"cebpf4jnsgd1na2vs0mg"},{"bike_id":"691ad911-b1d0-47fc-a77d-e5e3db08d382","system_id":"levelo_inurba_marseille","lat":43.21767,"lon":5.34566,"is_reserved":false,"is_disabled":false,"rental_uris":{"android":"levelo://app?vid=691ad911-b1d0-47fc-a77d-e5e3db08d382","ios":"levelo://app?vid=691ad911-b1d0-47fc-a77d-e5e3db08d382"},"vehicle_type_id":"4","last_reported":1747059081,"current_range_meters":18800,"station_id":"st_cvj6r9ubvosntc0bgbag","pricing_plan_id":"cebpf4jnsgd1na2vs0mg"},{"bike_id":"e1685e6f-1c82-4f20-b256-99fc36924c4c","system_id":"levelo_inurba_marseille","lat":43.31996,"lon":5.38166,"is_reserved":false,"is_disabled":true,"rental_uris":{"android":"levelo://app?vid=e1685e6f-1c82-4f20-b256-99fc36924c4c","ios":"levelo://app?vid=e1685e6f-1c82-4f20-b256-99fc36924c4c"},"vehicle_type_id":"4","last_reported":1747059081,"current_range_meters":18800,"station_id":"ce4bhr12rcd13ifvqhpg","pricing_plan_id":"cebpf4jnsgd1na2vs0mg"},{"bike_id":"042d68e0-4a95-480b-99b3-c78c4aaaa132","system_id":"levelo_inurba_marseille","lat":43.30275,"lon":5.37691,"is_reserved":false,"is_disabled":false,"rental_uris":{"android":"levelo://app?vid=042d68e0-4a95-480b-99b3-c78c4aaaa132","ios":"levelo://app?vid=042d68e0-4a95-480b-99b3-c78c4aaaa132"},"vehicle_type_id":"4","last_reported":1747059081,"current_range_meters":18800,"station_id":"ce4bguh2rcd13ifvqcj0","pricing_plan_id":"cebpf4jnsgd1na2vs0mg"},{"bike_id":"111998c6-70e8-4823-85aa-cbe0eb12546b","system_id":"levelo_inurba_marseille","lat":43.28416,"lon":5.34983,"is_reserved":false,"is_disabled":false,"rental_uris":{"android":"levelo://app?vid=111998c6-70e8-4823-85aa-cbe0eb12546b","ios":"levelo://app?vid=111998c6-70e8-4823-85aa-cbe0eb12546b"},"vehicle_type_id":"4","last_reported":1747059081,"current_range_meters":18800,"station_id":"ce4bhbh2rcd13ifvqepg","pricing_plan_id":"cebpf4jnsgd1na2vs0mg"},{"bike_id":"da21d337-83ae-4478-ad6e-7b165652a75e","system_id":"levelo_inurba_marseille","lat":43.284628,"lon":5.358812,"is_reserved":false,"is_disabled":false,"rental_uris":{"android":"levelo://app?vid=da21d337-83ae-4478-ad6e-7b165652a75e","ios":"levelo://app?vid=da21d337-83ae-4478-ad6e-7b165652a75e"},"vehicle_type_id":"4","last_reported":1747059081,"current_range_meters":18800,"station_id":"","pricing_plan_id":"cebpf4jnsgd1na2vs0mg"},{"bike_id":"e2c80733-19b7-4d31-aee0-dc716a34092b","system_id":"levelo_inurba_marseille","lat":43.28428,"lon":5.35004,"is_reserved":false,"is_disabled":false,"rental_uris":{"android":"levelo://app?vid=e2c80733-19b7-4d31-aee0-dc716a34092b","ios":"levelo://app?vid=e2c80733-19b7-4d31-aee0-dc716a34092b"},"vehicle_type_id":"4","last_reported":1747059081,"current_range_meters":19200,"station_id":"ce4bhbh2rcd13ifvqepg","pricing_plan_id":"cebpf4jnsgd1na2vs0mg"},{"bike_id":"052e8be5-756e-40b8-bf8d-fe2bdca2d830","system_id":"levelo_inurba_marseille","lat":43.2119,"lon":5.3509,"is_reserved":false,"is_disabled":false,"rental_uris":{"android":"levelo://app?vid=052e8be5-756e-40b8-bf8d-fe2bdca2d830","ios":"levelo://app?vid=052e8be5-756e-40b8-bf8d-fe2bdca2d830"},"vehicle_type_id":"4","last_reported":1747059081,"current_range_meters":19200,"station_id":"st_cvj6sg6p6f1abm77japg","pricing_plan_id":"cebpf4jnsgd1na2vs0mg"},{"bike_id":"a7bf3a5a-66e1-45ef-b34c-541e1492869e","system_id":"levelo_inurba_marseille","lat":43.31171,"lon":5.38723,"is_reserved":false,"is_disabled":false,"rental_uris":{"android":"levelo://app?vid=a7bf3a5a-66e1-45ef-b34c-541e1492869e","ios":"levelo://app?vid=a7bf3a5a-66e1-45ef-b34c-541e1492869e"},"vehicle_type_id":"4","last_reported":1747059081,"current_range_meters":19200,"station_id":"ce4bgv12rcd13ifvqcp0","pricing_plan_id":"cebpf4jnsgd1na2vs0mg"},{"bike_id":"38b7b9f0-4d03-4b6a-b846-b1a53fc87f21","system_id":"levelo_inurba_marseille","lat":43.26208,"lon":5.40445,"is_reserved":false,"is_disabled":false,"rental_uris":{"android":"levelo://app?vid=38b7b9f0-4d03-4b6a-b846-b1a53fc87f21","ios":"levelo://app?vid=38b7b9f0-4d03-4b6a-b846-b1a53fc87f21"},"vehicle_type_id":"4","last_reported":1747059081,"current_range_meters":19200,"station_id":"ce4bhmh2rcd13ifvqgmg","pricing_plan_id":"cebpf4jnsgd1na2vs0mg"},{"bike_id":"8f898ea4-0b70-46db-b495-a08fd22223a4","system_id":"levelo_inurba_marseille","lat":43.22929,"lon":5.35374,"is_reserved":false,"is_disabled":false,"rental_uris":{"android":"levelo://app?vid=8f898ea4-0b70-46db-b495-a08fd22223a4","ios":"levelo://app?vid=8f898ea4-0b70-46db-b495-a08fd22223a4"},"vehicle_type_id":"4","last_reported":1747059081,"current_range_meters":19200,"station_id":"cpo3532slgdg3j2ikp40","pricing_plan_id":"cebpf4jnsgd1na2vs0mg"},{"bike_id":"ad318f3b-2a79-4060-98f6-ed32498cf202","system_id":"levelo_inurba_marseille","lat":43.25956,"lon":5.40933,"is_reserved":false,"is_disabled":false,"rental_uris":{"android":"levelo://app?vid=ad318f3b-2a79-4060-98f6-ed32498cf202","ios":"levelo://app?vid=ad318f3b-2a79-4060-98f6-ed32498cf202"},"vehicle_type_id":"4","last_reported":1747059081,"current_range_meters":19200,"station_id":"ce4bhm92rcd13ifvqglg","pricing_plan_id":"cebpf4jnsgd1na2vs0mg"},{"bike_id":"f3ec045a-47e2-4247-8265-708a5969471b","system_id":"levelo_inurba_marseille","lat":43.26214,"lon":5.37448,"is_reserved":false,"is_disabled":false,"rental_uris":{"android":"levelo://app?vid=f3ec045a-47e2-4247-8265-708a5969471b","ios":"levelo://app?vid=f3ec045a-47e2-4247-8265-708a5969471b"},"vehicle_type_id":"4","last_reported":1747059081,"current_range_meters":19200,"station_id":"ce4bhgp2rcd13ifvqfc0","pricing_plan_id":"cebpf4jnsgd1na2vs0mg"},{"bike_id":"b0902169-c22b-4fd0-baf8-b0b4167fcea1","system_id":"levelo_inurba_marseille","lat":43.281695,"lon":5.368005,"is_reserved":false,"is_disabled":false,"rental_uris":{"android":"levelo://app?vid=b0902169-c22b-4fd0-baf8-b0b4167fcea1","ios":"levelo://app?vid=b0902169-c22b-4fd0-baf8-b0b4167fcea1"},"vehicle_type_id":"4","last_reported":1747059081,"current_range_meters":18800,"station_id":"ce4bha12rcd13ifvqef0","pricing_plan_id":"cebpf4jnsgd1na2vs0mg"},{"bike_id":"609a10fb-0d7e-41d5-9f3f-2f62aa9d2501","system_id":"levelo_inurba_marseille","lat":43.239611,"lon":5.366247,"is_reserved":false,"is_disabled":false,"rental_uris":{"android":"levelo://app?vid=609a10fb-0d7e-41d5-9f3f-2f62aa9d2501","ios":"levelo://app?vid=609a10fb-0d7e-41d5-9f3f-2f62aa9d2501"},"vehicle_type_id":"4","last_reported":1747059081,"current_range_meters":18800,"station_id":"ce4bhi12rcd13ifvqfp0","pricing_plan_id":"cebpf4jnsgd1na2vs0mg"},{"bike_id":"8ef831d4-0dbc-4f70-892d-eef0645518c0","system_id":"levelo_inurba_marseille","lat":43.2846,"lon":5.35888,"is_reserved":false,"is_disabled":false,"rental_uris":{"android":"levelo://app?vid=8ef831d4-0dbc-4f70-892d-eef0645518c0","ios":"levelo://app?vid=8ef831d4-0dbc-4f70-892d-eef0645518c0"},"vehicle_type_id":"4","last_reported":1747059081,"current_range_meters":19600,"station_id":"ce4bhah2rcd13ifvqei0","pricing_plan_id":"cebpf4jnsgd1na2vs0mg"},{"bike_id":"cc25aae6-3197-44f8-8471-8a0efb35cc4f","system_id":"levelo_inurba_marseille","lat":43.30636,"lon":5.36611,"is_reserved":false,"is_disabled":false,"rental_uris":{"android":"levelo://app?vid=cc25aae6-3197-44f8-8471-8a0efb35cc4f","ios":"levelo://app?vid=cc25aae6-3197-44f8-8471-8a0efb35cc4f"},"vehicle_type_id":"4","last_reported":1747059081,"current_range_meters":19600,"station_id":"","pricing_plan_id":"cebpf4jnsgd1na2vs0mg"},{"bike_id":"f666b464-3bfb-4c9e-8827-f5db37932cb6","system_id":"levelo_inurba_marseille","lat":43.30948,"lon":5.39035,"is_reserved":false,"is_disabled":false,"rental_uris":{"android":"levelo://app?vid=f666b464-3bfb-4c9e-8827-f5db37932cb6","ios":"levelo://app?vid=f666b464-3bfb-4c9e-8827-f5db37932cb6"},"vehicle_type_id":"4","last_reported":1747059081,"current_range_meters":19200,"station_id":"ce4bgup2rcd13ifvqco0","pricing_plan_id":"cebpf4jnsgd1na2vs0mg"},{"bike_id":"1966f97c-cd4e-4fe3-a193-750443ac0f03","system_id":"levelo_inurba_marseille","lat":43.27173,"lon":5.41016,"is_reserved":false,"is_disabled":false,"rental_uris":{"android":"levelo://app?vid=1966f97c-cd4e-4fe3-a193-750443ac0f03","ios":"levelo://app?vid=1966f97c-cd4e-4fe3-a193-750443ac0f03"},"vehicle_type_id":"4","last_reported":1747059081,"current_range_meters":19600,"station_id":"ce4bhl12rcd13ifvqgf0","pricing_plan_id":"cebpf4jnsgd1na2vs0mg"},{"bike_id":"c84cc980-38fe-4761-924e-99f94b7ce9c7","system_id":"levelo_inurba_marseille","lat":43.337444,"lon":5.374475,"is_reserved":false,"is_disabled":true,"rental_uris":{"android":"levelo://app?vid=c84cc980-38fe-4761-924e-99f94b7ce9c7","ios":"levelo://app?vid=c84cc980-38fe-4761-924e-99f94b7ce9c7"},"vehicle_type_id":"4","last_reported":1747059081,"current_range_meters":19600,"station_id":"","pricing_plan_id":"cebpf4jnsgd1na2vs0mg"},{"bike_id":"2c288832-3c57-43e0-af4a-551a66849218","system_id":"levelo_inurba_marseille","lat":43.28475,"lon":5.38412,"is_reserved":false,"is_disabled":false,"rental_uris":{"android":"levelo://app?vid=2c288832-3c57-43e0-af4a-551a66849218","ios":"levelo://app?vid=2c288832-3c57-43e0-af4a-551a66849218"},"vehicle_type_id":"4","last_reported":1747059081,"current_range_meters":19600,"station_id":"ce4bh512rcd13ifvqe3g","pricing_plan_id":"cebpf4jnsgd1na2vs0mg"},{"bike_id":"5f0d9b6b-d401-4896-884e-27dfb36fdee6","system_id":"levelo_inurba_marseille","lat":43.21747,"lon":5.34601,"is_reserved":false,"is_disabled":false,"rental_uris":{"android":"levelo://app?vid=5f0d9b6b-d401-4896-884e-27dfb36fdee6","ios":"levelo://app?vid=5f0d9b6b-d401-4896-884e-27dfb36fdee6"},"vehicle_type_id":"4","last_reported":1747059081,"current_range_meters":19600,"station_id":"st_cvj6r9ubvosntc0bgbag","pricing_plan_id":"cebpf4jnsgd1na2vs0mg"},{"bike_id":"ed473e1a-d633-48d8-a37d-0e73623d72ac","system_id":"levelo_inurba_marseille","lat":43.27923,"lon":5.39577,"is_reserved":false,"is_disabled":false,"rental_uris":{"android":"levelo://app?vid=ed473e1a-d633-48d8-a37d-0e73623d72ac","ios":"levelo://app?vid=ed473e1a-d633-48d8-a37d-0e73623d72ac"},"vehicle_type_id":"4","last_reported":1747059081,"current_range_meters":20000,"station_id":"ce4bhf92rcd13ifvqf40","pricing_plan_id":"cebpf4jnsgd1na2vs0mg"},{"bike_id":"34e47527-cfa2-433b-8804-99368dbada27","system_id":"levelo_inurba_marseille","lat":43.2467,"lon":5.38138,"is_reserved":false,"is_disabled":false,"rental_uris":{"android":"levelo://app?vid=34e47527-cfa2-433b-8804-99368dbada27","ios":"levelo://app?vid=34e47527-cfa2-433b-8804-99368dbada27"},"vehicle_type_id":"4","last_reported":1747059081,"current_range_meters":20000,"station_id":"ce4bhih2rcd13ifvqfr0","pricing_plan_id":"cebpf4jnsgd1na2vs0mg"},{"bike_id":"6751c3af-2785-42de-bc81-f466abd046af","system_id":"levelo_inurba_marseille","lat":43.28432,"lon":5.35003,"is_reserved":false,"is_disabled":false,"rental_uris":{"android":"levelo://app?vid=6751c3af-2785-42de-bc81-f466abd046af","ios":"levelo://app?vid=6751c3af-2785-42de-bc81-f466abd046af"},"vehicle_type_id":"4","last_reported":1747059081,"current_range_meters":20000,"station_id":"ce4bhbh2rcd13ifvqepg","pricing_plan_id":"cebpf4jnsgd1na2vs0mg"},{"bike_id":"efc88c3c-910a-4ce7-84b2-480af6d11f71","system_id":"levelo_inurba_marseille","lat":43.28269,"lon":5.35063,"is_reserved":false,"is_disabled":false,"rental_uris":{"android":"levelo://app?vid=efc88c3c-910a-4ce7-84b2-480af6d11f71","ios":"levelo://app?vid=efc88c3c-910a-4ce7-84b2-480af6d11f71"},"vehicle_type_id":"4","last_reported":1747059081,"current_range_meters":20000,"station_id":"ce4bhbp2rcd13ifvqerg","pricing_plan_id":"cebpf4jnsgd1na2vs0mg"},{"bike_id":"82171c0d-e74b-441d-9785-ea5f1f55c2b9","system_id":"levelo_inurba_marseille","lat":43.2844,"lon":5.35002,"is_reserved":false,"is_disabled":false,"rental_uris":{"android":"levelo://app?vid=82171c0d-e74b-441d-9785-ea5f1f55c2b9","ios":"levelo://app?vid=82171c0d-e74b-441d-9785-ea5f1f55c2b9"},"vehicle_type_id":"4","last_reported":1747059081,"current_range_meters":20000,"station_id":"ce4bhbh2rcd13ifvqepg","pricing_plan_id":"cebpf4jnsgd1na2vs0mg"},{"bike_id":"3448c749-1213-44f7-a5dc-76acf1ea062b","system_id":"levelo_inurba_marseille","lat":43.23195,"lon":5.35551,"is_reserved":false,"is_disabled":false,"rental_uris":{"android":"levelo://app?vid=3448c749-1213-44f7-a5dc-76acf1ea062b","ios":"levelo://app?vid=3448c749-1213-44f7-a5dc-76acf1ea062b"},"vehicle_type_id":"4","last_reported":1747059081,"current_range_meters":20400,"station_id":"ce4bhu92rcd13ifvqi70","pricing_plan_id":"cebpf4jnsgd1na2vs0mg"},{"bike_id":"ae51e388-2b5c-442c-ae57-1854623b94cc","system_id":"levelo_inurba_marseille","lat":43.29005,"lon":5.35609,"is_reserved":false,"is_disabled":false,"rental_uris":{"android":"levelo://app?vid=ae51e388-2b5c-442c-ae57-1854623b94cc","ios":"levelo://app?vid=ae51e388-2b5c-442c-ae57-1854623b94cc"},"vehicle_type_id":"4","last_reported":1747059081,"current_range_meters":20000,"station_id":"ce4bhb92rcd13ifvqen0","pricing_plan_id":"cebpf4jnsgd1na2vs0mg"},{"bike_id":"ee9711bb-60b9-45e3-abe3-db1afee53a9f","system_id":"levelo_inurba_marseille","lat":43.21745,"lon":5.3461,"is_reserved":false,"is_disabled":false,"rental_uris":{"android":"levelo://app?vid=ee9711bb-60b9-45e3-abe3-db1afee53a9f","ios":"levelo://app?vid=ee9711bb-60b9-45e3-abe3-db1afee53a9f"},"vehicle_type_id":"4","last_reported":1747059081,"current_range_meters":20400,"station_id":"st_cvj6r9ubvosntc0bgbag","pricing_plan_id":"cebpf4jnsgd1na2vs0mg"},{"bike_id":"49c96fcf-2465-4fdc-bf30-4c24a3d614d2","system_id":"levelo_inurba_marseille","lat":43.25586,"lon":5.38246,"is_reserved":false,"is_disabled":false,"rental_uris":{"android":"levelo://app?vid=49c96fcf-2465-4fdc-bf30-4c24a3d614d2","ios":"levelo://app?vid=49c96fcf-2465-4fdc-bf30-4c24a3d614d2"},"vehicle_type_id":"4","last_reported":1747059081,"current_range_meters":20400,"station_id":"ce4bhih2rcd13ifvqfs0","pricing_plan_id":"cebpf4jnsgd1na2vs0mg"},{"bike_id":"a000f736-8505-45d3-bbd2-3599fb51dbac","system_id":"levelo_inurba_marseille","lat":43.29902,"lon":5.38149,"is_reserved":false,"is_disabled":false,"rental_uris":{"android":"levelo://app?vid=a000f736-8505-45d3-bbd2-3599fb51dbac","ios":"levelo://app?vid=a000f736-8505-45d3-bbd2-3599fb51dbac"},"vehicle_type_id":"4","last_reported":1747059081,"current_range_meters":20400,"station_id":"ce4bgj12rcd13ifvqbc0","pricing_plan_id":"cebpf4jnsgd1na2vs0mg"},{"bike_id":"061fc34b-6ce8-4212-9448-cfe9bd1e1fb7","system_id":"levelo_inurba_marseille","lat":43.28266,"lon":5.35071,"is_reserved":false,"is_disabled":false,"rental_uris":{"android":"levelo://app?vid=061fc34b-6ce8-4212-9448-cfe9bd1e1fb7","ios":"levelo://app?vid=061fc34b-6ce8-4212-9448-cfe9bd1e1fb7"},"vehicle_type_id":"4","last_reported":1747059081,"current_range_meters":20800,"station_id":"ce4bhbp2rcd13ifvqerg","pricing_plan_id":"cebpf4jnsgd1na2vs0mg"},{"bike_id":"8704742c-964f-41d6-9c53-9885dcd75b15","system_id":"levelo_inurba_marseille","lat":43.28849,"lon":5.35857,"is_reserved":false,"is_disabled":false,"rental_uris":{"android":"levelo://app?vid=8704742c-964f-41d6-9c53-9885dcd75b15","ios":"levelo://app?vid=8704742c-964f-41d6-9c53-9885dcd75b15"},"vehicle_type_id":"4","last_reported":1747059081,"current_range_meters":20800,"station_id":"ce4bhb12rcd13ifvqem0","pricing_plan_id":"cebpf4jnsgd1na2vs0mg"},{"bike_id":"a932069e-597c-44bf-aa88-ed9d25836cd0","system_id":"levelo_inurba_marseille","lat":43.28419,"lon":5.34979,"is_reserved":false,"is_disabled":false,"rental_uris":{"android":"levelo://app?vid=a932069e-597c-44bf-aa88-ed9d25836cd0","ios":"levelo://app?vid=a932069e-597c-44bf-aa88-ed9d25836cd0"},"vehicle_type_id":"4","last_reported":1747059081,"current_range_meters":20800,"station_id":"ce4bhbh2rcd13ifvqepg","pricing_plan_id":"cebpf4jnsgd1na2vs0mg"},{"bike_id":"da654187-1c8a-4700-9460-3e01dbdd9378","system_id":"levelo_inurba_marseille","lat":43.29503,"lon":5.37514,"is_reserved":false,"is_disabled":false,"rental_uris":{"android":"levelo://app?vid=da654187-1c8a-4700-9460-3e01dbdd9378","ios":"levelo://app?vid=da654187-1c8a-4700-9460-3e01dbdd9378"},"vehicle_type_id":"4","last_reported":1747059081,"current_range_meters":20800,"station_id":"ce4bgkp2rcd13ifvqbmg","pricing_plan_id":"cebpf4jnsgd1na2vs0mg"},{"bike_id":"7ebe037d-af2b-4a64-86e1-7ca94d8ecec3","system_id":"levelo_inurba_marseille","lat":43.30144,"lon":5.38776,"is_reserved":false,"is_disabled":false,"rental_uris":{"android":"levelo://app?vid=7ebe037d-af2b-4a64-86e1-7ca94d8ecec3","ios":"levelo://app?vid=7ebe037d-af2b-4a64-86e1-7ca94d8ecec3"},"vehicle_type_id":"4","last_reported":1747059081,"current_range_meters":21600,"station_id":"ce4bghh2rcd13ifvqb60","pricing_plan_id":"cebpf4jnsgd1na2vs0mg"},{"bike_id":"1c1c6e84-1662-4d19-899d-560f87afcf79","system_id":"levelo_inurba_marseille","lat":43.28263,"lon":5.35059,"is_reserved":false,"is_disabled":false,"rental_uris":{"android":"levelo://app?vid=1c1c6e84-1662-4d19-899d-560f87afcf79","ios":"levelo://app?vid=1c1c6e84-1662-4d19-899d-560f87afcf79"},"vehicle_type_id":"4","last_reported":1747059081,"current_range_meters":21600,"station_id":"ce4bhbp2rcd13ifvqerg","pricing_plan_id":"cebpf4jnsgd1na2vs0mg"},{"bike_id":"b464e19c-9bd1-4345-b31d-be00b7c38193","system_id":"levelo_inurba_marseille","lat":43.28408,"lon":5.34996,"is_reserved":false,"is_disabled":false,"rental_uris":{"android":"levelo://app?vid=b464e19c-9bd1-4345-b31d-be00b7c38193","ios":"levelo://app?vid=b464e19c-9bd1-4345-b31d-be00b7c38193"},"vehicle_type_id":"4","last_reported":1747059081,"current_range_meters":21600,"station_id":"ce4bhbh2rcd13ifvqepg","pricing_plan_id":"cebpf4jnsgd1na2vs0mg"},{"bike_id":"1cbad096-db62-4404-b59f-c8a0c25f069c","system_id":"levelo_inurba_marseille","lat":43.28417,"lon":5.37498,"is_reserved":false,"is_disabled":false,"rental_uris":{"android":"levelo://app?vid=1cbad096-db62-4404-b59f-c8a0c25f069c","ios":"levelo://app?vid=1cbad096-db62-4404-b59f-c8a0c25f069c"},"vehicle_type_id":"4","last_reported":1747059081,"current_range_meters":21600,"station_id":"ce4bh412rcd13ifvqds0","pricing_plan_id":"cebpf4jnsgd1na2vs0mg"},{"bike_id":"31e3040e-565f-47bd-b1a2-2ef7c3667175","system_id":"levelo_inurba_marseille","lat":43.27986,"lon":5.4166,"is_reserved":false,"is_disabled":false,"rental_uris":{"android":"levelo://app?vid=31e3040e-565f-47bd-b1a2-2ef7c3667175","ios":"levelo://app?vid=31e3040e-565f-47bd-b1a2-2ef7c3667175"},"vehicle_type_id":"4","last_reported":1747059081,"current_range_meters":22000,"station_id":"ce4bho12rcd13ifvqh1g","pricing_plan_id":"cebpf4jnsgd1na2vs0mg"},{"bike_id":"261ad417-f434-4668-ad4f-ed2ad4c5aa2d","system_id":"levelo_inurba_marseille","lat":43.24076,"lon":5.37761,"is_reserved":false,"is_disabled":false,"rental_uris":{"android":"levelo://app?vid=261ad417-f434-4668-ad4f-ed2ad4c5aa2d","ios":"levelo://app?vid=261ad417-f434-4668-ad4f-ed2ad4c5aa2d"},"vehicle_type_id":"4","last_reported":1747059081,"current_range_meters":22000,"station_id":"ce4bhnp2rcd13ifvqgvg","pricing_plan_id":"cebpf4jnsgd1na2vs0mg"},{"bike_id":"5728e68c-f162-4e22-b613-26d103e45857","system_id":"levelo_inurba_marseille","lat":43.25927,"lon":5.40886,"is_reserved":false,"is_disabled":false,"rental_uris":{"android":"levelo://app?vid=5728e68c-f162-4e22-b613-26d103e45857","ios":"levelo://app?vid=5728e68c-f162-4e22-b613-26d103e45857"},"vehicle_type_id":"4","last_reported":1747059081,"current_range_meters":22000,"station_id":"ce4bhm92rcd13ifvqglg","pricing_plan_id":"cebpf4jnsgd1na2vs0mg"},{"bike_id":"8922de5d-4b90-45cf-a908-f261f0278f96","system_id":"levelo_inurba_marseille","lat":43.29933,"lon":5.36548,"is_reserved":false,"is_disabled":false,"rental_uris":{"android":"levelo://app?vid=8922de5d-4b90-45cf-a908-f261f0278f96","ios":"levelo://app?vid=8922de5d-4b90-45cf-a908-f261f0278f96"},"vehicle_type_id":"4","last_reported":1747059081,"current_range_meters":22000,"station_id":"ce4bgm92rcd13ifvqbr0","pricing_plan_id":"cebpf4jnsgd1na2vs0mg"},{"bike_id":"54db4df2-d7a7-40c2-b741-2e8da57a89ea","system_id":"levelo_inurba_marseille","lat":43.31401,"lon":5.36777,"is_reserved":false,"is_disabled":false,"rental_uris":{"android":"levelo://app?vid=54db4df2-d7a7-40c2-b741-2e8da57a89ea","ios":"levelo://app?vid=54db4df2-d7a7-40c2-b741-2e8da57a89ea"},"vehicle_type_id":"4","last_reported":1747059081,"current_range_meters":22400,"station_id":"","pricing_plan_id":"cebpf4jnsgd1na2vs0mg"},{"bike_id":"50bfafaa-d718-4e3d-b4a4-4b5c3b3cc9b5","system_id":"levelo_inurba_marseille","lat":43.28456,"lon":5.35893,"is_reserved":false,"is_disabled":false,"rental_uris":{"android":"levelo://app?vid=50bfafaa-d718-4e3d-b4a4-4b5c3b3cc9b5","ios":"levelo://app?vid=50bfafaa-d718-4e3d-b4a4-4b5c3b3cc9b5"},"vehicle_type_id":"4","last_reported":1747059081,"current_range_meters":22400,"station_id":"ce4bhah2rcd13ifvqei0","pricing_plan_id":"cebpf4jnsgd1na2vs0mg"},{"bike_id":"b4fd304a-8831-4408-bd51-a46eaadd5015","system_id":"levelo_inurba_marseille","lat":43.28262,"lon":5.35054,"is_reserved":false,"is_disabled":false,"rental_uris":{"android":"levelo://app?vid=b4fd304a-8831-4408-bd51-a46eaadd5015","ios":"levelo://app?vid=b4fd304a-8831-4408-bd51-a46eaadd5015"},"vehicle_type_id":"4","last_reported":1747059081,"current_range_meters":22400,"station_id":"ce4bhbp2rcd13ifvqerg","pricing_plan_id":"cebpf4jnsgd1na2vs0mg"},{"bike_id":"b3f8486a-f7ed-4098-9fb1-6231e2acf5fe","system_id":"levelo_inurba_marseille","lat":43.26786,"lon":5.39412,"is_reserved":false,"is_disabled":false,"rental_uris":{"android":"levelo://app?vid=b3f8486a-f7ed-4098-9fb1-6231e2acf5fe","ios":"levelo://app?vid=b3f8486a-f7ed-4098-9fb1-6231e2acf5fe"},"vehicle_type_id":"4","last_reported":1747059081,"current_range_meters":22400,"station_id":"ce4bhh12rcd13ifvqfg0","pricing_plan_id":"cebpf4jnsgd1na2vs0mg"},{"bike_id":"1095b252-790e-4155-ab4e-86136a24d6fc","system_id":"levelo_inurba_marseille","lat":43.28454,"lon":5.35894,"is_reserved":false,"is_disabled":false,"rental_uris":{"android":"levelo://app?vid=1095b252-790e-4155-ab4e-86136a24d6fc","ios":"levelo://app?vid=1095b252-790e-4155-ab4e-86136a24d6fc"},"vehicle_type_id":"4","last_reported":1747059081,"current_range_meters":22400,"station_id":"ce4bhah2rcd13ifvqei0","pricing_plan_id":"cebpf4jnsgd1na2vs0mg"},{"bike_id":"dae24ba1-ee82-42dc-a3f6-d2b6788d8d4c","system_id":"levelo_inurba_marseille","lat":43.28484,"lon":5.38557,"is_reserved":false,"is_disabled":false,"rental_uris":{"android":"levelo://app?vid=dae24ba1-ee82-42dc-a3f6-d2b6788d8d4c","ios":"levelo://app?vid=dae24ba1-ee82-42dc-a3f6-d2b6788d8d4c"},"vehicle_type_id":"4","last_reported":1747059081,"current_range_meters":22000,"station_id":"ce4bh8p2rcd13ifvqeb0","pricing_plan_id":"cebpf4jnsgd1na2vs0mg"},{"bike_id":"aa74b5ed-6a86-4d63-b1c2-ce7ee4d495df","system_id":"levelo_inurba_marseille","lat":43.28706,"lon":5.39989,"is_reserved":false,"is_disabled":false,"rental_uris":{"android":"levelo://app?vid=aa74b5ed-6a86-4d63-b1c2-ce7ee4d495df","ios":"levelo://app?vid=aa74b5ed-6a86-4d63-b1c2-ce7ee4d495df"},"vehicle_type_id":"4","last_reported":1747059081,"current_range_meters":22400,"station_id":"ce4bho92rcd13ifvqh3g","pricing_plan_id":"cebpf4jnsgd1na2vs0mg"},