{"last_updated":1704618388,"ttl":30,"version":"2.2","data":{"bikes":[{"bike_id":"c425a59a-6e2e-4cf3-a83a-9195f97464e2","system_id":"levelo_inurba_marseille","lat":43.31341,"lon":5.367098,"is_reserved":false,"is_disabled":false,"rental_uris":{"android":"levelo://app?vid=c425a59a-6e2e-4cf3-a83a-9195f97464e2","ios":"levelo://app?vid=c425a59a-6e2e-4cf3-a83a-9195f97464e2"},"vehicle_type_id":"4","last_reported":1704618388,"current_range_meters":30000,"station_id":"ce4bgr92rcd13ifvqc6g","pricing_plan_id":"free"},{"bike_id":"538fb89a-e981-44ef-b121-b35ab9a4ee1c","system_id":"levelo_inurba_marseille","lat":43.31341,"lon":5.367098,"is_reserved":false,"is_disabled":false,"rental_uris":{"android":"levelo://app?vid=538fb89a-e981-44ef-b121-b35ab9a4ee1c","ios":"levelo://app?vid=538fb89a-e981-44ef-b121-b35ab9a4ee1c"},"vehicle_type_id":"4","last_reported":1704618388,"current_range_meters":26800,"station_id":"ce4bgr92rcd13ifvqc6g","pricing_plan_id":"free"},{"bike_id":"09d01de4-e9cf-4328-8dfb-0b18e3115d82","system_id":"levelo_inurba_marseille","lat":43.312239,"lon":5.368562,"is_reserved":false,"is_disabled":false,"rental_uris":{"android":"levelo://app?vid=09d01de4-e9cf-4328-8dfb-0b18e3115d82","ios":"levelo://app?vid=09d01de4-e9cf-4328-8dfb-0b18e3115d82"},"vehicle_type_id":"4","last_reported":1704618388,"current_range_meters":28000,"station_id":"ce4bgl92rcd13ifvqbq0","pricing_plan_id":"free"},{"bike_id":"52318990-b6f3-4f71-a1fc-ee8ed7cbbee4","system_id":"levelo_inurba_marseille","lat":43.314811,"lon":5.373103,"is_reserved":false,"is_disabled":false,"rental_uris":{"android":"levelo://app?vid=52318990-b6f3-4f71-a1fc-ee8ed7cbbee4","ios":"levelo://app?vid=52318990-b6f3-4f71-a1fc-ee8ed7cbbee4"},"vehicle_type_id":"4","last_reported":1704618388,"current_range_meters":9200,"station_id":"ce4bgt12rcd13ifvqcd0","pricing_plan_id":"free"},{"bike_id":"60ea1824-f8ba-4339-9e73-3c4bbe521221","system_id":"levelo_inurba_marseille","lat":43.314811,"lon":5.373103,"is_reserved":false,"is_disabled":false,"rental_uris":{"android":"levelo://app?vid=60ea1824-f8ba-4339-9e73-3c4bbe521221","ios":"levelo://app?vid=60ea1824-f8ba-4339-9e73-3c4bbe521221"},"vehicle_type_id":"4","last_reported":1704618388,"current_range_meters":26800,"station_id":"ce4bgt12rcd13ifvqcd0","pricing_plan_id":"free"},{"bike_id":"7cca496e-dca1-4f9b-ac3c-c1b772dd37e2","system_id":"levelo_inurba_marseille","lat":43.314811,"lon":5.373103,"is_reserved":false,"is_disabled":false,"rental_uris":{"android":"levelo://app?vid=7cca496e-dca1-4f9b-ac3c-c1b772dd37e2","ios":"levelo://app?vid=7cca496e-dca1-4f9b-ac3c-c1b772dd37e2"},"vehicle_type_id":"4","last_reported":1704618388,"current_range_meters":14000,"station_id":"ce4bgt12rcd13ifvqcd0","pricing_plan_id":"free"},{"bike_id":"3f33048b-277f-4649-8e5b-eb0bc256f5dc","system_id":"levelo_inurba_marseille","lat":43.314811,"lon":5.373103,"is_reserved":false,"is_disabled":false,"rental_uris":{"android":"levelo://app?vid=3f33048b-277f-4649-8e5b-eb0bc256f5dc","ios":"levelo://app?vid=3f33048b-277f-4649-8e5b-eb0bc256f5dc"},"vehicle_type_id":"4","last_reported":1704618388,"current_range_meters":31200,"station_id":"ce4bgt12rcd13ifvqcd0","pricing_plan_id":"free"},{"bike_id":"920c42bf-a05e-421a-93ce-0535a6a5b581","system_id":"levelo_inurba_marseille","lat":43.314811,"lon":5.373103,"is_reserved":false,"is_disabled":false,"rental_uris":{"android":"levelo://app?vid=920c42bf-a05e-421a-93ce-0535a6a5b581","ios":"levelo://app?vid=920c42bf-a05e-421a-93ce-0535a6a5b581"},"vehicle_type_id":"4","last_reported":1704618388,"current_range_meters":25200,"station_id":"ce4bgt12rcd13ifvqcd0","pricing_plan_id":"free"},{"bike_id":"3ea89a5b-0997-4d50-a446-20e2159963b0","system_id":"levelo_inurba_marseille","lat":43.314811,"lon":5.373104,"is_reserved":false,"is_disabled":false,"rental_uris":{"android":"levelo://app?vid=3ea89a5b-0997-4d50-a446-20e2159963b0","ios":"levelo://app?vid=3ea89a5b-0997-4d50-a446-20e2159963b0"},"vehicle_type_id":"4","last_reported":1704618388,"current_range_meters":30400,"station_id":"ce4bgt12rcd13ifvqcd0","pricing_plan_id":"free"},{"bike_id":"b3cce754-093a-482e-a05d-1152ff4a51ea","system_id":"levelo_inurba_marseille","lat":43.316805,"lon":5.372643,"is_reserved":false,"is_disabled":false,"rental_uris":{"android":"levelo://app?vid=b3cce754-093a-482e-a05d-1152ff4a51ea","ios":"levelo://app?vid=b3cce754-093a-482e-a05d-1152ff4a51ea"},"vehicle_type_id":"4","last_reported":1704618388,"current_range_meters":4400,"station_id":"","pricing_plan_id":"free"},{"bike_id":"a18c9f18-dd23-4fa3-ae4c-750a813ec2dd","system_id":"levelo_inurba_marseille","lat":43.31489,"lon":5.375595,"is_reserved":false,"is_disabled":false,"rental_uris":{"android":"levelo://app?vid=a18c9f18-dd23-4fa3-ae4c-750a813ec2dd","ios":"levelo://app?vid=a18c9f18-dd23-4fa3-ae4c-750a813ec2dd"},"vehicle_type_id":"4","last_reported":1704618388,"current_range_meters":15600,"station_id":"","pricing_plan_id":"free"},{"bike_id":"4c4cb718-ef30-4bda-8d77-7a1bba039a16","system_id":"levelo_inurba_marseille","lat":43.305706,"lon":5.365654,"is_reserved":false,"is_disabled":false,"rental_uris":{"android":"levelo://app?vid=4c4cb718-ef30-4bda-8d77-7a1bba039a16","ios":"levelo://app?vid=4c4cb718-ef30-4bda-8d77-7a1bba039a16"},"vehicle_type_id":"4","last_reported":1704618388,"current_range_meters":28800,"station_id":"ce4bgs12rcd13ifvqcag","pricing_plan_id":"free"},{"bike_id":"0b220752-3f26-4027-ba3e-c5879f3fc495","system_id":"levelo_inurba_marseille","lat":43.305714,"lon":5.365633,"is_reserved":false,"is_disabled":false,"rental_uris":{"android":"levelo://app?vid=0b220752-3f26-4027-ba3e-c5879f3fc495","ios":"levelo://app?vid=0b220752-3f26-4027-ba3e-c5879f3fc495"},"vehicle_type_id":"4","last_reported":1704618388,"current_range_meters":22400,"station_id":"ce4bgs12rcd13ifvqcag","pricing_plan_id":"free"},{"bike_id":"f9b153be-903a-446c-8c7a-4a0bb132af37","system_id":"levelo_inurba_marseille","lat":43.305368,"lon":5.367343,"is_reserved":false,"is_disabled":false,"rental_uris":{"android":"levelo://app?vid=f9b153be-903a-446c-8c7a-4a0bb132af37","ios":"levelo://app?vid=f9b153be-903a-446c-8c7a-4a0bb132af37"},"vehicle_type_id":"4","last_reported":1704618388,"current_range_meters":7200,"station_id":"ce4bgrp2rcd13ifvqc9g","pricing_plan_id":"free"},{"bike_id":"68382ad2-6338-4a04-a17c-3729445bfc02","system_id":"levelo_inurba_marseille","lat":43.311125,"lon":5.377624,"is_reserved":false,"is_disabled":false,"rental_uris":{"android":"levelo://app?vid=68382ad2-6338-4a04-a17c-3729445bfc02","ios":"levelo://app?vid=68382ad2-6338-4a04-a17c-3729445bfc02"},"vehicle_type_id":"4","last_reported":1704618388,"current_range_meters":24800,"station_id":"ce4bgt92rcd13ifvqcg0","pricing_plan_id":"free"},{"bike_id":"a2b4310f-859f-4bb7-bbd6-13e8e4c2571b","system_id":"levelo_inurba_marseille","lat":43.311131,"lon":5.377651,"is_reserved":false,"is_disabled":false,"rental_uris":{"android":"levelo://app?vid=a2b4310f-859f-4bb7-bbd6-13e8e4c2571b","ios":"levelo://app?vid=a2b4310f-859f-4bb7-bbd6-13e8e4c2571b"},"vehicle_type_id":"4","last_reported":1704618388,"current_range_meters":20800,"station_id":"ce4bgt92rcd13ifvqcg0","pricing_plan_id":"free"},{"bike_id":"f02e2a8d-e921-416f-810f-4aadd5da4dab","system_id":"levelo_inurba_marseille","lat":43.30782,"lon":5.376528,"is_reserved":false,"is_disabled":false,"rental_uris":{"android":"levelo://app?vid=f02e2a8d-e921-416f-810f-4aadd5da4dab","ios":"levelo://app?vid=f02e2a8d-e921-416f-810f-4aadd5da4dab"},"vehicle_type_id":"4","last_reported":1704618388,"current_range_meters":26800,"station_id":"ce4bgv92rcd13ifvqcq0","pricing_plan_id":"free"},{"bike_id":"89bffd9f-80ae-48ac-8282-961ba54a130e","system_id":"levelo_inurba_marseille","lat":43.317075,"lon":5.377367,"is_reserved":false,"is_disabled":false,"rental_uris":{"android":"levelo://app?vid=89bffd9f-80ae-48ac-8282-961ba54a130e","ios":"levelo://app?vid=89bffd9f-80ae-48ac-8282-961ba54a130e"},"vehicle_type_id":"4","last_reported":1704618388,"current_range_meters":27200,"station_id":"ce4bgth2rcd13ifvqch0","pricing_plan_id":"free"},{"bike_id":"c4e90871-bb94-4085-82dc-ccbd997a22ca","system_id":"levelo_inurba_marseille","lat":43.315344,"lon":5.379091,"is_reserved":false,"is_disabled":false,"rental_uris":{"android":"levelo://app?vid=c4e90871-bb94-4085-82dc-ccbd997a22ca","ios":"levelo://app?vid=c4e90871-bb94-4085-82dc-ccbd997a22ca"},"vehicle_type_id":"4","last_reported":1704618388,"current_range_meters":6400,"station_id":"","pricing_plan_id":"free"},{"bike_id":"e66a76e3-d65d-4b94-b2a1-3ed9b7d55379","system_id":"levelo_inurba_marseille","lat":43.303046,"lon":5.368981,"is_reserved":false,"is_disabled":false,"rental_uris":{"android":"levelo://app?vid=e66a76e3-d65d-4b94-b2a1-3ed9b7d55379","ios":"levelo://app?vid=e66a76e3-d65d-4b94-b2a1-3ed9b7d55379"},"vehicle_type_id":"4","last_reported":1704618388,"current_range_meters":0,"station_id":"ce4bgqh2rcd13ifvqc5g","pricing_plan_id":"free"},{"bike_id":"c68ce99d-00df-4aab-9be6-dd5134991cc4","system_id":"levelo_inurba_marseille","lat":43.315293,"lon":5.380349,"is_reserved":false,"is_disabled":false,"rental_uris":{"android":"levelo://app?vid=c68ce99d-00df-4aab-9be6-dd5134991cc4","ios":"levelo://app?vid=c68ce99d-00df-4aab-9be6-dd5134991cc4"},"vehicle_type_id":"4","last_reported":1704618388,"current_range_meters":24800,"station_id":"ce4bhsp2rcd13ifvqi50","pricing_plan_id":"free"},{"bike_id":"29c6a7a9-f07d-4030-ab86-adb0c59b6223","system_id":"levelo_inurba_marseille","lat":43.31529,"lon":5.38028,"is_reserved":false,"is_disabled":false,"rental_uris":{"android":"levelo://app?vid=29c6a7a9-f07d-4030-ab86-adb0c59b6223","ios":"levelo://app?vid=29c6a7a9-f07d-4030-ab86-adb0c59b6223"},"vehicle_type_id":"4","last_reported":1704618388,"current_range_meters":12800,"station_id":"ce4bhsp2rcd13ifvqi50","pricing_plan_id":"free"},{"bike_id":"8ef1a586-cc29-4bb1-a1d4-de2934bfeac9","system_id":"levelo_inurba_marseille","lat":43.315325,"lon":5.380313,"is_reserved":false,"is_disabled":false,"rental_uris":{"android":"levelo://app?vid=8ef1a586-cc29-4bb1-a1d4-de2934bfeac9","ios":"levelo://app?vid=8ef1a586-cc29-4bb1-a1d4-de2934bfeac9"},"vehicle_type_id":"4","last_reported":1704618388,"current_range_meters":2400,"station_id":"ce4bhsp2rcd13ifvqi50","pricing_plan_id":"free"},{"bike_id":"f72f5f18-53fb-434a-a1eb-40fc45291c46","system_id":"levelo_inurba_marseille","lat":43.301939,"lon":5.366286,"is_reserved":false,"is_disabled":false,"rental_uris":{"android":"levelo://app?vid=f72f5f18-53fb-434a-a1eb-40fc45291c46","ios":"levelo://app?vid=f72f5f18-53fb-434a-a1eb-40fc45291c46"},"vehicle_type_id":"4","last_reported":1704618388,"current_range_meters":18400,"station_id":"ce4bgrh2rcd13ifvqc8g","pricing_plan_id":"free"},{"bike_id":"410d56b4-8422-4bc5-a962-9b4ea6b59eab","system_id":"levelo_inurba_marseille","lat":43.301939,"lon":5.366286,"is_reserved":false,"is_disabled":false,"rental_uris":{"android":"levelo://app?vid=410d56b4-8422-4bc5-a962-9b4ea6b59eab","ios":"levelo://app?vid=410d56b4-8422-4bc5-a962-9b4ea6b59eab"},"vehicle_type_id":"4","last_reported":1704618388,"current_range_meters":30000,"station_id":"ce4bgrh2rcd13ifvqc8g","pricing_plan_id":"free"},{"bike_id":"4150e097-ca3d-428a-b955-082be5d77a64","system_id":"levelo_inurba_marseille","lat":43.301939,"lon":5.366286,"is_reserved":false,"is_disabled":false,"rental_uris":{"android":"levelo://app?vid=4150e097-ca3d-428a-b955-082be5d77a64","ios":"levelo://app?vid=4150e097-ca3d-428a-b955-082be5d77a64"},"vehicle_type_id":"4","last_reported":1704618388,"current_range_meters":28000,"station_id":"ce4bgrh2rcd13ifvqc8g","pricing_plan_id":"free"},{"bike_id":"e8594e50-549f-435c-9201-1d2ff13a62f2","system_id":"levelo_inurba_marseille","lat":43.301939,"lon":5.366286,"is_reserved":false,"is_disabled":false,"rental_uris":{"android":"levelo://app?vid=e8594e50-549f-435c-9201-1d2ff13a62f2","ios":"levelo://app?vid=e8594e50-549f-435c-9201-1d2ff13a62f2"},"vehicle_type_id":"4","last_reported":1704618388,"current_range_meters":31600,"station_id":"ce4bgrh2rcd13ifvqc8g","pricing_plan_id":"free"},{"bike_id":"61041ad7-3cc0-4435-bbe3-6169c8588498","system_id":"levelo_inurba_marseille","lat":43.301939,"lon":5.366286,"is_reserved":false,"is_disabled":false,"rental_uris":{"android":"levelo://app?vid=61041ad7-3cc0-4435-bbe3-6169c8588498","ios":"levelo://app?vid=61041ad7-3cc0-4435-bbe3-6169c8588498"},"vehicle_type_id":"4","last_reported":1704618388,"current_range_meters":25600,"station_id":"ce4bgrh2rcd13ifvqc8g","pricing_plan_id":"free"},{"bike_id":"38b17971-7202-489a-b038-d65281ad4cde","system_id":"levelo_inurba_marseille","lat":43.308101,"lon":5.381383,"is_reserved":false,"is_disabled":false,"rental_uris":{"android":"levelo://app?vid=38b17971-7202-489a-b038-d65281ad4cde","ios":"levelo://app?vid=38b17971-7202-489a-b038-d65281ad4cde"},"vehicle_type_id":"4","last_reported":1704618388,"current_range_meters":26800,"station_id":"ce4bgt12rcd13ifvqce0","pricing_plan_id":"free"},{"bike_id":"1d98b57d-6555-4296-9e9e-6d183ee1c17f","system_id":"levelo_inurba_marseille","lat":43.308012,"lon":5.381511,"is_reserved":false,"is_disabled":false,"rental_uris":{"android":"levelo://app?vid=1d98b57d-6555-4296-9e9e-6d183ee1c17f","ios":"levelo://app?vid=1d98b57d-6555-4296-9e9e-6d183ee1c17f"},"vehicle_type_id":"4","last_reported":1704618388,"current_range_meters":27600,"station_id":"ce4bgt12rcd13ifvqce0","pricing_plan_id":"free"},{"bike_id":"96ddfd4a-b50a-47f4-ac94-689d75205103","system_id":"levelo_inurba_marseille","lat":43.304606,"lon":5.379026,"is_reserved":false,"is_disabled":false,"rental_uris":{"android":"levelo://app?vid=96ddfd4a-b50a-47f4-ac94-689d75205103","ios":"levelo://app?vid=96ddfd4a-b50a-47f4-ac94-689d75205103"},"vehicle_type_id":"4","last_reported":1704618388,"current_range_meters":25600,"station_id":"ce4bgup2rcd13ifvqcn0","pricing_plan_id":"free"},{"bike_id":"608f3476-d1fb-4897-bf20-1aa052a31a88","system_id":"levelo_inurba_marseille","lat":43.304606,"lon":5.379026,"is_reserved":false,"is_disabled":false,"rental_uris":{"android":"levelo://app?vid=608f3476-d1fb-4897-bf20-1aa052a31a88","ios":"levelo://app?vid=608f3476-d1fb-4897-bf20-1aa052a31a88"},"vehicle_type_id":"4","last_reported":1704618388,"current_range_meters":27600,"station_id":"ce4bgup2rcd13ifvqcn0","pricing_plan_id":"free"},{"bike_id":"9a5d20fc-5739-4188-aece-a966211e1333","system_id":"levelo_inurba_marseille","lat":43.324771,"lon":5.36557,"is_reserved":false,"is_disabled":false,"rental_uris":{"android":"levelo://app?vid=9a5d20fc-5739-4188-aece-a966211e1333","ios":"levelo://app?vid=9a5d20fc-5739-4188-aece-a966211e1333"},"vehicle_type_id":"4","last_reported":1704618388,"current_range_meters":16000,"station_id":"ce4bhs12rcd13ifvqhvg","pricing_plan_id":"free"},{"bike_id":"2aa100e7-2671-4c1b-a1f0-ab7832afcbad","system_id":"levelo_inurba_marseille","lat":43.324771,"lon":5.36557,"is_reserved":false,"is_disabled":false,"rental_uris":{"android":"levelo://app?vid=2aa100e7-2671-4c1b-a1f0-ab7832afcbad","ios":"levelo://app?vid=2aa100e7-2671-4c1b-a1f0-ab7832afcbad"},"vehicle_type_id":"4","last_reported":1704618388,"current_range_meters":26400,"station_id":"ce4bhs12rcd13ifvqhvg","pricing_plan_id":"free"},{"bike_id":"d86edf3b-e29e-4a90-85f4-be2cb1655006","system_id":"levelo_inurba_marseille","lat":43.25102,"lon":5.403214,"is_reserved":false,"is_disabled":false,"rental_uris":{"android":"levelo://app?vid=d86edf3b-e29e-4a90-85f4-be2cb1655006","ios":"levelo://app?vid=d86edf3b-e29e-4a90-85f4-be2cb1655006"},"vehicle_type_id":"4","last_reported":1704618388,"current_range_meters":17600,"station_id":"ce4bhlh2rcd13ifvqgig","pricing_plan_id":"free"},{"bike_id":"1b6f0c69-c423-45ed-8149-28052ccf6e68","system_id":"levelo_inurba_marseille","lat":43.313571,"lon":5.384829,"is_reserved":false,"is_disabled":false,"rental_uris":{"android":"levelo://app?vid=1b6f0c69-c423-45ed-8149-28052ccf6e68","ios":"levelo://app?vid=1b6f0c69-c423-45ed-8149-28052ccf6e68"},"vehicle_type_id":"4","last_reported":1704618388,"current_range_meters":31600,"station_id":"ce4bgt92rcd13ifvqcf0","pricing_plan_id":"free"},{"bike_id":"b0a3cded-6735-4264-bb88-1094eb2160cc","system_id":"levelo_inurba_marseille","lat":43.313571,"lon":5.384829,"is_reserved":false,"is_disabled":false,"rental_uris":{"android":"levelo://app?vid=b0a3cded-6735-4264-bb88-1094eb2160cc","ios":"levelo://app?vid=b0a3cded-6735-4264-bb88-1094eb2160cc"},"vehicle_type_id":"4","last_reported":1704618388,"current_range_meters":5600,"station_id":"ce4bgt92rcd13ifvqcf0","pricing_plan_id":"free"},{"bike_id":"5360ed12-93e1-4551-9030-2394e732236c","system_id":"levelo_inurba_marseille","lat":43.313571,"lon":5.384829,"is_reserved":false,"is_disabled":false,"rental_uris":{"android":"levelo://app?vid=5360ed12-93e1-4551-9030-2394e732236c","ios":"levelo://app?vid=5360ed12-93e1-4551-9030-2394e732236c"},"vehicle_type_id":"4","last_reported":1704618388,"current_range_meters":25600,"station_id":"ce4bgt92rcd13ifvqcf0","pricing_plan_id":"free"},{"bike_id":"764f3dcc-5d52-4fa8-879d-a2ab43aa6892","system_id":"levelo_inurba_marseille","lat":43.313571,"lon":5.384829,"is_reserved":false,"is_disabled":false,"rental_uris":{"android":"levelo://app?vid=764f3dcc-5d52-4fa8-879d-a2ab43aa6892","ios":"levelo://app?vid=764f3dcc-5d52-4fa8-879d-a2ab43aa6892"},"vehicle_type_id":"4","last_reported":1704618388,"current_range_meters":30800,"station_id":"ce4bgt92rcd13ifvqcf0","pricing_plan_id":"free"},{"bike_id":"b43ac539-4439-4d94-b5c9-6bb6e2eadc58","system_id":"levelo_inurba_marseille","lat":43.3136,"lon":5.385,"is_reserved":false,"is_disabled":false,"rental_uris":{"android":"levelo://app?vid=b43ac539-4439-4d94-b5c9-6bb6e2eadc58","ios":"levelo://app?vid=b43ac539-4439-4d94-b5c9-6bb6e2eadc58"},"vehicle_type_id":"4","last_reported":1704618388,"current_range_meters":26800,"station_id":"ce4bgt92rcd13ifvqcf0","pricing_plan_id":"free"},{"bike_id":"17504bde-947a-4cd6-98b3-9a4c66aca99b","system_id":"levelo_inurba_marseille","lat":43.313827,"lon":5.385007,"is_reserved":false,"is_disabled":false,"rental_uris":{"android":"levelo://app?vid=17504bde-947a-4cd6-98b3-9a4c66aca99b","ios":"levelo://app?vid=17504bde-947a-4cd6-98b3-9a4c66aca99b"},"vehicle_type_id":"4","last_reported":1704618388,"current_range_meters":2400,"station_id":"","pricing_plan_id":"free"},{"bike_id":"c4da0e16-fac7-48e1-ac65-4c983694b7ad","system_id":"levelo_inurba_marseille","lat":43.299222,"lon":5.365554,"is_reserved":false,"is_disabled":false,"rental_uris":{"android":"levelo://app?vid=c4da0e16-fac7-48e1-ac65-4c983694b7ad","ios":"levelo://app?vid=c4da0e16-fac7-48e1-ac65-4c983694b7ad"},"vehicle_type_id":"4","last_reported":1704618388,"current_range_meters":25600,"station_id":"ce4bgm92rcd13ifvqbr0","pricing_plan_id":"free"},{"bike_id":"b22604ec-0c4b-41b4-a20e-38add68f7682","system_id":"levelo_inurba_marseille","lat":43.32559,"lon":5.37476,"is_reserved":false,"is_disabled":false,"rental_uris":{"android":"levelo://app?vid=b22604ec-0c4b-41b4-a20e-38add68f7682","ios":"levelo://app?vid=b22604ec-0c4b-41b4-a20e-38add68f7682"},"vehicle_type_id":"4","last_reported":1704618388,"current_range_meters":10000,"station_id":"","pricing_plan_id":"free"},{"bike_id":"90f624c9-e920-42f0-bdb2-c7157855cdc0","system_id":"levelo_inurba_marseille","lat":43.311578,"lon":5.386809,"is_reserved":false,"is_disabled":false,"rental_uris":{"android":"levelo://app?vid=90f624c9-e920-42f0-bdb2-c7157855cdc0","ios":"levelo://app?vid=90f624c9-e920-42f0-bdb2-c7157855cdc0"},"vehicle_type_id":"4","last_reported":1704618388,"current_range_meters":9600,"station_id":"ce4bgv12rcd13ifvqcp0","pricing_plan_id":"free"},{"bike_id":"f55a0f1c-7c9c-4b07-9885-3a93466c80eb","system_id":"levelo_inurba_marseille","lat":43.311722,"lon":5.387247,"is_reserved":false,"is_disabled":false,"rental_uris":{"android":"levelo://app?vid=f55a0f1c-7c9c-4b07-9885-3a93466c80eb","ios":"levelo://app?vid=f55a0f1c-7c9c-4b07-9885-3a93466c80eb"},"vehicle_type_id":"4","last_reported":1704618388,"current_range_meters":20400,"station_id":"ce4bgv12rcd13ifvqcp0","pricing_plan_id":"free"},{"bike_id":"074412ee-5901-41fd-953e-ee9bc708049a","system_id":"levelo_inurba_marseille","lat":43.311722,"lon":5.387247,"is_reserved":false,"is_disabled":false,"rental_uris":{"android":"levelo://app?vid=074412ee-5901-41fd-953e-ee9bc708049a","ios":"levelo://app?vid=074412ee-5901-41fd-953e-ee9bc708049a"},"vehicle_type_id":"4","last_reported":1704618388,"current_range_meters":16000,"station_id":"ce4bgv12rcd13ifvqcp0","pricing_plan_id":"free"},{"bike_id":"91853785-b412-43d8-9ede-1524189885ab","system_id":"levelo_inurba_marseille","lat":43.298433,"lon":5.362774,"is_reserved":false,"is_disabled":false,"rental_uris":{"android":"levelo://app?vid=91853785-b412-43d8-9ede-1524189885ab","ios":"levelo://app?vid=91853785-b412-43d8-9ede-1524189885ab"},"vehicle_type_id":"4","last_reported":1704618388,"current_range_meters":28400,"station_id":"ce4bgpp2rcd13ifvqc3g","pricing_plan_id":"free"},{"bike_id":"bb870103-f46c-4386-9313-d81d3a4621cc","system_id":"levelo_inurba_marseille","lat":43.311722,"lon":5.387247,"is_reserved":false,"is_disabled":false,"rental_uris":{"android":"levelo://app?vid=bb870103-f46c-4386-9313-d81d3a4621cc","ios":"levelo://app?vid=bb870103-f46c-4386-9313-d81d3a4621cc"},"vehicle_type_id":"4","last_reported":1704618388,"current_range_meters":31200,"station_id":"ce4bgv12rcd13ifvqcp0","pricing_plan_id":"free"},{"bike_id":"0a461a7d-d072-422e-a8c7-f8452bcc6eea","system_id":"levelo_inurba_marseille","lat":43.297794,"lon":5.370888,"is_reserved":false,"is_disabled":false,"rental_uris":{"android":"levelo://app?vid=0a461a7d-d072-422e-a8c7-f8452bcc6eea","ios":"levelo://app?vid=0a461a7d-d072-422e-a8c7-f8452bcc6eea"},"vehicle_type_id":"4","last_reported":1704618388,"current_range_meters":31200,"station_id":"ce4bgop2rcd13ifvqc1g","pricing_plan_id":"free"},{"bike_id":"63f07019-ac6e-407e-9571-4ac96abcc3cf","system_id":"levelo_inurba_marseille","lat":43.32286,"lon":5.38255,"is_reserved":false,"is_disabled":false,"rental_uris":{"android":"levelo://app?vid=63f07019-ac6e-407e-9571-4ac96abcc3cf","ios":"levelo://app?vid=63f07019-ac6e-407e-9571-4ac96abcc3cf"},"vehicle_type_id":"4","last_reported":1704618388,"current_range_meters":16400,"station_id":"ce4bhr12rcd13ifvqhqg","pricing_plan_id":"free"},{"bike_id":"09da622d-5ec6-4261-a95d-695d32c570ab","system_id":"levelo_inurba_marseille","lat":43.322871,"lon":5.382599,"is_reserved":false,"is_disabled":false,"rental_uris":{"android":"levelo://app?vid=09da622d-5ec6-4261-a95d-695d32c570ab","ios":"levelo://app?vid=09da622d-5ec6-4261-a95d-695d32c570ab"},"vehicle_type_id":"4","last_reported":1704618388,"current_range_meters":11200,"station_id":"ce4bhr12rcd13ifvqhqg","pricing_plan_id":"free"},{"bike_id":"3bb7c7dd-5eca-4a2d-a889-98c939c30e62","system_id":"levelo_inurba_marseille","lat":43.32283,"lon":5.38265,"is_reserved":false,"is_disabled":false,"rental_uris":{"android":"levelo://app?vid=3bb7c7dd-5eca-4a2d-a889-98c939c30e62","ios":"levelo://app?vid=3bb7c7dd-5eca-4a2d-a889-98c939c30e62"},"vehicle_type_id":"4","last_reported":1704618388,"current_range_meters":27600,"station_id":"ce4bhr12rcd13ifvqhqg","pricing_plan_id":"free"},{"bike_id":"276c91d7-6ca9-48bc-bf75-acd9920b9ec2","system_id":"levelo_inurba_marseille","lat":43.322872,"lon":5.382756,"is_reserved":false,"is_disabled":false,"rental_uris":{"android":"levelo://app?vid=276c91d7-6ca9-48bc-bf75-acd9920b9ec2","ios":"levelo://app?vid=276c91d7-6ca9-48bc-bf75-acd9920b9ec2"},"vehicle_type_id":"4","last_reported":1704618388,"current_range_meters":26000,"station_id":"ce4bhr12rcd13ifvqhqg","pricing_plan_id":"free"},{"bike_id":"297a7823-4b34-45b3-8282-c78d31cc9f05","system_id":"levelo_inurba_marseille","lat":43.322872,"lon":5.382756,"is_reserved":false,"is_disabled":false,"rental_uris":{"android":"levelo://app?vid=297a7823-4b34-45b3-8282-c78d31cc9f05","ios":"levelo://app?vid=297a7823-4b34-45b3-8282-c78d31cc9f05"},"vehicle_type_id":"4","last_reported":1704618388,"current_range_meters":28800,"station_id":"ce4bhr12rcd13ifvqhqg","pricing_plan_id":"free"},{"bike_id":"cc495013-a9b7-4492-a4e4-0f0aca4a9939","system_id":"levelo_inurba_marseille","lat":43.322872,"lon":5.382756,"is_reserved":false,"is_disabled":false,"rental_uris":{"android":"levelo://app?vid=cc495013-a9b7-4492-a4e4-0f0aca4a9939","ios":"levelo://app?vid=cc495013-a9b7-4492-a4e4-0f0aca4a9939"},"vehicle_type_id":"4","last_reported":1704618388,"current_range_meters":8000,"station_id":"ce4bhr12rcd13ifvqhqg","pricing_plan_id":"free"},{"bike_id":"d0aaa14f-1070-4a80-a2f2-78508dd9f6bd","system_id":"levelo_inurba_marseille","lat":43.322872,"lon":5.382756,"is_reserved":false,"is_disabled":false,"rental_uris":{"android":"levelo://app?vid=d0aaa14f-1070-4a80-a2f2-78508dd9f6bd","ios":"levelo://app?vid=d0aaa14f-1070-4a80-a2f2-78508dd9f6bd"},"vehicle_type_id":"4","last_reported":1704618388,"current_range_meters":31200,"station_id":"ce4bhr12rcd13ifvqhqg","pricing_plan_id":"free"},{"bike_id":"387c1dff-fb7e-4547-838e-1af3f69c4219","system_id":"levelo_inurba_marseille","lat":43.328221,"lon":5.366731,"is_reserved":false,"is_disabled":false,"rental_uris":{"android":"levelo://app?vid=387c1dff-fb7e-4547-838e-1af3f69c4219","ios":"levelo://app?vid=387c1dff-fb7e-4547-838e-1af3f69c4219"},"vehicle_type_id":"4","last_reported":1704618388,"current_range_meters":23600,"station_id":"ce4bhs92rcd13ifvqi0g","pricing_plan_id":"free"},{"bike_id":"72905f78-9c33-4138-8385-d331d9223abd","system_id":"levelo_inurba_marseille","lat":43.32824,"lon":5.36668,"is_reserved":false,"is_disabled":false,"rental_uris":{"android":"levelo://app?vid=72905f78-9c33-4138-8385-d331d9223abd","ios":"levelo://app?vid=72905f78-9c33-4138-8385-d331d9223abd"},"vehicle_type_id":"4","last_reported":1704618388,"current_range_meters":15600,"station_id":"ce4bhs92rcd13ifvqi0g","pricing_plan_id":"free"},{"bike_id":"c224ea64-7bb8-45be-8a3a-d137d9e17684","system_id":"levelo_inurba_marseille","lat":43.32825,"lon":5.36678,"is_reserved":false,"is_disabled":false,"rental_uris":{"android":"levelo://app?vid=c224ea64-7bb8-45be-8a3a-d137d9e17684","ios":"levelo://app?vid=c224ea64-7bb8-45be-8a3a-d137d9e17684"},"vehicle_type_id":"4","last_reported":1704618388,"current_range_meters":14800,"station_id":"ce4bhs92rcd13ifvqi0g","pricing_plan_id":"free"},{"bike_id":"ee966a52-c4f3-4b5b-b8b2-c85b17eb5fb4","system_id":"levelo_inurba_marseille","lat":43.328371,"lon":5.366909,"is_reserved":false,"is_disabled":false,"rental_uris":{"android":"levelo://app?vid=ee966a52-c4f3-4b5b-b8b2-c85b17eb5fb4","ios":"levelo://app?vid=ee966a52-c4f3-4b5b-b8b2-c85b17eb5fb4"},"vehicle_type_id":"4","last_reported":1704618388,"current_range_meters":16800,"station_id":"ce4bhs92rcd13ifvqi0g","pricing_plan_id":"free"},{"bike_id":"66addf4b-70b7-4ac4-8e17-37956e9ecfbb","system_id":"levelo_inurba_marseille","lat":43.32827,"lon":5.36683,"is_reserved":false,"is_disabled":false,"rental_uris":{"android":"levelo://app?vid=66addf4b-70b7-4ac4-8e17-37956e9ecfbb","ios":"levelo://app?vid=66addf4b-70b7-4ac4-8e17-37956e9ecfbb"},"vehicle_type_id":"4","last_reported":1704618388,"current_range_meters":20400,"station_id":"ce4bhs92rcd13ifvqi0g","pricing_plan_id":"free"},{"bike_id":"f661f6de-13d0-42ff-819f-05ad69d6ac0a","system_id":"levelo_inurba_marseille","lat":43.32827,"lon":5.36682,"is_reserved":false,"is_disabled":false,"rental_uris":{"android":"levelo://app?vid=f661f6de-13d0-42ff-819f-05ad69d6ac0a","ios":"levelo://app?vid=f661f6de-13d0-42ff-819f-05ad69d6ac0a"},"vehicle_type_id":"4","last_reported":1704618388,"current_range_meters":25200,"station_id":"ce4bhs92rcd13ifvqi0g","pricing_plan_id":"free"},{"bike_id":"ca02ca89-8dd5-4fc4-9a30-db37a36b7ff7","system_id":"levelo_inurba_marseille","lat":43.32827,"lon":5.36678,"is_reserved":false,"is_disabled":false,"rental_uris":{"android":"levelo://app?vid=ca02ca89-8dd5-4fc4-9a30-db37a36b7ff7","ios":"levelo://app?vid=ca02ca89-8dd5-4fc4-9a30-db37a36b7ff7"},"vehicle_type_id":"4","last_reported":1704618388,"current_range_meters":29600,"station_id":"ce4bhs92rcd13ifvqi0g","pricing_plan_id":"free"},{"bike_id":"8341e063-523f-4d25-880b-99eb6edf220f","system_id":"levelo_inurba_marseille","lat":43.328271,"lon":5.366852,"is_reserved":false,"is_disabled":false,"rental_uris":{"android":"levelo://app?vid=8341e063-523f-4d25-880b-99eb6edf220f","ios":"levelo://app?vid=8341e063-523f-4d25-880b-99eb6edf220f"},"vehicle_type_id":"4","last_reported":1704618388,"current_range_meters":16800,"station_id":"ce4bhs92rcd13ifvqi0g","pricing_plan_id":"free"},{"bike_id":"064b14d2-f3e9-43be-a725-c95d6c66fd15","system_id":"levelo_inurba_marseille","lat":43.328371,"lon":5.366909,"is_reserved":false,"is_disabled":false,"rental_uris":{"android":"levelo://app?vid=064b14d2-f3e9-43be-a725-c95d6c66fd15","ios":"levelo://app?vid=064b14d2-f3e9-43be-a725-c95d6c66fd15"},"vehicle_type_id":"4","last_reported":1704618388,"current_range_meters":22800,"station_id":"ce4bhs92rcd13ifvqi0g","pricing_plan_id":"free"},{"bike_id":"5021f406-3153-4a9e-a450-00a19314acbe","system_id":"levelo_inurba_marseille","lat":43.3283,"lon":5.36682,"is_reserved":false,"is_disabled":false,"rental_uris":{"android":"levelo://app?vid=5021f406-3153-4a9e-a450-00a19314acbe","ios":"levelo://app?vid=5021f406-3153-4a9e-a450-00a19314acbe"},"vehicle_type_id":"4","last_reported":1704618388,"current_range_meters":31200,"station_id":"ce4bhs92rcd13ifvqi0g","pricing_plan_id":"free"},{"bike_id":"9383789e-2a1a-4049-a767-e1f78cbdfc52","system_id":"levelo_inurba_marseille","lat":43.328371,"lon":5.366909,"is_reserved":false,"is_disabled":false,"rental_uris":{"android":"levelo://app?vid=9383789e-2a1a-4049-a767-e1f78cbdfc52","ios":"levelo://app?vid=9383789e-2a1a-4049-a767-e1f78cbdfc52"},"vehicle_type_id":"4","last_reported":1704618388,"current_range_meters":19200,"station_id":"ce4bhs92rcd13ifvqi0g","pricing_plan_id":"free"},{"bike_id":"43f47c35-ec23-411b-b2fa-7957e35eab11","system_id":"levelo_inurba_marseille","lat":43.328371,"lon":5.366909,"is_reserved":false,"is_disabled":false,"rental_uris":{"android":"levelo://app?vid=43f47c35-ec23-411b-b2fa-7957e35eab11","ios":"levelo://app?vid=43f47c35-ec23-411b-b2fa-7957e35eab11"},"vehicle_type_id":"4","last_reported":1704618388,"current_range_meters":11600,"station_id":"ce4bhs92rcd13ifvqi0g","pricing_plan_id":"free"},{"bike_id":"42895378-a21e-445b-8e89-325727904609","system_id":"levelo_inurba_marseille","lat":43.328371,"lon":5.366909,"is_reserved":false,"is_disabled":false,"rental_uris":{"android":"levelo://app?vid=42895378-a21e-445b-8e89-325727904609","ios":"levelo://app?vid=42895378-a21e-445b-8e89-325727904609"},"vehicle_type_id":"4","last_reported":1704618388,"current_range_meters":22800,"station_id":"ce4bhs92rcd13ifvqi0g","pricing_plan_id":"free"},{"bike_id":"0725f2a6-de18-43ea-a245-f699ddc19b55","system_id":"levelo_inurba_marseille","lat":43.328371,"lon":5.366909,"is_reserved":false,"is_disabled":false,"rental_uris":{"android":"levelo://app?vid=0725f2a6-de18-43ea-a245-f699ddc19b55","ios":"levelo://app?vid=0725f2a6-de18-43ea-a245-f699ddc19b55"},"vehicle_type_id":"4","last_reported":1704618388,"current_range_meters":9200,"station_id":"ce4bhs92rcd13ifvqi0g","pricing_plan_id":"free"},{"bike_id":"aaf157c4-2ef0-473c-a5cd-cbe38f0ad676","system_id":"levelo_inurba_marseille","lat":43.297163,"lon":5.365866,"is_reserved":false,"is_disabled":false,"rental_uris":{"android":"levelo://app?vid=aaf157c4-2ef0-473c-a5cd-cbe38f0ad676","ios":"levelo://app?vid=aaf157c4-2ef0-473c-a5cd-cbe38f0ad676"},"vehicle_type_id":"4","last_reported":1704618388,"current_range_meters":27200,"station_id":"ce4bgn12rcd13ifvqbt0","pricing_plan_id":"free"},{"bike_id":"95115c86-d55f-4a7f-a382-186f290d2d1d","system_id":"levelo_inurba_marseille","lat":43.2968,"lon":5.37291,"is_reserved":false,"is_disabled":false,"rental_uris":{"android":"levelo://app?vid=95115c86-d55f-4a7f-a382-186f290d2d1d","ios":"levelo://app?vid=95115c86-d55f-4a7f-a382-186f290d2d1d"},"vehicle_type_id":"4","last_reported":1704618388,"current_range_meters":28800,"station_id":"ce4bgk12rcd13ifvqbj0","pricing_plan_id":"free"},{"bike_id":"4d1656e1-bca6-434e-b33b-4c2cbf8f7ae6","system_id":"levelo_inurba_marseille","lat":43.29573,"lon":5.367355,"is_reserved":false,"is_disabled":false,"rental_uris":{"android":"levelo://app?vid=4d1656e1-bca6-434e-b33b-4c2cbf8f7ae6","ios":"levelo://app?vid=4d1656e1-bca6-434e-b33b-4c2cbf8f7ae6"},"vehicle_type_id":"4","last_reported":1704618388,"current_range_meters":24400,"station_id":"ce4bgph2rcd13ifvqc2g","pricing_plan_id":"free"},{"bike_id":"50a06571-ee32-4006-8417-dd8ead2ab8e4","system_id":"levelo_inurba_marseille","lat":43.309589,"lon":5.390258,"is_reserved":false,"is_disabled":false,"rental_uris":{"android":"levelo://app?vid=50a06571-ee32-4006-8417-dd8ead2ab8e4","ios":"levelo://app?vid=50a06571-ee32-4006-8417-dd8ead2ab8e4"},"vehicle_type_id":"4","last_reported":1704618388,"current_range_meters":25600,"station_id":"ce4bgup2rcd13ifvqco0","pricing_plan_id":"free"},{"bike_id":"6c5eebbe-3606-40f4-b51a-cdf8266c0074","system_id":"levelo_inurba_marseille","lat":43.309589,"lon":5.390258,"is_reserved":false,"is_disabled":false,"rental_uris":{"android":"levelo://app?vid=6c5eebbe-3606-40f4-b51a-cdf8266c0074","ios":"levelo://app?vid=6c5eebbe-3606-40f4-b51a-cdf8266c0074"},"vehicle_type_id":"4","last_reported":1704618388,"current_range_meters":19200,"station_id":"ce4bgup2rcd13ifvqco0","pricing_plan_id":"free"},{"bike_id":"951c56cc-1e52-40f0-a60d-b543a9ca71d3","system_id":"levelo_inurba_marseille","lat":43.299028,"lon":5.381509,"is_reserved":false,"is_disabled":false,"rental_uris":{"android":"levelo://app?vid=951c56cc-1e52-40f0-a60d-b543a9ca71d3","ios":"levelo://app?vid=951c56cc-1e52-40f0-a60d-b543a9ca71d3"},"vehicle_type_id":"4","last_reported":1704618388,"current_range_meters":28800,"station_id":"ce4bgj12rcd13ifvqbc0","pricing_plan_id":"free"},{"bike_id":"5c0e221b-54dc-4307-a6ad-cc1692cf4df3","system_id":"levelo_inurba_marseille","lat":43.309589,"lon":5.390258,"is_reserved":false,"is_disabled":false,"rental_uris":{"android":"levelo://app?vid=5c0e221b-54dc-4307-a6ad-cc1692cf4df3","ios":"levelo://app?vid=5c0e221b-54dc-4307-a6ad-cc1692cf4df3"},"vehicle_type_id":"4","last_reported":1704618388,"current_range_meters":20000,"station_id":"ce4bgup2rcd13ifvqco0","pricing_plan_id":"free"},{"bike_id":"04ec1a46-291d-4424-964d-42cfee126bb8","system_id":"levelo_inurba_marseille","lat":43.309589,"lon":5.390258,"is_reserved":false,"is_disabled":false,"rental_uris":{"android":"levelo://app?vid=04ec1a46-291d-4424-964d-42cfee126bb8","ios":"levelo://app?vid=04ec1a46-291d-4424-964d-42cfee126bb8"},"vehicle_type_id":"4","last_reported":1704618388,"current_range_meters":20800,"station_id":"ce4bgup2rcd13ifvqco0","pricing_plan_id":"free"},{"bike_id":"c8f1c66d-517e-47cd-8c74-1fbdb664b117","system_id":"levelo_inurba_marseille","lat":43.309589,"lon":5.390258,"is_reserved":false,"is_disabled":false,"rental_uris":{"android":"levelo://app?vid=c8f1c66d-517e-47cd-8c74-1fbdb664b117","ios":"levelo://app?vid=c8f1c66d-517e-47cd-8c74-1fbdb664b117"},"vehicle_type_id":"4","last_reported":1704618388,"current_range_meters":0,"station_id":"ce4bgup2rcd13ifvqco0","pricing_plan_id":"free"},{"bike_id":"f95558b7-0430-4a98-bd31-d58eec99dd50","system_id":"levelo_inurba_marseille","lat":43.309589,"lon":5.390258,"is_reserved":false,"is_disabled":false,"rental_uris":{"android":"levelo://app?vid=f95558b7-0430-4a98-bd31-d58eec99dd50","ios":"levelo://app?vid=f95558b7-0430-4a98-bd31-d58eec99dd50"},"vehicle_type_id":"4","last_reported":1704618388,"current_range_meters":30000,"station_id":"ce4bgup2rcd13ifvqco0","pricing_plan_id":"free"},{"bike_id":"fcdaf753-8f4b-40ab-aab5-8b11ac124835","system_id":"levelo_inurba_marseille","lat":43.309589,"lon":5.390258,"is_reserved":false,"is_disabled":false,"rental_uris":{"android":"levelo://app?vid=fcdaf753-8f4b-40ab-aab5-8b11ac124835","ios":"levelo://app?vid=fcdaf753-8f4b-40ab-aab5-8b11ac124835"},"vehicle_type_id":"4","last_reported":1704618388,"current_range_meters":26000,"station_id":"ce4bgup2rcd13ifvqco0","pricing_plan_id":"free"},{"bike_id":"2769bf36-6b0c-4663-a158-918450a1756b","system_id":"levelo_inurba_marseille","lat":43.317557,"lon":5.390173,"is_reserved":false,"is_disabled":false,"rental_uris":{"android":"levelo://app?vid=2769bf36-6b0c-4663-a158-918450a1756b","ios":"levelo://app?vid=2769bf36-6b0c-4663-a158-918450a1756b"},"vehicle_type_id":"4","last_reported":1704618388,"current_range_meters":28400,"station_id":"ce4bhqp2rcd13ifvqhng","pricing_plan_id":"free"},{"bike_id":"8088569f-085b-480e-8192-cee04b972d15","system_id":"levelo_inurba_marseille","lat":43.317557,"lon":5.390173,"is_reserved":false,"is_disabled":false,"rental_uris":{"android":"levelo://app?vid=8088569f-085b-480e-8192-cee04b972d15","ios":"levelo://app?vid=8088569f-085b-480e-8192-cee04b972d15"},"vehicle_type_id":"4","last_reported":1704618388,"current_range_meters":31200,"station_id":"ce4bhqp2rcd13ifvqhng","pricing_plan_id":"free"},{"bike_id":"e37c395a-9586-41ec-a7f6-e0ff510c2fd8","system_id":"levelo_inurba_marseille","lat":43.31756,"lon":5.39018,"is_reserved":false,"is_disabled":false,"rental_uris":{"android":"levelo://app?vid=e37c395a-9586-41ec-a7f6-e0ff510c2fd8","ios":"levelo://app?vid=e37c395a-9586-41ec-a7f6-e0ff510c2fd8"},"vehicle_type_id":"4","last_reported":1704618388,"current_range_meters":30000,"station_id":"ce4bhqp2rcd13ifvqhng","pricing_plan_id":"free"},{"bike_id":"712bc03c-4301-4f23-a402-31c4a3f6ea54","system_id":"levelo_inurba_marseille","lat":43.3176,"lon":5.390201,"is_reserved":false,"is_disabled":false,"rental_uris":{"android":"levelo://app?vid=712bc03c-4301-4f23-a402-31c4a3f6ea54","ios":"levelo://app?vid=712bc03c-4301-4f23-a402-31c4a3f6ea54"},"vehicle_type_id":"4","last_reported":1704618388,"current_range_meters":4800,"station_id":"ce4bhqp2rcd13ifvqhng","pricing_plan_id":"free"},{"bike_id":"4c48feed-3741-454c-b924-5e29085f5c73","system_id":"levelo_inurba_marseille","lat":43.295748,"lon":5.37522,"is_reserved":false,"is_disabled":false,"rental_uris":{"android":"levelo://app?vid=4c48feed-3741-454c-b924-5e29085f5c73","ios":"levelo://app?vid=4c48feed-3741-454c-b924-5e29085f5c73"},"vehicle_type_id":"4","last_reported":1704618388,"current_range_meters":30400,"station_id":"ce4bgh92rcd13ifvqb50","pricing_plan_id":"free"},{"bike_id":"ccb66e87-1b2c-4849-b8eb-c01a4a4381aa","system_id":"levelo_inurba_marseille","lat":43.295748,"lon":5.37522,"is_reserved":false,"is_disabled":false,"rental_uris":{"android":"levelo://app?vid=ccb66e87-1b2c-4849-b8eb-c01a4a4381aa","ios":"levelo://app?vid=ccb66e87-1b2c-4849-b8eb-c01a4a4381aa"},"vehicle_type_id":"4","last_reported":1704618388,"current_range_meters":7600,"station_id":"ce4bgh92rcd13ifvqb50","pricing_plan_id":"free"},{"bike_id":"489de46f-1d90-4c62-af4c-94110bc4ed3f","system_id":"levelo_inurba_marseille","lat":43.304278,"lon":5.388868,"is_reserved":false,"is_disabled":false,"rental_uris":{"android":"levelo://app?vid=489de46f-1d90-4c62-af4c-94110bc4ed3f","ios":"levelo://app?vid=489de46f-1d90-4c62-af4c-94110bc4ed3f"},"vehicle_type_id":"4","last_reported":1704618388,"current_range_meters":25200,"station_id":"ce4bgk12rcd13ifvqbi0","pricing_plan_id":"free"},{"bike_id":"cfc4a642-228d-42cf-b4da-0053377d74a2","system_id":"levelo_inurba_marseille","lat":43.295279,"lon":5.375048,"is_reserved":false,"is_disabled":false,"rental_uris":{"android":"levelo://app?vid=cfc4a642-228d-42cf-b4da-0053377d74a2","ios":"levelo://app?vid=cfc4a642-228d-42cf-b4da-0053377d74a2"},"vehicle_type_id":"4","last_reported":1704618388,"current_range_meters":16400,"station_id":"ce4bgkp2rcd13ifvqbmg","pricing_plan_id":"free"},{"bike_id":"204dea3f-87e7-4326-9f54-6cdab23e9e5a","system_id":"levelo_inurba_marseille","lat":43.32367,"lon":5.388836,"is_reserved":false,"is_disabled":false,"rental_uris":{"android":"levelo://app?vid=204dea3f-87e7-4326-9f54-6cdab23e9e5a","ios":"levelo://app?vid=204dea3f-87e7-4326-9f54-6cdab23e9e5a"},"vehicle_type_id":"4","last_reported":1704618388,"current_range_meters":31200,"station_id":"ce4bhqp2rcd13ifvqhog","pricing_plan_id":"free"},{"bike_id":"cdc52804-365f-47bc-ac28-e4ad9c3e46d7","system_id":"levelo_inurba_marseille","lat":43.32367,"lon":5.388836,"is_reserved":false,"is_disabled":false,"rental_uris":{"android":"levelo://app?vid=cdc52804-365f-47bc-ac28-e4ad9c3e46d7","ios":"levelo://app?vid=cdc52804-365f-47bc-ac28-e4ad9c3e46d7"},"vehicle_type_id":"4","last_reported":1704618388,"current_range_meters":31200,"station_id":"ce4bhqp2rcd13ifvqhog","pricing_plan_id":"free"},{"bike_id":"b294702b-142e-4c8f-99f3-0f1b4332bda6","system_id":"levelo_inurba_marseille","lat":43.293259,"lon":5.371586,"is_reserved":false,"is_disabled":false,"rental_uris":{"android":"levelo://app?vid=b294702b-142e-4c8f-99f3-0f1b4332bda6","ios":"levelo://app?vid=b294702b-142e-4c8f-99f3-0f1b4332bda6"},"vehicle_type_id":"4","last_reported":1704618388,"current_range_meters":27200,"station_id":"ce4bgh92rcd13ifvqb40","pricing_plan_id":"free"},{"bike_id":"5f1dd9e4-aa1c-4018-95c5-8c7b136d627f","system_id":"levelo_inurba_marseille","lat":43.292763,"lon":5.368137,"is_reserved":false,"is_disabled":false,"rental_uris":{"android":"levelo://app?vid=5f1dd9e4-aa1c-4018-95c5-8c7b136d627f","ios":"levelo://app?vid=5f1dd9e4-aa1c-4018-95c5-8c7b136d627f"},"vehicle_type_id":"4","last_reported":1704618388,"current_range_meters":0,"station_id":"ce4bhbp2rcd13ifvqesg","pricing_plan_id":"free"},{"bike_id":"3986915b-d28a-4fb2-836e-b492cb280eb2","system_id":"levelo_inurba_marseille","lat":43.293009,"lon":5.374584,"is_reserved":false,"is_disabled":false,"rental_uris":{"android":"levelo://app?vid=3986915b-d28a-4fb2-836e-b492cb280eb2","ios":"levelo://app?vid=3986915b-d28a-4fb2-836e-b492cb280eb2"},"vehicle_type_id":"4","last_reported":1704618388,"current_range_meters":31200,"station_id":"ce4bgi12rcd13ifvqb70","pricing_plan_id":"free"},{"bike_id":"b31b7cb6-4e40-488b-a91c-bb62f29af407","system_id":"levelo_inurba_marseille","lat":43.293009,"lon":5.374584,"is_reserved":false,"is_disabled":false,"rental_uris":{"android":"levelo://app?vid=b31b7cb6-4e40-488b-a91c-bb62f29af407","ios":"levelo://app?vid=b31b7cb6-4e40-488b-a91c-bb62f29af407"},"vehicle_type_id":"4","last_reported":1704618388,"current_range_meters":30400,"station_id":"ce4bgi12rcd13ifvqb70","pricing_plan_id":"free"},{"bike_id":"5061e8ca-783f-4847-be27-5b4e818c429d","system_id":"levelo_inurba_marseille","lat":43.293009,"lon":5.374584,"is_reserved":false,"is_disabled":false,"rental_uris":{"android":"levelo://app?vid=5061e8ca-783f-4847-be27-5b4e818c429d","ios":"levelo://app?vid=5061e8ca-783f-4847-be27-5b4e818c429d"},"vehicle_type_id":"4","last_reported":1704618388,"current_range_meters":23200,"station_id":"ce4bgi12rcd13ifvqb70","pricing_plan_id":"free"},{"bike_id":"b9e82c1d-e7d8-4f2e-9f54-6e6854cc05cb","system_id":"levelo_inurba_marseille","lat":43.293009,"lon":5.374584,"is_reserved":false,"is_disabled":false,"rental_uris":{"android":"levelo://app?vid=b9e82c1d-e7d8-4f2e-9f54-6e6854cc05cb","ios":"levelo://app?vid=b9e82c1d-e7d8-4f2e-9f54-6e6854cc05cb"},"vehicle_type_id":"4","last_reported":1704618388,"current_range_meters":25600,"station_id":"ce4bgi12rcd13ifvqb70","pricing_plan_id":"free"},{"bike_id":"fd937110-e38b-4a65-a6a1-3626b00b380b","system_id":"levelo_inurba_marseille","lat":43.293009,"lon":5.374584,"is_reserved":false,"is_disabled":false,"rental_uris":{"android":"levelo://app?vid=fd937110-e38b-4a65-a6a1-3626b00b380b","ios":"levelo://app?vid=fd937110-e38b-4a65-a6a1-3626b00b380b"},"vehicle_type_id":"4","last_reported":1704618388,"current_range_meters":28000,"station_id":"ce4bgi12rcd13ifvqb70","pricing_plan_id":"free"},{"bike_id":"6d8a6a7f-a47d-4c3b-a5e7-b2d9c3611fdb","system_id":"levelo_inurba_marseille","lat":43.293009,"lon":5.374584,"is_reserved":false,"is_disabled":false,"rental_uris":{"android":"levelo://app?vid=6d8a6a7f-a47d-4c3b-a5e7-b2d9c3611fdb","ios":"levelo://app?vid=6d8a6a7f-a47d-4c3b-a5e7-b2d9c3611fdb"},"vehicle_type_id":"4","last_reported":1704618388,"current_range_meters":31600,"station_id":"ce4bgi12rcd13ifvqb70","pricing_plan_id":"free"},{"bike_id":"ca65c717-833e-4b5c-8421-09aa8a7d6396","system_id":"levelo_inurba_marseille","lat":43.2936,"lon":5.37835,"is_reserved":false,"is_disabled":false,"rental_uris":{"android":"levelo://app?vid=ca65c717-833e-4b5c-8421-09aa8a7d6396","ios":"levelo://app?vid=ca65c717-833e-4b5c-8421-09aa8a7d6396"},"vehicle_type_id":"4","last_reported":1704618388,"current_range_meters":28800,"station_id":"ce4bgjh2rcd13ifvqbf0","pricing_plan_id":"free"},{"bike_id":"38a42324-7f76-434d-b9e0-2a359c2f57e3","system_id":"levelo_inurba_marseille","lat":43.2936,"lon":5.37835,"is_reserved":false,"is_disabled":false,"rental_uris":{"android":"levelo://app?vid=38a42324-7f76-434d-b9e0-2a359c2f57e3","ios":"levelo://app?vid=38a42324-7f76-434d-b9e0-2a359c2f57e3"},"vehicle_type_id":"4","last_reported":1704618388,"current_range_meters":24000,"station_id":"ce4bgjh2rcd13ifvqbf0","pricing_plan_id":"free"},{"bike_id":"5a5b69f8-4ba9-4066-98d4-47fe93560768","system_id":"levelo_inurba_marseille","lat":43.30091,"lon":5.3906,"is_reserved":false,"is_disabled":false,"rental_uris":{"android":"levelo://app?vid=5a5b69f8-4ba9-4066-98d4-47fe93560768","ios":"levelo://app?vid=5a5b69f8-4ba9-4066-98d4-47fe93560768"},"vehicle_type_id":"4","last_reported":1704618388,"current_range_meters":22000,"station_id":"ce4bh192rcd13ifvqdb0","pricing_plan_id":"free"},{"bike_id":"b1e753fe-4b2c-44d7-85fa-51d919b3b86f","system_id":"levelo_inurba_marseille","lat":43.30097,"lon":5.39074,"is_reserved":false,"is_disabled":false,"rental_uris":{"android":"levelo://app?vid=b1e753fe-4b2c-44d7-85fa-51d919b3b86f","ios":"levelo://app?vid=b1e753fe-4b2c-44d7-85fa-51d919b3b86f"},"vehicle_type_id":"4","last_reported":1704618388,"current_range_meters":22800,"station_id":"ce4bh192rcd13ifvqdb0","pricing_plan_id":"free"},{"bike_id":"e11e0e68-ae25-4f74-85e1-5abec8b23af7","system_id":"levelo_inurba_marseille","lat":43.30088,"lon":5.39072,"is_reserved":false,"is_disabled":false,"rental_uris":{"android":"levelo://app?vid=e11e0e68-ae25-4f74-85e1-5abec8b23af7","ios":"levelo://app?vid=e11e0e68-ae25-4f74-85e1-5abec8b23af7"},"vehicle_type_id":"4","last_reported":1704618388,"current_range_meters":31200,"station_id":"ce4bh192rcd13ifvqdb0","pricing_plan_id":"free"},{"bike_id":"727d49d9-5cea-49c1-9aba-bf04bfb6491d","system_id":"levelo_inurba_marseille","lat":43.30085,"lon":5.390856,"is_reserved":false,"is_disabled":false,"rental_uris":{"android":"levelo://app?vid=727d49d9-5cea-49c1-9aba-bf04bfb6491d","ios":"levelo://app?vid=727d49d9-5cea-49c1-9aba-bf04bfb6491d"},"vehicle_type_id":"4","last_reported":1704618388,"current_range_meters":27600,"station_id":"ce4bh192rcd13ifvqdb0","pricing_plan_id":"free"},{"bike_id":"a30985dd-9715-4f2f-83a3-9e226f0d7614","system_id":"levelo_inurba_marseille","lat":43.30091,"lon":5.39082,"is_reserved":false,"is_disabled":false,"rental_uris":{"android":"levelo://app?vid=a30985dd-9715-4f2f-83a3-9e226f0d7614","ios":"levelo://app?vid=a30985dd-9715-4f2f-83a3-9e226f0d7614"},"vehicle_type_id":"4","last_reported":1704618388,"current_range_meters":25200,"station_id":"ce4bh192rcd13ifvqdb0","pricing_plan_id":"free"},{"bike_id":"7a11e116-a8bd-4a83-9ca5-2944b17d00d5","system_id":"levelo_inurba_marseille","lat":43.300824,"lon":5.390782,"is_reserved":false,"is_disabled":false,"rental_uris":{"android":"levelo://app?vid=7a11e116-a8bd-4a83-9ca5-2944b17d00d5","ios":"levelo://app?vid=7a11e116-a8bd-4a83-9ca5-2944b17d00d5"},"vehicle_type_id":"4","last_reported":1704618388,"current_range_meters":22800,"station_id":"ce4bh192rcd13ifvqdb0","pricing_plan_id":"free"},{"bike_id":"e6d1c8b8-8961-49f7-850c-0b8712493c80","system_id":"levelo_inurba_marseille","lat":43.292311,"lon":5.360731,"is_reserved":false,"is_disabled":false,"rental_uris":{"android":"levelo://app?vid=e6d1c8b8-8961-49f7-850c-0b8712493c80","ios":"levelo://app?vid=e6d1c8b8-8961-49f7-850c-0b8712493c80"},"vehicle_type_id":"4","last_reported":1704618388,"current_range_meters":30400,"station_id":"ce4bhbh2rcd13ifvqeqg","pricing_plan_id":"free"},{"bike_id":"8916738f-b248-4632-9b9e-f268074949a1","system_id":"levelo_inurba_marseille","lat":43.291671,"lon":5.371575,"is_reserved":false,"is_disabled":false,"rental_uris":{"android":"levelo://app?vid=8916738f-b248-4632-9b9e-f268074949a1","ios":"levelo://app?vid=8916738f-b248-4632-9b9e-f268074949a1"},"vehicle_type_id":"4","last_reported":1704618388,"current_range_meters":27600,"station_id":"ce4bha92rcd13ifvqeh0","pricing_plan_id":"free"},{"bike_id":"72d0ff24-71a9-4931-a0cc-5735816bf9c9","system_id":"levelo_inurba_marseille","lat":43.291994,"lon":5.357886,"is_reserved":false,"is_disabled":false,"rental_uris":{"android":"levelo://app?vid=72d0ff24-71a9-4931-a0cc-5735816bf9c9","ios":"levelo://app?vid=72d0ff24-71a9-4931-a0cc-5735816bf9c9"},"vehicle_type_id":"4","last_reported":1704618388,"current_range_meters":23600,"station_id":"ce4bhb12rcd13ifvqel0","pricing_plan_id":"free"},{"bike_id":"0c55181c-11e1-4e55-9ca6-08cc7dab4996","system_id":"levelo_inurba_marseille","lat":43.313291,"lon":5.396838,"is_reserved":false,"is_disabled":false,"rental_uris":{"android":"levelo://app?vid=0c55181c-11e1-4e55-9ca6-08cc7dab4996","ios":"levelo://app?vid=0c55181c-11e1-4e55-9ca6-08cc7dab4996"},"vehicle_type_id":"4","last_reported":1704618388,"current_range_meters":21600,"station_id":"ce4bgvp2rcd13ifvqcu0","pricing_plan_id":"free"},{"bike_id":"1d2960b8-60be-4cab-a361-0305908bc696","system_id":"levelo_inurba_marseille","lat":43.313291,"lon":5.396838,"is_reserved":false,"is_disabled":false,"rental_uris":{"android":"levelo://app?vid=1d2960b8-60be-4cab-a361-0305908bc696","ios":"levelo://app?vid=1d2960b8-60be-4cab-a361-0305908bc696"},"vehicle_type_id":"4","last_reported":1704618388,"current_range_meters":13200,"station_id":"ce4bgvp2rcd13ifvqcu0","pricing_plan_id":"free"},{"bike_id":"a32a7746-144b-4831-b829-ba30a3ecf321","system_id":"levelo_inurba_marseille","lat":43.313291,"lon":5.396838,"is_reserved":false,"is_disabled":false,"rental_uris":{"android":"levelo://app?vid=a32a7746-144b-4831-b829-ba30a3ecf321","ios":"levelo://app?vid=a32a7746-144b-4831-b829-ba30a3ecf321"},"vehicle_type_id":"4","last_reported":1704618388,"current_range_meters":29600,"station_id":"ce4bgvp2rcd13ifvqcu0","pricing_plan_id":"free"},{"bike_id":"24433865-003c-4842-b692-06853c24f4ef","system_id":"levelo_inurba_marseille","lat":43.313291,"lon":5.396838,"is_reserved":false,"is_disabled":false,"rental_uris":{"android":"levelo://app?vid=24433865-003c-4842-b692-06853c24f4ef","ios":"levelo://app?vid=24433865-003c-4842-b692-06853c24f4ef"},"vehicle_type_id":"4","last_reported":1704618388,"current_range_meters":28800,"station_id":"ce4bgvp2rcd13ifvqcu0","pricing_plan_id":"free"},{"bike_id":"7b1a4088-c849-4aaa-b4f7-5c4164e2597b","system_id":"levelo_inurba_marseille","lat":43.29529,"lon":5.385581,"is_reserved":false,"is_disabled":false,"rental_uris":{"android":"levelo://app?vid=7b1a4088-c849-4aaa-b4f7-5c4164e2597b","ios":"levelo://app?vid=7b1a4088-c849-4aaa-b4f7-5c4164e2597b"},"vehicle_type_id":"4","last_reported":1704618388,"current_range_meters":30000,"station_id":"ce4bgih2rcd13ifvqba0","pricing_plan_id":"free"},{"bike_id":"86e4415b-10b7-4b01-90cf-f1102e569ac1","system_id":"levelo_inurba_marseille","lat":43.302008,"lon":5.394694,"is_reserved":false,"is_disabled":false,"rental_uris":{"android":"levelo://app?vid=86e4415b-10b7-4b01-90cf-f1102e569ac1","ios":"levelo://app?vid=86e4415b-10b7-4b01-90cf-f1102e569ac1"},"vehicle_type_id":"4","last_reported":1704618388,"current_range_meters":8000,"station_id":"ce4bh0p2rcd13ifvqd70","pricing_plan_id":"free"},{"bike_id":"77df0005-ab7e-4708-8f2e-b1a8a3c65118","system_id":"levelo_inurba_marseille","lat":43.292642,"lon":5.384254,"is_reserved":false,"is_disabled":false,"rental_uris":{"android":"levelo://app?vid=77df0005-ab7e-4708-8f2e-b1a8a3c65118","ios":"levelo://app?vid=77df0005-ab7e-4708-8f2e-b1a8a3c65118"},"vehicle_type_id":"4","last_reported":1704618388,"current_range_meters":14800,"station_id":"ce4bh692rcd13ifvqea0","pricing_plan_id":"free"},{"bike_id":"64c1a5f7-8143-4a0c-a256-bd681a60d2f1","system_id":"levelo_inurba_marseille","lat":43.30425,"lon":5.39743,"is_reserved":false,"is_disabled":false,"rental_uris":{"android":"levelo://app?vid=64c1a5f7-8143-4a0c-a256-bd681a60d2f1","ios":"levelo://app?vid=64c1a5f7-8143-4a0c-a256-bd681a60d2f1"},"vehicle_type_id":"4","last_reported":1704618388,"current_range_meters":10800,"station_id":"ce4bh092rcd13ifvqd20","pricing_plan_id":"free"},{"bike_id":"53286aef-a510-4810-9df5-83984680cb98","system_id":"levelo_inurba_marseille","lat":43.292644,"lon":5.384257,"is_reserved":false,"is_disabled":false,"rental_uris":{"android":"levelo://app?vid=53286aef-a510-4810-9df5-83984680cb98","ios":"levelo://app?vid=53286aef-a510-4810-9df5-83984680cb98"},"vehicle_type_id":"4","last_reported":1704618388,"current_range_meters":26400,"station_id":"ce4bh692rcd13ifvqea0","pricing_plan_id":"free"},{"bike_id":"b2558f5f-0b73-4ef6-aa35-4a671f8cb9df","system_id":"levelo_inurba_marseille","lat":43.290104,"lon":5.356111,"is_reserved":false,"is_disabled":false,"rental_uris":{"android":"levelo://app?vid=b2558f5f-0b73-4ef6-aa35-4a671f8cb9df","ios":"levelo://app?vid=b2558f5f-0b73-4ef6-aa35-4a671f8cb9df"},"vehicle_type_id":"4","last_reported":1704618388,"current_range_meters":30400,"station_id":"ce4bhb92rcd13ifvqen0","pricing_plan_id":"free"},{"bike_id":"fda42f49-50ee-4e86-8199-288094730ed8","system_id":"levelo_inurba_marseille","lat":43.29787,"lon":5.39328,"is_reserved":false,"is_disabled":false,"rental_uris":{"android":"levelo://app?vid=fda42f49-50ee-4e86-8199-288094730ed8","ios":"levelo://app?vid=fda42f49-50ee-4e86-8199-288094730ed8"},"vehicle_type_id":"4","last_reported":1704618388,"current_range_meters":30400,"station_id":"chh1huq6cuj3fo74tm60","pricing_plan_id":"free"},{"bike_id":"604d70e1-4bfc-4c1a-ad50-5c45b428d61e","system_id":"levelo_inurba_marseille","lat":43.330442,"lon":5.389148,"is_reserved":false,"is_disabled":false,"rental_uris":{"android":"levelo://app?vid=604d70e1-4bfc-4c1a-ad50-5c45b428d61e","ios":"levelo://app?vid=604d70e1-4bfc-4c1a-ad50-5c45b428d61e"},"vehicle_type_id":"4","last_reported":1704618388,"current_range_meters":19600,"station_id":"ce4bhr92rcd13ifvqhrg","pricing_plan_id":"free"},{"bike_id":"8625464e-66d0-4621-bd34-1a2874fb7a19","system_id":"levelo_inurba_marseille","lat":43.330442,"lon":5.389148,"is_reserved":false,"is_disabled":false,"rental_uris":{"android":"levelo://app?vid=8625464e-66d0-4621-bd34-1a2874fb7a19","ios":"levelo://app?vid=8625464e-66d0-4621-bd34-1a2874fb7a19"},"vehicle_type_id":"4","last_reported":1704618388,"current_range_meters":31200,"station_id":"ce4bhr92rcd13ifvqhrg","pricing_plan_id":"free"},{"bike_id":"4b631b82-1e61-4045-ac96-db07b845f3c1","system_id":"levelo_inurba_marseille","lat":43.29521,"lon":5.39031,"is_reserved":false,"is_disabled":false,"rental_uris":{"android":"levelo://app?vid=4b631b82-1e61-4045-ac96-db07b845f3c1","ios":"levelo://app?vid=4b631b82-1e61-4045-ac96-db07b845f3c1"},"vehicle_type_id":"4","last_reported":1704618388,"current_range_meters":18000,"station_id":"ce4bh3p2rcd13ifvqdp0","pricing_plan_id":"free"},{"bike_id":"de40f72b-d8ee-45c9-b96d-7ff4a767dcd0","system_id":"levelo_inurba_marseille","lat":43.295169,"lon":5.390426,"is_reserved":false,"is_disabled":false,"rental_uris":{"android":"levelo://app?vid=de40f72b-d8ee-45c9-b96d-7ff4a767dcd0","ios":"levelo://app?vid=de40f72b-d8ee-45c9-b96d-7ff4a767dcd0"},"vehicle_type_id":"4","last_reported":1704618388,"current_range_meters":21200,"station_id":"ce4bh3p2rcd13ifvqdp0","pricing_plan_id":"free"},{"bike_id":"7c7a6206-545f-4749-ace7-a0c9f17d3062","system_id":"levelo_inurba_marseille","lat":43.330442,"lon":5.389148,"is_reserved":false,"is_disabled":false,"rental_uris":{"android":"levelo://app?vid=7c7a6206-545f-4749-ace7-a0c9f17d3062","ios":"levelo://app?vid=7c7a6206-545f-4749-ace7-a0c9f17d3062"},"vehicle_type_id":"4","last_reported":1704618388,"current_range_meters":14800,"station_id":"ce4bhr92rcd13ifvqhrg","pricing_plan_id":"free"},{"bike_id":"42a2d22f-ce67-446d-ab38-453f93bc49fa","system_id":"levelo_inurba_marseille","lat":43.330442,"lon":5.389148,"is_reserved":false,"is_disabled":false,"rental_uris":{"android":"levelo://app?vid=42a2d22f-ce67-446d-ab38-453f93bc49fa","ios":"levelo://app?vid=42a2d22f-ce67-446d-ab38-453f93bc49fa"},"vehicle_type_id":"4","last_reported":1704618388,"current_range_meters":13200,"station_id":"ce4bhr92rcd13ifvqhrg","pricing_plan_id":"free"},{"bike_id":"57a59c67-703f-4a83-aae5-f27109cb99b9","system_id":"levelo_inurba_marseille","lat":43.330442,"lon":5.389148,"is_reserved":false,"is_disabled":false,"rental_uris":{"android":"levelo://app?vid=57a59c67-703f-4a83-aae5-f27109cb99b9","ios":"levelo://app?vid=57a59c67-703f-4a83-aae5-f27109cb99b9"},"vehicle_type_id":"4","last_reported":1704618388,"current_range_meters":19600,"station_id":"ce4bhr92rcd13ifvqhrg","pricing_plan_id":"free"},{"bike_id":"40f07fbb-4bea-4f9b-ac15-63c8f0c28b22","system_id":"levelo_inurba_marseille","lat":43.2901,"lon":5.381269,"is_reserved":false,"is_disabled":false,"rental_uris":{"android":"levelo://app?vid=40f07fbb-4bea-4f9b-ac15-63c8f0c28b22","ios":"levelo://app?vid=40f07fbb-4bea-4f9b-ac15-63c8f0c28b22"},"vehicle_type_id":"4","last_reported":1704618388,"current_range_meters":30000,"station_id":"ce4bh4p2rcd13ifvqe1g","pricing_plan_id":"free"},{"bike_id":"8a426083-d925-4221-b0bc-1cf82a72291b","system_id":"levelo_inurba_marseille","lat":43.309371,"lon":5.401449,"is_reserved":false,"is_disabled":false,"rental_uris":{"android":"levelo://app?vid=8a426083-d925-4221-b0bc-1cf82a72291b","ios":"levelo://app?vid=8a426083-d925-4221-b0bc-1cf82a72291b"},"vehicle_type_id":"4","last_reported":1704618388,"current_range_meters":17200,"station_id":"ce4bgvp2rcd13ifvqct0","pricing_plan_id":"free"},{"bike_id":"79f8aa8e-0e83-49d6-8226-1f6d594b75ed","system_id":"levelo_inurba_marseille","lat":43.309332,"lon":5.401432,"is_reserved":false,"is_disabled":false,"rental_uris":{"android":"levelo://app?vid=79f8aa8e-0e83-49d6-8226-1f6d594b75ed","ios":"levelo://app?vid=79f8aa8e-0e83-49d6-8226-1f6d594b75ed"},"vehicle_type_id":"4","last_reported":1704618388,"current_range_meters":30400,"station_id":"ce4bgvp2rcd13ifvqct0","pricing_plan_id":"free"},{"bike_id":"942333d9-f953-417f-a979-bd07c4805cc4","system_id":"levelo_inurba_marseille","lat":43.309371,"lon":5.401449,"is_reserved":false,"is_disabled":false,"rental_uris":{"android":"levelo://app?vid=942333d9-f953-417f-a979-bd07c4805cc4","ios":"levelo://app?vid=942333d9-f953-417f-a979-bd07c4805cc4"},"vehicle_type_id":"4","last_reported":1704618388,"current_range_meters":26000,"station_id":"ce4bgvp2rcd13ifvqct0","pricing_plan_id":"free"},{"bike_id":"7ed4cbbf-d980-4708-b54d-a50f5b585ca5","system_id":"levelo_inurba_marseille","lat":43.30925,"lon":5.40144,"is_reserved":false,"is_disabled":false,"rental_uris":{"android":"levelo://app?vid=7ed4cbbf-d980-4708-b54d-a50f5b585ca5","ios":"levelo://app?vid=7ed4cbbf-d980-4708-b54d-a50f5b585ca5"},"vehicle_type_id":"4","last_reported":1704618388,"current_range_meters":23200,"station_id":"ce4bgvp2rcd13ifvqct0","pricing_plan_id":"free"},{"bike_id":"79880bce-d32e-4636-9493-e11747d49352","system_id":"levelo_inurba_marseille","lat":43.30929,"lon":5.40147,"is_reserved":false,"is_disabled":false,"rental_uris":{"android":"levelo://app?vid=79880bce-d32e-4636-9493-e11747d49352","ios":"levelo://app?vid=79880bce-d32e-4636-9493-e11747d49352"},"vehicle_type_id":"4","last_reported":1704618388,"current_range_meters":31200,"station_id":"ce4bgvp2rcd13ifvqct0","pricing_plan_id":"free"},{"bike_id":"c8150c2e-9fca-4c4a-8d6c-895c5f80e74a","system_id":"levelo_inurba_marseille","lat":43.309371,"lon":5.401449,"is_reserved":false,"is_disabled":false,"rental_uris":{"android":"levelo://app?vid=c8150c2e-9fca-4c4a-8d6c-895c5f80e74a","ios":"levelo://app?vid=c8150c2e-9fca-4c4a-8d6c-895c5f80e74a"},"vehicle_type_id":"4","last_reported":1704618388,"current_range_meters":8400,"station_id":"ce4bgvp2rcd13ifvqct0","pricing_plan_id":"free"},{"bike_id":"93310879-61e1-4b67-9a43-dfdb7f577908","system_id":"levelo_inurba_marseille","lat":43.306349,"lon":5.400699,"is_reserved":false,"is_disabled":false,"rental_uris":{"android":"levelo://app?vid=93310879-61e1-4b67-9a43-dfdb7f577908","ios":"levelo://app?vid=93310879-61e1-4b67-9a43-dfdb7f577908"},"vehicle_type_id":"4","last_reported":1704618388,"current_range_meters":26000,"station_id":"ce4bh112rcd13ifvqda0","pricing_plan_id":"free"},{"bike_id":"c5527485-3bbb-4ad9-ac15-0be0dadc774a","system_id":"levelo_inurba_marseille","lat":43.30925,"lon":5.4015,"is_reserved":false,"is_disabled":false,"rental_uris":{"android":"levelo://app?vid=c5527485-3bbb-4ad9-ac15-0be0dadc774a","ios":"levelo://app?vid=c5527485-3bbb-4ad9-ac15-0be0dadc774a"},"vehicle_type_id":"4","last_reported":1704618388,"current_range_meters":18400,"station_id":"ce4bgvp2rcd13ifvqct0","pricing_plan_id":"free"},{"bike_id":"d7eacd65-805a-418e-a709-aba6de0ca27c","system_id":"levelo_inurba_marseille","lat":43.306412,"lon":5.400741,"is_reserved":false,"is_disabled":false,"rental_uris":{"android":"levelo://app?vid=d7eacd65-805a-418e-a709-aba6de0ca27c","ios":"levelo://app?vid=d7eacd65-805a-418e-a709-aba6de0ca27c"},"vehicle_type_id":"4","last_reported":1704618388,"current_range_meters":12400,"station_id":"ce4bh112rcd13ifvqda0","pricing_plan_id":"free"},{"bike_id":"f6ab2e6d-7ace-403b-a9be-f0dd9beff679","system_id":"levelo_inurba_marseille","lat":43.306412,"lon":5.401035,"is_reserved":false,"is_disabled":false,"rental_uris":{"android":"levelo://app?vid=f6ab2e6d-7ace-403b-a9be-f0dd9beff679","ios":"levelo://app?vid=f6ab2e6d-7ace-403b-a9be-f0dd9beff679"},"vehicle_type_id":"4","last_reported":1704618388,"current_range_meters":31600,"station_id":"ce4bh112rcd13ifvqda0","pricing_plan_id":"free"},{"bike_id":"820e6ebb-8e5c-4782-b9df-d99e2fcecf6b","system_id":"levelo_inurba_marseille","lat":43.306412,"lon":5.401035,"is_reserved":false,"is_disabled":false,"rental_uris":{"android":"levelo://app?vid=820e6ebb-8e5c-4782-b9df-d99e2fcecf6b","ios":"levelo://app?vid=820e6ebb-8e5c-4782-b9df-d99e2fcecf6b"},"vehicle_type_id":"4","last_reported":1704618388,"current_range_meters":24000,"station_id":"ce4bh112rcd13ifvqda0","pricing_plan_id":"free"},{"bike_id":"162ab047-1d09-43d6-9f58-1290e3058b45","system_id":"levelo_inurba_marseille","lat":43.306412,"lon":5.401035,"is_reserved":false,"is_disabled":false,"rental_uris":{"android":"levelo://app?vid=162ab047-1d09-43d6-9f58-1290e3058b45","ios":"levelo://app?vid=162ab047-1d09-43d6-9f58-1290e3058b45"},"vehicle_type_id":"4","last_reported":1704618388,"current_range_meters":22000,"station_id":"ce4bh112rcd13ifvqda0","pricing_plan_id":"free"},{"bike_id":"c9b7aa10-37d8-4864-aba0-a5872e7f010a","system_id":"levelo_inurba_marseille","lat":43.30135,"lon":5.39866,"is_reserved":false,"is_disabled":false,"rental_uris":{"android":"levelo://app?vid=c9b7aa10-37d8-4864-aba0-a5872e7f010a","ios":"levelo://app?vid=c9b7aa10-37d8-4864-aba0-a5872e7f010a"},"vehicle_type_id":"4","last_reported":1704618388,"current_range_meters":28800,"station_id":"ce4bh0h2rcd13ifvqd40","pricing_plan_id":"free"},{"bike_id":"64f21b3a-b00e-46a7-8a31-a163948467a0","system_id":"levelo_inurba_marseille","lat":43.301425,"lon":5.39876,"is_reserved":false,"is_disabled":false,"rental_uris":{"android":"levelo://app?vid=64f21b3a-b00e-46a7-8a31-a163948467a0","ios":"levelo://app?vid=64f21b3a-b00e-46a7-8a31-a163948467a0"},"vehicle_type_id":"4","last_reported":1704618388,"current_range_meters":13200,"station_id":"ce4bh0h2rcd13ifvqd40","pricing_plan_id":"free"},{"bike_id":"99955737-3050-4227-b1e4-dac8e5d13ece","system_id":"levelo_inurba_marseille","lat":43.28727,"lon":5.36078,"is_reserved":false,"is_disabled":false,"rental_uris":{"android":"levelo://app?vid=99955737-3050-4227-b1e4-dac8e5d13ece","ios":"levelo://app?vid=99955737-3050-4227-b1e4-dac8e5d13ece"},"vehicle_type_id":"4","last_reported":1704618388,"current_range_meters":28800,"station_id":"cki0cbj6b192h4jlfktg","pricing_plan_id":"free"},{"bike_id":"5d5f1218-8c85-4364-ba52-7f2b77218cd0","system_id":"levelo_inurba_marseille","lat":43.28727,"lon":5.36078,"is_reserved":false,"is_disabled":false,"rental_uris":{"android":"levelo://app?vid=5d5f1218-8c85-4364-ba52-7f2b77218cd0","ios":"levelo://app?vid=5d5f1218-8c85-4364-ba52-7f2b77218cd0"},"vehicle_type_id":"4","last_reported":1704618388,"current_range_meters":26400,"station_id":"cki0cbj6b192h4jlfktg","pricing_plan_id":"free"},{"bike_id":"0caeafda-3ba6-44ac-8af4-0bebab109ce0","system_id":"levelo_inurba_marseille","lat":43.28727,"lon":5.36078,"is_reserved":false,"is_disabled":false,"rental_uris":{"android":"levelo://app?vid=0caeafda-3ba6-44ac-8af4-0bebab109ce0","ios":"levelo://app?vid=0caeafda-3ba6-44ac-8af4-0bebab109ce0"},"vehicle_type_id":"4","last_reported":1704618388,"current_range_meters":22400,"station_id":"cki0cbj6b192h4jlfktg","pricing_plan_id":"free"},{"bike_id":"94b3ddfa-090a-43a9-858e-5ccda96b1594","system_id":"levelo_inurba_marseille","lat":43.28727,"lon":5.36078,"is_reserved":false,"is_disabled":false,"rental_uris":{"android":"levelo://app?vid=94b3ddfa-090a-43a9-858e-5ccda96b1594","ios":"levelo://app?vid=94b3ddfa-090a-43a9-858e-5ccda96b1594"},"vehicle_type_id":"4","last_reported":1704618388,"current_range_meters":25600,"station_id":"cki0cbj6b192h4jlfktg","pricing_plan_id":"free"},{"bike_id":"b63c94c7-1853-4547-8f01-2132edd37d37","system_id":"levelo_inurba_marseille","lat":43.286591,"lon":5.363346,"is_reserved":false,"is_disabled":false,"rental_uris":{"android":"levelo://app?vid=b63c94c7-1853-4547-8f01-2132edd37d37","ios":"levelo://app?vid=b63c94c7-1853-4547-8f01-2132edd37d37"},"vehicle_type_id":"4","last_reported":1704618388,"current_range_meters":30400,"station_id":"ce4bhah2rcd13ifvqej0","pricing_plan_id":"free"},{"bike_id":"6c976029-5e7e-4dd8-bfaa-4c5c5ee6fad0","system_id":"levelo_inurba_marseille","lat":43.286039,"lon":5.370679,"is_reserved":false,"is_disabled":false,"rental_uris":{"android":"levelo://app?vid=6c976029-5e7e-4dd8-bfaa-4c5c5ee6fad0","ios":"levelo://app?vid=6c976029-5e7e-4dd8-bfaa-4c5c5ee6fad0"},"vehicle_type_id":"4","last_reported":1704618388,"current_range_meters":28400,"station_id":"ce4bht12rcd13ifvqi60","pricing_plan_id":"free"},{"bike_id":"3d586703-e7c7-4c93-820c-cc285dc4e8ac","system_id":"levelo_inurba_marseille","lat":43.286039,"lon":5.370681,"is_reserved":false,"is_disabled":false,"rental_uris":{"android":"levelo://app?vid=3d586703-e7c7-4c93-820c-cc285dc4e8ac","ios":"levelo://app?vid=3d586703-e7c7-4c93-820c-cc285dc4e8ac"},"vehicle_type_id":"4","last_reported":1704618388,"current_range_meters":29200,"station_id":"ce4bht12rcd13ifvqi60","pricing_plan_id":"free"},{"bike_id":"3eeeaa2b-c056-46af-90c9-2cc89fa5ea6f","system_id":"levelo_inurba_marseille","lat":43.287185,"lon":5.379373,"is_reserved":false,"is_disabled":false,"rental_uris":{"android":"levelo://app?vid=3eeeaa2b-c056-46af-90c9-2cc89fa5ea6f","ios":"levelo://app?vid=3eeeaa2b-c056-46af-90c9-2cc89fa5ea6f"},"vehicle_type_id":"4","last_reported":1704618388,"current_range_meters":29600,"station_id":"ce4bh9p2rcd13ifvqec0","pricing_plan_id":"free"},{"bike_id":"02e3cb42-f329-4b5d-947a-29339f5f00a3","system_id":"levelo_inurba_marseille","lat":43.315828,"lon":5.403953,"is_reserved":false,"is_disabled":false,"rental_uris":{"android":"levelo://app?vid=02e3cb42-f329-4b5d-947a-29339f5f00a3","ios":"levelo://app?vid=02e3cb42-f329-4b5d-947a-29339f5f00a3"},"vehicle_type_id":"4","last_reported":1704618388,"current_range_meters":27200,"station_id":"","pricing_plan_id":"free"},{"bike_id":"103fee8d-d576-4560-a3bb-1c6c7a60b117","system_id":"levelo_inurba_marseille","lat":43.316828,"lon":5.404723,"is_reserved":false,"is_disabled":false,"rental_uris":{"android":"levelo://app?vid=103fee8d-d576-4560-a3bb-1c6c7a60b117","ios":"levelo://app?vid=103fee8d-d576-4560-a3bb-1c6c7a60b117"},"vehicle_type_id":"4","last_reported":1704618388,"current_range_meters":8000,"station_id":"ce4bh012rcd13ifvqd00","pricing_plan_id":"free"},{"bike_id":"6fb589cc-5906-4d8e-891f-343a1cf35091","system_id":"levelo_inurba_marseille","lat":43.284538,"lon":5.358657,"is_reserved":false,"is_disabled":false,"rental_uris":{"android":"levelo://app?vid=6fb589cc-5906-4d8e-891f-343a1cf35091","ios":"levelo://app?vid=6fb589cc-5906-4d8e-891f-343a1cf35091"},"vehicle_type_id":"4","last_reported":1704618388,"current_range_meters":31200,"station_id":"ce4bhah2rcd13ifvqei0","pricing_plan_id":"free"},{"bike_id":"93b47ff7-87e1-4c62-a927-724871a2bb54","system_id":"levelo_inurba_marseille","lat":43.284605,"lon":5.35886,"is_reserved":false,"is_disabled":false,"rental_uris":{"android":"levelo://app?vid=93b47ff7-87e1-4c62-a927-724871a2bb54","ios":"levelo://app?vid=93b47ff7-87e1-4c62-a927-724871a2bb54"},"vehicle_type_id":"4","last_reported":1704618388,"current_range_meters":27200,"station_id":"ce4bhah2rcd13ifvqei0","pricing_plan_id":"free"},{"bike_id":"71cf0c72-acaf-49bf-8718-120d52c13130","system_id":"levelo_inurba_marseille","lat":43.284538,"lon":5.358657,"is_reserved":false,"is_disabled":false,"rental_uris":{"android":"levelo://app?vid=71cf0c72-acaf-49bf-8718-120d52c13130","ios":"levelo://app?vid=71cf0c72-acaf-49bf-8718-120d52c13130"},"vehicle_type_id":"4","last_reported":1704618388,"current_range_meters":24000,"station_id":"ce4bhah2rcd13ifvqei0","pricing_plan_id":"free"},{"bike_id":"d80711de-e2a5-4593-977e-a3e52adc91dc","system_id":"levelo_inurba_marseille","lat":43.28455,"lon":5.358946,"is_reserved":false,"is_disabled":false,"rental_uris":{"android":"levelo://app?vid=d80711de-e2a5-4593-977e-a3e52adc91dc","ios":"levelo://app?vid=d80711de-e2a5-4593-977e-a3e52adc91dc"},"vehicle_type_id":"4","last_reported":1704618388,"current_range_meters":30400,"station_id":"ce4bhah2rcd13ifvqei0","pricing_plan_id":"free"},{"bike_id":"b0d9c37a-12b7-4fcf-b2cc-70034df7a04b","system_id":"levelo_inurba_marseille","lat":43.29859,"lon":5.40148,"is_reserved":false,"is_disabled":false,"rental_uris":{"android":"levelo://app?vid=b0d9c37a-12b7-4fcf-b2cc-70034df7a04b","ios":"levelo://app?vid=b0d9c37a-12b7-4fcf-b2cc-70034df7a04b"},"vehicle_type_id":"4","last_reported":1704618388,"current_range_meters":400,"station_id":"","pricing_plan_id":"free"},{"bike_id":"e7e08145-4601-41a4-9b39-d7f05b7c27b0","system_id":"levelo_inurba_marseille","lat":43.285856,"lon":5.350771,"is_reserved":false,"is_disabled":false,"rental_uris":{"android":"levelo://app?vid=e7e08145-4601-41a4-9b39-d7f05b7c27b0","ios":"levelo://app?vid=e7e08145-4601-41a4-9b39-d7f05b7c27b0"},"vehicle_type_id":"4","last_reported":1704618388,"current_range_meters":26800,"station_id":"ce4bhch2rcd13ifvqeug","pricing_plan_id":"free"},{"bike_id":"154efb84-26fc-49e6-ada6-5bf0c44dd6f0","system_id":"levelo_inurba_marseille","lat":43.285856,"lon":5.350771,"is_reserved":false,"is_disabled":false,"rental_uris":{"android":"levelo://app?vid=154efb84-26fc-49e6-ada6-5bf0c44dd6f0","ios":"levelo://app?vid=154efb84-26fc-49e6-ada6-5bf0c44dd6f0"},"vehicle_type_id":"4","last_reported":1704618388,"current_range_meters":10000,"station_id":"ce4bhch2rcd13ifvqeug","pricing_plan_id":"free"},{"bike_id":"e7d08906-0d87-4715-8ffa-bdb9be03abd3","system_id":"levelo_inurba_marseille","lat":43.285856,"lon":5.350771,"is_reserved":false,"is_disabled":false,"rental_uris":{"android":"levelo://app?vid=e7d08906-0d87-4715-8ffa-bdb9be03abd3","ios":"levelo://app?vid=e7d08906-0d87-4715-8ffa-bdb9be03abd3"},"vehicle_type_id":"4","last_reported":1704618388,"current_range_meters":18000,"station_id":"ce4bhch2rcd13ifvqeug","pricing_plan_id":"free"},{"bike_id":"8ae8fd29-973b-477c-9463-de857e7f5178","system_id":"levelo_inurba_marseille","lat":43.285856,"lon":5.350771,"is_reserved":false,"is_disabled":false,"rental_uris":{"android":"levelo://app?vid=8ae8fd29-973b-477c-9463-de857e7f5178","ios":"levelo://app?vid=8ae8fd29-973b-477c-9463-de857e7f5178"},"vehicle_type_id":"4","last_reported":1704618388,"current_range_meters":22800,"station_id":"ce4bhch2rcd13ifvqeug","pricing_plan_id":"free"},{"bike_id":"5688a380-9bf4-41fc-824e-d906fd2a2179","system_id":"levelo_inurba_marseille","lat":43.285856,"lon":5.350771,"is_reserved":false,"is_disabled":false,"rental_uris":{"android":"levelo://app?vid=5688a380-9bf4-41fc-824e-d906fd2a2179","ios":"levelo://app?vid=5688a380-9bf4-41fc-824e-d906fd2a2179"},"vehicle_type_id":"4","last_reported":1704618388,"current_range_meters":13600,"station_id":"ce4bhch2rcd13ifvqeug","pricing_plan_id":"free"},{"bike_id":"a8a5a961-0292-4b80-81a4-a594170f711e","system_id":"levelo_inurba_marseille","lat":43.285856,"lon":5.350771,"is_reserved":false,"is_disabled":false,"rental_uris":{"android":"levelo://app?vid=a8a5a961-0292-4b80-81a4-a594170f711e","ios":"levelo://app?vid=a8a5a961-0292-4b80-81a4-a594170f711e"},"vehicle_type_id":"4","last_reported":1704618388,"current_range_meters":18800,"station_id":"ce4bhch2rcd13ifvqeug","pricing_plan_id":"free"},{"bike_id":"43b3ea92-a636-409a-a2bf-2cfcdf83346d","system_id":"levelo_inurba_marseille","lat":43.285856,"lon":5.350771,"is_reserved":false,"is_disabled":false,"rental_uris":{"android":"levelo://app?vid=43b3ea92-a636-409a-a2bf-2cfcdf83346d","ios":"levelo://app?vid=43b3ea92-a636-409a-a2bf-2cfcdf83346d"},"vehicle_type_id":"4","last_reported":1704618388,"current_range_meters":24800,"station_id":"ce4bhch2rcd13ifvqeug","pricing_plan_id":"free"},{"bike_id":"f6d84242-536a-4227-995d-300e54eb18f6","system_id":"levelo_inurba_marseille","lat":43.286153,"lon":5.351003,"is_reserved":false,"is_disabled":false,"rental_uris":{"android":"levelo://app?vid=f6d84242-536a-4227-995d-300e54eb18f6","ios":"levelo://app?vid=f6d84242-536a-4227-995d-300e54eb18f6"},"vehicle_type_id":"4","last_reported":1704618388,"current_range_meters":9600,"station_id":"ce4bhch2rcd13ifvqeug","pricing_plan_id":"free"},{"bike_id":"77dcd9db-8541-482e-80ea-3465701dc93c","system_id":"levelo_inurba_marseille","lat":43.285856,"lon":5.350771,"is_reserved":false,"is_disabled":false,"rental_uris":{"android":"levelo://app?vid=77dcd9db-8541-482e-80ea-3465701dc93c","ios":"levelo://app?vid=77dcd9db-8541-482e-80ea-3465701dc93c"},"vehicle_type_id":"4","last_reported":1704618388,"current_range_meters":15600,"station_id":"ce4bhch2rcd13ifvqeug","pricing_plan_id":"free"},{"bike_id":"01e59b64-29e9-4e48-86ad-7a3b4b582e04","system_id":"levelo_inurba_marseille","lat":43.285856,"lon":5.350771,"is_reserved":false,"is_disabled":false,"rental_uris":{"android":"levelo://app?vid=01e59b64-29e9-4e48-86ad-7a3b4b582e04","ios":"levelo://app?vid=01e59b64-29e9-4e48-86ad-7a3b4b582e04"},"vehicle_type_id":"4","last_reported":1704618388,"current_range_meters":28400,"station_id":"ce4bhch2rcd13ifvqeug","pricing_plan_id":"free"},{"bike_id":"6cf58c27-4080-48bb-81eb-25f7549adeb6","system_id":"levelo_inurba_marseille","lat":43.283998,"lon":5.375062,"is_reserved":false,"is_disabled":false,"rental_uris":{"android":"levelo://app?vid=6cf58c27-4080-48bb-81eb-25f7549adeb6","ios":"levelo://app?vid=6cf58c27-4080-48bb-81eb-25f7549adeb6"},"vehicle_type_id":"4","last_reported":1704618388,"current_range_meters":15200,"station_id":"ce4bh412rcd13ifvqds0","pricing_plan_id":"free"},{"bike_id":"4ea5093a-2d8a-4c82-8a45-2f8963c89a99","system_id":"levelo_inurba_marseille","lat":43.283998,"lon":5.375062,"is_reserved":false,"is_disabled":false,"rental_uris":{"android":"levelo://app?vid=4ea5093a-2d8a-4c82-8a45-2f8963c89a99","ios":"levelo://app?vid=4ea5093a-2d8a-4c82-8a45-2f8963c89a99"},"vehicle_type_id":"4","last_reported":1704618388,"current_range_meters":4400,"station_id":"ce4bh412rcd13ifvqds0","pricing_plan_id":"free"},{"bike_id":"eec8ea67-0a0f-4ede-8b99-5a68439f35a6","system_id":"levelo_inurba_marseille","lat":43.295713,"lon":5.399639,"is_reserved":false,"is_disabled":false,"rental_uris":{"android":"levelo://app?vid=eec8ea67-0a0f-4ede-8b99-5a68439f35a6","ios":"levelo://app?vid=eec8ea67-0a0f-4ede-8b99-5a68439f35a6"},"vehicle_type_id":"4","last_reported":1704618388,"current_range_meters":24000,"station_id":"ce4bh312rcd13ifvqdj0","pricing_plan_id":"free"},{"bike_id":"214e1163-0343-4eea-a78a-897b0e8e97bd","system_id":"levelo_inurba_marseille","lat":43.319179,"lon":5.407725,"is_reserved":false,"is_disabled":false,"rental_uris":{"android":"levelo://app?vid=214e1163-0343-4eea-a78a-897b0e8e97bd","ios":"levelo://app?vid=214e1163-0343-4eea-a78a-897b0e8e97bd"},"vehicle_type_id":"4","last_reported":1704618388,"current_range_meters":28400,"station_id":"ce4bhq12rcd13ifvqhig","pricing_plan_id":"free"},{"bike_id":"33b5cad4-74c8-451a-8822-f57a3fae057e","system_id":"levelo_inurba_marseille","lat":43.319179,"lon":5.407725,"is_reserved":false,"is_disabled":false,"rental_uris":{"android":"levelo://app?vid=33b5cad4-74c8-451a-8822-f57a3fae057e","ios":"levelo://app?vid=33b5cad4-74c8-451a-8822-f57a3fae057e"},"vehicle_type_id":"4","last_reported":1704618388,"current_range_meters":31200,"station_id":"ce4bhq12rcd13ifvqhig","pricing_plan_id":"free"},{"bike_id":"54bec85a-3ad1-4ccc-9cab-e86a90c0ca6c","system_id":"levelo_inurba_marseille","lat":43.323464,"lon":5.406297,"is_reserved":false,"is_disabled":false,"rental_uris":{"android":"levelo://app?vid=54bec85a-3ad1-4ccc-9cab-e86a90c0ca6c","ios":"levelo://app?vid=54bec85a-3ad1-4ccc-9cab-e86a90c0ca6c"},"vehicle_type_id":"4","last_reported":1704618388,"current_range_meters":31200,"station_id":"ce4bhq92rcd13ifvqhjg","pricing_plan_id":"free"},{"bike_id":"747b4a07-a8db-40b3-a2bf-387b48385f47","system_id":"levelo_inurba_marseille","lat":43.323464,"lon":5.406297,"is_reserved":false,"is_disabled":false,"rental_uris":{"android":"levelo://app?vid=747b4a07-a8db-40b3-a2bf-387b48385f47","ios":"levelo://app?vid=747b4a07-a8db-40b3-a2bf-387b48385f47"},"vehicle_type_id":"4","last_reported":1704618388,"current_range_meters":21600,"station_id":"ce4bhq92rcd13ifvqhjg","pricing_plan_id":"free"},{"bike_id":"b76b758b-c705-45ab-bb3c-c70697e46bd1","system_id":"levelo_inurba_marseille","lat":43.284672,"lon":5.384076,"is_reserved":false,"is_disabled":false,"rental_uris":{"android":"levelo://app?vid=b76b758b-c705-45ab-bb3c-c70697e46bd1","ios":"levelo://app?vid=b76b758b-c705-45ab-bb3c-c70697e46bd1"},"vehicle_type_id":"4","last_reported":1704618388,"current_range_meters":19600,"station_id":"ce4bh512rcd13ifvqe3g","pricing_plan_id":"free"},{"bike_id":"669c6953-a82f-4240-a69c-df01ba95e90e","system_id":"levelo_inurba_marseille","lat":43.284793,"lon":5.384119,"is_reserved":false,"is_disabled":false,"rental_uris":{"android":"levelo://app?vid=669c6953-a82f-4240-a69c-df01ba95e90e","ios":"levelo://app?vid=669c6953-a82f-4240-a69c-df01ba95e90e"},"vehicle_type_id":"4","last_reported":1704618388,"current_range_meters":29600,"station_id":"ce4bh512rcd13ifvqe3g","pricing_plan_id":"free"},{"bike_id":"f3beda24-7695-4aaf-b82d-04ab3fbe44d1","system_id":"levelo_inurba_marseille","lat":43.288501,"lon":5.393087,"is_reserved":false,"is_disabled":false,"rental_uris":{"android":"levelo://app?vid=f3beda24-7695-4aaf-b82d-04ab3fbe44d1","ios":"levelo://app?vid=f3beda24-7695-4aaf-b82d-04ab3fbe44d1"},"vehicle_type_id":"4","last_reported":1704618388,"current_range_meters":30000,"station_id":"ce4bh2p2rcd13ifvqdi0","pricing_plan_id":"free"},{"bike_id":"04df0adf-a9cc-4f36-82c7-899d09134ae0","system_id":"levelo_inurba_marseille","lat":43.288501,"lon":5.393087,"is_reserved":false,"is_disabled":false,"rental_uris":{"android":"levelo://app?vid=04df0adf-a9cc-4f36-82c7-899d09134ae0","ios":"levelo://app?vid=04df0adf-a9cc-4f36-82c7-899d09134ae0"},"vehicle_type_id":"4","last_reported":1704618388,"current_range_meters":26000,"station_id":"ce4bh2p2rcd13ifvqdi0","pricing_plan_id":"free"},{"bike_id":"d5249843-5038-4c53-89f6-5dc41ae7e949","system_id":"levelo_inurba_marseille","lat":43.288526,"lon":5.39327,"is_reserved":false,"is_disabled":false,"rental_uris":{"android":"levelo://app?vid=d5249843-5038-4c53-89f6-5dc41ae7e949","ios":"levelo://app?vid=d5249843-5038-4c53-89f6-5dc41ae7e949"},"vehicle_type_id":"4","last_reported":1704618388,"current_range_meters":25600,"station_id":"ce4bh2p2rcd13ifvqdi0","pricing_plan_id":"free"},{"bike_id":"a65a704c-120b-4589-8a31-49ac3f2dd2b7","system_id":"levelo_inurba_marseille","lat":43.283494,"lon":5.380945,"is_reserved":false,"is_disabled":false,"rental_uris":{"android":"levelo://app?vid=a65a704c-120b-4589-8a31-49ac3f2dd2b7","ios":"levelo://app?vid=a65a704c-120b-4589-8a31-49ac3f2dd2b7"},"vehicle_type_id":"4","last_reported":1704618388,"current_range_meters":25600,"station_id":"ce4bh412rcd13ifvqdr0","pricing_plan_id":"free"},{"bike_id":"fbf53d0e-b951-4f28-b6cf-0ca6fcff788b","system_id":"levelo_inurba_marseille","lat":43.283498,"lon":5.380948,"is_reserved":false,"is_disabled":false,"rental_uris":{"android":"levelo://app?vid=fbf53d0e-b951-4f28-b6cf-0ca6fcff788b","ios":"levelo://app?vid=fbf53d0e-b951-4f28-b6cf-0ca6fcff788b"},"vehicle_type_id":"4","last_reported":1704618388,"current_range_meters":20000,"station_id":"ce4bh412rcd13ifvqdr0","pricing_plan_id":"free"},{"bike_id":"74c757a3-57f5-43bc-9cbd-c0caf045d565","system_id":"levelo_inurba_marseille","lat":43.284219,"lon":5.3497,"is_reserved":false,"is_disabled":false,"rental_uris":{"android":"levelo://app?vid=74c757a3-57f5-43bc-9cbd-c0caf045d565","ios":"levelo://app?vid=74c757a3-57f5-43bc-9cbd-c0caf045d565"},"vehicle_type_id":"4","last_reported":1704618388,"current_range_meters":26000,"station_id":"ce4bhbh2rcd13ifvqepg","pricing_plan_id":"free"},{"bike_id":"089fd505-dace-46fe-a5f8-d3c86a685bad","system_id":"levelo_inurba_marseille","lat":43.28424,"lon":5.34993,"is_reserved":false,"is_disabled":false,"rental_uris":{"android":"levelo://app?vid=089fd505-dace-46fe-a5f8-d3c86a685bad","ios":"levelo://app?vid=089fd505-dace-46fe-a5f8-d3c86a685bad"},"vehicle_type_id":"4","last_reported":1704618388,"current_range_meters":20800,"station_id":"ce4bhbh2rcd13ifvqepg","pricing_plan_id":"free"},{"bike_id":"b9349673-8d6b-4e78-ab6f-fffd7ff760fb","system_id":"levelo_inurba_marseille","lat":43.284219,"lon":5.3497,"is_reserved":false,"is_disabled":false,"rental_uris":{"android":"levelo://app?vid=b9349673-8d6b-4e78-ab6f-fffd7ff760fb","ios":"levelo://app?vid=b9349673-8d6b-4e78-ab6f-fffd7ff760fb"},"vehicle_type_id":"4","last_reported":1704618388,"current_range_meters":28000,"station_id":"ce4bhbh2rcd13ifvqepg","pricing_plan_id":"free"},{"bike_id":"c3f119c8-a2c3-48cd-a23a-407567ed222b","system_id":"levelo_inurba_marseille","lat":43.284217,"lon":5.349697,"is_reserved":false,"is_disabled":false,"rental_uris":{"android":"levelo://app?vid=c3f119c8-a2c3-48cd-a23a-407567ed222b","ios":"levelo://app?vid=c3f119c8-a2c3-48cd-a23a-407567ed222b"},"vehicle_type_id":"4","last_reported":1704618388,"current_range_meters":31200,"station_id":"ce4bhbh2rcd13ifvqepg","pricing_plan_id":"free"},{"bike_id":"a2b2319c-8302-4c6c-8e3d-f0397969e6f4","system_id":"levelo_inurba_marseille","lat":43.284217,"lon":5.349697,"is_reserved":false,"is_disabled":false,"rental_uris":{"android":"levelo://app?vid=a2b2319c-8302-4c6c-8e3d-f0397969e6f4","ios":"levelo://app?vid=a2b2319c-8302-4c6c-8e3d-f0397969e6f4"},"vehicle_type_id":"4","last_reported":1704618388,"current_range_meters":11200,"station_id":"ce4bhbh2rcd13ifvqepg","pricing_plan_id":"free"},{"bike_id":"5d724bc6-af52-4d46-8d06-42885fe6618d","system_id":"levelo_inurba_marseille","lat":43.284217,"lon":5.349697,"is_reserved":false,"is_disabled":false,"rental_uris":{"android":"levelo://app?vid=5d724bc6-af52-4d46-8d06-42885fe6618d","ios":"levelo://app?vid=5d724bc6-af52-4d46-8d06-42885fe6618d"},"vehicle_type_id":"4","last_reported":1704618388,"current_range_meters":31200,"station_id":"ce4bhbh2rcd13ifvqepg","pricing_plan_id":"free"},{"bike_id":"b287049f-276d-4fff-91da-e10c86166b78","system_id":"levelo_inurba_marseille","lat":43.284217,"lon":5.349697,"is_reserved":false,"is_disabled":false,"rental_uris":{"android":"levelo://app?vid=b287049f-276d-4fff-91da-e10c86166b78","ios":"levelo://app?vid=b287049f-276d-4fff-91da-e10c86166b78"},"vehicle_type_id":"4","last_reported":1704618388,"current_range_meters":9600,"station_id":"ce4bhbh2rcd13ifvqepg","pricing_plan_id":"free"},{"bike_id":"4714bef9-5f38-4c26-b888-7b40cc11f281","system_id":"levelo_inurba_marseille","lat":43.284219,"lon":5.3497,"is_reserved":false,"is_disabled":false,"rental_uris":{"android":"levelo://app?vid=4714bef9-5f38-4c26-b888-7b40cc11f281","ios":"levelo://app?vid=4714bef9-5f38-4c26-b888-7b40cc11f281"},"vehicle_type_id":"4","last_reported":1704618388,"current_range_meters":31200,"station_id":"ce4bhbh2rcd13ifvqepg","pricing_plan_id":"free"},{"bike_id":"a27cde75-ecea-4702-901f-73ae50d32725","system_id":"levelo_inurba_marseille","lat":43.289363,"lon":5.396322,"is_reserved":false,"is_disabled":false,"rental_uris":{"android":"levelo://app?vid=a27cde75-ecea-4702-901f-73ae50d32725","ios":"levelo://app?vid=a27cde75-ecea-4702-901f-73ae50d32725"},"vehicle_type_id":"4","last_reported":1704618388,"current_range_meters":22000,"station_id":"ce4bh3h2rcd13ifvqdn0","pricing_plan_id":"free"},{"bike_id":"ebfe5f98-b5f5-44d8-bc3d-6477bc71342c","system_id":"levelo_inurba_marseille","lat":43.292724,"lon":5.401131,"is_reserved":false,"is_disabled":false,"rental_uris":{"android":"levelo://app?vid=ebfe5f98-b5f5-44d8-bc3d-6477bc71342c","ios":"levelo://app?vid=ebfe5f98-b5f5-44d8-bc3d-6477bc71342c"},"vehicle_type_id":"4","last_reported":1704618388,"current_range_meters":31600,"station_id":"ce4bh312rcd13ifvqdk0","pricing_plan_id":"free"},{"bike_id":"944c46d5-3457-4812-a829-b69c1ed2909d","system_id":"levelo_inurba_marseille","lat":43.292724,"lon":5.401131,"is_reserved":false,"is_disabled":false,"rental_uris":{"android":"levelo://app?vid=944c46d5-3457-4812-a829-b69c1ed2909d","ios":"levelo://app?vid=944c46d5-3457-4812-a829-b69c1ed2909d"},"vehicle_type_id":"4","last_reported":1704618388,"current_range_meters":16000,"station_id":"ce4bh312rcd13ifvqdk0","pricing_plan_id":"free"},{"bike_id":"f8dd31ec-fac5-40aa-bf57-1849aadae574","system_id":"levelo_inurba_marseille","lat":43.282744,"lon":5.350533,"is_reserved":false,"is_disabled":false,"rental_uris":{"android":"levelo://app?vid=f8dd31ec-fac5-40aa-bf57-1849aadae574","ios":"levelo://app?vid=f8dd31ec-fac5-40aa-bf57-1849aadae574"},"vehicle_type_id":"4","last_reported":1704618388,"current_range_meters":24000,"station_id":"ce4bhbp2rcd13ifvqerg","pricing_plan_id":"free"},{"bike_id":"de380a36-5464-4216-818c-7a3271335f1a","system_id":"levelo_inurba_marseille","lat":43.282754,"lon":5.350519,"is_reserved":false,"is_disabled":false,"rental_uris":{"android":"levelo://app?vid=de380a36-5464-4216-818c-7a3271335f1a","ios":"levelo://app?vid=de380a36-5464-4216-818c-7a3271335f1a"},"vehicle_type_id":"4","last_reported":1704618388,"current_range_meters":31200,"station_id":"ce4bhbp2rcd13ifvqerg","pricing_plan_id":"free"},{"bike_id":"fd817817-289b-4ac7-a1d1-8ad432f14ee3","system_id":"levelo_inurba_marseille","lat":43.282744,"lon":5.350533,"is_reserved":false,"is_disabled":false,"rental_uris":{"android":"levelo://app?vid=fd817817-289b-4ac7-a1d1-8ad432f14ee3","ios":"levelo://app?vid=fd817817-289b-4ac7-a1d1-8ad432f14ee3"},"vehicle_type_id":"4","last_reported":1704618388,"current_range_meters":17600,"station_id":"ce4bhbp2rcd13ifvqerg","pricing_plan_id":"free"},{"bike_id":"52596233-efe2-42f7-a154-9ab226054d49","system_id":"levelo_inurba_marseille","lat":43.282661,"lon":5.350734,"is_reserved":false,"is_disabled":false,"rental_uris":{"android":"levelo://app?vid=52596233-efe2-42f7-a154-9ab226054d49","ios":"levelo://app?vid=52596233-efe2-42f7-a154-9ab226054d49"},"vehicle_type_id":"4","last_reported":1704618388,"current_range_meters":30800,"station_id":"ce4bhbp2rcd13ifvqerg","pricing_plan_id":"free"},{"bike_id":"8689da3f-2e18-497c-81c7-253926b0c264","system_id":"levelo_inurba_marseille","lat":43.282754,"lon":5.350519,"is_reserved":false,"is_disabled":false,"rental_uris":{"android":"levelo://app?vid=8689da3f-2e18-497c-81c7-253926b0c264","ios":"levelo://app?vid=8689da3f-2e18-497c-81c7-253926b0c264"},"vehicle_type_id":"4","last_reported":1704618388,"current_range_meters":12800,"station_id":"ce4bhbp2rcd13ifvqerg","pricing_plan_id":"free"},{"bike_id":"d807c3a1-c397-4042-a278-4e087381b3b6","system_id":"levelo_inurba_marseille","lat":43.28265,"lon":5.350657,"is_reserved":false,"is_disabled":false,"rental_uris":{"android":"levelo://app?vid=d807c3a1-c397-4042-a278-4e087381b3b6","ios":"levelo://app?vid=d807c3a1-c397-4042-a278-4e087381b3b6"},"vehicle_type_id":"4","last_reported":1704618388,"current_range_meters":18000,"station_id":"ce4bhbp2rcd13ifvqerg","pricing_plan_id":"free"},{"bike_id":"64a3722c-d7b1-4c03-a920-a75f2903e4ba","system_id":"levelo_inurba_marseille","lat":43.28264,"lon":5.35058,"is_reserved":false,"is_disabled":false,"rental_uris":{"android":"levelo://app?vid=64a3722c-d7b1-4c03-a920-a75f2903e4ba","ios":"levelo://app?vid=64a3722c-d7b1-4c03-a920-a75f2903e4ba"},"vehicle_type_id":"4","last_reported":1704618388,"current_range_meters":30400,"station_id":"ce4bhbp2rcd13ifvqerg","pricing_plan_id":"free"},{"bike_id":"cf6b5a4c-566d-4307-a0f1-2d578aaebffa","system_id":"levelo_inurba_marseille","lat":43.28039,"lon":5.369297,"is_reserved":false,"is_disabled":false,"rental_uris":{"android":"levelo://app?vid=cf6b5a4c-566d-4307-a0f1-2d578aaebffa","ios":"levelo://app?vid=cf6b5a4c-566d-4307-a0f1-2d578aaebffa"},"vehicle_type_id":"4","last_reported":1704618388,"current_range_meters":30000,"station_id":"ce4bha12rcd13ifvqef0","pricing_plan_id":"free"},{"bike_id":"4569ba30-c138-4e5c-a1e4-e5eedea25fd8","system_id":"levelo_inurba_marseille","lat":43.29035,"lon":5.39945,"is_reserved":false,"is_disabled":false,"rental_uris":{"android":"levelo://app?vid=4569ba30-c138-4e5c-a1e4-e5eedea25fd8","ios":"levelo://app?vid=4569ba30-c138-4e5c-a1e4-e5eedea25fd8"},"vehicle_type_id":"4","last_reported":1704618388,"current_range_meters":18800,"station_id":"ce4bh392rcd13ifvqdm0","pricing_plan_id":"free"},{"bike_id":"cf17c471-ab87-48b1-b920-f36eee6290b1","system_id":"levelo_inurba_marseille","lat":43.29041,"lon":5.399634,"is_reserved":false,"is_disabled":false,"rental_uris":{"android":"levelo://app?vid=cf17c471-ab87-48b1-b920-f36eee6290b1","ios":"levelo://app?vid=cf17c471-ab87-48b1-b920-f36eee6290b1"},"vehicle_type_id":"4","last_reported":1704618388,"current_range_meters":22800,"station_id":"ce4bh392rcd13ifvqdm0","pricing_plan_id":"free"},{"bike_id":"c81145b7-37d8-48bf-b697-2d5eecfa64d8","system_id":"levelo_inurba_marseille","lat":43.29032,"lon":5.3997,"is_reserved":false,"is_disabled":false,"rental_uris":{"android":"levelo://app?vid=c81145b7-37d8-48bf-b697-2d5eecfa64d8","ios":"levelo://app?vid=c81145b7-37d8-48bf-b697-2d5eecfa64d8"},"vehicle_type_id":"4","last_reported":1704618388,"current_range_meters":1600,"station_id":"ce4bh392rcd13ifvqdm0","pricing_plan_id":"free"},{"bike_id":"1ed5ed65-3f6f-41df-99bf-b84cc4c776b8","system_id":"levelo_inurba_marseille","lat":43.29041,"lon":5.399634,"is_reserved":false,"is_disabled":false,"rental_uris":{"android":"levelo://app?vid=1ed5ed65-3f6f-41df-99bf-b84cc4c776b8","ios":"levelo://app?vid=1ed5ed65-3f6f-41df-99bf-b84cc4c776b8"},"vehicle_type_id":"4","last_reported":1704618388,"current_range_meters":21200,"station_id":"ce4bh392rcd13ifvqdm0","pricing_plan_id":"free"},{"bike_id":"da1a4f23-c548-4855-962e-a312b975c349","system_id":"levelo_inurba_marseille","lat":43.296263,"lon":5.40601,"is_reserved":false,"is_disabled":false,"rental_uris":{"android":"levelo://app?vid=da1a4f23-c548-4855-962e-a312b975c349","ios":"levelo://app?vid=da1a4f23-c548-4855-962e-a312b975c349"},"vehicle_type_id":"4","last_reported":1704618388,"current_range_meters":8400,"station_id":"ce4bh0h2rcd13ifvqd60","pricing_plan_id":"free"},{"bike_id":"c8e4a5ee-af40-43c7-ac6e-356e7883bf92","system_id":"levelo_inurba_marseille","lat":43.28573,"lon":5.394992,"is_reserved":false,"is_disabled":false,"rental_uris":{"android":"levelo://app?vid=c8e4a5ee-af40-43c7-ac6e-356e7883bf92","ios":"levelo://app?vid=c8e4a5ee-af40-43c7-ac6e-356e7883bf92"},"vehicle_type_id":"4","last_reported":1704618388,"current_range_meters":25600,"station_id":"ce4bh292rcd13ifvqdg0","pricing_plan_id":"free"},{"bike_id":"839bd8e3-8583-4af2-8966-53d4f3f29fed","system_id":"levelo_inurba_marseille","lat":43.285742,"lon":5.395004,"is_reserved":false,"is_disabled":false,"rental_uris":{"android":"levelo://app?vid=839bd8e3-8583-4af2-8966-53d4f3f29fed","ios":"levelo://app?vid=839bd8e3-8583-4af2-8966-53d4f3f29fed"},"vehicle_type_id":"4","last_reported":1704618388,"current_range_meters":21600,"station_id":"ce4bh292rcd13ifvqdg0","pricing_plan_id":"free"},{"bike_id":"73b7c303-bb17-492e-9d0f-94d5ac695eac","system_id":"levelo_inurba_marseille","lat":43.326596,"lon":5.409856,"is_reserved":false,"is_disabled":false,"rental_uris":{"android":"levelo://app?vid=73b7c303-bb17-492e-9d0f-94d5ac695eac","ios":"levelo://app?vid=73b7c303-bb17-492e-9d0f-94d5ac695eac"},"vehicle_type_id":"4","last_reported":1704618388,"current_range_meters":16800,"station_id":"ce4bhpp2rcd13ifvqhgg","pricing_plan_id":"free"},{"bike_id":"a0d20dd8-a3b3-4fa3-a6e9-2896226abf35","system_id":"levelo_inurba_marseille","lat":43.326605,"lon":5.409903,"is_reserved":false,"is_disabled":false,"rental_uris":{"android":"levelo://app?vid=a0d20dd8-a3b3-4fa3-a6e9-2896226abf35","ios":"levelo://app?vid=a0d20dd8-a3b3-4fa3-a6e9-2896226abf35"},"vehicle_type_id":"4","last_reported":1704618388,"current_range_meters":7600,"station_id":"ce4bhpp2rcd13ifvqhgg","pricing_plan_id":"free"},{"bike_id":"804748a1-919c-4286-95e2-023037287763","system_id":"levelo_inurba_marseille","lat":43.326605,"lon":5.409903,"is_reserved":false,"is_disabled":false,"rental_uris":{"android":"levelo://app?vid=804748a1-919c-4286-95e2-023037287763","ios":"levelo://app?vid=804748a1-919c-4286-95e2-023037287763"},"vehicle_type_id":"4","last_reported":1704618388,"current_range_meters":28800,"station_id":"ce4bhpp2rcd13ifvqhgg","pricing_plan_id":"free"},{"bike_id":"6bcc2d9f-ce8b-4eda-944e-d3d8c9887e44","system_id":"levelo_inurba_marseille","lat":43.304188,"lon":5.412904,"is_reserved":false,"is_disabled":false,"rental_uris":{"android":"levelo://app?vid=6bcc2d9f-ce8b-4eda-944e-d3d8c9887e44","ios":"levelo://app?vid=6bcc2d9f-ce8b-4eda-944e-d3d8c9887e44"},"vehicle_type_id":"4","last_reported":1704618388,"current_range_meters":17600,"station_id":"ce4bhop2rcd13ifvqh8g","pricing_plan_id":"free"},{"bike_id":"5ff05813-14ce-47ae-a306-8457a7145774","system_id":"levelo_inurba_marseille","lat":43.30409,"lon":5.41284,"is_reserved":false,"is_disabled":false,"rental_uris":{"android":"levelo://app?vid=5ff05813-14ce-47ae-a306-8457a7145774","ios":"levelo://app?vid=5ff05813-14ce-47ae-a306-8457a7145774"},"vehicle_type_id":"4","last_reported":1704618388,"current_range_meters":30000,"station_id":"ce4bhop2rcd13ifvqh8g","pricing_plan_id":"free"},{"bike_id":"6b32fc1f-04a9-4fe2-b9d5-f7ed7bb851d8","system_id":"levelo_inurba_marseille","lat":43.304147,"lon":5.412867,"is_reserved":false,"is_disabled":false,"rental_uris":{"android":"levelo://app?vid=6b32fc1f-04a9-4fe2-b9d5-f7ed7bb851d8","ios":"levelo://app?vid=6b32fc1f-04a9-4fe2-b9d5-f7ed7bb851d8"},"vehicle_type_id":"4","last_reported":1704618388,"current_range_meters":29600,"station_id":"ce4bhop2rcd13ifvqh8g","pricing_plan_id":"free"},{"bike_id":"3d351d06-0266-45af-8adb-554012353f4c","system_id":"levelo_inurba_marseille","lat":43.304188,"lon":5.412904,"is_reserved":false,"is_disabled":false,"rental_uris":{"android":"levelo://app?vid=3d351d06-0266-45af-8adb-554012353f4c","ios":"levelo://app?vid=3d351d06-0266-45af-8adb-554012353f4c"},"vehicle_type_id":"4","last_reported":1704618388,"current_range_meters":31200,"station_id":"ce4bhop2rcd13ifvqh8g","pricing_plan_id":"free"},{"bike_id":"73da02cf-6897-420e-b821-2c9af8f3f2cc","system_id":"levelo_inurba_marseille","lat":43.304188,"lon":5.412904,"is_reserved":false,"is_disabled":false,"rental_uris":{"android":"levelo://app?vid=73da02cf-6897-420e-b821-2c9af8f3f2cc","ios":"levelo://app?vid=73da02cf-6897-420e-b821-2c9af8f3f2cc"},"vehicle_type_id":"4","last_reported":1704618388,"current_range_meters":3600,"station_id":"ce4bhop2rcd13ifvqh8g","pricing_plan_id":"free"},{"bike_id":"eeca2ce5-f64e-4be8-926e-22a9037d6da5","system_id":"levelo_inurba_marseille","lat":43.279742,"lon":5.38744,"is_reserved":false,"is_disabled":false,"rental_uris":{"android":"levelo://app?vid=eeca2ce5-f64e-4be8-926e-22a9037d6da5","ios":"levelo://app?vid=eeca2ce5-f64e-4be8-926e-22a9037d6da5"},"vehicle_type_id":"4","last_reported":1704618388,"current_range_meters":29200,"station_id":"ce4bhg12rcd13ifvqf80","pricing_plan_id":"free"},{"bike_id":"4fa1b4b9-69b4-4549-9285-d1c130dc26dd","system_id":"levelo_inurba_marseille","lat":43.279742,"lon":5.38744,"is_reserved":false,"is_disabled":false,"rental_uris":{"android":"levelo://app?vid=4fa1b4b9-69b4-4549-9285-d1c130dc26dd","ios":"levelo://app?vid=4fa1b4b9-69b4-4549-9285-d1c130dc26dd"},"vehicle_type_id":"4","last_reported":1704618388,"current_range_meters":21200,"station_id":"ce4bhg12rcd13ifvqf80","pricing_plan_id":"free"},{"bike_id":"29a481a7-2edc-4a0f-8037-745cf30cfd87","system_id":"levelo_inurba_marseille","lat":43.28363,"lon":5.39668,"is_reserved":false,"is_disabled":false,"rental_uris":{"android":"levelo://app?vid=29a481a7-2edc-4a0f-8037-745cf30cfd87","ios":"levelo://app?vid=29a481a7-2edc-4a0f-8037-745cf30cfd87"},"vehicle_type_id":"4","last_reported":1704618388,"current_range_meters":9600,"station_id":"","pricing_plan_id":"free"},{"bike_id":"16723c02-0027-4ed9-9320-4ed5caffcf7f","system_id":"levelo_inurba_marseille","lat":43.292571,"lon":5.409107,"is_reserved":false,"is_disabled":false,"rental_uris":{"android":"levelo://app?vid=16723c02-0027-4ed9-9320-4ed5caffcf7f","ios":"levelo://app?vid=16723c02-0027-4ed9-9320-4ed5caffcf7f"},"vehicle_type_id":"4","last_reported":1704618388,"current_range_meters":16800,"station_id":"ce4bh192rcd13ifvqdc0","pricing_plan_id":"free"},{"bike_id":"5e6fa696-6cb8-439d-81e3-760dc273c46a","system_id":"levelo_inurba_marseille","lat":43.292571,"lon":5.409107,"is_reserved":false,"is_disabled":false,"rental_uris":{"android":"levelo://app?vid=5e6fa696-6cb8-439d-81e3-760dc273c46a","ios":"levelo://app?vid=5e6fa696-6cb8-439d-81e3-760dc273c46a"},"vehicle_type_id":"4","last_reported":1704618388,"current_range_meters":31200,"station_id":"ce4bh192rcd13ifvqdc0","pricing_plan_id":"free"},{"bike_id":"37a9db12-628d-4d19-b9f4-e32ab2ddd635","system_id":"levelo_inurba_marseille","lat":43.292569,"lon":5.409107,"is_reserved":false,"is_disabled":false,"rental_uris":{"android":"levelo://app?vid=37a9db12-628d-4d19-b9f4-e32ab2ddd635","ios":"levelo://app?vid=37a9db12-628d-4d19-b9f4-e32ab2ddd635"},"vehicle_type_id":"4","last_reported":1704618388,"current_range_meters":30400,"station_id":"ce4bh192rcd13ifvqdc0","pricing_plan_id":"free"},{"bike_id":"64822f24-a252-45f6-9dc1-4edd12e081de","system_id":"levelo_inurba_marseille","lat":43.2808,"lon":5.39641,"is_reserved":false,"is_disabled":false,"rental_uris":{"android":"levelo://app?vid=64822f24-a252-45f6-9dc1-4edd12e081de","ios":"levelo://app?vid=64822f24-a252-45f6-9dc1-4edd12e081de"},"vehicle_type_id":"4","last_reported":1704618388,"current_range_meters":30400,"station_id":"ce4bho12rcd13ifvqh2g","pricing_plan_id":"free"},{"bike_id":"744c1b87-e61d-498e-9fd0-fec4514aae2a","system_id":"levelo_inurba_marseille","lat":43.280784,"lon":5.396622,"is_reserved":false,"is_disabled":false,"rental_uris":{"android":"levelo://app?vid=744c1b87-e61d-498e-9fd0-fec4514aae2a","ios":"levelo://app?vid=744c1b87-e61d-498e-9fd0-fec4514aae2a"},"vehicle_type_id":"4","last_reported":1704618388,"current_range_meters":29600,"station_id":"ce4bho12rcd13ifvqh2g","pricing_plan_id":"free"},{"bike_id":"5045c764-e58c-453e-996b-6824f78aae18","system_id":"levelo_inurba_marseille","lat":43.280784,"lon":5.396622,"is_reserved":false,"is_disabled":false,"rental_uris":{"android":"levelo://app?vid=5045c764-e58c-453e-996b-6824f78aae18","ios":"levelo://app?vid=5045c764-e58c-453e-996b-6824f78aae18"},"vehicle_type_id":"4","last_reported":1704618388,"current_range_meters":16400,"station_id":"ce4bho12rcd13ifvqh2g","pricing_plan_id":"free"},{"bike_id":"9d5095a4-b951-4636-9005-60267ecaf2d3","system_id":"levelo_inurba_marseille","lat":43.303837,"lon":5.418724,"is_reserved":false,"is_disabled":false,"rental_uris":{"android":"levelo://app?vid=9d5095a4-b951-4636-9005-60267ecaf2d3","ios":"levelo://app?vid=9d5095a4-b951-4636-9005-60267ecaf2d3"},"vehicle_type_id":"4","last_reported":1704618388,"current_range_meters":27200,"station_id":"ce4bhop2rcd13ifvqh7g","pricing_plan_id":"free"},