{"last_updated":1704348608,"ttl":30,"version":"2.2","data":{"bikes":[{"bike_id":"7daf0701-5f02-41f0-8625-4eaa4d45a442","system_id":"levelo_inurba_marseille","lat":43.313584,"lon":5.367108,"is_reserved":false,"is_disabled":false,"rental_uris":{"android":"levelo://app?vid=7daf0701-5f02-41f0-8625-4eaa4d45a442","ios":"levelo://app?vid=7daf0701-5f02-41f0-8625-4eaa4d45a442"},"vehicle_type_id":"4","last_reported":1704348608,"current_range_meters":29600,"station_id":"ce4bgr92rcd13ifvqc6g","pricing_plan_id":"free"},{"bike_id":"9aea1505-39b3-4a12-8422-767358c6238c","system_id":"levelo_inurba_marseille","lat":43.312239,"lon":5.368562,"is_reserved":false,"is_disabled":false,"rental_uris":{"android":"levelo://app?vid=9aea1505-39b3-4a12-8422-767358c6238c","ios":"levelo://app?vid=9aea1505-39b3-4a12-8422-767358c6238c"},"vehicle_type_id":"4","last_reported":1704348608,"current_range_meters":30000,"station_id":"ce4bgl92rcd13ifvqbq0","pricing_plan_id":"free"},{"bike_id":"96a7ef97-5fb3-472d-867d-1fde736e101f","system_id":"levelo_inurba_marseille","lat":43.312239,"lon":5.368562,"is_reserved":false,"is_disabled":false,"rental_uris":{"android":"levelo://app?vid=96a7ef97-5fb3-472d-867d-1fde736e101f","ios":"levelo://app?vid=96a7ef97-5fb3-472d-867d-1fde736e101f"},"vehicle_type_id":"4","last_reported":1704348608,"current_range_meters":26000,"station_id":"ce4bgl92rcd13ifvqbq0","pricing_plan_id":"free"},{"bike_id":"2788c86f-35b3-41ba-99ef-27d5f2e65322","system_id":"levelo_inurba_marseille","lat":43.30909,"lon":5.36848,"is_reserved":false,"is_disabled":false,"rental_uris":{"android":"levelo://app?vid=2788c86f-35b3-41ba-99ef-27d5f2e65322","ios":"levelo://app?vid=2788c86f-35b3-41ba-99ef-27d5f2e65322"},"vehicle_type_id":"4","last_reported":1704348608,"current_range_meters":12400,"station_id":"","pricing_plan_id":"free"},{"bike_id":"153cfced-da78-4fe4-8efb-59d7aec8d95e","system_id":"levelo_inurba_marseille","lat":43.309093,"lon":5.36854,"is_reserved":false,"is_disabled":false,"rental_uris":{"android":"levelo://app?vid=153cfced-da78-4fe4-8efb-59d7aec8d95e","ios":"levelo://app?vid=153cfced-da78-4fe4-8efb-59d7aec8d95e"},"vehicle_type_id":"4","last_reported":1704348608,"current_range_meters":17600,"station_id":"ce4bgn92rcd13ifvqbvg","pricing_plan_id":"free"},{"bike_id":"07808651-dad0-40e4-a42f-1b0a91e587f0","system_id":"levelo_inurba_marseille","lat":43.309076,"lon":5.368465,"is_reserved":false,"is_disabled":false,"rental_uris":{"android":"levelo://app?vid=07808651-dad0-40e4-a42f-1b0a91e587f0","ios":"levelo://app?vid=07808651-dad0-40e4-a42f-1b0a91e587f0"},"vehicle_type_id":"4","last_reported":1704348608,"current_range_meters":30800,"station_id":"ce4bgn92rcd13ifvqbvg","pricing_plan_id":"free"},{"bike_id":"c4a6f38e-4282-4743-a8ef-b6d8a6ed371f","system_id":"levelo_inurba_marseille","lat":43.314811,"lon":5.373103,"is_reserved":false,"is_disabled":false,"rental_uris":{"android":"levelo://app?vid=c4a6f38e-4282-4743-a8ef-b6d8a6ed371f","ios":"levelo://app?vid=c4a6f38e-4282-4743-a8ef-b6d8a6ed371f"},"vehicle_type_id":"4","last_reported":1704348608,"current_range_meters":16000,"station_id":"ce4bgt12rcd13ifvqcd0","pricing_plan_id":"free"},{"bike_id":"791b7be1-cf4c-4ea9-a831-2a4900b9f4bd","system_id":"levelo_inurba_marseille","lat":43.314811,"lon":5.373103,"is_reserved":false,"is_disabled":false,"rental_uris":{"android":"levelo://app?vid=791b7be1-cf4c-4ea9-a831-2a4900b9f4bd","ios":"levelo://app?vid=791b7be1-cf4c-4ea9-a831-2a4900b9f4bd"},"vehicle_type_id":"4","last_reported":1704348608,"current_range_meters":21600,"station_id":"ce4bgt12rcd13ifvqcd0","pricing_plan_id":"free"},{"bike_id":"6cee9a4c-0b21-4f53-9285-812ec88adf30","system_id":"levelo_inurba_marseille","lat":43.31497,"lon":5.37307,"is_reserved":false,"is_disabled":false,"rental_uris":{"android":"levelo://app?vid=6cee9a4c-0b21-4f53-9285-812ec88adf30","ios":"levelo://app?vid=6cee9a4c-0b21-4f53-9285-812ec88adf30"},"vehicle_type_id":"4","last_reported":1704348608,"current_range_meters":14800,"station_id":"ce4bgt12rcd13ifvqcd0","pricing_plan_id":"free"},{"bike_id":"de2d62fc-c4ac-4f9d-addc-3c268404097a","system_id":"levelo_inurba_marseille","lat":43.308909,"lon":5.372003,"is_reserved":false,"is_disabled":false,"rental_uris":{"android":"levelo://app?vid=de2d62fc-c4ac-4f9d-addc-3c268404097a","ios":"levelo://app?vid=de2d62fc-c4ac-4f9d-addc-3c268404097a"},"vehicle_type_id":"4","last_reported":1704348608,"current_range_meters":2400,"station_id":"ce4bguh2rcd13ifvqckg","pricing_plan_id":"free"},{"bike_id":"0e1f9166-eeaf-41d5-ad62-0e874c1c0fc3","system_id":"levelo_inurba_marseille","lat":43.30549,"lon":5.367062,"is_reserved":false,"is_disabled":false,"rental_uris":{"android":"levelo://app?vid=0e1f9166-eeaf-41d5-ad62-0e874c1c0fc3","ios":"levelo://app?vid=0e1f9166-eeaf-41d5-ad62-0e874c1c0fc3"},"vehicle_type_id":"4","last_reported":1704348608,"current_range_meters":30400,"station_id":"ce4bgrp2rcd13ifvqc9g","pricing_plan_id":"free"},{"bike_id":"80ea2ea9-b9ab-403c-925b-9678e253d7e0","system_id":"levelo_inurba_marseille","lat":43.30537,"lon":5.367345,"is_reserved":false,"is_disabled":false,"rental_uris":{"android":"levelo://app?vid=80ea2ea9-b9ab-403c-925b-9678e253d7e0","ios":"levelo://app?vid=80ea2ea9-b9ab-403c-925b-9678e253d7e0"},"vehicle_type_id":"4","last_reported":1704348608,"current_range_meters":26000,"station_id":"ce4bgrp2rcd13ifvqc9g","pricing_plan_id":"free"},{"bike_id":"a09e03d1-7773-48d7-ad8e-c4f03211cab4","system_id":"levelo_inurba_marseille","lat":43.305714,"lon":5.365633,"is_reserved":false,"is_disabled":false,"rental_uris":{"android":"levelo://app?vid=a09e03d1-7773-48d7-ad8e-c4f03211cab4","ios":"levelo://app?vid=a09e03d1-7773-48d7-ad8e-c4f03211cab4"},"vehicle_type_id":"4","last_reported":1704348608,"current_range_meters":18400,"station_id":"ce4bgs12rcd13ifvqcag","pricing_plan_id":"free"},{"bike_id":"9a98b11e-3cdb-4313-913d-2299c262ca8f","system_id":"levelo_inurba_marseille","lat":43.305356,"lon":5.367118,"is_reserved":false,"is_disabled":false,"rental_uris":{"android":"levelo://app?vid=9a98b11e-3cdb-4313-913d-2299c262ca8f","ios":"levelo://app?vid=9a98b11e-3cdb-4313-913d-2299c262ca8f"},"vehicle_type_id":"4","last_reported":1704348608,"current_range_meters":31200,"station_id":"ce4bgrp2rcd13ifvqc9g","pricing_plan_id":"free"},{"bike_id":"93b2615d-1164-41e4-88d3-0a982ea2350e","system_id":"levelo_inurba_marseille","lat":43.305989,"lon":5.37225,"is_reserved":false,"is_disabled":false,"rental_uris":{"android":"levelo://app?vid=93b2615d-1164-41e4-88d3-0a982ea2350e","ios":"levelo://app?vid=93b2615d-1164-41e4-88d3-0a982ea2350e"},"vehicle_type_id":"4","last_reported":1704348608,"current_range_meters":26400,"station_id":"ce4bgqh2rcd13ifvqc4g","pricing_plan_id":"free"},{"bike_id":"2c0db4bc-bbe6-44cd-b5cb-b825abc3b660","system_id":"levelo_inurba_marseille","lat":43.311131,"lon":5.377651,"is_reserved":false,"is_disabled":false,"rental_uris":{"android":"levelo://app?vid=2c0db4bc-bbe6-44cd-b5cb-b825abc3b660","ios":"levelo://app?vid=2c0db4bc-bbe6-44cd-b5cb-b825abc3b660"},"vehicle_type_id":"4","last_reported":1704348608,"current_range_meters":30000,"station_id":"ce4bgt92rcd13ifvqcg0","pricing_plan_id":"free"},{"bike_id":"562bd1c5-a164-4a22-b7a0-ec867e6ab782","system_id":"levelo_inurba_marseille","lat":43.311131,"lon":5.377651,"is_reserved":false,"is_disabled":false,"rental_uris":{"android":"levelo://app?vid=562bd1c5-a164-4a22-b7a0-ec867e6ab782","ios":"levelo://app?vid=562bd1c5-a164-4a22-b7a0-ec867e6ab782"},"vehicle_type_id":"4","last_reported":1704348608,"current_range_meters":5200,"station_id":"ce4bgt92rcd13ifvqcg0","pricing_plan_id":"free"},{"bike_id":"d31f1c9b-861c-4020-a0f2-2565f25a5bea","system_id":"levelo_inurba_marseille","lat":43.311131,"lon":5.377651,"is_reserved":false,"is_disabled":false,"rental_uris":{"android":"levelo://app?vid=d31f1c9b-861c-4020-a0f2-2565f25a5bea","ios":"levelo://app?vid=d31f1c9b-861c-4020-a0f2-2565f25a5bea"},"vehicle_type_id":"4","last_reported":1704348608,"current_range_meters":8800,"station_id":"ce4bgt92rcd13ifvqcg0","pricing_plan_id":"free"},{"bike_id":"0f2f2c91-6148-408a-bda8-40612a84cfa3","system_id":"levelo_inurba_marseille","lat":43.311131,"lon":5.377651,"is_reserved":false,"is_disabled":false,"rental_uris":{"android":"levelo://app?vid=0f2f2c91-6148-408a-bda8-40612a84cfa3","ios":"levelo://app?vid=0f2f2c91-6148-408a-bda8-40612a84cfa3"},"vehicle_type_id":"4","last_reported":1704348608,"current_range_meters":12800,"station_id":"ce4bgt92rcd13ifvqcg0","pricing_plan_id":"free"},{"bike_id":"35dcad53-0f03-4c82-a9b3-601c41a595fa","system_id":"levelo_inurba_marseille","lat":43.311131,"lon":5.377651,"is_reserved":false,"is_disabled":false,"rental_uris":{"android":"levelo://app?vid=35dcad53-0f03-4c82-a9b3-601c41a595fa","ios":"levelo://app?vid=35dcad53-0f03-4c82-a9b3-601c41a595fa"},"vehicle_type_id":"4","last_reported":1704348608,"current_range_meters":0,"station_id":"ce4bgt92rcd13ifvqcg0","pricing_plan_id":"free"},{"bike_id":"d70efa05-d8d3-4ed0-b455-a9fdac79c61f","system_id":"levelo_inurba_marseille","lat":43.311125,"lon":5.377624,"is_reserved":false,"is_disabled":false,"rental_uris":{"android":"levelo://app?vid=d70efa05-d8d3-4ed0-b455-a9fdac79c61f","ios":"levelo://app?vid=d70efa05-d8d3-4ed0-b455-a9fdac79c61f"},"vehicle_type_id":"4","last_reported":1704348608,"current_range_meters":27600,"station_id":"ce4bgt92rcd13ifvqcg0","pricing_plan_id":"free"},{"bike_id":"821cd0b3-d44b-4686-8f87-f7ed2a01460f","system_id":"levelo_inurba_marseille","lat":43.311131,"lon":5.377651,"is_reserved":false,"is_disabled":false,"rental_uris":{"android":"levelo://app?vid=821cd0b3-d44b-4686-8f87-f7ed2a01460f","ios":"levelo://app?vid=821cd0b3-d44b-4686-8f87-f7ed2a01460f"},"vehicle_type_id":"4","last_reported":1704348608,"current_range_meters":12000,"station_id":"ce4bgt92rcd13ifvqcg0","pricing_plan_id":"free"},{"bike_id":"f70207fd-ad12-4592-a218-61226c8efc14","system_id":"levelo_inurba_marseille","lat":43.311131,"lon":5.377651,"is_reserved":false,"is_disabled":false,"rental_uris":{"android":"levelo://app?vid=f70207fd-ad12-4592-a218-61226c8efc14","ios":"levelo://app?vid=f70207fd-ad12-4592-a218-61226c8efc14"},"vehicle_type_id":"4","last_reported":1704348608,"current_range_meters":22400,"station_id":"ce4bgt92rcd13ifvqcg0","pricing_plan_id":"free"},{"bike_id":"6c50a181-69bc-4575-a500-dabd0909b1c6","system_id":"levelo_inurba_marseille","lat":43.307945,"lon":5.376487,"is_reserved":false,"is_disabled":false,"rental_uris":{"android":"levelo://app?vid=6c50a181-69bc-4575-a500-dabd0909b1c6","ios":"levelo://app?vid=6c50a181-69bc-4575-a500-dabd0909b1c6"},"vehicle_type_id":"4","last_reported":1704348608,"current_range_meters":16800,"station_id":"ce4bgv92rcd13ifvqcq0","pricing_plan_id":"free"},{"bike_id":"2a14dc71-5783-4e3a-b3fa-ff0e80c744f9","system_id":"levelo_inurba_marseille","lat":43.307945,"lon":5.376487,"is_reserved":false,"is_disabled":false,"rental_uris":{"android":"levelo://app?vid=2a14dc71-5783-4e3a-b3fa-ff0e80c744f9","ios":"levelo://app?vid=2a14dc71-5783-4e3a-b3fa-ff0e80c744f9"},"vehicle_type_id":"4","last_reported":1704348608,"current_range_meters":31200,"station_id":"ce4bgv92rcd13ifvqcq0","pricing_plan_id":"free"},{"bike_id":"691c4f64-dea0-4d21-8c30-5e479cb21b79","system_id":"levelo_inurba_marseille","lat":43.307945,"lon":5.376487,"is_reserved":false,"is_disabled":false,"rental_uris":{"android":"levelo://app?vid=691c4f64-dea0-4d21-8c30-5e479cb21b79","ios":"levelo://app?vid=691c4f64-dea0-4d21-8c30-5e479cb21b79"},"vehicle_type_id":"4","last_reported":1704348608,"current_range_meters":31200,"station_id":"ce4bgv92rcd13ifvqcq0","pricing_plan_id":"free"},{"bike_id":"f8f04d9a-5e4f-4390-96ab-e6a180f7e1bf","system_id":"levelo_inurba_marseille","lat":43.307945,"lon":5.376487,"is_reserved":false,"is_disabled":false,"rental_uris":{"android":"levelo://app?vid=f8f04d9a-5e4f-4390-96ab-e6a180f7e1bf","ios":"levelo://app?vid=f8f04d9a-5e4f-4390-96ab-e6a180f7e1bf"},"vehicle_type_id":"4","last_reported":1704348608,"current_range_meters":31600,"station_id":"ce4bgv92rcd13ifvqcq0","pricing_plan_id":"free"},{"bike_id":"8cf729f1-921e-4ef1-87b9-afad50036306","system_id":"levelo_inurba_marseille","lat":43.317075,"lon":5.377367,"is_reserved":false,"is_disabled":false,"rental_uris":{"android":"levelo://app?vid=8cf729f1-921e-4ef1-87b9-afad50036306","ios":"levelo://app?vid=8cf729f1-921e-4ef1-87b9-afad50036306"},"vehicle_type_id":"4","last_reported":1704348608,"current_range_meters":30400,"station_id":"ce4bgth2rcd13ifvqch0","pricing_plan_id":"free"},{"bike_id":"54a77367-9e3a-4f37-8b72-f0b013566cdd","system_id":"levelo_inurba_marseille","lat":43.317075,"lon":5.377367,"is_reserved":false,"is_disabled":false,"rental_uris":{"android":"levelo://app?vid=54a77367-9e3a-4f37-8b72-f0b013566cdd","ios":"levelo://app?vid=54a77367-9e3a-4f37-8b72-f0b013566cdd"},"vehicle_type_id":"4","last_reported":1704348608,"current_range_meters":29200,"station_id":"ce4bgth2rcd13ifvqch0","pricing_plan_id":"free"},{"bike_id":"c4e90871-bb94-4085-82dc-ccbd997a22ca","system_id":"levelo_inurba_marseille","lat":43.315304,"lon":5.379077,"is_reserved":false,"is_disabled":false,"rental_uris":{"android":"levelo://app?vid=c4e90871-bb94-4085-82dc-ccbd997a22ca","ios":"levelo://app?vid=c4e90871-bb94-4085-82dc-ccbd997a22ca"},"vehicle_type_id":"4","last_reported":1704348608,"current_range_meters":20000,"station_id":"","pricing_plan_id":"free"},{"bike_id":"20eba7c4-b836-46c5-896b-e21606a8288c","system_id":"levelo_inurba_marseille","lat":43.303046,"lon":5.368981,"is_reserved":false,"is_disabled":false,"rental_uris":{"android":"levelo://app?vid=20eba7c4-b836-46c5-896b-e21606a8288c","ios":"levelo://app?vid=20eba7c4-b836-46c5-896b-e21606a8288c"},"vehicle_type_id":"4","last_reported":1704348608,"current_range_meters":30800,"station_id":"ce4bgqh2rcd13ifvqc5g","pricing_plan_id":"free"},{"bike_id":"4810d17d-15f2-4699-980f-89ebf8877f7a","system_id":"levelo_inurba_marseille","lat":43.315336,"lon":5.380242,"is_reserved":false,"is_disabled":false,"rental_uris":{"android":"levelo://app?vid=4810d17d-15f2-4699-980f-89ebf8877f7a","ios":"levelo://app?vid=4810d17d-15f2-4699-980f-89ebf8877f7a"},"vehicle_type_id":"4","last_reported":1704348608,"current_range_meters":27600,"station_id":"ce4bhsp2rcd13ifvqi50","pricing_plan_id":"free"},{"bike_id":"c9b58ad8-4b6e-43f6-8bbf-d4eeda40bfac","system_id":"levelo_inurba_marseille","lat":43.31537,"lon":5.38038,"is_reserved":false,"is_disabled":false,"rental_uris":{"android":"levelo://app?vid=c9b58ad8-4b6e-43f6-8bbf-d4eeda40bfac","ios":"levelo://app?vid=c9b58ad8-4b6e-43f6-8bbf-d4eeda40bfac"},"vehicle_type_id":"4","last_reported":1704348608,"current_range_meters":14800,"station_id":"ce4bhsp2rcd13ifvqi50","pricing_plan_id":"free"},{"bike_id":"de508916-8c53-49c9-b47e-c019221fa433","system_id":"levelo_inurba_marseille","lat":43.308012,"lon":5.381511,"is_reserved":false,"is_disabled":false,"rental_uris":{"android":"levelo://app?vid=de508916-8c53-49c9-b47e-c019221fa433","ios":"levelo://app?vid=de508916-8c53-49c9-b47e-c019221fa433"},"vehicle_type_id":"4","last_reported":1704348608,"current_range_meters":12800,"station_id":"ce4bgt12rcd13ifvqce0","pricing_plan_id":"free"},{"bike_id":"5377074b-30e2-4d67-825b-9deb3b1dbed3","system_id":"levelo_inurba_marseille","lat":43.304708,"lon":5.379039,"is_reserved":false,"is_disabled":false,"rental_uris":{"android":"levelo://app?vid=5377074b-30e2-4d67-825b-9deb3b1dbed3","ios":"levelo://app?vid=5377074b-30e2-4d67-825b-9deb3b1dbed3"},"vehicle_type_id":"4","last_reported":1704348608,"current_range_meters":4400,"station_id":"","pricing_plan_id":"free"},{"bike_id":"a4535830-2f3b-479e-a939-f97547203e35","system_id":"levelo_inurba_marseille","lat":43.313679,"lon":5.383284,"is_reserved":false,"is_disabled":false,"rental_uris":{"android":"levelo://app?vid=a4535830-2f3b-479e-a939-f97547203e35","ios":"levelo://app?vid=a4535830-2f3b-479e-a939-f97547203e35"},"vehicle_type_id":"4","last_reported":1704348608,"current_range_meters":2400,"station_id":"","pricing_plan_id":"free"},{"bike_id":"fa9bff91-cb33-4375-9efb-4f73ad5b9a0a","system_id":"levelo_inurba_marseille","lat":43.304606,"lon":5.379026,"is_reserved":false,"is_disabled":false,"rental_uris":{"android":"levelo://app?vid=fa9bff91-cb33-4375-9efb-4f73ad5b9a0a","ios":"levelo://app?vid=fa9bff91-cb33-4375-9efb-4f73ad5b9a0a"},"vehicle_type_id":"4","last_reported":1704348608,"current_range_meters":0,"station_id":"ce4bgup2rcd13ifvqcn0","pricing_plan_id":"free"},{"bike_id":"0acd59f5-bd03-4b22-8dc7-363f0dd14c72","system_id":"levelo_inurba_marseille","lat":43.304606,"lon":5.379026,"is_reserved":false,"is_disabled":false,"rental_uris":{"android":"levelo://app?vid=0acd59f5-bd03-4b22-8dc7-363f0dd14c72","ios":"levelo://app?vid=0acd59f5-bd03-4b22-8dc7-363f0dd14c72"},"vehicle_type_id":"4","last_reported":1704348608,"current_range_meters":25200,"station_id":"ce4bgup2rcd13ifvqcn0","pricing_plan_id":"free"},{"bike_id":"b6bbd0d7-fd28-4f0e-a632-d43dcaf92cca","system_id":"levelo_inurba_marseille","lat":43.304606,"lon":5.379026,"is_reserved":false,"is_disabled":false,"rental_uris":{"android":"levelo://app?vid=b6bbd0d7-fd28-4f0e-a632-d43dcaf92cca","ios":"levelo://app?vid=b6bbd0d7-fd28-4f0e-a632-d43dcaf92cca"},"vehicle_type_id":"4","last_reported":1704348608,"current_range_meters":28800,"station_id":"ce4bgup2rcd13ifvqcn0","pricing_plan_id":"free"},{"bike_id":"f62e75cb-3c71-4da5-bfea-034a98bfdae7","system_id":"levelo_inurba_marseille","lat":43.304606,"lon":5.379026,"is_reserved":false,"is_disabled":false,"rental_uris":{"android":"levelo://app?vid=f62e75cb-3c71-4da5-bfea-034a98bfdae7","ios":"levelo://app?vid=f62e75cb-3c71-4da5-bfea-034a98bfdae7"},"vehicle_type_id":"4","last_reported":1704348608,"current_range_meters":23200,"station_id":"ce4bgup2rcd13ifvqcn0","pricing_plan_id":"free"},{"bike_id":"d1279333-bb7c-496c-908f-b3b0d73a7000","system_id":"levelo_inurba_marseille","lat":43.304606,"lon":5.379026,"is_reserved":false,"is_disabled":false,"rental_uris":{"android":"levelo://app?vid=d1279333-bb7c-496c-908f-b3b0d73a7000","ios":"levelo://app?vid=d1279333-bb7c-496c-908f-b3b0d73a7000"},"vehicle_type_id":"4","last_reported":1704348608,"current_range_meters":8800,"station_id":"ce4bgup2rcd13ifvqcn0","pricing_plan_id":"free"},{"bike_id":"08c4ef18-bb64-443b-8008-5b3ade429af4","system_id":"levelo_inurba_marseille","lat":43.304606,"lon":5.379026,"is_reserved":false,"is_disabled":false,"rental_uris":{"android":"levelo://app?vid=08c4ef18-bb64-443b-8008-5b3ade429af4","ios":"levelo://app?vid=08c4ef18-bb64-443b-8008-5b3ade429af4"},"vehicle_type_id":"4","last_reported":1704348608,"current_range_meters":31600,"station_id":"ce4bgup2rcd13ifvqcn0","pricing_plan_id":"free"},{"bike_id":"54f88c05-aff7-4164-8566-58de9145f42c","system_id":"levelo_inurba_marseille","lat":43.304606,"lon":5.379026,"is_reserved":false,"is_disabled":false,"rental_uris":{"android":"levelo://app?vid=54f88c05-aff7-4164-8566-58de9145f42c","ios":"levelo://app?vid=54f88c05-aff7-4164-8566-58de9145f42c"},"vehicle_type_id":"4","last_reported":1704348608,"current_range_meters":28400,"station_id":"ce4bgup2rcd13ifvqcn0","pricing_plan_id":"free"},{"bike_id":"98e1d254-b8af-4736-9c20-9b79f6dd4008","system_id":"levelo_inurba_marseille","lat":43.304606,"lon":5.379026,"is_reserved":false,"is_disabled":false,"rental_uris":{"android":"levelo://app?vid=98e1d254-b8af-4736-9c20-9b79f6dd4008","ios":"levelo://app?vid=98e1d254-b8af-4736-9c20-9b79f6dd4008"},"vehicle_type_id":"4","last_reported":1704348608,"current_range_meters":14800,"station_id":"ce4bgup2rcd13ifvqcn0","pricing_plan_id":"free"},{"bike_id":"2744abf1-cce9-4606-a7a0-ce73cbaac7b5","system_id":"levelo_inurba_marseille","lat":43.304606,"lon":5.379026,"is_reserved":false,"is_disabled":false,"rental_uris":{"android":"levelo://app?vid=2744abf1-cce9-4606-a7a0-ce73cbaac7b5","ios":"levelo://app?vid=2744abf1-cce9-4606-a7a0-ce73cbaac7b5"},"vehicle_type_id":"4","last_reported":1704348608,"current_range_meters":25200,"station_id":"ce4bgup2rcd13ifvqcn0","pricing_plan_id":"free"},{"bike_id":"46860f54-e377-43be-9a00-4a59e724fcce","system_id":"levelo_inurba_marseille","lat":43.324771,"lon":5.36557,"is_reserved":false,"is_disabled":false,"rental_uris":{"android":"levelo://app?vid=46860f54-e377-43be-9a00-4a59e724fcce","ios":"levelo://app?vid=46860f54-e377-43be-9a00-4a59e724fcce"},"vehicle_type_id":"4","last_reported":1704348608,"current_range_meters":19200,"station_id":"ce4bhs12rcd13ifvqhvg","pricing_plan_id":"free"},{"bike_id":"a9ec24e9-bba6-40c5-9fa6-b3c57d576f31","system_id":"levelo_inurba_marseille","lat":43.319958,"lon":5.381479,"is_reserved":false,"is_disabled":false,"rental_uris":{"android":"levelo://app?vid=a9ec24e9-bba6-40c5-9fa6-b3c57d576f31","ios":"levelo://app?vid=a9ec24e9-bba6-40c5-9fa6-b3c57d576f31"},"vehicle_type_id":"4","last_reported":1704348608,"current_range_meters":5600,"station_id":"ce4bhr12rcd13ifvqhpg","pricing_plan_id":"free"},{"bike_id":"d83adf21-815e-4460-a7bb-7e3eedda055b","system_id":"levelo_inurba_marseille","lat":43.319935,"lon":5.381699,"is_reserved":false,"is_disabled":false,"rental_uris":{"android":"levelo://app?vid=d83adf21-815e-4460-a7bb-7e3eedda055b","ios":"levelo://app?vid=d83adf21-815e-4460-a7bb-7e3eedda055b"},"vehicle_type_id":"4","last_reported":1704348608,"current_range_meters":9200,"station_id":"ce4bhr12rcd13ifvqhpg","pricing_plan_id":"free"},{"bike_id":"1c6e55bf-6b0c-4848-96ae-9e712df180c6","system_id":"levelo_inurba_marseille","lat":43.31996,"lon":5.381533,"is_reserved":false,"is_disabled":false,"rental_uris":{"android":"levelo://app?vid=1c6e55bf-6b0c-4848-96ae-9e712df180c6","ios":"levelo://app?vid=1c6e55bf-6b0c-4848-96ae-9e712df180c6"},"vehicle_type_id":"4","last_reported":1704348608,"current_range_meters":30000,"station_id":"ce4bhr12rcd13ifvqhpg","pricing_plan_id":"free"},{"bike_id":"2a6911e4-99f7-4853-9039-ac05cf0c6d2a","system_id":"levelo_inurba_marseille","lat":43.319971,"lon":5.381533,"is_reserved":false,"is_disabled":false,"rental_uris":{"android":"levelo://app?vid=2a6911e4-99f7-4853-9039-ac05cf0c6d2a","ios":"levelo://app?vid=2a6911e4-99f7-4853-9039-ac05cf0c6d2a"},"vehicle_type_id":"4","last_reported":1704348608,"current_range_meters":28000,"station_id":"ce4bhr12rcd13ifvqhpg","pricing_plan_id":"free"},{"bike_id":"27c3d127-87dc-4806-8e6b-a299b6a3761f","system_id":"levelo_inurba_marseille","lat":43.313571,"lon":5.384829,"is_reserved":false,"is_disabled":false,"rental_uris":{"android":"levelo://app?vid=27c3d127-87dc-4806-8e6b-a299b6a3761f","ios":"levelo://app?vid=27c3d127-87dc-4806-8e6b-a299b6a3761f"},"vehicle_type_id":"4","last_reported":1704348608,"current_range_meters":30800,"station_id":"ce4bgt92rcd13ifvqcf0","pricing_plan_id":"free"},{"bike_id":"ee79770e-bf72-470e-9f00-8fbc791f5c3c","system_id":"levelo_inurba_marseille","lat":43.313571,"lon":5.384829,"is_reserved":false,"is_disabled":false,"rental_uris":{"android":"levelo://app?vid=ee79770e-bf72-470e-9f00-8fbc791f5c3c","ios":"levelo://app?vid=ee79770e-bf72-470e-9f00-8fbc791f5c3c"},"vehicle_type_id":"4","last_reported":1704348608,"current_range_meters":27200,"station_id":"ce4bgt92rcd13ifvqcf0","pricing_plan_id":"free"},{"bike_id":"70c80470-17c4-492e-98d2-7c44f4eb9b38","system_id":"levelo_inurba_marseille","lat":43.313571,"lon":5.384829,"is_reserved":false,"is_disabled":false,"rental_uris":{"android":"levelo://app?vid=70c80470-17c4-492e-98d2-7c44f4eb9b38","ios":"levelo://app?vid=70c80470-17c4-492e-98d2-7c44f4eb9b38"},"vehicle_type_id":"4","last_reported":1704348608,"current_range_meters":31600,"station_id":"ce4bgt92rcd13ifvqcf0","pricing_plan_id":"free"},{"bike_id":"0c06ff80-be87-4dc0-b827-90bd3502c105","system_id":"levelo_inurba_marseille","lat":43.313571,"lon":5.384829,"is_reserved":false,"is_disabled":false,"rental_uris":{"android":"levelo://app?vid=0c06ff80-be87-4dc0-b827-90bd3502c105","ios":"levelo://app?vid=0c06ff80-be87-4dc0-b827-90bd3502c105"},"vehicle_type_id":"4","last_reported":1704348608,"current_range_meters":22800,"station_id":"ce4bgt92rcd13ifvqcf0","pricing_plan_id":"free"},{"bike_id":"17504bde-947a-4cd6-98b3-9a4c66aca99b","system_id":"levelo_inurba_marseille","lat":43.313827,"lon":5.385007,"is_reserved":false,"is_disabled":false,"rental_uris":{"android":"levelo://app?vid=17504bde-947a-4cd6-98b3-9a4c66aca99b","ios":"levelo://app?vid=17504bde-947a-4cd6-98b3-9a4c66aca99b"},"vehicle_type_id":"4","last_reported":1704348608,"current_range_meters":14400,"station_id":"ce4bgt92rcd13ifvqcf0","pricing_plan_id":"free"},{"bike_id":"1c715494-8bc6-4887-acbb-0fc356f2e062","system_id":"levelo_inurba_marseille","lat":43.299222,"lon":5.365554,"is_reserved":false,"is_disabled":false,"rental_uris":{"android":"levelo://app?vid=1c715494-8bc6-4887-acbb-0fc356f2e062","ios":"levelo://app?vid=1c715494-8bc6-4887-acbb-0fc356f2e062"},"vehicle_type_id":"4","last_reported":1704348608,"current_range_meters":31200,"station_id":"ce4bgm92rcd13ifvqbr0","pricing_plan_id":"free"},{"bike_id":"b22604ec-0c4b-41b4-a20e-38add68f7682","system_id":"levelo_inurba_marseille","lat":43.32567,"lon":5.374738,"is_reserved":false,"is_disabled":false,"rental_uris":{"android":"levelo://app?vid=b22604ec-0c4b-41b4-a20e-38add68f7682","ios":"levelo://app?vid=b22604ec-0c4b-41b4-a20e-38add68f7682"},"vehicle_type_id":"4","last_reported":1704348608,"current_range_meters":23200,"station_id":"","pricing_plan_id":"free"},{"bike_id":"5ffca899-5674-4083-8d58-12da181c48fc","system_id":"levelo_inurba_marseille","lat":43.298433,"lon":5.362774,"is_reserved":false,"is_disabled":false,"rental_uris":{"android":"levelo://app?vid=5ffca899-5674-4083-8d58-12da181c48fc","ios":"levelo://app?vid=5ffca899-5674-4083-8d58-12da181c48fc"},"vehicle_type_id":"4","last_reported":1704348608,"current_range_meters":27600,"station_id":"ce4bgpp2rcd13ifvqc3g","pricing_plan_id":"free"},{"bike_id":"9a207992-a340-4439-8417-524f1f6867db","system_id":"levelo_inurba_marseille","lat":43.311722,"lon":5.387247,"is_reserved":false,"is_disabled":false,"rental_uris":{"android":"levelo://app?vid=9a207992-a340-4439-8417-524f1f6867db","ios":"levelo://app?vid=9a207992-a340-4439-8417-524f1f6867db"},"vehicle_type_id":"4","last_reported":1704348608,"current_range_meters":31600,"station_id":"ce4bgv12rcd13ifvqcp0","pricing_plan_id":"free"},{"bike_id":"0233118d-6be7-4240-a1a5-35a788f46e67","system_id":"levelo_inurba_marseille","lat":43.311857,"lon":5.387149,"is_reserved":false,"is_disabled":false,"rental_uris":{"android":"levelo://app?vid=0233118d-6be7-4240-a1a5-35a788f46e67","ios":"levelo://app?vid=0233118d-6be7-4240-a1a5-35a788f46e67"},"vehicle_type_id":"4","last_reported":1704348608,"current_range_meters":2400,"station_id":"ce4bgv12rcd13ifvqcp0","pricing_plan_id":"free"},{"bike_id":"ad73aca1-a95c-4377-a256-e28f3455b57e","system_id":"levelo_inurba_marseille","lat":43.311722,"lon":5.387247,"is_reserved":false,"is_disabled":false,"rental_uris":{"android":"levelo://app?vid=ad73aca1-a95c-4377-a256-e28f3455b57e","ios":"levelo://app?vid=ad73aca1-a95c-4377-a256-e28f3455b57e"},"vehicle_type_id":"4","last_reported":1704348608,"current_range_meters":12400,"station_id":"ce4bgv12rcd13ifvqcp0","pricing_plan_id":"free"},{"bike_id":"74c57145-750e-4525-a660-4c091c98ac65","system_id":"levelo_inurba_marseille","lat":43.311722,"lon":5.387247,"is_reserved":false,"is_disabled":false,"rental_uris":{"android":"levelo://app?vid=74c57145-750e-4525-a660-4c091c98ac65","ios":"levelo://app?vid=74c57145-750e-4525-a660-4c091c98ac65"},"vehicle_type_id":"4","last_reported":1704348608,"current_range_meters":15200,"station_id":"ce4bgv12rcd13ifvqcp0","pricing_plan_id":"free"},{"bike_id":"3639506c-cad4-4bf9-89cf-2529f0f9ff49","system_id":"levelo_inurba_marseille","lat":43.311722,"lon":5.387247,"is_reserved":false,"is_disabled":false,"rental_uris":{"android":"levelo://app?vid=3639506c-cad4-4bf9-89cf-2529f0f9ff49","ios":"levelo://app?vid=3639506c-cad4-4bf9-89cf-2529f0f9ff49"},"vehicle_type_id":"4","last_reported":1704348608,"current_range_meters":6400,"station_id":"ce4bgv12rcd13ifvqcp0","pricing_plan_id":"free"},{"bike_id":"ff9488dc-e57e-466e-accc-6d0cc0616597","system_id":"levelo_inurba_marseille","lat":43.297794,"lon":5.370888,"is_reserved":false,"is_disabled":false,"rental_uris":{"android":"levelo://app?vid=ff9488dc-e57e-466e-accc-6d0cc0616597","ios":"levelo://app?vid=ff9488dc-e57e-466e-accc-6d0cc0616597"},"vehicle_type_id":"4","last_reported":1704348608,"current_range_meters":25200,"station_id":"ce4bgop2rcd13ifvqc1g","pricing_plan_id":"free"},{"bike_id":"f53e7a9d-7ee6-4428-85bd-3db5d7cc3975","system_id":"levelo_inurba_marseille","lat":43.322872,"lon":5.382756,"is_reserved":false,"is_disabled":false,"rental_uris":{"android":"levelo://app?vid=f53e7a9d-7ee6-4428-85bd-3db5d7cc3975","ios":"levelo://app?vid=f53e7a9d-7ee6-4428-85bd-3db5d7cc3975"},"vehicle_type_id":"4","last_reported":1704348608,"current_range_meters":22000,"station_id":"ce4bhr12rcd13ifvqhqg","pricing_plan_id":"free"},{"bike_id":"b1b531a6-b271-457f-a47c-b5f17d57c6b0","system_id":"levelo_inurba_marseille","lat":43.322872,"lon":5.382756,"is_reserved":false,"is_disabled":false,"rental_uris":{"android":"levelo://app?vid=b1b531a6-b271-457f-a47c-b5f17d57c6b0","ios":"levelo://app?vid=b1b531a6-b271-457f-a47c-b5f17d57c6b0"},"vehicle_type_id":"4","last_reported":1704348608,"current_range_meters":24000,"station_id":"ce4bhr12rcd13ifvqhqg","pricing_plan_id":"free"},{"bike_id":"e344a4f8-37b0-4824-b7de-a9d0470bf846","system_id":"levelo_inurba_marseille","lat":43.322872,"lon":5.382756,"is_reserved":false,"is_disabled":false,"rental_uris":{"android":"levelo://app?vid=e344a4f8-37b0-4824-b7de-a9d0470bf846","ios":"levelo://app?vid=e344a4f8-37b0-4824-b7de-a9d0470bf846"},"vehicle_type_id":"4","last_reported":1704348608,"current_range_meters":31600,"station_id":"ce4bhr12rcd13ifvqhqg","pricing_plan_id":"free"},{"bike_id":"95e60a05-c3f6-42d6-b8d8-8e09a3364abf","system_id":"levelo_inurba_marseille","lat":43.328371,"lon":5.366909,"is_reserved":false,"is_disabled":false,"rental_uris":{"android":"levelo://app?vid=95e60a05-c3f6-42d6-b8d8-8e09a3364abf","ios":"levelo://app?vid=95e60a05-c3f6-42d6-b8d8-8e09a3364abf"},"vehicle_type_id":"4","last_reported":1704348608,"current_range_meters":14000,"station_id":"ce4bhs92rcd13ifvqi0g","pricing_plan_id":"free"},{"bike_id":"ca68fd08-effb-4184-ae55-b74190030e47","system_id":"levelo_inurba_marseille","lat":43.328371,"lon":5.366909,"is_reserved":false,"is_disabled":false,"rental_uris":{"android":"levelo://app?vid=ca68fd08-effb-4184-ae55-b74190030e47","ios":"levelo://app?vid=ca68fd08-effb-4184-ae55-b74190030e47"},"vehicle_type_id":"4","last_reported":1704348608,"current_range_meters":31200,"station_id":"ce4bhs92rcd13ifvqi0g","pricing_plan_id":"free"},{"bike_id":"346b8da7-209e-48b6-a6ff-ece6c0d65914","system_id":"levelo_inurba_marseille","lat":43.328371,"lon":5.366909,"is_reserved":false,"is_disabled":false,"rental_uris":{"android":"levelo://app?vid=346b8da7-209e-48b6-a6ff-ece6c0d65914","ios":"levelo://app?vid=346b8da7-209e-48b6-a6ff-ece6c0d65914"},"vehicle_type_id":"4","last_reported":1704348608,"current_range_meters":23600,"station_id":"ce4bhs92rcd13ifvqi0g","pricing_plan_id":"free"},{"bike_id":"4d6cbba3-2e55-4f7b-870f-2fed43f3ec1c","system_id":"levelo_inurba_marseille","lat":43.328371,"lon":5.366909,"is_reserved":false,"is_disabled":false,"rental_uris":{"android":"levelo://app?vid=4d6cbba3-2e55-4f7b-870f-2fed43f3ec1c","ios":"levelo://app?vid=4d6cbba3-2e55-4f7b-870f-2fed43f3ec1c"},"vehicle_type_id":"4","last_reported":1704348608,"current_range_meters":17600,"station_id":"ce4bhs92rcd13ifvqi0g","pricing_plan_id":"free"},{"bike_id":"370cccf7-c9ba-46c2-819b-c8e8cacc4c21","system_id":"levelo_inurba_marseille","lat":43.3277,"lon":5.37458,"is_reserved":false,"is_disabled":false,"rental_uris":{"android":"levelo://app?vid=370cccf7-c9ba-46c2-819b-c8e8cacc4c21","ios":"levelo://app?vid=370cccf7-c9ba-46c2-819b-c8e8cacc4c21"},"vehicle_type_id":"4","last_reported":1704348608,"current_range_meters":2000,"station_id":"","pricing_plan_id":"free"},{"bike_id":"975a3afa-5b51-4284-a80a-81374f07ced9","system_id":"levelo_inurba_marseille","lat":43.299028,"lon":5.381509,"is_reserved":false,"is_disabled":false,"rental_uris":{"android":"levelo://app?vid=975a3afa-5b51-4284-a80a-81374f07ced9","ios":"levelo://app?vid=975a3afa-5b51-4284-a80a-81374f07ced9"},"vehicle_type_id":"4","last_reported":1704348608,"current_range_meters":14400,"station_id":"ce4bgj12rcd13ifvqbc0","pricing_plan_id":"free"},{"bike_id":"42ed06bc-59ea-4733-9643-72b3ad24d378","system_id":"levelo_inurba_marseille","lat":43.296921,"lon":5.376579,"is_reserved":false,"is_disabled":false,"rental_uris":{"android":"levelo://app?vid=42ed06bc-59ea-4733-9643-72b3ad24d378","ios":"levelo://app?vid=42ed06bc-59ea-4733-9643-72b3ad24d378"},"vehicle_type_id":"4","last_reported":1704348608,"current_range_meters":25200,"station_id":"ce4bgkh2rcd13ifvqbl0","pricing_plan_id":"free"},{"bike_id":"8cd525e2-ac3e-4f3e-ad83-f304823527d5","system_id":"levelo_inurba_marseille","lat":43.296921,"lon":5.376579,"is_reserved":false,"is_disabled":false,"rental_uris":{"android":"levelo://app?vid=8cd525e2-ac3e-4f3e-ad83-f304823527d5","ios":"levelo://app?vid=8cd525e2-ac3e-4f3e-ad83-f304823527d5"},"vehicle_type_id":"4","last_reported":1704348608,"current_range_meters":17600,"station_id":"ce4bgkh2rcd13ifvqbl0","pricing_plan_id":"free"},{"bike_id":"885c8d2d-4984-4555-818e-b6af8f391a39","system_id":"levelo_inurba_marseille","lat":43.309589,"lon":5.390258,"is_reserved":false,"is_disabled":false,"rental_uris":{"android":"levelo://app?vid=885c8d2d-4984-4555-818e-b6af8f391a39","ios":"levelo://app?vid=885c8d2d-4984-4555-818e-b6af8f391a39"},"vehicle_type_id":"4","last_reported":1704348608,"current_range_meters":22800,"station_id":"ce4bgup2rcd13ifvqco0","pricing_plan_id":"free"},{"bike_id":"7c015a84-e1e2-4743-825b-1f2d28680ca0","system_id":"levelo_inurba_marseille","lat":43.317557,"lon":5.390173,"is_reserved":false,"is_disabled":false,"rental_uris":{"android":"levelo://app?vid=7c015a84-e1e2-4743-825b-1f2d28680ca0","ios":"levelo://app?vid=7c015a84-e1e2-4743-825b-1f2d28680ca0"},"vehicle_type_id":"4","last_reported":1704348608,"current_range_meters":22000,"station_id":"ce4bhqp2rcd13ifvqhng","pricing_plan_id":"free"},{"bike_id":"3d4ee389-4467-4d7e-989a-c42b22d51f73","system_id":"levelo_inurba_marseille","lat":43.317557,"lon":5.390173,"is_reserved":false,"is_disabled":false,"rental_uris":{"android":"levelo://app?vid=3d4ee389-4467-4d7e-989a-c42b22d51f73","ios":"levelo://app?vid=3d4ee389-4467-4d7e-989a-c42b22d51f73"},"vehicle_type_id":"4","last_reported":1704348608,"current_range_meters":30000,"station_id":"ce4bhqp2rcd13ifvqhng","pricing_plan_id":"free"},{"bike_id":"c45955cd-c08a-44c9-a8aa-d6757945c061","system_id":"levelo_inurba_marseille","lat":43.317557,"lon":5.390173,"is_reserved":false,"is_disabled":false,"rental_uris":{"android":"levelo://app?vid=c45955cd-c08a-44c9-a8aa-d6757945c061","ios":"levelo://app?vid=c45955cd-c08a-44c9-a8aa-d6757945c061"},"vehicle_type_id":"4","last_reported":1704348608,"current_range_meters":31200,"station_id":"ce4bhqp2rcd13ifvqhng","pricing_plan_id":"free"},{"bike_id":"c320fb7c-dd12-4b22-bac4-3e21b9566047","system_id":"levelo_inurba_marseille","lat":43.295748,"lon":5.37522,"is_reserved":false,"is_disabled":false,"rental_uris":{"android":"levelo://app?vid=c320fb7c-dd12-4b22-bac4-3e21b9566047","ios":"levelo://app?vid=c320fb7c-dd12-4b22-bac4-3e21b9566047"},"vehicle_type_id":"4","last_reported":1704348608,"current_range_meters":25200,"station_id":"ce4bgh92rcd13ifvqb50","pricing_plan_id":"free"},{"bike_id":"85084b08-d283-41cc-971a-7c5f5a281049","system_id":"levelo_inurba_marseille","lat":43.296263,"lon":5.377094,"is_reserved":false,"is_disabled":false,"rental_uris":{"android":"levelo://app?vid=85084b08-d283-41cc-971a-7c5f5a281049","ios":"levelo://app?vid=85084b08-d283-41cc-971a-7c5f5a281049"},"vehicle_type_id":"4","last_reported":1704348608,"current_range_meters":25200,"station_id":"ce4bgi92rcd13ifvqb90","pricing_plan_id":"free"},{"bike_id":"d60802d6-4f47-444a-b234-883690eec05b","system_id":"levelo_inurba_marseille","lat":43.33062,"lon":5.3627,"is_reserved":false,"is_disabled":false,"rental_uris":{"android":"levelo://app?vid=d60802d6-4f47-444a-b234-883690eec05b","ios":"levelo://app?vid=d60802d6-4f47-444a-b234-883690eec05b"},"vehicle_type_id":"4","last_reported":1704348608,"current_range_meters":9200,"station_id":"","pricing_plan_id":"free"},{"bike_id":"3e54afc3-52a1-4865-a565-33e4f085e999","system_id":"levelo_inurba_marseille","lat":43.296263,"lon":5.377094,"is_reserved":false,"is_disabled":false,"rental_uris":{"android":"levelo://app?vid=3e54afc3-52a1-4865-a565-33e4f085e999","ios":"levelo://app?vid=3e54afc3-52a1-4865-a565-33e4f085e999"},"vehicle_type_id":"4","last_reported":1704348608,"current_range_meters":21600,"station_id":"ce4bgi92rcd13ifvqb90","pricing_plan_id":"free"},{"bike_id":"12b4731d-fe79-4afb-8201-2fac823bc9d6","system_id":"levelo_inurba_marseille","lat":43.296263,"lon":5.377094,"is_reserved":false,"is_disabled":false,"rental_uris":{"android":"levelo://app?vid=12b4731d-fe79-4afb-8201-2fac823bc9d6","ios":"levelo://app?vid=12b4731d-fe79-4afb-8201-2fac823bc9d6"},"vehicle_type_id":"4","last_reported":1704348608,"current_range_meters":28800,"station_id":"ce4bgi92rcd13ifvqb90","pricing_plan_id":"free"},{"bike_id":"d8ada872-11ea-49bb-85f8-f951071029ac","system_id":"levelo_inurba_marseille","lat":43.295497,"lon":5.374987,"is_reserved":false,"is_disabled":false,"rental_uris":{"android":"levelo://app?vid=d8ada872-11ea-49bb-85f8-f951071029ac","ios":"levelo://app?vid=d8ada872-11ea-49bb-85f8-f951071029ac"},"vehicle_type_id":"4","last_reported":1704348608,"current_range_meters":26400,"station_id":"ce4bgkp2rcd13ifvqbmg","pricing_plan_id":"free"},{"bike_id":"36be72be-f781-4b38-8cf4-48c47fb8b1f2","system_id":"levelo_inurba_marseille","lat":43.296277,"lon":5.377108,"is_reserved":false,"is_disabled":false,"rental_uris":{"android":"levelo://app?vid=36be72be-f781-4b38-8cf4-48c47fb8b1f2","ios":"levelo://app?vid=36be72be-f781-4b38-8cf4-48c47fb8b1f2"},"vehicle_type_id":"4","last_reported":1704348608,"current_range_meters":30800,"station_id":"ce4bgi92rcd13ifvqb90","pricing_plan_id":"free"},{"bike_id":"06b4b5b0-279d-42bb-aac4-d7d25ce93e65","system_id":"levelo_inurba_marseille","lat":43.295279,"lon":5.375048,"is_reserved":false,"is_disabled":false,"rental_uris":{"android":"levelo://app?vid=06b4b5b0-279d-42bb-aac4-d7d25ce93e65","ios":"levelo://app?vid=06b4b5b0-279d-42bb-aac4-d7d25ce93e65"},"vehicle_type_id":"4","last_reported":1704348608,"current_range_meters":26800,"station_id":"ce4bgkp2rcd13ifvqbmg","pricing_plan_id":"free"},{"bike_id":"3839ebab-38c6-4f8c-8a12-b05ced4b70b7","system_id":"levelo_inurba_marseille","lat":43.296277,"lon":5.377108,"is_reserved":false,"is_disabled":false,"rental_uris":{"android":"levelo://app?vid=3839ebab-38c6-4f8c-8a12-b05ced4b70b7","ios":"levelo://app?vid=3839ebab-38c6-4f8c-8a12-b05ced4b70b7"},"vehicle_type_id":"4","last_reported":1704348608,"current_range_meters":24400,"station_id":"ce4bgi92rcd13ifvqb90","pricing_plan_id":"free"},{"bike_id":"99a064fa-f144-41e2-88b5-146946108860","system_id":"levelo_inurba_marseille","lat":43.299707,"lon":5.384859,"is_reserved":false,"is_disabled":false,"rental_uris":{"android":"levelo://app?vid=99a064fa-f144-41e2-88b5-146946108860","ios":"levelo://app?vid=99a064fa-f144-41e2-88b5-146946108860"},"vehicle_type_id":"4","last_reported":1704348608,"current_range_meters":30800,"station_id":"ce4bgj92rcd13ifvqbd0","pricing_plan_id":"free"},{"bike_id":"997439b2-c077-4bea-b2d9-e71d58b50480","system_id":"levelo_inurba_marseille","lat":43.299707,"lon":5.384859,"is_reserved":false,"is_disabled":false,"rental_uris":{"android":"levelo://app?vid=997439b2-c077-4bea-b2d9-e71d58b50480","ios":"levelo://app?vid=997439b2-c077-4bea-b2d9-e71d58b50480"},"vehicle_type_id":"4","last_reported":1704348608,"current_range_meters":24400,"station_id":"ce4bgj92rcd13ifvqbd0","pricing_plan_id":"free"},{"bike_id":"ed7fa151-7c24-469d-a62f-442724affebf","system_id":"levelo_inurba_marseille","lat":43.295321,"lon":5.375027,"is_reserved":false,"is_disabled":false,"rental_uris":{"android":"levelo://app?vid=ed7fa151-7c24-469d-a62f-442724affebf","ios":"levelo://app?vid=ed7fa151-7c24-469d-a62f-442724affebf"},"vehicle_type_id":"4","last_reported":1704348608,"current_range_meters":18400,"station_id":"","pricing_plan_id":"free"},{"bike_id":"7379dd16-d1d8-48e0-bd23-aabe01ce0831","system_id":"levelo_inurba_marseille","lat":43.29532,"lon":5.37506,"is_reserved":false,"is_disabled":false,"rental_uris":{"android":"levelo://app?vid=7379dd16-d1d8-48e0-bd23-aabe01ce0831","ios":"levelo://app?vid=7379dd16-d1d8-48e0-bd23-aabe01ce0831"},"vehicle_type_id":"4","last_reported":1704348608,"current_range_meters":20400,"station_id":"ce4bgkp2rcd13ifvqbmg","pricing_plan_id":"free"},{"bike_id":"90fa1598-1028-42d6-ae90-085c2008fafe","system_id":"levelo_inurba_marseille","lat":43.29976,"lon":5.38494,"is_reserved":false,"is_disabled":false,"rental_uris":{"android":"levelo://app?vid=90fa1598-1028-42d6-ae90-085c2008fafe","ios":"levelo://app?vid=90fa1598-1028-42d6-ae90-085c2008fafe"},"vehicle_type_id":"4","last_reported":1704348608,"current_range_meters":26400,"station_id":"ce4bgj92rcd13ifvqbd0","pricing_plan_id":"free"},{"bike_id":"cb9ad2d3-d94c-4550-bd1f-b16e0a250b1b","system_id":"levelo_inurba_marseille","lat":43.299717,"lon":5.384845,"is_reserved":false,"is_disabled":false,"rental_uris":{"android":"levelo://app?vid=cb9ad2d3-d94c-4550-bd1f-b16e0a250b1b","ios":"levelo://app?vid=cb9ad2d3-d94c-4550-bd1f-b16e0a250b1b"},"vehicle_type_id":"4","last_reported":1704348608,"current_range_meters":26000,"station_id":"ce4bgj92rcd13ifvqbd0","pricing_plan_id":"free"},{"bike_id":"1c9ec220-d7e7-4cee-a876-1a109e26db5a","system_id":"levelo_inurba_marseille","lat":43.32367,"lon":5.388836,"is_reserved":false,"is_disabled":false,"rental_uris":{"android":"levelo://app?vid=1c9ec220-d7e7-4cee-a876-1a109e26db5a","ios":"levelo://app?vid=1c9ec220-d7e7-4cee-a876-1a109e26db5a"},"vehicle_type_id":"4","last_reported":1704348608,"current_range_meters":14400,"station_id":"ce4bhqp2rcd13ifvqhog","pricing_plan_id":"free"},{"bike_id":"663c0a7e-890f-4ec8-b5d3-9a51bf6b0cb2","system_id":"levelo_inurba_marseille","lat":43.32367,"lon":5.388836,"is_reserved":false,"is_disabled":false,"rental_uris":{"android":"levelo://app?vid=663c0a7e-890f-4ec8-b5d3-9a51bf6b0cb2","ios":"levelo://app?vid=663c0a7e-890f-4ec8-b5d3-9a51bf6b0cb2"},"vehicle_type_id":"4","last_reported":1704348608,"current_range_meters":14400,"station_id":"ce4bhqp2rcd13ifvqhog","pricing_plan_id":"free"},{"bike_id":"6298a9d5-d274-4c28-b538-3bf48f3b005e","system_id":"levelo_inurba_marseille","lat":43.29601,"lon":5.381084,"is_reserved":false,"is_disabled":false,"rental_uris":{"android":"levelo://app?vid=6298a9d5-d274-4c28-b538-3bf48f3b005e","ios":"levelo://app?vid=6298a9d5-d274-4c28-b538-3bf48f3b005e"},"vehicle_type_id":"4","last_reported":1704348608,"current_range_meters":19200,"station_id":"ce4bgl12rcd13ifvqbo0","pricing_plan_id":"free"},{"bike_id":"380eedea-2881-41e7-8eb5-0dbf79a8aaea","system_id":"levelo_inurba_marseille","lat":43.293259,"lon":5.371586,"is_reserved":false,"is_disabled":false,"rental_uris":{"android":"levelo://app?vid=380eedea-2881-41e7-8eb5-0dbf79a8aaea","ios":"levelo://app?vid=380eedea-2881-41e7-8eb5-0dbf79a8aaea"},"vehicle_type_id":"4","last_reported":1704348608,"current_range_meters":3600,"station_id":"ce4bgh92rcd13ifvqb40","pricing_plan_id":"free"},{"bike_id":"75aa7902-170b-47de-96d7-289c5c90a773","system_id":"levelo_inurba_marseille","lat":43.305824,"lon":5.393376,"is_reserved":false,"is_disabled":false,"rental_uris":{"android":"levelo://app?vid=75aa7902-170b-47de-96d7-289c5c90a773","ios":"levelo://app?vid=75aa7902-170b-47de-96d7-289c5c90a773"},"vehicle_type_id":"4","last_reported":1704348608,"current_range_meters":26000,"station_id":"ce4bgk12rcd13ifvqbi0","pricing_plan_id":"free"},{"bike_id":"11aa05cb-795e-4553-badf-aaf7a252e622","system_id":"levelo_inurba_marseille","lat":43.293009,"lon":5.374584,"is_reserved":false,"is_disabled":false,"rental_uris":{"android":"levelo://app?vid=11aa05cb-795e-4553-badf-aaf7a252e622","ios":"levelo://app?vid=11aa05cb-795e-4553-badf-aaf7a252e622"},"vehicle_type_id":"4","last_reported":1704348608,"current_range_meters":26400,"station_id":"ce4bgi12rcd13ifvqb70","pricing_plan_id":"free"},{"bike_id":"dfc34e9a-4027-4ebb-b8cd-a5fbecde92ba","system_id":"levelo_inurba_marseille","lat":43.293009,"lon":5.374584,"is_reserved":false,"is_disabled":false,"rental_uris":{"android":"levelo://app?vid=dfc34e9a-4027-4ebb-b8cd-a5fbecde92ba","ios":"levelo://app?vid=dfc34e9a-4027-4ebb-b8cd-a5fbecde92ba"},"vehicle_type_id":"4","last_reported":1704348608,"current_range_meters":28400,"station_id":"ce4bgi12rcd13ifvqb70","pricing_plan_id":"free"},{"bike_id":"841d87f1-853c-4cc4-a6ab-5ce12ca07038","system_id":"levelo_inurba_marseille","lat":43.30177,"lon":5.390928,"is_reserved":false,"is_disabled":false,"rental_uris":{"android":"levelo://app?vid=841d87f1-853c-4cc4-a6ab-5ce12ca07038","ios":"levelo://app?vid=841d87f1-853c-4cc4-a6ab-5ce12ca07038"},"vehicle_type_id":"4","last_reported":1704348608,"current_range_meters":18800,"station_id":"","pricing_plan_id":"free"},{"bike_id":"0335ee4d-b8d1-4700-8dff-e1974ac16b11","system_id":"levelo_inurba_marseille","lat":43.29264,"lon":5.37624,"is_reserved":false,"is_disabled":false,"rental_uris":{"android":"levelo://app?vid=0335ee4d-b8d1-4700-8dff-e1974ac16b11","ios":"levelo://app?vid=0335ee4d-b8d1-4700-8dff-e1974ac16b11"},"vehicle_type_id":"4","last_reported":1704348608,"current_range_meters":6000,"station_id":"","pricing_plan_id":"free"},{"bike_id":"bee0d25e-5928-4166-a427-6e32ca8691d8","system_id":"levelo_inurba_marseille","lat":43.29262,"lon":5.37628,"is_reserved":false,"is_disabled":false,"rental_uris":{"android":"levelo://app?vid=bee0d25e-5928-4166-a427-6e32ca8691d8","ios":"levelo://app?vid=bee0d25e-5928-4166-a427-6e32ca8691d8"},"vehicle_type_id":"4","last_reported":1704348608,"current_range_meters":15600,"station_id":"","pricing_plan_id":"free"},{"bike_id":"a0c74fc7-49d7-4fad-9058-caeaa08724dc","system_id":"levelo_inurba_marseille","lat":43.29873,"lon":5.38907,"is_reserved":false,"is_disabled":false,"rental_uris":{"android":"levelo://app?vid=a0c74fc7-49d7-4fad-9058-caeaa08724dc","ios":"levelo://app?vid=a0c74fc7-49d7-4fad-9058-caeaa08724dc"},"vehicle_type_id":"4","last_reported":1704348608,"current_range_meters":2000,"station_id":"","pricing_plan_id":"free"},{"bike_id":"8c75c840-5d05-4083-8415-273f5a4aeaf3","system_id":"levelo_inurba_marseille","lat":43.298736,"lon":5.389141,"is_reserved":false,"is_disabled":false,"rental_uris":{"android":"levelo://app?vid=8c75c840-5d05-4083-8415-273f5a4aeaf3","ios":"levelo://app?vid=8c75c840-5d05-4083-8415-273f5a4aeaf3"},"vehicle_type_id":"4","last_reported":1704348608,"current_range_meters":0,"station_id":"","pricing_plan_id":"free"},{"bike_id":"4a9311c4-4db5-4367-b1f7-d435bd185033","system_id":"levelo_inurba_marseille","lat":43.331844,"lon":5.38076,"is_reserved":false,"is_disabled":false,"rental_uris":{"android":"levelo://app?vid=4a9311c4-4db5-4367-b1f7-d435bd185033","ios":"levelo://app?vid=4a9311c4-4db5-4367-b1f7-d435bd185033"},"vehicle_type_id":"4","last_reported":1704348608,"current_range_meters":7200,"station_id":"","pricing_plan_id":"free"},{"bike_id":"47e84a78-df3b-4ef4-bdfb-f3014e55147e","system_id":"levelo_inurba_marseille","lat":43.309047,"lon":5.396551,"is_reserved":false,"is_disabled":false,"rental_uris":{"android":"levelo://app?vid=47e84a78-df3b-4ef4-bdfb-f3014e55147e","ios":"levelo://app?vid=47e84a78-df3b-4ef4-bdfb-f3014e55147e"},"vehicle_type_id":"4","last_reported":1704348608,"current_range_meters":21200,"station_id":"ce4bh012rcd13ifvqcv0","pricing_plan_id":"free"},{"bike_id":"67c9b13c-3128-432a-a321-450ce7926d15","system_id":"levelo_inurba_marseille","lat":43.308839,"lon":5.396348,"is_reserved":false,"is_disabled":false,"rental_uris":{"android":"levelo://app?vid=67c9b13c-3128-432a-a321-450ce7926d15","ios":"levelo://app?vid=67c9b13c-3128-432a-a321-450ce7926d15"},"vehicle_type_id":"4","last_reported":1704348608,"current_range_meters":26800,"station_id":"ce4bh012rcd13ifvqcv0","pricing_plan_id":"free"},{"bike_id":"8953242b-50ef-4c04-849a-847ec471c69b","system_id":"levelo_inurba_marseille","lat":43.309038,"lon":5.396546,"is_reserved":false,"is_disabled":false,"rental_uris":{"android":"levelo://app?vid=8953242b-50ef-4c04-849a-847ec471c69b","ios":"levelo://app?vid=8953242b-50ef-4c04-849a-847ec471c69b"},"vehicle_type_id":"4","last_reported":1704348608,"current_range_meters":24000,"station_id":"ce4bh012rcd13ifvqcv0","pricing_plan_id":"free"},{"bike_id":"8d368af0-3de7-4857-9748-b51fbbf65cde","system_id":"levelo_inurba_marseille","lat":43.309038,"lon":5.396546,"is_reserved":false,"is_disabled":false,"rental_uris":{"android":"levelo://app?vid=8d368af0-3de7-4857-9748-b51fbbf65cde","ios":"levelo://app?vid=8d368af0-3de7-4857-9748-b51fbbf65cde"},"vehicle_type_id":"4","last_reported":1704348608,"current_range_meters":28000,"station_id":"ce4bh012rcd13ifvqcv0","pricing_plan_id":"free"},{"bike_id":"fc6aeee5-cfee-4a7d-9ecd-8c8389c849f7","system_id":"levelo_inurba_marseille","lat":43.291994,"lon":5.357886,"is_reserved":false,"is_disabled":false,"rental_uris":{"android":"levelo://app?vid=fc6aeee5-cfee-4a7d-9ecd-8c8389c849f7","ios":"levelo://app?vid=fc6aeee5-cfee-4a7d-9ecd-8c8389c849f7"},"vehicle_type_id":"4","last_reported":1704348608,"current_range_meters":9200,"station_id":"ce4bhb12rcd13ifvqel0","pricing_plan_id":"free"},{"bike_id":"daa50d62-dc2d-4c36-9b6c-5d18fcad323c","system_id":"levelo_inurba_marseille","lat":43.309038,"lon":5.396546,"is_reserved":false,"is_disabled":false,"rental_uris":{"android":"levelo://app?vid=daa50d62-dc2d-4c36-9b6c-5d18fcad323c","ios":"levelo://app?vid=daa50d62-dc2d-4c36-9b6c-5d18fcad323c"},"vehicle_type_id":"4","last_reported":1704348608,"current_range_meters":7600,"station_id":"ce4bh012rcd13ifvqcv0","pricing_plan_id":"free"},{"bike_id":"e2d4cf6d-c503-4cc7-80b7-a14ecb288761","system_id":"levelo_inurba_marseille","lat":43.308806,"lon":5.396371,"is_reserved":false,"is_disabled":false,"rental_uris":{"android":"levelo://app?vid=e2d4cf6d-c503-4cc7-80b7-a14ecb288761","ios":"levelo://app?vid=e2d4cf6d-c503-4cc7-80b7-a14ecb288761"},"vehicle_type_id":"4","last_reported":1704348608,"current_range_meters":24000,"station_id":"ce4bh012rcd13ifvqcv0","pricing_plan_id":"free"},{"bike_id":"b063a027-619a-43c8-9899-ead57d35f75d","system_id":"levelo_inurba_marseille","lat":43.309047,"lon":5.396551,"is_reserved":false,"is_disabled":false,"rental_uris":{"android":"levelo://app?vid=b063a027-619a-43c8-9899-ead57d35f75d","ios":"levelo://app?vid=b063a027-619a-43c8-9899-ead57d35f75d"},"vehicle_type_id":"4","last_reported":1704348608,"current_range_meters":29200,"station_id":"ce4bh012rcd13ifvqcv0","pricing_plan_id":"free"},{"bike_id":"db0b473c-b957-4b85-92d4-070515c92a07","system_id":"levelo_inurba_marseille","lat":43.309038,"lon":5.396546,"is_reserved":false,"is_disabled":false,"rental_uris":{"android":"levelo://app?vid=db0b473c-b957-4b85-92d4-070515c92a07","ios":"levelo://app?vid=db0b473c-b957-4b85-92d4-070515c92a07"},"vehicle_type_id":"4","last_reported":1704348608,"current_range_meters":31600,"station_id":"ce4bh012rcd13ifvqcv0","pricing_plan_id":"free"},{"bike_id":"b19e9e3c-25e4-4cdb-b900-0cbeb9591b92","system_id":"levelo_inurba_marseille","lat":43.309047,"lon":5.396551,"is_reserved":false,"is_disabled":false,"rental_uris":{"android":"levelo://app?vid=b19e9e3c-25e4-4cdb-b900-0cbeb9591b92","ios":"levelo://app?vid=b19e9e3c-25e4-4cdb-b900-0cbeb9591b92"},"vehicle_type_id":"4","last_reported":1704348608,"current_range_meters":9600,"station_id":"ce4bh012rcd13ifvqcv0","pricing_plan_id":"free"},{"bike_id":"ac200040-1a82-4963-b4a5-725d0db99592","system_id":"levelo_inurba_marseille","lat":43.309038,"lon":5.396546,"is_reserved":false,"is_disabled":false,"rental_uris":{"android":"levelo://app?vid=ac200040-1a82-4963-b4a5-725d0db99592","ios":"levelo://app?vid=ac200040-1a82-4963-b4a5-725d0db99592"},"vehicle_type_id":"4","last_reported":1704348608,"current_range_meters":31200,"station_id":"ce4bh012rcd13ifvqcv0","pricing_plan_id":"free"},{"bike_id":"82d1f46b-b236-4828-a9e7-962a314b4a66","system_id":"levelo_inurba_marseille","lat":43.313291,"lon":5.396838,"is_reserved":false,"is_disabled":false,"rental_uris":{"android":"levelo://app?vid=82d1f46b-b236-4828-a9e7-962a314b4a66","ios":"levelo://app?vid=82d1f46b-b236-4828-a9e7-962a314b4a66"},"vehicle_type_id":"4","last_reported":1704348608,"current_range_meters":31200,"station_id":"ce4bgvp2rcd13ifvqcu0","pricing_plan_id":"free"},{"bike_id":"bcfa8101-8549-4290-95ee-c9ef9f526b61","system_id":"levelo_inurba_marseille","lat":43.309038,"lon":5.396546,"is_reserved":false,"is_disabled":false,"rental_uris":{"android":"levelo://app?vid=bcfa8101-8549-4290-95ee-c9ef9f526b61","ios":"levelo://app?vid=bcfa8101-8549-4290-95ee-c9ef9f526b61"},"vehicle_type_id":"4","last_reported":1704348608,"current_range_meters":10400,"station_id":"ce4bh012rcd13ifvqcv0","pricing_plan_id":"free"},{"bike_id":"b9d5d6bb-b122-457b-bf67-61aeee7a48e7","system_id":"levelo_inurba_marseille","lat":43.313291,"lon":5.396838,"is_reserved":false,"is_disabled":false,"rental_uris":{"android":"levelo://app?vid=b9d5d6bb-b122-457b-bf67-61aeee7a48e7","ios":"levelo://app?vid=b9d5d6bb-b122-457b-bf67-61aeee7a48e7"},"vehicle_type_id":"4","last_reported":1704348608,"current_range_meters":28800,"station_id":"ce4bgvp2rcd13ifvqcu0","pricing_plan_id":"free"},{"bike_id":"4618c8c4-91b4-4c5b-9667-4b1388c43278","system_id":"levelo_inurba_marseille","lat":43.313291,"lon":5.396838,"is_reserved":false,"is_disabled":false,"rental_uris":{"android":"levelo://app?vid=4618c8c4-91b4-4c5b-9667-4b1388c43278","ios":"levelo://app?vid=4618c8c4-91b4-4c5b-9667-4b1388c43278"},"vehicle_type_id":"4","last_reported":1704348608,"current_range_meters":24000,"station_id":"ce4bgvp2rcd13ifvqcu0","pricing_plan_id":"free"},{"bike_id":"4632b70d-b9bd-4373-84dd-9a7c8befe5cf","system_id":"levelo_inurba_marseille","lat":43.313291,"lon":5.396838,"is_reserved":false,"is_disabled":false,"rental_uris":{"android":"levelo://app?vid=4632b70d-b9bd-4373-84dd-9a7c8befe5cf","ios":"levelo://app?vid=4632b70d-b9bd-4373-84dd-9a7c8befe5cf"},"vehicle_type_id":"4","last_reported":1704348608,"current_range_meters":18400,"station_id":"ce4bgvp2rcd13ifvqcu0","pricing_plan_id":"free"},{"bike_id":"0c64e829-2972-4a5b-8889-6d15d1a06b23","system_id":"levelo_inurba_marseille","lat":43.309047,"lon":5.396551,"is_reserved":false,"is_disabled":false,"rental_uris":{"android":"levelo://app?vid=0c64e829-2972-4a5b-8889-6d15d1a06b23","ios":"levelo://app?vid=0c64e829-2972-4a5b-8889-6d15d1a06b23"},"vehicle_type_id":"4","last_reported":1704348608,"current_range_meters":29200,"station_id":"ce4bh012rcd13ifvqcv0","pricing_plan_id":"free"},{"bike_id":"8205d084-c47b-4fd2-ab65-c1ed9e2ca6ac","system_id":"levelo_inurba_marseille","lat":43.313291,"lon":5.396838,"is_reserved":false,"is_disabled":false,"rental_uris":{"android":"levelo://app?vid=8205d084-c47b-4fd2-ab65-c1ed9e2ca6ac","ios":"levelo://app?vid=8205d084-c47b-4fd2-ab65-c1ed9e2ca6ac"},"vehicle_type_id":"4","last_reported":1704348608,"current_range_meters":31600,"station_id":"ce4bgvp2rcd13ifvqcu0","pricing_plan_id":"free"},{"bike_id":"52cb9422-bdda-444e-acf8-53ea52ac4c8d","system_id":"levelo_inurba_marseille","lat":43.309047,"lon":5.396551,"is_reserved":false,"is_disabled":false,"rental_uris":{"android":"levelo://app?vid=52cb9422-bdda-444e-acf8-53ea52ac4c8d","ios":"levelo://app?vid=52cb9422-bdda-444e-acf8-53ea52ac4c8d"},"vehicle_type_id":"4","last_reported":1704348608,"current_range_meters":29200,"station_id":"ce4bh012rcd13ifvqcv0","pricing_plan_id":"free"},{"bike_id":"35755b7f-7df3-4761-aee0-d67f4536f045","system_id":"levelo_inurba_marseille","lat":43.313291,"lon":5.396838,"is_reserved":false,"is_disabled":false,"rental_uris":{"android":"levelo://app?vid=35755b7f-7df3-4761-aee0-d67f4536f045","ios":"levelo://app?vid=35755b7f-7df3-4761-aee0-d67f4536f045"},"vehicle_type_id":"4","last_reported":1704348608,"current_range_meters":12800,"station_id":"ce4bgvp2rcd13ifvqcu0","pricing_plan_id":"free"},{"bike_id":"4e6e447a-17f6-4981-ac18-91ec05c1f791","system_id":"levelo_inurba_marseille","lat":43.313291,"lon":5.396838,"is_reserved":false,"is_disabled":false,"rental_uris":{"android":"levelo://app?vid=4e6e447a-17f6-4981-ac18-91ec05c1f791","ios":"levelo://app?vid=4e6e447a-17f6-4981-ac18-91ec05c1f791"},"vehicle_type_id":"4","last_reported":1704348608,"current_range_meters":31600,"station_id":"ce4bgvp2rcd13ifvqcu0","pricing_plan_id":"free"},{"bike_id":"3811f1c0-5c6d-4342-b7bc-0851a0b06702","system_id":"levelo_inurba_marseille","lat":43.313291,"lon":5.396838,"is_reserved":false,"is_disabled":false,"rental_uris":{"android":"levelo://app?vid=3811f1c0-5c6d-4342-b7bc-0851a0b06702","ios":"levelo://app?vid=3811f1c0-5c6d-4342-b7bc-0851a0b06702"},"vehicle_type_id":"4","last_reported":1704348608,"current_range_meters":31200,"station_id":"ce4bgvp2rcd13ifvqcu0","pricing_plan_id":"free"},{"bike_id":"bbaa65b3-f133-4877-b49f-27299792c8f5","system_id":"levelo_inurba_marseille","lat":43.313291,"lon":5.396838,"is_reserved":false,"is_disabled":false,"rental_uris":{"android":"levelo://app?vid=bbaa65b3-f133-4877-b49f-27299792c8f5","ios":"levelo://app?vid=bbaa65b3-f133-4877-b49f-27299792c8f5"},"vehicle_type_id":"4","last_reported":1704348608,"current_range_meters":8800,"station_id":"ce4bgvp2rcd13ifvqcu0","pricing_plan_id":"free"},{"bike_id":"b9a4e0b9-6cf4-4088-b767-483682e78972","system_id":"levelo_inurba_marseille","lat":43.29529,"lon":5.385581,"is_reserved":false,"is_disabled":false,"rental_uris":{"android":"levelo://app?vid=b9a4e0b9-6cf4-4088-b767-483682e78972","ios":"levelo://app?vid=b9a4e0b9-6cf4-4088-b767-483682e78972"},"vehicle_type_id":"4","last_reported":1704348608,"current_range_meters":25200,"station_id":"ce4bgih2rcd13ifvqba0","pricing_plan_id":"free"},{"bike_id":"6b4977e8-5bcb-44ac-b1a6-2e7bb22c7fdc","system_id":"levelo_inurba_marseille","lat":43.29529,"lon":5.385581,"is_reserved":false,"is_disabled":false,"rental_uris":{"android":"levelo://app?vid=6b4977e8-5bcb-44ac-b1a6-2e7bb22c7fdc","ios":"levelo://app?vid=6b4977e8-5bcb-44ac-b1a6-2e7bb22c7fdc"},"vehicle_type_id":"4","last_reported":1704348608,"current_range_meters":25600,"station_id":"ce4bgih2rcd13ifvqba0","pricing_plan_id":"free"},{"bike_id":"ae43fb9a-9cb8-41c1-bbf1-9a142e37adf8","system_id":"levelo_inurba_marseille","lat":43.284538,"lon":5.358657,"is_reserved":false,"is_disabled":false,"rental_uris":{"android":"levelo://app?vid=ae43fb9a-9cb8-41c1-bbf1-9a142e37adf8","ios":"levelo://app?vid=ae43fb9a-9cb8-41c1-bbf1-9a142e37adf8"},"vehicle_type_id":"4","last_reported":1704348608,"current_range_meters":20000,"station_id":"ce4bhah2rcd13ifvqei0","pricing_plan_id":"free"},{"bike_id":"f7c7e4b1-3f54-41a0-b9b9-9c62d57e7652","system_id":"levelo_inurba_marseille","lat":43.289184,"lon":5.366408,"is_reserved":false,"is_disabled":false,"rental_uris":{"android":"levelo://app?vid=f7c7e4b1-3f54-41a0-b9b9-9c62d57e7652","ios":"levelo://app?vid=f7c7e4b1-3f54-41a0-b9b9-9c62d57e7652"},"vehicle_type_id":"4","last_reported":1704348608,"current_range_meters":14800,"station_id":"ce4bhap2rcd13ifvqek0","pricing_plan_id":"free"},{"bike_id":"1416b087-ad77-486e-959e-588a58e74989","system_id":"levelo_inurba_marseille","lat":43.289184,"lon":5.366408,"is_reserved":false,"is_disabled":false,"rental_uris":{"android":"levelo://app?vid=1416b087-ad77-486e-959e-588a58e74989","ios":"levelo://app?vid=1416b087-ad77-486e-959e-588a58e74989"},"vehicle_type_id":"4","last_reported":1704348608,"current_range_meters":26800,"station_id":"ce4bhap2rcd13ifvqek0","pricing_plan_id":"free"},{"bike_id":"d7fd4f70-fc24-4ba1-b90a-9445951c7a8c","system_id":"levelo_inurba_marseille","lat":43.289468,"lon":5.363719,"is_reserved":false,"is_disabled":false,"rental_uris":{"android":"levelo://app?vid=d7fd4f70-fc24-4ba1-b90a-9445951c7a8c","ios":"levelo://app?vid=d7fd4f70-fc24-4ba1-b90a-9445951c7a8c"},"vehicle_type_id":"4","last_reported":1704348608,"current_range_meters":27200,"station_id":"ce4bhc92rcd13ifvqetg","pricing_plan_id":"free"},{"bike_id":"e70ff0b2-0c39-42a6-be6f-eb26215d1184","system_id":"levelo_inurba_marseille","lat":43.289468,"lon":5.363719,"is_reserved":false,"is_disabled":false,"rental_uris":{"android":"levelo://app?vid=e70ff0b2-0c39-42a6-be6f-eb26215d1184","ios":"levelo://app?vid=e70ff0b2-0c39-42a6-be6f-eb26215d1184"},"vehicle_type_id":"4","last_reported":1704348608,"current_range_meters":27200,"station_id":"ce4bhc92rcd13ifvqetg","pricing_plan_id":"free"},{"bike_id":"0410bbd1-77f7-4e5f-8742-42f59fe7847b","system_id":"levelo_inurba_marseille","lat":43.304296,"lon":5.397513,"is_reserved":false,"is_disabled":false,"rental_uris":{"android":"levelo://app?vid=0410bbd1-77f7-4e5f-8742-42f59fe7847b","ios":"levelo://app?vid=0410bbd1-77f7-4e5f-8742-42f59fe7847b"},"vehicle_type_id":"4","last_reported":1704348608,"current_range_meters":23600,"station_id":"ce4bh092rcd13ifvqd20","pricing_plan_id":"free"},{"bike_id":"aba8ad64-7f46-4b15-bbe5-432a1730db4d","system_id":"levelo_inurba_marseille","lat":43.30482,"lon":5.39795,"is_reserved":false,"is_disabled":false,"rental_uris":{"android":"levelo://app?vid=aba8ad64-7f46-4b15-bbe5-432a1730db4d","ios":"levelo://app?vid=aba8ad64-7f46-4b15-bbe5-432a1730db4d"},"vehicle_type_id":"4","last_reported":1704348608,"current_range_meters":28000,"station_id":"","pricing_plan_id":"free"},{"bike_id":"e6b91e50-d998-48fb-b40e-74d46c58fac1","system_id":"levelo_inurba_marseille","lat":43.290104,"lon":5.356111,"is_reserved":false,"is_disabled":false,"rental_uris":{"android":"levelo://app?vid=e6b91e50-d998-48fb-b40e-74d46c58fac1","ios":"levelo://app?vid=e6b91e50-d998-48fb-b40e-74d46c58fac1"},"vehicle_type_id":"4","last_reported":1704348608,"current_range_meters":6400,"station_id":"ce4bhb92rcd13ifvqen0","pricing_plan_id":"free"},{"bike_id":"8c5452e7-28bf-4088-9086-978f417e8dc0","system_id":"levelo_inurba_marseille","lat":43.290043,"lon":5.356079,"is_reserved":false,"is_disabled":false,"rental_uris":{"android":"levelo://app?vid=8c5452e7-28bf-4088-9086-978f417e8dc0","ios":"levelo://app?vid=8c5452e7-28bf-4088-9086-978f417e8dc0"},"vehicle_type_id":"4","last_reported":1704348608,"current_range_meters":28400,"station_id":"ce4bhb92rcd13ifvqen0","pricing_plan_id":"free"},{"bike_id":"a023d84b-11ca-49dd-9d6c-50372e788579","system_id":"levelo_inurba_marseille","lat":43.330442,"lon":5.389148,"is_reserved":false,"is_disabled":false,"rental_uris":{"android":"levelo://app?vid=a023d84b-11ca-49dd-9d6c-50372e788579","ios":"levelo://app?vid=a023d84b-11ca-49dd-9d6c-50372e788579"},"vehicle_type_id":"4","last_reported":1704348608,"current_range_meters":16400,"station_id":"ce4bhr92rcd13ifvqhrg","pricing_plan_id":"free"},{"bike_id":"b9f1870d-91b7-4991-8da2-fb88515c5d8e","system_id":"levelo_inurba_marseille","lat":43.330442,"lon":5.389148,"is_reserved":false,"is_disabled":false,"rental_uris":{"android":"levelo://app?vid=b9f1870d-91b7-4991-8da2-fb88515c5d8e","ios":"levelo://app?vid=b9f1870d-91b7-4991-8da2-fb88515c5d8e"},"vehicle_type_id":"4","last_reported":1704348608,"current_range_meters":15600,"station_id":"ce4bhr92rcd13ifvqhrg","pricing_plan_id":"free"},{"bike_id":"14c073a1-fb4a-4b61-b101-5cf0b938658c","system_id":"levelo_inurba_marseille","lat":43.330442,"lon":5.389148,"is_reserved":false,"is_disabled":false,"rental_uris":{"android":"levelo://app?vid=14c073a1-fb4a-4b61-b101-5cf0b938658c","ios":"levelo://app?vid=14c073a1-fb4a-4b61-b101-5cf0b938658c"},"vehicle_type_id":"4","last_reported":1704348608,"current_range_meters":20000,"station_id":"ce4bhr92rcd13ifvqhrg","pricing_plan_id":"free"},{"bike_id":"1cb16ff6-ef3b-4f9a-abd5-07a1ab43f2c9","system_id":"levelo_inurba_marseille","lat":43.289741,"lon":5.378306,"is_reserved":false,"is_disabled":false,"rental_uris":{"android":"levelo://app?vid=1cb16ff6-ef3b-4f9a-abd5-07a1ab43f2c9","ios":"levelo://app?vid=1cb16ff6-ef3b-4f9a-abd5-07a1ab43f2c9"},"vehicle_type_id":"4","last_reported":1704348608,"current_range_meters":16800,"station_id":"ce4bh9p2rcd13ifvqed0","pricing_plan_id":"free"},{"bike_id":"3537c72e-affb-4603-a0d4-44c57db301e5","system_id":"levelo_inurba_marseille","lat":43.330442,"lon":5.389148,"is_reserved":false,"is_disabled":false,"rental_uris":{"android":"levelo://app?vid=3537c72e-affb-4603-a0d4-44c57db301e5","ios":"levelo://app?vid=3537c72e-affb-4603-a0d4-44c57db301e5"},"vehicle_type_id":"4","last_reported":1704348608,"current_range_meters":27600,"station_id":"ce4bhr92rcd13ifvqhrg","pricing_plan_id":"free"},{"bike_id":"b4dc5f58-d698-47e4-9d04-a65a1aac924a","system_id":"levelo_inurba_marseille","lat":43.330442,"lon":5.389148,"is_reserved":false,"is_disabled":false,"rental_uris":{"android":"levelo://app?vid=b4dc5f58-d698-47e4-9d04-a65a1aac924a","ios":"levelo://app?vid=b4dc5f58-d698-47e4-9d04-a65a1aac924a"},"vehicle_type_id":"4","last_reported":1704348608,"current_range_meters":10400,"station_id":"ce4bhr92rcd13ifvqhrg","pricing_plan_id":"free"},{"bike_id":"a45508dc-3e20-4dc2-a3f2-c48092cac22d","system_id":"levelo_inurba_marseille","lat":43.330442,"lon":5.389148,"is_reserved":false,"is_disabled":false,"rental_uris":{"android":"levelo://app?vid=a45508dc-3e20-4dc2-a3f2-c48092cac22d","ios":"levelo://app?vid=a45508dc-3e20-4dc2-a3f2-c48092cac22d"},"vehicle_type_id":"4","last_reported":1704348608,"current_range_meters":31200,"station_id":"ce4bhr92rcd13ifvqhrg","pricing_plan_id":"free"},{"bike_id":"6f768a36-4f8f-44ba-8854-a2e486b07d47","system_id":"levelo_inurba_marseille","lat":43.330442,"lon":5.389148,"is_reserved":false,"is_disabled":false,"rental_uris":{"android":"levelo://app?vid=6f768a36-4f8f-44ba-8854-a2e486b07d47","ios":"levelo://app?vid=6f768a36-4f8f-44ba-8854-a2e486b07d47"},"vehicle_type_id":"4","last_reported":1704348608,"current_range_meters":29200,"station_id":"ce4bhr92rcd13ifvqhrg","pricing_plan_id":"free"},{"bike_id":"a4544299-4117-4ba4-98ad-2dcd1cebe1e8","system_id":"levelo_inurba_marseille","lat":43.330442,"lon":5.389148,"is_reserved":false,"is_disabled":false,"rental_uris":{"android":"levelo://app?vid=a4544299-4117-4ba4-98ad-2dcd1cebe1e8","ios":"levelo://app?vid=a4544299-4117-4ba4-98ad-2dcd1cebe1e8"},"vehicle_type_id":"4","last_reported":1704348608,"current_range_meters":21600,"station_id":"ce4bhr92rcd13ifvqhrg","pricing_plan_id":"free"},{"bike_id":"f739cd16-37e9-4940-b7f0-2e22e772ea2e","system_id":"levelo_inurba_marseille","lat":43.290094,"lon":5.381264,"is_reserved":false,"is_disabled":false,"rental_uris":{"android":"levelo://app?vid=f739cd16-37e9-4940-b7f0-2e22e772ea2e","ios":"levelo://app?vid=f739cd16-37e9-4940-b7f0-2e22e772ea2e"},"vehicle_type_id":"4","last_reported":1704348608,"current_range_meters":22400,"station_id":"ce4bh4p2rcd13ifvqe1g","pricing_plan_id":"free"},{"bike_id":"1e16a714-6cd7-4cab-a8bf-3d460d19a2a2","system_id":"levelo_inurba_marseille","lat":43.28856,"lon":5.358371,"is_reserved":false,"is_disabled":false,"rental_uris":{"android":"levelo://app?vid=1e16a714-6cd7-4cab-a8bf-3d460d19a2a2","ios":"levelo://app?vid=1e16a714-6cd7-4cab-a8bf-3d460d19a2a2"},"vehicle_type_id":"4","last_reported":1704348608,"current_range_meters":30000,"station_id":"ce4bhb12rcd13ifvqem0","pricing_plan_id":"free"},{"bike_id":"b7180edd-d7ed-4d04-934c-e87155df52c2","system_id":"levelo_inurba_marseille","lat":43.31276,"lon":5.40167,"is_reserved":false,"is_disabled":false,"rental_uris":{"android":"levelo://app?vid=b7180edd-d7ed-4d04-934c-e87155df52c2","ios":"levelo://app?vid=b7180edd-d7ed-4d04-934c-e87155df52c2"},"vehicle_type_id":"4","last_reported":1704348608,"current_range_meters":8000,"station_id":"ce4bh092rcd13ifvqd30","pricing_plan_id":"free"},{"bike_id":"56eea705-8312-497c-a7a5-2d086e47098a","system_id":"levelo_inurba_marseille","lat":43.312609,"lon":5.401662,"is_reserved":false,"is_disabled":false,"rental_uris":{"android":"levelo://app?vid=56eea705-8312-497c-a7a5-2d086e47098a","ios":"levelo://app?vid=56eea705-8312-497c-a7a5-2d086e47098a"},"vehicle_type_id":"4","last_reported":1704348608,"current_range_meters":18800,"station_id":"ce4bh092rcd13ifvqd30","pricing_plan_id":"free"},{"bike_id":"9e7579e0-e5da-493f-be8f-e0c499661c27","system_id":"levelo_inurba_marseille","lat":43.309281,"lon":5.401365,"is_reserved":false,"is_disabled":false,"rental_uris":{"android":"levelo://app?vid=9e7579e0-e5da-493f-be8f-e0c499661c27","ios":"levelo://app?vid=9e7579e0-e5da-493f-be8f-e0c499661c27"},"vehicle_type_id":"4","last_reported":1704348608,"current_range_meters":30800,"station_id":"ce4bgvp2rcd13ifvqct0","pricing_plan_id":"free"},{"bike_id":"2c0d1c7a-52d6-45c8-b950-66774576aada","system_id":"levelo_inurba_marseille","lat":43.33744,"lon":5.374466,"is_reserved":false,"is_disabled":false,"rental_uris":{"android":"levelo://app?vid=2c0d1c7a-52d6-45c8-b950-66774576aada","ios":"levelo://app?vid=2c0d1c7a-52d6-45c8-b950-66774576aada"},"vehicle_type_id":"4","last_reported":1704348608,"current_range_meters":26400,"station_id":"","pricing_plan_id":"free"},{"bike_id":"c5caf7f9-c216-44e5-986a-2c63510276b1","system_id":"levelo_inurba_marseille","lat":43.309313,"lon":5.401415,"is_reserved":false,"is_disabled":false,"rental_uris":{"android":"levelo://app?vid=c5caf7f9-c216-44e5-986a-2c63510276b1","ios":"levelo://app?vid=c5caf7f9-c216-44e5-986a-2c63510276b1"},"vehicle_type_id":"4","last_reported":1704348608,"current_range_meters":29200,"station_id":"ce4bgvp2rcd13ifvqct0","pricing_plan_id":"free"},{"bike_id":"96452889-6cac-4a60-a3fe-2d79ebba7e61","system_id":"levelo_inurba_marseille","lat":43.309302,"lon":5.401429,"is_reserved":false,"is_disabled":false,"rental_uris":{"android":"levelo://app?vid=96452889-6cac-4a60-a3fe-2d79ebba7e61","ios":"levelo://app?vid=96452889-6cac-4a60-a3fe-2d79ebba7e61"},"vehicle_type_id":"4","last_reported":1704348608,"current_range_meters":27600,"station_id":"ce4bgvp2rcd13ifvqct0","pricing_plan_id":"free"},{"bike_id":"64796948-684b-4f89-b86a-dbc2d269bb38","system_id":"levelo_inurba_marseille","lat":43.337471,"lon":5.374559,"is_reserved":false,"is_disabled":false,"rental_uris":{"android":"levelo://app?vid=64796948-684b-4f89-b86a-dbc2d269bb38","ios":"levelo://app?vid=64796948-684b-4f89-b86a-dbc2d269bb38"},"vehicle_type_id":"4","last_reported":1704348608,"current_range_meters":30000,"station_id":"","pricing_plan_id":"free"},{"bike_id":"c473dc02-8994-4174-a9e4-3a30dad995ff","system_id":"levelo_inurba_marseille","lat":43.337484,"lon":5.374489,"is_reserved":false,"is_disabled":false,"rental_uris":{"android":"levelo://app?vid=c473dc02-8994-4174-a9e4-3a30dad995ff","ios":"levelo://app?vid=c473dc02-8994-4174-a9e4-3a30dad995ff"},"vehicle_type_id":"4","last_reported":1704348608,"current_range_meters":28400,"station_id":"","pricing_plan_id":"free"},{"bike_id":"07a62988-8af8-43fb-aab2-9c0091f3d562","system_id":"levelo_inurba_marseille","lat":43.309371,"lon":5.401449,"is_reserved":false,"is_disabled":false,"rental_uris":{"android":"levelo://app?vid=07a62988-8af8-43fb-aab2-9c0091f3d562","ios":"levelo://app?vid=07a62988-8af8-43fb-aab2-9c0091f3d562"},"vehicle_type_id":"4","last_reported":1704348608,"current_range_meters":15600,"station_id":"ce4bgvp2rcd13ifvqct0","pricing_plan_id":"free"},{"bike_id":"e0179918-445e-4cbe-b3fa-576a3d6075b5","system_id":"levelo_inurba_marseille","lat":43.33753,"lon":5.37437,"is_reserved":false,"is_disabled":false,"rental_uris":{"android":"levelo://app?vid=e0179918-445e-4cbe-b3fa-576a3d6075b5","ios":"levelo://app?vid=e0179918-445e-4cbe-b3fa-576a3d6075b5"},"vehicle_type_id":"4","last_reported":1704348608,"current_range_meters":29600,"station_id":"","pricing_plan_id":"free"},{"bike_id":"0a851432-4b4c-4b5a-9ca4-138c17953932","system_id":"levelo_inurba_marseille","lat":43.30929,"lon":5.40149,"is_reserved":false,"is_disabled":false,"rental_uris":{"android":"levelo://app?vid=0a851432-4b4c-4b5a-9ca4-138c17953932","ios":"levelo://app?vid=0a851432-4b4c-4b5a-9ca4-138c17953932"},"vehicle_type_id":"4","last_reported":1704348608,"current_range_meters":30800,"station_id":"ce4bgvp2rcd13ifvqct0","pricing_plan_id":"free"},{"bike_id":"9ad3dbe8-4071-48c0-8270-46da6f555f3d","system_id":"levelo_inurba_marseille","lat":43.309371,"lon":5.401449,"is_reserved":false,"is_disabled":false,"rental_uris":{"android":"levelo://app?vid=9ad3dbe8-4071-48c0-8270-46da6f555f3d","ios":"levelo://app?vid=9ad3dbe8-4071-48c0-8270-46da6f555f3d"},"vehicle_type_id":"4","last_reported":1704348608,"current_range_meters":26400,"station_id":"ce4bgvp2rcd13ifvqct0","pricing_plan_id":"free"},{"bike_id":"4638b56e-a45a-4226-add7-99c10e4fd17c","system_id":"levelo_inurba_marseille","lat":43.306412,"lon":5.401035,"is_reserved":false,"is_disabled":false,"rental_uris":{"android":"levelo://app?vid=4638b56e-a45a-4226-add7-99c10e4fd17c","ios":"levelo://app?vid=4638b56e-a45a-4226-add7-99c10e4fd17c"},"vehicle_type_id":"4","last_reported":1704348608,"current_range_meters":30000,"station_id":"ce4bh112rcd13ifvqda0","pricing_plan_id":"free"},{"bike_id":"52871362-c090-4071-8ce3-d836699413cc","system_id":"levelo_inurba_marseille","lat":43.30642,"lon":5.401031,"is_reserved":false,"is_disabled":false,"rental_uris":{"android":"levelo://app?vid=52871362-c090-4071-8ce3-d836699413cc","ios":"levelo://app?vid=52871362-c090-4071-8ce3-d836699413cc"},"vehicle_type_id":"4","last_reported":1704348608,"current_range_meters":25600,"station_id":"ce4bh112rcd13ifvqda0","pricing_plan_id":"free"},{"bike_id":"25e0d57a-c269-4098-9be4-2dbd16f9566a","system_id":"levelo_inurba_marseille","lat":43.306412,"lon":5.401035,"is_reserved":false,"is_disabled":false,"rental_uris":{"android":"levelo://app?vid=25e0d57a-c269-4098-9be4-2dbd16f9566a","ios":"levelo://app?vid=25e0d57a-c269-4098-9be4-2dbd16f9566a"},"vehicle_type_id":"4","last_reported":1704348608,"current_range_meters":14800,"station_id":"ce4bh112rcd13ifvqda0","pricing_plan_id":"free"},{"bike_id":"ee747d99-7ab0-4558-8ea7-76fae17e5a54","system_id":"levelo_inurba_marseille","lat":43.28727,"lon":5.36078,"is_reserved":false,"is_disabled":false,"rental_uris":{"android":"levelo://app?vid=ee747d99-7ab0-4558-8ea7-76fae17e5a54","ios":"levelo://app?vid=ee747d99-7ab0-4558-8ea7-76fae17e5a54"},"vehicle_type_id":"4","last_reported":1704348608,"current_range_meters":25200,"station_id":"cki0cbj6b192h4jlfktg","pricing_plan_id":"free"},{"bike_id":"f963ecae-ccdf-4b8b-8e48-49346eba778a","system_id":"levelo_inurba_marseille","lat":43.28727,"lon":5.36078,"is_reserved":false,"is_disabled":false,"rental_uris":{"android":"levelo://app?vid=f963ecae-ccdf-4b8b-8e48-49346eba778a","ios":"levelo://app?vid=f963ecae-ccdf-4b8b-8e48-49346eba778a"},"vehicle_type_id":"4","last_reported":1704348608,"current_range_meters":31200,"station_id":"cki0cbj6b192h4jlfktg","pricing_plan_id":"free"},{"bike_id":"1fae5872-4781-4be3-a7e3-08510609eb2a","system_id":"levelo_inurba_marseille","lat":43.28727,"lon":5.36078,"is_reserved":false,"is_disabled":false,"rental_uris":{"android":"levelo://app?vid=1fae5872-4781-4be3-a7e3-08510609eb2a","ios":"levelo://app?vid=1fae5872-4781-4be3-a7e3-08510609eb2a"},"vehicle_type_id":"4","last_reported":1704348608,"current_range_meters":27600,"station_id":"cki0cbj6b192h4jlfktg","pricing_plan_id":"free"},{"bike_id":"f41af5e8-13ef-4c4e-8c46-2ef7f165881d","system_id":"levelo_inurba_marseille","lat":43.28665,"lon":5.36355,"is_reserved":false,"is_disabled":false,"rental_uris":{"android":"levelo://app?vid=f41af5e8-13ef-4c4e-8c46-2ef7f165881d","ios":"levelo://app?vid=f41af5e8-13ef-4c4e-8c46-2ef7f165881d"},"vehicle_type_id":"4","last_reported":1704348608,"current_range_meters":19600,"station_id":"ce4bhah2rcd13ifvqej0","pricing_plan_id":"free"},{"bike_id":"0155edef-e2d6-40f6-9c27-cb085237c643","system_id":"levelo_inurba_marseille","lat":43.286961,"lon":5.373785,"is_reserved":false,"is_disabled":false,"rental_uris":{"android":"levelo://app?vid=0155edef-e2d6-40f6-9c27-cb085237c643","ios":"levelo://app?vid=0155edef-e2d6-40f6-9c27-cb085237c643"},"vehicle_type_id":"4","last_reported":1704348608,"current_range_meters":28800,"station_id":"ce4bh3p2rcd13ifvqdq0","pricing_plan_id":"free"},{"bike_id":"06122a5a-204c-458e-b738-fe7f28debd95","system_id":"levelo_inurba_marseille","lat":43.286593,"lon":5.363346,"is_reserved":false,"is_disabled":false,"rental_uris":{"android":"levelo://app?vid=06122a5a-204c-458e-b738-fe7f28debd95","ios":"levelo://app?vid=06122a5a-204c-458e-b738-fe7f28debd95"},"vehicle_type_id":"4","last_reported":1704348608,"current_range_meters":30400,"station_id":"ce4bhah2rcd13ifvqej0","pricing_plan_id":"free"},{"bike_id":"9d7ac887-3e46-415a-bf3d-425f9b4accdd","system_id":"levelo_inurba_marseille","lat":43.286961,"lon":5.373785,"is_reserved":false,"is_disabled":false,"rental_uris":{"android":"levelo://app?vid=9d7ac887-3e46-415a-bf3d-425f9b4accdd","ios":"levelo://app?vid=9d7ac887-3e46-415a-bf3d-425f9b4accdd"},"vehicle_type_id":"4","last_reported":1704348608,"current_range_meters":30400,"station_id":"ce4bh3p2rcd13ifvqdq0","pricing_plan_id":"free"},{"bike_id":"e1bc3e7b-559a-4d0c-80ab-d3c59c8be8cc","system_id":"levelo_inurba_marseille","lat":43.302467,"lon":5.400583,"is_reserved":false,"is_disabled":false,"rental_uris":{"android":"levelo://app?vid=e1bc3e7b-559a-4d0c-80ab-d3c59c8be8cc","ios":"levelo://app?vid=e1bc3e7b-559a-4d0c-80ab-d3c59c8be8cc"},"vehicle_type_id":"4","last_reported":1704348608,"current_range_meters":29200,"station_id":"ce4bgvh2rcd13ifvqcs0","pricing_plan_id":"free"},{"bike_id":"0df2e40d-3891-4432-9692-20439ae7cd56","system_id":"levelo_inurba_marseille","lat":43.290336,"lon":5.386425,"is_reserved":false,"is_disabled":false,"rental_uris":{"android":"levelo://app?vid=0df2e40d-3891-4432-9692-20439ae7cd56","ios":"levelo://app?vid=0df2e40d-3891-4432-9692-20439ae7cd56"},"vehicle_type_id":"4","last_reported":1704348608,"current_range_meters":20000,"station_id":"ce4bh4p2rcd13ifvqe0g","pricing_plan_id":"free"},{"bike_id":"d359b952-4438-4a34-85cc-2409251cfa11","system_id":"levelo_inurba_marseille","lat":43.302759,"lon":5.400793,"is_reserved":false,"is_disabled":false,"rental_uris":{"android":"levelo://app?vid=d359b952-4438-4a34-85cc-2409251cfa11","ios":"levelo://app?vid=d359b952-4438-4a34-85cc-2409251cfa11"},"vehicle_type_id":"4","last_reported":1704348608,"current_range_meters":24000,"station_id":"ce4bgvh2rcd13ifvqcs0","pricing_plan_id":"free"},{"bike_id":"7025271f-a498-499f-a8fd-db6b5f8879f2","system_id":"levelo_inurba_marseille","lat":43.302759,"lon":5.400793,"is_reserved":false,"is_disabled":false,"rental_uris":{"android":"levelo://app?vid=7025271f-a498-499f-a8fd-db6b5f8879f2","ios":"levelo://app?vid=7025271f-a498-499f-a8fd-db6b5f8879f2"},"vehicle_type_id":"4","last_reported":1704348608,"current_range_meters":31200,"station_id":"ce4bgvh2rcd13ifvqcs0","pricing_plan_id":"free"},{"bike_id":"54448abf-002f-4ca6-9e7b-8329af0d32c5","system_id":"levelo_inurba_marseille","lat":43.291994,"lon":5.392907,"is_reserved":false,"is_disabled":false,"rental_uris":{"android":"levelo://app?vid=54448abf-002f-4ca6-9e7b-8329af0d32c5","ios":"levelo://app?vid=54448abf-002f-4ca6-9e7b-8329af0d32c5"},"vehicle_type_id":"4","last_reported":1704348608,"current_range_meters":30400,"station_id":"ce4bh192rcd13ifvqdd0","pricing_plan_id":"free"},{"bike_id":"2e6e1b10-2a59-439b-b09f-1bec5be7d09b","system_id":"levelo_inurba_marseille","lat":43.284538,"lon":5.358657,"is_reserved":false,"is_disabled":false,"rental_uris":{"android":"levelo://app?vid=2e6e1b10-2a59-439b-b09f-1bec5be7d09b","ios":"levelo://app?vid=2e6e1b10-2a59-439b-b09f-1bec5be7d09b"},"vehicle_type_id":"4","last_reported":1704348608,"current_range_meters":25200,"station_id":"ce4bhah2rcd13ifvqei0","pricing_plan_id":"free"},{"bike_id":"88afa295-32a3-4b25-89ad-670682989bfd","system_id":"levelo_inurba_marseille","lat":43.284538,"lon":5.358657,"is_reserved":false,"is_disabled":false,"rental_uris":{"android":"levelo://app?vid=88afa295-32a3-4b25-89ad-670682989bfd","ios":"levelo://app?vid=88afa295-32a3-4b25-89ad-670682989bfd"},"vehicle_type_id":"4","last_reported":1704348608,"current_range_meters":31600,"station_id":"ce4bhah2rcd13ifvqei0","pricing_plan_id":"free"},{"bike_id":"6c8119c2-1ef3-4b9b-b519-f9b051faeebf","system_id":"levelo_inurba_marseille","lat":43.284538,"lon":5.358657,"is_reserved":false,"is_disabled":false,"rental_uris":{"android":"levelo://app?vid=6c8119c2-1ef3-4b9b-b519-f9b051faeebf","ios":"levelo://app?vid=6c8119c2-1ef3-4b9b-b519-f9b051faeebf"},"vehicle_type_id":"4","last_reported":1704348608,"current_range_meters":31600,"station_id":"ce4bhah2rcd13ifvqei0","pricing_plan_id":"free"},{"bike_id":"34ec17a6-d185-4369-bfe4-bf05322ff164","system_id":"levelo_inurba_marseille","lat":43.284538,"lon":5.358657,"is_reserved":false,"is_disabled":false,"rental_uris":{"android":"levelo://app?vid=34ec17a6-d185-4369-bfe4-bf05322ff164","ios":"levelo://app?vid=34ec17a6-d185-4369-bfe4-bf05322ff164"},"vehicle_type_id":"4","last_reported":1704348608,"current_range_meters":26800,"station_id":"ce4bhah2rcd13ifvqei0","pricing_plan_id":"free"},{"bike_id":"882bd401-922a-4184-a88e-edbe8ae0adc3","system_id":"levelo_inurba_marseille","lat":43.284534,"lon":5.358662,"is_reserved":false,"is_disabled":false,"rental_uris":{"android":"levelo://app?vid=882bd401-922a-4184-a88e-edbe8ae0adc3","ios":"levelo://app?vid=882bd401-922a-4184-a88e-edbe8ae0adc3"},"vehicle_type_id":"4","last_reported":1704348608,"current_range_meters":26000,"station_id":"ce4bhah2rcd13ifvqei0","pricing_plan_id":"free"},{"bike_id":"3f2d67b5-1b70-4dca-a662-d18b710194fe","system_id":"levelo_inurba_marseille","lat":43.2984,"lon":5.40153,"is_reserved":false,"is_disabled":false,"rental_uris":{"android":"levelo://app?vid=3f2d67b5-1b70-4dca-a662-d18b710194fe","ios":"levelo://app?vid=3f2d67b5-1b70-4dca-a662-d18b710194fe"},"vehicle_type_id":"4","last_reported":1704348608,"current_range_meters":14000,"station_id":"","pricing_plan_id":"free"},{"bike_id":"7d1865e7-1aae-40e5-aee8-761c7f0abf27","system_id":"levelo_inurba_marseille","lat":43.285856,"lon":5.350771,"is_reserved":false,"is_disabled":false,"rental_uris":{"android":"levelo://app?vid=7d1865e7-1aae-40e5-aee8-761c7f0abf27","ios":"levelo://app?vid=7d1865e7-1aae-40e5-aee8-761c7f0abf27"},"vehicle_type_id":"4","last_reported":1704348608,"current_range_meters":31200,"station_id":"ce4bhch2rcd13ifvqeug","pricing_plan_id":"free"},{"bike_id":"0e976570-e7cf-442d-8425-f74754254411","system_id":"levelo_inurba_marseille","lat":43.285856,"lon":5.350771,"is_reserved":false,"is_disabled":false,"rental_uris":{"android":"levelo://app?vid=0e976570-e7cf-442d-8425-f74754254411","ios":"levelo://app?vid=0e976570-e7cf-442d-8425-f74754254411"},"vehicle_type_id":"4","last_reported":1704348608,"current_range_meters":18800,"station_id":"ce4bhch2rcd13ifvqeug","pricing_plan_id":"free"},{"bike_id":"b2fe2e8a-055f-46d7-b87e-a055b7034467","system_id":"levelo_inurba_marseille","lat":43.283998,"lon":5.375062,"is_reserved":false,"is_disabled":false,"rental_uris":{"android":"levelo://app?vid=b2fe2e8a-055f-46d7-b87e-a055b7034467","ios":"levelo://app?vid=b2fe2e8a-055f-46d7-b87e-a055b7034467"},"vehicle_type_id":"4","last_reported":1704348608,"current_range_meters":24400,"station_id":"ce4bh412rcd13ifvqds0","pricing_plan_id":"free"},{"bike_id":"c1c9e1da-fbee-49d0-90a6-697aa1449fc9","system_id":"levelo_inurba_marseille","lat":43.286595,"lon":5.386795,"is_reserved":false,"is_disabled":false,"rental_uris":{"android":"levelo://app?vid=c1c9e1da-fbee-49d0-90a6-697aa1449fc9","ios":"levelo://app?vid=c1c9e1da-fbee-49d0-90a6-697aa1449fc9"},"vehicle_type_id":"4","last_reported":1704348608,"current_range_meters":30400,"station_id":"ce4bh492rcd13ifvqdug","pricing_plan_id":"free"},{"bike_id":"40659db2-aba4-4c52-a255-0c7586c28acc","system_id":"levelo_inurba_marseille","lat":43.3189,"lon":5.40742,"is_reserved":false,"is_disabled":false,"rental_uris":{"android":"levelo://app?vid=40659db2-aba4-4c52-a255-0c7586c28acc","ios":"levelo://app?vid=40659db2-aba4-4c52-a255-0c7586c28acc"},"vehicle_type_id":"4","last_reported":1704348608,"current_range_meters":29600,"station_id":"ce4bhq12rcd13ifvqhig","pricing_plan_id":"free"},{"bike_id":"082792e7-54cb-43b3-95ca-69faa85d1d94","system_id":"levelo_inurba_marseille","lat":43.323464,"lon":5.406297,"is_reserved":false,"is_disabled":false,"rental_uris":{"android":"levelo://app?vid=082792e7-54cb-43b3-95ca-69faa85d1d94","ios":"levelo://app?vid=082792e7-54cb-43b3-95ca-69faa85d1d94"},"vehicle_type_id":"4","last_reported":1704348608,"current_range_meters":30000,"station_id":"ce4bhq92rcd13ifvqhjg","pricing_plan_id":"free"},{"bike_id":"2556f8a3-f1f0-4cdc-9edd-a7f3cfcea9a9","system_id":"levelo_inurba_marseille","lat":43.323464,"lon":5.406297,"is_reserved":false,"is_disabled":false,"rental_uris":{"android":"levelo://app?vid=2556f8a3-f1f0-4cdc-9edd-a7f3cfcea9a9","ios":"levelo://app?vid=2556f8a3-f1f0-4cdc-9edd-a7f3cfcea9a9"},"vehicle_type_id":"4","last_reported":1704348608,"current_range_meters":23600,"station_id":"ce4bhq92rcd13ifvqhjg","pricing_plan_id":"free"},{"bike_id":"5e57c7c1-bfc5-49c6-9e57-613a538e8d1e","system_id":"levelo_inurba_marseille","lat":43.323464,"lon":5.406297,"is_reserved":false,"is_disabled":false,"rental_uris":{"android":"levelo://app?vid=5e57c7c1-bfc5-49c6-9e57-613a538e8d1e","ios":"levelo://app?vid=5e57c7c1-bfc5-49c6-9e57-613a538e8d1e"},"vehicle_type_id":"4","last_reported":1704348608,"current_range_meters":31600,"station_id":"ce4bhq92rcd13ifvqhjg","pricing_plan_id":"free"},{"bike_id":"35dbd01e-865d-4a73-944f-82ae17a1b1f9","system_id":"levelo_inurba_marseille","lat":43.323464,"lon":5.406297,"is_reserved":false,"is_disabled":false,"rental_uris":{"android":"levelo://app?vid=35dbd01e-865d-4a73-944f-82ae17a1b1f9","ios":"levelo://app?vid=35dbd01e-865d-4a73-944f-82ae17a1b1f9"},"vehicle_type_id":"4","last_reported":1704348608,"current_range_meters":23600,"station_id":"ce4bhq92rcd13ifvqhjg","pricing_plan_id":"free"},{"bike_id":"f5bcfbbe-41cb-4927-b267-feee8f33a7d9","system_id":"levelo_inurba_marseille","lat":43.284787,"lon":5.384116,"is_reserved":false,"is_disabled":false,"rental_uris":{"android":"levelo://app?vid=f5bcfbbe-41cb-4927-b267-feee8f33a7d9","ios":"levelo://app?vid=f5bcfbbe-41cb-4927-b267-feee8f33a7d9"},"vehicle_type_id":"4","last_reported":1704348608,"current_range_meters":29200,"station_id":"ce4bh512rcd13ifvqe3g","pricing_plan_id":"free"},{"bike_id":"888e1804-055c-4aea-95bc-93a73f116354","system_id":"levelo_inurba_marseille","lat":43.284219,"lon":5.3497,"is_reserved":false,"is_disabled":false,"rental_uris":{"android":"levelo://app?vid=888e1804-055c-4aea-95bc-93a73f116354","ios":"levelo://app?vid=888e1804-055c-4aea-95bc-93a73f116354"},"vehicle_type_id":"4","last_reported":1704348608,"current_range_meters":30000,"station_id":"ce4bhbh2rcd13ifvqepg","pricing_plan_id":"free"},{"bike_id":"a34a416d-36de-45a6-bcc4-14a190a5ea99","system_id":"levelo_inurba_marseille","lat":43.284217,"lon":5.349697,"is_reserved":false,"is_disabled":false,"rental_uris":{"android":"levelo://app?vid=a34a416d-36de-45a6-bcc4-14a190a5ea99","ios":"levelo://app?vid=a34a416d-36de-45a6-bcc4-14a190a5ea99"},"vehicle_type_id":"4","last_reported":1704348608,"current_range_meters":27200,"station_id":"ce4bhbh2rcd13ifvqepg","pricing_plan_id":"free"},{"bike_id":"4cc32faf-c266-4535-bdff-c42098dbefc9","system_id":"levelo_inurba_marseille","lat":43.321662,"lon":5.407969,"is_reserved":false,"is_disabled":false,"rental_uris":{"android":"levelo://app?vid=4cc32faf-c266-4535-bdff-c42098dbefc9","ios":"levelo://app?vid=4cc32faf-c266-4535-bdff-c42098dbefc9"},"vehicle_type_id":"4","last_reported":1704348608,"current_range_meters":16800,"station_id":"","pricing_plan_id":"free"},{"bike_id":"0cfc5d5d-5364-4b67-be59-9fd222e92637","system_id":"levelo_inurba_marseille","lat":43.289363,"lon":5.396322,"is_reserved":false,"is_disabled":false,"rental_uris":{"android":"levelo://app?vid=0cfc5d5d-5364-4b67-be59-9fd222e92637","ios":"levelo://app?vid=0cfc5d5d-5364-4b67-be59-9fd222e92637"},"vehicle_type_id":"4","last_reported":1704348608,"current_range_meters":26800,"station_id":"ce4bh3h2rcd13ifvqdn0","pricing_plan_id":"free"},{"bike_id":"f536a955-e0fd-46ad-affe-a5c5945143c3","system_id":"levelo_inurba_marseille","lat":43.282754,"lon":5.350519,"is_reserved":false,"is_disabled":false,"rental_uris":{"android":"levelo://app?vid=f536a955-e0fd-46ad-affe-a5c5945143c3","ios":"levelo://app?vid=f536a955-e0fd-46ad-affe-a5c5945143c3"},"vehicle_type_id":"4","last_reported":1704348608,"current_range_meters":31200,"station_id":"ce4bhbp2rcd13ifvqerg","pricing_plan_id":"free"},{"bike_id":"d3ac3657-04c4-4aaf-a57b-f670a94b258d","system_id":"levelo_inurba_marseille","lat":43.282754,"lon":5.350519,"is_reserved":false,"is_disabled":false,"rental_uris":{"android":"levelo://app?vid=d3ac3657-04c4-4aaf-a57b-f670a94b258d","ios":"levelo://app?vid=d3ac3657-04c4-4aaf-a57b-f670a94b258d"},"vehicle_type_id":"4","last_reported":1704348608,"current_range_meters":17200,"station_id":"ce4bhbp2rcd13ifvqerg","pricing_plan_id":"free"},{"bike_id":"79837741-56a5-43d5-82bd-fc00e6332b2a","system_id":"levelo_inurba_marseille","lat":43.28277,"lon":5.350754,"is_reserved":false,"is_disabled":false,"rental_uris":{"android":"levelo://app?vid=79837741-56a5-43d5-82bd-fc00e6332b2a","ios":"levelo://app?vid=79837741-56a5-43d5-82bd-fc00e6332b2a"},"vehicle_type_id":"4","last_reported":1704348608,"current_range_meters":10400,"station_id":"ce4bhbp2rcd13ifvqerg","pricing_plan_id":"free"},{"bike_id":"59e9c861-4538-413b-b990-baf404440911","system_id":"levelo_inurba_marseille","lat":43.282754,"lon":5.350519,"is_reserved":false,"is_disabled":false,"rental_uris":{"android":"levelo://app?vid=59e9c861-4538-413b-b990-baf404440911","ios":"levelo://app?vid=59e9c861-4538-413b-b990-baf404440911"},"vehicle_type_id":"4","last_reported":1704348608,"current_range_meters":30000,"station_id":"ce4bhbp2rcd13ifvqerg","pricing_plan_id":"free"},{"bike_id":"598f838e-89a0-4d51-9c49-3c611539268b","system_id":"levelo_inurba_marseille","lat":43.282754,"lon":5.350519,"is_reserved":false,"is_disabled":false,"rental_uris":{"android":"levelo://app?vid=598f838e-89a0-4d51-9c49-3c611539268b","ios":"levelo://app?vid=598f838e-89a0-4d51-9c49-3c611539268b"},"vehicle_type_id":"4","last_reported":1704348608,"current_range_meters":31200,"station_id":"ce4bhbp2rcd13ifvqerg","pricing_plan_id":"free"},{"bike_id":"09dbbffb-7572-44a7-8c03-fc3396b21ab3","system_id":"levelo_inurba_marseille","lat":43.282754,"lon":5.350519,"is_reserved":false,"is_disabled":false,"rental_uris":{"android":"levelo://app?vid=09dbbffb-7572-44a7-8c03-fc3396b21ab3","ios":"levelo://app?vid=09dbbffb-7572-44a7-8c03-fc3396b21ab3"},"vehicle_type_id":"4","last_reported":1704348608,"current_range_meters":31200,"station_id":"ce4bhbp2rcd13ifvqerg","pricing_plan_id":"free"},{"bike_id":"fe934f54-0c59-486f-9cb5-6169b78b7007","system_id":"levelo_inurba_marseille","lat":43.28039,"lon":5.369297,"is_reserved":false,"is_disabled":false,"rental_uris":{"android":"levelo://app?vid=fe934f54-0c59-486f-9cb5-6169b78b7007","ios":"levelo://app?vid=fe934f54-0c59-486f-9cb5-6169b78b7007"},"vehicle_type_id":"4","last_reported":1704348608,"current_range_meters":29600,"station_id":"ce4bha12rcd13ifvqef0","pricing_plan_id":"free"},{"bike_id":"b0d71ed9-2e4a-4896-80b1-f614c14a0d2d","system_id":"levelo_inurba_marseille","lat":43.28039,"lon":5.369297,"is_reserved":false,"is_disabled":false,"rental_uris":{"android":"levelo://app?vid=b0d71ed9-2e4a-4896-80b1-f614c14a0d2d","ios":"levelo://app?vid=b0d71ed9-2e4a-4896-80b1-f614c14a0d2d"},"vehicle_type_id":"4","last_reported":1704348608,"current_range_meters":30400,"station_id":"ce4bha12rcd13ifvqef0","pricing_plan_id":"free"},{"bike_id":"3b207d8c-7d10-4ce3-8bb1-5bcc943e7018","system_id":"levelo_inurba_marseille","lat":43.280382,"lon":5.369291,"is_reserved":false,"is_disabled":false,"rental_uris":{"android":"levelo://app?vid=3b207d8c-7d10-4ce3-8bb1-5bcc943e7018","ios":"levelo://app?vid=3b207d8c-7d10-4ce3-8bb1-5bcc943e7018"},"vehicle_type_id":"4","last_reported":1704348608,"current_range_meters":31600,"station_id":"ce4bha12rcd13ifvqef0","pricing_plan_id":"free"},{"bike_id":"ca8910e0-3d77-4389-b3d6-e271926a2518","system_id":"levelo_inurba_marseille","lat":43.28039,"lon":5.369297,"is_reserved":false,"is_disabled":false,"rental_uris":{"android":"levelo://app?vid=ca8910e0-3d77-4389-b3d6-e271926a2518","ios":"levelo://app?vid=ca8910e0-3d77-4389-b3d6-e271926a2518"},"vehicle_type_id":"4","last_reported":1704348608,"current_range_meters":28800,"station_id":"ce4bha12rcd13ifvqef0","pricing_plan_id":"free"},{"bike_id":"075ec188-24e0-48c7-bf1c-350c61527bb3","system_id":"levelo_inurba_marseille","lat":43.280382,"lon":5.369291,"is_reserved":false,"is_disabled":false,"rental_uris":{"android":"levelo://app?vid=075ec188-24e0-48c7-bf1c-350c61527bb3","ios":"levelo://app?vid=075ec188-24e0-48c7-bf1c-350c61527bb3"},"vehicle_type_id":"4","last_reported":1704348608,"current_range_meters":8800,"station_id":"ce4bha12rcd13ifvqef0","pricing_plan_id":"free"},{"bike_id":"6254bdab-07b9-439b-8746-e31872d56418","system_id":"levelo_inurba_marseille","lat":43.280382,"lon":5.369291,"is_reserved":false,"is_disabled":false,"rental_uris":{"android":"levelo://app?vid=6254bdab-07b9-439b-8746-e31872d56418","ios":"levelo://app?vid=6254bdab-07b9-439b-8746-e31872d56418"},"vehicle_type_id":"4","last_reported":1704348608,"current_range_meters":0,"station_id":"ce4bha12rcd13ifvqef0","pricing_plan_id":"free"},{"bike_id":"60bdf1b9-50bd-4680-b536-abe5e2740024","system_id":"levelo_inurba_marseille","lat":43.28573,"lon":5.394992,"is_reserved":false,"is_disabled":false,"rental_uris":{"android":"levelo://app?vid=60bdf1b9-50bd-4680-b536-abe5e2740024","ios":"levelo://app?vid=60bdf1b9-50bd-4680-b536-abe5e2740024"},"vehicle_type_id":"4","last_reported":1704348608,"current_range_meters":23200,"station_id":"ce4bh292rcd13ifvqdg0","pricing_plan_id":"free"},{"bike_id":"ac9b89ac-7c2d-48fe-8ea9-970e85035ca7","system_id":"levelo_inurba_marseille","lat":43.279087,"lon":5.380114,"is_reserved":false,"is_disabled":false,"rental_uris":{"android":"levelo://app?vid=ac9b89ac-7c2d-48fe-8ea9-970e85035ca7","ios":"levelo://app?vid=ac9b89ac-7c2d-48fe-8ea9-970e85035ca7"},"vehicle_type_id":"4","last_reported":1704348608,"current_range_meters":26800,"station_id":"ce4bhf92rcd13ifvqf50","pricing_plan_id":"free"},{"bike_id":"5333d429-c492-4141-833e-e25831bd6000","system_id":"levelo_inurba_marseille","lat":43.279087,"lon":5.380114,"is_reserved":false,"is_disabled":false,"rental_uris":{"android":"levelo://app?vid=5333d429-c492-4141-833e-e25831bd6000","ios":"levelo://app?vid=5333d429-c492-4141-833e-e25831bd6000"},"vehicle_type_id":"4","last_reported":1704348608,"current_range_meters":28800,"station_id":"ce4bhf92rcd13ifvqf50","pricing_plan_id":"free"},{"bike_id":"9a814592-a047-47d2-b94a-9e434a6fc9ec","system_id":"levelo_inurba_marseille","lat":43.287154,"lon":5.399979,"is_reserved":false,"is_disabled":false,"rental_uris":{"android":"levelo://app?vid=9a814592-a047-47d2-b94a-9e434a6fc9ec","ios":"levelo://app?vid=9a814592-a047-47d2-b94a-9e434a6fc9ec"},"vehicle_type_id":"4","last_reported":1704348608,"current_range_meters":31200,"station_id":"ce4bho92rcd13ifvqh3g","pricing_plan_id":"free"},{"bike_id":"1d7d0b44-395f-4e21-af9d-8af1ed86a5aa","system_id":"levelo_inurba_marseille","lat":43.299579,"lon":5.413255,"is_reserved":false,"is_disabled":false,"rental_uris":{"android":"levelo://app?vid=1d7d0b44-395f-4e21-af9d-8af1ed86a5aa","ios":"levelo://app?vid=1d7d0b44-395f-4e21-af9d-8af1ed86a5aa"},"vehicle_type_id":"4","last_reported":1704348608,"current_range_meters":26000,"station_id":"ce4bhp12rcd13ifvqh9g","pricing_plan_id":"free"},{"bike_id":"e8ed6b2f-7a97-41bc-8088-d73da39a8b01","system_id":"levelo_inurba_marseille","lat":43.279742,"lon":5.38744,"is_reserved":false,"is_disabled":false,"rental_uris":{"android":"levelo://app?vid=e8ed6b2f-7a97-41bc-8088-d73da39a8b01","ios":"levelo://app?vid=e8ed6b2f-7a97-41bc-8088-d73da39a8b01"},"vehicle_type_id":"4","last_reported":1704348608,"current_range_meters":26400,"station_id":"ce4bhg12rcd13ifvqf80","pricing_plan_id":"free"},{"bike_id":"33888867-40f4-4481-a365-180a8dabc16e","system_id":"levelo_inurba_marseille","lat":43.292571,"lon":5.409107,"is_reserved":false,"is_disabled":false,"rental_uris":{"android":"levelo://app?vid=33888867-40f4-4481-a365-180a8dabc16e","ios":"levelo://app?vid=33888867-40f4-4481-a365-180a8dabc16e"},"vehicle_type_id":"4","last_reported":1704348608,"current_range_meters":7200,"station_id":"ce4bh192rcd13ifvqdc0","pricing_plan_id":"free"},{"bike_id":"daed1a10-5684-4e7b-ac05-a38a9363c91a","system_id":"levelo_inurba_marseille","lat":43.27618,"lon":5.361009,"is_reserved":false,"is_disabled":false,"rental_uris":{"android":"levelo://app?vid=daed1a10-5684-4e7b-ac05-a38a9363c91a","ios":"levelo://app?vid=daed1a10-5684-4e7b-ac05-a38a9363c91a"},"vehicle_type_id":"4","last_reported":1704348608,"current_range_meters":10000,"station_id":"ce4bgj92rcd13ifvqbe0","pricing_plan_id":"free"},{"bike_id":"410927ff-b9f5-401b-92ff-ca6dd7022bb0","system_id":"levelo_inurba_marseille","lat":43.325233,"lon":5.414318,"is_reserved":false,"is_disabled":false,"rental_uris":{"android":"levelo://app?vid=410927ff-b9f5-401b-92ff-ca6dd7022bb0","ios":"levelo://app?vid=410927ff-b9f5-401b-92ff-ca6dd7022bb0"},"vehicle_type_id":"4","last_reported":1704348608,"current_range_meters":29200,"station_id":"ce4bhq12rcd13ifvqhhg","pricing_plan_id":"free"},{"bike_id":"d3f25bcc-da64-44bb-8495-bf854b2f447f","system_id":"levelo_inurba_marseille","lat":43.324384,"lon":5.416561,"is_reserved":false,"is_disabled":false,"rental_uris":{"android":"levelo://app?vid=d3f25bcc-da64-44bb-8495-bf854b2f447f","ios":"levelo://app?vid=d3f25bcc-da64-44bb-8495-bf854b2f447f"},"vehicle_type_id":"4","last_reported":1704348608,"current_range_meters":18800,"station_id":"","pricing_plan_id":"free"},{"bike_id":"cce89fc2-8980-4e8a-91b4-3d474529ae07","system_id":"levelo_inurba_marseille","lat":43.280784,"lon":5.396622,"is_reserved":false,"is_disabled":false,"rental_uris":{"android":"levelo://app?vid=cce89fc2-8980-4e8a-91b4-3d474529ae07","ios":"levelo://app?vid=cce89fc2-8980-4e8a-91b4-3d474529ae07"},"vehicle_type_id":"4","last_reported":1704348608,"current_range_meters":15200,"station_id":"ce4bho12rcd13ifvqh2g","pricing_plan_id":"free"},{"bike_id":"878989f4-64e5-45eb-97fd-e2c865789826","system_id":"levelo_inurba_marseille","lat":43.280784,"lon":5.396622,"is_reserved":false,"is_disabled":false,"rental_uris":{"android":"levelo://app?vid=878989f4-64e5-45eb-97fd-e2c865789826","ios":"levelo://app?vid=878989f4-64e5-45eb-97fd-e2c865789826"},"vehicle_type_id":"4","last_reported":1704348608,"current_range_meters":29600,"station_id":"ce4bho12rcd13ifvqh2g","pricing_plan_id":"free"},{"bike_id":"ac382b67-00dc-468e-b0db-fb3fd65f489a","system_id":"levelo_inurba_marseille","lat":43.303496,"lon":5.418718,"is_reserved":false,"is_disabled":false,"rental_uris":{"android":"levelo://app?vid=ac382b67-00dc-468e-b0db-fb3fd65f489a","ios":"levelo://app?vid=ac382b67-00dc-468e-b0db-fb3fd65f489a"},"vehicle_type_id":"4","last_reported":1704348608,"current_range_meters":23200,"station_id":"ce4bhop2rcd13ifvqh7g","pricing_plan_id":"free"},{"bike_id":"16fdafdb-1e54-4f30-9a7e-f62c10d6f7e5","system_id":"levelo_inurba_marseille","lat":43.303837,"lon":5.418724,"is_reserved":false,"is_disabled":false,"rental_uris":{"android":"levelo://app?vid=16fdafdb-1e54-4f30-9a7e-f62c10d6f7e5","ios":"levelo://app?vid=16fdafdb-1e54-4f30-9a7e-f62c10d6f7e5"},"vehicle_type_id":"4","last_reported":1704348608,"current_range_meters":31200,"station_id":"ce4bhop2rcd13ifvqh7g","pricing_plan_id":"free"},{"bike_id":"959aac2e-1ed3-4778-9498-4d13c3e646c7","system_id":"levelo_inurba_marseille","lat":43.336134,"lon":5.410341,"is_reserved":false,"is_disabled":false,"rental_uris":{"android":"levelo://app?vid=959aac2e-1ed3-4778-9498-4d13c3e646c7","ios":"levelo://app?vid=959aac2e-1ed3-4778-9498-4d13c3e646c7"},"vehicle_type_id":"4","last_reported":1704348608,"current_range_meters":24400,"station_id":"ce4bhqh2rcd13ifvqhmg","pricing_plan_id":"free"},{"bike_id":"f45cfe6c-a41e-433b-bf03-cc60508fd616","system_id":"levelo_inurba_marseille","lat":43.336029,"lon":5.410266,"is_reserved":false,"is_disabled":false,"rental_uris":{"android":"levelo://app?vid=f45cfe6c-a41e-433b-bf03-cc60508fd616","ios":"levelo://app?vid=f45cfe6c-a41e-433b-bf03-cc60508fd616"},