{"last_updated":1739463114,"ttl":60,"version":"2.2","data":{"bikes":[{"bike_id":"429728a5-0d59-4ec8-b3fc-f089a25cd87f","system_id":"levelo_inurba_marseille","lat":43.29039,"lon":5.35917,"is_reserved":false,"is_disabled":false,"rental_uris":{"android":"levelo://app?vid=429728a5-0d59-4ec8-b3fc-f089a25cd87f","ios":"levelo://app?vid=429728a5-0d59-4ec8-b3fc-f089a25cd87f"},"vehicle_type_id":"4","last_reported":1739463115,"current_range_meters":34800,"station_id":"ce4bha92rcd13ifvqeg0","pricing_plan_id":"cebpf4jnsgd1na2vs0mg"},{"bike_id":"430f2ab6-41b0-48a5-b426-3ea624246672","system_id":"levelo_inurba_marseille","lat":43.29266,"lon":5.38433,"is_reserved":false,"is_disabled":false,"rental_uris":{"android":"levelo://app?vid=430f2ab6-41b0-48a5-b426-3ea624246672","ios":"levelo://app?vid=430f2ab6-41b0-48a5-b426-3ea624246672"},"vehicle_type_id":"4","last_reported":1739463115,"current_range_meters":10800,"station_id":"ce4bh692rcd13ifvqea0","pricing_plan_id":"cebpf4jnsgd1na2vs0mg"},{"bike_id":"fabe0dc0-e9b8-4510-811e-856b5cccb082","system_id":"levelo_inurba_marseille","lat":43.25505,"lon":5.37647,"is_reserved":false,"is_disabled":true,"rental_uris":{"android":"levelo://app?vid=fabe0dc0-e9b8-4510-811e-856b5cccb082","ios":"levelo://app?vid=fabe0dc0-e9b8-4510-811e-856b5cccb082"},"vehicle_type_id":"4","last_reported":1739463115,"current_range_meters":3600,"station_id":"ce4bhh12rcd13ifvqff0","pricing_plan_id":"cebpf4jnsgd1na2vs0mg"},{"bike_id":"9b4398fa-3f62-413a-aaad-cf603add37f9","system_id":"levelo_inurba_marseille","lat":43.27368,"lon":5.36258,"is_reserved":false,"is_disabled":true,"rental_uris":{"android":"levelo://app?vid=9b4398fa-3f62-413a-aaad-cf603add37f9","ios":"levelo://app?vid=9b4398fa-3f62-413a-aaad-cf603add37f9"},"vehicle_type_id":"4","last_reported":1739463115,"current_range_meters":400,"station_id":"ce4bhbh2rcd13ifvqeo0","pricing_plan_id":"cebpf4jnsgd1na2vs0mg"},{"bike_id":"cb3d678d-765e-44ae-86a1-4d63921b67e6","system_id":"levelo_inurba_marseille","lat":43.31369,"lon":5.38493,"is_reserved":false,"is_disabled":false,"rental_uris":{"android":"levelo://app?vid=cb3d678d-765e-44ae-86a1-4d63921b67e6","ios":"levelo://app?vid=cb3d678d-765e-44ae-86a1-4d63921b67e6"},"vehicle_type_id":"4","last_reported":1739463115,"current_range_meters":32400,"station_id":"ce4bgt92rcd13ifvqcf0","pricing_plan_id":"cebpf4jnsgd1na2vs0mg"},{"bike_id":"88a592cd-0059-4f8c-a531-2f0e60f1a1ea","system_id":"levelo_inurba_marseille","lat":43.28399,"lon":5.37508,"is_reserved":false,"is_disabled":false,"rental_uris":{"android":"levelo://app?vid=88a592cd-0059-4f8c-a531-2f0e60f1a1ea","ios":"levelo://app?vid=88a592cd-0059-4f8c-a531-2f0e60f1a1ea"},"vehicle_type_id":"4","last_reported":1739463115,"current_range_meters":17200,"station_id":"ce4bh412rcd13ifvqds0","pricing_plan_id":"cebpf4jnsgd1na2vs0mg"},{"bike_id":"8f22e090-8a1e-4881-99f1-3f190cc41710","system_id":"levelo_inurba_marseille","lat":43.31728,"lon":5.42401,"is_reserved":false,"is_disabled":false,"rental_uris":{"android":"levelo://app?vid=8f22e090-8a1e-4881-99f1-3f190cc41710","ios":"levelo://app?vid=8f22e090-8a1e-4881-99f1-3f190cc41710"},"vehicle_type_id":"4","last_reported":1739463115,"current_range_meters":32400,"station_id":"ce4bhp92rcd13ifvqhbg","pricing_plan_id":"cebpf4jnsgd1na2vs0mg"},{"bike_id":"35c96b0b-eb3c-4787-a379-c8c27196e8bc","system_id":"levelo_inurba_marseille","lat":43.32496,"lon":5.36597,"is_reserved":false,"is_disabled":false,"rental_uris":{"android":"levelo://app?vid=35c96b0b-eb3c-4787-a379-c8c27196e8bc","ios":"levelo://app?vid=35c96b0b-eb3c-4787-a379-c8c27196e8bc"},"vehicle_type_id":"4","last_reported":1739463115,"current_range_meters":38800,"station_id":"ce4bhs12rcd13ifvqhvg","pricing_plan_id":"cebpf4jnsgd1na2vs0mg"},{"bike_id":"1d4165b9-e8af-42e7-8e88-54a0f84b4f26","system_id":"levelo_inurba_marseille","lat":43.23195,"lon":5.39978,"is_reserved":false,"is_disabled":false,"rental_uris":{"android":"levelo://app?vid=1d4165b9-e8af-42e7-8e88-54a0f84b4f26","ios":"levelo://app?vid=1d4165b9-e8af-42e7-8e88-54a0f84b4f26"},"vehicle_type_id":"4","last_reported":1739463115,"current_range_meters":34800,"station_id":"ce4bhn12rcd13ifvqgqg","pricing_plan_id":"cebpf4jnsgd1na2vs0mg"},{"bike_id":"f6ef4f9a-c914-4d4b-a06e-00485b64285e","system_id":"levelo_inurba_marseille","lat":43.32486,"lon":5.36577,"is_reserved":false,"is_disabled":false,"rental_uris":{"android":"levelo://app?vid=f6ef4f9a-c914-4d4b-a06e-00485b64285e","ios":"levelo://app?vid=f6ef4f9a-c914-4d4b-a06e-00485b64285e"},"vehicle_type_id":"4","last_reported":1739463115,"current_range_meters":38800,"station_id":"ce4bhs12rcd13ifvqhvg","pricing_plan_id":"cebpf4jnsgd1na2vs0mg"},{"bike_id":"e238aec4-306f-4def-b044-a0dc1f67d10d","system_id":"levelo_inurba_marseille","lat":43.30085,"lon":5.39068,"is_reserved":false,"is_disabled":false,"rental_uris":{"android":"levelo://app?vid=e238aec4-306f-4def-b044-a0dc1f67d10d","ios":"levelo://app?vid=e238aec4-306f-4def-b044-a0dc1f67d10d"},"vehicle_type_id":"4","last_reported":1739463115,"current_range_meters":30800,"station_id":"ce4bh192rcd13ifvqdb0","pricing_plan_id":"cebpf4jnsgd1na2vs0mg"},{"bike_id":"bbb2097f-1c15-4581-beb5-ee0c580691bf","system_id":"levelo_inurba_marseille","lat":43.27367,"lon":5.36254,"is_reserved":false,"is_disabled":false,"rental_uris":{"android":"levelo://app?vid=bbb2097f-1c15-4581-beb5-ee0c580691bf","ios":"levelo://app?vid=bbb2097f-1c15-4581-beb5-ee0c580691bf"},"vehicle_type_id":"4","last_reported":1739463115,"current_range_meters":8000,"station_id":"ce4bhbh2rcd13ifvqeo0","pricing_plan_id":"cebpf4jnsgd1na2vs0mg"},{"bike_id":"8390feee-0735-4b8f-90c8-f81c741ca7d5","system_id":"levelo_inurba_marseille","lat":43.24812,"lon":5.37459,"is_reserved":false,"is_disabled":false,"rental_uris":{"android":"levelo://app?vid=8390feee-0735-4b8f-90c8-f81c741ca7d5","ios":"levelo://app?vid=8390feee-0735-4b8f-90c8-f81c741ca7d5"},"vehicle_type_id":"4","last_reported":1739463115,"current_range_meters":38000,"station_id":"ce4bhgh2rcd13ifvqfb0","pricing_plan_id":"cebpf4jnsgd1na2vs0mg"},{"bike_id":"3c66f6ae-b42b-4cb6-b260-b1090ac184fa","system_id":"levelo_inurba_marseille","lat":43.29783,"lon":5.39344,"is_reserved":false,"is_disabled":false,"rental_uris":{"android":"levelo://app?vid=3c66f6ae-b42b-4cb6-b260-b1090ac184fa","ios":"levelo://app?vid=3c66f6ae-b42b-4cb6-b260-b1090ac184fa"},"vehicle_type_id":"4","last_reported":1739463115,"current_range_meters":6400,"station_id":"chh1huq6cuj3fo74tm60","pricing_plan_id":"cebpf4jnsgd1na2vs0mg"},{"bike_id":"dab57a6a-a27a-4b67-9a25-7d1e3af86e7a","system_id":"levelo_inurba_marseille","lat":43.31363,"lon":5.38502,"is_reserved":false,"is_disabled":false,"rental_uris":{"android":"levelo://app?vid=dab57a6a-a27a-4b67-9a25-7d1e3af86e7a","ios":"levelo://app?vid=dab57a6a-a27a-4b67-9a25-7d1e3af86e7a"},"vehicle_type_id":"4","last_reported":1739463115,"current_range_meters":14400,"station_id":"ce4bgt92rcd13ifvqcf0","pricing_plan_id":"cebpf4jnsgd1na2vs0mg"},{"bike_id":"69a08bb2-d289-44af-84b5-9cf51920d0e2","system_id":"levelo_inurba_marseille","lat":43.28497,"lon":5.38577,"is_reserved":false,"is_disabled":false,"rental_uris":{"android":"levelo://app?vid=69a08bb2-d289-44af-84b5-9cf51920d0e2","ios":"levelo://app?vid=69a08bb2-d289-44af-84b5-9cf51920d0e2"},"vehicle_type_id":"4","last_reported":1739463115,"current_range_meters":22800,"station_id":"ce4bh8p2rcd13ifvqeb0","pricing_plan_id":"cebpf4jnsgd1na2vs0mg"},{"bike_id":"1facaff9-cd9d-44f8-8411-f7de3bfc2a18","system_id":"levelo_inurba_marseille","lat":43.31725,"lon":5.42408,"is_reserved":false,"is_disabled":false,"rental_uris":{"android":"levelo://app?vid=1facaff9-cd9d-44f8-8411-f7de3bfc2a18","ios":"levelo://app?vid=1facaff9-cd9d-44f8-8411-f7de3bfc2a18"},"vehicle_type_id":"4","last_reported":1739463115,"current_range_meters":39200,"station_id":"ce4bhp92rcd13ifvqhbg","pricing_plan_id":"cebpf4jnsgd1na2vs0mg"},{"bike_id":"ac2f5c21-615f-4f60-8b2b-9954adc8ad1d","system_id":"levelo_inurba_marseille","lat":43.29851,"lon":5.36288,"is_reserved":false,"is_disabled":false,"rental_uris":{"android":"levelo://app?vid=ac2f5c21-615f-4f60-8b2b-9954adc8ad1d","ios":"levelo://app?vid=ac2f5c21-615f-4f60-8b2b-9954adc8ad1d"},"vehicle_type_id":"4","last_reported":1739463115,"current_range_meters":38800,"station_id":"ce4bgpp2rcd13ifvqc3g","pricing_plan_id":"cebpf4jnsgd1na2vs0mg"},{"bike_id":"5089f8f7-36e2-49ff-9ad9-857a39125698","system_id":"levelo_inurba_marseille","lat":43.2904,"lon":5.35927,"is_reserved":false,"is_disabled":false,"rental_uris":{"android":"levelo://app?vid=5089f8f7-36e2-49ff-9ad9-857a39125698","ios":"levelo://app?vid=5089f8f7-36e2-49ff-9ad9-857a39125698"},"vehicle_type_id":"4","last_reported":1739463115,"current_range_meters":38800,"station_id":"ce4bha92rcd13ifvqeg0","pricing_plan_id":"cebpf4jnsgd1na2vs0mg"},{"bike_id":"99811143-a1f2-4e55-bdd8-cb475da138ae","system_id":"levelo_inurba_marseille","lat":43.2962,"lon":5.37169,"is_reserved":false,"is_disabled":false,"rental_uris":{"android":"levelo://app?vid=99811143-a1f2-4e55-bdd8-cb475da138ae","ios":"levelo://app?vid=99811143-a1f2-4e55-bdd8-cb475da138ae"},"vehicle_type_id":"4","last_reported":1739463115,"current_range_meters":25600,"station_id":"ce4bgnh2rcd13ifvqc0g","pricing_plan_id":"cebpf4jnsgd1na2vs0mg"},{"bike_id":"39e55a90-fe76-4904-bf9c-9841fe168f13","system_id":"levelo_inurba_marseille","lat":43.33727,"lon":5.39174,"is_reserved":false,"is_disabled":false,"rental_uris":{"android":"levelo://app?vid=39e55a90-fe76-4904-bf9c-9841fe168f13","ios":"levelo://app?vid=39e55a90-fe76-4904-bf9c-9841fe168f13"},"vehicle_type_id":"4","last_reported":1739463115,"current_range_meters":37600,"station_id":"ce4bhr92rcd13ifvqhsg","pricing_plan_id":"cebpf4jnsgd1na2vs0mg"},{"bike_id":"7b830c89-3a1c-4014-a605-109efca81479","system_id":"levelo_inurba_marseille","lat":43.27691,"lon":5.38875,"is_reserved":false,"is_disabled":false,"rental_uris":{"android":"levelo://app?vid=7b830c89-3a1c-4014-a605-109efca81479","ios":"levelo://app?vid=7b830c89-3a1c-4014-a605-109efca81479"},"vehicle_type_id":"4","last_reported":1739463115,"current_range_meters":38800,"station_id":"ce4bhi12rcd13ifvqfo0","pricing_plan_id":"cebpf4jnsgd1na2vs0mg"},{"bike_id":"74eed58f-1fd9-4ea4-a6c5-9ec97791fe06","system_id":"levelo_inurba_marseille","lat":43.28108,"lon":5.37835,"is_reserved":false,"is_disabled":false,"rental_uris":{"android":"levelo://app?vid=74eed58f-1fd9-4ea4-a6c5-9ec97791fe06","ios":"levelo://app?vid=74eed58f-1fd9-4ea4-a6c5-9ec97791fe06"},"vehicle_type_id":"4","last_reported":1739463115,"current_range_meters":39200,"station_id":"ce4bha12rcd13ifvqee0","pricing_plan_id":"cebpf4jnsgd1na2vs0mg"},{"bike_id":"758d0ad7-35b5-4bce-8a19-52c4c5dd7f70","system_id":"levelo_inurba_marseille","lat":43.28482,"lon":5.38411,"is_reserved":false,"is_disabled":false,"rental_uris":{"android":"levelo://app?vid=758d0ad7-35b5-4bce-8a19-52c4c5dd7f70","ios":"levelo://app?vid=758d0ad7-35b5-4bce-8a19-52c4c5dd7f70"},"vehicle_type_id":"4","last_reported":1739463115,"current_range_meters":16800,"station_id":"ce4bh512rcd13ifvqe3g","pricing_plan_id":"cebpf4jnsgd1na2vs0mg"},{"bike_id":"1cbbcd7f-c24c-4cd6-b8ee-c894450a9ac1","system_id":"levelo_inurba_marseille","lat":43.34144,"lon":5.40901,"is_reserved":false,"is_disabled":false,"rental_uris":{"android":"levelo://app?vid=1cbbcd7f-c24c-4cd6-b8ee-c894450a9ac1","ios":"levelo://app?vid=1cbbcd7f-c24c-4cd6-b8ee-c894450a9ac1"},"vehicle_type_id":"4","last_reported":1739463115,"current_range_meters":30000,"station_id":"ce4bhqh2rcd13ifvqhlg","pricing_plan_id":"cebpf4jnsgd1na2vs0mg"},{"bike_id":"490eb482-cacf-42b4-9550-9ad0f92fdb65","system_id":"levelo_inurba_marseille","lat":43.31721,"lon":5.42408,"is_reserved":false,"is_disabled":false,"rental_uris":{"android":"levelo://app?vid=490eb482-cacf-42b4-9550-9ad0f92fdb65","ios":"levelo://app?vid=490eb482-cacf-42b4-9550-9ad0f92fdb65"},"vehicle_type_id":"4","last_reported":1739463115,"current_range_meters":36400,"station_id":"ce4bhp92rcd13ifvqhbg","pricing_plan_id":"cebpf4jnsgd1na2vs0mg"},{"bike_id":"8054137f-c573-408f-9225-3700b33ee09c","system_id":"levelo_inurba_marseille","lat":43.30316,"lon":5.36918,"is_reserved":false,"is_disabled":false,"rental_uris":{"android":"levelo://app?vid=8054137f-c573-408f-9225-3700b33ee09c","ios":"levelo://app?vid=8054137f-c573-408f-9225-3700b33ee09c"},"vehicle_type_id":"4","last_reported":1739463115,"current_range_meters":14400,"station_id":"ce4bgqh2rcd13ifvqc5g","pricing_plan_id":"cebpf4jnsgd1na2vs0mg"},{"bike_id":"b027a2c1-d832-46c9-8cb6-7776ea2ba547","system_id":"levelo_inurba_marseille","lat":43.2707,"lon":5.42285,"is_reserved":false,"is_disabled":false,"rental_uris":{"android":"levelo://app?vid=b027a2c1-d832-46c9-8cb6-7776ea2ba547","ios":"levelo://app?vid=b027a2c1-d832-46c9-8cb6-7776ea2ba547"},"vehicle_type_id":"4","last_reported":1739463115,"current_range_meters":6800,"station_id":"ce4bhk92rcd13ifvqgb0","pricing_plan_id":"cebpf4jnsgd1na2vs0mg"},{"bike_id":"7eb1d24d-a52a-4169-93d3-46580de34020","system_id":"levelo_inurba_marseille","lat":43.29738,"lon":5.37692,"is_reserved":false,"is_disabled":false,"rental_uris":{"android":"levelo://app?vid=7eb1d24d-a52a-4169-93d3-46580de34020","ios":"levelo://app?vid=7eb1d24d-a52a-4169-93d3-46580de34020"},"vehicle_type_id":"4","last_reported":1739463115,"current_range_meters":37600,"station_id":"ce4bgkh2rcd13ifvqbl0","pricing_plan_id":"cebpf4jnsgd1na2vs0mg"},{"bike_id":"4004e863-e0ca-4122-9424-ab9f70e142e6","system_id":"levelo_inurba_marseille","lat":43.31677,"lon":5.39635,"is_reserved":false,"is_disabled":false,"rental_uris":{"android":"levelo://app?vid=4004e863-e0ca-4122-9424-ab9f70e142e6","ios":"levelo://app?vid=4004e863-e0ca-4122-9424-ab9f70e142e6"},"vehicle_type_id":"4","last_reported":1739463115,"current_range_meters":26800,"station_id":"","pricing_plan_id":"cebpf4jnsgd1na2vs0mg"},{"bike_id":"372ff855-827a-440d-905b-8297d4d106b9","system_id":"levelo_inurba_marseille","lat":43.30443,"lon":5.3888,"is_reserved":false,"is_disabled":false,"rental_uris":{"android":"levelo://app?vid=372ff855-827a-440d-905b-8297d4d106b9","ios":"levelo://app?vid=372ff855-827a-440d-905b-8297d4d106b9"},"vehicle_type_id":"4","last_reported":1739463115,"current_range_meters":16000,"station_id":"ce4bgk12rcd13ifvqbi0","pricing_plan_id":"cebpf4jnsgd1na2vs0mg"},{"bike_id":"81947777-c9c7-4d65-af00-5c35342e1dcf","system_id":"levelo_inurba_marseille","lat":43.28465,"lon":5.38429,"is_reserved":false,"is_disabled":false,"rental_uris":{"android":"levelo://app?vid=81947777-c9c7-4d65-af00-5c35342e1dcf","ios":"levelo://app?vid=81947777-c9c7-4d65-af00-5c35342e1dcf"},"vehicle_type_id":"4","last_reported":1739463115,"current_range_meters":27200,"station_id":"ce4bh512rcd13ifvqe3g","pricing_plan_id":"cebpf4jnsgd1na2vs0mg"},{"bike_id":"e971a1e1-f579-417c-8374-dba782041644","system_id":"levelo_inurba_marseille","lat":43.31329,"lon":5.39694,"is_reserved":false,"is_disabled":false,"rental_uris":{"android":"levelo://app?vid=e971a1e1-f579-417c-8374-dba782041644","ios":"levelo://app?vid=e971a1e1-f579-417c-8374-dba782041644"},"vehicle_type_id":"4","last_reported":1739463115,"current_range_meters":39200,"station_id":"ce4bgvp2rcd13ifvqcu0","pricing_plan_id":"cebpf4jnsgd1na2vs0mg"},{"bike_id":"03f1ee11-be7f-45e6-a171-a893130e88b6","system_id":"levelo_inurba_marseille","lat":43.28999,"lon":5.35619,"is_reserved":false,"is_disabled":true,"rental_uris":{"android":"levelo://app?vid=03f1ee11-be7f-45e6-a171-a893130e88b6","ios":"levelo://app?vid=03f1ee11-be7f-45e6-a171-a893130e88b6"},"vehicle_type_id":"4","last_reported":1739463115,"current_range_meters":38800,"station_id":"ce4bhb92rcd13ifvqen0","pricing_plan_id":"cebpf4jnsgd1na2vs0mg"},{"bike_id":"704ec19d-e7c0-4858-a423-dcfa560220a5","system_id":"levelo_inurba_marseille","lat":43.23205,"lon":5.39934,"is_reserved":false,"is_disabled":false,"rental_uris":{"android":"levelo://app?vid=704ec19d-e7c0-4858-a423-dcfa560220a5","ios":"levelo://app?vid=704ec19d-e7c0-4858-a423-dcfa560220a5"},"vehicle_type_id":"4","last_reported":1739463115,"current_range_meters":36400,"station_id":"ce4bhn12rcd13ifvqgqg","pricing_plan_id":"cebpf4jnsgd1na2vs0mg"},{"bike_id":"d03fd050-9a6d-46be-8cb2-6edf5590ccee","system_id":"levelo_inurba_marseille","lat":43.27208,"lon":5.39176,"is_reserved":false,"is_disabled":false,"rental_uris":{"android":"levelo://app?vid=d03fd050-9a6d-46be-8cb2-6edf5590ccee","ios":"levelo://app?vid=d03fd050-9a6d-46be-8cb2-6edf5590ccee"},"vehicle_type_id":"4","last_reported":1739463115,"current_range_meters":37600,"station_id":"ce4bhhp2rcd13ifvqfm0","pricing_plan_id":"cebpf4jnsgd1na2vs0mg"},{"bike_id":"63b91741-fa3b-43a5-a288-ff9d16d3d19d","system_id":"levelo_inurba_marseille","lat":43.32048,"lon":5.41542,"is_reserved":false,"is_disabled":false,"rental_uris":{"android":"levelo://app?vid=63b91741-fa3b-43a5-a288-ff9d16d3d19d","ios":"levelo://app?vid=63b91741-fa3b-43a5-a288-ff9d16d3d19d"},"vehicle_type_id":"4","last_reported":1739463115,"current_range_meters":38000,"station_id":"ce4bhq92rcd13ifvqhkg","pricing_plan_id":"cebpf4jnsgd1na2vs0mg"},{"bike_id":"9cf8e6d9-67b8-441b-8ab4-08ef8560d2b0","system_id":"levelo_inurba_marseille","lat":43.33523,"lon":5.35588,"is_reserved":false,"is_disabled":true,"rental_uris":{"android":"levelo://app?vid=9cf8e6d9-67b8-441b-8ab4-08ef8560d2b0","ios":"levelo://app?vid=9cf8e6d9-67b8-441b-8ab4-08ef8560d2b0"},"vehicle_type_id":"4","last_reported":1739463115,"current_range_meters":0,"station_id":"","pricing_plan_id":"cebpf4jnsgd1na2vs0mg"},{"bike_id":"3226c827-c420-40fd-99e2-052d056d0a7d","system_id":"levelo_inurba_marseille","lat":43.24809,"lon":5.3746,"is_reserved":false,"is_disabled":false,"rental_uris":{"android":"levelo://app?vid=3226c827-c420-40fd-99e2-052d056d0a7d","ios":"levelo://app?vid=3226c827-c420-40fd-99e2-052d056d0a7d"},"vehicle_type_id":"4","last_reported":1739463115,"current_range_meters":24000,"station_id":"ce4bhgh2rcd13ifvqfb0","pricing_plan_id":"cebpf4jnsgd1na2vs0mg"},{"bike_id":"fa7e710b-b820-4cb5-ba38-1d9d5ffe4c64","system_id":"levelo_inurba_marseille","lat":43.29077,"lon":5.37156,"is_reserved":false,"is_disabled":false,"rental_uris":{"android":"levelo://app?vid=fa7e710b-b820-4cb5-ba38-1d9d5ffe4c64","ios":"levelo://app?vid=fa7e710b-b820-4cb5-ba38-1d9d5ffe4c64"},"vehicle_type_id":"4","last_reported":1739463115,"current_range_meters":36400,"station_id":"ce4bh5p2rcd13ifvqe4g","pricing_plan_id":"cebpf4jnsgd1na2vs0mg"},{"bike_id":"b076ea8e-2467-4754-a660-35beb44a3d2f","system_id":"levelo_inurba_marseille","lat":43.23961,"lon":5.36628,"is_reserved":false,"is_disabled":false,"rental_uris":{"android":"levelo://app?vid=b076ea8e-2467-4754-a660-35beb44a3d2f","ios":"levelo://app?vid=b076ea8e-2467-4754-a660-35beb44a3d2f"},"vehicle_type_id":"4","last_reported":1739463115,"current_range_meters":32400,"station_id":"ce4bhi12rcd13ifvqfp0","pricing_plan_id":"cebpf4jnsgd1na2vs0mg"},{"bike_id":"af07c7eb-c636-4be3-9e8e-4133c0ae1ee9","system_id":"levelo_inurba_marseille","lat":43.31723,"lon":5.42406,"is_reserved":false,"is_disabled":false,"rental_uris":{"android":"levelo://app?vid=af07c7eb-c636-4be3-9e8e-4133c0ae1ee9","ios":"levelo://app?vid=af07c7eb-c636-4be3-9e8e-4133c0ae1ee9"},"vehicle_type_id":"4","last_reported":1739463115,"current_range_meters":38000,"station_id":"ce4bhp92rcd13ifvqhbg","pricing_plan_id":"cebpf4jnsgd1na2vs0mg"},{"bike_id":"4c1ec9e1-2cbd-4143-8e57-04cb7e5f6324","system_id":"levelo_inurba_marseille","lat":43.32025,"lon":5.41554,"is_reserved":false,"is_disabled":false,"rental_uris":{"android":"levelo://app?vid=4c1ec9e1-2cbd-4143-8e57-04cb7e5f6324","ios":"levelo://app?vid=4c1ec9e1-2cbd-4143-8e57-04cb7e5f6324"},"vehicle_type_id":"4","last_reported":1739463115,"current_range_meters":25200,"station_id":"ce4bhq92rcd13ifvqhkg","pricing_plan_id":"cebpf4jnsgd1na2vs0mg"},{"bike_id":"7e5520a4-2922-4ff8-9b47-91c4e8c21ca4","system_id":"levelo_inurba_marseille","lat":43.24647,"lon":5.38897,"is_reserved":false,"is_disabled":false,"rental_uris":{"android":"levelo://app?vid=7e5520a4-2922-4ff8-9b47-91c4e8c21ca4","ios":"levelo://app?vid=7e5520a4-2922-4ff8-9b47-91c4e8c21ca4"},"vehicle_type_id":"4","last_reported":1739463115,"current_range_meters":38800,"station_id":"ce4bhg12rcd13ifvqf60","pricing_plan_id":"cebpf4jnsgd1na2vs0mg"},{"bike_id":"69dbbc8e-770a-4165-929c-b9faba648fad","system_id":"levelo_inurba_marseille","lat":43.29963,"lon":5.38505,"is_reserved":false,"is_disabled":false,"rental_uris":{"android":"levelo://app?vid=69dbbc8e-770a-4165-929c-b9faba648fad","ios":"levelo://app?vid=69dbbc8e-770a-4165-929c-b9faba648fad"},"vehicle_type_id":"4","last_reported":1739463115,"current_range_meters":20800,"station_id":"ce4bgj92rcd13ifvqbd0","pricing_plan_id":"cebpf4jnsgd1na2vs0mg"},{"bike_id":"a80428b6-0b19-4dc2-b7f8-ca823144bf9d","system_id":"levelo_inurba_marseille","lat":43.27616,"lon":5.36105,"is_reserved":false,"is_disabled":false,"rental_uris":{"android":"levelo://app?vid=a80428b6-0b19-4dc2-b7f8-ca823144bf9d","ios":"levelo://app?vid=a80428b6-0b19-4dc2-b7f8-ca823144bf9d"},"vehicle_type_id":"4","last_reported":1739463115,"current_range_meters":26000,"station_id":"ce4bgj92rcd13ifvqbe0","pricing_plan_id":"cebpf4jnsgd1na2vs0mg"},{"bike_id":"b5c1d80c-45ed-4086-b3a0-781533a7b783","system_id":"levelo_inurba_marseille","lat":43.25869,"lon":5.39898,"is_reserved":false,"is_disabled":true,"rental_uris":{"android":"levelo://app?vid=b5c1d80c-45ed-4086-b3a0-781533a7b783","ios":"levelo://app?vid=b5c1d80c-45ed-4086-b3a0-781533a7b783"},"vehicle_type_id":"4","last_reported":1739463115,"current_range_meters":0,"station_id":"ce4bhl92rcd13ifvqghg","pricing_plan_id":"cebpf4jnsgd1na2vs0mg"},{"bike_id":"51ab7186-5043-4bed-baca-73708608a302","system_id":"levelo_inurba_marseille","lat":43.29584,"lon":5.37026,"is_reserved":false,"is_disabled":true,"rental_uris":{"android":"levelo://app?vid=51ab7186-5043-4bed-baca-73708608a302","ios":"levelo://app?vid=51ab7186-5043-4bed-baca-73708608a302"},"vehicle_type_id":"4","last_reported":1739463115,"current_range_meters":0,"station_id":"","pricing_plan_id":"cebpf4jnsgd1na2vs0mg"},{"bike_id":"d3fc5f7e-9983-4343-a9af-f36df7d45f29","system_id":"levelo_inurba_marseille","lat":43.23193,"lon":5.39976,"is_reserved":false,"is_disabled":false,"rental_uris":{"android":"levelo://app?vid=d3fc5f7e-9983-4343-a9af-f36df7d45f29","ios":"levelo://app?vid=d3fc5f7e-9983-4343-a9af-f36df7d45f29"},"vehicle_type_id":"4","last_reported":1739463115,"current_range_meters":24000,"station_id":"ce4bhn12rcd13ifvqgqg","pricing_plan_id":"cebpf4jnsgd1na2vs0mg"},{"bike_id":"d01cfddf-7881-4b7c-815e-f570bddc475f","system_id":"levelo_inurba_marseille","lat":43.27946,"lon":5.41052,"is_reserved":false,"is_disabled":true,"rental_uris":{"android":"levelo://app?vid=d01cfddf-7881-4b7c-815e-f570bddc475f","ios":"levelo://app?vid=d01cfddf-7881-4b7c-815e-f570bddc475f"},"vehicle_type_id":"4","last_reported":1739463115,"current_range_meters":1600,"station_id":"ce4bhnp2rcd13ifvqh0g","pricing_plan_id":"cebpf4jnsgd1na2vs0mg"},{"bike_id":"48b9bfa7-0244-4064-82ca-4997fd164f91","system_id":"levelo_inurba_marseille","lat":43.27317,"lon":5.39081,"is_reserved":false,"is_disabled":false,"rental_uris":{"android":"levelo://app?vid=48b9bfa7-0244-4064-82ca-4997fd164f91","ios":"levelo://app?vid=48b9bfa7-0244-4064-82ca-4997fd164f91"},"vehicle_type_id":"4","last_reported":1739463115,"current_range_meters":10800,"station_id":"ce4bhgp2rcd13ifvqfe0","pricing_plan_id":"cebpf4jnsgd1na2vs0mg"},{"bike_id":"533e6cd1-6e14-49bd-bce6-9bad7d0e5064","system_id":"levelo_inurba_marseille","lat":43.29523,"lon":5.3904,"is_reserved":false,"is_disabled":false,"rental_uris":{"android":"levelo://app?vid=533e6cd1-6e14-49bd-bce6-9bad7d0e5064","ios":"levelo://app?vid=533e6cd1-6e14-49bd-bce6-9bad7d0e5064"},"vehicle_type_id":"4","last_reported":1739463115,"current_range_meters":38800,"station_id":"ce4bh3p2rcd13ifvqdp0","pricing_plan_id":"cebpf4jnsgd1na2vs0mg"},{"bike_id":"5ebd5db9-a566-4a1d-9883-36559b682201","system_id":"levelo_inurba_marseille","lat":43.2481,"lon":5.37443,"is_reserved":false,"is_disabled":false,"rental_uris":{"android":"levelo://app?vid=5ebd5db9-a566-4a1d-9883-36559b682201","ios":"levelo://app?vid=5ebd5db9-a566-4a1d-9883-36559b682201"},"vehicle_type_id":"4","last_reported":1739463115,"current_range_meters":24000,"station_id":"ce4bhgh2rcd13ifvqfb0","pricing_plan_id":"cebpf4jnsgd1na2vs0mg"},{"bike_id":"1ae7a399-66ab-49c2-9f82-374b44da4abc","system_id":"levelo_inurba_marseille","lat":43.2315,"lon":5.43708,"is_reserved":false,"is_disabled":false,"rental_uris":{"android":"levelo://app?vid=1ae7a399-66ab-49c2-9f82-374b44da4abc","ios":"levelo://app?vid=1ae7a399-66ab-49c2-9f82-374b44da4abc"},"vehicle_type_id":"4","last_reported":1739463115,"current_range_meters":9600,"station_id":"ce4bhmp2rcd13ifvqgog","pricing_plan_id":"cebpf4jnsgd1na2vs0mg"},{"bike_id":"e41af329-cfdd-4fad-9d08-393ddfe48d59","system_id":"levelo_inurba_marseille","lat":43.26554,"lon":5.37284,"is_reserved":false,"is_disabled":false,"rental_uris":{"android":"levelo://app?vid=e41af329-cfdd-4fad-9d08-393ddfe48d59","ios":"levelo://app?vid=e41af329-cfdd-4fad-9d08-393ddfe48d59"},"vehicle_type_id":"4","last_reported":1739463115,"current_range_meters":21600,"station_id":"ce4bhg12rcd13ifvqf70","pricing_plan_id":"cebpf4jnsgd1na2vs0mg"},{"bike_id":"ee079ffa-4416-4a91-bc98-3bd665acea3b","system_id":"levelo_inurba_marseille","lat":43.33729,"lon":5.39197,"is_reserved":false,"is_disabled":false,"rental_uris":{"android":"levelo://app?vid=ee079ffa-4416-4a91-bc98-3bd665acea3b","ios":"levelo://app?vid=ee079ffa-4416-4a91-bc98-3bd665acea3b"},"vehicle_type_id":"4","last_reported":1739463115,"current_range_meters":38800,"station_id":"ce4bhr92rcd13ifvqhsg","pricing_plan_id":"cebpf4jnsgd1na2vs0mg"},{"bike_id":"1fa82dc6-47d4-4356-bbca-393bf4461726","system_id":"levelo_inurba_marseille","lat":43.23963,"lon":5.36625,"is_reserved":false,"is_disabled":false,"rental_uris":{"android":"levelo://app?vid=1fa82dc6-47d4-4356-bbca-393bf4461726","ios":"levelo://app?vid=1fa82dc6-47d4-4356-bbca-393bf4461726"},"vehicle_type_id":"4","last_reported":1739463115,"current_range_meters":38800,"station_id":"ce4bhi12rcd13ifvqfp0","pricing_plan_id":"cebpf4jnsgd1na2vs0mg"},{"bike_id":"2355c6e5-09c3-4950-a7a8-dbebf456e6b5","system_id":"levelo_inurba_marseille","lat":43.30786,"lon":5.36638,"is_reserved":false,"is_disabled":false,"rental_uris":{"android":"levelo://app?vid=2355c6e5-09c3-4950-a7a8-dbebf456e6b5","ios":"levelo://app?vid=2355c6e5-09c3-4950-a7a8-dbebf456e6b5"},"vehicle_type_id":"4","last_reported":1739463115,"current_range_meters":22400,"station_id":"","pricing_plan_id":"cebpf4jnsgd1na2vs0mg"},{"bike_id":"f883adf9-ab19-45e2-ba0c-a67d68e9282a","system_id":"levelo_inurba_marseille","lat":43.24547,"lon":5.39525,"is_reserved":false,"is_disabled":false,"rental_uris":{"android":"levelo://app?vid=f883adf9-ab19-45e2-ba0c-a67d68e9282a","ios":"levelo://app?vid=f883adf9-ab19-45e2-ba0c-a67d68e9282a"},"vehicle_type_id":"4","last_reported":1739463115,"current_range_meters":24800,"station_id":"ce4bhlp2rcd13ifvqgjg","pricing_plan_id":"cebpf4jnsgd1na2vs0mg"},{"bike_id":"93cabce3-58dd-4607-8727-b622e6b7f5b9","system_id":"levelo_inurba_marseille","lat":43.2439,"lon":5.3705,"is_reserved":false,"is_disabled":false,"rental_uris":{"android":"levelo://app?vid=93cabce3-58dd-4607-8727-b622e6b7f5b9","ios":"levelo://app?vid=93cabce3-58dd-4607-8727-b622e6b7f5b9"},"vehicle_type_id":"4","last_reported":1739463115,"current_range_meters":38800,"station_id":"ce4bhhh2rcd13ifvqfk0","pricing_plan_id":"cebpf4jnsgd1na2vs0mg"},{"bike_id":"73204b29-ec32-4146-8fea-bcca13682a2a","system_id":"levelo_inurba_marseille","lat":43.24817,"lon":5.37465,"is_reserved":false,"is_disabled":false,"rental_uris":{"android":"levelo://app?vid=73204b29-ec32-4146-8fea-bcca13682a2a","ios":"levelo://app?vid=73204b29-ec32-4146-8fea-bcca13682a2a"},"vehicle_type_id":"4","last_reported":1739463115,"current_range_meters":21600,"station_id":"ce4bhgh2rcd13ifvqfb0","pricing_plan_id":"cebpf4jnsgd1na2vs0mg"},{"bike_id":"b85f089e-bcba-493c-8108-fb98e760e842","system_id":"levelo_inurba_marseille","lat":43.324877,"lon":5.365746,"is_reserved":false,"is_disabled":false,"rental_uris":{"android":"levelo://app?vid=b85f089e-bcba-493c-8108-fb98e760e842","ios":"levelo://app?vid=b85f089e-bcba-493c-8108-fb98e760e842"},"vehicle_type_id":"4","last_reported":1739463115,"current_range_meters":38800,"station_id":"ce4bhs12rcd13ifvqhvg","pricing_plan_id":"cebpf4jnsgd1na2vs0mg"},{"bike_id":"d1e6b517-b6c2-4320-8222-419cb00ef868","system_id":"levelo_inurba_marseille","lat":43.30313,"lon":5.36892,"is_reserved":false,"is_disabled":false,"rental_uris":{"android":"levelo://app?vid=d1e6b517-b6c2-4320-8222-419cb00ef868","ios":"levelo://app?vid=d1e6b517-b6c2-4320-8222-419cb00ef868"},"vehicle_type_id":"4","last_reported":1739463115,"current_range_meters":17600,"station_id":"ce4bgqh2rcd13ifvqc5g","pricing_plan_id":"cebpf4jnsgd1na2vs0mg"},{"bike_id":"b2c2d795-8fcd-4b62-8101-8fe31e15144e","system_id":"levelo_inurba_marseille","lat":43.29929,"lon":5.36548,"is_reserved":false,"is_disabled":false,"rental_uris":{"android":"levelo://app?vid=b2c2d795-8fcd-4b62-8101-8fe31e15144e","ios":"levelo://app?vid=b2c2d795-8fcd-4b62-8101-8fe31e15144e"},"vehicle_type_id":"4","last_reported":1739463115,"current_range_meters":17600,"station_id":"ce4bgm92rcd13ifvqbr0","pricing_plan_id":"cebpf4jnsgd1na2vs0mg"},{"bike_id":"154eff4b-5421-4bdb-ae38-5645d736cd96","system_id":"levelo_inurba_marseille","lat":43.28723,"lon":5.36084,"is_reserved":false,"is_disabled":false,"rental_uris":{"android":"levelo://app?vid=154eff4b-5421-4bdb-ae38-5645d736cd96","ios":"levelo://app?vid=154eff4b-5421-4bdb-ae38-5645d736cd96"},"vehicle_type_id":"4","last_reported":1739463115,"current_range_meters":20800,"station_id":"cki0cbj6b192h4jlfktg","pricing_plan_id":"cebpf4jnsgd1na2vs0mg"},{"bike_id":"d674d394-04ab-4838-a267-bcdd8affd803","system_id":"levelo_inurba_marseille","lat":43.30791,"lon":5.43511,"is_reserved":false,"is_disabled":false,"rental_uris":{"android":"levelo://app?vid=d674d394-04ab-4838-a267-bcdd8affd803","ios":"levelo://app?vid=d674d394-04ab-4838-a267-bcdd8affd803"},"vehicle_type_id":"4","last_reported":1739463115,"current_range_meters":38800,"station_id":"ce4bhph2rcd13ifvqheg","pricing_plan_id":"cebpf4jnsgd1na2vs0mg"},{"bike_id":"070ae32a-16b8-4680-bff4-11ca41d07aa4","system_id":"levelo_inurba_marseille","lat":43.25822,"lon":5.39435,"is_reserved":false,"is_disabled":false,"rental_uris":{"android":"levelo://app?vid=070ae32a-16b8-4680-bff4-11ca41d07aa4","ios":"levelo://app?vid=070ae32a-16b8-4680-bff4-11ca41d07aa4"},"vehicle_type_id":"4","last_reported":1739463115,"current_range_meters":18800,"station_id":"ce4bhip2rcd13ifvqft0","pricing_plan_id":"cebpf4jnsgd1na2vs0mg"},{"bike_id":"590cfcf2-5e7b-4f35-ab48-f4871a4adecb","system_id":"levelo_inurba_marseille","lat":43.28454,"lon":5.35894,"is_reserved":false,"is_disabled":false,"rental_uris":{"android":"levelo://app?vid=590cfcf2-5e7b-4f35-ab48-f4871a4adecb","ios":"levelo://app?vid=590cfcf2-5e7b-4f35-ab48-f4871a4adecb"},"vehicle_type_id":"4","last_reported":1739463115,"current_range_meters":38800,"station_id":"ce4bhah2rcd13ifvqei0","pricing_plan_id":"cebpf4jnsgd1na2vs0mg"},{"bike_id":"df93cf36-2444-4b4e-9609-0ceed4c15035","system_id":"levelo_inurba_marseille","lat":43.23154,"lon":5.43707,"is_reserved":false,"is_disabled":false,"rental_uris":{"android":"levelo://app?vid=df93cf36-2444-4b4e-9609-0ceed4c15035","ios":"levelo://app?vid=df93cf36-2444-4b4e-9609-0ceed4c15035"},"vehicle_type_id":"4","last_reported":1739463115,"current_range_meters":16000,"station_id":"ce4bhmp2rcd13ifvqgog","pricing_plan_id":"cebpf4jnsgd1na2vs0mg"},{"bike_id":"3c972bc6-571f-4946-9dde-c7f43d4c71a0","system_id":"levelo_inurba_marseille","lat":43.32481,"lon":5.36553,"is_reserved":false,"is_disabled":false,"rental_uris":{"android":"levelo://app?vid=3c972bc6-571f-4946-9dde-c7f43d4c71a0","ios":"levelo://app?vid=3c972bc6-571f-4946-9dde-c7f43d4c71a0"},"vehicle_type_id":"4","last_reported":1739463115,"current_range_meters":24000,"station_id":"ce4bhs12rcd13ifvqhvg","pricing_plan_id":"cebpf4jnsgd1na2vs0mg"},{"bike_id":"938e3f39-c340-4c10-93d0-6e3f23bf3f0e","system_id":"levelo_inurba_marseille","lat":43.27562,"lon":5.38412,"is_reserved":false,"is_disabled":false,"rental_uris":{"android":"levelo://app?vid=938e3f39-c340-4c10-93d0-6e3f23bf3f0e","ios":"levelo://app?vid=938e3f39-c340-4c10-93d0-6e3f23bf3f0e"},"vehicle_type_id":"4","last_reported":1739463115,"current_range_meters":28400,"station_id":"ce4bhh92rcd13ifvqfi0","pricing_plan_id":"cebpf4jnsgd1na2vs0mg"},{"bike_id":"f20506a6-9af9-4a99-8412-f2b156f5b725","system_id":"levelo_inurba_marseille","lat":43.28449,"lon":5.38438,"is_reserved":false,"is_disabled":false,"rental_uris":{"android":"levelo://app?vid=f20506a6-9af9-4a99-8412-f2b156f5b725","ios":"levelo://app?vid=f20506a6-9af9-4a99-8412-f2b156f5b725"},"vehicle_type_id":"4","last_reported":1739463115,"current_range_meters":39200,"station_id":"ce4bh512rcd13ifvqe3g","pricing_plan_id":"cebpf4jnsgd1na2vs0mg"},{"bike_id":"be5c1ab5-be34-4296-8a77-09afd5ae458c","system_id":"levelo_inurba_marseille","lat":43.30531,"lon":5.3655,"is_reserved":false,"is_disabled":false,"rental_uris":{"android":"levelo://app?vid=be5c1ab5-be34-4296-8a77-09afd5ae458c","ios":"levelo://app?vid=be5c1ab5-be34-4296-8a77-09afd5ae458c"},"vehicle_type_id":"4","last_reported":1739463115,"current_range_meters":17600,"station_id":"ce4bgs12rcd13ifvqcag","pricing_plan_id":"cebpf4jnsgd1na2vs0mg"},{"bike_id":"b33a98b7-2c62-41e0-a7fc-99b57dfea0d1","system_id":"levelo_inurba_marseille","lat":43.3053,"lon":5.36722,"is_reserved":false,"is_disabled":false,"rental_uris":{"android":"levelo://app?vid=b33a98b7-2c62-41e0-a7fc-99b57dfea0d1","ios":"levelo://app?vid=b33a98b7-2c62-41e0-a7fc-99b57dfea0d1"},"vehicle_type_id":"4","last_reported":1739463115,"current_range_meters":39200,"station_id":"ce4bgrp2rcd13ifvqc9g","pricing_plan_id":"cebpf4jnsgd1na2vs0mg"},{"bike_id":"08a86ebb-b290-4f14-9520-6a5a716f26bd","system_id":"levelo_inurba_marseille","lat":43.23963,"lon":5.36631,"is_reserved":false,"is_disabled":false,"rental_uris":{"android":"levelo://app?vid=08a86ebb-b290-4f14-9520-6a5a716f26bd","ios":"levelo://app?vid=08a86ebb-b290-4f14-9520-6a5a716f26bd"},"vehicle_type_id":"4","last_reported":1739463115,"current_range_meters":38800,"station_id":"ce4bhi12rcd13ifvqfp0","pricing_plan_id":"cebpf4jnsgd1na2vs0mg"},{"bike_id":"4164c166-a1a5-4a45-86f3-e094e69b576e","system_id":"levelo_inurba_marseille","lat":43.29678,"lon":5.3729,"is_reserved":false,"is_disabled":false,"rental_uris":{"android":"levelo://app?vid=4164c166-a1a5-4a45-86f3-e094e69b576e","ios":"levelo://app?vid=4164c166-a1a5-4a45-86f3-e094e69b576e"},"vehicle_type_id":"4","last_reported":1739463115,"current_range_meters":38000,"station_id":"ce4bgk12rcd13ifvqbj0","pricing_plan_id":"cebpf4jnsgd1na2vs0mg"},{"bike_id":"b769c497-d3c8-447c-95cc-23ae09518ea1","system_id":"levelo_inurba_marseille","lat":43.29875,"lon":5.38923,"is_reserved":false,"is_disabled":false,"rental_uris":{"android":"levelo://app?vid=b769c497-d3c8-447c-95cc-23ae09518ea1","ios":"levelo://app?vid=b769c497-d3c8-447c-95cc-23ae09518ea1"},"vehicle_type_id":"4","last_reported":1739463115,"current_range_meters":25200,"station_id":"ce4bh392rcd13ifvqdl0","pricing_plan_id":"cebpf4jnsgd1na2vs0mg"},{"bike_id":"23849fcd-4bc4-44f6-8337-e9a9a16fe0e7","system_id":"levelo_inurba_marseille","lat":43.29751,"lon":5.47955,"is_reserved":false,"is_disabled":false,"rental_uris":{"android":"levelo://app?vid=23849fcd-4bc4-44f6-8337-e9a9a16fe0e7","ios":"levelo://app?vid=23849fcd-4bc4-44f6-8337-e9a9a16fe0e7"},"vehicle_type_id":"4","last_reported":1739463115,"current_range_meters":8000,"station_id":"","pricing_plan_id":"cebpf4jnsgd1na2vs0mg"},{"bike_id":"18e8484c-a6c5-4876-b6b0-4a4fc3b1fe93","system_id":"levelo_inurba_marseille","lat":43.28698,"lon":5.39991,"is_reserved":false,"is_disabled":false,"rental_uris":{"android":"levelo://app?vid=18e8484c-a6c5-4876-b6b0-4a4fc3b1fe93","ios":"levelo://app?vid=18e8484c-a6c5-4876-b6b0-4a4fc3b1fe93"},"vehicle_type_id":"4","last_reported":1739463115,"current_range_meters":4000,"station_id":"ce4bho92rcd13ifvqh3g","pricing_plan_id":"cebpf4jnsgd1na2vs0mg"},{"bike_id":"84cb827b-e4de-4376-b327-f7deaaadddfc","system_id":"levelo_inurba_marseille","lat":43.31327,"lon":5.3971,"is_reserved":false,"is_disabled":false,"rental_uris":{"android":"levelo://app?vid=84cb827b-e4de-4376-b327-f7deaaadddfc","ios":"levelo://app?vid=84cb827b-e4de-4376-b327-f7deaaadddfc"},"vehicle_type_id":"4","last_reported":1739463115,"current_range_meters":39200,"station_id":"ce4bgvp2rcd13ifvqcu0","pricing_plan_id":"cebpf4jnsgd1na2vs0mg"},{"bike_id":"353d7f1d-98cc-47f6-8acc-3ce7609670ab","system_id":"levelo_inurba_marseille","lat":43.28926,"lon":5.38391,"is_reserved":false,"is_disabled":false,"rental_uris":{"android":"levelo://app?vid=353d7f1d-98cc-47f6-8acc-3ce7609670ab","ios":"levelo://app?vid=353d7f1d-98cc-47f6-8acc-3ce7609670ab"},"vehicle_type_id":"4","last_reported":1739463115,"current_range_meters":22000,"station_id":"ce4bh612rcd13ifvqe6g","pricing_plan_id":"cebpf4jnsgd1na2vs0mg"},{"bike_id":"6cfbf51a-4ec4-4b50-afa2-a58eb7355bc4","system_id":"levelo_inurba_marseille","lat":43.327225,"lon":5.39161,"is_reserved":false,"is_disabled":false,"rental_uris":{"android":"levelo://app?vid=6cfbf51a-4ec4-4b50-afa2-a58eb7355bc4","ios":"levelo://app?vid=6cfbf51a-4ec4-4b50-afa2-a58eb7355bc4"},"vehicle_type_id":"4","last_reported":1739463115,"current_range_meters":26800,"station_id":"","pricing_plan_id":"cebpf4jnsgd1na2vs0mg"},{"bike_id":"01ecade8-42d0-4557-a2fb-d9f8cac78f27","system_id":"levelo_inurba_marseille","lat":43.23077,"lon":5.35512,"is_reserved":false,"is_disabled":false,"rental_uris":{"android":"levelo://app?vid=01ecade8-42d0-4557-a2fb-d9f8cac78f27","ios":"levelo://app?vid=01ecade8-42d0-4557-a2fb-d9f8cac78f27"},"vehicle_type_id":"4","last_reported":1739463115,"current_range_meters":9200,"station_id":"cpo3342slgdg3j2ifvpg","pricing_plan_id":"cebpf4jnsgd1na2vs0mg"},{"bike_id":"39caa847-b837-4440-a510-689edd01525f","system_id":"levelo_inurba_marseille","lat":43.23965,"lon":5.36623,"is_reserved":false,"is_disabled":false,"rental_uris":{"android":"levelo://app?vid=39caa847-b837-4440-a510-689edd01525f","ios":"levelo://app?vid=39caa847-b837-4440-a510-689edd01525f"},"vehicle_type_id":"4","last_reported":1739463115,"current_range_meters":24400,"station_id":"ce4bhi12rcd13ifvqfp0","pricing_plan_id":"cebpf4jnsgd1na2vs0mg"},{"bike_id":"90069231-8d02-46fd-ba3f-d8e7e83900ee","system_id":"levelo_inurba_marseille","lat":43.28829,"lon":5.43819,"is_reserved":false,"is_disabled":true,"rental_uris":{"android":"levelo://app?vid=90069231-8d02-46fd-ba3f-d8e7e83900ee","ios":"levelo://app?vid=90069231-8d02-46fd-ba3f-d8e7e83900ee"},"vehicle_type_id":"4","last_reported":1739463115,"current_range_meters":0,"station_id":"","pricing_plan_id":"cebpf4jnsgd1na2vs0mg"},{"bike_id":"9d249881-5a15-4231-8a5b-9e0b021f19d2","system_id":"levelo_inurba_marseille","lat":43.27957,"lon":5.38715,"is_reserved":false,"is_disabled":true,"rental_uris":{"android":"levelo://app?vid=9d249881-5a15-4231-8a5b-9e0b021f19d2","ios":"levelo://app?vid=9d249881-5a15-4231-8a5b-9e0b021f19d2"},"vehicle_type_id":"4","last_reported":1739463115,"current_range_meters":35600,"station_id":"ce4bhg12rcd13ifvqf80","pricing_plan_id":"cebpf4jnsgd1na2vs0mg"},{"bike_id":"7c2db12f-c5d4-4c56-825b-76a7472f7f92","system_id":"levelo_inurba_marseille","lat":43.23151,"lon":5.43726,"is_reserved":false,"is_disabled":true,"rental_uris":{"android":"levelo://app?vid=7c2db12f-c5d4-4c56-825b-76a7472f7f92","ios":"levelo://app?vid=7c2db12f-c5d4-4c56-825b-76a7472f7f92"},"vehicle_type_id":"4","last_reported":1739463115,"current_range_meters":0,"station_id":"ce4bhmp2rcd13ifvqgog","pricing_plan_id":"cebpf4jnsgd1na2vs0mg"},{"bike_id":"1197363b-8b66-4a7f-a57b-5c2dad4c9493","system_id":"levelo_inurba_marseille","lat":43.2964,"lon":5.37171,"is_reserved":false,"is_disabled":false,"rental_uris":{"android":"levelo://app?vid=1197363b-8b66-4a7f-a57b-5c2dad4c9493","ios":"levelo://app?vid=1197363b-8b66-4a7f-a57b-5c2dad4c9493"},"vehicle_type_id":"4","last_reported":1739463115,"current_range_meters":27600,"station_id":"ce4bgnh2rcd13ifvqc0g","pricing_plan_id":"cebpf4jnsgd1na2vs0mg"},{"bike_id":"1739bcfd-3cfe-46fa-bed1-d5d83b6ff884","system_id":"levelo_inurba_marseille","lat":43.30422,"lon":5.38892,"is_reserved":false,"is_disabled":false,"rental_uris":{"android":"levelo://app?vid=1739bcfd-3cfe-46fa-bed1-d5d83b6ff884","ios":"levelo://app?vid=1739bcfd-3cfe-46fa-bed1-d5d83b6ff884"},"vehicle_type_id":"4","last_reported":1739463115,"current_range_meters":16400,"station_id":"ce4bgk12rcd13ifvqbi0","pricing_plan_id":"cebpf4jnsgd1na2vs0mg"},{"bike_id":"5ba692ca-1f7c-4427-972b-1702aa0bf993","system_id":"levelo_inurba_marseille","lat":43.2792,"lon":5.39583,"is_reserved":false,"is_disabled":false,"rental_uris":{"android":"levelo://app?vid=5ba692ca-1f7c-4427-972b-1702aa0bf993","ios":"levelo://app?vid=5ba692ca-1f7c-4427-972b-1702aa0bf993"},"vehicle_type_id":"4","last_reported":1739463115,"current_range_meters":38400,"station_id":"ce4bhf92rcd13ifvqf40","pricing_plan_id":"cebpf4jnsgd1na2vs0mg"},{"bike_id":"1d2ce010-275a-4e25-9a8c-bd00de634c6b","system_id":"levelo_inurba_marseille","lat":43.29284,"lon":5.36818,"is_reserved":false,"is_disabled":false,"rental_uris":{"android":"levelo://app?vid=1d2ce010-275a-4e25-9a8c-bd00de634c6b","ios":"levelo://app?vid=1d2ce010-275a-4e25-9a8c-bd00de634c6b"},"vehicle_type_id":"4","last_reported":1739463115,"current_range_meters":19600,"station_id":"ce4bhbp2rcd13ifvqesg","pricing_plan_id":"cebpf4jnsgd1na2vs0mg"},{"bike_id":"d1de7867-d125-47c8-8a90-8eabb1d25537","system_id":"levelo_inurba_marseille","lat":43.25729,"lon":5.41109,"is_reserved":false,"is_disabled":false,"rental_uris":{"android":"levelo://app?vid=d1de7867-d125-47c8-8a90-8eabb1d25537","ios":"levelo://app?vid=d1de7867-d125-47c8-8a90-8eabb1d25537"},"vehicle_type_id":"4","last_reported":1739463115,"current_range_meters":37600,"station_id":"ce4bhkp2rcd13ifvqgd0","pricing_plan_id":"cebpf4jnsgd1na2vs0mg"},{"bike_id":"6a1fc036-58fc-4d68-acce-b634449ddc5c","system_id":"levelo_inurba_marseille","lat":43.30885,"lon":5.37186,"is_reserved":false,"is_disabled":false,"rental_uris":{"android":"levelo://app?vid=6a1fc036-58fc-4d68-acce-b634449ddc5c","ios":"levelo://app?vid=6a1fc036-58fc-4d68-acce-b634449ddc5c"},"vehicle_type_id":"4","last_reported":1739463115,"current_range_meters":38800,"station_id":"ce4bguh2rcd13ifvqckg","pricing_plan_id":"cebpf4jnsgd1na2vs0mg"},{"bike_id":"1240b12e-19e3-4310-a2d7-2f3c94c04885","system_id":"levelo_inurba_marseille","lat":43.26208,"lon":5.3745,"is_reserved":false,"is_disabled":false,"rental_uris":{"android":"levelo://app?vid=1240b12e-19e3-4310-a2d7-2f3c94c04885","ios":"levelo://app?vid=1240b12e-19e3-4310-a2d7-2f3c94c04885"},"vehicle_type_id":"4","last_reported":1739463115,"current_range_meters":38800,"station_id":"ce4bhgp2rcd13ifvqfc0","pricing_plan_id":"cebpf4jnsgd1na2vs0mg"},{"bike_id":"53f8705c-fe16-48e7-b434-264de6ead598","system_id":"levelo_inurba_marseille","lat":43.24807,"lon":5.37457,"is_reserved":false,"is_disabled":false,"rental_uris":{"android":"levelo://app?vid=53f8705c-fe16-48e7-b434-264de6ead598","ios":"levelo://app?vid=53f8705c-fe16-48e7-b434-264de6ead598"},"vehicle_type_id":"4","last_reported":1739463115,"current_range_meters":38400,"station_id":"ce4bhgh2rcd13ifvqfb0","pricing_plan_id":"cebpf4jnsgd1na2vs0mg"},{"bike_id":"7b35ec91-75d0-476a-8303-ae83c6d3cb50","system_id":"levelo_inurba_marseille","lat":43.24782,"lon":5.37424,"is_reserved":false,"is_disabled":false,"rental_uris":{"android":"levelo://app?vid=7b35ec91-75d0-476a-8303-ae83c6d3cb50","ios":"levelo://app?vid=7b35ec91-75d0-476a-8303-ae83c6d3cb50"},"vehicle_type_id":"4","last_reported":1739463115,"current_range_meters":38800,"station_id":"ce4bhgh2rcd13ifvqfb0","pricing_plan_id":"cebpf4jnsgd1na2vs0mg"},{"bike_id":"2bac92d3-f22d-45eb-af03-0c7d6beb526c","system_id":"levelo_inurba_marseille","lat":43.32537,"lon":5.43271,"is_reserved":false,"is_disabled":false,"rental_uris":{"android":"levelo://app?vid=2bac92d3-f22d-45eb-af03-0c7d6beb526c","ios":"levelo://app?vid=2bac92d3-f22d-45eb-af03-0c7d6beb526c"},"vehicle_type_id":"4","last_reported":1739463115,"current_range_meters":26000,"station_id":"","pricing_plan_id":"cebpf4jnsgd1na2vs0mg"},{"bike_id":"60b4b24c-997c-42e2-b2f9-ef7d673c1e51","system_id":"levelo_inurba_marseille","lat":43.28463,"lon":5.35902,"is_reserved":false,"is_disabled":false,"rental_uris":{"android":"levelo://app?vid=60b4b24c-997c-42e2-b2f9-ef7d673c1e51","ios":"levelo://app?vid=60b4b24c-997c-42e2-b2f9-ef7d673c1e51"},"vehicle_type_id":"4","last_reported":1739463115,"current_range_meters":28000,"station_id":"ce4bhah2rcd13ifvqei0","pricing_plan_id":"cebpf4jnsgd1na2vs0mg"},{"bike_id":"b3b26c5d-af98-4349-9b07-7f1933f15a9e","system_id":"levelo_inurba_marseille","lat":43.30434,"lon":5.3889,"is_reserved":false,"is_disabled":false,"rental_uris":{"android":"levelo://app?vid=b3b26c5d-af98-4349-9b07-7f1933f15a9e","ios":"levelo://app?vid=b3b26c5d-af98-4349-9b07-7f1933f15a9e"},"vehicle_type_id":"4","last_reported":1739463115,"current_range_meters":30400,"station_id":"ce4bgk12rcd13ifvqbi0","pricing_plan_id":"cebpf4jnsgd1na2vs0mg"},{"bike_id":"04f164ff-9f88-44b7-9c9d-bbcde20843f4","system_id":"levelo_inurba_marseille","lat":43.27371,"lon":5.36257,"is_reserved":false,"is_disabled":false,"rental_uris":{"android":"levelo://app?vid=04f164ff-9f88-44b7-9c9d-bbcde20843f4","ios":"levelo://app?vid=04f164ff-9f88-44b7-9c9d-bbcde20843f4"},"vehicle_type_id":"4","last_reported":1739463115,"current_range_meters":38800,"station_id":"ce4bhbh2rcd13ifvqeo0","pricing_plan_id":"cebpf4jnsgd1na2vs0mg"},{"bike_id":"658273c6-729d-464e-a7e4-e105aa8e66ea","system_id":"levelo_inurba_marseille","lat":43.29015,"lon":5.38138,"is_reserved":false,"is_disabled":false,"rental_uris":{"android":"levelo://app?vid=658273c6-729d-464e-a7e4-e105aa8e66ea","ios":"levelo://app?vid=658273c6-729d-464e-a7e4-e105aa8e66ea"},"vehicle_type_id":"4","last_reported":1739463115,"current_range_meters":35200,"station_id":"ce4bh4p2rcd13ifvqe1g","pricing_plan_id":"cebpf4jnsgd1na2vs0mg"},{"bike_id":"c2250f20-2283-4e17-b7ce-382f2f740aa1","system_id":"levelo_inurba_marseille","lat":43.24816,"lon":5.37468,"is_reserved":false,"is_disabled":false,"rental_uris":{"android":"levelo://app?vid=c2250f20-2283-4e17-b7ce-382f2f740aa1","ios":"levelo://app?vid=c2250f20-2283-4e17-b7ce-382f2f740aa1"},"vehicle_type_id":"4","last_reported":1739463115,"current_range_meters":38800,"station_id":"ce4bhgh2rcd13ifvqfb0","pricing_plan_id":"cebpf4jnsgd1na2vs0mg"},{"bike_id":"4d77db09-905c-49b4-96d1-a6c7bd4303b6","system_id":"levelo_inurba_marseille","lat":43.27385,"lon":5.36263,"is_reserved":false,"is_disabled":false,"rental_uris":{"android":"levelo://app?vid=4d77db09-905c-49b4-96d1-a6c7bd4303b6","ios":"levelo://app?vid=4d77db09-905c-49b4-96d1-a6c7bd4303b6"},"vehicle_type_id":"4","last_reported":1739463115,"current_range_meters":33600,"station_id":"ce4bhbh2rcd13ifvqeo0","pricing_plan_id":"cebpf4jnsgd1na2vs0mg"},{"bike_id":"79e5ad63-abd5-4d07-9e51-60dc9e7253cd","system_id":"levelo_inurba_marseille","lat":43.23187,"lon":5.39983,"is_reserved":false,"is_disabled":true,"rental_uris":{"android":"levelo://app?vid=79e5ad63-abd5-4d07-9e51-60dc9e7253cd","ios":"levelo://app?vid=79e5ad63-abd5-4d07-9e51-60dc9e7253cd"},"vehicle_type_id":"4","last_reported":1739463115,"current_range_meters":0,"station_id":"ce4bhn12rcd13ifvqgqg","pricing_plan_id":"cebpf4jnsgd1na2vs0mg"},{"bike_id":"d4b34abf-2575-4bec-8e43-78d3f2fe0a75","system_id":"levelo_inurba_marseille","lat":43.31687,"lon":5.40482,"is_reserved":false,"is_disabled":false,"rental_uris":{"android":"levelo://app?vid=d4b34abf-2575-4bec-8e43-78d3f2fe0a75","ios":"levelo://app?vid=d4b34abf-2575-4bec-8e43-78d3f2fe0a75"},"vehicle_type_id":"4","last_reported":1739463115,"current_range_meters":30400,"station_id":"ce4bh012rcd13ifvqd00","pricing_plan_id":"cebpf4jnsgd1na2vs0mg"},{"bike_id":"492e558b-0ce5-4984-b6b1-1d33f225a96b","system_id":"levelo_inurba_marseille","lat":43.24173,"lon":5.36393,"is_reserved":false,"is_disabled":false,"rental_uris":{"android":"levelo://app?vid=492e558b-0ce5-4984-b6b1-1d33f225a96b","ios":"levelo://app?vid=492e558b-0ce5-4984-b6b1-1d33f225a96b"},"vehicle_type_id":"4","last_reported":1739463115,"current_range_meters":38800,"station_id":"cpo36qri1sfpv3e86is0","pricing_plan_id":"cebpf4jnsgd1na2vs0mg"},{"bike_id":"6bf99e3e-9f10-4617-93f9-2e16108e33a0","system_id":"levelo_inurba_marseille","lat":43.23156,"lon":5.43708,"is_reserved":false,"is_disabled":true,"rental_uris":{"android":"levelo://app?vid=6bf99e3e-9f10-4617-93f9-2e16108e33a0","ios":"levelo://app?vid=6bf99e3e-9f10-4617-93f9-2e16108e33a0"},"vehicle_type_id":"4","last_reported":1739463115,"current_range_meters":0,"station_id":"ce4bhmp2rcd13ifvqgog","pricing_plan_id":"cebpf4jnsgd1na2vs0mg"},{"bike_id":"2c4024b1-0e28-4e7f-af13-17904ad587e2","system_id":"levelo_inurba_marseille","lat":43.29534,"lon":5.38549,"is_reserved":false,"is_disabled":false,"rental_uris":{"android":"levelo://app?vid=2c4024b1-0e28-4e7f-af13-17904ad587e2","ios":"levelo://app?vid=2c4024b1-0e28-4e7f-af13-17904ad587e2"},"vehicle_type_id":"4","last_reported":1739463115,"current_range_meters":22800,"station_id":"ce4bgih2rcd13ifvqba0","pricing_plan_id":"cebpf4jnsgd1na2vs0mg"},{"bike_id":"b22966d8-802c-4426-9188-99f0daadb0e1","system_id":"levelo_inurba_marseille","lat":43.24807,"lon":5.37464,"is_reserved":false,"is_disabled":false,"rental_uris":{"android":"levelo://app?vid=b22966d8-802c-4426-9188-99f0daadb0e1","ios":"levelo://app?vid=b22966d8-802c-4426-9188-99f0daadb0e1"},"vehicle_type_id":"4","last_reported":1739463115,"current_range_meters":6800,"station_id":"ce4bhgh2rcd13ifvqfb0","pricing_plan_id":"cebpf4jnsgd1na2vs0mg"},{"bike_id":"ff489825-db76-49d3-aa98-c1c0aaa6bdad","system_id":"levelo_inurba_marseille","lat":43.29249,"lon":5.36664,"is_reserved":false,"is_disabled":false,"rental_uris":{"android":"levelo://app?vid=ff489825-db76-49d3-aa98-c1c0aaa6bdad","ios":"levelo://app?vid=ff489825-db76-49d3-aa98-c1c0aaa6bdad"},"vehicle_type_id":"4","last_reported":1739463115,"current_range_meters":8800,"station_id":"","pricing_plan_id":"cebpf4jnsgd1na2vs0mg"},{"bike_id":"698f19bd-1f39-41be-841c-c9f642655696","system_id":"levelo_inurba_marseille","lat":43.29417,"lon":5.38657,"is_reserved":false,"is_disabled":false,"rental_uris":{"android":"levelo://app?vid=698f19bd-1f39-41be-841c-c9f642655696","ios":"levelo://app?vid=698f19bd-1f39-41be-841c-c9f642655696"},"vehicle_type_id":"4","last_reported":1739463115,"current_range_meters":38000,"station_id":"ce4bh2h2rcd13ifvqdh0","pricing_plan_id":"cebpf4jnsgd1na2vs0mg"},{"bike_id":"47dc7c59-2f79-4ef3-9453-9bcbead0652a","system_id":"levelo_inurba_marseille","lat":43.25582,"lon":5.38244,"is_reserved":false,"is_disabled":false,"rental_uris":{"android":"levelo://app?vid=47dc7c59-2f79-4ef3-9453-9bcbead0652a","ios":"levelo://app?vid=47dc7c59-2f79-4ef3-9453-9bcbead0652a"},"vehicle_type_id":"4","last_reported":1739463115,"current_range_meters":38800,"station_id":"ce4bhih2rcd13ifvqfs0","pricing_plan_id":"cebpf4jnsgd1na2vs0mg"},{"bike_id":"26de5054-7c43-4c9f-977c-5313481d109f","system_id":"levelo_inurba_marseille","lat":43.2417,"lon":5.3973,"is_reserved":false,"is_disabled":false,"rental_uris":{"android":"levelo://app?vid=26de5054-7c43-4c9f-977c-5313481d109f","ios":"levelo://app?vid=26de5054-7c43-4c9f-977c-5313481d109f"},"vehicle_type_id":"4","last_reported":1739463115,"current_range_meters":38800,"station_id":"ce4bhn12rcd13ifvqgpg","pricing_plan_id":"cebpf4jnsgd1na2vs0mg"},{"bike_id":"809529e6-125d-4bf7-8aff-07e502e98e0a","system_id":"levelo_inurba_marseille","lat":43.264737,"lon":5.391521,"is_reserved":false,"is_disabled":false,"rental_uris":{"android":"levelo://app?vid=809529e6-125d-4bf7-8aff-07e502e98e0a","ios":"levelo://app?vid=809529e6-125d-4bf7-8aff-07e502e98e0a"},"vehicle_type_id":"4","last_reported":1739463115,"current_range_meters":19600,"station_id":"ce4bhlh2rcd13ifvqgig","pricing_plan_id":"cebpf4jnsgd1na2vs0mg"},{"bike_id":"4dbc26c6-2a15-45e7-b1cd-4e0586d88b2f","system_id":"levelo_inurba_marseille","lat":43.27376,"lon":5.36253,"is_reserved":false,"is_disabled":true,"rental_uris":{"android":"levelo://app?vid=4dbc26c6-2a15-45e7-b1cd-4e0586d88b2f","ios":"levelo://app?vid=4dbc26c6-2a15-45e7-b1cd-4e0586d88b2f"},"vehicle_type_id":"4","last_reported":1739463115,"current_range_meters":36800,"station_id":"ce4bhbh2rcd13ifvqeo0","pricing_plan_id":"cebpf4jnsgd1na2vs0mg"},{"bike_id":"2a8d5b38-12c7-43ca-969a-fe7b4ef5b359","system_id":"levelo_inurba_marseille","lat":43.31709,"lon":5.37739,"is_reserved":false,"is_disabled":true,"rental_uris":{"android":"levelo://app?vid=2a8d5b38-12c7-43ca-969a-fe7b4ef5b359","ios":"levelo://app?vid=2a8d5b38-12c7-43ca-969a-fe7b4ef5b359"},"vehicle_type_id":"4","last_reported":1739463115,"current_range_meters":2000,"station_id":"ce4bgth2rcd13ifvqch0","pricing_plan_id":"cebpf4jnsgd1na2vs0mg"},{"bike_id":"b57ed8e3-61f5-404a-b343-ba4c48a4699e","system_id":"levelo_inurba_marseille","lat":43.2767,"lon":5.38912,"is_reserved":false,"is_disabled":false,"rental_uris":{"android":"levelo://app?vid=b57ed8e3-61f5-404a-b343-ba4c48a4699e","ios":"levelo://app?vid=b57ed8e3-61f5-404a-b343-ba4c48a4699e"},"vehicle_type_id":"4","last_reported":1739463115,"current_range_meters":38400,"station_id":"ce4bhi12rcd13ifvqfo0","pricing_plan_id":"cebpf4jnsgd1na2vs0mg"},{"bike_id":"00f8a0ff-c4e3-42da-8103-f17cc4b1ba0d","system_id":"levelo_inurba_marseille","lat":43.2814,"lon":5.42645,"is_reserved":false,"is_disabled":false,"rental_uris":{"android":"levelo://app?vid=00f8a0ff-c4e3-42da-8103-f17cc4b1ba0d","ios":"levelo://app?vid=00f8a0ff-c4e3-42da-8103-f17cc4b1ba0d"},"vehicle_type_id":"4","last_reported":1739463115,"current_range_meters":21600,"station_id":"ce4bhnh2rcd13ifvqgug","pricing_plan_id":"cebpf4jnsgd1na2vs0mg"},{"bike_id":"4cdf8aab-db9b-4c2a-b564-5ecaa8f4b15d","system_id":"levelo_inurba_marseille","lat":43.32656,"lon":5.40999,"is_reserved":false,"is_disabled":false,"rental_uris":{"android":"levelo://app?vid=4cdf8aab-db9b-4c2a-b564-5ecaa8f4b15d","ios":"levelo://app?vid=4cdf8aab-db9b-4c2a-b564-5ecaa8f4b15d"},"vehicle_type_id":"4","last_reported":1739463115,"current_range_meters":26000,"station_id":"ce4bhpp2rcd13ifvqhgg","pricing_plan_id":"cebpf4jnsgd1na2vs0mg"},{"bike_id":"5429a055-5c17-4863-ac08-ee7234bc7af8","system_id":"levelo_inurba_marseille","lat":43.32352,"lon":5.36757,"is_reserved":false,"is_disabled":false,"rental_uris":{"android":"levelo://app?vid=5429a055-5c17-4863-ac08-ee7234bc7af8","ios":"levelo://app?vid=5429a055-5c17-4863-ac08-ee7234bc7af8"},"vehicle_type_id":"4","last_reported":1739463115,"current_range_meters":38800,"station_id":"ce4bhsh2rcd13ifvqi2g","pricing_plan_id":"cebpf4jnsgd1na2vs0mg"},{"bike_id":"891b5235-d570-4a76-86be-74a0648f4828","system_id":"levelo_inurba_marseille","lat":43.298485,"lon":5.36287,"is_reserved":false,"is_disabled":false,"rental_uris":{"android":"levelo://app?vid=891b5235-d570-4a76-86be-74a0648f4828","ios":"levelo://app?vid=891b5235-d570-4a76-86be-74a0648f4828"},"vehicle_type_id":"4","last_reported":1739463115,"current_range_meters":38800,"station_id":"ce4bgpp2rcd13ifvqc3g","pricing_plan_id":"cebpf4jnsgd1na2vs0mg"},{"bike_id":"acc39daa-3a4d-4c95-b5a8-16360a611402","system_id":"levelo_inurba_marseille","lat":43.29634,"lon":5.3717,"is_reserved":false,"is_disabled":true,"rental_uris":{"android":"levelo://app?vid=acc39daa-3a4d-4c95-b5a8-16360a611402","ios":"levelo://app?vid=acc39daa-3a4d-4c95-b5a8-16360a611402"},"vehicle_type_id":"4","last_reported":1739463115,"current_range_meters":38400,"station_id":"ce4bgnh2rcd13ifvqc0g","pricing_plan_id":"cebpf4jnsgd1na2vs0mg"},{"bike_id":"acec88b0-4d68-4068-9abc-cb8a793d8f08","system_id":"levelo_inurba_marseille","lat":43.292999,"lon":5.374734,"is_reserved":false,"is_disabled":false,"rental_uris":{"android":"levelo://app?vid=acec88b0-4d68-4068-9abc-cb8a793d8f08","ios":"levelo://app?vid=acec88b0-4d68-4068-9abc-cb8a793d8f08"},"vehicle_type_id":"4","last_reported":1739463115,"current_range_meters":8000,"station_id":"ce4bgi12rcd13ifvqb70","pricing_plan_id":"cebpf4jnsgd1na2vs0mg"},{"bike_id":"eea1a41f-cd18-4010-a314-2502ac665690","system_id":"levelo_inurba_marseille","lat":43.23196,"lon":5.35546,"is_reserved":false,"is_disabled":false,"rental_uris":{"android":"levelo://app?vid=eea1a41f-cd18-4010-a314-2502ac665690","ios":"levelo://app?vid=eea1a41f-cd18-4010-a314-2502ac665690"},"vehicle_type_id":"4","last_reported":1739463115,"current_range_meters":38800,"station_id":"ce4bhu92rcd13ifvqi70","pricing_plan_id":"cebpf4jnsgd1na2vs0mg"},{"bike_id":"759731dc-00f7-470d-b9c5-a4a912aa1318","system_id":"levelo_inurba_marseille","lat":43.29852,"lon":5.36276,"is_reserved":false,"is_disabled":false,"rental_uris":{"android":"levelo://app?vid=759731dc-00f7-470d-b9c5-a4a912aa1318","ios":"levelo://app?vid=759731dc-00f7-470d-b9c5-a4a912aa1318"},"vehicle_type_id":"4","last_reported":1739463115,"current_range_meters":11600,"station_id":"ce4bgpp2rcd13ifvqc3g","pricing_plan_id":"cebpf4jnsgd1na2vs0mg"},{"bike_id":"9280f23b-559e-46e0-b6e9-ec255507c185","system_id":"levelo_inurba_marseille","lat":43.30121,"lon":5.38795,"is_reserved":false,"is_disabled":false,"rental_uris":{"android":"levelo://app?vid=9280f23b-559e-46e0-b6e9-ec255507c185","ios":"levelo://app?vid=9280f23b-559e-46e0-b6e9-ec255507c185"},"vehicle_type_id":"4","last_reported":1739463115,"current_range_meters":38800,"station_id":"ce4bghh2rcd13ifvqb60","pricing_plan_id":"cebpf4jnsgd1na2vs0mg"},{"bike_id":"971f9951-cad8-4d64-aee1-30948583f711","system_id":"levelo_inurba_marseille","lat":43.32478,"lon":5.36578,"is_reserved":false,"is_disabled":false,"rental_uris":{"android":"levelo://app?vid=971f9951-cad8-4d64-aee1-30948583f711","ios":"levelo://app?vid=971f9951-cad8-4d64-aee1-30948583f711"},"vehicle_type_id":"4","last_reported":1739463115,"current_range_meters":38800,"station_id":"ce4bhs12rcd13ifvqhvg","pricing_plan_id":"cebpf4jnsgd1na2vs0mg"},{"bike_id":"f85a6e49-f7bb-4683-b196-177426694447","system_id":"levelo_inurba_marseille","lat":43.30548,"lon":5.36537,"is_reserved":false,"is_disabled":false,"rental_uris":{"android":"levelo://app?vid=f85a6e49-f7bb-4683-b196-177426694447","ios":"levelo://app?vid=f85a6e49-f7bb-4683-b196-177426694447"},"vehicle_type_id":"4","last_reported":1739463115,"current_range_meters":38800,"station_id":"ce4bgs12rcd13ifvqcag","pricing_plan_id":"cebpf4jnsgd1na2vs0mg"},{"bike_id":"3b9cb9fb-3e82-489c-8f72-7236cbecb6b5","system_id":"levelo_inurba_marseille","lat":43.30529,"lon":5.36695,"is_reserved":false,"is_disabled":false,"rental_uris":{"android":"levelo://app?vid=3b9cb9fb-3e82-489c-8f72-7236cbecb6b5","ios":"levelo://app?vid=3b9cb9fb-3e82-489c-8f72-7236cbecb6b5"},"vehicle_type_id":"4","last_reported":1739463115,"current_range_meters":33600,"station_id":"ce4bgrp2rcd13ifvqc9g","pricing_plan_id":"cebpf4jnsgd1na2vs0mg"},{"bike_id":"41c16ae9-ed51-41f9-bd14-22145c86f604","system_id":"levelo_inurba_marseille","lat":43.29628,"lon":5.37189,"is_reserved":false,"is_disabled":false,"rental_uris":{"android":"levelo://app?vid=41c16ae9-ed51-41f9-bd14-22145c86f604","ios":"levelo://app?vid=41c16ae9-ed51-41f9-bd14-22145c86f604"},"vehicle_type_id":"4","last_reported":1739463115,"current_range_meters":23200,"station_id":"ce4bgnh2rcd13ifvqc0g","pricing_plan_id":"cebpf4jnsgd1na2vs0mg"},{"bike_id":"64d3e1d3-a93d-48c7-a887-e10f8bc35e68","system_id":"levelo_inurba_marseille","lat":43.29303,"lon":5.36936,"is_reserved":false,"is_disabled":false,"rental_uris":{"android":"levelo://app?vid=64d3e1d3-a93d-48c7-a887-e10f8bc35e68","ios":"levelo://app?vid=64d3e1d3-a93d-48c7-a887-e10f8bc35e68"},"vehicle_type_id":"4","last_reported":1739463115,"current_range_meters":30000,"station_id":"","pricing_plan_id":"cebpf4jnsgd1na2vs0mg"},{"bike_id":"c4f65802-b7a2-445b-a861-8f3e2fac4b39","system_id":"levelo_inurba_marseille","lat":43.28076,"lon":5.39659,"is_reserved":false,"is_disabled":false,"rental_uris":{"android":"levelo://app?vid=c4f65802-b7a2-445b-a861-8f3e2fac4b39","ios":"levelo://app?vid=c4f65802-b7a2-445b-a861-8f3e2fac4b39"},"vehicle_type_id":"4","last_reported":1739463115,"current_range_meters":38400,"station_id":"ce4bho12rcd13ifvqh2g","pricing_plan_id":"cebpf4jnsgd1na2vs0mg"},{"bike_id":"eb74081f-8035-495f-a073-abb8444b5eb2","system_id":"levelo_inurba_marseille","lat":43.23956,"lon":5.36631,"is_reserved":false,"is_disabled":false,"rental_uris":{"android":"levelo://app?vid=eb74081f-8035-495f-a073-abb8444b5eb2","ios":"levelo://app?vid=eb74081f-8035-495f-a073-abb8444b5eb2"},"vehicle_type_id":"4","last_reported":1739463115,"current_range_meters":38800,"station_id":"ce4bhi12rcd13ifvqfp0","pricing_plan_id":"cebpf4jnsgd1na2vs0mg"},{"bike_id":"213e7ed3-b6c6-470c-8e37-ca6ffb58bff8","system_id":"levelo_inurba_marseille","lat":43.274903,"lon":5.424553,"is_reserved":false,"is_disabled":true,"rental_uris":{"android":"levelo://app?vid=213e7ed3-b6c6-470c-8e37-ca6ffb58bff8","ios":"levelo://app?vid=213e7ed3-b6c6-470c-8e37-ca6ffb58bff8"},"vehicle_type_id":"4","last_reported":1739463115,"current_range_meters":27600,"station_id":"ce4bhn92rcd13ifvqgrg","pricing_plan_id":"cebpf4jnsgd1na2vs0mg"},{"bike_id":"855b369f-358b-4cb1-9a7c-f21e4db4f97e","system_id":"levelo_inurba_marseille","lat":43.28418,"lon":5.34983,"is_reserved":false,"is_disabled":false,"rental_uris":{"android":"levelo://app?vid=855b369f-358b-4cb1-9a7c-f21e4db4f97e","ios":"levelo://app?vid=855b369f-358b-4cb1-9a7c-f21e4db4f97e"},"vehicle_type_id":"4","last_reported":1739463115,"current_range_meters":37600,"station_id":"ce4bhbh2rcd13ifvqepg","pricing_plan_id":"cebpf4jnsgd1na2vs0mg"},{"bike_id":"8d2d4012-ff69-4800-927a-45caff6cd054","system_id":"levelo_inurba_marseille","lat":43.2315,"lon":5.43708,"is_reserved":false,"is_disabled":false,"rental_uris":{"android":"levelo://app?vid=8d2d4012-ff69-4800-927a-45caff6cd054","ios":"levelo://app?vid=8d2d4012-ff69-4800-927a-45caff6cd054"},"vehicle_type_id":"4","last_reported":1739463115,"current_range_meters":38400,"station_id":"ce4bhmp2rcd13ifvqgog","pricing_plan_id":"cebpf4jnsgd1na2vs0mg"},{"bike_id":"1ec14052-2d33-4aa1-9ab8-58cc71db74d1","system_id":"levelo_inurba_marseille","lat":43.24173,"lon":5.36394,"is_reserved":false,"is_disabled":true,"rental_uris":{"android":"levelo://app?vid=1ec14052-2d33-4aa1-9ab8-58cc71db74d1","ios":"levelo://app?vid=1ec14052-2d33-4aa1-9ab8-58cc71db74d1"},"vehicle_type_id":"4","last_reported":1739463115,"current_range_meters":6000,"station_id":"cpo36qri1sfpv3e86is0","pricing_plan_id":"cebpf4jnsgd1na2vs0mg"},{"bike_id":"6e58a69c-2a4e-4c49-840d-6e728a603acb","system_id":"levelo_inurba_marseille","lat":43.23074,"lon":5.35494,"is_reserved":false,"is_disabled":false,"rental_uris":{"android":"levelo://app?vid=6e58a69c-2a4e-4c49-840d-6e728a603acb","ios":"levelo://app?vid=6e58a69c-2a4e-4c49-840d-6e728a603acb"},"vehicle_type_id":"4","last_reported":1739463115,"current_range_meters":38800,"station_id":"cpo3342slgdg3j2ifvpg","pricing_plan_id":"cebpf4jnsgd1na2vs0mg"},{"bike_id":"8bf46494-53fc-43b1-baa3-25d3bb0dfb0d","system_id":"levelo_inurba_marseille","lat":43.27567,"lon":5.38428,"is_reserved":false,"is_disabled":false,"rental_uris":{"android":"levelo://app?vid=8bf46494-53fc-43b1-baa3-25d3bb0dfb0d","ios":"levelo://app?vid=8bf46494-53fc-43b1-baa3-25d3bb0dfb0d"},"vehicle_type_id":"4","last_reported":1739463115,"current_range_meters":38800,"station_id":"ce4bhh92rcd13ifvqfi0","pricing_plan_id":"cebpf4jnsgd1na2vs0mg"},{"bike_id":"bdf89806-a8f6-4293-bc45-ada359b79aa4","system_id":"levelo_inurba_marseille","lat":43.302,"lon":5.36633,"is_reserved":false,"is_disabled":false,"rental_uris":{"android":"levelo://app?vid=bdf89806-a8f6-4293-bc45-ada359b79aa4","ios":"levelo://app?vid=bdf89806-a8f6-4293-bc45-ada359b79aa4"},"vehicle_type_id":"4","last_reported":1739463115,"current_range_meters":21600,"station_id":"","pricing_plan_id":"cebpf4jnsgd1na2vs0mg"},{"bike_id":"4450d397-c7c4-4c68-aed9-fa811598c082","system_id":"levelo_inurba_marseille","lat":43.32544,"lon":5.36478,"is_reserved":false,"is_disabled":false,"rental_uris":{"android":"levelo://app?vid=4450d397-c7c4-4c68-aed9-fa811598c082","ios":"levelo://app?vid=4450d397-c7c4-4c68-aed9-fa811598c082"},"vehicle_type_id":"4","last_reported":1739463115,"current_range_meters":36400,"station_id":"","pricing_plan_id":"cebpf4jnsgd1na2vs0mg"},{"bike_id":"db18a778-04f9-45bf-b266-02a97f23954d","system_id":"levelo_inurba_marseille","lat":43.29785,"lon":5.39354,"is_reserved":false,"is_disabled":false,"rental_uris":{"android":"levelo://app?vid=db18a778-04f9-45bf-b266-02a97f23954d","ios":"levelo://app?vid=db18a778-04f9-45bf-b266-02a97f23954d"},"vehicle_type_id":"4","last_reported":1739463115,"current_range_meters":31200,"station_id":"chh1huq6cuj3fo74tm60","pricing_plan_id":"cebpf4jnsgd1na2vs0mg"},{"bike_id":"2ec2169e-42cb-4a6f-bc68-7e11dfdadb24","system_id":"levelo_inurba_marseille","lat":43.2923,"lon":5.36476,"is_reserved":false,"is_disabled":false,"rental_uris":{"android":"levelo://app?vid=2ec2169e-42cb-4a6f-bc68-7e11dfdadb24","ios":"levelo://app?vid=2ec2169e-42cb-4a6f-bc68-7e11dfdadb24"},"vehicle_type_id":"4","last_reported":1739463115,"current_range_meters":38000,"station_id":"","pricing_plan_id":"cebpf4jnsgd1na2vs0mg"},{"bike_id":"04e79b02-26b7-408e-8d07-a04361b8a27a","system_id":"levelo_inurba_marseille","lat":43.23184,"lon":5.39993,"is_reserved":false,"is_disabled":false,"rental_uris":{"android":"levelo://app?vid=04e79b02-26b7-408e-8d07-a04361b8a27a","ios":"levelo://app?vid=04e79b02-26b7-408e-8d07-a04361b8a27a"},"vehicle_type_id":"4","last_reported":1739463115,"current_range_meters":39200,"station_id":"ce4bhn12rcd13ifvqgqg","pricing_plan_id":"cebpf4jnsgd1na2vs0mg"},{"bike_id":"a17b6dce-a970-4fbf-a4fa-e630a494f0cf","system_id":"levelo_inurba_marseille","lat":43.2961,"lon":5.37722,"is_reserved":false,"is_disabled":false,"rental_uris":{"android":"levelo://app?vid=a17b6dce-a970-4fbf-a4fa-e630a494f0cf","ios":"levelo://app?vid=a17b6dce-a970-4fbf-a4fa-e630a494f0cf"},"vehicle_type_id":"4","last_reported":1739463115,"current_range_meters":38800,"station_id":"ce4bgi92rcd13ifvqb90","pricing_plan_id":"cebpf4jnsgd1na2vs0mg"},{"bike_id":"51a9bfad-4ed0-40c4-8d09-685856fc887a","system_id":"levelo_inurba_marseille","lat":43.29526,"lon":5.39408,"is_reserved":false,"is_disabled":false,"rental_uris":{"android":"levelo://app?vid=51a9bfad-4ed0-40c4-8d09-685856fc887a","ios":"levelo://app?vid=51a9bfad-4ed0-40c4-8d09-685856fc887a"},"vehicle_type_id":"4","last_reported":1739463115,"current_range_meters":33200,"station_id":"ce4bh292rcd13ifvqdf0","pricing_plan_id":"cebpf4jnsgd1na2vs0mg"},{"bike_id":"54ff9176-2655-430e-9f64-c61218a549b8","system_id":"levelo_inurba_marseille","lat":43.29962,"lon":5.37163,"is_reserved":false,"is_disabled":false,"rental_uris":{"android":"levelo://app?vid=54ff9176-2655-430e-9f64-c61218a549b8","ios":"levelo://app?vid=54ff9176-2655-430e-9f64-c61218a549b8"},"vehicle_type_id":"4","last_reported":1739463115,"current_range_meters":24400,"station_id":"ce4bgr92rcd13ifvqc7g","pricing_plan_id":"cebpf4jnsgd1na2vs0mg"},{"bike_id":"51c4e3a8-2172-4b7d-8e51-4493ba7214bb","system_id":"levelo_inurba_marseille","lat":43.30915,"lon":5.36873,"is_reserved":false,"is_disabled":false,"rental_uris":{"android":"levelo://app?vid=51c4e3a8-2172-4b7d-8e51-4493ba7214bb","ios":"levelo://app?vid=51c4e3a8-2172-4b7d-8e51-4493ba7214bb"},"vehicle_type_id":"4","last_reported":1739463115,"current_range_meters":38800,"station_id":"ce4bgn92rcd13ifvqbvg","pricing_plan_id":"cebpf4jnsgd1na2vs0mg"},{"bike_id":"bbb6f758-ef12-4737-861c-2da510dfe0ae","system_id":"levelo_inurba_marseille","lat":43.29055,"lon":5.36962,"is_reserved":false,"is_disabled":false,"rental_uris":{"android":"levelo://app?vid=bbb6f758-ef12-4737-861c-2da510dfe0ae","ios":"levelo://app?vid=bbb6f758-ef12-4737-861c-2da510dfe0ae"},"vehicle_type_id":"4","last_reported":1739463115,"current_range_meters":36000,"station_id":"","pricing_plan_id":"cebpf4jnsgd1na2vs0mg"},{"bike_id":"52591901-7075-4154-8ec9-0dfca05a1446","system_id":"levelo_inurba_marseille","lat":43.32486,"lon":5.36556,"is_reserved":false,"is_disabled":false,"rental_uris":{"android":"levelo://app?vid=52591901-7075-4154-8ec9-0dfca05a1446","ios":"levelo://app?vid=52591901-7075-4154-8ec9-0dfca05a1446"},"vehicle_type_id":"4","last_reported":1739463115,"current_range_meters":38800,"station_id":"ce4bhs12rcd13ifvqhvg","pricing_plan_id":"cebpf4jnsgd1na2vs0mg"},{"bike_id":"5d4405de-a03c-478e-8f30-623332fa3e48","system_id":"levelo_inurba_marseille","lat":43.28442,"lon":5.39204,"is_reserved":false,"is_disabled":false,"rental_uris":{"android":"levelo://app?vid=5d4405de-a03c-478e-8f30-623332fa3e48","ios":"levelo://app?vid=5d4405de-a03c-478e-8f30-623332fa3e48"},"vehicle_type_id":"4","last_reported":1739463115,"current_range_meters":27600,"station_id":"ce4bhoh2rcd13ifvqh5g","pricing_plan_id":"cebpf4jnsgd1na2vs0mg"},{"bike_id":"6b335767-2310-46b2-938e-f18562c482eb","system_id":"levelo_inurba_marseille","lat":43.29525,"lon":5.38544,"is_reserved":false,"is_disabled":false,"rental_uris":{"android":"levelo://app?vid=6b335767-2310-46b2-938e-f18562c482eb","ios":"levelo://app?vid=6b335767-2310-46b2-938e-f18562c482eb"},"vehicle_type_id":"4","last_reported":1739463115,"current_range_meters":20000,"station_id":"ce4bgih2rcd13ifvqba0","pricing_plan_id":"cebpf4jnsgd1na2vs0mg"},{"bike_id":"ca60b2af-cce7-4290-adcc-eaec354c2c93","system_id":"levelo_inurba_marseille","lat":43.25003,"lon":5.38923,"is_reserved":false,"is_disabled":false,"rental_uris":{"android":"levelo://app?vid=ca60b2af-cce7-4290-adcc-eaec354c2c93","ios":"levelo://app?vid=ca60b2af-cce7-4290-adcc-eaec354c2c93"},"vehicle_type_id":"4","last_reported":1739463115,"current_range_meters":22400,"station_id":"ce4bhgp2rcd13ifvqfd0","pricing_plan_id":"cebpf4jnsgd1na2vs0mg"},{"bike_id":"dbd28b77-5e38-4846-9d77-4c39b5974af5","system_id":"levelo_inurba_marseille","lat":43.23149,"lon":5.43706,"is_reserved":false,"is_disabled":false,"rental_uris":{"android":"levelo://app?vid=dbd28b77-5e38-4846-9d77-4c39b5974af5","ios":"levelo://app?vid=dbd28b77-5e38-4846-9d77-4c39b5974af5"},"vehicle_type_id":"4","last_reported":1739463115,"current_range_meters":6400,"station_id":"ce4bhmp2rcd13ifvqgog","pricing_plan_id":"cebpf4jnsgd1na2vs0mg"},{"bike_id":"7af63898-7452-47b8-8901-39831c6d129c","system_id":"levelo_inurba_marseille","lat":43.2694,"lon":5.40262,"is_reserved":false,"is_disabled":false,"rental_uris":{"android":"levelo://app?vid=7af63898-7452-47b8-8901-39831c6d129c","ios":"levelo://app?vid=7af63898-7452-47b8-8901-39831c6d129c"},"vehicle_type_id":"4","last_reported":1739463115,"current_range_meters":16400,"station_id":"cjm6bp8fraef2m0cb0m0","pricing_plan_id":"cebpf4jnsgd1na2vs0mg"},{"bike_id":"54ce597b-1ca1-4d62-923d-d4b29eec04b3","system_id":"levelo_inurba_marseille","lat":43.31131,"lon":5.38261,"is_reserved":false,"is_disabled":false,"rental_uris":{"android":"levelo://app?vid=54ce597b-1ca1-4d62-923d-d4b29eec04b3","ios":"levelo://app?vid=54ce597b-1ca1-4d62-923d-d4b29eec04b3"},"vehicle_type_id":"4","last_reported":1739463115,"current_range_meters":9600,"station_id":"","pricing_plan_id":"cebpf4jnsgd1na2vs0mg"},{"bike_id":"eab8eba1-f468-4a40-8d2f-e289698ebfcc","system_id":"levelo_inurba_marseille","lat":43.27944,"lon":5.41041,"is_reserved":false,"is_disabled":false,"rental_uris":{"android":"levelo://app?vid=eab8eba1-f468-4a40-8d2f-e289698ebfcc","ios":"levelo://app?vid=eab8eba1-f468-4a40-8d2f-e289698ebfcc"},"vehicle_type_id":"4","last_reported":1739463115,"current_range_meters":9200,"station_id":"ce4bhnp2rcd13ifvqh0g","pricing_plan_id":"cebpf4jnsgd1na2vs0mg"},{"bike_id":"16535c8e-86df-44d2-bf26-4b8c480963e9","system_id":"levelo_inurba_marseille","lat":43.27816,"lon":5.39151,"is_reserved":false,"is_disabled":true,"rental_uris":{"android":"levelo://app?vid=16535c8e-86df-44d2-bf26-4b8c480963e9","ios":"levelo://app?vid=16535c8e-86df-44d2-bf26-4b8c480963e9"},"vehicle_type_id":"4","last_reported":1739463115,"current_range_meters":0,"station_id":"ce4bgip2rcd13ifvqbb0","pricing_plan_id":"cebpf4jnsgd1na2vs0mg"},{"bike_id":"82cc7838-4b5a-40fa-9f35-ce1cd1ae67e1","system_id":"levelo_inurba_marseille","lat":43.30087,"lon":5.37139,"is_reserved":false,"is_disabled":true,"rental_uris":{"android":"levelo://app?vid=82cc7838-4b5a-40fa-9f35-ce1cd1ae67e1","ios":"levelo://app?vid=82cc7838-4b5a-40fa-9f35-ce1cd1ae67e1"},"vehicle_type_id":"4","last_reported":1739463115,"current_range_meters":1600,"station_id":"","pricing_plan_id":"cebpf4jnsgd1na2vs0mg"},{"bike_id":"1f552d8b-822c-4dd7-8bde-e3bf1ddaf7f5","system_id":"levelo_inurba_marseille","lat":43.2501,"lon":5.38925,"is_reserved":false,"is_disabled":false,"rental_uris":{"android":"levelo://app?vid=1f552d8b-822c-4dd7-8bde-e3bf1ddaf7f5","ios":"levelo://app?vid=1f552d8b-822c-4dd7-8bde-e3bf1ddaf7f5"},"vehicle_type_id":"4","last_reported":1739463115,"current_range_meters":16400,"station_id":"ce4bhgp2rcd13ifvqfd0","pricing_plan_id":"cebpf4jnsgd1na2vs0mg"},{"bike_id":"2baab7b7-d728-4d65-8944-8be471cac1ca","system_id":"levelo_inurba_marseille","lat":43.31729,"lon":5.42392,"is_reserved":false,"is_disabled":false,"rental_uris":{"android":"levelo://app?vid=2baab7b7-d728-4d65-8944-8be471cac1ca","ios":"levelo://app?vid=2baab7b7-d728-4d65-8944-8be471cac1ca"},"vehicle_type_id":"4","last_reported":1739463115,"current_range_meters":38800,"station_id":"ce4bhp92rcd13ifvqhbg","pricing_plan_id":"cebpf4jnsgd1na2vs0mg"},{"bike_id":"bc21909b-390c-4af9-bf4d-e05693d4089d","system_id":"levelo_inurba_marseille","lat":43.29532,"lon":5.39412,"is_reserved":false,"is_disabled":false,"rental_uris":{"android":"levelo://app?vid=bc21909b-390c-4af9-bf4d-e05693d4089d","ios":"levelo://app?vid=bc21909b-390c-4af9-bf4d-e05693d4089d"},"vehicle_type_id":"4","last_reported":1739463115,"current_range_meters":11200,"station_id":"ce4bh292rcd13ifvqdf0","pricing_plan_id":"cebpf4jnsgd1na2vs0mg"},{"bike_id":"68768f51-bac9-4d2c-8f1c-a4a6309b4331","system_id":"levelo_inurba_marseille","lat":43.28484,"lon":5.38407,"is_reserved":false,"is_disabled":false,"rental_uris":{"android":"levelo://app?vid=68768f51-bac9-4d2c-8f1c-a4a6309b4331","ios":"levelo://app?vid=68768f51-bac9-4d2c-8f1c-a4a6309b4331"},"vehicle_type_id":"4","last_reported":1739463115,"current_range_meters":28000,"station_id":"ce4bh512rcd13ifvqe3g","pricing_plan_id":"cebpf4jnsgd1na2vs0mg"},{"bike_id":"810f4174-1111-4fba-a8a1-72b4f1c1535d","system_id":"levelo_inurba_marseille","lat":43.29581,"lon":5.37713,"is_reserved":false,"is_disabled":false,"rental_uris":{"android":"levelo://app?vid=810f4174-1111-4fba-a8a1-72b4f1c1535d","ios":"levelo://app?vid=810f4174-1111-4fba-a8a1-72b4f1c1535d"},"vehicle_type_id":"4","last_reported":1739463115,"current_range_meters":2800,"station_id":"","pricing_plan_id":"cebpf4jnsgd1na2vs0mg"},{"bike_id":"3bfafe81-22be-4ef8-830c-9d59c43eb6b0","system_id":"levelo_inurba_marseille","lat":43.28424,"lon":5.34989,"is_reserved":false,"is_disabled":false,"rental_uris":{"android":"levelo://app?vid=3bfafe81-22be-4ef8-830c-9d59c43eb6b0","ios":"levelo://app?vid=3bfafe81-22be-4ef8-830c-9d59c43eb6b0"},"vehicle_type_id":"4","last_reported":1739463115,"current_range_meters":17200,"station_id":"ce4bhbh2rcd13ifvqepg","pricing_plan_id":"cebpf4jnsgd1na2vs0mg"},{"bike_id":"d594772c-f06c-42db-b4eb-8c17a4b3b2bd","system_id":"levelo_inurba_marseille","lat":43.29626,"lon":5.3716,"is_reserved":false,"is_disabled":false,"rental_uris":{"android":"levelo://app?vid=d594772c-f06c-42db-b4eb-8c17a4b3b2bd","ios":"levelo://app?vid=d594772c-f06c-42db-b4eb-8c17a4b3b2bd"},"vehicle_type_id":"4","last_reported":1739463115,"current_range_meters":30800,"station_id":"ce4bgnh2rcd13ifvqc0g","pricing_plan_id":"cebpf4jnsgd1na2vs0mg"},{"bike_id":"cd45c258-3e87-424b-9e4e-5e3923d20473","system_id":"levelo_inurba_marseille","lat":43.27676,"lon":5.38903,"is_reserved":false,"is_disabled":false,"rental_uris":{"android":"levelo://app?vid=cd45c258-3e87-424b-9e4e-5e3923d20473","ios":"levelo://app?vid=cd45c258-3e87-424b-9e4e-5e3923d20473"},"vehicle_type_id":"4","last_reported":1739463115,"current_range_meters":29600,"station_id":"ce4bhi12rcd13ifvqfo0","pricing_plan_id":"cebpf4jnsgd1na2vs0mg"},{"bike_id":"444b7c95-4552-4e35-b7dd-338c4d4b5f33","system_id":"levelo_inurba_marseille","lat":43.30421,"lon":5.38898,"is_reserved":false,"is_disabled":false,"rental_uris":{"android":"levelo://app?vid=444b7c95-4552-4e35-b7dd-338c4d4b5f33","ios":"levelo://app?vid=444b7c95-4552-4e35-b7dd-338c4d4b5f33"},"vehicle_type_id":"4","last_reported":1739463115,"current_range_meters":39200,"station_id":"ce4bgk12rcd13ifvqbi0","pricing_plan_id":"cebpf4jnsgd1na2vs0mg"},{"bike_id":"5a88579c-17b2-490d-84e1-90b48c9fd073","system_id":"levelo_inurba_marseille","lat":43.30539,"lon":5.36542,"is_reserved":false,"is_disabled":false,"rental_uris":{"android":"levelo://app?vid=5a88579c-17b2-490d-84e1-90b48c9fd073","ios":"levelo://app?vid=5a88579c-17b2-490d-84e1-90b48c9fd073"},"vehicle_type_id":"4","last_reported":1739463115,"current_range_meters":38800,"station_id":"ce4bgs12rcd13ifvqcag","pricing_plan_id":"cebpf4jnsgd1na2vs0mg"},{"bike_id":"eed51985-6abc-4136-9c70-f0994b322ee2","system_id":"levelo_inurba_marseille","lat":43.294207,"lon":5.386335,"is_reserved":false,"is_disabled":true,"rental_uris":{"android":"levelo://app?vid=eed51985-6abc-4136-9c70-f0994b322ee2","ios":"levelo://app?vid=eed51985-6abc-4136-9c70-f0994b322ee2"},"vehicle_type_id":"4","last_reported":1739463115,"current_range_meters":0,"station_id":"ce4bh2h2rcd13ifvqdh0","pricing_plan_id":"cebpf4jnsgd1na2vs0mg"},{"bike_id":"58ca8d36-3abf-4f9b-bf3f-e62ed0e7a978","system_id":"levelo_inurba_marseille","lat":43.2395,"lon":5.36639,"is_reserved":false,"is_disabled":false,"rental_uris":{"android":"levelo://app?vid=58ca8d36-3abf-4f9b-bf3f-e62ed0e7a978","ios":"levelo://app?vid=58ca8d36-3abf-4f9b-bf3f-e62ed0e7a978"},"vehicle_type_id":"4","last_reported":1739463115,"current_range_meters":28800,"station_id":"ce4bhi12rcd13ifvqfp0","pricing_plan_id":"cebpf4jnsgd1na2vs0mg"},{"bike_id":"05753aab-2a5e-492a-80c0-4434a5f0cd7d","system_id":"levelo_inurba_marseille","lat":43.29936,"lon":5.36563,"is_reserved":false,"is_disabled":false,"rental_uris":{"android":"levelo://app?vid=05753aab-2a5e-492a-80c0-4434a5f0cd7d","ios":"levelo://app?vid=05753aab-2a5e-492a-80c0-4434a5f0cd7d"},"vehicle_type_id":"4","last_reported":1739463115,"current_range_meters":38800,"station_id":"ce4bgm92rcd13ifvqbr0","pricing_plan_id":"cebpf4jnsgd1na2vs0mg"},{"bike_id":"bd09c1fa-a512-4bda-bf63-f3e4fd2d64f9","system_id":"levelo_inurba_marseille","lat":43.28461,"lon":5.35885,"is_reserved":false,"is_disabled":false,"rental_uris":{"android":"levelo://app?vid=bd09c1fa-a512-4bda-bf63-f3e4fd2d64f9","ios":"levelo://app?vid=bd09c1fa-a512-4bda-bf63-f3e4fd2d64f9"},"vehicle_type_id":"4","last_reported":1739463115,"current_range_meters":30800,"station_id":"ce4bhah2rcd13ifvqei0","pricing_plan_id":"cebpf4jnsgd1na2vs0mg"},{"bike_id":"ef6bb44d-1936-4e87-9587-7f898056d138","system_id":"levelo_inurba_marseille","lat":43.3009,"lon":5.39074,"is_reserved":false,"is_disabled":false,"rental_uris":{"android":"levelo://app?vid=ef6bb44d-1936-4e87-9587-7f898056d138","ios":"levelo://app?vid=ef6bb44d-1936-4e87-9587-7f898056d138"},"vehicle_type_id":"4","last_reported":1739463115,"current_range_meters":27600,"station_id":"ce4bh192rcd13ifvqdb0","pricing_plan_id":"cebpf4jnsgd1na2vs0mg"},{"bike_id":"d157203c-3a5b-4bbc-9638-6eefce740d5e","system_id":"levelo_inurba_marseille","lat":43.23187,"lon":5.35572,"is_reserved":false,"is_disabled":false,"rental_uris":{"android":"levelo://app?vid=d157203c-3a5b-4bbc-9638-6eefce740d5e","ios":"levelo://app?vid=d157203c-3a5b-4bbc-9638-6eefce740d5e"},"vehicle_type_id":"4","last_reported":1739463115,"current_range_meters":30800,"station_id":"ce4bhu92rcd13ifvqi70","pricing_plan_id":"cebpf4jnsgd1na2vs0mg"},{"bike_id":"9acb5333-5cf1-494e-915f-5f562bae0853","system_id":"levelo_inurba_marseille","lat":43.33735,"lon":5.39161,"is_reserved":false,"is_disabled":false,"rental_uris":{"android":"levelo://app?vid=9acb5333-5cf1-494e-915f-5f562bae0853","ios":"levelo://app?vid=9acb5333-5cf1-494e-915f-5f562bae0853"},"vehicle_type_id":"4","last_reported":1739463115,"current_range_meters":38800,"station_id":"ce4bhr92rcd13ifvqhsg","pricing_plan_id":"cebpf4jnsgd1na2vs0mg"},{"bike_id":"2cea543f-f1b9-41fd-bc88-99c4a6cb8129","system_id":"levelo_inurba_marseille","lat":43.2319,"lon":5.35553,"is_reserved":false,"is_disabled":false,"rental_uris":{"android":"levelo://app?vid=2cea543f-f1b9-41fd-bc88-99c4a6cb8129","ios":"levelo://app?vid=2cea543f-f1b9-41fd-bc88-99c4a6cb8129"},"vehicle_type_id":"4","last_reported":1739463115,"current_range_meters":38800,"station_id":"ce4bhu92rcd13ifvqi70","pricing_plan_id":"cebpf4jnsgd1na2vs0mg"},{"bike_id":"4ae9aebc-78d1-46e0-9356-d46a1630edcc","system_id":"levelo_inurba_marseille","lat":43.29976,"lon":5.37179,"is_reserved":false,"is_disabled":false,"rental_uris":{"android":"levelo://app?vid=4ae9aebc-78d1-46e0-9356-d46a1630edcc","ios":"levelo://app?vid=4ae9aebc-78d1-46e0-9356-d46a1630edcc"},"vehicle_type_id":"4","last_reported":1739463115,"current_range_meters":25600,"station_id":"ce4bgr92rcd13ifvqc7g","pricing_plan_id":"cebpf4jnsgd1na2vs0mg"},{"bike_id":"f318327a-650d-4c9f-bb9e-cf4dedddea95","system_id":"levelo_inurba_marseille","lat":43.29971,"lon":5.38493,"is_reserved":false,"is_disabled":false,"rental_uris":{"android":"levelo://app?vid=f318327a-650d-4c9f-bb9e-cf4dedddea95","ios":"levelo://app?vid=f318327a-650d-4c9f-bb9e-cf4dedddea95"},"vehicle_type_id":"4","last_reported":1739463115,"current_range_meters":12800,"station_id":"ce4bgj92rcd13ifvqbd0","pricing_plan_id":"cebpf4jnsgd1na2vs0mg"},{"bike_id":"22357605-22f9-4c7f-a011-3059b1fea57b","system_id":"levelo_inurba_marseille","lat":43.24648,"lon":5.38902,"is_reserved":false,"is_disabled":false,"rental_uris":{"android":"levelo://app?vid=22357605-22f9-4c7f-a011-3059b1fea57b","ios":"levelo://app?vid=22357605-22f9-4c7f-a011-3059b1fea57b"},"vehicle_type_id":"4","last_reported":1739463115,"current_range_meters":38800,"station_id":"ce4bhg12rcd13ifvqf60","pricing_plan_id":"cebpf4jnsgd1na2vs0mg"},{"bike_id":"25622700-94cb-40a3-84b5-b0015e736e5e","system_id":"levelo_inurba_marseille","lat":43.27368,"lon":5.36246,"is_reserved":false,"is_disabled":false,"rental_uris":{"android":"levelo://app?vid=25622700-94cb-40a3-84b5-b0015e736e5e","ios":"levelo://app?vid=25622700-94cb-40a3-84b5-b0015e736e5e"},"vehicle_type_id":"4","last_reported":1739463115,"current_range_meters":8800,"station_id":"ce4bhbh2rcd13ifvqeo0","pricing_plan_id":"cebpf4jnsgd1na2vs0mg"},{"bike_id":"31f84ddc-bf3b-4d1c-9d83-4ffb586bc67a","system_id":"levelo_inurba_marseille","lat":43.32098,"lon":5.36785,"is_reserved":false,"is_disabled":false,"rental_uris":{"android":"levelo://app?vid=31f84ddc-bf3b-4d1c-9d83-4ffb586bc67a","ios":"levelo://app?vid=31f84ddc-bf3b-4d1c-9d83-4ffb586bc67a"},"vehicle_type_id":"4","last_reported":1739463115,"current_range_meters":36800,"station_id":"ce4bhrh2rcd13ifvqhug","pricing_plan_id":"cebpf4jnsgd1na2vs0mg"},{"bike_id":"95bea59d-9508-4e5c-9462-a6eb2b05c299","system_id":"levelo_inurba_marseille","lat":43.32813,"lon":5.43304,"is_reserved":false,"is_disabled":false,"rental_uris":{"android":"levelo://app?vid=95bea59d-9508-4e5c-9462-a6eb2b05c299","ios":"levelo://app?vid=95bea59d-9508-4e5c-9462-a6eb2b05c299"},"vehicle_type_id":"4","last_reported":1739463115,"current_range_meters":36000,"station_id":"","pricing_plan_id":"cebpf4jnsgd1na2vs0mg"},{"bike_id":"bbc37b14-d7c7-464c-a70a-e663d1eed01e","system_id":"levelo_inurba_marseille","lat":43.26775,"lon":5.3941,"is_reserved":false,"is_disabled":false,"rental_uris":{"android":"levelo://app?vid=bbc37b14-d7c7-464c-a70a-e663d1eed01e","ios":"levelo://app?vid=bbc37b14-d7c7-464c-a70a-e663d1eed01e"},"vehicle_type_id":"4","last_reported":1739463115,"current_range_meters":30400,"station_id":"ce4bhh12rcd13ifvqfg0","pricing_plan_id":"cebpf4jnsgd1na2vs0mg"},{"bike_id":"b541e941-f096-4d74-82a1-d66a1e8875ae","system_id":"levelo_inurba_marseille","lat":43.28099,"lon":5.3784,"is_reserved":false,"is_disabled":false,"rental_uris":{"android":"levelo://app?vid=b541e941-f096-4d74-82a1-d66a1e8875ae","ios":"levelo://app?vid=b541e941-f096-4d74-82a1-d66a1e8875ae"},"vehicle_type_id":"4","last_reported":1739463115,"current_range_meters":11200,"station_id":"ce4bha12rcd13ifvqee0","pricing_plan_id":"cebpf4jnsgd1na2vs0mg"},{"bike_id":"54a0b055-50ee-45c1-8eb3-51896aac8a0a","system_id":"levelo_inurba_marseille","lat":43.30272,"lon":5.37709,"is_reserved":false,"is_disabled":false,"rental_uris":{"android":"levelo://app?vid=54a0b055-50ee-45c1-8eb3-51896aac8a0a","ios":"levelo://app?vid=54a0b055-50ee-45c1-8eb3-51896aac8a0a"},"vehicle_type_id":"4","last_reported":1739463115,"current_range_meters":30800,"station_id":"ce4bguh2rcd13ifvqcj0","pricing_plan_id":"cebpf4jnsgd1na2vs0mg"},{"bike_id":"2c3ed3e7-b3c5-4884-a1e2-5200d532ba23","system_id":"levelo_inurba_marseille","lat":43.29019,"lon":5.38656,"is_reserved":false,"is_disabled":false,"rental_uris":{"android":"levelo://app?vid=2c3ed3e7-b3c5-4884-a1e2-5200d532ba23","ios":"levelo://app?vid=2c3ed3e7-b3c5-4884-a1e2-5200d532ba23"},"vehicle_type_id":"4","last_reported":1739463115,"current_range_meters":16000,"station_id":"ce4bh4p2rcd13ifvqe0g","pricing_plan_id":"cebpf4jnsgd1na2vs0mg"},{"bike_id":"b539a748-8199-43e7-83f3-9ebe36862717","system_id":"levelo_inurba_marseille","lat":43.27365,"lon":5.36261,"is_reserved":false,"is_disabled":false,"rental_uris":{"android":"levelo://app?vid=b539a748-8199-43e7-83f3-9ebe36862717","ios":"levelo://app?vid=b539a748-8199-43e7-83f3-9ebe36862717"},"vehicle_type_id":"4","last_reported":1739463115,"current_range_meters":39200,"station_id":"ce4bhbh2rcd13ifvqeo0","pricing_plan_id":"cebpf4jnsgd1na2vs0mg"},{"bike_id":"b927d3b6-dab4-4b7f-ba24-f89832514483","system_id":"levelo_inurba_marseille","lat":43.31717,"lon":5.42406,"is_reserved":false,"is_disabled":false,"rental_uris":{"android":"levelo://app?vid=b927d3b6-dab4-4b7f-ba24-f89832514483","ios":"levelo://app?vid=b927d3b6-dab4-4b7f-ba24-f89832514483"},"vehicle_type_id":"4","last_reported":1739463115,"current_range_meters":28800,"station_id":"ce4bhp92rcd13ifvqhbg","pricing_plan_id":"cebpf4jnsgd1na2vs0mg"},{"bike_id":"a9340757-2713-405e-9bd7-debf3e2d5631","system_id":"levelo_inurba_marseille","lat":43.28272,"lon":5.35074,"is_reserved":false,"is_disabled":false,"rental_uris":{"android":"levelo://app?vid=a9340757-2713-405e-9bd7-debf3e2d5631","ios":"levelo://app?vid=a9340757-2713-405e-9bd7-debf3e2d5631"},"vehicle_type_id":"4","last_reported":1739463115,"current_range_meters":38800,"station_id":"ce4bhbp2rcd13ifvqerg","pricing_plan_id":"cebpf4jnsgd1na2vs0mg"},{"bike_id":"47969270-2336-423c-aafb-621e7f9abf6d","system_id":"levelo_inurba_marseille","lat":43.32048,"lon":5.41545,"is_reserved":false,"is_disabled":false,"rental_uris":{"android":"levelo://app?vid=47969270-2336-423c-aafb-621e7f9abf6d","ios":"levelo://app?vid=47969270-2336-423c-aafb-621e7f9abf6d"},"vehicle_type_id":"4","last_reported":1739463115,"current_range_meters":26000,"station_id":"","pricing_plan_id":"cebpf4jnsgd1na2vs0mg"},{"bike_id":"211363a9-081b-401f-b0c6-364ac6457ebd","system_id":"levelo_inurba_marseille","lat":43.24387,"lon":5.37041,"is_reserved":false,"is_disabled":false,"rental_uris":{"android":"levelo://app?vid=211363a9-081b-401f-b0c6-364ac6457ebd","ios":"levelo://app?vid=211363a9-081b-401f-b0c6-364ac6457ebd"},"vehicle_type_id":"4","last_reported":1739463115,"current_range_meters":38800,"station_id":"ce4bhhh2rcd13ifvqfk0","pricing_plan_id":"cebpf4jnsgd1na2vs0mg"},{"bike_id":"a6a47884-b3b1-44fa-bc98-5c71b8bda4f2","system_id":"levelo_inurba_marseille","lat":43.23964,"lon":5.36627,"is_reserved":false,"is_disabled":false,"rental_uris":{"android":"levelo://app?vid=a6a47884-b3b1-44fa-bc98-5c71b8bda4f2","ios":"levelo://app?vid=a6a47884-b3b1-44fa-bc98-5c71b8bda4f2"},"vehicle_type_id":"4","last_reported":1739463115,"current_range_meters":34000,"station_id":"ce4bhi12rcd13ifvqfp0","pricing_plan_id":"cebpf4jnsgd1na2vs0mg"},{"bike_id":"c775a837-f46f-42d9-82ab-16da9dee066f","system_id":"levelo_inurba_marseille","lat":43.30884,"lon":5.39659,"is_reserved":false,"is_disabled":false,"rental_uris":{"android":"levelo://app?vid=c775a837-f46f-42d9-82ab-16da9dee066f","ios":"levelo://app?vid=c775a837-f46f-42d9-82ab-16da9dee066f"},"vehicle_type_id":"4","last_reported":1739463115,"current_range_meters":3200,"station_id":"ce4bh012rcd13ifvqcv0","pricing_plan_id":"cebpf4jnsgd1na2vs0mg"},{"bike_id":"fe09c803-e52a-4b08-a1e6-6c71d9f99b5a","system_id":"levelo_inurba_marseille","lat":43.2962,"lon":5.37163,"is_reserved":false,"is_disabled":false,"rental_uris":{"android":"levelo://app?vid=fe09c803-e52a-4b08-a1e6-6c71d9f99b5a","ios":"levelo://app?vid=fe09c803-e52a-4b08-a1e6-6c71d9f99b5a"},"vehicle_type_id":"4","last_reported":1739463115,"current_range_meters":33200,"station_id":"ce4bgnh2rcd13ifvqc0g","pricing_plan_id":"cebpf4jnsgd1na2vs0mg"},{"bike_id":"61e1386d-22a9-4fd1-bc94-220a8702435b","system_id":"levelo_inurba_marseille","lat":43.28106,"lon":5.37856,"is_reserved":false,"is_disabled":false,"rental_uris":{"android":"levelo://app?vid=61e1386d-22a9-4fd1-bc94-220a8702435b","ios":"levelo://app?vid=61e1386d-22a9-4fd1-bc94-220a8702435b"},"vehicle_type_id":"4","last_reported":1739463115,"current_range_meters":38000,"station_id":"ce4bha12rcd13ifvqee0","pricing_plan_id":"cebpf4jnsgd1na2vs0mg"},{"bike_id":"2d53ae95-8d8c-46f6-a393-8076fa85e172","system_id":"levelo_inurba_marseille","lat":43.29913,"lon":5.37458,"is_reserved":false,"is_disabled":false,"rental_uris":{"android":"levelo://app?vid=2d53ae95-8d8c-46f6-a393-8076fa85e172","ios":"levelo://app?vid=2d53ae95-8d8c-46f6-a393-8076fa85e172"},"vehicle_type_id":"4","last_reported":1739463115,"current_range_meters":22400,"station_id":"ce4bgjh2rcd13ifvqbg0","pricing_plan_id":"cebpf4jnsgd1na2vs0mg"},{"bike_id":"0f236800-ed21-4d9e-a5e9-b6fd4bbe76a6","system_id":"levelo_inurba_marseille","lat":43.3136,"lon":5.38489,"is_reserved":false,"is_disabled":false,"rental_uris":{"android":"levelo://app?vid=0f236800-ed21-4d9e-a5e9-b6fd4bbe76a6","ios":"levelo://app?vid=0f236800-ed21-4d9e-a5e9-b6fd4bbe76a6"},"vehicle_type_id":"4","last_reported":1739463115,"current_range_meters":4000,"station_id":"ce4bgt92rcd13ifvqcf0","pricing_plan_id":"cebpf4jnsgd1na2vs0mg"},{"bike_id":"145dbe95-0abb-404b-9326-c91dd00e25b1","system_id":"levelo_inurba_marseille","lat":43.27068,"lon":5.42285,"is_reserved":false,"is_disabled":false,"rental_uris":{"android":"levelo://app?vid=145dbe95-0abb-404b-9326-c91dd00e25b1","ios":"levelo://app?vid=145dbe95-0abb-404b-9326-c91dd00e25b1"},"vehicle_type_id":"4","last_reported":1739463115,"current_range_meters":26800,"station_id":"ce4bhk92rcd13ifvqgb0","pricing_plan_id":"cebpf4jnsgd1na2vs0mg"},{"bike_id":"2c0a74f0-182a-4005-bc42-bbc3c54a887c","system_id":"levelo_inurba_marseille","lat":43.29001,"lon":5.35617,"is_reserved":false,"is_disabled":true,"rental_uris":{"android":"levelo://app?vid=2c0a74f0-182a-4005-bc42-bbc3c54a887c","ios":"levelo://app?vid=2c0a74f0-182a-4005-bc42-bbc3c54a887c"},"vehicle_type_id":"4","last_reported":1739463115,"current_range_meters":30400,"station_id":"ce4bhb92rcd13ifvqen0","pricing_plan_id":"cebpf4jnsgd1na2vs0mg"},{"bike_id":"09cf9380-ad12-403d-a3b3-d4d8f4ecc39f","system_id":"levelo_inurba_marseille","lat":43.3052,"lon":5.36729,"is_reserved":false,"is_disabled":false,"rental_uris":{"android":"levelo://app?vid=09cf9380-ad12-403d-a3b3-d4d8f4ecc39f","ios":"levelo://app?vid=09cf9380-ad12-403d-a3b3-d4d8f4ecc39f"},"vehicle_type_id":"4","last_reported":1739463115,"current_range_meters":35200,"station_id":"ce4bgrp2rcd13ifvqc9g","pricing_plan_id":"cebpf4jnsgd1na2vs0mg"},{"bike_id":"a1f6c532-806b-4949-ae9b-76c8237ce803","system_id":"levelo_inurba_marseille","lat":43.31728,"lon":5.424,"is_reserved":false,"is_disabled":false,"rental_uris":{"android":"levelo://app?vid=a1f6c532-806b-4949-ae9b-76c8237ce803","ios":"levelo://app?vid=a1f6c532-806b-4949-ae9b-76c8237ce803"},"vehicle_type_id":"4","last_reported":1739463115,"current_range_meters":23200,"station_id":"ce4bhp92rcd13ifvqhbg","pricing_plan_id":"cebpf4jnsgd1na2vs0mg"},{"bike_id":"de7ace2f-5875-4649-9970-7b40f6a94adf","system_id":"levelo_inurba_marseille","lat":43.26191,"lon":5.37928,"is_reserved":false,"is_disabled":false,"rental_uris":{"android":"levelo://app?vid=de7ace2f-5875-4649-9970-7b40f6a94adf","ios":"levelo://app?vid=de7ace2f-5875-4649-9970-7b40f6a94adf"},"vehicle_type_id":"4","last_reported":1739463115,"current_range_meters":24000,"station_id":"ce4bhjp2rcd13ifvqg90","pricing_plan_id":"cebpf4jnsgd1na2vs0mg"},{"bike_id":"542b582b-8268-4ab4-8687-a6dc5529041f","system_id":"levelo_inurba_marseille","lat":43.34191,"lon":5.46351,"is_reserved":false,"is_disabled":false,"rental_uris":{"android":"levelo://app?vid=542b582b-8268-4ab4-8687-a6dc5529041f","ios":"levelo://app?vid=542b582b-8268-4ab4-8687-a6dc5529041f"},"vehicle_type_id":"4","last_reported":1739463115,"current_range_meters":13600,"station_id":"","pricing_plan_id":"cebpf4jnsgd1na2vs0mg"},{"bike_id":"0c1bf8e0-ce75-48c3-88d1-8f3cd5166be8","system_id":"levelo_inurba_marseille","lat":43.280993,"lon":5.37851,"is_reserved":false,"is_disabled":false,"rental_uris":{"android":"levelo://app?vid=0c1bf8e0-ce75-48c3-88d1-8f3cd5166be8","ios":"levelo://app?vid=0c1bf8e0-ce75-48c3-88d1-8f3cd5166be8"},"vehicle_type_id":"4","last_reported":1739463115,"current_range_meters":31200,"station_id":"ce4bha12rcd13ifvqee0","pricing_plan_id":"cebpf4jnsgd1na2vs0mg"},{"bike_id":"e565c400-efef-4aa6-ba93-103e8b039ab5","system_id":"levelo_inurba_marseille","lat":43.291931,"lon":5.358048,"is_reserved":false,"is_disabled":false,"rental_uris":{"android":"levelo://app?vid=e565c400-efef-4aa6-ba93-103e8b039ab5","ios":"levelo://app?vid=e565c400-efef-4aa6-ba93-103e8b039ab5"},"vehicle_type_id":"4","last_reported":1739463115,"current_range_meters":23200,"station_id":"ce4bhb12rcd13ifvqel0","pricing_plan_id":"cebpf4jnsgd1na2vs0mg"},{"bike_id":"841b1f4f-6d21-4b48-8dd0-fd828835d17e","system_id":"levelo_inurba_marseille","lat":43.29626,"lon":5.37173,"is_reserved":false,"is_disabled":false,"rental_uris":{"android":"levelo://app?vid=841b1f4f-6d21-4b48-8dd0-fd828835d17e","ios":"levelo://app?vid=841b1f4f-6d21-4b48-8dd0-fd828835d17e"},"vehicle_type_id":"4","last_reported":1739463115,"current_range_meters":39200,"station_id":"ce4bgnh2rcd13ifvqc0g","pricing_plan_id":"cebpf4jnsgd1na2vs0mg"},{"bike_id":"77dfb95d-79a5-4b14-9341-1988d1830145","system_id":"levelo_inurba_marseille","lat":43.31758,"lon":5.39015,"is_reserved":false,"is_disabled":false,"rental_uris":{"android":"levelo://app?vid=77dfb95d-79a5-4b14-9341-1988d1830145","ios":"levelo://app?vid=77dfb95d-79a5-4b14-9341-1988d1830145"},"vehicle_type_id":"4","last_reported":1739463115,"current_range_meters":8800,"station_id":"ce4bhqp2rcd13ifvqhng","pricing_plan_id":"cebpf4jnsgd1na2vs0mg"},{"bike_id":"c86bf059-a39d-4da3-aa18-06aedf4213b9","system_id":"levelo_inurba_marseille","lat":43.29225,"lon":5.36194,"is_reserved":false,"is_disabled":false,"rental_uris":{"android":"levelo://app?vid=c86bf059-a39d-4da3-aa18-06aedf4213b9","ios":"levelo://app?vid=c86bf059-a39d-4da3-aa18-06aedf4213b9"},"vehicle_type_id":"4","last_reported":1739463115,"current_range_meters":6800,"station_id":"ce4bhbh2rcd13ifvqeqg","pricing_plan_id":"cebpf4jnsgd1na2vs0mg"},{"bike_id":"b4a4c90c-53dd-408e-bb46-e71269cca0c9","system_id":"levelo_inurba_marseille","lat":43.25034,"lon":5.38916,"is_reserved":false,"is_disabled":false,"rental_uris":{"android":"levelo://app?vid=b4a4c90c-53dd-408e-bb46-e71269cca0c9","ios":"levelo://app?vid=b4a4c90c-53dd-408e-bb46-e71269cca0c9"},"vehicle_type_id":"4","last_reported":1739463115,"current_range_meters":35200,"station_id":"ce4bhgp2rcd13ifvqfd0","pricing_plan_id":"cebpf4jnsgd1na2vs0mg"},{"bike_id":"57b72634-86ba-47af-bd2a-cf31d474fe26","system_id":"levelo_inurba_marseille","lat":43.29629,"lon":5.37182,"is_reserved":false,"is_disabled":false,"rental_uris":{"android":"levelo://app?vid=57b72634-86ba-47af-bd2a-cf31d474fe26","ios":"levelo://app?vid=57b72634-86ba-47af-bd2a-cf31d474fe26"},"vehicle_type_id":"4","last_reported":1739463115,"current_range_meters":38800,"station_id":"ce4bgnh2rcd13ifvqc0g","pricing_plan_id":"cebpf4jnsgd1na2vs0mg"},{"bike_id":"84a2a445-f5ed-4d68-90ce-68a9d921f364","system_id":"levelo_inurba_marseille","lat":43.28674,"lon":5.38676,"is_reserved":false,"is_disabled":false,"rental_uris":{"android":"levelo://app?vid=84a2a445-f5ed-4d68-90ce-68a9d921f364","ios":"levelo://app?vid=84a2a445-f5ed-4d68-90ce-68a9d921f364"},"vehicle_type_id":"4","last_reported":1739463115,"current_range_meters":36400,"station_id":"ce4bh492rcd13ifvqdug","pricing_plan_id":"cebpf4jnsgd1na2vs0mg"},{"bike_id":"3ffd93f1-3936-42aa-a2dd-1945704e4d10","system_id":"levelo_inurba_marseille","lat":43.29967,"lon":5.38493,"is_reserved":false,"is_disabled":false,"rental_uris":{"android":"levelo://app?vid=3ffd93f1-3936-42aa-a2dd-1945704e4d10","ios":"levelo://app?vid=3ffd93f1-3936-42aa-a2dd-1945704e4d10"},"vehicle_type_id":"4","last_reported":1739463115,"current_range_meters":24800,"station_id":"ce4bgj92rcd13ifvqbd0","pricing_plan_id":"cebpf4jnsgd1na2vs0mg"},{"bike_id":"bbab7067-a930-4230-9559-55ab49800813","system_id":"levelo_inurba_marseille","lat":43.232,"lon":5.35554,"is_reserved":false,"is_disabled":false,"rental_uris":{"android":"levelo://app?vid=bbab7067-a930-4230-9559-55ab49800813","ios":"levelo://app?vid=bbab7067-a930-4230-9559-55ab49800813"},"vehicle_type_id":"4","last_reported":1739463115,"current_range_meters":38800,"station_id":"ce4bhu92rcd13ifvqi70","pricing_plan_id":"cebpf4jnsgd1na2vs0mg"},{"bike_id":"4e207b3e-f99b-4139-b761-869f2ef68c42","system_id":"levelo_inurba_marseille","lat":43.26812,"lon":5.40227,"is_reserved":false,"is_disabled":false,"rental_uris":{"android":"levelo://app?vid=4e207b3e-f99b-4139-b761-869f2ef68c42","ios":"levelo://app?vid=4e207b3e-f99b-4139-b761-869f2ef68c42"},"vehicle_type_id":"4","last_reported":1739463115,"current_range_meters":38800,"station_id":"ce501612rcd8frsf0b60","pricing_plan_id":"cebpf4jnsgd1na2vs0mg"},{"bike_id":"09586a56-8fad-437e-93c3-ecdeed2ceed5","system_id":"levelo_inurba_marseille","lat":43.32663,"lon":5.40906,"is_reserved":false,"is_disabled":false,"rental_uris":{"android":"levelo://app?vid=09586a56-8fad-437e-93c3-ecdeed2ceed5","ios":"levelo://app?vid=09586a56-8fad-437e-93c3-ecdeed2ceed5"},"vehicle_type_id":"4","last_reported":1739463115,"current_range_meters":38800,"station_id":"ce4bhpp2rcd13ifvqhgg","pricing_plan_id":"cebpf4jnsgd1na2vs0mg"},{"bike_id":"6b54f539-5607-4811-8077-ab7ab7fac4c5","system_id":"levelo_inurba_marseille","lat":43.23187,"lon":5.39984,"is_reserved":false,"is_disabled":false,"rental_uris":{"android":"levelo://app?vid=6b54f539-5607-4811-8077-ab7ab7fac4c5","ios":"levelo://app?vid=6b54f539-5607-4811-8077-ab7ab7fac4c5"},"vehicle_type_id":"4","last_reported":1739463115,"current_range_meters":31200,"station_id":"ce4bhn12rcd13ifvqgqg","pricing_plan_id":"cebpf4jnsgd1na2vs0mg"},{"bike_id":"a37b7925-aa91-420f-8bd7-31f56868547f","system_id":"levelo_inurba_marseille","lat":43.25013,"lon":5.3891,"is_reserved":false,"is_disabled":false,"rental_uris":{"android":"levelo://app?vid=a37b7925-aa91-420f-8bd7-31f56868547f","ios":"levelo://app?vid=a37b7925-aa91-420f-8bd7-31f56868547f"},"vehicle_type_id":"4","last_reported":1739463115,"current_range_meters":30400,"station_id":"ce4bhgp2rcd13ifvqfd0","pricing_plan_id":"cebpf4jnsgd1na2vs0mg"},{"bike_id":"4a911332-86ea-48eb-9901-f5ff218d2f61","system_id":"levelo_inurba_marseille","lat":43.29784,"lon":5.38105,"is_reserved":false,"is_disabled":false,"rental_uris":{"android":"levelo://app?vid=4a911332-86ea-48eb-9901-f5ff218d2f61","ios":"levelo://app?vid=4a911332-86ea-48eb-9901-f5ff218d2f61"},"vehicle_type_id":"4","last_reported":1739463115,"current_range_meters":25600,"station_id":"ce4bgip2rcd13ifvqbb0","pricing_plan_id":"cebpf4jnsgd1na2vs0mg"},{"bike_id":"db04cf69-1c53-4811-b589-c490f7a4f02e","system_id":"levelo_inurba_marseille","lat":43.23949,"lon":5.36639,"is_reserved":false,"is_disabled":true,"rental_uris":{"android":"levelo://app?vid=db04cf69-1c53-4811-b589-c490f7a4f02e","ios":"levelo://app?vid=db04cf69-1c53-4811-b589-c490f7a4f02e"},