{"last_updated":1758697813,"ttl":60,"version":"2.2","data":{"bikes":[{"bike_id":"5e8d94b5-b8d4-47b8-89e4-24ec8a06a95d","system_id":"levelo_inurba_marseille","lat":43.25723,"lon":5.41109,"is_reserved":false,"is_disabled":false,"rental_uris":{"android":"levelo://app?vid=5e8d94b5-b8d4-47b8-89e4-24ec8a06a95d","ios":"levelo://app?vid=5e8d94b5-b8d4-47b8-89e4-24ec8a06a95d"},"vehicle_type_id":"4","last_reported":1758697813,"current_range_meters":3200,"station_id":"ce4bhkp2rcd13ifvqgd0","pricing_plan_id":"cebpf4jnsgd1na2vs0mg"},{"bike_id":"886f4530-4d44-4b26-bac7-485c876b7d5d","system_id":"levelo_inurba_marseille","lat":43.29966,"lon":5.384852,"is_reserved":false,"is_disabled":false,"rental_uris":{"android":"levelo://app?vid=886f4530-4d44-4b26-bac7-485c876b7d5d","ios":"levelo://app?vid=886f4530-4d44-4b26-bac7-485c876b7d5d"},"vehicle_type_id":"4","last_reported":1758697813,"current_range_meters":3600,"station_id":"","pricing_plan_id":"cebpf4jnsgd1na2vs0mg"},{"bike_id":"37f280ce-4caf-48d5-85ea-e78beb51a5a8","system_id":"levelo_inurba_marseille","lat":43.28358,"lon":5.38633,"is_reserved":false,"is_disabled":false,"rental_uris":{"android":"levelo://app?vid=37f280ce-4caf-48d5-85ea-e78beb51a5a8","ios":"levelo://app?vid=37f280ce-4caf-48d5-85ea-e78beb51a5a8"},"vehicle_type_id":"4","last_reported":1758697813,"current_range_meters":4000,"station_id":"ce4bh492rcd13ifvqdvg","pricing_plan_id":"cebpf4jnsgd1na2vs0mg"},{"bike_id":"2a99dbc3-6529-4404-b4bd-351ceb00108b","system_id":"levelo_inurba_marseille","lat":43.29039,"lon":5.3997,"is_reserved":false,"is_disabled":false,"rental_uris":{"android":"levelo://app?vid=2a99dbc3-6529-4404-b4bd-351ceb00108b","ios":"levelo://app?vid=2a99dbc3-6529-4404-b4bd-351ceb00108b"},"vehicle_type_id":"4","last_reported":1758697813,"current_range_meters":4000,"station_id":"ce4bh392rcd13ifvqdm0","pricing_plan_id":"cebpf4jnsgd1na2vs0mg"},{"bike_id":"3d3616ae-55ab-4319-9346-2104e95c171f","system_id":"levelo_inurba_marseille","lat":43.30978,"lon":5.37958,"is_reserved":false,"is_disabled":true,"rental_uris":{"android":"levelo://app?vid=3d3616ae-55ab-4319-9346-2104e95c171f","ios":"levelo://app?vid=3d3616ae-55ab-4319-9346-2104e95c171f"},"vehicle_type_id":"4","last_reported":1758697813,"current_range_meters":4000,"station_id":"","pricing_plan_id":"cebpf4jnsgd1na2vs0mg"},{"bike_id":"c7fdeddd-9aca-469e-b16b-fd53de09d5fa","system_id":"levelo_inurba_marseille","lat":43.24178,"lon":5.39724,"is_reserved":false,"is_disabled":false,"rental_uris":{"android":"levelo://app?vid=c7fdeddd-9aca-469e-b16b-fd53de09d5fa","ios":"levelo://app?vid=c7fdeddd-9aca-469e-b16b-fd53de09d5fa"},"vehicle_type_id":"4","last_reported":1758697813,"current_range_meters":4000,"station_id":"ce4bhn12rcd13ifvqgpg","pricing_plan_id":"cebpf4jnsgd1na2vs0mg"},{"bike_id":"7fd14ad2-a454-423d-bbfa-04d2678cc6ac","system_id":"levelo_inurba_marseille","lat":43.2976,"lon":5.38109,"is_reserved":false,"is_disabled":false,"rental_uris":{"android":"levelo://app?vid=7fd14ad2-a454-423d-bbfa-04d2678cc6ac","ios":"levelo://app?vid=7fd14ad2-a454-423d-bbfa-04d2678cc6ac"},"vehicle_type_id":"4","last_reported":1758697813,"current_range_meters":4400,"station_id":"ce4bgip2rcd13ifvqbb0","pricing_plan_id":"cebpf4jnsgd1na2vs0mg"},{"bike_id":"979caef1-c5a1-4061-a52a-61647ed3e7ea","system_id":"levelo_inurba_marseille","lat":43.273765,"lon":5.36258,"is_reserved":false,"is_disabled":false,"rental_uris":{"android":"levelo://app?vid=979caef1-c5a1-4061-a52a-61647ed3e7ea","ios":"levelo://app?vid=979caef1-c5a1-4061-a52a-61647ed3e7ea"},"vehicle_type_id":"4","last_reported":1758697813,"current_range_meters":4400,"station_id":"ce4bhbh2rcd13ifvqeo0","pricing_plan_id":"cebpf4jnsgd1na2vs0mg"},{"bike_id":"47845afb-cabf-470d-a067-1cde3b513003","system_id":"levelo_inurba_marseille","lat":43.26924,"lon":5.40274,"is_reserved":false,"is_disabled":false,"rental_uris":{"android":"levelo://app?vid=47845afb-cabf-470d-a067-1cde3b513003","ios":"levelo://app?vid=47845afb-cabf-470d-a067-1cde3b513003"},"vehicle_type_id":"4","last_reported":1758697813,"current_range_meters":4000,"station_id":"cjm6bp8fraef2m0cb0m0","pricing_plan_id":"cebpf4jnsgd1na2vs0mg"},{"bike_id":"213937f4-0cd9-48b8-9d64-0b73c37bc721","system_id":"levelo_inurba_marseille","lat":43.29558,"lon":5.38174,"is_reserved":false,"is_disabled":false,"rental_uris":{"android":"levelo://app?vid=213937f4-0cd9-48b8-9d64-0b73c37bc721","ios":"levelo://app?vid=213937f4-0cd9-48b8-9d64-0b73c37bc721"},"vehicle_type_id":"4","last_reported":1758697813,"current_range_meters":4400,"station_id":"","pricing_plan_id":"cebpf4jnsgd1na2vs0mg"},{"bike_id":"1efddf8d-578f-4e4c-8c3f-e3a8bd592ba4","system_id":"levelo_inurba_marseille","lat":43.29965,"lon":5.37439,"is_reserved":false,"is_disabled":false,"rental_uris":{"android":"levelo://app?vid=1efddf8d-578f-4e4c-8c3f-e3a8bd592ba4","ios":"levelo://app?vid=1efddf8d-578f-4e4c-8c3f-e3a8bd592ba4"},"vehicle_type_id":"4","last_reported":1758697813,"current_range_meters":4800,"station_id":"","pricing_plan_id":"cebpf4jnsgd1na2vs0mg"},{"bike_id":"0a1ab1a5-b85e-4ac3-936e-fe171b7ebe82","system_id":"levelo_inurba_marseille","lat":43.296295,"lon":5.381289,"is_reserved":false,"is_disabled":false,"rental_uris":{"android":"levelo://app?vid=0a1ab1a5-b85e-4ac3-936e-fe171b7ebe82","ios":"levelo://app?vid=0a1ab1a5-b85e-4ac3-936e-fe171b7ebe82"},"vehicle_type_id":"4","last_reported":1758697813,"current_range_meters":4800,"station_id":"","pricing_plan_id":"cebpf4jnsgd1na2vs0mg"},{"bike_id":"ea088649-0785-444a-b943-6a3da8a531c9","system_id":"levelo_inurba_marseille","lat":43.29521,"lon":5.37499,"is_reserved":false,"is_disabled":false,"rental_uris":{"android":"levelo://app?vid=ea088649-0785-444a-b943-6a3da8a531c9","ios":"levelo://app?vid=ea088649-0785-444a-b943-6a3da8a531c9"},"vehicle_type_id":"4","last_reported":1758697813,"current_range_meters":4400,"station_id":"ce4bgkp2rcd13ifvqbmg","pricing_plan_id":"cebpf4jnsgd1na2vs0mg"},{"bike_id":"4cabf13e-70d3-46c5-8d1e-119d522aa974","system_id":"levelo_inurba_marseille","lat":43.269257,"lon":5.389206,"is_reserved":false,"is_disabled":false,"rental_uris":{"android":"levelo://app?vid=4cabf13e-70d3-46c5-8d1e-119d522aa974","ios":"levelo://app?vid=4cabf13e-70d3-46c5-8d1e-119d522aa974"},"vehicle_type_id":"4","last_reported":1758697813,"current_range_meters":4800,"station_id":"ce4bhhh2rcd13ifvqfl0","pricing_plan_id":"cebpf4jnsgd1na2vs0mg"},{"bike_id":"7b8b75e1-7685-4b4a-ab4d-e52d8e3d363d","system_id":"levelo_inurba_marseille","lat":43.30914,"lon":5.36848,"is_reserved":false,"is_disabled":false,"rental_uris":{"android":"levelo://app?vid=7b8b75e1-7685-4b4a-ab4d-e52d8e3d363d","ios":"levelo://app?vid=7b8b75e1-7685-4b4a-ab4d-e52d8e3d363d"},"vehicle_type_id":"4","last_reported":1758697813,"current_range_meters":4800,"station_id":"ce4bgn92rcd13ifvqbvg","pricing_plan_id":"cebpf4jnsgd1na2vs0mg"},{"bike_id":"8732a2ba-7422-41d5-bfb5-8e30fc816ba2","system_id":"levelo_inurba_marseille","lat":43.29036,"lon":5.40068,"is_reserved":false,"is_disabled":false,"rental_uris":{"android":"levelo://app?vid=8732a2ba-7422-41d5-bfb5-8e30fc816ba2","ios":"levelo://app?vid=8732a2ba-7422-41d5-bfb5-8e30fc816ba2"},"vehicle_type_id":"4","last_reported":1758697813,"current_range_meters":5600,"station_id":"","pricing_plan_id":"cebpf4jnsgd1na2vs0mg"},{"bike_id":"6d79d2a3-7063-43a1-84cd-505825ce8f97","system_id":"levelo_inurba_marseille","lat":43.23955,"lon":5.36631,"is_reserved":false,"is_disabled":false,"rental_uris":{"android":"levelo://app?vid=6d79d2a3-7063-43a1-84cd-505825ce8f97","ios":"levelo://app?vid=6d79d2a3-7063-43a1-84cd-505825ce8f97"},"vehicle_type_id":"4","last_reported":1758697813,"current_range_meters":5600,"station_id":"ce4bhi12rcd13ifvqfp0","pricing_plan_id":"cebpf4jnsgd1na2vs0mg"},{"bike_id":"ea9ce6f3-f76d-4ffd-8ad7-c3f5082dfcbd","system_id":"levelo_inurba_marseille","lat":43.29225,"lon":5.36068,"is_reserved":false,"is_disabled":false,"rental_uris":{"android":"levelo://app?vid=ea9ce6f3-f76d-4ffd-8ad7-c3f5082dfcbd","ios":"levelo://app?vid=ea9ce6f3-f76d-4ffd-8ad7-c3f5082dfcbd"},"vehicle_type_id":"4","last_reported":1758697813,"current_range_meters":1600,"station_id":"ce4bhbh2rcd13ifvqeqg","pricing_plan_id":"cebpf4jnsgd1na2vs0mg"},{"bike_id":"a3837653-9d7f-44bd-bde0-e88fb18c4e1f","system_id":"levelo_inurba_marseille","lat":43.259342,"lon":5.409109,"is_reserved":false,"is_disabled":false,"rental_uris":{"android":"levelo://app?vid=a3837653-9d7f-44bd-bde0-e88fb18c4e1f","ios":"levelo://app?vid=a3837653-9d7f-44bd-bde0-e88fb18c4e1f"},"vehicle_type_id":"4","last_reported":1758697813,"current_range_meters":5600,"station_id":"ce4bhm92rcd13ifvqglg","pricing_plan_id":"cebpf4jnsgd1na2vs0mg"},{"bike_id":"5bb6f59c-9766-4957-8591-2872accea929","system_id":"levelo_inurba_marseille","lat":43.30144,"lon":5.37415,"is_reserved":false,"is_disabled":false,"rental_uris":{"android":"levelo://app?vid=5bb6f59c-9766-4957-8591-2872accea929","ios":"levelo://app?vid=5bb6f59c-9766-4957-8591-2872accea929"},"vehicle_type_id":"4","last_reported":1758697813,"current_range_meters":5600,"station_id":"ce4bgs92rcd13ifvqcc0","pricing_plan_id":"cebpf4jnsgd1na2vs0mg"},{"bike_id":"919d24c8-6b21-4565-9764-647e94ab6902","system_id":"levelo_inurba_marseille","lat":43.32657,"lon":5.40985,"is_reserved":false,"is_disabled":false,"rental_uris":{"android":"levelo://app?vid=919d24c8-6b21-4565-9764-647e94ab6902","ios":"levelo://app?vid=919d24c8-6b21-4565-9764-647e94ab6902"},"vehicle_type_id":"4","last_reported":1758697813,"current_range_meters":6000,"station_id":"ce4bhpp2rcd13ifvqhgg","pricing_plan_id":"cebpf4jnsgd1na2vs0mg"},{"bike_id":"82304ba4-71d4-444b-a52b-5e234edb762c","system_id":"levelo_inurba_marseille","lat":43.22945,"lon":5.35374,"is_reserved":false,"is_disabled":false,"rental_uris":{"android":"levelo://app?vid=82304ba4-71d4-444b-a52b-5e234edb762c","ios":"levelo://app?vid=82304ba4-71d4-444b-a52b-5e234edb762c"},"vehicle_type_id":"4","last_reported":1758697813,"current_range_meters":6000,"station_id":"","pricing_plan_id":"cebpf4jnsgd1na2vs0mg"},{"bike_id":"cdb840f3-312e-40e5-b10f-6c6dab22efa8","system_id":"levelo_inurba_marseille","lat":43.30463,"lon":5.379,"is_reserved":false,"is_disabled":false,"rental_uris":{"android":"levelo://app?vid=cdb840f3-312e-40e5-b10f-6c6dab22efa8","ios":"levelo://app?vid=cdb840f3-312e-40e5-b10f-6c6dab22efa8"},"vehicle_type_id":"4","last_reported":1758697813,"current_range_meters":5600,"station_id":"ce4bgup2rcd13ifvqcn0","pricing_plan_id":"cebpf4jnsgd1na2vs0mg"},{"bike_id":"a6f632b8-9135-4e42-ba82-987d30bd89bc","system_id":"levelo_inurba_marseille","lat":43.30489,"lon":5.39071,"is_reserved":false,"is_disabled":false,"rental_uris":{"android":"levelo://app?vid=a6f632b8-9135-4e42-ba82-987d30bd89bc","ios":"levelo://app?vid=a6f632b8-9135-4e42-ba82-987d30bd89bc"},"vehicle_type_id":"4","last_reported":1758697813,"current_range_meters":6000,"station_id":"ce4bh092rcd13ifvqd20","pricing_plan_id":"cebpf4jnsgd1na2vs0mg"},{"bike_id":"f80aeb72-5136-48b3-b519-e3338bc02459","system_id":"levelo_inurba_marseille","lat":43.301639,"lon":5.374346,"is_reserved":false,"is_disabled":false,"rental_uris":{"android":"levelo://app?vid=f80aeb72-5136-48b3-b519-e3338bc02459","ios":"levelo://app?vid=f80aeb72-5136-48b3-b519-e3338bc02459"},"vehicle_type_id":"4","last_reported":1758697813,"current_range_meters":6400,"station_id":"ce4bgs92rcd13ifvqcc0","pricing_plan_id":"cebpf4jnsgd1na2vs0mg"},{"bike_id":"698a1659-1be4-4464-8e40-0054e6845364","system_id":"levelo_inurba_marseille","lat":43.29389,"lon":5.40385,"is_reserved":false,"is_disabled":false,"rental_uris":{"android":"levelo://app?vid=698a1659-1be4-4464-8e40-0054e6845364","ios":"levelo://app?vid=698a1659-1be4-4464-8e40-0054e6845364"},"vehicle_type_id":"4","last_reported":1758697813,"current_range_meters":6400,"station_id":"","pricing_plan_id":"cebpf4jnsgd1na2vs0mg"},{"bike_id":"d7470c12-fd5b-439d-aa8e-5fb2060afd32","system_id":"levelo_inurba_marseille","lat":43.3127,"lon":5.40168,"is_reserved":false,"is_disabled":false,"rental_uris":{"android":"levelo://app?vid=d7470c12-fd5b-439d-aa8e-5fb2060afd32","ios":"levelo://app?vid=d7470c12-fd5b-439d-aa8e-5fb2060afd32"},"vehicle_type_id":"4","last_reported":1758697813,"current_range_meters":6000,"station_id":"ce4bh092rcd13ifvqd30","pricing_plan_id":"cebpf4jnsgd1na2vs0mg"},{"bike_id":"962b15bf-a341-4469-9450-c0428eb337e2","system_id":"levelo_inurba_marseille","lat":43.23148,"lon":5.43728,"is_reserved":false,"is_disabled":false,"rental_uris":{"android":"levelo://app?vid=962b15bf-a341-4469-9450-c0428eb337e2","ios":"levelo://app?vid=962b15bf-a341-4469-9450-c0428eb337e2"},"vehicle_type_id":"4","last_reported":1758697813,"current_range_meters":6400,"station_id":"ce4bhmp2rcd13ifvqgog","pricing_plan_id":"cebpf4jnsgd1na2vs0mg"},{"bike_id":"cb6bf7d2-2ed1-47c4-b0a7-9c935f0ebf1a","system_id":"levelo_inurba_marseille","lat":43.26854,"lon":5.4068,"is_reserved":false,"is_disabled":false,"rental_uris":{"android":"levelo://app?vid=cb6bf7d2-2ed1-47c4-b0a7-9c935f0ebf1a","ios":"levelo://app?vid=cb6bf7d2-2ed1-47c4-b0a7-9c935f0ebf1a"},"vehicle_type_id":"4","last_reported":1758697813,"current_range_meters":6400,"station_id":"","pricing_plan_id":"cebpf4jnsgd1na2vs0mg"},{"bike_id":"97bf8ce5-4076-4221-8caf-700957603d7d","system_id":"levelo_inurba_marseille","lat":43.30598,"lon":5.393645,"is_reserved":false,"is_disabled":false,"rental_uris":{"android":"levelo://app?vid=97bf8ce5-4076-4221-8caf-700957603d7d","ios":"levelo://app?vid=97bf8ce5-4076-4221-8caf-700957603d7d"},"vehicle_type_id":"4","last_reported":1758697813,"current_range_meters":1600,"station_id":"ce4bh0p2rcd13ifvqd80","pricing_plan_id":"cebpf4jnsgd1na2vs0mg"},{"bike_id":"eed2cf9a-36d5-4639-8402-2398b6fbd4cf","system_id":"levelo_inurba_marseille","lat":43.21761,"lon":5.34617,"is_reserved":false,"is_disabled":false,"rental_uris":{"android":"levelo://app?vid=eed2cf9a-36d5-4639-8402-2398b6fbd4cf","ios":"levelo://app?vid=eed2cf9a-36d5-4639-8402-2398b6fbd4cf"},"vehicle_type_id":"4","last_reported":1758697813,"current_range_meters":6400,"station_id":"st_cvj6r9ubvosntc0bgbag","pricing_plan_id":"cebpf4jnsgd1na2vs0mg"},{"bike_id":"f8b94a2b-9817-4cf8-9bdf-e1c71999b624","system_id":"levelo_inurba_marseille","lat":43.29687,"lon":5.37298,"is_reserved":false,"is_disabled":false,"rental_uris":{"android":"levelo://app?vid=f8b94a2b-9817-4cf8-9bdf-e1c71999b624","ios":"levelo://app?vid=f8b94a2b-9817-4cf8-9bdf-e1c71999b624"},"vehicle_type_id":"4","last_reported":1758697813,"current_range_meters":6000,"station_id":"ce4bgk12rcd13ifvqbj0","pricing_plan_id":"cebpf4jnsgd1na2vs0mg"},{"bike_id":"5096dd44-bb08-49f1-8f58-9d9dfb1faf50","system_id":"levelo_inurba_marseille","lat":43.33421,"lon":5.40093,"is_reserved":false,"is_disabled":false,"rental_uris":{"android":"levelo://app?vid=5096dd44-bb08-49f1-8f58-9d9dfb1faf50","ios":"levelo://app?vid=5096dd44-bb08-49f1-8f58-9d9dfb1faf50"},"vehicle_type_id":"4","last_reported":1758697813,"current_range_meters":6400,"station_id":"","pricing_plan_id":"cebpf4jnsgd1na2vs0mg"},{"bike_id":"023538a4-c74d-41b7-b52d-a9cf1f022cec","system_id":"levelo_inurba_marseille","lat":43.30945,"lon":5.38041,"is_reserved":false,"is_disabled":false,"rental_uris":{"android":"levelo://app?vid=023538a4-c74d-41b7-b52d-a9cf1f022cec","ios":"levelo://app?vid=023538a4-c74d-41b7-b52d-a9cf1f022cec"},"vehicle_type_id":"4","last_reported":1758697813,"current_range_meters":6400,"station_id":"","pricing_plan_id":"cebpf4jnsgd1na2vs0mg"},{"bike_id":"fdfc247d-0180-4d34-88ca-ce8017adec81","system_id":"levelo_inurba_marseille","lat":43.23961,"lon":5.36626,"is_reserved":false,"is_disabled":false,"rental_uris":{"android":"levelo://app?vid=fdfc247d-0180-4d34-88ca-ce8017adec81","ios":"levelo://app?vid=fdfc247d-0180-4d34-88ca-ce8017adec81"},"vehicle_type_id":"4","last_reported":1758697813,"current_range_meters":6800,"station_id":"ce4bhi12rcd13ifvqfp0","pricing_plan_id":"cebpf4jnsgd1na2vs0mg"},{"bike_id":"4999d5dd-23a6-4c17-bf5c-a04545d8752f","system_id":"levelo_inurba_marseille","lat":43.2603,"lon":5.37552,"is_reserved":false,"is_disabled":false,"rental_uris":{"android":"levelo://app?vid=4999d5dd-23a6-4c17-bf5c-a04545d8752f","ios":"levelo://app?vid=4999d5dd-23a6-4c17-bf5c-a04545d8752f"},"vehicle_type_id":"4","last_reported":1758697813,"current_range_meters":6800,"station_id":"ce4bhgh2rcd13ifvqfa0","pricing_plan_id":"cebpf4jnsgd1na2vs0mg"},{"bike_id":"6fe5cb0c-e540-4d3f-ac5f-fea3361ec772","system_id":"levelo_inurba_marseille","lat":43.25868,"lon":5.39892,"is_reserved":false,"is_disabled":false,"rental_uris":{"android":"levelo://app?vid=6fe5cb0c-e540-4d3f-ac5f-fea3361ec772","ios":"levelo://app?vid=6fe5cb0c-e540-4d3f-ac5f-fea3361ec772"},"vehicle_type_id":"4","last_reported":1758697813,"current_range_meters":6800,"station_id":"ce4bhl92rcd13ifvqghg","pricing_plan_id":"cebpf4jnsgd1na2vs0mg"},{"bike_id":"c95e0c05-dd94-491f-8092-9c7978400114","system_id":"levelo_inurba_marseille","lat":43.33487,"lon":5.36212,"is_reserved":false,"is_disabled":false,"rental_uris":{"android":"levelo://app?vid=c95e0c05-dd94-491f-8092-9c7978400114","ios":"levelo://app?vid=c95e0c05-dd94-491f-8092-9c7978400114"},"vehicle_type_id":"4","last_reported":1758697813,"current_range_meters":8000,"station_id":"ce4bhs12rcd13ifvqhvg","pricing_plan_id":"cebpf4jnsgd1na2vs0mg"},{"bike_id":"1d25f335-4e13-48fa-a16e-9454a1ac6fa4","system_id":"levelo_inurba_marseille","lat":43.23191,"lon":5.35552,"is_reserved":false,"is_disabled":false,"rental_uris":{"android":"levelo://app?vid=1d25f335-4e13-48fa-a16e-9454a1ac6fa4","ios":"levelo://app?vid=1d25f335-4e13-48fa-a16e-9454a1ac6fa4"},"vehicle_type_id":"4","last_reported":1758697813,"current_range_meters":8000,"station_id":"ce4bhu92rcd13ifvqi70","pricing_plan_id":"cebpf4jnsgd1na2vs0mg"},{"bike_id":"df9ecab4-6056-44cc-a720-250479e09d7c","system_id":"levelo_inurba_marseille","lat":43.29001,"lon":5.399,"is_reserved":false,"is_disabled":false,"rental_uris":{"android":"levelo://app?vid=df9ecab4-6056-44cc-a720-250479e09d7c","ios":"levelo://app?vid=df9ecab4-6056-44cc-a720-250479e09d7c"},"vehicle_type_id":"4","last_reported":1758697813,"current_range_meters":8000,"station_id":"","pricing_plan_id":"cebpf4jnsgd1na2vs0mg"},{"bike_id":"eeda89cd-1a7a-4b2c-994b-0d3984d0fcfa","system_id":"levelo_inurba_marseille","lat":43.29298,"lon":5.37457,"is_reserved":false,"is_disabled":false,"rental_uris":{"android":"levelo://app?vid=eeda89cd-1a7a-4b2c-994b-0d3984d0fcfa","ios":"levelo://app?vid=eeda89cd-1a7a-4b2c-994b-0d3984d0fcfa"},"vehicle_type_id":"4","last_reported":1758697813,"current_range_meters":8000,"station_id":"ce4bgi12rcd13ifvqb70","pricing_plan_id":"cebpf4jnsgd1na2vs0mg"},{"bike_id":"bde5886c-52ee-4ad1-b762-7e40d742f722","system_id":"levelo_inurba_marseille","lat":43.30143,"lon":5.37406,"is_reserved":false,"is_disabled":false,"rental_uris":{"android":"levelo://app?vid=bde5886c-52ee-4ad1-b762-7e40d742f722","ios":"levelo://app?vid=bde5886c-52ee-4ad1-b762-7e40d742f722"},"vehicle_type_id":"4","last_reported":1758697813,"current_range_meters":8000,"station_id":"ce4bgs92rcd13ifvqcc0","pricing_plan_id":"cebpf4jnsgd1na2vs0mg"},{"bike_id":"8d243e83-cc74-44d3-bf18-f20421549672","system_id":"levelo_inurba_marseille","lat":43.28934,"lon":5.35932,"is_reserved":false,"is_disabled":false,"rental_uris":{"android":"levelo://app?vid=8d243e83-cc74-44d3-bf18-f20421549672","ios":"levelo://app?vid=8d243e83-cc74-44d3-bf18-f20421549672"},"vehicle_type_id":"4","last_reported":1758697813,"current_range_meters":8400,"station_id":"","pricing_plan_id":"cebpf4jnsgd1na2vs0mg"},{"bike_id":"5831c095-df14-45e5-a8ab-be880ef9780a","system_id":"levelo_inurba_marseille","lat":43.26685,"lon":5.38264,"is_reserved":false,"is_disabled":false,"rental_uris":{"android":"levelo://app?vid=5831c095-df14-45e5-a8ab-be880ef9780a","ios":"levelo://app?vid=5831c095-df14-45e5-a8ab-be880ef9780a"},"vehicle_type_id":"4","last_reported":1758697813,"current_range_meters":8800,"station_id":"ce4bhg92rcd13ifvqf90","pricing_plan_id":"cebpf4jnsgd1na2vs0mg"},{"bike_id":"31eebac4-aacc-48a2-a336-84950d47cb48","system_id":"levelo_inurba_marseille","lat":43.289378,"lon":5.396231,"is_reserved":false,"is_disabled":false,"rental_uris":{"android":"levelo://app?vid=31eebac4-aacc-48a2-a336-84950d47cb48","ios":"levelo://app?vid=31eebac4-aacc-48a2-a336-84950d47cb48"},"vehicle_type_id":"4","last_reported":1758697813,"current_range_meters":8800,"station_id":"ce4bh3h2rcd13ifvqdn0","pricing_plan_id":"cebpf4jnsgd1na2vs0mg"},{"bike_id":"6617f580-5e93-4bb9-8dd7-ba7ca8a21659","system_id":"levelo_inurba_marseille","lat":43.25001,"lon":5.38927,"is_reserved":false,"is_disabled":false,"rental_uris":{"android":"levelo://app?vid=6617f580-5e93-4bb9-8dd7-ba7ca8a21659","ios":"levelo://app?vid=6617f580-5e93-4bb9-8dd7-ba7ca8a21659"},"vehicle_type_id":"4","last_reported":1758697813,"current_range_meters":8800,"station_id":"ce4bhgp2rcd13ifvqfd0","pricing_plan_id":"cebpf4jnsgd1na2vs0mg"},{"bike_id":"ba5db9ed-0955-44e1-bfbc-a138fae16e15","system_id":"levelo_inurba_marseille","lat":43.239577,"lon":5.36623,"is_reserved":false,"is_disabled":false,"rental_uris":{"android":"levelo://app?vid=ba5db9ed-0955-44e1-bfbc-a138fae16e15","ios":"levelo://app?vid=ba5db9ed-0955-44e1-bfbc-a138fae16e15"},"vehicle_type_id":"4","last_reported":1758697813,"current_range_meters":9600,"station_id":"ce4bhi12rcd13ifvqfp0","pricing_plan_id":"cebpf4jnsgd1na2vs0mg"},{"bike_id":"8973c653-5574-48a3-9f8f-417630e5dbef","system_id":"levelo_inurba_marseille","lat":43.27677,"lon":5.38867,"is_reserved":false,"is_disabled":false,"rental_uris":{"android":"levelo://app?vid=8973c653-5574-48a3-9f8f-417630e5dbef","ios":"levelo://app?vid=8973c653-5574-48a3-9f8f-417630e5dbef"},"vehicle_type_id":"4","last_reported":1758697813,"current_range_meters":9200,"station_id":"ce4bhi12rcd13ifvqfo0","pricing_plan_id":"cebpf4jnsgd1na2vs0mg"},{"bike_id":"e3485370-4267-40d2-baa1-aac3126cd3bd","system_id":"levelo_inurba_marseille","lat":43.25716,"lon":5.41107,"is_reserved":false,"is_disabled":false,"rental_uris":{"android":"levelo://app?vid=e3485370-4267-40d2-baa1-aac3126cd3bd","ios":"levelo://app?vid=e3485370-4267-40d2-baa1-aac3126cd3bd"},"vehicle_type_id":"4","last_reported":1758697813,"current_range_meters":9600,"station_id":"ce4bhkp2rcd13ifvqgd0","pricing_plan_id":"cebpf4jnsgd1na2vs0mg"},{"bike_id":"d00313f4-0986-4a54-a1be-bae125febd7a","system_id":"levelo_inurba_marseille","lat":43.29243,"lon":5.36045,"is_reserved":false,"is_disabled":false,"rental_uris":{"android":"levelo://app?vid=d00313f4-0986-4a54-a1be-bae125febd7a","ios":"levelo://app?vid=d00313f4-0986-4a54-a1be-bae125febd7a"},"vehicle_type_id":"4","last_reported":1758697813,"current_range_meters":9600,"station_id":"ce4bhbh2rcd13ifvqeqg","pricing_plan_id":"cebpf4jnsgd1na2vs0mg"},{"bike_id":"5fcbbafe-b7e7-4fec-b1c7-a7b3c72a3d7a","system_id":"levelo_inurba_marseille","lat":43.24069,"lon":5.37771,"is_reserved":false,"is_disabled":false,"rental_uris":{"android":"levelo://app?vid=5fcbbafe-b7e7-4fec-b1c7-a7b3c72a3d7a","ios":"levelo://app?vid=5fcbbafe-b7e7-4fec-b1c7-a7b3c72a3d7a"},"vehicle_type_id":"4","last_reported":1758697813,"current_range_meters":9600,"station_id":"ce4bhnp2rcd13ifvqgvg","pricing_plan_id":"cebpf4jnsgd1na2vs0mg"},{"bike_id":"a1019327-7ac7-4b65-b2ac-a50abd5f451c","system_id":"levelo_inurba_marseille","lat":43.29623,"lon":5.37712,"is_reserved":false,"is_disabled":false,"rental_uris":{"android":"levelo://app?vid=a1019327-7ac7-4b65-b2ac-a50abd5f451c","ios":"levelo://app?vid=a1019327-7ac7-4b65-b2ac-a50abd5f451c"},"vehicle_type_id":"4","last_reported":1758697813,"current_range_meters":10000,"station_id":"ce4bgi92rcd13ifvqb90","pricing_plan_id":"cebpf4jnsgd1na2vs0mg"},{"bike_id":"08ffd931-e17f-4442-9575-cf4dfdcd5276","system_id":"levelo_inurba_marseille","lat":43.28269,"lon":5.35082,"is_reserved":false,"is_disabled":false,"rental_uris":{"android":"levelo://app?vid=08ffd931-e17f-4442-9575-cf4dfdcd5276","ios":"levelo://app?vid=08ffd931-e17f-4442-9575-cf4dfdcd5276"},"vehicle_type_id":"4","last_reported":1758697813,"current_range_meters":10000,"station_id":"ce4bhbp2rcd13ifvqerg","pricing_plan_id":"cebpf4jnsgd1na2vs0mg"},{"bike_id":"7645fca4-f741-4eef-b1fe-a688078e1d09","system_id":"levelo_inurba_marseille","lat":43.2464,"lon":5.43163,"is_reserved":false,"is_disabled":false,"rental_uris":{"android":"levelo://app?vid=7645fca4-f741-4eef-b1fe-a688078e1d09","ios":"levelo://app?vid=7645fca4-f741-4eef-b1fe-a688078e1d09"},"vehicle_type_id":"4","last_reported":1758697813,"current_range_meters":10000,"station_id":"st_d2m6c4gdas8pm72e190g","pricing_plan_id":"cebpf4jnsgd1na2vs0mg"},{"bike_id":"8a36147f-971f-4bf9-a3b3-6c83949ca6a6","system_id":"levelo_inurba_marseille","lat":43.3211,"lon":5.36718,"is_reserved":false,"is_disabled":false,"rental_uris":{"android":"levelo://app?vid=8a36147f-971f-4bf9-a3b3-6c83949ca6a6","ios":"levelo://app?vid=8a36147f-971f-4bf9-a3b3-6c83949ca6a6"},"vehicle_type_id":"4","last_reported":1758697813,"current_range_meters":10000,"station_id":"ce4bhrh2rcd13ifvqhug","pricing_plan_id":"cebpf4jnsgd1na2vs0mg"},{"bike_id":"a3af3e50-dcdd-4d03-b7a5-14c99d8a440a","system_id":"levelo_inurba_marseille","lat":43.29041,"lon":5.39961,"is_reserved":false,"is_disabled":false,"rental_uris":{"android":"levelo://app?vid=a3af3e50-dcdd-4d03-b7a5-14c99d8a440a","ios":"levelo://app?vid=a3af3e50-dcdd-4d03-b7a5-14c99d8a440a"},"vehicle_type_id":"4","last_reported":1758697813,"current_range_meters":10000,"station_id":"ce4bh392rcd13ifvqdm0","pricing_plan_id":"cebpf4jnsgd1na2vs0mg"},{"bike_id":"bb8a67de-3802-41b6-89f7-7c29cbe5c0c1","system_id":"levelo_inurba_marseille","lat":43.30271,"lon":5.37705,"is_reserved":false,"is_disabled":false,"rental_uris":{"android":"levelo://app?vid=bb8a67de-3802-41b6-89f7-7c29cbe5c0c1","ios":"levelo://app?vid=bb8a67de-3802-41b6-89f7-7c29cbe5c0c1"},"vehicle_type_id":"4","last_reported":1758697813,"current_range_meters":10000,"station_id":"ce4bguh2rcd13ifvqcj0","pricing_plan_id":"cebpf4jnsgd1na2vs0mg"},{"bike_id":"05c71d1b-93ca-41b5-9e26-6b92b9d131f5","system_id":"levelo_inurba_marseille","lat":43.3054,"lon":5.36552,"is_reserved":false,"is_disabled":false,"rental_uris":{"android":"levelo://app?vid=05c71d1b-93ca-41b5-9e26-6b92b9d131f5","ios":"levelo://app?vid=05c71d1b-93ca-41b5-9e26-6b92b9d131f5"},"vehicle_type_id":"4","last_reported":1758697813,"current_range_meters":10800,"station_id":"ce4bgs12rcd13ifvqcag","pricing_plan_id":"cebpf4jnsgd1na2vs0mg"},{"bike_id":"bd7b6cc5-f0aa-446b-b499-b05629fc9c71","system_id":"levelo_inurba_marseille","lat":43.317685,"lon":5.389838,"is_reserved":false,"is_disabled":false,"rental_uris":{"android":"levelo://app?vid=bd7b6cc5-f0aa-446b-b499-b05629fc9c71","ios":"levelo://app?vid=bd7b6cc5-f0aa-446b-b499-b05629fc9c71"},"vehicle_type_id":"4","last_reported":1758697813,"current_range_meters":10800,"station_id":"ce4bhqp2rcd13ifvqhng","pricing_plan_id":"cebpf4jnsgd1na2vs0mg"},{"bike_id":"ee324131-7f1e-4c44-8cd4-8facf81a76e2","system_id":"levelo_inurba_marseille","lat":43.27984,"lon":5.40015,"is_reserved":false,"is_disabled":false,"rental_uris":{"android":"levelo://app?vid=ee324131-7f1e-4c44-8cd4-8facf81a76e2","ios":"levelo://app?vid=ee324131-7f1e-4c44-8cd4-8facf81a76e2"},"vehicle_type_id":"4","last_reported":1758697813,"current_range_meters":10800,"station_id":"ce4bho92rcd13ifvqh4g","pricing_plan_id":"cebpf4jnsgd1na2vs0mg"},{"bike_id":"7c0482c3-9253-4d1b-b4f3-be55cdb7721d","system_id":"levelo_inurba_marseille","lat":43.33757,"lon":5.37466,"is_reserved":false,"is_disabled":false,"rental_uris":{"android":"levelo://app?vid=7c0482c3-9253-4d1b-b4f3-be55cdb7721d","ios":"levelo://app?vid=7c0482c3-9253-4d1b-b4f3-be55cdb7721d"},"vehicle_type_id":"4","last_reported":1758697813,"current_range_meters":11200,"station_id":"","pricing_plan_id":"cebpf4jnsgd1na2vs0mg"},{"bike_id":"a43d116c-e6de-40c9-856d-831194dd8811","system_id":"levelo_inurba_marseille","lat":43.25724,"lon":5.41111,"is_reserved":false,"is_disabled":false,"rental_uris":{"android":"levelo://app?vid=a43d116c-e6de-40c9-856d-831194dd8811","ios":"levelo://app?vid=a43d116c-e6de-40c9-856d-831194dd8811"},"vehicle_type_id":"4","last_reported":1758697813,"current_range_meters":11200,"station_id":"ce4bhkp2rcd13ifvqgd0","pricing_plan_id":"cebpf4jnsgd1na2vs0mg"},{"bike_id":"34938a84-8c69-427d-ac76-3d11532bf34a","system_id":"levelo_inurba_marseille","lat":43.2919,"lon":5.35795,"is_reserved":false,"is_disabled":false,"rental_uris":{"android":"levelo://app?vid=34938a84-8c69-427d-ac76-3d11532bf34a","ios":"levelo://app?vid=34938a84-8c69-427d-ac76-3d11532bf34a"},"vehicle_type_id":"4","last_reported":1758697813,"current_range_meters":11200,"station_id":"ce4bhb12rcd13ifvqel0","pricing_plan_id":"cebpf4jnsgd1na2vs0mg"},{"bike_id":"d438a7f3-977a-45af-8dca-ef2d933780b8","system_id":"levelo_inurba_marseille","lat":43.287037,"lon":5.399952,"is_reserved":false,"is_disabled":false,"rental_uris":{"android":"levelo://app?vid=d438a7f3-977a-45af-8dca-ef2d933780b8","ios":"levelo://app?vid=d438a7f3-977a-45af-8dca-ef2d933780b8"},"vehicle_type_id":"4","last_reported":1758697813,"current_range_meters":11200,"station_id":"ce4bho92rcd13ifvqh3g","pricing_plan_id":"cebpf4jnsgd1na2vs0mg"},{"bike_id":"bcb71d7d-9f90-4495-a001-e0f5211c472c","system_id":"levelo_inurba_marseille","lat":43.29761,"lon":5.37627,"is_reserved":false,"is_disabled":false,"rental_uris":{"android":"levelo://app?vid=bcb71d7d-9f90-4495-a001-e0f5211c472c","ios":"levelo://app?vid=bcb71d7d-9f90-4495-a001-e0f5211c472c"},"vehicle_type_id":"4","last_reported":1758697813,"current_range_meters":11200,"station_id":"","pricing_plan_id":"cebpf4jnsgd1na2vs0mg"},{"bike_id":"4c0b651b-953c-4759-a0f7-0074f59a45eb","system_id":"levelo_inurba_marseille","lat":43.25813,"lon":5.39292,"is_reserved":false,"is_disabled":false,"rental_uris":{"android":"levelo://app?vid=4c0b651b-953c-4759-a0f7-0074f59a45eb","ios":"levelo://app?vid=4c0b651b-953c-4759-a0f7-0074f59a45eb"},"vehicle_type_id":"4","last_reported":1758697813,"current_range_meters":11200,"station_id":"","pricing_plan_id":"cebpf4jnsgd1na2vs0mg"},{"bike_id":"b3ec3379-5c3f-4624-9266-6edb4f07b01e","system_id":"levelo_inurba_marseille","lat":43.30274,"lon":5.37697,"is_reserved":false,"is_disabled":false,"rental_uris":{"android":"levelo://app?vid=b3ec3379-5c3f-4624-9266-6edb4f07b01e","ios":"levelo://app?vid=b3ec3379-5c3f-4624-9266-6edb4f07b01e"},"vehicle_type_id":"4","last_reported":1758697813,"current_range_meters":11200,"station_id":"ce4bguh2rcd13ifvqcj0","pricing_plan_id":"cebpf4jnsgd1na2vs0mg"},{"bike_id":"43d57fd4-047e-4ac8-97e5-ec9b96239472","system_id":"levelo_inurba_marseille","lat":43.33231,"lon":5.39821,"is_reserved":false,"is_disabled":false,"rental_uris":{"android":"levelo://app?vid=43d57fd4-047e-4ac8-97e5-ec9b96239472","ios":"levelo://app?vid=43d57fd4-047e-4ac8-97e5-ec9b96239472"},"vehicle_type_id":"4","last_reported":1758697813,"current_range_meters":11200,"station_id":"","pricing_plan_id":"cebpf4jnsgd1na2vs0mg"},{"bike_id":"f0645325-9893-48c7-962e-1758f14fb746","system_id":"levelo_inurba_marseille","lat":43.23154,"lon":5.43726,"is_reserved":false,"is_disabled":false,"rental_uris":{"android":"levelo://app?vid=f0645325-9893-48c7-962e-1758f14fb746","ios":"levelo://app?vid=f0645325-9893-48c7-962e-1758f14fb746"},"vehicle_type_id":"4","last_reported":1758697813,"current_range_meters":11200,"station_id":"ce4bhmp2rcd13ifvqgog","pricing_plan_id":"cebpf4jnsgd1na2vs0mg"},{"bike_id":"e35dc3d8-0dfe-4bd4-87f7-5d3ca8bee4e5","system_id":"levelo_inurba_marseille","lat":43.250812,"lon":5.426072,"is_reserved":false,"is_disabled":false,"rental_uris":{"android":"levelo://app?vid=e35dc3d8-0dfe-4bd4-87f7-5d3ca8bee4e5","ios":"levelo://app?vid=e35dc3d8-0dfe-4bd4-87f7-5d3ca8bee4e5"},"vehicle_type_id":"4","last_reported":1758697813,"current_range_meters":11200,"station_id":"","pricing_plan_id":"cebpf4jnsgd1na2vs0mg"},{"bike_id":"428af089-bb66-4b3f-8283-d1eae009892a","system_id":"levelo_inurba_marseille","lat":43.2418,"lon":5.39733,"is_reserved":false,"is_disabled":false,"rental_uris":{"android":"levelo://app?vid=428af089-bb66-4b3f-8283-d1eae009892a","ios":"levelo://app?vid=428af089-bb66-4b3f-8283-d1eae009892a"},"vehicle_type_id":"4","last_reported":1758697813,"current_range_meters":11600,"station_id":"ce4bhn12rcd13ifvqgpg","pricing_plan_id":"cebpf4jnsgd1na2vs0mg"},{"bike_id":"ef36e22a-43d4-447f-965d-6079a5adfab2","system_id":"levelo_inurba_marseille","lat":43.30535,"lon":5.38416,"is_reserved":false,"is_disabled":true,"rental_uris":{"android":"levelo://app?vid=ef36e22a-43d4-447f-965d-6079a5adfab2","ios":"levelo://app?vid=ef36e22a-43d4-447f-965d-6079a5adfab2"},"vehicle_type_id":"4","last_reported":1758697813,"current_range_meters":11600,"station_id":"ce4bgg92rcd13ifvqb30","pricing_plan_id":"cebpf4jnsgd1na2vs0mg"},{"bike_id":"06a24bce-028d-4b4a-b4a3-d45296145db5","system_id":"levelo_inurba_marseille","lat":43.28425,"lon":5.34991,"is_reserved":false,"is_disabled":true,"rental_uris":{"android":"levelo://app?vid=06a24bce-028d-4b4a-b4a3-d45296145db5","ios":"levelo://app?vid=06a24bce-028d-4b4a-b4a3-d45296145db5"},"vehicle_type_id":"4","last_reported":1758697813,"current_range_meters":11600,"station_id":"ce4bhch2rcd13ifvqeug","pricing_plan_id":"cebpf4jnsgd1na2vs0mg"},{"bike_id":"cf6a3114-8b96-4686-8fcd-f09e0af14b96","system_id":"levelo_inurba_marseille","lat":43.30536,"lon":5.367,"is_reserved":false,"is_disabled":false,"rental_uris":{"android":"levelo://app?vid=cf6a3114-8b96-4686-8fcd-f09e0af14b96","ios":"levelo://app?vid=cf6a3114-8b96-4686-8fcd-f09e0af14b96"},"vehicle_type_id":"4","last_reported":1758697813,"current_range_meters":11600,"station_id":"ce4bgrp2rcd13ifvqc9g","pricing_plan_id":"cebpf4jnsgd1na2vs0mg"},{"bike_id":"e7a19603-697e-4f34-bf6e-d21cb8ee387e","system_id":"levelo_inurba_marseille","lat":43.26066,"lon":5.39386,"is_reserved":false,"is_disabled":true,"rental_uris":{"android":"levelo://app?vid=e7a19603-697e-4f34-bf6e-d21cb8ee387e","ios":"levelo://app?vid=e7a19603-697e-4f34-bf6e-d21cb8ee387e"},"vehicle_type_id":"4","last_reported":1758697813,"current_range_meters":12000,"station_id":"ce4bhh92rcd13ifvqfj0","pricing_plan_id":"cebpf4jnsgd1na2vs0mg"},{"bike_id":"2884e01e-e8e5-4f64-839a-a54c238e1ae3","system_id":"levelo_inurba_marseille","lat":43.22548,"lon":5.34843,"is_reserved":false,"is_disabled":false,"rental_uris":{"android":"levelo://app?vid=2884e01e-e8e5-4f64-839a-a54c238e1ae3","ios":"levelo://app?vid=2884e01e-e8e5-4f64-839a-a54c238e1ae3"},"vehicle_type_id":"4","last_reported":1758697813,"current_range_meters":12000,"station_id":"","pricing_plan_id":"cebpf4jnsgd1na2vs0mg"},{"bike_id":"5f592b92-ff54-4483-862b-5f5d94a1e8d5","system_id":"levelo_inurba_marseille","lat":43.23959,"lon":5.36642,"is_reserved":false,"is_disabled":false,"rental_uris":{"android":"levelo://app?vid=5f592b92-ff54-4483-862b-5f5d94a1e8d5","ios":"levelo://app?vid=5f592b92-ff54-4483-862b-5f5d94a1e8d5"},"vehicle_type_id":"4","last_reported":1758697813,"current_range_meters":12000,"station_id":"ce4bhi12rcd13ifvqfp0","pricing_plan_id":"cebpf4jnsgd1na2vs0mg"},{"bike_id":"f746730a-01df-4aaf-8b03-2432ec0f5a0e","system_id":"levelo_inurba_marseille","lat":43.25925,"lon":5.40887,"is_reserved":false,"is_disabled":false,"rental_uris":{"android":"levelo://app?vid=f746730a-01df-4aaf-8b03-2432ec0f5a0e","ios":"levelo://app?vid=f746730a-01df-4aaf-8b03-2432ec0f5a0e"},"vehicle_type_id":"4","last_reported":1758697813,"current_range_meters":12000,"station_id":"ce4bhm92rcd13ifvqglg","pricing_plan_id":"cebpf4jnsgd1na2vs0mg"},{"bike_id":"56039a99-90ad-4747-a3ca-50fe1510cd56","system_id":"levelo_inurba_marseille","lat":43.28264,"lon":5.35053,"is_reserved":false,"is_disabled":false,"rental_uris":{"android":"levelo://app?vid=56039a99-90ad-4747-a3ca-50fe1510cd56","ios":"levelo://app?vid=56039a99-90ad-4747-a3ca-50fe1510cd56"},"vehicle_type_id":"4","last_reported":1758697813,"current_range_meters":11600,"station_id":"ce4bhbp2rcd13ifvqerg","pricing_plan_id":"cebpf4jnsgd1na2vs0mg"},{"bike_id":"165fcf0a-b650-4ad9-bdd4-323be1ddaa20","system_id":"levelo_inurba_marseille","lat":43.34153,"lon":5.40896,"is_reserved":false,"is_disabled":false,"rental_uris":{"android":"levelo://app?vid=165fcf0a-b650-4ad9-bdd4-323be1ddaa20","ios":"levelo://app?vid=165fcf0a-b650-4ad9-bdd4-323be1ddaa20"},"vehicle_type_id":"4","last_reported":1758697813,"current_range_meters":11600,"station_id":"ce4bhqh2rcd13ifvqhlg","pricing_plan_id":"cebpf4jnsgd1na2vs0mg"},{"bike_id":"4d0b8f85-b504-4f80-8186-7b2d85e1d61f","system_id":"levelo_inurba_marseille","lat":43.24044,"lon":5.37746,"is_reserved":false,"is_disabled":false,"rental_uris":{"android":"levelo://app?vid=4d0b8f85-b504-4f80-8186-7b2d85e1d61f","ios":"levelo://app?vid=4d0b8f85-b504-4f80-8186-7b2d85e1d61f"},"vehicle_type_id":"4","last_reported":1758697813,"current_range_meters":12000,"station_id":"ce4bhnp2rcd13ifvqgvg","pricing_plan_id":"cebpf4jnsgd1na2vs0mg"},{"bike_id":"3c26ade7-b50e-4eaf-b4cc-15fd7d419534","system_id":"levelo_inurba_marseille","lat":43.23153,"lon":5.4371,"is_reserved":false,"is_disabled":false,"rental_uris":{"android":"levelo://app?vid=3c26ade7-b50e-4eaf-b4cc-15fd7d419534","ios":"levelo://app?vid=3c26ade7-b50e-4eaf-b4cc-15fd7d419534"},"vehicle_type_id":"4","last_reported":1758697813,"current_range_meters":11600,"station_id":"ce4bhmp2rcd13ifvqgog","pricing_plan_id":"cebpf4jnsgd1na2vs0mg"},{"bike_id":"2ed7add6-6469-4c05-be99-776a0c3ab2d7","system_id":"levelo_inurba_marseille","lat":43.24168,"lon":5.36405,"is_reserved":false,"is_disabled":false,"rental_uris":{"android":"levelo://app?vid=2ed7add6-6469-4c05-be99-776a0c3ab2d7","ios":"levelo://app?vid=2ed7add6-6469-4c05-be99-776a0c3ab2d7"},"vehicle_type_id":"4","last_reported":1758697813,"current_range_meters":12000,"station_id":"cpo36qri1sfpv3e86is0","pricing_plan_id":"cebpf4jnsgd1na2vs0mg"},{"bike_id":"ff363bf3-8d67-4f85-a90b-d63b35c9e259","system_id":"levelo_inurba_marseille","lat":43.27355,"lon":5.42404,"is_reserved":false,"is_disabled":false,"rental_uris":{"android":"levelo://app?vid=ff363bf3-8d67-4f85-a90b-d63b35c9e259","ios":"levelo://app?vid=ff363bf3-8d67-4f85-a90b-d63b35c9e259"},"vehicle_type_id":"4","last_reported":1758697813,"current_range_meters":12000,"station_id":"","pricing_plan_id":"cebpf4jnsgd1na2vs0mg"},{"bike_id":"dddca5ef-4a33-499b-936a-6d8e6136a417","system_id":"levelo_inurba_marseille","lat":43.22951,"lon":5.354,"is_reserved":false,"is_disabled":false,"rental_uris":{"android":"levelo://app?vid=dddca5ef-4a33-499b-936a-6d8e6136a417","ios":"levelo://app?vid=dddca5ef-4a33-499b-936a-6d8e6136a417"},"vehicle_type_id":"4","last_reported":1758697813,"current_range_meters":12000,"station_id":"cpo3532slgdg3j2ikp40","pricing_plan_id":"cebpf4jnsgd1na2vs0mg"},{"bike_id":"9ef9b1e9-0f9a-44c5-9865-86f098908bd2","system_id":"levelo_inurba_marseille","lat":43.29971,"lon":5.38496,"is_reserved":false,"is_disabled":true,"rental_uris":{"android":"levelo://app?vid=9ef9b1e9-0f9a-44c5-9865-86f098908bd2","ios":"levelo://app?vid=9ef9b1e9-0f9a-44c5-9865-86f098908bd2"},"vehicle_type_id":"4","last_reported":1758697813,"current_range_meters":12400,"station_id":"ce4bgj92rcd13ifvqbd0","pricing_plan_id":"cebpf4jnsgd1na2vs0mg"},{"bike_id":"a60abba9-f9b8-477b-8786-175fc2b6218b","system_id":"levelo_inurba_marseille","lat":43.30817,"lon":5.3707,"is_reserved":false,"is_disabled":false,"rental_uris":{"android":"levelo://app?vid=a60abba9-f9b8-477b-8786-175fc2b6218b","ios":"levelo://app?vid=a60abba9-f9b8-477b-8786-175fc2b6218b"},"vehicle_type_id":"4","last_reported":1758697813,"current_range_meters":12800,"station_id":"","pricing_plan_id":"cebpf4jnsgd1na2vs0mg"},{"bike_id":"ae140a32-5f79-427f-90a7-d410e17b7823","system_id":"levelo_inurba_marseille","lat":43.2668,"lon":5.38264,"is_reserved":false,"is_disabled":true,"rental_uris":{"android":"levelo://app?vid=ae140a32-5f79-427f-90a7-d410e17b7823","ios":"levelo://app?vid=ae140a32-5f79-427f-90a7-d410e17b7823"},"vehicle_type_id":"4","last_reported":1758697813,"current_range_meters":12800,"station_id":"","pricing_plan_id":"cebpf4jnsgd1na2vs0mg"},{"bike_id":"edade4de-eb90-41df-bddf-508a7e4d485a","system_id":"levelo_inurba_marseille","lat":43.24168,"lon":5.36398,"is_reserved":false,"is_disabled":false,"rental_uris":{"android":"levelo://app?vid=edade4de-eb90-41df-bddf-508a7e4d485a","ios":"levelo://app?vid=edade4de-eb90-41df-bddf-508a7e4d485a"},"vehicle_type_id":"4","last_reported":1758697813,"current_range_meters":12800,"station_id":"cpo36qri1sfpv3e86is0","pricing_plan_id":"cebpf4jnsgd1na2vs0mg"},{"bike_id":"b1ce93cc-c50a-4c33-91d4-e327b44da2b1","system_id":"levelo_inurba_marseille","lat":43.2986,"lon":5.38916,"is_reserved":false,"is_disabled":true,"rental_uris":{"android":"levelo://app?vid=b1ce93cc-c50a-4c33-91d4-e327b44da2b1","ios":"levelo://app?vid=b1ce93cc-c50a-4c33-91d4-e327b44da2b1"},"vehicle_type_id":"4","last_reported":1758697813,"current_range_meters":12800,"station_id":"ce4bh392rcd13ifvqdl0","pricing_plan_id":"cebpf4jnsgd1na2vs0mg"},{"bike_id":"9b8594a3-99e1-4726-bdfc-f0facee3c557","system_id":"levelo_inurba_marseille","lat":43.30917,"lon":5.36851,"is_reserved":false,"is_disabled":false,"rental_uris":{"android":"levelo://app?vid=9b8594a3-99e1-4726-bdfc-f0facee3c557","ios":"levelo://app?vid=9b8594a3-99e1-4726-bdfc-f0facee3c557"},"vehicle_type_id":"4","last_reported":1758697813,"current_range_meters":12800,"station_id":"ce4bgn92rcd13ifvqbvg","pricing_plan_id":"cebpf4jnsgd1na2vs0mg"},{"bike_id":"d45e55fd-bdef-4148-a4fe-c963d9428301","system_id":"levelo_inurba_marseille","lat":43.25937,"lon":5.40882,"is_reserved":false,"is_disabled":false,"rental_uris":{"android":"levelo://app?vid=d45e55fd-bdef-4148-a4fe-c963d9428301","ios":"levelo://app?vid=d45e55fd-bdef-4148-a4fe-c963d9428301"},"vehicle_type_id":"4","last_reported":1758697813,"current_range_meters":12800,"station_id":"ce4bhm92rcd13ifvqglg","pricing_plan_id":"cebpf4jnsgd1na2vs0mg"},{"bike_id":"028b7ed6-f3f9-4174-b7c6-25b8c3a9d163","system_id":"levelo_inurba_marseille","lat":43.24174,"lon":5.39723,"is_reserved":false,"is_disabled":false,"rental_uris":{"android":"levelo://app?vid=028b7ed6-f3f9-4174-b7c6-25b8c3a9d163","ios":"levelo://app?vid=028b7ed6-f3f9-4174-b7c6-25b8c3a9d163"},"vehicle_type_id":"4","last_reported":1758697813,"current_range_meters":12800,"station_id":"ce4bhn12rcd13ifvqgpg","pricing_plan_id":"cebpf4jnsgd1na2vs0mg"},{"bike_id":"878212e1-9f3a-4147-b86c-65eaf928a45d","system_id":"levelo_inurba_marseille","lat":43.21742,"lon":5.34612,"is_reserved":false,"is_disabled":false,"rental_uris":{"android":"levelo://app?vid=878212e1-9f3a-4147-b86c-65eaf928a45d","ios":"levelo://app?vid=878212e1-9f3a-4147-b86c-65eaf928a45d"},"vehicle_type_id":"4","last_reported":1758697813,"current_range_meters":13600,"station_id":"","pricing_plan_id":"cebpf4jnsgd1na2vs0mg"},{"bike_id":"3bc071b0-3585-4d86-80fc-87e9844fe485","system_id":"levelo_inurba_marseille","lat":43.32287,"lon":5.3827,"is_reserved":false,"is_disabled":false,"rental_uris":{"android":"levelo://app?vid=3bc071b0-3585-4d86-80fc-87e9844fe485","ios":"levelo://app?vid=3bc071b0-3585-4d86-80fc-87e9844fe485"},"vehicle_type_id":"4","last_reported":1758697813,"current_range_meters":13600,"station_id":"ce4bhr12rcd13ifvqhqg","pricing_plan_id":"cebpf4jnsgd1na2vs0mg"},{"bike_id":"3f9b1775-5d55-481e-be79-078d38b09814","system_id":"levelo_inurba_marseille","lat":43.25714,"lon":5.41105,"is_reserved":false,"is_disabled":false,"rental_uris":{"android":"levelo://app?vid=3f9b1775-5d55-481e-be79-078d38b09814","ios":"levelo://app?vid=3f9b1775-5d55-481e-be79-078d38b09814"},"vehicle_type_id":"4","last_reported":1758697813,"current_range_meters":13600,"station_id":"ce4bhkp2rcd13ifvqgd0","pricing_plan_id":"cebpf4jnsgd1na2vs0mg"},{"bike_id":"8353488b-27d1-4657-88aa-31403d6b0301","system_id":"levelo_inurba_marseille","lat":43.30612,"lon":5.37236,"is_reserved":false,"is_disabled":false,"rental_uris":{"android":"levelo://app?vid=8353488b-27d1-4657-88aa-31403d6b0301","ios":"levelo://app?vid=8353488b-27d1-4657-88aa-31403d6b0301"},"vehicle_type_id":"4","last_reported":1758697813,"current_range_meters":13600,"station_id":"ce4bgqh2rcd13ifvqc4g","pricing_plan_id":"cebpf4jnsgd1na2vs0mg"},{"bike_id":"9feb0e0f-24fa-4463-b0f3-30472830c043","system_id":"levelo_inurba_marseille","lat":43.31757,"lon":5.39002,"is_reserved":false,"is_disabled":false,"rental_uris":{"android":"levelo://app?vid=9feb0e0f-24fa-4463-b0f3-30472830c043","ios":"levelo://app?vid=9feb0e0f-24fa-4463-b0f3-30472830c043"},"vehicle_type_id":"4","last_reported":1758697813,"current_range_meters":14000,"station_id":"ce4bhqp2rcd13ifvqhng","pricing_plan_id":"cebpf4jnsgd1na2vs0mg"},{"bike_id":"127e0619-bc08-4f6e-8391-43520ac53eff","system_id":"levelo_inurba_marseille","lat":43.23147,"lon":5.43729,"is_reserved":false,"is_disabled":false,"rental_uris":{"android":"levelo://app?vid=127e0619-bc08-4f6e-8391-43520ac53eff","ios":"levelo://app?vid=127e0619-bc08-4f6e-8391-43520ac53eff"},"vehicle_type_id":"4","last_reported":1758697813,"current_range_meters":13600,"station_id":"ce4bhmp2rcd13ifvqgog","pricing_plan_id":"cebpf4jnsgd1na2vs0mg"},{"bike_id":"24f1c4f0-9fd4-4fe7-808c-93dd959e3a6e","system_id":"levelo_inurba_marseille","lat":43.33013,"lon":5.39081,"is_reserved":false,"is_disabled":false,"rental_uris":{"android":"levelo://app?vid=24f1c4f0-9fd4-4fe7-808c-93dd959e3a6e","ios":"levelo://app?vid=24f1c4f0-9fd4-4fe7-808c-93dd959e3a6e"},"vehicle_type_id":"4","last_reported":1758697813,"current_range_meters":14000,"station_id":"ce4bhr92rcd13ifvqhrg","pricing_plan_id":"cebpf4jnsgd1na2vs0mg"},{"bike_id":"c0fa682b-be02-42db-bbef-5e138ec95961","system_id":"levelo_inurba_marseille","lat":43.23152,"lon":5.43709,"is_reserved":false,"is_disabled":false,"rental_uris":{"android":"levelo://app?vid=c0fa682b-be02-42db-bbef-5e138ec95961","ios":"levelo://app?vid=c0fa682b-be02-42db-bbef-5e138ec95961"},"vehicle_type_id":"4","last_reported":1758697813,"current_range_meters":14000,"station_id":"ce4bhmp2rcd13ifvqgog","pricing_plan_id":"cebpf4jnsgd1na2vs0mg"},{"bike_id":"438ead59-de14-4fa0-a61d-03a70a4122ae","system_id":"levelo_inurba_marseille","lat":43.97269,"lon":4.89111,"is_reserved":false,"is_disabled":true,"rental_uris":{"android":"levelo://app?vid=438ead59-de14-4fa0-a61d-03a70a4122ae","ios":"levelo://app?vid=438ead59-de14-4fa0-a61d-03a70a4122ae"},"vehicle_type_id":"4","last_reported":1758697813,"current_range_meters":14000,"station_id":"","pricing_plan_id":"cebpf4jnsgd1na2vs0mg"},{"bike_id":"f1109d1c-3dfd-4013-af5e-deeaec240c17","system_id":"levelo_inurba_marseille","lat":43.32099,"lon":5.36759,"is_reserved":false,"is_disabled":false,"rental_uris":{"android":"levelo://app?vid=f1109d1c-3dfd-4013-af5e-deeaec240c17","ios":"levelo://app?vid=f1109d1c-3dfd-4013-af5e-deeaec240c17"},"vehicle_type_id":"4","last_reported":1758697813,"current_range_meters":14400,"station_id":"ce4bhrh2rcd13ifvqhug","pricing_plan_id":"cebpf4jnsgd1na2vs0mg"},{"bike_id":"b5097eea-9912-4be2-9cf9-14c224c5fab6","system_id":"levelo_inurba_marseille","lat":43.23182,"lon":5.35557,"is_reserved":false,"is_disabled":false,"rental_uris":{"android":"levelo://app?vid=b5097eea-9912-4be2-9cf9-14c224c5fab6","ios":"levelo://app?vid=b5097eea-9912-4be2-9cf9-14c224c5fab6"},"vehicle_type_id":"4","last_reported":1758697813,"current_range_meters":14400,"station_id":"ce4bhu92rcd13ifvqi70","pricing_plan_id":"cebpf4jnsgd1na2vs0mg"},{"bike_id":"06c10839-75c7-457b-804b-f341157fb4f3","system_id":"levelo_inurba_marseille","lat":43.2507,"lon":5.40407,"is_reserved":false,"is_disabled":false,"rental_uris":{"android":"levelo://app?vid=06c10839-75c7-457b-804b-f341157fb4f3","ios":"levelo://app?vid=06c10839-75c7-457b-804b-f341157fb4f3"},"vehicle_type_id":"4","last_reported":1758697813,"current_range_meters":14400,"station_id":"","pricing_plan_id":"cebpf4jnsgd1na2vs0mg"},{"bike_id":"a0f1e710-9bbf-46f9-960f-d591664a5434","system_id":"levelo_inurba_marseille","lat":43.28466,"lon":5.38411,"is_reserved":false,"is_disabled":false,"rental_uris":{"android":"levelo://app?vid=a0f1e710-9bbf-46f9-960f-d591664a5434","ios":"levelo://app?vid=a0f1e710-9bbf-46f9-960f-d591664a5434"},"vehicle_type_id":"4","last_reported":1758697813,"current_range_meters":14400,"station_id":"ce4bh512rcd13ifvqe3g","pricing_plan_id":"cebpf4jnsgd1na2vs0mg"},{"bike_id":"d68b9cdd-055c-48e6-b5c7-c6c683b923e5","system_id":"levelo_inurba_marseille","lat":43.2863,"lon":5.35092,"is_reserved":false,"is_disabled":true,"rental_uris":{"android":"levelo://app?vid=d68b9cdd-055c-48e6-b5c7-c6c683b923e5","ios":"levelo://app?vid=d68b9cdd-055c-48e6-b5c7-c6c683b923e5"},"vehicle_type_id":"4","last_reported":1758697813,"current_range_meters":14400,"station_id":"ce4bhch2rcd13ifvqeug","pricing_plan_id":"cebpf4jnsgd1na2vs0mg"},{"bike_id":"8aa58f8e-8f59-4a94-bd25-bda98811f965","system_id":"levelo_inurba_marseille","lat":43.30203,"lon":5.39453,"is_reserved":false,"is_disabled":false,"rental_uris":{"android":"levelo://app?vid=8aa58f8e-8f59-4a94-bd25-bda98811f965","ios":"levelo://app?vid=8aa58f8e-8f59-4a94-bd25-bda98811f965"},"vehicle_type_id":"4","last_reported":1758697813,"current_range_meters":14000,"station_id":"ce4bh0p2rcd13ifvqd70","pricing_plan_id":"cebpf4jnsgd1na2vs0mg"},{"bike_id":"2d4006e7-21c9-43f0-a094-fcaaa7f929b9","system_id":"levelo_inurba_marseille","lat":43.305328,"lon":5.365542,"is_reserved":false,"is_disabled":false,"rental_uris":{"android":"levelo://app?vid=2d4006e7-21c9-43f0-a094-fcaaa7f929b9","ios":"levelo://app?vid=2d4006e7-21c9-43f0-a094-fcaaa7f929b9"},"vehicle_type_id":"4","last_reported":1758697813,"current_range_meters":14800,"station_id":"ce4bgs12rcd13ifvqcag","pricing_plan_id":"cebpf4jnsgd1na2vs0mg"},{"bike_id":"9acbed67-92a5-429a-93f8-d41f103ea559","system_id":"levelo_inurba_marseille","lat":43.31165,"lon":5.38722,"is_reserved":false,"is_disabled":false,"rental_uris":{"android":"levelo://app?vid=9acbed67-92a5-429a-93f8-d41f103ea559","ios":"levelo://app?vid=9acbed67-92a5-429a-93f8-d41f103ea559"},"vehicle_type_id":"4","last_reported":1758697813,"current_range_meters":15200,"station_id":"ce4bgv12rcd13ifvqcp0","pricing_plan_id":"cebpf4jnsgd1na2vs0mg"},{"bike_id":"7b2a1622-f358-492f-9de4-361da707ac90","system_id":"levelo_inurba_marseille","lat":43.29035,"lon":5.39963,"is_reserved":false,"is_disabled":false,"rental_uris":{"android":"levelo://app?vid=7b2a1622-f358-492f-9de4-361da707ac90","ios":"levelo://app?vid=7b2a1622-f358-492f-9de4-361da707ac90"},"vehicle_type_id":"4","last_reported":1758697813,"current_range_meters":14400,"station_id":"ce4bh392rcd13ifvqdm0","pricing_plan_id":"cebpf4jnsgd1na2vs0mg"},{"bike_id":"7a2e3174-eb46-4f51-a45c-fd2eee4f7633","system_id":"levelo_inurba_marseille","lat":43.23157,"lon":5.43702,"is_reserved":false,"is_disabled":false,"rental_uris":{"android":"levelo://app?vid=7a2e3174-eb46-4f51-a45c-fd2eee4f7633","ios":"levelo://app?vid=7a2e3174-eb46-4f51-a45c-fd2eee4f7633"},"vehicle_type_id":"4","last_reported":1758697813,"current_range_meters":14800,"station_id":"ce4bhmp2rcd13ifvqgog","pricing_plan_id":"cebpf4jnsgd1na2vs0mg"},{"bike_id":"e36b8523-28d4-4650-bb1a-56482550ea8b","system_id":"levelo_inurba_marseille","lat":43.29785,"lon":5.38122,"is_reserved":false,"is_disabled":true,"rental_uris":{"android":"levelo://app?vid=e36b8523-28d4-4650-bb1a-56482550ea8b","ios":"levelo://app?vid=e36b8523-28d4-4650-bb1a-56482550ea8b"},"vehicle_type_id":"4","last_reported":1758697813,"current_range_meters":14800,"station_id":"ce4bgip2rcd13ifvqbb0","pricing_plan_id":"cebpf4jnsgd1na2vs0mg"},{"bike_id":"5f63e484-f816-49a1-af39-fe076067eee2","system_id":"levelo_inurba_marseille","lat":43.30139,"lon":5.37405,"is_reserved":false,"is_disabled":false,"rental_uris":{"android":"levelo://app?vid=5f63e484-f816-49a1-af39-fe076067eee2","ios":"levelo://app?vid=5f63e484-f816-49a1-af39-fe076067eee2"},"vehicle_type_id":"4","last_reported":1758697813,"current_range_meters":14800,"station_id":"ce4bgs92rcd13ifvqcc0","pricing_plan_id":"cebpf4jnsgd1na2vs0mg"},{"bike_id":"d0ebaeb4-0509-4e9f-a02a-c09b9a9e066b","system_id":"levelo_inurba_marseille","lat":43.266778,"lon":5.382697,"is_reserved":false,"is_disabled":false,"rental_uris":{"android":"levelo://app?vid=d0ebaeb4-0509-4e9f-a02a-c09b9a9e066b","ios":"levelo://app?vid=d0ebaeb4-0509-4e9f-a02a-c09b9a9e066b"},"vehicle_type_id":"4","last_reported":1758697813,"current_range_meters":14800,"station_id":"ce4bhg92rcd13ifvqf90","pricing_plan_id":"cebpf4jnsgd1na2vs0mg"},{"bike_id":"8c0227e3-55e8-4994-aa0c-9b6ee99b7e26","system_id":"levelo_inurba_marseille","lat":43.23052,"lon":5.35495,"is_reserved":false,"is_disabled":false,"rental_uris":{"android":"levelo://app?vid=8c0227e3-55e8-4994-aa0c-9b6ee99b7e26","ios":"levelo://app?vid=8c0227e3-55e8-4994-aa0c-9b6ee99b7e26"},"vehicle_type_id":"4","last_reported":1758697813,"current_range_meters":15200,"station_id":"cpo3342slgdg3j2ifvpg","pricing_plan_id":"cebpf4jnsgd1na2vs0mg"},{"bike_id":"ef00c611-56e3-4d87-83a8-6fad9627913a","system_id":"levelo_inurba_marseille","lat":43.308894,"lon":5.371943,"is_reserved":false,"is_disabled":false,"rental_uris":{"android":"levelo://app?vid=ef00c611-56e3-4d87-83a8-6fad9627913a","ios":"levelo://app?vid=ef00c611-56e3-4d87-83a8-6fad9627913a"},"vehicle_type_id":"4","last_reported":1758697813,"current_range_meters":15200,"station_id":"ce4bguh2rcd13ifvqckg","pricing_plan_id":"cebpf4jnsgd1na2vs0mg"},{"bike_id":"23992864-f302-4317-be32-ce66b8190c01","system_id":"levelo_inurba_marseille","lat":43.29991,"lon":5.40109,"is_reserved":false,"is_disabled":false,"rental_uris":{"android":"levelo://app?vid=23992864-f302-4317-be32-ce66b8190c01","ios":"levelo://app?vid=23992864-f302-4317-be32-ce66b8190c01"},"vehicle_type_id":"4","last_reported":1758697813,"current_range_meters":15200,"station_id":"","pricing_plan_id":"cebpf4jnsgd1na2vs0mg"},{"bike_id":"89f135c6-16c5-4235-bd58-c713b9c507a2","system_id":"levelo_inurba_marseille","lat":43.31356,"lon":5.36718,"is_reserved":false,"is_disabled":false,"rental_uris":{"android":"levelo://app?vid=89f135c6-16c5-4235-bd58-c713b9c507a2","ios":"levelo://app?vid=89f135c6-16c5-4235-bd58-c713b9c507a2"},"vehicle_type_id":"4","last_reported":1758697813,"current_range_meters":15200,"station_id":"ce4bgr92rcd13ifvqc6g","pricing_plan_id":"cebpf4jnsgd1na2vs0mg"},{"bike_id":"e64d045f-976b-42e6-ba63-29e9d1ee10ee","system_id":"levelo_inurba_marseille","lat":43.2594,"lon":5.40897,"is_reserved":false,"is_disabled":false,"rental_uris":{"android":"levelo://app?vid=e64d045f-976b-42e6-ba63-29e9d1ee10ee","ios":"levelo://app?vid=e64d045f-976b-42e6-ba63-29e9d1ee10ee"},"vehicle_type_id":"4","last_reported":1758697813,"current_range_meters":15200,"station_id":"ce4bhm92rcd13ifvqglg","pricing_plan_id":"cebpf4jnsgd1na2vs0mg"},{"bike_id":"817a7689-6721-44f0-8d80-02a933ee2211","system_id":"levelo_inurba_marseille","lat":43.32511,"lon":5.41513,"is_reserved":false,"is_disabled":false,"rental_uris":{"android":"levelo://app?vid=817a7689-6721-44f0-8d80-02a933ee2211","ios":"levelo://app?vid=817a7689-6721-44f0-8d80-02a933ee2211"},"vehicle_type_id":"4","last_reported":1758697813,"current_range_meters":15200,"station_id":"","pricing_plan_id":"cebpf4jnsgd1na2vs0mg"},{"bike_id":"36dcdecf-882a-4614-8011-250ef8957d92","system_id":"levelo_inurba_marseille","lat":43.21755,"lon":5.34614,"is_reserved":false,"is_disabled":false,"rental_uris":{"android":"levelo://app?vid=36dcdecf-882a-4614-8011-250ef8957d92","ios":"levelo://app?vid=36dcdecf-882a-4614-8011-250ef8957d92"},"vehicle_type_id":"4","last_reported":1758697813,"current_range_meters":15200,"station_id":"st_cvj6r9ubvosntc0bgbag","pricing_plan_id":"cebpf4jnsgd1na2vs0mg"},{"bike_id":"f91d218a-7fa0-4c24-b8c8-b10918236a14","system_id":"levelo_inurba_marseille","lat":43.29275,"lon":5.36841,"is_reserved":false,"is_disabled":false,"rental_uris":{"android":"levelo://app?vid=f91d218a-7fa0-4c24-b8c8-b10918236a14","ios":"levelo://app?vid=f91d218a-7fa0-4c24-b8c8-b10918236a14"},"vehicle_type_id":"4","last_reported":1758697813,"current_range_meters":15200,"station_id":"ce4bhbp2rcd13ifvqesg","pricing_plan_id":"cebpf4jnsgd1na2vs0mg"},{"bike_id":"b80505fd-a178-4545-a065-bfee70124ece","system_id":"levelo_inurba_marseille","lat":43.29047,"lon":5.39972,"is_reserved":false,"is_disabled":true,"rental_uris":{"android":"levelo://app?vid=b80505fd-a178-4545-a065-bfee70124ece","ios":"levelo://app?vid=b80505fd-a178-4545-a065-bfee70124ece"},"vehicle_type_id":"4","last_reported":1758697813,"current_range_meters":15200,"station_id":"ce4bh392rcd13ifvqdm0","pricing_plan_id":"cebpf4jnsgd1na2vs0mg"},{"bike_id":"b48e70b2-53f1-4641-819c-a53cac59b8ed","system_id":"levelo_inurba_marseille","lat":43.258241,"lon":5.39439,"is_reserved":false,"is_disabled":false,"rental_uris":{"android":"levelo://app?vid=b48e70b2-53f1-4641-819c-a53cac59b8ed","ios":"levelo://app?vid=b48e70b2-53f1-4641-819c-a53cac59b8ed"},"vehicle_type_id":"4","last_reported":1758697813,"current_range_meters":15200,"station_id":"ce4bhip2rcd13ifvqft0","pricing_plan_id":"cebpf4jnsgd1na2vs0mg"},{"bike_id":"36b070bb-df09-4433-b99c-aab79ada22d5","system_id":"levelo_inurba_marseille","lat":43.29287,"lon":5.3744,"is_reserved":false,"is_disabled":false,"rental_uris":{"android":"levelo://app?vid=36b070bb-df09-4433-b99c-aab79ada22d5","ios":"levelo://app?vid=36b070bb-df09-4433-b99c-aab79ada22d5"},"vehicle_type_id":"4","last_reported":1758697813,"current_range_meters":15200,"station_id":"","pricing_plan_id":"cebpf4jnsgd1na2vs0mg"},{"bike_id":"bf689da2-1da3-4c03-82d0-da44f497a760","system_id":"levelo_inurba_marseille","lat":43.29029,"lon":5.37566,"is_reserved":false,"is_disabled":false,"rental_uris":{"android":"levelo://app?vid=bf689da2-1da3-4c03-82d0-da44f497a760","ios":"levelo://app?vid=bf689da2-1da3-4c03-82d0-da44f497a760"},"vehicle_type_id":"4","last_reported":1758697813,"current_range_meters":15200,"station_id":"ce4bh692rcd13ifvqe90","pricing_plan_id":"cebpf4jnsgd1na2vs0mg"},{"bike_id":"c7ca8eea-f3b9-4019-960b-1342560ce53c","system_id":"levelo_inurba_marseille","lat":43.31353,"lon":5.36719,"is_reserved":false,"is_disabled":false,"rental_uris":{"android":"levelo://app?vid=c7ca8eea-f3b9-4019-960b-1342560ce53c","ios":"levelo://app?vid=c7ca8eea-f3b9-4019-960b-1342560ce53c"},"vehicle_type_id":"4","last_reported":1758697813,"current_range_meters":16000,"station_id":"ce4bgr92rcd13ifvqc6g","pricing_plan_id":"cebpf4jnsgd1na2vs0mg"},{"bike_id":"a851cae0-b395-441e-9dd1-21300baf3396","system_id":"levelo_inurba_marseille","lat":43.31512,"lon":5.3871,"is_reserved":false,"is_disabled":false,"rental_uris":{"android":"levelo://app?vid=a851cae0-b395-441e-9dd1-21300baf3396","ios":"levelo://app?vid=a851cae0-b395-441e-9dd1-21300baf3396"},"vehicle_type_id":"4","last_reported":1758697813,"current_range_meters":16000,"station_id":"","pricing_plan_id":"cebpf4jnsgd1na2vs0mg"},{"bike_id":"d2be082e-bd73-4203-addb-18871b3a9587","system_id":"levelo_inurba_marseille","lat":43.29385,"lon":5.37461,"is_reserved":false,"is_disabled":false,"rental_uris":{"android":"levelo://app?vid=d2be082e-bd73-4203-addb-18871b3a9587","ios":"levelo://app?vid=d2be082e-bd73-4203-addb-18871b3a9587"},"vehicle_type_id":"4","last_reported":1758697813,"current_range_meters":16000,"station_id":"","pricing_plan_id":"cebpf4jnsgd1na2vs0mg"},{"bike_id":"c60b9a79-e695-446b-aedb-c4a66c1391b2","system_id":"levelo_inurba_marseille","lat":43.31341,"lon":5.36717,"is_reserved":false,"is_disabled":false,"rental_uris":{"android":"levelo://app?vid=c60b9a79-e695-446b-aedb-c4a66c1391b2","ios":"levelo://app?vid=c60b9a79-e695-446b-aedb-c4a66c1391b2"},"vehicle_type_id":"4","last_reported":1758697813,"current_range_meters":16000,"station_id":"ce4bgr92rcd13ifvqc6g","pricing_plan_id":"cebpf4jnsgd1na2vs0mg"},{"bike_id":"57b14c92-2a17-45b3-beb1-cbb460ef441b","system_id":"levelo_inurba_marseille","lat":43.23212,"lon":5.39987,"is_reserved":false,"is_disabled":false,"rental_uris":{"android":"levelo://app?vid=57b14c92-2a17-45b3-beb1-cbb460ef441b","ios":"levelo://app?vid=57b14c92-2a17-45b3-beb1-cbb460ef441b"},"vehicle_type_id":"4","last_reported":1758697813,"current_range_meters":16400,"station_id":"ce4bhn12rcd13ifvqgqg","pricing_plan_id":"cebpf4jnsgd1na2vs0mg"},{"bike_id":"1761bf30-5375-49d7-98d0-59c0994ceb7b","system_id":"levelo_inurba_marseille","lat":43.30538,"lon":5.36698,"is_reserved":false,"is_disabled":false,"rental_uris":{"android":"levelo://app?vid=1761bf30-5375-49d7-98d0-59c0994ceb7b","ios":"levelo://app?vid=1761bf30-5375-49d7-98d0-59c0994ceb7b"},"vehicle_type_id":"4","last_reported":1758697813,"current_range_meters":16400,"station_id":"ce4bgrp2rcd13ifvqc9g","pricing_plan_id":"cebpf4jnsgd1na2vs0mg"},{"bike_id":"410cf17c-5512-4c52-be56-00c55db735ba","system_id":"levelo_inurba_marseille","lat":43.2841,"lon":5.37514,"is_reserved":false,"is_disabled":false,"rental_uris":{"android":"levelo://app?vid=410cf17c-5512-4c52-be56-00c55db735ba","ios":"levelo://app?vid=410cf17c-5512-4c52-be56-00c55db735ba"},"vehicle_type_id":"4","last_reported":1758697813,"current_range_meters":16400,"station_id":"ce4bh412rcd13ifvqds0","pricing_plan_id":"cebpf4jnsgd1na2vs0mg"},{"bike_id":"e2017298-7010-4fcc-9644-9ccfb0f46125","system_id":"levelo_inurba_marseille","lat":43.3011,"lon":5.41517,"is_reserved":false,"is_disabled":false,"rental_uris":{"android":"levelo://app?vid=e2017298-7010-4fcc-9644-9ccfb0f46125","ios":"levelo://app?vid=e2017298-7010-4fcc-9644-9ccfb0f46125"},"vehicle_type_id":"4","last_reported":1758697813,"current_range_meters":16400,"station_id":"","pricing_plan_id":"cebpf4jnsgd1na2vs0mg"},{"bike_id":"3cb1dae7-6bcd-41e5-b1b7-c1d25c751a99","system_id":"levelo_inurba_marseille","lat":43.337594,"lon":5.374419,"is_reserved":false,"is_disabled":false,"rental_uris":{"android":"levelo://app?vid=3cb1dae7-6bcd-41e5-b1b7-c1d25c751a99","ios":"levelo://app?vid=3cb1dae7-6bcd-41e5-b1b7-c1d25c751a99"},"vehicle_type_id":"4","last_reported":1758697813,"current_range_meters":16800,"station_id":"","pricing_plan_id":"cebpf4jnsgd1na2vs0mg"},{"bike_id":"9aa94c4f-da7c-4770-9081-a8dca3f600f4","system_id":"levelo_inurba_marseille","lat":43.27492,"lon":5.42453,"is_reserved":false,"is_disabled":false,"rental_uris":{"android":"levelo://app?vid=9aa94c4f-da7c-4770-9081-a8dca3f600f4","ios":"levelo://app?vid=9aa94c4f-da7c-4770-9081-a8dca3f600f4"},"vehicle_type_id":"4","last_reported":1758697813,"current_range_meters":16800,"station_id":"ce4bhn92rcd13ifvqgrg","pricing_plan_id":"cebpf4jnsgd1na2vs0mg"},{"bike_id":"178af37d-dd54-4cf7-b80a-b996e0f2a163","system_id":"levelo_inurba_marseille","lat":43.21185,"lon":5.35067,"is_reserved":false,"is_disabled":false,"rental_uris":{"android":"levelo://app?vid=178af37d-dd54-4cf7-b80a-b996e0f2a163","ios":"levelo://app?vid=178af37d-dd54-4cf7-b80a-b996e0f2a163"},"vehicle_type_id":"4","last_reported":1758697813,"current_range_meters":16800,"station_id":"st_cvj6sg6p6f1abm77japg","pricing_plan_id":"cebpf4jnsgd1na2vs0mg"},{"bike_id":"5ab4fb92-980d-40fa-9c8d-b102c2bce2d4","system_id":"levelo_inurba_marseille","lat":43.243905,"lon":5.370625,"is_reserved":false,"is_disabled":false,"rental_uris":{"android":"levelo://app?vid=5ab4fb92-980d-40fa-9c8d-b102c2bce2d4","ios":"levelo://app?vid=5ab4fb92-980d-40fa-9c8d-b102c2bce2d4"},"vehicle_type_id":"4","last_reported":1758697813,"current_range_meters":16800,"station_id":"ce4bhhh2rcd13ifvqfk0","pricing_plan_id":"cebpf4jnsgd1na2vs0mg"},{"bike_id":"e758b01b-ca98-467a-bdcc-b51ccfc96ed6","system_id":"levelo_inurba_marseille","lat":43.33737,"lon":5.37416,"is_reserved":false,"is_disabled":false,"rental_uris":{"android":"levelo://app?vid=e758b01b-ca98-467a-bdcc-b51ccfc96ed6","ios":"levelo://app?vid=e758b01b-ca98-467a-bdcc-b51ccfc96ed6"},"vehicle_type_id":"4","last_reported":1758697813,"current_range_meters":16800,"station_id":"","pricing_plan_id":"cebpf4jnsgd1na2vs0mg"},{"bike_id":"5f791785-5077-4f09-8c01-e5aebfbe0a70","system_id":"levelo_inurba_marseille","lat":43.30882,"lon":5.3718,"is_reserved":false,"is_disabled":false,"rental_uris":{"android":"levelo://app?vid=5f791785-5077-4f09-8c01-e5aebfbe0a70","ios":"levelo://app?vid=5f791785-5077-4f09-8c01-e5aebfbe0a70"},"vehicle_type_id":"4","last_reported":1758697813,"current_range_meters":16400,"station_id":"ce4bguh2rcd13ifvqckg","pricing_plan_id":"cebpf4jnsgd1na2vs0mg"},{"bike_id":"e19472f1-87e0-4943-97f3-e785d2a10054","system_id":"levelo_inurba_marseille","lat":43.28849,"lon":5.42532,"is_reserved":false,"is_disabled":false,"rental_uris":{"android":"levelo://app?vid=e19472f1-87e0-4943-97f3-e785d2a10054","ios":"levelo://app?vid=e19472f1-87e0-4943-97f3-e785d2a10054"},"vehicle_type_id":"4","last_reported":1758697813,"current_range_meters":16800,"station_id":"","pricing_plan_id":"cebpf4jnsgd1na2vs0mg"},{"bike_id":"21e43a77-c757-4773-8b05-956702f92169","system_id":"levelo_inurba_marseille","lat":43.266823,"lon":5.382725,"is_reserved":false,"is_disabled":false,"rental_uris":{"android":"levelo://app?vid=21e43a77-c757-4773-8b05-956702f92169","ios":"levelo://app?vid=21e43a77-c757-4773-8b05-956702f92169"},"vehicle_type_id":"4","last_reported":1758697813,"current_range_meters":16800,"station_id":"ce4bhg92rcd13ifvqf90","pricing_plan_id":"cebpf4jnsgd1na2vs0mg"},{"bike_id":"5fb726be-412e-4b65-b587-9d991ba40c42","system_id":"levelo_inurba_marseille","lat":43.21194,"lon":5.35083,"is_reserved":false,"is_disabled":false,"rental_uris":{"android":"levelo://app?vid=5fb726be-412e-4b65-b587-9d991ba40c42","ios":"levelo://app?vid=5fb726be-412e-4b65-b587-9d991ba40c42"},"vehicle_type_id":"4","last_reported":1758697813,"current_range_meters":16800,"station_id":"ce4bhi12rcd13ifvqfp0","pricing_plan_id":"cebpf4jnsgd1na2vs0mg"},{"bike_id":"0d0c93a1-14ed-4e3e-a45d-cf08d8aa0d39","system_id":"levelo_inurba_marseille","lat":43.2594,"lon":5.40903,"is_reserved":false,"is_disabled":false,"rental_uris":{"android":"levelo://app?vid=0d0c93a1-14ed-4e3e-a45d-cf08d8aa0d39","ios":"levelo://app?vid=0d0c93a1-14ed-4e3e-a45d-cf08d8aa0d39"},"vehicle_type_id":"4","last_reported":1758697813,"current_range_meters":17200,"station_id":"ce4bhm92rcd13ifvqglg","pricing_plan_id":"cebpf4jnsgd1na2vs0mg"},{"bike_id":"7eeec0c7-e382-4f8a-aef6-821bda7e5abe","system_id":"levelo_inurba_marseille","lat":43.23151,"lon":5.43722,"is_reserved":false,"is_disabled":false,"rental_uris":{"android":"levelo://app?vid=7eeec0c7-e382-4f8a-aef6-821bda7e5abe","ios":"levelo://app?vid=7eeec0c7-e382-4f8a-aef6-821bda7e5abe"},"vehicle_type_id":"4","last_reported":1758697813,"current_range_meters":17200,"station_id":"ce4bhmp2rcd13ifvqgog","pricing_plan_id":"cebpf4jnsgd1na2vs0mg"},{"bike_id":"8eae954c-dab6-4303-94f5-569e1c483f62","system_id":"levelo_inurba_marseille","lat":43.29439,"lon":5.40748,"is_reserved":false,"is_disabled":false,"rental_uris":{"android":"levelo://app?vid=8eae954c-dab6-4303-94f5-569e1c483f62","ios":"levelo://app?vid=8eae954c-dab6-4303-94f5-569e1c483f62"},"vehicle_type_id":"4","last_reported":1758697813,"current_range_meters":17200,"station_id":"","pricing_plan_id":"cebpf4jnsgd1na2vs0mg"},{"bike_id":"cdd9250b-20c0-48e2-b45b-56204b8135aa","system_id":"levelo_inurba_marseille","lat":43.309465,"lon":5.390385,"is_reserved":false,"is_disabled":false,"rental_uris":{"android":"levelo://app?vid=cdd9250b-20c0-48e2-b45b-56204b8135aa","ios":"levelo://app?vid=cdd9250b-20c0-48e2-b45b-56204b8135aa"},"vehicle_type_id":"4","last_reported":1758697813,"current_range_meters":17200,"station_id":"ce4bguh2rcd13ifvqcj0","pricing_plan_id":"cebpf4jnsgd1na2vs0mg"},{"bike_id":"4dc4528b-9046-46a6-8d80-919538d0278d","system_id":"levelo_inurba_marseille","lat":43.29978,"lon":5.38487,"is_reserved":false,"is_disabled":false,"rental_uris":{"android":"levelo://app?vid=4dc4528b-9046-46a6-8d80-919538d0278d","ios":"levelo://app?vid=4dc4528b-9046-46a6-8d80-919538d0278d"},"vehicle_type_id":"4","last_reported":1758697813,"current_range_meters":17200,"station_id":"ce4bgj92rcd13ifvqbd0","pricing_plan_id":"cebpf4jnsgd1na2vs0mg"},{"bike_id":"129c8450-4cca-4e9f-b9f6-538b0080ad49","system_id":"levelo_inurba_marseille","lat":43.3255,"lon":5.38928,"is_reserved":false,"is_disabled":false,"rental_uris":{"android":"levelo://app?vid=129c8450-4cca-4e9f-b9f6-538b0080ad49","ios":"levelo://app?vid=129c8450-4cca-4e9f-b9f6-538b0080ad49"},"vehicle_type_id":"4","last_reported":1758697813,"current_range_meters":17200,"station_id":"","pricing_plan_id":"cebpf4jnsgd1na2vs0mg"},{"bike_id":"c7f6a08b-c655-4213-b2ba-7d02e7f382fe","system_id":"levelo_inurba_marseille","lat":43.27992,"lon":5.39478,"is_reserved":false,"is_disabled":false,"rental_uris":{"android":"levelo://app?vid=c7f6a08b-c655-4213-b2ba-7d02e7f382fe","ios":"levelo://app?vid=c7f6a08b-c655-4213-b2ba-7d02e7f382fe"},"vehicle_type_id":"4","last_reported":1758697813,"current_range_meters":17200,"station_id":"","pricing_plan_id":"cebpf4jnsgd1na2vs0mg"},{"bike_id":"16a3e31e-14e7-462a-a681-b9bd4b981754","system_id":"levelo_inurba_marseille","lat":43.30548,"lon":5.36519,"is_reserved":false,"is_disabled":false,"rental_uris":{"android":"levelo://app?vid=16a3e31e-14e7-462a-a681-b9bd4b981754","ios":"levelo://app?vid=16a3e31e-14e7-462a-a681-b9bd4b981754"},"vehicle_type_id":"4","last_reported":1758697813,"current_range_meters":17200,"station_id":"ce4bgs12rcd13ifvqcag","pricing_plan_id":"cebpf4jnsgd1na2vs0mg"},{"bike_id":"55043fb7-0957-4299-af2e-bd2e83515f00","system_id":"levelo_inurba_marseille","lat":43.29776,"lon":5.38124,"is_reserved":false,"is_disabled":false,"rental_uris":{"android":"levelo://app?vid=55043fb7-0957-4299-af2e-bd2e83515f00","ios":"levelo://app?vid=55043fb7-0957-4299-af2e-bd2e83515f00"},"vehicle_type_id":"4","last_reported":1758697813,"current_range_meters":17200,"station_id":"ce4bgip2rcd13ifvqbb0","pricing_plan_id":"cebpf4jnsgd1na2vs0mg"},{"bike_id":"9daac5d3-61aa-4838-867b-05177cf139a4","system_id":"levelo_inurba_marseille","lat":43.22572,"lon":5.41625,"is_reserved":false,"is_disabled":false,"rental_uris":{"android":"levelo://app?vid=9daac5d3-61aa-4838-867b-05177cf139a4","ios":"levelo://app?vid=9daac5d3-61aa-4838-867b-05177cf139a4"},"vehicle_type_id":"4","last_reported":1758697813,"current_range_meters":17200,"station_id":"st_d2o4gvlbi1j2169b742g","pricing_plan_id":"cebpf4jnsgd1na2vs0mg"},{"bike_id":"ba42f4a7-7470-46e4-8310-5bbab211b127","system_id":"levelo_inurba_marseille","lat":43.30542,"lon":5.36563,"is_reserved":false,"is_disabled":false,"rental_uris":{"android":"levelo://app?vid=ba42f4a7-7470-46e4-8310-5bbab211b127","ios":"levelo://app?vid=ba42f4a7-7470-46e4-8310-5bbab211b127"},"vehicle_type_id":"4","last_reported":1758697813,"current_range_meters":17200,"station_id":"ce4bgs12rcd13ifvqcag","pricing_plan_id":"cebpf4jnsgd1na2vs0mg"},{"bike_id":"d4b33841-be4c-4864-91b8-475aaf9a7f71","system_id":"levelo_inurba_marseille","lat":43.26679,"lon":5.38263,"is_reserved":false,"is_disabled":false,"rental_uris":{"android":"levelo://app?vid=d4b33841-be4c-4864-91b8-475aaf9a7f71","ios":"levelo://app?vid=d4b33841-be4c-4864-91b8-475aaf9a7f71"},"vehicle_type_id":"4","last_reported":1758697813,"current_range_meters":17200,"station_id":"ce4bhg92rcd13ifvqf90","pricing_plan_id":"cebpf4jnsgd1na2vs0mg"},{"bike_id":"73f8dee6-b097-4d8b-960f-92ee9a6b2e80","system_id":"levelo_inurba_marseille","lat":43.3053,"lon":5.3843,"is_reserved":false,"is_disabled":false,"rental_uris":{"android":"levelo://app?vid=73f8dee6-b097-4d8b-960f-92ee9a6b2e80","ios":"levelo://app?vid=73f8dee6-b097-4d8b-960f-92ee9a6b2e80"},"vehicle_type_id":"4","last_reported":1758697813,"current_range_meters":17600,"station_id":"ce4bgg92rcd13ifvqb30","pricing_plan_id":"cebpf4jnsgd1na2vs0mg"},{"bike_id":"89d49cf4-850e-4737-adf5-a8f07e19c451","system_id":"levelo_inurba_marseille","lat":43.289287,"lon":5.364568,"is_reserved":false,"is_disabled":false,"rental_uris":{"android":"levelo://app?vid=89d49cf4-850e-4737-adf5-a8f07e19c451","ios":"levelo://app?vid=89d49cf4-850e-4737-adf5-a8f07e19c451"},"vehicle_type_id":"4","last_reported":1758697813,"current_range_meters":17600,"station_id":"ce4bhc92rcd13ifvqetg","pricing_plan_id":"cebpf4jnsgd1na2vs0mg"},{"bike_id":"452b9061-67e3-47b2-8dd9-90082f869ec5","system_id":"levelo_inurba_marseille","lat":43.21189,"lon":5.35077,"is_reserved":false,"is_disabled":false,"rental_uris":{"android":"levelo://app?vid=452b9061-67e3-47b2-8dd9-90082f869ec5","ios":"levelo://app?vid=452b9061-67e3-47b2-8dd9-90082f869ec5"},"vehicle_type_id":"4","last_reported":1758697813,"current_range_meters":17600,"station_id":"","pricing_plan_id":"cebpf4jnsgd1na2vs0mg"},{"bike_id":"0e9ca394-4351-4bf8-a641-f4e5215baf20","system_id":"levelo_inurba_marseille","lat":43.28267,"lon":5.35059,"is_reserved":false,"is_disabled":true,"rental_uris":{"android":"levelo://app?vid=0e9ca394-4351-4bf8-a641-f4e5215baf20","ios":"levelo://app?vid=0e9ca394-4351-4bf8-a641-f4e5215baf20"},"vehicle_type_id":"4","last_reported":1758697813,"current_range_meters":17600,"station_id":"ce4bhbp2rcd13ifvqerg","pricing_plan_id":"cebpf4jnsgd1na2vs0mg"},{"bike_id":"a6e34ff3-eb30-431d-92d6-c50ebfd8c6a8","system_id":"levelo_inurba_marseille","lat":43.26212,"lon":5.37441,"is_reserved":false,"is_disabled":false,"rental_uris":{"android":"levelo://app?vid=a6e34ff3-eb30-431d-92d6-c50ebfd8c6a8","ios":"levelo://app?vid=a6e34ff3-eb30-431d-92d6-c50ebfd8c6a8"},"vehicle_type_id":"4","last_reported":1758697813,"current_range_meters":17600,"station_id":"ce4bhgp2rcd13ifvqfc0","pricing_plan_id":"cebpf4jnsgd1na2vs0mg"},{"bike_id":"6e5354e1-28f9-46ae-b088-a02d72d16723","system_id":"levelo_inurba_marseille","lat":43.29624,"lon":5.37761,"is_reserved":false,"is_disabled":false,"rental_uris":{"android":"levelo://app?vid=6e5354e1-28f9-46ae-b088-a02d72d16723","ios":"levelo://app?vid=6e5354e1-28f9-46ae-b088-a02d72d16723"},"vehicle_type_id":"4","last_reported":1758697813,"current_range_meters":17600,"station_id":"ce4bgi92rcd13ifvqb90","pricing_plan_id":"cebpf4jnsgd1na2vs0mg"},{"bike_id":"4d07e3df-8bbb-4271-9a9a-312b9ae4e497","system_id":"levelo_inurba_marseille","lat":43.2596,"lon":5.40854,"is_reserved":false,"is_disabled":false,"rental_uris":{"android":"levelo://app?vid=4d07e3df-8bbb-4271-9a9a-312b9ae4e497","ios":"levelo://app?vid=4d07e3df-8bbb-4271-9a9a-312b9ae4e497"},"vehicle_type_id":"4","last_reported":1758697813,"current_range_meters":18000,"station_id":"","pricing_plan_id":"cebpf4jnsgd1na2vs0mg"},{"bike_id":"79627af3-5e4c-4c79-9ce8-bb6cb8053117","system_id":"levelo_inurba_marseille","lat":43.231852,"lon":5.399803,"is_reserved":false,"is_disabled":false,"rental_uris":{"android":"levelo://app?vid=79627af3-5e4c-4c79-9ce8-bb6cb8053117","ios":"levelo://app?vid=79627af3-5e4c-4c79-9ce8-bb6cb8053117"},"vehicle_type_id":"4","last_reported":1758697813,"current_range_meters":18000,"station_id":"ce4bhn12rcd13ifvqgqg","pricing_plan_id":"cebpf4jnsgd1na2vs0mg"},{"bike_id":"f4465303-812e-4cda-bd3d-9fb66e9f4539","system_id":"levelo_inurba_marseille","lat":43.272167,"lon":5.391784,"is_reserved":false,"is_disabled":false,"rental_uris":{"android":"levelo://app?vid=f4465303-812e-4cda-bd3d-9fb66e9f4539","ios":"levelo://app?vid=f4465303-812e-4cda-bd3d-9fb66e9f4539"},"vehicle_type_id":"4","last_reported":1758697813,"current_range_meters":17600,"station_id":"ce4bhhp2rcd13ifvqfm0","pricing_plan_id":"cebpf4jnsgd1na2vs0mg"},{"bike_id":"8a828295-28e2-4f47-bc01-1374c80f32a1","system_id":"levelo_inurba_marseille","lat":43.23948,"lon":5.36641,"is_reserved":false,"is_disabled":false,"rental_uris":{"android":"levelo://app?vid=8a828295-28e2-4f47-bc01-1374c80f32a1","ios":"levelo://app?vid=8a828295-28e2-4f47-bc01-1374c80f32a1"},"vehicle_type_id":"4","last_reported":1758697813,"current_range_meters":18000,"station_id":"ce4bhi12rcd13ifvqfp0","pricing_plan_id":"cebpf4jnsgd1na2vs0mg"},{"bike_id":"643026d6-1b22-47fd-ac64-6743ed352bb6","system_id":"levelo_inurba_marseille","lat":43.28363,"lon":5.38632,"is_reserved":false,"is_disabled":false,"rental_uris":{"android":"levelo://app?vid=643026d6-1b22-47fd-ac64-6743ed352bb6","ios":"levelo://app?vid=643026d6-1b22-47fd-ac64-6743ed352bb6"},"vehicle_type_id":"4","last_reported":1758697813,"current_range_meters":17600,"station_id":"ce4bh492rcd13ifvqdvg","pricing_plan_id":"cebpf4jnsgd1na2vs0mg"},{"bike_id":"6ce97256-6e29-4ee4-b817-ac92bdd5aea1","system_id":"levelo_inurba_marseille","lat":43.22534,"lon":5.34835,"is_reserved":false,"is_disabled":false,"rental_uris":{"android":"levelo://app?vid=6ce97256-6e29-4ee4-b817-ac92bdd5aea1","ios":"levelo://app?vid=6ce97256-6e29-4ee4-b817-ac92bdd5aea1"},"vehicle_type_id":"4","last_reported":1758697813,"current_range_meters":18000,"station_id":"","pricing_plan_id":"cebpf4jnsgd1na2vs0mg"},{"bike_id":"12c705e8-1766-4f48-a74d-84e8a1e36092","system_id":"levelo_inurba_marseille","lat":43.2594,"lon":5.409,"is_reserved":false,"is_disabled":false,"rental_uris":{"android":"levelo://app?vid=12c705e8-1766-4f48-a74d-84e8a1e36092","ios":"levelo://app?vid=12c705e8-1766-4f48-a74d-84e8a1e36092"},"vehicle_type_id":"4","last_reported":1758697813,"current_range_meters":18000,"station_id":"ce4bhm92rcd13ifvqglg","pricing_plan_id":"cebpf4jnsgd1na2vs0mg"},{"bike_id":"402c9ded-1991-40e6-a0b6-0a2eb964e256","system_id":"levelo_inurba_marseille","lat":43.28542,"lon":5.35048,"is_reserved":false,"is_disabled":false,"rental_uris":{"android":"levelo://app?vid=402c9ded-1991-40e6-a0b6-0a2eb964e256","ios":"levelo://app?vid=402c9ded-1991-40e6-a0b6-0a2eb964e256"},"vehicle_type_id":"4","last_reported":1758697813,"current_range_meters":17600,"station_id":"ce4bhbh2rcd13ifvqepg","pricing_plan_id":"cebpf4jnsgd1na2vs0mg"},{"bike_id":"4b84934a-be5c-42f8-a460-9492da2a37a0","system_id":"levelo_inurba_marseille","lat":43.27318,"lon":5.39089,"is_reserved":false,"is_disabled":false,"rental_uris":{"android":"levelo://app?vid=4b84934a-be5c-42f8-a460-9492da2a37a0","ios":"levelo://app?vid=4b84934a-be5c-42f8-a460-9492da2a37a0"},"vehicle_type_id":"4","last_reported":1758697813,"current_range_meters":18000,"station_id":"ce4bhgp2rcd13ifvqfe0","pricing_plan_id":"cebpf4jnsgd1na2vs0mg"},{"bike_id":"a6ad0c6c-868d-42f3-ba54-573e1a175a36","system_id":"levelo_inurba_marseille","lat":43.26254,"lon":5.41283,"is_reserved":false,"is_disabled":false,"rental_uris":{"android":"levelo://app?vid=a6ad0c6c-868d-42f3-ba54-573e1a175a36","ios":"levelo://app?vid=a6ad0c6c-868d-42f3-ba54-573e1a175a36"},"vehicle_type_id":"4","last_reported":1758697813,"current_range_meters":18000,"station_id":"","pricing_plan_id":"cebpf4jnsgd1na2vs0mg"},{"bike_id":"1406b7b7-3006-4ef0-a6d7-4ed7a6725f4a","system_id":"levelo_inurba_marseille","lat":43.29226,"lon":5.36069,"is_reserved":false,"is_disabled":false,"rental_uris":{"android":"levelo://app?vid=1406b7b7-3006-4ef0-a6d7-4ed7a6725f4a","ios":"levelo://app?vid=1406b7b7-3006-4ef0-a6d7-4ed7a6725f4a"},"vehicle_type_id":"4","last_reported":1758697813,"current_range_meters":18000,"station_id":"ce4bhbh2rcd13ifvqeqg","pricing_plan_id":"cebpf4jnsgd1na2vs0mg"},{"bike_id":"003515e8-8117-44bb-979d-5f47e8d50fda","system_id":"levelo_inurba_marseille","lat":43.30622,"lon":5.37572,"is_reserved":false,"is_disabled":false,"rental_uris":{"android":"levelo://app?vid=003515e8-8117-44bb-979d-5f47e8d50fda","ios":"levelo://app?vid=003515e8-8117-44bb-979d-5f47e8d50fda"},"vehicle_type_id":"4","last_reported":1758697813,"current_range_meters":18800,"station_id":"","pricing_plan_id":"cebpf4jnsgd1na2vs0mg"},{"bike_id":"6e28c473-43c7-4359-9768-11e494b67b04","system_id":"levelo_inurba_marseille","lat":43.27064,"lon":5.42293,"is_reserved":false,"is_disabled":false,"rental_uris":{"android":"levelo://app?vid=6e28c473-43c7-4359-9768-11e494b67b04","ios":"levelo://app?vid=6e28c473-43c7-4359-9768-11e494b67b04"},"vehicle_type_id":"4","last_reported":1758697813,"current_range_meters":18800,"station_id":"ce4bhk92rcd13ifvqgb0","pricing_plan_id":"cebpf4jnsgd1na2vs0mg"},{"bike_id":"c0c54420-fefe-42ad-8056-61d33d038aa1","system_id":"levelo_inurba_marseille","lat":43.34143,"lon":5.40907,"is_reserved":false,"is_disabled":false,"rental_uris":{"android":"levelo://app?vid=c0c54420-fefe-42ad-8056-61d33d038aa1","ios":"levelo://app?vid=c0c54420-fefe-42ad-8056-61d33d038aa1"},"vehicle_type_id":"4","last_reported":1758697813,"current_range_meters":18800,"station_id":"ce4bhqh2rcd13ifvqhlg","pricing_plan_id":"cebpf4jnsgd1na2vs0mg"},{"bike_id":"2bd2a176-8590-4e06-8b8c-a96b49b7b36a","system_id":"levelo_inurba_marseille","lat":43.262237,"lon":5.404538,"is_reserved":false,"is_disabled":false,"rental_uris":{"android":"levelo://app?vid=2bd2a176-8590-4e06-8b8c-a96b49b7b36a","ios":"levelo://app?vid=2bd2a176-8590-4e06-8b8c-a96b49b7b36a"},"vehicle_type_id":"4","last_reported":1758697813,"current_range_meters":18800,"station_id":"","pricing_plan_id":"cebpf4jnsgd1na2vs0mg"},{"bike_id":"4da0b286-aac9-4c5f-8d43-4b549d2c710f","system_id":"levelo_inurba_marseille","lat":43.32473,"lon":5.36575,"is_reserved":false,"is_disabled":false,"rental_uris":{"android":"levelo://app?vid=4da0b286-aac9-4c5f-8d43-4b549d2c710f","ios":"levelo://app?vid=4da0b286-aac9-4c5f-8d43-4b549d2c710f"},"vehicle_type_id":"4","last_reported":1758697813,"current_range_meters":18800,"station_id":"ce4bhs12rcd13ifvqhvg","pricing_plan_id":"cebpf4jnsgd1na2vs0mg"},{"bike_id":"16d9a464-95f6-4241-939a-8d28eb548d4d","system_id":"levelo_inurba_marseille","lat":43.28609,"lon":5.35114,"is_reserved":false,"is_disabled":true,"rental_uris":{"android":"levelo://app?vid=16d9a464-95f6-4241-939a-8d28eb548d4d","ios":"levelo://app?vid=16d9a464-95f6-4241-939a-8d28eb548d4d"},"vehicle_type_id":"4","last_reported":1758697813,"current_range_meters":18800,"station_id":"ce4bhch2rcd13ifvqeug","pricing_plan_id":"cebpf4jnsgd1na2vs0mg"},{"bike_id":"c5e35d50-1334-4251-9e23-b568a1a449ad","system_id":"levelo_inurba_marseille","lat":43.30275,"lon":5.37692,"is_reserved":false,"is_disabled":false,"rental_uris":{"android":"levelo://app?vid=c5e35d50-1334-4251-9e23-b568a1a449ad","ios":"levelo://app?vid=c5e35d50-1334-4251-9e23-b568a1a449ad"},"vehicle_type_id":"4","last_reported":1758697813,"current_range_meters":18800,"station_id":"ce4bguh2rcd13ifvqcj0","pricing_plan_id":"cebpf4jnsgd1na2vs0mg"},{"bike_id":"e17cd647-3fdd-4359-acba-42afc4ae2d7a","system_id":"levelo_inurba_marseille","lat":43.25584,"lon":5.38224,"is_reserved":false,"is_disabled":false,"rental_uris":{"android":"levelo://app?vid=e17cd647-3fdd-4359-acba-42afc4ae2d7a","ios":"levelo://app?vid=e17cd647-3fdd-4359-acba-42afc4ae2d7a"},"vehicle_type_id":"4","last_reported":1758697813,"current_range_meters":18000,"station_id":"ce4bhih2rcd13ifvqfs0","pricing_plan_id":"cebpf4jnsgd1na2vs0mg"},{"bike_id":"ff898cc4-e357-4e75-a6cb-dc3f7c91f054","system_id":"levelo_inurba_marseille","lat":43.21759,"lon":5.34622,"is_reserved":false,"is_disabled":true,"rental_uris":{"android":"levelo://app?vid=ff898cc4-e357-4e75-a6cb-dc3f7c91f054","ios":"levelo://app?vid=ff898cc4-e357-4e75-a6cb-dc3f7c91f054"},"vehicle_type_id":"4","last_reported":1758697813,"current_range_meters":18800,"station_id":"st_cvj6r9ubvosntc0bgbag","pricing_plan_id":"cebpf4jnsgd1na2vs0mg"},{"bike_id":"44f1eaf0-9e53-46af-85bb-81d3e73f8a96","system_id":"levelo_inurba_marseille","lat":43.28854,"lon":5.39358,"is_reserved":false,"is_disabled":false,"rental_uris":{"android":"levelo://app?vid=44f1eaf0-9e53-46af-85bb-81d3e73f8a96","ios":"levelo://app?vid=44f1eaf0-9e53-46af-85bb-81d3e73f8a96"},"vehicle_type_id":"4","last_reported":1758697813,"current_range_meters":18800,"station_id":"ce4bh2p2rcd13ifvqdi0","pricing_plan_id":"cebpf4jnsgd1na2vs0mg"},{"bike_id":"cbffa1ac-98d6-4cc2-87a0-04642a871cda","system_id":"levelo_inurba_marseille","lat":43.301501,"lon":5.37422,"is_reserved":false,"is_disabled":false,"rental_uris":{"android":"levelo://app?vid=cbffa1ac-98d6-4cc2-87a0-04642a871cda","ios":"levelo://app?vid=cbffa1ac-98d6-4cc2-87a0-04642a871cda"},"vehicle_type_id":"4","last_reported":1758697813,"current_range_meters":18800,"station_id":"ce4bgs92rcd13ifvqcc0","pricing_plan_id":"cebpf4jnsgd1na2vs0mg"},{"bike_id":"5640dfcf-8212-4fe1-9141-b385694b2fda","system_id":"levelo_inurba_marseille","lat":43.25705,"lon":5.41115,"is_reserved":false,"is_disabled":false,"rental_uris":{"android":"levelo://app?vid=5640dfcf-8212-4fe1-9141-b385694b2fda","ios":"levelo://app?vid=5640dfcf-8212-4fe1-9141-b385694b2fda"},"vehicle_type_id":"4","last_reported":1758697813,"current_range_meters":18800,"station_id":"ce4bhkp2rcd13ifvqgd0","pricing_plan_id":"cebpf4jnsgd1na2vs0mg"},{"bike_id":"429b97eb-f7cc-4d35-b219-e8e26e3f47e0","system_id":"levelo_inurba_marseille","lat":43.25921,"lon":5.40866,"is_reserved":false,"is_disabled":false,"rental_uris":{"android":"levelo://app?vid=429b97eb-f7cc-4d35-b219-e8e26e3f47e0","ios":"levelo://app?vid=429b97eb-f7cc-4d35-b219-e8e26e3f47e0"},"vehicle_type_id":"4","last_reported":1758697813,"current_range_meters":19200,"station_id":"ce4bhm92rcd13ifvqglg","pricing_plan_id":"cebpf4jnsgd1na2vs0mg"},{"bike_id":"5b2e4301-8a04-44b6-bb74-5f97ee4e1633","system_id":"levelo_inurba_marseille","lat":43.25914,"lon":5.40857,"is_reserved":false,"is_disabled":false,"rental_uris":{"android":"levelo://app?vid=5b2e4301-8a04-44b6-bb74-5f97ee4e1633","ios":"levelo://app?vid=5b2e4301-8a04-44b6-bb74-5f97ee4e1633"},"vehicle_type_id":"4","last_reported":1758697813,"current_range_meters":19200,"station_id":"ce4bhm92rcd13ifvqglg","pricing_plan_id":"cebpf4jnsgd1na2vs0mg"},{"bike_id":"47811816-e415-4971-9e31-7812c655b54c","system_id":"levelo_inurba_marseille","lat":43.2407,"lon":5.3776,"is_reserved":false,"is_disabled":false,"rental_uris":{"android":"levelo://app?vid=47811816-e415-4971-9e31-7812c655b54c","ios":"levelo://app?vid=47811816-e415-4971-9e31-7812c655b54c"},"vehicle_type_id":"4","last_reported":1758697813,"current_range_meters":19200,"station_id":"ce4bhnp2rcd13ifvqgvg","pricing_plan_id":"cebpf4jnsgd1na2vs0mg"},{"bike_id":"54c36a04-b54d-444b-a74c-0b16d14cba7a","system_id":"levelo_inurba_marseille","lat":43.30265,"lon":5.3741,"is_reserved":false,"is_disabled":true,"rental_uris":{"android":"levelo://app?vid=54c36a04-b54d-444b-a74c-0b16d14cba7a","ios":"levelo://app?vid=54c36a04-b54d-444b-a74c-0b16d14cba7a"},"vehicle_type_id":"4","last_reported":1758697813,"current_range_meters":19200,"station_id":"","pricing_plan_id":"cebpf4jnsgd1na2vs0mg"},{"bike_id":"04c3c676-4b7d-4a62-a3d1-2a761601932e","system_id":"levelo_inurba_marseille","lat":43.30638,"lon":5.40099,"is_reserved":false,"is_disabled":false,"rental_uris":{"android":"levelo://app?vid=04c3c676-4b7d-4a62-a3d1-2a761601932e","ios":"levelo://app?vid=04c3c676-4b7d-4a62-a3d1-2a761601932e"},"vehicle_type_id":"4","last_reported":1758697813,"current_range_meters":18800,"station_id":"ce4bh112rcd13ifvqda0","pricing_plan_id":"cebpf4jnsgd1na2vs0mg"},{"bike_id":"53812b58-9ac3-431d-9ae0-cf5a2600f457","system_id":"levelo_inurba_marseille","lat":43.27491,"lon":5.42462,"is_reserved":false,"is_disabled":false,"rental_uris":{"android":"levelo://app?vid=53812b58-9ac3-431d-9ae0-cf5a2600f457","ios":"levelo://app?vid=53812b58-9ac3-431d-9ae0-cf5a2600f457"},"vehicle_type_id":"4","last_reported":1758697813,"current_range_meters":19600,"station_id":"ce4bhn92rcd13ifvqgrg","pricing_plan_id":"cebpf4jnsgd1na2vs0mg"},{"bike_id":"42ca9902-d22a-48e8-9783-3638ba9458fa","system_id":"levelo_inurba_marseille","lat":43.305376,"lon":5.367293,"is_reserved":false,"is_disabled":false,"rental_uris":{"android":"levelo://app?vid=42ca9902-d22a-48e8-9783-3638ba9458fa","ios":"levelo://app?vid=42ca9902-d22a-48e8-9783-3638ba9458fa"},"vehicle_type_id":"4","last_reported":1758697813,"current_range_meters":19600,"station_id":"ce4bgrp2rcd13ifvqc9g","pricing_plan_id":"cebpf4jnsgd1na2vs0mg"},{"bike_id":"d087f77a-406c-4d5a-be43-4950dac65ee4","system_id":"levelo_inurba_marseille","lat":43.24394,"lon":5.37061,"is_reserved":false,"is_disabled":false,"rental_uris":{"android":"levelo://app?vid=d087f77a-406c-4d5a-be43-4950dac65ee4","ios":"levelo://app?vid=d087f77a-406c-4d5a-be43-4950dac65ee4"},"vehicle_type_id":"4","last_reported":1758697813,"current_range_meters":19600,"station_id":"ce4bhhh2rcd13ifvqfk0","pricing_plan_id":"cebpf4jnsgd1na2vs0mg"},{"bike_id":"b33afcb9-323b-4b25-b34a-d7ff770bee10","system_id":"levelo_inurba_marseille","lat":43.25937,"lon":5.40898,"is_reserved":false,"is_disabled":false,"rental_uris":{"android":"levelo://app?vid=b33afcb9-323b-4b25-b34a-d7ff770bee10","ios":"levelo://app?vid=b33afcb9-323b-4b25-b34a-d7ff770bee10"},"vehicle_type_id":"4","last_reported":1758697813,"current_range_meters":19600,"station_id":"ce4bhm92rcd13ifvqglg","pricing_plan_id":"cebpf4jnsgd1na2vs0mg"},{"bike_id":"a18e322d-fd1b-4845-af86-bddb5255e783","system_id":"levelo_inurba_marseille","lat":43.32538,"lon":5.41451,"is_reserved":false,"is_disabled":false,"rental_uris":{"android":"levelo://app?vid=a18e322d-fd1b-4845-af86-bddb5255e783","ios":"levelo://app?vid=a18e322d-fd1b-4845-af86-bddb5255e783"},"vehicle_type_id":"4","last_reported":1758697813,"current_range_meters":19600,"station_id":"ce4bhq12rcd13ifvqhhg","pricing_plan_id":"cebpf4jnsgd1na2vs0mg"},{"bike_id":"e80812f6-1567-48ab-b337-16574fc2eeea","system_id":"levelo_inurba_marseille","lat":43.31218,"lon":5.36848,"is_reserved":false,"is_disabled":false,"rental_uris":{"android":"levelo://app?vid=e80812f6-1567-48ab-b337-16574fc2eeea","ios":"levelo://app?vid=e80812f6-1567-48ab-b337-16574fc2eeea"},"vehicle_type_id":"4","last_reported":1758697813,"current_range_meters":19600,"station_id":"ce4bgl92rcd13ifvqbq0","pricing_plan_id":"cebpf4jnsgd1na2vs0mg"},{"bike_id":"3c72aa61-ddf5-43b9-bbea-9444c9adf036","system_id":"levelo_inurba_marseille","lat":43.26937,"lon":5.38644,"is_reserved":false,"is_disabled":false,"rental_uris":{"android":"levelo://app?vid=3c72aa61-ddf5-43b9-bbea-9444c9adf036","ios":"levelo://app?vid=3c72aa61-ddf5-43b9-bbea-9444c9adf036"},"vehicle_type_id":"4","last_reported":1758697813,"current_range_meters":19600,"station_id":"ce4bhh92rcd13ifvqfh0","pricing_plan_id":"cebpf4jnsgd1na2vs0mg"},{"bike_id":"6803ca3c-a64e-44c1-bb73-852abd0a4df3","system_id":"levelo_inurba_marseille","lat":43.26674,"lon":5.38272,"is_reserved":false,"is_disabled":false,"rental_uris":{"android":"levelo://app?vid=6803ca3c-a64e-44c1-bb73-852abd0a4df3","ios":"levelo://app?vid=6803ca3c-a64e-44c1-bb73-852abd0a4df3"},"vehicle_type_id":"4","last_reported":1758697813,"current_range_meters":19600,"station_id":"ce4bhg92rcd13ifvqf90","pricing_plan_id":"cebpf4jnsgd1na2vs0mg"},{"bike_id":"1df49bbf-3961-4fe5-b358-8ab4ccaa4d93","system_id":"levelo_inurba_marseille","lat":43.27632,"lon":5.3896,"is_reserved":false,"is_disabled":false,"rental_uris":{"android":"levelo://app?vid=1df49bbf-3961-4fe5-b358-8ab4ccaa4d93","ios":"levelo://app?vid=1df49bbf-3961-4fe5-b358-8ab4ccaa4d93"},"vehicle_type_id":"4","last_reported":1758697813,"current_range_meters":19600,"station_id":"","pricing_plan_id":"cebpf4jnsgd1na2vs0mg"},{"bike_id":"069f627d-5744-4b66-999c-aac1acd75827","system_id":"levelo_inurba_marseille","lat":43.305511,"lon":5.365691,"is_reserved":false,"is_disabled":false,"rental_uris":{"android":"levelo://app?vid=069f627d-5744-4b66-999c-aac1acd75827","ios":"levelo://app?vid=069f627d-5744-4b66-999c-aac1acd75827"},"vehicle_type_id":"4","last_reported":1758697813,"current_range_meters":19600,"station_id":"ce4bgs12rcd13ifvqcag","pricing_plan_id":"cebpf4jnsgd1na2vs0mg"},{"bike_id":"969465b1-fe9a-43d8-ad70-b67a1787566b","system_id":"levelo_inurba_marseille","lat":43.30908,"lon":5.36839,"is_reserved":false,"is_disabled":false,"rental_uris":{"android":"levelo://app?vid=969465b1-fe9a-43d8-ad70-b67a1787566b","ios":"levelo://app?vid=969465b1-fe9a-43d8-ad70-b67a1787566b"},"vehicle_type_id":"4","last_reported":1758697813,"current_range_meters":19600,"station_id":"ce4bgn92rcd13ifvqbvg","pricing_plan_id":"cebpf4jnsgd1na2vs0mg"},{"bike_id":"9182aba7-2967-401b-86a9-093bc25a5499","system_id":"levelo_inurba_marseille","lat":43.27068,"lon":5.42285,"is_reserved":false,"is_disabled":false,"rental_uris":{"android":"levelo://app?vid=9182aba7-2967-401b-86a9-093bc25a5499","ios":"levelo://app?vid=9182aba7-2967-401b-86a9-093bc25a5499"},"vehicle_type_id":"4","last_reported":1758697813,"current_range_meters":19600,"station_id":"ce4bhk92rcd13ifvqgb0","pricing_plan_id":"cebpf4jnsgd1na2vs0mg"},{"bike_id":"327c041e-5c9e-4b0d-a97c-a2dbaab036ae","system_id":"levelo_inurba_marseille","lat":43.32718,"lon":5.40921,"is_reserved":false,"is_disabled":false,"rental_uris":{"android":"levelo://app?vid=327c041e-5c9e-4b0d-a97c-a2dbaab036ae","ios":"levelo://app?vid=327c041e-5c9e-4b0d-a97c-a2dbaab036ae"},"vehicle_type_id":"4","last_reported":1758697813,"current_range_meters":20000,"station_id":"","pricing_plan_id":"cebpf4jnsgd1na2vs0mg"},{"bike_id":"97039272-1606-4f77-a0db-979de455505a","system_id":"levelo_inurba_marseille","lat":43.32425,"lon":5.39336,"is_reserved":false,"is_disabled":false,"rental_uris":{"android":"levelo://app?vid=97039272-1606-4f77-a0db-979de455505a","ios":"levelo://app?vid=97039272-1606-4f77-a0db-979de455505a"},"vehicle_type_id":"4","last_reported":1758697813,"current_range_meters":20000,"station_id":"","pricing_plan_id":"cebpf4jnsgd1na2vs0mg"},{"bike_id":"d80d6527-8c99-4e38-9b07-e3552fc28611","system_id":"levelo_inurba_marseille","lat":43.3414,"lon":5.40905,"is_reserved":false,"is_disabled":false,"rental_uris":{"android":"levelo://app?vid=d80d6527-8c99-4e38-9b07-e3552fc28611","ios":"levelo://app?vid=d80d6527-8c99-4e38-9b07-e3552fc28611"},"vehicle_type_id":"4","last_reported":1758697813,"current_range_meters":20000,"station_id":"ce4bhqh2rcd13ifvqhlg","pricing_plan_id":"cebpf4jnsgd1na2vs0mg"},{"bike_id":"d016368e-ad7d-4175-ba33-1ab3178f6d2f","system_id":"levelo_inurba_marseille","lat":43.29303,"lon":5.371748,"is_reserved":false,"is_disabled":false,"rental_uris":{"android":"levelo://app?vid=d016368e-ad7d-4175-ba33-1ab3178f6d2f","ios":"levelo://app?vid=d016368e-ad7d-4175-ba33-1ab3178f6d2f"},"vehicle_type_id":"4","last_reported":1758697813,"current_range_meters":20000,"station_id":"ce4bgh92rcd13ifvqb40","pricing_plan_id":"cebpf4jnsgd1na2vs0mg"},{"bike_id":"e8e0a80f-25dc-47ab-ae8b-3cbce8fbad61","system_id":"levelo_inurba_marseille","lat":43.24153,"lon":5.39695,"is_reserved":false,"is_disabled":false,"rental_uris":{"android":"levelo://app?vid=e8e0a80f-25dc-47ab-ae8b-3cbce8fbad61","ios":"levelo://app?vid=e8e0a80f-25dc-47ab-ae8b-3cbce8fbad61"},"vehicle_type_id":"4","last_reported":1758697813,"current_range_meters":20000,"station_id":"ce4bhn12rcd13ifvqgpg","pricing_plan_id":"cebpf4jnsgd1na2vs0mg"},{"bike_id":"2e683f05-7e44-4c3f-959b-518942bb6e95","system_id":"levelo_inurba_marseille","lat":43.30945,"lon":5.39032,"is_reserved":false,"is_disabled":false,"rental_uris":{"android":"levelo://app?vid=2e683f05-7e44-4c3f-959b-518942bb6e95","ios":"levelo://app?vid=2e683f05-7e44-4c3f-959b-518942bb6e95"},"vehicle_type_id":"4","last_reported":1758697813,"current_range_meters":20000,"station_id":"ce4bgup2rcd13ifvqco0","pricing_plan_id":"cebpf4jnsgd1na2vs0mg"},{"bike_id":"3ab51c63-3635-4439-9b9f-7ba5f66e8858","system_id":"levelo_inurba_marseille","lat":43.25928,"lon":5.409,"is_reserved":false,"is_disabled":false,"rental_uris":{"android":"levelo://app?vid=3ab51c63-3635-4439-9b9f-7ba5f66e8858","ios":"levelo://app?vid=3ab51c63-3635-4439-9b9f-7ba5f66e8858"},"vehicle_type_id":"4","last_reported":1758697813,"current_range_meters":20000,"station_id":"ce4bhm92rcd13ifvqglg","pricing_plan_id":"cebpf4jnsgd1na2vs0mg"},{"bike_id":"333a44a0-8793-4062-8de9-52762335b366","system_id":"levelo_inurba_marseille","lat":43.29035,"lon":5.37563,"is_reserved":false,"is_disabled":false,"rental_uris":{"android":"levelo://app?vid=333a44a0-8793-4062-8de9-52762335b366","ios":"levelo://app?vid=333a44a0-8793-4062-8de9-52762335b366"},"vehicle_type_id":"4","last_reported":1758697813,"current_range_meters":19600,"station_id":"ce4bh692rcd13ifvqe90","pricing_plan_id":"cebpf4jnsgd1na2vs0mg"},{"bike_id":"54dfb9f7-c215-4a47-9e3a-669faaae0104","system_id":"levelo_inurba_marseille","lat":43.3059,"lon":5.36574,"is_reserved":false,"is_disabled":false,"rental_uris":{"android":"levelo://app?vid=54dfb9f7-c215-4a47-9e3a-669faaae0104","ios":"levelo://app?vid=54dfb9f7-c215-4a47-9e3a-669faaae0104"},"vehicle_type_id":"4","last_reported":1758697813,"current_range_meters":20000,"station_id":"ce4bgs12rcd13ifvqcag","pricing_plan_id":"cebpf4jnsgd1na2vs0mg"},{"bike_id":"b8cc3e0b-7a2f-46f9-af30-7ec96738ea22","system_id":"levelo_inurba_marseille","lat":43.30947,"lon":5.39032,"is_reserved":false,"is_disabled":false,"rental_uris":{"android":"levelo://app?vid=b8cc3e0b-7a2f-46f9-af30-7ec96738ea22","ios":"levelo://app?vid=b8cc3e0b-7a2f-46f9-af30-7ec96738ea22"},"vehicle_type_id":"4","last_reported":1758697813,"current_range_meters":20000,"station_id":"ce4bgup2rcd13ifvqco0","pricing_plan_id":"cebpf4jnsgd1na2vs0mg"},{"bike_id":"d55f7cff-ce18-4107-992e-8cb8fb12b05f","system_id":"levelo_inurba_marseille","lat":43.23204,"lon":5.35593,"is_reserved":false,"is_disabled":false,"rental_uris":{"android":"levelo://app?vid=d55f7cff-ce18-4107-992e-8cb8fb12b05f","ios":"levelo://app?vid=d55f7cff-ce18-4107-992e-8cb8fb12b05f"},"vehicle_type_id":"4","last_reported":1758697813,"current_range_meters":20400,"station_id":"ce4bhu92rcd13ifvqi70","pricing_plan_id":"cebpf4jnsgd1na2vs0mg"},{"bike_id":"7b1b0ea3-8816-4e8f-8c61-070b2e8e7570","system_id":"levelo_inurba_marseille","lat":43.30183,"lon":5.36622,"is_reserved":false,"is_disabled":false,"rental_uris":{"android":"levelo://app?vid=7b1b0ea3-8816-4e8f-8c61-070b2e8e7570","ios":"levelo://app?vid=7b1b0ea3-8816-4e8f-8c61-070b2e8e7570"},"vehicle_type_id":"4","last_reported":1758697813,"current_range_meters":20400,"station_id":"ce4bgrh2rcd13ifvqc8g","pricing_plan_id":"cebpf4jnsgd1na2vs0mg"},{"bike_id":"175760d5-253d-4692-91bd-1ac0c3f225e0","system_id":"levelo_inurba_marseille","lat":43.30888,"lon":5.39638,"is_reserved":false,"is_disabled":false,"rental_uris":{"android":"levelo://app?vid=175760d5-253d-4692-91bd-1ac0c3f225e0","ios":"levelo://app?vid=175760d5-253d-4692-91bd-1ac0c3f225e0"},"vehicle_type_id":"4","last_reported":1758697813,"current_range_meters":20400,"station_id":"ce4bh012rcd13ifvqcv0","pricing_plan_id":"cebpf4jnsgd1na2vs0mg"},{"bike_id":"70743f52-911d-4758-8a3f-6e3bb77e0354","system_id":"levelo_inurba_marseille","lat":43.30271,"lon":5.37693,"is_reserved":false,"is_disabled":false,"rental_uris":{"android":"levelo://app?vid=70743f52-911d-4758-8a3f-6e3bb77e0354","ios":"levelo://app?vid=70743f52-911d-4758-8a3f-6e3bb77e0354"},"vehicle_type_id":"4","last_reported":1758697813,"current_range_meters":20400,"station_id":"ce4bguh2rcd13ifvqcj0","pricing_plan_id":"cebpf4jnsgd1na2vs0mg"},{"bike_id":"d7291183-dc83-473b-8c7c-d50495d20db0","system_id":"levelo_inurba_marseille","lat":43.297888,"lon":5.381092,"is_reserved":false,"is_disabled":true,"rental_uris":{"android":"levelo://app?vid=d7291183-dc83-473b-8c7c-d50495d20db0","ios":"levelo://app?vid=d7291183-dc83-473b-8c7c-d50495d20db0"},"vehicle_type_id":"4","last_reported":1758697813,"current_range_meters":20400,"station_id":"ce4bgip2rcd13ifvqbb0","pricing_plan_id":"cebpf4jnsgd1na2vs0mg"},{"bike_id":"3621ea1f-b34c-4062-882e-8773e0bce8c5","system_id":"levelo_inurba_marseille","lat":43.24082,"lon":5.37753,"is_reserved":false,"is_disabled":false,"rental_uris":{"android":"levelo://app?vid=3621ea1f-b34c-4062-882e-8773e0bce8c5","ios":"levelo://app?vid=3621ea1f-b34c-4062-882e-8773e0bce8c5"},"vehicle_type_id":"4","last_reported":1758697813,"current_range_meters":20400,"station_id":"ce4bhnp2rcd13ifvqgvg","pricing_plan_id":"cebpf4jnsgd1na2vs0mg"},{"bike_id":"d31d856a-933d-49cf-948f-ce03657dfc74","system_id":"levelo_inurba_marseille","lat":43.2842,"lon":5.34977,"is_reserved":false,"is_disabled":false,"rental_uris":{"android":"levelo://app?vid=d31d856a-933d-49cf-948f-ce03657dfc74","ios":"levelo://app?vid=d31d856a-933d-49cf-948f-ce03657dfc74"},"vehicle_type_id":"4","last_reported":1758697813,"current_range_meters":20400,"station_id":"ce4bhbh2rcd13ifvqepg","pricing_plan_id":"cebpf4jnsgd1na2vs0mg"},{"bike_id":"e0e2e63e-3fb8-45cf-8b0c-33ac1918bcf5","system_id":"levelo_inurba_marseille","lat":43.24075,"lon":5.37744,"is_reserved":false,"is_disabled":false,"rental_uris":{"android":"levelo://app?vid=e0e2e63e-3fb8-45cf-8b0c-33ac1918bcf5","ios":"levelo://app?vid=e0e2e63e-3fb8-45cf-8b0c-33ac1918bcf5"},"vehicle_type_id":"4","last_reported":1758697813,"current_range_meters":20400,"station_id":"ce4bhnp2rcd13ifvqgvg","pricing_plan_id":"cebpf4jnsgd1na2vs0mg"},{"bike_id":"0ad395b8-5162-4d83-90b7-d4fa9f00c6c8","system_id":"levelo_inurba_marseille","lat":43.31756,"lon":5.390218,"is_reserved":false,"is_disabled":false,"rental_uris":{"android":"levelo://app?vid=0ad395b8-5162-4d83-90b7-d4fa9f00c6c8","ios":"levelo://app?vid=0ad395b8-5162-4d83-90b7-d4fa9f00c6c8"},