{"last_updated":1748492162,"ttl":60,"version":"2.2","data":{"bikes":[{"bike_id":"55d42eeb-6b71-4987-a0f2-3d758b10d43e","system_id":"levelo_inurba_marseille","lat":43.33771,"lon":5.37424,"is_reserved":false,"is_disabled":true,"rental_uris":{"android":"levelo://app?vid=55d42eeb-6b71-4987-a0f2-3d758b10d43e","ios":"levelo://app?vid=55d42eeb-6b71-4987-a0f2-3d758b10d43e"},"vehicle_type_id":"4","last_reported":1748492162,"current_range_meters":0,"station_id":"","pricing_plan_id":"cebpf4jnsgd1na2vs0mg"},{"bike_id":"7f4b6069-304f-4d75-a8b9-d3db83a055ca","system_id":"levelo_inurba_marseille","lat":43.217499,"lon":5.346041,"is_reserved":false,"is_disabled":true,"rental_uris":{"android":"levelo://app?vid=7f4b6069-304f-4d75-a8b9-d3db83a055ca","ios":"levelo://app?vid=7f4b6069-304f-4d75-a8b9-d3db83a055ca"},"vehicle_type_id":"4","last_reported":1748492162,"current_range_meters":0,"station_id":"","pricing_plan_id":"cebpf4jnsgd1na2vs0mg"},{"bike_id":"b7fe4621-b706-42f0-9085-4811142f84e8","system_id":"levelo_inurba_marseille","lat":43.337499,"lon":5.374469,"is_reserved":false,"is_disabled":true,"rental_uris":{"android":"levelo://app?vid=b7fe4621-b706-42f0-9085-4811142f84e8","ios":"levelo://app?vid=b7fe4621-b706-42f0-9085-4811142f84e8"},"vehicle_type_id":"4","last_reported":1748492162,"current_range_meters":0,"station_id":"","pricing_plan_id":"cebpf4jnsgd1na2vs0mg"},{"bike_id":"fe000210-af5a-4367-8a9d-4202f00949cb","system_id":"levelo_inurba_marseille","lat":43.28299,"lon":5.40643,"is_reserved":false,"is_disabled":true,"rental_uris":{"android":"levelo://app?vid=fe000210-af5a-4367-8a9d-4202f00949cb","ios":"levelo://app?vid=fe000210-af5a-4367-8a9d-4202f00949cb"},"vehicle_type_id":"4","last_reported":1748492162,"current_range_meters":0,"station_id":"","pricing_plan_id":"cebpf4jnsgd1na2vs0mg"},{"bike_id":"ad402f0f-3192-410c-afac-8cf064a40c6d","system_id":"levelo_inurba_marseille","lat":43.337444,"lon":5.374475,"is_reserved":false,"is_disabled":true,"rental_uris":{"android":"levelo://app?vid=ad402f0f-3192-410c-afac-8cf064a40c6d","ios":"levelo://app?vid=ad402f0f-3192-410c-afac-8cf064a40c6d"},"vehicle_type_id":"4","last_reported":1748492162,"current_range_meters":0,"station_id":"","pricing_plan_id":"cebpf4jnsgd1na2vs0mg"},{"bike_id":"80dc1064-d63f-4a22-ad21-d8abd70986c0","system_id":"levelo_inurba_marseille","lat":43.337701,"lon":5.374731,"is_reserved":false,"is_disabled":true,"rental_uris":{"android":"levelo://app?vid=80dc1064-d63f-4a22-ad21-d8abd70986c0","ios":"levelo://app?vid=80dc1064-d63f-4a22-ad21-d8abd70986c0"},"vehicle_type_id":"4","last_reported":1748492162,"current_range_meters":0,"station_id":"","pricing_plan_id":"cebpf4jnsgd1na2vs0mg"},{"bike_id":"d3bf3c55-5769-4b15-9eb1-28f17ada09fd","system_id":"levelo_inurba_marseille","lat":43.321517,"lon":5.387779,"is_reserved":false,"is_disabled":true,"rental_uris":{"android":"levelo://app?vid=d3bf3c55-5769-4b15-9eb1-28f17ada09fd","ios":"levelo://app?vid=d3bf3c55-5769-4b15-9eb1-28f17ada09fd"},"vehicle_type_id":"4","last_reported":1748492162,"current_range_meters":0,"station_id":"","pricing_plan_id":"cebpf4jnsgd1na2vs0mg"},{"bike_id":"2fd7e160-685c-4858-b57b-dcaef27a8e94","system_id":"levelo_inurba_marseille","lat":43.230331,"lon":5.401847,"is_reserved":false,"is_disabled":true,"rental_uris":{"android":"levelo://app?vid=2fd7e160-685c-4858-b57b-dcaef27a8e94","ios":"levelo://app?vid=2fd7e160-685c-4858-b57b-dcaef27a8e94"},"vehicle_type_id":"4","last_reported":1748492162,"current_range_meters":0,"station_id":"","pricing_plan_id":"cebpf4jnsgd1na2vs0mg"},{"bike_id":"e73357c5-67ed-4075-84be-4246c5fbde4a","system_id":"levelo_inurba_marseille","lat":43.23162,"lon":5.43711,"is_reserved":false,"is_disabled":true,"rental_uris":{"android":"levelo://app?vid=e73357c5-67ed-4075-84be-4246c5fbde4a","ios":"levelo://app?vid=e73357c5-67ed-4075-84be-4246c5fbde4a"},"vehicle_type_id":"4","last_reported":1748492162,"current_range_meters":0,"station_id":"ce4bhmp2rcd13ifvqgog","pricing_plan_id":"cebpf4jnsgd1na2vs0mg"},{"bike_id":"ce526b8a-caa2-4d66-9928-344df9acf135","system_id":"levelo_inurba_marseille","lat":43.32382,"lon":5.38899,"is_reserved":false,"is_disabled":true,"rental_uris":{"android":"levelo://app?vid=ce526b8a-caa2-4d66-9928-344df9acf135","ios":"levelo://app?vid=ce526b8a-caa2-4d66-9928-344df9acf135"},"vehicle_type_id":"4","last_reported":1748492162,"current_range_meters":0,"station_id":"ce4bhqp2rcd13ifvqhog","pricing_plan_id":"cebpf4jnsgd1na2vs0mg"},{"bike_id":"5aefb386-e416-4906-998c-ff23207edc6c","system_id":"levelo_inurba_marseille","lat":43.21748,"lon":5.34603,"is_reserved":false,"is_disabled":true,"rental_uris":{"android":"levelo://app?vid=5aefb386-e416-4906-998c-ff23207edc6c","ios":"levelo://app?vid=5aefb386-e416-4906-998c-ff23207edc6c"},"vehicle_type_id":"4","last_reported":1748492162,"current_range_meters":0,"station_id":"st_cvj6r9ubvosntc0bgbag","pricing_plan_id":"cebpf4jnsgd1na2vs0mg"},{"bike_id":"8e317c52-6237-4ca3-8712-9ef54244a0a3","system_id":"levelo_inurba_marseille","lat":43.286951,"lon":5.373943,"is_reserved":false,"is_disabled":true,"rental_uris":{"android":"levelo://app?vid=8e317c52-6237-4ca3-8712-9ef54244a0a3","ios":"levelo://app?vid=8e317c52-6237-4ca3-8712-9ef54244a0a3"},"vehicle_type_id":"4","last_reported":1748492162,"current_range_meters":400,"station_id":"","pricing_plan_id":"cebpf4jnsgd1na2vs0mg"},{"bike_id":"443004d0-5e76-4011-aa1d-e28b9d37d601","system_id":"levelo_inurba_marseille","lat":43.315643,"lon":5.369123,"is_reserved":false,"is_disabled":true,"rental_uris":{"android":"levelo://app?vid=443004d0-5e76-4011-aa1d-e28b9d37d601","ios":"levelo://app?vid=443004d0-5e76-4011-aa1d-e28b9d37d601"},"vehicle_type_id":"4","last_reported":1748492162,"current_range_meters":800,"station_id":"","pricing_plan_id":"cebpf4jnsgd1na2vs0mg"},{"bike_id":"ce78f808-b7c2-47bc-8d9f-de87423062f7","system_id":"levelo_inurba_marseille","lat":43.30472,"lon":5.37908,"is_reserved":false,"is_disabled":true,"rental_uris":{"android":"levelo://app?vid=ce78f808-b7c2-47bc-8d9f-de87423062f7","ios":"levelo://app?vid=ce78f808-b7c2-47bc-8d9f-de87423062f7"},"vehicle_type_id":"4","last_reported":1748492162,"current_range_meters":1200,"station_id":"ce4bgup2rcd13ifvqcn0","pricing_plan_id":"cebpf4jnsgd1na2vs0mg"},{"bike_id":"154240d9-ae7a-4e24-8ba5-275513e5fd56","system_id":"levelo_inurba_marseille","lat":43.31111,"lon":5.37769,"is_reserved":false,"is_disabled":false,"rental_uris":{"android":"levelo://app?vid=154240d9-ae7a-4e24-8ba5-275513e5fd56","ios":"levelo://app?vid=154240d9-ae7a-4e24-8ba5-275513e5fd56"},"vehicle_type_id":"4","last_reported":1748492162,"current_range_meters":2800,"station_id":"ce4bgt92rcd13ifvqcg0","pricing_plan_id":"cebpf4jnsgd1na2vs0mg"},{"bike_id":"6b28ce9a-ad10-4de9-b817-ad6102345757","system_id":"levelo_inurba_marseille","lat":43.27375,"lon":5.36241,"is_reserved":false,"is_disabled":false,"rental_uris":{"android":"levelo://app?vid=6b28ce9a-ad10-4de9-b817-ad6102345757","ios":"levelo://app?vid=6b28ce9a-ad10-4de9-b817-ad6102345757"},"vehicle_type_id":"4","last_reported":1748492162,"current_range_meters":2800,"station_id":"ce4bhbh2rcd13ifvqeo0","pricing_plan_id":"cebpf4jnsgd1na2vs0mg"},{"bike_id":"79fa2c16-3fb6-467d-b11f-01c41dbd318a","system_id":"levelo_inurba_marseille","lat":43.2989,"lon":5.43667,"is_reserved":false,"is_disabled":false,"rental_uris":{"android":"levelo://app?vid=79fa2c16-3fb6-467d-b11f-01c41dbd318a","ios":"levelo://app?vid=79fa2c16-3fb6-467d-b11f-01c41dbd318a"},"vehicle_type_id":"4","last_reported":1748492162,"current_range_meters":2800,"station_id":"ce4bhpp2rcd13ifvqhfg","pricing_plan_id":"cebpf4jnsgd1na2vs0mg"},{"bike_id":"677239f9-f924-46d2-84f6-5f061d6df066","system_id":"levelo_inurba_marseille","lat":43.305527,"lon":5.374467,"is_reserved":false,"is_disabled":false,"rental_uris":{"android":"levelo://app?vid=677239f9-f924-46d2-84f6-5f061d6df066","ios":"levelo://app?vid=677239f9-f924-46d2-84f6-5f061d6df066"},"vehicle_type_id":"4","last_reported":1748492162,"current_range_meters":3600,"station_id":"","pricing_plan_id":"cebpf4jnsgd1na2vs0mg"},{"bike_id":"85ab9e49-2de9-4c78-9df8-e03a0245b0f2","system_id":"levelo_inurba_marseille","lat":43.253521,"lon":5.395095,"is_reserved":false,"is_disabled":false,"rental_uris":{"android":"levelo://app?vid=85ab9e49-2de9-4c78-9df8-e03a0245b0f2","ios":"levelo://app?vid=85ab9e49-2de9-4c78-9df8-e03a0245b0f2"},"vehicle_type_id":"4","last_reported":1748492162,"current_range_meters":4000,"station_id":"","pricing_plan_id":"cebpf4jnsgd1na2vs0mg"},{"bike_id":"f08ad698-d33a-402b-b0cc-a6e3d0d8f118","system_id":"levelo_inurba_marseille","lat":43.3064,"lon":5.400723,"is_reserved":false,"is_disabled":false,"rental_uris":{"android":"levelo://app?vid=f08ad698-d33a-402b-b0cc-a6e3d0d8f118","ios":"levelo://app?vid=f08ad698-d33a-402b-b0cc-a6e3d0d8f118"},"vehicle_type_id":"4","last_reported":1748492162,"current_range_meters":4000,"station_id":"ce4bh112rcd13ifvqda0","pricing_plan_id":"cebpf4jnsgd1na2vs0mg"},{"bike_id":"6d2f49d4-4079-41f0-a189-90db2e417369","system_id":"levelo_inurba_marseille","lat":43.333428,"lon":5.400463,"is_reserved":false,"is_disabled":false,"rental_uris":{"android":"levelo://app?vid=6d2f49d4-4079-41f0-a189-90db2e417369","ios":"levelo://app?vid=6d2f49d4-4079-41f0-a189-90db2e417369"},"vehicle_type_id":"4","last_reported":1748492162,"current_range_meters":4400,"station_id":"","pricing_plan_id":"cebpf4jnsgd1na2vs0mg"},{"bike_id":"3c834615-a02c-41a9-b55c-4abaad4cdf9d","system_id":"levelo_inurba_marseille","lat":43.29187,"lon":5.39323,"is_reserved":false,"is_disabled":false,"rental_uris":{"android":"levelo://app?vid=3c834615-a02c-41a9-b55c-4abaad4cdf9d","ios":"levelo://app?vid=3c834615-a02c-41a9-b55c-4abaad4cdf9d"},"vehicle_type_id":"4","last_reported":1748492162,"current_range_meters":4400,"station_id":"ce4bh192rcd13ifvqdd0","pricing_plan_id":"cebpf4jnsgd1na2vs0mg"},{"bike_id":"106a6c35-356d-40a4-9d1b-3a8604b3267c","system_id":"levelo_inurba_marseille","lat":43.279151,"lon":5.395793,"is_reserved":false,"is_disabled":false,"rental_uris":{"android":"levelo://app?vid=106a6c35-356d-40a4-9d1b-3a8604b3267c","ios":"levelo://app?vid=106a6c35-356d-40a4-9d1b-3a8604b3267c"},"vehicle_type_id":"4","last_reported":1748492162,"current_range_meters":4400,"station_id":"ce4bhf92rcd13ifvqf40","pricing_plan_id":"cebpf4jnsgd1na2vs0mg"},{"bike_id":"eb42545e-36f8-4cea-9450-b834ad586126","system_id":"levelo_inurba_marseille","lat":43.28663,"lon":5.38662,"is_reserved":false,"is_disabled":false,"rental_uris":{"android":"levelo://app?vid=eb42545e-36f8-4cea-9450-b834ad586126","ios":"levelo://app?vid=eb42545e-36f8-4cea-9450-b834ad586126"},"vehicle_type_id":"4","last_reported":1748492162,"current_range_meters":4800,"station_id":"ce4bh492rcd13ifvqdug","pricing_plan_id":"cebpf4jnsgd1na2vs0mg"},{"bike_id":"e5465dae-b910-4811-a4db-62e771d6955c","system_id":"levelo_inurba_marseille","lat":43.28278,"lon":5.35062,"is_reserved":false,"is_disabled":false,"rental_uris":{"android":"levelo://app?vid=e5465dae-b910-4811-a4db-62e771d6955c","ios":"levelo://app?vid=e5465dae-b910-4811-a4db-62e771d6955c"},"vehicle_type_id":"4","last_reported":1748492162,"current_range_meters":4800,"station_id":"ce4bhbp2rcd13ifvqerg","pricing_plan_id":"cebpf4jnsgd1na2vs0mg"},{"bike_id":"e662cfdf-7308-445f-8e14-4d33034d33f2","system_id":"levelo_inurba_marseille","lat":43.251142,"lon":5.4033,"is_reserved":false,"is_disabled":false,"rental_uris":{"android":"levelo://app?vid=e662cfdf-7308-445f-8e14-4d33034d33f2","ios":"levelo://app?vid=e662cfdf-7308-445f-8e14-4d33034d33f2"},"vehicle_type_id":"4","last_reported":1748492162,"current_range_meters":4800,"station_id":"ce4bhlh2rcd13ifvqgig","pricing_plan_id":"cebpf4jnsgd1na2vs0mg"},{"bike_id":"ae26cb89-80d8-43a8-94bb-929d63f82635","system_id":"levelo_inurba_marseille","lat":43.26837,"lon":5.40234,"is_reserved":false,"is_disabled":false,"rental_uris":{"android":"levelo://app?vid=ae26cb89-80d8-43a8-94bb-929d63f82635","ios":"levelo://app?vid=ae26cb89-80d8-43a8-94bb-929d63f82635"},"vehicle_type_id":"4","last_reported":1748492162,"current_range_meters":4800,"station_id":"ce501612rcd8frsf0b60","pricing_plan_id":"cebpf4jnsgd1na2vs0mg"},{"bike_id":"87b395fb-0dfd-464d-b68d-3afc622e0d48","system_id":"levelo_inurba_marseille","lat":43.295711,"lon":5.39471,"is_reserved":false,"is_disabled":false,"rental_uris":{"android":"levelo://app?vid=87b395fb-0dfd-464d-b68d-3afc622e0d48","ios":"levelo://app?vid=87b395fb-0dfd-464d-b68d-3afc622e0d48"},"vehicle_type_id":"4","last_reported":1748492162,"current_range_meters":5600,"station_id":"","pricing_plan_id":"cebpf4jnsgd1na2vs0mg"},{"bike_id":"1a9deaa6-5b0b-41ea-a3a0-9c49f0de8473","system_id":"levelo_inurba_marseille","lat":43.29332,"lon":5.41181,"is_reserved":false,"is_disabled":false,"rental_uris":{"android":"levelo://app?vid=1a9deaa6-5b0b-41ea-a3a0-9c49f0de8473","ios":"levelo://app?vid=1a9deaa6-5b0b-41ea-a3a0-9c49f0de8473"},"vehicle_type_id":"4","last_reported":1748492162,"current_range_meters":5600,"station_id":"","pricing_plan_id":"cebpf4jnsgd1na2vs0mg"},{"bike_id":"55edb2b6-24f5-484b-a859-47a014e0bde2","system_id":"levelo_inurba_marseille","lat":43.326091,"lon":5.366404,"is_reserved":false,"is_disabled":false,"rental_uris":{"android":"levelo://app?vid=55edb2b6-24f5-484b-a859-47a014e0bde2","ios":"levelo://app?vid=55edb2b6-24f5-484b-a859-47a014e0bde2"},"vehicle_type_id":"4","last_reported":1748492162,"current_range_meters":5600,"station_id":"","pricing_plan_id":"cebpf4jnsgd1na2vs0mg"},{"bike_id":"cb64b351-3409-46f0-b01e-e491ea3ea909","system_id":"levelo_inurba_marseille","lat":43.31697,"lon":5.40469,"is_reserved":false,"is_disabled":false,"rental_uris":{"android":"levelo://app?vid=cb64b351-3409-46f0-b01e-e491ea3ea909","ios":"levelo://app?vid=cb64b351-3409-46f0-b01e-e491ea3ea909"},"vehicle_type_id":"4","last_reported":1748492162,"current_range_meters":5600,"station_id":"ce4bh012rcd13ifvqd00","pricing_plan_id":"cebpf4jnsgd1na2vs0mg"},{"bike_id":"8b686f9a-13e4-448a-8045-4620b1af486c","system_id":"levelo_inurba_marseille","lat":43.306547,"lon":5.400752,"is_reserved":false,"is_disabled":false,"rental_uris":{"android":"levelo://app?vid=8b686f9a-13e4-448a-8045-4620b1af486c","ios":"levelo://app?vid=8b686f9a-13e4-448a-8045-4620b1af486c"},"vehicle_type_id":"4","last_reported":1748492162,"current_range_meters":5600,"station_id":"ce4bh112rcd13ifvqda0","pricing_plan_id":"cebpf4jnsgd1na2vs0mg"},{"bike_id":"e1364e17-964d-4c3a-a68e-ace0c23aee68","system_id":"levelo_inurba_marseille","lat":43.28836,"lon":5.393134,"is_reserved":false,"is_disabled":false,"rental_uris":{"android":"levelo://app?vid=e1364e17-964d-4c3a-a68e-ace0c23aee68","ios":"levelo://app?vid=e1364e17-964d-4c3a-a68e-ace0c23aee68"},"vehicle_type_id":"4","last_reported":1748492162,"current_range_meters":5600,"station_id":"ce4bh2p2rcd13ifvqdi0","pricing_plan_id":"cebpf4jnsgd1na2vs0mg"},{"bike_id":"2e9a6d51-bcf8-49fb-ae65-fa2d678c4f6d","system_id":"levelo_inurba_marseille","lat":43.284316,"lon":5.349904,"is_reserved":false,"is_disabled":false,"rental_uris":{"android":"levelo://app?vid=2e9a6d51-bcf8-49fb-ae65-fa2d678c4f6d","ios":"levelo://app?vid=2e9a6d51-bcf8-49fb-ae65-fa2d678c4f6d"},"vehicle_type_id":"4","last_reported":1748492162,"current_range_meters":5600,"station_id":"ce4bhbh2rcd13ifvqepg","pricing_plan_id":"cebpf4jnsgd1na2vs0mg"},{"bike_id":"697f1bc0-ae34-4ad9-8ede-6a27c99a6ea7","system_id":"levelo_inurba_marseille","lat":43.27984,"lon":5.41658,"is_reserved":false,"is_disabled":false,"rental_uris":{"android":"levelo://app?vid=697f1bc0-ae34-4ad9-8ede-6a27c99a6ea7","ios":"levelo://app?vid=697f1bc0-ae34-4ad9-8ede-6a27c99a6ea7"},"vehicle_type_id":"4","last_reported":1748492162,"current_range_meters":5600,"station_id":"ce4bho12rcd13ifvqh1g","pricing_plan_id":"cebpf4jnsgd1na2vs0mg"},{"bike_id":"d440bf96-43ec-45b0-b01f-1c5328ca29b2","system_id":"levelo_inurba_marseille","lat":43.27939,"lon":5.38718,"is_reserved":false,"is_disabled":false,"rental_uris":{"android":"levelo://app?vid=d440bf96-43ec-45b0-b01f-1c5328ca29b2","ios":"levelo://app?vid=d440bf96-43ec-45b0-b01f-1c5328ca29b2"},"vehicle_type_id":"4","last_reported":1748492162,"current_range_meters":6000,"station_id":"ce4bhg12rcd13ifvqf80","pricing_plan_id":"cebpf4jnsgd1na2vs0mg"},{"bike_id":"e79ef05e-bb28-4c4b-a45f-1945f54353c7","system_id":"levelo_inurba_marseille","lat":43.24062,"lon":5.37766,"is_reserved":false,"is_disabled":false,"rental_uris":{"android":"levelo://app?vid=e79ef05e-bb28-4c4b-a45f-1945f54353c7","ios":"levelo://app?vid=e79ef05e-bb28-4c4b-a45f-1945f54353c7"},"vehicle_type_id":"4","last_reported":1748492162,"current_range_meters":6000,"station_id":"ce4bhnp2rcd13ifvqgvg","pricing_plan_id":"cebpf4jnsgd1na2vs0mg"},{"bike_id":"f43dbc0e-25d0-44b9-b94e-e0078c6cee1b","system_id":"levelo_inurba_marseille","lat":43.24067,"lon":5.37754,"is_reserved":false,"is_disabled":false,"rental_uris":{"android":"levelo://app?vid=f43dbc0e-25d0-44b9-b94e-e0078c6cee1b","ios":"levelo://app?vid=f43dbc0e-25d0-44b9-b94e-e0078c6cee1b"},"vehicle_type_id":"4","last_reported":1748492162,"current_range_meters":6000,"station_id":"ce4bhnp2rcd13ifvqgvg","pricing_plan_id":"cebpf4jnsgd1na2vs0mg"},{"bike_id":"98234324-f3a3-438f-801c-39490a7c5660","system_id":"levelo_inurba_marseille","lat":43.33725,"lon":5.39202,"is_reserved":false,"is_disabled":false,"rental_uris":{"android":"levelo://app?vid=98234324-f3a3-438f-801c-39490a7c5660","ios":"levelo://app?vid=98234324-f3a3-438f-801c-39490a7c5660"},"vehicle_type_id":"4","last_reported":1748492162,"current_range_meters":6000,"station_id":"ce4bhr92rcd13ifvqhsg","pricing_plan_id":"cebpf4jnsgd1na2vs0mg"},{"bike_id":"b80ee325-09b2-4724-993d-4f8d3707c41c","system_id":"levelo_inurba_marseille","lat":43.25862,"lon":5.39902,"is_reserved":false,"is_disabled":false,"rental_uris":{"android":"levelo://app?vid=b80ee325-09b2-4724-993d-4f8d3707c41c","ios":"levelo://app?vid=b80ee325-09b2-4724-993d-4f8d3707c41c"},"vehicle_type_id":"4","last_reported":1748492162,"current_range_meters":6400,"station_id":"ce4bhl92rcd13ifvqghg","pricing_plan_id":"cebpf4jnsgd1na2vs0mg"},{"bike_id":"988fe2ed-8287-4d9f-8686-7ec6ac079397","system_id":"levelo_inurba_marseille","lat":43.326528,"lon":5.409884,"is_reserved":false,"is_disabled":false,"rental_uris":{"android":"levelo://app?vid=988fe2ed-8287-4d9f-8686-7ec6ac079397","ios":"levelo://app?vid=988fe2ed-8287-4d9f-8686-7ec6ac079397"},"vehicle_type_id":"4","last_reported":1748492162,"current_range_meters":6400,"station_id":"ce4bhpp2rcd13ifvqhgg","pricing_plan_id":"cebpf4jnsgd1na2vs0mg"},{"bike_id":"7911cebf-5c32-4409-bd84-2cbae9e6ba97","system_id":"levelo_inurba_marseille","lat":43.32313,"lon":5.406285,"is_reserved":false,"is_disabled":false,"rental_uris":{"android":"levelo://app?vid=7911cebf-5c32-4409-bd84-2cbae9e6ba97","ios":"levelo://app?vid=7911cebf-5c32-4409-bd84-2cbae9e6ba97"},"vehicle_type_id":"4","last_reported":1748492162,"current_range_meters":6400,"station_id":"ce4bhq92rcd13ifvqhjg","pricing_plan_id":"cebpf4jnsgd1na2vs0mg"},{"bike_id":"e81c314f-503d-4896-a793-3e0edb6bdb80","system_id":"levelo_inurba_marseille","lat":43.322798,"lon":5.382816,"is_reserved":false,"is_disabled":false,"rental_uris":{"android":"levelo://app?vid=e81c314f-503d-4896-a793-3e0edb6bdb80","ios":"levelo://app?vid=e81c314f-503d-4896-a793-3e0edb6bdb80"},"vehicle_type_id":"4","last_reported":1748492162,"current_range_meters":6400,"station_id":"ce4bhr12rcd13ifvqhqg","pricing_plan_id":"cebpf4jnsgd1na2vs0mg"},{"bike_id":"c3a0bd73-5813-47f0-a5c8-27701041c8ba","system_id":"levelo_inurba_marseille","lat":43.27257,"lon":5.42408,"is_reserved":false,"is_disabled":false,"rental_uris":{"android":"levelo://app?vid=c3a0bd73-5813-47f0-a5c8-27701041c8ba","ios":"levelo://app?vid=c3a0bd73-5813-47f0-a5c8-27701041c8ba"},"vehicle_type_id":"4","last_reported":1748492162,"current_range_meters":6800,"station_id":"","pricing_plan_id":"cebpf4jnsgd1na2vs0mg"},{"bike_id":"e7c8a9b9-0f7e-4f93-8f26-86f0646a609e","system_id":"levelo_inurba_marseille","lat":43.33116,"lon":5.38513,"is_reserved":false,"is_disabled":false,"rental_uris":{"android":"levelo://app?vid=e7c8a9b9-0f7e-4f93-8f26-86f0646a609e","ios":"levelo://app?vid=e7c8a9b9-0f7e-4f93-8f26-86f0646a609e"},"vehicle_type_id":"4","last_reported":1748492162,"current_range_meters":6800,"station_id":"","pricing_plan_id":"cebpf4jnsgd1na2vs0mg"},{"bike_id":"f0e44009-6064-4d67-80b4-0bb60ffccf01","system_id":"levelo_inurba_marseille","lat":43.28549,"lon":5.36649,"is_reserved":false,"is_disabled":false,"rental_uris":{"android":"levelo://app?vid=f0e44009-6064-4d67-80b4-0bb60ffccf01","ios":"levelo://app?vid=f0e44009-6064-4d67-80b4-0bb60ffccf01"},"vehicle_type_id":"4","last_reported":1748492162,"current_range_meters":6800,"station_id":"","pricing_plan_id":"cebpf4jnsgd1na2vs0mg"},{"bike_id":"4bd6d0a0-4db6-4150-a5c3-53fe71224bf4","system_id":"levelo_inurba_marseille","lat":43.306453,"lon":5.400782,"is_reserved":false,"is_disabled":false,"rental_uris":{"android":"levelo://app?vid=4bd6d0a0-4db6-4150-a5c3-53fe71224bf4","ios":"levelo://app?vid=4bd6d0a0-4db6-4150-a5c3-53fe71224bf4"},"vehicle_type_id":"4","last_reported":1748492162,"current_range_meters":6800,"station_id":"ce4bh112rcd13ifvqda0","pricing_plan_id":"cebpf4jnsgd1na2vs0mg"},{"bike_id":"69764f42-9c92-445f-936a-157bbf235d43","system_id":"levelo_inurba_marseille","lat":43.27537,"lon":5.38468,"is_reserved":false,"is_disabled":false,"rental_uris":{"android":"levelo://app?vid=69764f42-9c92-445f-936a-157bbf235d43","ios":"levelo://app?vid=69764f42-9c92-445f-936a-157bbf235d43"},"vehicle_type_id":"4","last_reported":1748492162,"current_range_meters":6800,"station_id":"ce4bhh92rcd13ifvqfi0","pricing_plan_id":"cebpf4jnsgd1na2vs0mg"},{"bike_id":"98d347c6-14e6-4d92-b31c-7483df770580","system_id":"levelo_inurba_marseille","lat":43.26215,"lon":5.404545,"is_reserved":false,"is_disabled":false,"rental_uris":{"android":"levelo://app?vid=98d347c6-14e6-4d92-b31c-7483df770580","ios":"levelo://app?vid=98d347c6-14e6-4d92-b31c-7483df770580"},"vehicle_type_id":"4","last_reported":1748492162,"current_range_meters":6800,"station_id":"ce4bhmh2rcd13ifvqgmg","pricing_plan_id":"cebpf4jnsgd1na2vs0mg"},{"bike_id":"9167ea6a-ce66-49ff-859f-3ca7c151003d","system_id":"levelo_inurba_marseille","lat":43.24173,"lon":5.3974,"is_reserved":false,"is_disabled":false,"rental_uris":{"android":"levelo://app?vid=9167ea6a-ce66-49ff-859f-3ca7c151003d","ios":"levelo://app?vid=9167ea6a-ce66-49ff-859f-3ca7c151003d"},"vehicle_type_id":"4","last_reported":1748492162,"current_range_meters":6800,"station_id":"ce4bhn12rcd13ifvqgpg","pricing_plan_id":"cebpf4jnsgd1na2vs0mg"},{"bike_id":"aeb94751-36eb-4d35-b5b3-2fa799561193","system_id":"levelo_inurba_marseille","lat":43.308,"lon":5.3766,"is_reserved":false,"is_disabled":false,"rental_uris":{"android":"levelo://app?vid=aeb94751-36eb-4d35-b5b3-2fa799561193","ios":"levelo://app?vid=aeb94751-36eb-4d35-b5b3-2fa799561193"},"vehicle_type_id":"4","last_reported":1748492162,"current_range_meters":7200,"station_id":"ce4bgv92rcd13ifvqcq0","pricing_plan_id":"cebpf4jnsgd1na2vs0mg"},{"bike_id":"5ae6a790-62ab-42ea-baed-eafc474ab230","system_id":"levelo_inurba_marseille","lat":43.28426,"lon":5.37525,"is_reserved":false,"is_disabled":false,"rental_uris":{"android":"levelo://app?vid=5ae6a790-62ab-42ea-baed-eafc474ab230","ios":"levelo://app?vid=5ae6a790-62ab-42ea-baed-eafc474ab230"},"vehicle_type_id":"4","last_reported":1748492162,"current_range_meters":7200,"station_id":"ce4bh412rcd13ifvqds0","pricing_plan_id":"cebpf4jnsgd1na2vs0mg"},{"bike_id":"8f873e24-264b-446b-82f7-9634ff6df46c","system_id":"levelo_inurba_marseille","lat":43.275736,"lon":5.384118,"is_reserved":false,"is_disabled":false,"rental_uris":{"android":"levelo://app?vid=8f873e24-264b-446b-82f7-9634ff6df46c","ios":"levelo://app?vid=8f873e24-264b-446b-82f7-9634ff6df46c"},"vehicle_type_id":"4","last_reported":1748492162,"current_range_meters":7200,"station_id":"ce4bhh92rcd13ifvqfi0","pricing_plan_id":"cebpf4jnsgd1na2vs0mg"},{"bike_id":"eefbf0be-aede-4ce4-8e0c-8d5278212334","system_id":"levelo_inurba_marseille","lat":43.25106,"lon":5.40352,"is_reserved":false,"is_disabled":false,"rental_uris":{"android":"levelo://app?vid=eefbf0be-aede-4ce4-8e0c-8d5278212334","ios":"levelo://app?vid=eefbf0be-aede-4ce4-8e0c-8d5278212334"},"vehicle_type_id":"4","last_reported":1748492162,"current_range_meters":7200,"station_id":"ce4bhlh2rcd13ifvqgig","pricing_plan_id":"cebpf4jnsgd1na2vs0mg"},{"bike_id":"44a04aac-0228-4a88-b1c4-62daa67746f4","system_id":"levelo_inurba_marseille","lat":43.30376,"lon":5.42512,"is_reserved":false,"is_disabled":false,"rental_uris":{"android":"levelo://app?vid=44a04aac-0228-4a88-b1c4-62daa67746f4","ios":"levelo://app?vid=44a04aac-0228-4a88-b1c4-62daa67746f4"},"vehicle_type_id":"4","last_reported":1748492162,"current_range_meters":7200,"station_id":"ce4bhoh2rcd13ifvqh6g","pricing_plan_id":"cebpf4jnsgd1na2vs0mg"},{"bike_id":"6d7cfdcd-f061-4eee-b4e5-78d9b6729328","system_id":"levelo_inurba_marseille","lat":43.330038,"lon":5.438589,"is_reserved":false,"is_disabled":false,"rental_uris":{"android":"levelo://app?vid=6d7cfdcd-f061-4eee-b4e5-78d9b6729328","ios":"levelo://app?vid=6d7cfdcd-f061-4eee-b4e5-78d9b6729328"},"vehicle_type_id":"4","last_reported":1748492162,"current_range_meters":8000,"station_id":"","pricing_plan_id":"cebpf4jnsgd1na2vs0mg"},{"bike_id":"985a5028-4b22-4637-856d-8c1e1dd035e0","system_id":"levelo_inurba_marseille","lat":43.294054,"lon":5.401301,"is_reserved":false,"is_disabled":false,"rental_uris":{"android":"levelo://app?vid=985a5028-4b22-4637-856d-8c1e1dd035e0","ios":"levelo://app?vid=985a5028-4b22-4637-856d-8c1e1dd035e0"},"vehicle_type_id":"4","last_reported":1748492162,"current_range_meters":8000,"station_id":"","pricing_plan_id":"cebpf4jnsgd1na2vs0mg"},{"bike_id":"ce7b18e4-7948-40ae-b647-c69f45870dbb","system_id":"levelo_inurba_marseille","lat":43.30932,"lon":5.4017,"is_reserved":false,"is_disabled":false,"rental_uris":{"android":"levelo://app?vid=ce7b18e4-7948-40ae-b647-c69f45870dbb","ios":"levelo://app?vid=ce7b18e4-7948-40ae-b647-c69f45870dbb"},"vehicle_type_id":"4","last_reported":1748492162,"current_range_meters":8000,"station_id":"ce4bgvp2rcd13ifvqct0","pricing_plan_id":"cebpf4jnsgd1na2vs0mg"},{"bike_id":"2c561fcc-c166-4477-ba05-0bd219968719","system_id":"levelo_inurba_marseille","lat":43.294413,"lon":5.397502,"is_reserved":false,"is_disabled":false,"rental_uris":{"android":"levelo://app?vid=2c561fcc-c166-4477-ba05-0bd219968719","ios":"levelo://app?vid=2c561fcc-c166-4477-ba05-0bd219968719"},"vehicle_type_id":"4","last_reported":1748492162,"current_range_meters":8000,"station_id":"ce4bh3h2rcd13ifvqdo0","pricing_plan_id":"cebpf4jnsgd1na2vs0mg"},{"bike_id":"aece26bf-35dd-4abb-a667-c9df8ed9e08d","system_id":"levelo_inurba_marseille","lat":43.273743,"lon":5.362594,"is_reserved":false,"is_disabled":false,"rental_uris":{"android":"levelo://app?vid=aece26bf-35dd-4abb-a667-c9df8ed9e08d","ios":"levelo://app?vid=aece26bf-35dd-4abb-a667-c9df8ed9e08d"},"vehicle_type_id":"4","last_reported":1748492162,"current_range_meters":8000,"station_id":"ce4bhbh2rcd13ifvqeo0","pricing_plan_id":"cebpf4jnsgd1na2vs0mg"},{"bike_id":"b6194222-a80b-43bc-b765-fba2143e9c5c","system_id":"levelo_inurba_marseille","lat":43.231849,"lon":5.35557,"is_reserved":false,"is_disabled":false,"rental_uris":{"android":"levelo://app?vid=b6194222-a80b-43bc-b765-fba2143e9c5c","ios":"levelo://app?vid=b6194222-a80b-43bc-b765-fba2143e9c5c"},"vehicle_type_id":"4","last_reported":1748492162,"current_range_meters":8000,"station_id":"ce4bhu92rcd13ifvqi70","pricing_plan_id":"cebpf4jnsgd1na2vs0mg"},{"bike_id":"be4b293e-8744-4637-8ca2-a3e9032e9cec","system_id":"levelo_inurba_marseille","lat":43.229252,"lon":5.353868,"is_reserved":false,"is_disabled":false,"rental_uris":{"android":"levelo://app?vid=be4b293e-8744-4637-8ca2-a3e9032e9cec","ios":"levelo://app?vid=be4b293e-8744-4637-8ca2-a3e9032e9cec"},"vehicle_type_id":"4","last_reported":1748492162,"current_range_meters":8000,"station_id":"cpo3532slgdg3j2ikp40","pricing_plan_id":"cebpf4jnsgd1na2vs0mg"},{"bike_id":"3c68f385-ffba-4d15-b971-4641effeeac9","system_id":"levelo_inurba_marseille","lat":43.281995,"lon":5.390598,"is_reserved":false,"is_disabled":false,"rental_uris":{"android":"levelo://app?vid=3c68f385-ffba-4d15-b971-4641effeeac9","ios":"levelo://app?vid=3c68f385-ffba-4d15-b971-4641effeeac9"},"vehicle_type_id":"4","last_reported":1748492162,"current_range_meters":8400,"station_id":"","pricing_plan_id":"cebpf4jnsgd1na2vs0mg"},{"bike_id":"39237a4d-1869-4c40-896a-ab5c39731355","system_id":"levelo_inurba_marseille","lat":43.280826,"lon":5.396595,"is_reserved":false,"is_disabled":false,"rental_uris":{"android":"levelo://app?vid=39237a4d-1869-4c40-896a-ab5c39731355","ios":"levelo://app?vid=39237a4d-1869-4c40-896a-ab5c39731355"},"vehicle_type_id":"4","last_reported":1748492162,"current_range_meters":8400,"station_id":"ce4bho12rcd13ifvqh2g","pricing_plan_id":"cebpf4jnsgd1na2vs0mg"},{"bike_id":"1eed49fb-ce64-4ebd-9903-7d87835a2ccf","system_id":"levelo_inurba_marseille","lat":43.29741,"lon":5.46038,"is_reserved":false,"is_disabled":false,"rental_uris":{"android":"levelo://app?vid=1eed49fb-ce64-4ebd-9903-7d87835a2ccf","ios":"levelo://app?vid=1eed49fb-ce64-4ebd-9903-7d87835a2ccf"},"vehicle_type_id":"4","last_reported":1748492162,"current_range_meters":8800,"station_id":"","pricing_plan_id":"cebpf4jnsgd1na2vs0mg"},{"bike_id":"ea1281e7-dfe3-4633-90b5-7161399423fb","system_id":"levelo_inurba_marseille","lat":43.31161,"lon":5.36812,"is_reserved":false,"is_disabled":false,"rental_uris":{"android":"levelo://app?vid=ea1281e7-dfe3-4633-90b5-7161399423fb","ios":"levelo://app?vid=ea1281e7-dfe3-4633-90b5-7161399423fb"},"vehicle_type_id":"4","last_reported":1748492162,"current_range_meters":8800,"station_id":"","pricing_plan_id":"cebpf4jnsgd1na2vs0mg"},{"bike_id":"4e9c0d33-96b9-4025-b4e5-c57900c7a815","system_id":"levelo_inurba_marseille","lat":43.28213,"lon":5.39049,"is_reserved":false,"is_disabled":false,"rental_uris":{"android":"levelo://app?vid=4e9c0d33-96b9-4025-b4e5-c57900c7a815","ios":"levelo://app?vid=4e9c0d33-96b9-4025-b4e5-c57900c7a815"},"vehicle_type_id":"4","last_reported":1748492162,"current_range_meters":8800,"station_id":"","pricing_plan_id":"cebpf4jnsgd1na2vs0mg"},{"bike_id":"9d8a073e-f5f9-4c10-b98c-72efc4846a30","system_id":"levelo_inurba_marseille","lat":43.302899,"lon":5.44706,"is_reserved":false,"is_disabled":false,"rental_uris":{"android":"levelo://app?vid=9d8a073e-f5f9-4c10-b98c-72efc4846a30","ios":"levelo://app?vid=9d8a073e-f5f9-4c10-b98c-72efc4846a30"},"vehicle_type_id":"4","last_reported":1748492162,"current_range_meters":8800,"station_id":"","pricing_plan_id":"cebpf4jnsgd1na2vs0mg"},{"bike_id":"5cc874f1-fcba-418a-95cb-eb3493ff9f0b","system_id":"levelo_inurba_marseille","lat":43.317206,"lon":5.405234,"is_reserved":false,"is_disabled":false,"rental_uris":{"android":"levelo://app?vid=5cc874f1-fcba-418a-95cb-eb3493ff9f0b","ios":"levelo://app?vid=5cc874f1-fcba-418a-95cb-eb3493ff9f0b"},"vehicle_type_id":"4","last_reported":1748492162,"current_range_meters":8800,"station_id":"","pricing_plan_id":"cebpf4jnsgd1na2vs0mg"},{"bike_id":"346b4841-9c0b-4ec9-8c69-927873e37bb5","system_id":"levelo_inurba_marseille","lat":43.298715,"lon":5.363207,"is_reserved":false,"is_disabled":false,"rental_uris":{"android":"levelo://app?vid=346b4841-9c0b-4ec9-8c69-927873e37bb5","ios":"levelo://app?vid=346b4841-9c0b-4ec9-8c69-927873e37bb5"},"vehicle_type_id":"4","last_reported":1748492162,"current_range_meters":8800,"station_id":"ce4bgpp2rcd13ifvqc3g","pricing_plan_id":"cebpf4jnsgd1na2vs0mg"},{"bike_id":"76fccffc-bf63-4cb4-9336-e6a4c90368fd","system_id":"levelo_inurba_marseille","lat":43.317126,"lon":5.377392,"is_reserved":false,"is_disabled":false,"rental_uris":{"android":"levelo://app?vid=76fccffc-bf63-4cb4-9336-e6a4c90368fd","ios":"levelo://app?vid=76fccffc-bf63-4cb4-9336-e6a4c90368fd"},"vehicle_type_id":"4","last_reported":1748492162,"current_range_meters":8800,"station_id":"ce4bgth2rcd13ifvqch0","pricing_plan_id":"cebpf4jnsgd1na2vs0mg"},{"bike_id":"0c2931e3-efa6-4677-8fe3-5845950a3358","system_id":"levelo_inurba_marseille","lat":43.30934,"lon":5.40146,"is_reserved":false,"is_disabled":false,"rental_uris":{"android":"levelo://app?vid=0c2931e3-efa6-4677-8fe3-5845950a3358","ios":"levelo://app?vid=0c2931e3-efa6-4677-8fe3-5845950a3358"},"vehicle_type_id":"4","last_reported":1748492162,"current_range_meters":8800,"station_id":"ce4bgvp2rcd13ifvqct0","pricing_plan_id":"cebpf4jnsgd1na2vs0mg"},{"bike_id":"5050b52e-8ad3-400c-9ba1-7c7971cc22da","system_id":"levelo_inurba_marseille","lat":43.29854,"lon":5.39735,"is_reserved":false,"is_disabled":false,"rental_uris":{"android":"levelo://app?vid=5050b52e-8ad3-400c-9ba1-7c7971cc22da","ios":"levelo://app?vid=5050b52e-8ad3-400c-9ba1-7c7971cc22da"},"vehicle_type_id":"4","last_reported":1748492162,"current_range_meters":8800,"station_id":"ce4bh0h2rcd13ifvqd50","pricing_plan_id":"cebpf4jnsgd1na2vs0mg"},{"bike_id":"abc52584-52a9-4216-b4b9-ecbc8e101ebb","system_id":"levelo_inurba_marseille","lat":43.30639,"lon":5.40065,"is_reserved":false,"is_disabled":false,"rental_uris":{"android":"levelo://app?vid=abc52584-52a9-4216-b4b9-ecbc8e101ebb","ios":"levelo://app?vid=abc52584-52a9-4216-b4b9-ecbc8e101ebb"},"vehicle_type_id":"4","last_reported":1748492162,"current_range_meters":8800,"station_id":"ce4bh112rcd13ifvqda0","pricing_plan_id":"cebpf4jnsgd1na2vs0mg"},{"bike_id":"67f50ba8-a46d-49e5-8f4f-3db792e5b15a","system_id":"levelo_inurba_marseille","lat":43.284799,"lon":5.384366,"is_reserved":false,"is_disabled":false,"rental_uris":{"android":"levelo://app?vid=67f50ba8-a46d-49e5-8f4f-3db792e5b15a","ios":"levelo://app?vid=67f50ba8-a46d-49e5-8f4f-3db792e5b15a"},"vehicle_type_id":"4","last_reported":1748492162,"current_range_meters":8800,"station_id":"ce4bh512rcd13ifvqe3g","pricing_plan_id":"cebpf4jnsgd1na2vs0mg"},{"bike_id":"e2695898-3d8e-445c-b107-83d988a84c50","system_id":"levelo_inurba_marseille","lat":43.280306,"lon":5.369542,"is_reserved":false,"is_disabled":false,"rental_uris":{"android":"levelo://app?vid=e2695898-3d8e-445c-b107-83d988a84c50","ios":"levelo://app?vid=e2695898-3d8e-445c-b107-83d988a84c50"},"vehicle_type_id":"4","last_reported":1748492162,"current_range_meters":8800,"station_id":"ce4bha12rcd13ifvqef0","pricing_plan_id":"cebpf4jnsgd1na2vs0mg"},{"bike_id":"2fac5d15-c5a1-4d94-a91a-2de306a0346b","system_id":"levelo_inurba_marseille","lat":43.239607,"lon":5.36633,"is_reserved":false,"is_disabled":false,"rental_uris":{"android":"levelo://app?vid=2fac5d15-c5a1-4d94-a91a-2de306a0346b","ios":"levelo://app?vid=2fac5d15-c5a1-4d94-a91a-2de306a0346b"},"vehicle_type_id":"4","last_reported":1748492162,"current_range_meters":8800,"station_id":"ce4bhi12rcd13ifvqfp0","pricing_plan_id":"cebpf4jnsgd1na2vs0mg"},{"bike_id":"73cac34e-d062-41e0-b470-256fba4a42bc","system_id":"levelo_inurba_marseille","lat":43.2782,"lon":5.39212,"is_reserved":false,"is_disabled":false,"rental_uris":{"android":"levelo://app?vid=73cac34e-d062-41e0-b470-256fba4a42bc","ios":"levelo://app?vid=73cac34e-d062-41e0-b470-256fba4a42bc"},"vehicle_type_id":"4","last_reported":1748492162,"current_range_meters":8800,"station_id":"ce4bhjp2rcd13ifvqga0","pricing_plan_id":"cebpf4jnsgd1na2vs0mg"},{"bike_id":"0dde7803-e4b4-44c8-98fe-68ad6fa3cde1","system_id":"levelo_inurba_marseille","lat":43.31717,"lon":5.3887,"is_reserved":false,"is_disabled":false,"rental_uris":{"android":"levelo://app?vid=0dde7803-e4b4-44c8-98fe-68ad6fa3cde1","ios":"levelo://app?vid=0dde7803-e4b4-44c8-98fe-68ad6fa3cde1"},"vehicle_type_id":"4","last_reported":1748492162,"current_range_meters":9200,"station_id":"","pricing_plan_id":"cebpf4jnsgd1na2vs0mg"},{"bike_id":"16578a9c-c460-4d38-be25-a20250881a73","system_id":"levelo_inurba_marseille","lat":43.32217,"lon":5.38425,"is_reserved":false,"is_disabled":false,"rental_uris":{"android":"levelo://app?vid=16578a9c-c460-4d38-be25-a20250881a73","ios":"levelo://app?vid=16578a9c-c460-4d38-be25-a20250881a73"},"vehicle_type_id":"4","last_reported":1748492162,"current_range_meters":9200,"station_id":"","pricing_plan_id":"cebpf4jnsgd1na2vs0mg"},{"bike_id":"2f650bb1-6027-4191-83d2-16315820a0a7","system_id":"levelo_inurba_marseille","lat":43.30005,"lon":5.37357,"is_reserved":false,"is_disabled":false,"rental_uris":{"android":"levelo://app?vid=2f650bb1-6027-4191-83d2-16315820a0a7","ios":"levelo://app?vid=2f650bb1-6027-4191-83d2-16315820a0a7"},"vehicle_type_id":"4","last_reported":1748492162,"current_range_meters":9200,"station_id":"","pricing_plan_id":"cebpf4jnsgd1na2vs0mg"},{"bike_id":"bb56860a-7122-4a88-9171-ed630c433268","system_id":"levelo_inurba_marseille","lat":43.295066,"lon":5.374448,"is_reserved":false,"is_disabled":false,"rental_uris":{"android":"levelo://app?vid=bb56860a-7122-4a88-9171-ed630c433268","ios":"levelo://app?vid=bb56860a-7122-4a88-9171-ed630c433268"},"vehicle_type_id":"4","last_reported":1748492162,"current_range_meters":9200,"station_id":"ce4bgh92rcd13ifvqb50","pricing_plan_id":"cebpf4jnsgd1na2vs0mg"},{"bike_id":"e0800363-90d1-425c-be97-5251f4e6b38b","system_id":"levelo_inurba_marseille","lat":43.280003,"lon":5.416644,"is_reserved":false,"is_disabled":false,"rental_uris":{"android":"levelo://app?vid=e0800363-90d1-425c-be97-5251f4e6b38b","ios":"levelo://app?vid=e0800363-90d1-425c-be97-5251f4e6b38b"},"vehicle_type_id":"4","last_reported":1748492162,"current_range_meters":9200,"station_id":"ce4bho12rcd13ifvqh1g","pricing_plan_id":"cebpf4jnsgd1na2vs0mg"},{"bike_id":"16f8c46e-dbc6-4ab1-941f-3d93ad546819","system_id":"levelo_inurba_marseille","lat":43.322858,"lon":5.382713,"is_reserved":false,"is_disabled":false,"rental_uris":{"android":"levelo://app?vid=16f8c46e-dbc6-4ab1-941f-3d93ad546819","ios":"levelo://app?vid=16f8c46e-dbc6-4ab1-941f-3d93ad546819"},"vehicle_type_id":"4","last_reported":1748492162,"current_range_meters":9200,"station_id":"ce4bhr12rcd13ifvqhqg","pricing_plan_id":"cebpf4jnsgd1na2vs0mg"},{"bike_id":"e96e6ad8-66a5-4a74-9b8a-04311f0e6684","system_id":"levelo_inurba_marseille","lat":43.330913,"lon":5.3894,"is_reserved":false,"is_disabled":false,"rental_uris":{"android":"levelo://app?vid=e96e6ad8-66a5-4a74-9b8a-04311f0e6684","ios":"levelo://app?vid=e96e6ad8-66a5-4a74-9b8a-04311f0e6684"},"vehicle_type_id":"4","last_reported":1748492162,"current_range_meters":9600,"station_id":"","pricing_plan_id":"cebpf4jnsgd1na2vs0mg"},{"bike_id":"c22cdf83-4ac4-4dd2-a8a6-a92942b02299","system_id":"levelo_inurba_marseille","lat":43.29902,"lon":5.38138,"is_reserved":false,"is_disabled":false,"rental_uris":{"android":"levelo://app?vid=c22cdf83-4ac4-4dd2-a8a6-a92942b02299","ios":"levelo://app?vid=c22cdf83-4ac4-4dd2-a8a6-a92942b02299"},"vehicle_type_id":"4","last_reported":1748492162,"current_range_meters":9600,"station_id":"ce4bgj12rcd13ifvqbc0","pricing_plan_id":"cebpf4jnsgd1na2vs0mg"},{"bike_id":"6020956d-907b-4d6d-a09e-7e7340ad3d59","system_id":"levelo_inurba_marseille","lat":43.29268,"lon":5.40127,"is_reserved":false,"is_disabled":false,"rental_uris":{"android":"levelo://app?vid=6020956d-907b-4d6d-a09e-7e7340ad3d59","ios":"levelo://app?vid=6020956d-907b-4d6d-a09e-7e7340ad3d59"},"vehicle_type_id":"4","last_reported":1748492162,"current_range_meters":9600,"station_id":"ce4bh312rcd13ifvqdk0","pricing_plan_id":"cebpf4jnsgd1na2vs0mg"},{"bike_id":"31c3b208-56cd-46d6-99c4-93414088c6fa","system_id":"levelo_inurba_marseille","lat":43.281389,"lon":5.426765,"is_reserved":false,"is_disabled":false,"rental_uris":{"android":"levelo://app?vid=31c3b208-56cd-46d6-99c4-93414088c6fa","ios":"levelo://app?vid=31c3b208-56cd-46d6-99c4-93414088c6fa"},"vehicle_type_id":"4","last_reported":1748492162,"current_range_meters":9600,"station_id":"ce4bhnh2rcd13ifvqgug","pricing_plan_id":"cebpf4jnsgd1na2vs0mg"},{"bike_id":"dabe1f74-e9a6-4ba9-86df-0aab5d6a979d","system_id":"levelo_inurba_marseille","lat":43.317069,"lon":5.437101,"is_reserved":false,"is_disabled":false,"rental_uris":{"android":"levelo://app?vid=dabe1f74-e9a6-4ba9-86df-0aab5d6a979d","ios":"levelo://app?vid=dabe1f74-e9a6-4ba9-86df-0aab5d6a979d"},"vehicle_type_id":"4","last_reported":1748492162,"current_range_meters":9600,"station_id":"ce4bhp92rcd13ifvqhcg","pricing_plan_id":"cebpf4jnsgd1na2vs0mg"},{"bike_id":"1839a72b-1f19-439f-ba17-e7974ed596b4","system_id":"levelo_inurba_marseille","lat":43.32097,"lon":5.3747,"is_reserved":false,"is_disabled":false,"rental_uris":{"android":"levelo://app?vid=1839a72b-1f19-439f-ba17-e7974ed596b4","ios":"levelo://app?vid=1839a72b-1f19-439f-ba17-e7974ed596b4"},"vehicle_type_id":"4","last_reported":1748492162,"current_range_meters":10000,"station_id":"","pricing_plan_id":"cebpf4jnsgd1na2vs0mg"},{"bike_id":"311c0577-bc31-40ec-8254-c6c9677162f1","system_id":"levelo_inurba_marseille","lat":43.28419,"lon":5.37526,"is_reserved":false,"is_disabled":false,"rental_uris":{"android":"levelo://app?vid=311c0577-bc31-40ec-8254-c6c9677162f1","ios":"levelo://app?vid=311c0577-bc31-40ec-8254-c6c9677162f1"},"vehicle_type_id":"4","last_reported":1748492162,"current_range_meters":10000,"station_id":"ce4bh412rcd13ifvqds0","pricing_plan_id":"cebpf4jnsgd1na2vs0mg"},{"bike_id":"87bbad0c-8c28-481d-9de5-144650e2492b","system_id":"levelo_inurba_marseille","lat":43.248126,"lon":5.374641,"is_reserved":false,"is_disabled":false,"rental_uris":{"android":"levelo://app?vid=87bbad0c-8c28-481d-9de5-144650e2492b","ios":"levelo://app?vid=87bbad0c-8c28-481d-9de5-144650e2492b"},"vehicle_type_id":"4","last_reported":1748492162,"current_range_meters":10000,"station_id":"ce4bhgh2rcd13ifvqfb0","pricing_plan_id":"cebpf4jnsgd1na2vs0mg"},{"bike_id":"181d697e-b7c9-4331-b0b7-e9989b13a5fa","system_id":"levelo_inurba_marseille","lat":43.26219,"lon":5.40475,"is_reserved":false,"is_disabled":false,"rental_uris":{"android":"levelo://app?vid=181d697e-b7c9-4331-b0b7-e9989b13a5fa","ios":"levelo://app?vid=181d697e-b7c9-4331-b0b7-e9989b13a5fa"},"vehicle_type_id":"4","last_reported":1748492162,"current_range_meters":10000,"station_id":"ce4bhmh2rcd13ifvqgmg","pricing_plan_id":"cebpf4jnsgd1na2vs0mg"},{"bike_id":"60af92f5-378b-4ca7-965f-8544c59fbbda","system_id":"levelo_inurba_marseille","lat":43.282204,"lon":5.390713,"is_reserved":false,"is_disabled":false,"rental_uris":{"android":"levelo://app?vid=60af92f5-378b-4ca7-965f-8544c59fbbda","ios":"levelo://app?vid=60af92f5-378b-4ca7-965f-8544c59fbbda"},"vehicle_type_id":"4","last_reported":1748492162,"current_range_meters":10800,"station_id":"","pricing_plan_id":"cebpf4jnsgd1na2vs0mg"},{"bike_id":"22771043-09b1-43eb-91e0-5c845144e1e3","system_id":"levelo_inurba_marseille","lat":43.277105,"lon":5.408828,"is_reserved":false,"is_disabled":false,"rental_uris":{"android":"levelo://app?vid=22771043-09b1-43eb-91e0-5c845144e1e3","ios":"levelo://app?vid=22771043-09b1-43eb-91e0-5c845144e1e3"},"vehicle_type_id":"4","last_reported":1748492162,"current_range_meters":10800,"station_id":"","pricing_plan_id":"cebpf4jnsgd1na2vs0mg"},{"bike_id":"3013266d-03ec-4779-8d20-2e5da0a480f7","system_id":"levelo_inurba_marseille","lat":43.31637,"lon":5.38822,"is_reserved":false,"is_disabled":false,"rental_uris":{"android":"levelo://app?vid=3013266d-03ec-4779-8d20-2e5da0a480f7","ios":"levelo://app?vid=3013266d-03ec-4779-8d20-2e5da0a480f7"},"vehicle_type_id":"4","last_reported":1748492162,"current_range_meters":10800,"station_id":"","pricing_plan_id":"cebpf4jnsgd1na2vs0mg"},{"bike_id":"0c86123a-f449-45da-b9f5-701d3abcb46e","system_id":"levelo_inurba_marseille","lat":43.30879,"lon":5.39642,"is_reserved":false,"is_disabled":false,"rental_uris":{"android":"levelo://app?vid=0c86123a-f449-45da-b9f5-701d3abcb46e","ios":"levelo://app?vid=0c86123a-f449-45da-b9f5-701d3abcb46e"},"vehicle_type_id":"4","last_reported":1748492162,"current_range_meters":10800,"station_id":"ce4bh012rcd13ifvqcv0","pricing_plan_id":"cebpf4jnsgd1na2vs0mg"},{"bike_id":"7270ff1a-574f-4ae9-8b4f-de038997e410","system_id":"levelo_inurba_marseille","lat":43.30873,"lon":5.3965,"is_reserved":false,"is_disabled":false,"rental_uris":{"android":"levelo://app?vid=7270ff1a-574f-4ae9-8b4f-de038997e410","ios":"levelo://app?vid=7270ff1a-574f-4ae9-8b4f-de038997e410"},"vehicle_type_id":"4","last_reported":1748492162,"current_range_meters":10800,"station_id":"ce4bh012rcd13ifvqcv0","pricing_plan_id":"cebpf4jnsgd1na2vs0mg"},{"bike_id":"a09d9f3d-435b-42a4-b533-6b0196c08dd6","system_id":"levelo_inurba_marseille","lat":43.308851,"lon":5.396453,"is_reserved":false,"is_disabled":false,"rental_uris":{"android":"levelo://app?vid=a09d9f3d-435b-42a4-b533-6b0196c08dd6","ios":"levelo://app?vid=a09d9f3d-435b-42a4-b533-6b0196c08dd6"},"vehicle_type_id":"4","last_reported":1748492162,"current_range_meters":10800,"station_id":"ce4bh012rcd13ifvqcv0","pricing_plan_id":"cebpf4jnsgd1na2vs0mg"},{"bike_id":"4c5086a1-75d0-4d75-b775-7ecc5efd28d9","system_id":"levelo_inurba_marseille","lat":43.28665,"lon":5.36354,"is_reserved":false,"is_disabled":false,"rental_uris":{"android":"levelo://app?vid=4c5086a1-75d0-4d75-b775-7ecc5efd28d9","ios":"levelo://app?vid=4c5086a1-75d0-4d75-b775-7ecc5efd28d9"},"vehicle_type_id":"4","last_reported":1748492162,"current_range_meters":10800,"station_id":"ce4bhah2rcd13ifvqej0","pricing_plan_id":"cebpf4jnsgd1na2vs0mg"},{"bike_id":"847031ec-c235-4f90-8158-8e4eae043a67","system_id":"levelo_inurba_marseille","lat":43.289331,"lon":5.366471,"is_reserved":false,"is_disabled":false,"rental_uris":{"android":"levelo://app?vid=847031ec-c235-4f90-8158-8e4eae043a67","ios":"levelo://app?vid=847031ec-c235-4f90-8158-8e4eae043a67"},"vehicle_type_id":"4","last_reported":1748492162,"current_range_meters":10800,"station_id":"ce4bhap2rcd13ifvqek0","pricing_plan_id":"cebpf4jnsgd1na2vs0mg"},{"bike_id":"61ff3d2c-9950-405e-8098-6ab5d21669e7","system_id":"levelo_inurba_marseille","lat":43.267768,"lon":5.394343,"is_reserved":false,"is_disabled":false,"rental_uris":{"android":"levelo://app?vid=61ff3d2c-9950-405e-8098-6ab5d21669e7","ios":"levelo://app?vid=61ff3d2c-9950-405e-8098-6ab5d21669e7"},"vehicle_type_id":"4","last_reported":1748492162,"current_range_meters":10800,"station_id":"ce4bhh12rcd13ifvqfg0","pricing_plan_id":"cebpf4jnsgd1na2vs0mg"},{"bike_id":"1f05a494-96b9-47a4-8160-db2c6c734351","system_id":"levelo_inurba_marseille","lat":43.25118,"lon":5.40368,"is_reserved":false,"is_disabled":false,"rental_uris":{"android":"levelo://app?vid=1f05a494-96b9-47a4-8160-db2c6c734351","ios":"levelo://app?vid=1f05a494-96b9-47a4-8160-db2c6c734351"},"vehicle_type_id":"4","last_reported":1748492162,"current_range_meters":10800,"station_id":"ce4bhlh2rcd13ifvqgig","pricing_plan_id":"cebpf4jnsgd1na2vs0mg"},{"bike_id":"2864c75b-5c31-4f51-804b-e90944a6d524","system_id":"levelo_inurba_marseille","lat":43.25103,"lon":5.403233,"is_reserved":false,"is_disabled":false,"rental_uris":{"android":"levelo://app?vid=2864c75b-5c31-4f51-804b-e90944a6d524","ios":"levelo://app?vid=2864c75b-5c31-4f51-804b-e90944a6d524"},"vehicle_type_id":"4","last_reported":1748492162,"current_range_meters":10800,"station_id":"ce4bhlh2rcd13ifvqgig","pricing_plan_id":"cebpf4jnsgd1na2vs0mg"},{"bike_id":"0990e66f-4268-44ed-ad10-a689d087c0ad","system_id":"levelo_inurba_marseille","lat":43.26228,"lon":5.40461,"is_reserved":false,"is_disabled":false,"rental_uris":{"android":"levelo://app?vid=0990e66f-4268-44ed-ad10-a689d087c0ad","ios":"levelo://app?vid=0990e66f-4268-44ed-ad10-a689d087c0ad"},"vehicle_type_id":"4","last_reported":1748492162,"current_range_meters":10800,"station_id":"ce4bhmh2rcd13ifvqgmg","pricing_plan_id":"cebpf4jnsgd1na2vs0mg"},{"bike_id":"47f55a1f-8588-4781-bc30-f75474d90e6f","system_id":"levelo_inurba_marseille","lat":43.241731,"lon":5.397369,"is_reserved":false,"is_disabled":false,"rental_uris":{"android":"levelo://app?vid=47f55a1f-8588-4781-bc30-f75474d90e6f","ios":"levelo://app?vid=47f55a1f-8588-4781-bc30-f75474d90e6f"},"vehicle_type_id":"4","last_reported":1748492162,"current_range_meters":10800,"station_id":"ce4bhn12rcd13ifvqgpg","pricing_plan_id":"cebpf4jnsgd1na2vs0mg"},{"bike_id":"91355bf8-577c-482b-b451-9461084a40c7","system_id":"levelo_inurba_marseille","lat":43.28701,"lon":5.399804,"is_reserved":false,"is_disabled":false,"rental_uris":{"android":"levelo://app?vid=91355bf8-577c-482b-b451-9461084a40c7","ios":"levelo://app?vid=91355bf8-577c-482b-b451-9461084a40c7"},"vehicle_type_id":"4","last_reported":1748492162,"current_range_meters":10800,"station_id":"ce4bho92rcd13ifvqh3g","pricing_plan_id":"cebpf4jnsgd1na2vs0mg"},{"bike_id":"6de0c367-16d8-40fd-95d0-4105c0b2586d","system_id":"levelo_inurba_marseille","lat":43.326548,"lon":5.409829,"is_reserved":false,"is_disabled":false,"rental_uris":{"android":"levelo://app?vid=6de0c367-16d8-40fd-95d0-4105c0b2586d","ios":"levelo://app?vid=6de0c367-16d8-40fd-95d0-4105c0b2586d"},"vehicle_type_id":"4","last_reported":1748492162,"current_range_meters":10800,"station_id":"ce4bhpp2rcd13ifvqhgg","pricing_plan_id":"cebpf4jnsgd1na2vs0mg"},{"bike_id":"aadac860-d43c-4062-897b-20d300d16764","system_id":"levelo_inurba_marseille","lat":43.268046,"lon":5.402613,"is_reserved":false,"is_disabled":false,"rental_uris":{"android":"levelo://app?vid=aadac860-d43c-4062-897b-20d300d16764","ios":"levelo://app?vid=aadac860-d43c-4062-897b-20d300d16764"},"vehicle_type_id":"4","last_reported":1748492162,"current_range_meters":10800,"station_id":"ce501612rcd8frsf0b60","pricing_plan_id":"cebpf4jnsgd1na2vs0mg"},{"bike_id":"c7b8b51e-c853-4352-9193-32615af234ef","system_id":"levelo_inurba_marseille","lat":43.261897,"lon":5.420703,"is_reserved":false,"is_disabled":false,"rental_uris":{"android":"levelo://app?vid=c7b8b51e-c853-4352-9193-32615af234ef","ios":"levelo://app?vid=c7b8b51e-c853-4352-9193-32615af234ef"},"vehicle_type_id":"4","last_reported":1748492162,"current_range_meters":11200,"station_id":"","pricing_plan_id":"cebpf4jnsgd1na2vs0mg"},{"bike_id":"242d6f50-6baa-4482-ac10-969dbe706946","system_id":"levelo_inurba_marseille","lat":43.292554,"lon":5.40913,"is_reserved":false,"is_disabled":false,"rental_uris":{"android":"levelo://app?vid=242d6f50-6baa-4482-ac10-969dbe706946","ios":"levelo://app?vid=242d6f50-6baa-4482-ac10-969dbe706946"},"vehicle_type_id":"4","last_reported":1748492162,"current_range_meters":11200,"station_id":"ce4bh192rcd13ifvqdc0","pricing_plan_id":"cebpf4jnsgd1na2vs0mg"},{"bike_id":"9a7ce25c-cbcf-4aac-acf7-3d032c62f0d0","system_id":"levelo_inurba_marseille","lat":43.285696,"lon":5.394937,"is_reserved":false,"is_disabled":false,"rental_uris":{"android":"levelo://app?vid=9a7ce25c-cbcf-4aac-acf7-3d032c62f0d0","ios":"levelo://app?vid=9a7ce25c-cbcf-4aac-acf7-3d032c62f0d0"},"vehicle_type_id":"4","last_reported":1748492162,"current_range_meters":11200,"station_id":"ce4bh292rcd13ifvqdg0","pricing_plan_id":"cebpf4jnsgd1na2vs0mg"},{"bike_id":"685b3984-6ff2-4846-a44b-da0bc9a61c62","system_id":"levelo_inurba_marseille","lat":43.239642,"lon":5.366415,"is_reserved":false,"is_disabled":false,"rental_uris":{"android":"levelo://app?vid=685b3984-6ff2-4846-a44b-da0bc9a61c62","ios":"levelo://app?vid=685b3984-6ff2-4846-a44b-da0bc9a61c62"},"vehicle_type_id":"4","last_reported":1748492162,"current_range_meters":11200,"station_id":"ce4bhi12rcd13ifvqfp0","pricing_plan_id":"cebpf4jnsgd1na2vs0mg"},{"bike_id":"dfd8a92a-8547-40b8-9f1a-8cf8dc5a7a8c","system_id":"levelo_inurba_marseille","lat":43.317051,"lon":5.437094,"is_reserved":false,"is_disabled":false,"rental_uris":{"android":"levelo://app?vid=dfd8a92a-8547-40b8-9f1a-8cf8dc5a7a8c","ios":"levelo://app?vid=dfd8a92a-8547-40b8-9f1a-8cf8dc5a7a8c"},"vehicle_type_id":"4","last_reported":1748492162,"current_range_meters":11200,"station_id":"ce4bhp92rcd13ifvqhcg","pricing_plan_id":"cebpf4jnsgd1na2vs0mg"},{"bike_id":"56d0e0d8-02f5-4a8e-9a95-bff49210aa01","system_id":"levelo_inurba_marseille","lat":43.28729,"lon":5.36088,"is_reserved":false,"is_disabled":false,"rental_uris":{"android":"levelo://app?vid=56d0e0d8-02f5-4a8e-9a95-bff49210aa01","ios":"levelo://app?vid=56d0e0d8-02f5-4a8e-9a95-bff49210aa01"},"vehicle_type_id":"4","last_reported":1748492162,"current_range_meters":11200,"station_id":"cki0cbj6b192h4jlfktg","pricing_plan_id":"cebpf4jnsgd1na2vs0mg"},{"bike_id":"ab18719d-c5e7-4613-9c7e-1fe47406cb4b","system_id":"levelo_inurba_marseille","lat":43.30924,"lon":5.40157,"is_reserved":false,"is_disabled":false,"rental_uris":{"android":"levelo://app?vid=ab18719d-c5e7-4613-9c7e-1fe47406cb4b","ios":"levelo://app?vid=ab18719d-c5e7-4613-9c7e-1fe47406cb4b"},"vehicle_type_id":"4","last_reported":1748492162,"current_range_meters":11600,"station_id":"ce4bgvp2rcd13ifvqct0","pricing_plan_id":"cebpf4jnsgd1na2vs0mg"},{"bike_id":"eb44d6c0-1424-44dc-849f-1bc6e19b8694","system_id":"levelo_inurba_marseille","lat":43.23205,"lon":5.39983,"is_reserved":false,"is_disabled":false,"rental_uris":{"android":"levelo://app?vid=eb44d6c0-1424-44dc-849f-1bc6e19b8694","ios":"levelo://app?vid=eb44d6c0-1424-44dc-849f-1bc6e19b8694"},"vehicle_type_id":"4","last_reported":1748492162,"current_range_meters":11600,"station_id":"ce4bhn12rcd13ifvqgqg","pricing_plan_id":"cebpf4jnsgd1na2vs0mg"},{"bike_id":"32ce1fee-e11e-4b6b-91ef-373111975b5a","system_id":"levelo_inurba_marseille","lat":43.280752,"lon":5.396488,"is_reserved":false,"is_disabled":false,"rental_uris":{"android":"levelo://app?vid=32ce1fee-e11e-4b6b-91ef-373111975b5a","ios":"levelo://app?vid=32ce1fee-e11e-4b6b-91ef-373111975b5a"},"vehicle_type_id":"4","last_reported":1748492162,"current_range_meters":11600,"station_id":"ce4bho12rcd13ifvqh2g","pricing_plan_id":"cebpf4jnsgd1na2vs0mg"},{"bike_id":"8cae9003-b8a4-48e5-a072-65bbb7096fc6","system_id":"levelo_inurba_marseille","lat":43.307834,"lon":5.376549,"is_reserved":false,"is_disabled":false,"rental_uris":{"android":"levelo://app?vid=8cae9003-b8a4-48e5-a072-65bbb7096fc6","ios":"levelo://app?vid=8cae9003-b8a4-48e5-a072-65bbb7096fc6"},"vehicle_type_id":"4","last_reported":1748492162,"current_range_meters":12000,"station_id":"ce4bgv92rcd13ifvqcq0","pricing_plan_id":"cebpf4jnsgd1na2vs0mg"},{"bike_id":"ba0c24f2-b0ca-494a-9857-649f84664514","system_id":"levelo_inurba_marseille","lat":43.309251,"lon":5.401421,"is_reserved":false,"is_disabled":false,"rental_uris":{"android":"levelo://app?vid=ba0c24f2-b0ca-494a-9857-649f84664514","ios":"levelo://app?vid=ba0c24f2-b0ca-494a-9857-649f84664514"},"vehicle_type_id":"4","last_reported":1748492162,"current_range_meters":12000,"station_id":"ce4bgvp2rcd13ifvqct0","pricing_plan_id":"cebpf4jnsgd1na2vs0mg"},{"bike_id":"f090e212-d3c8-4736-afad-80cfe2b8e432","system_id":"levelo_inurba_marseille","lat":43.30782,"lon":5.43518,"is_reserved":false,"is_disabled":false,"rental_uris":{"android":"levelo://app?vid=f090e212-d3c8-4736-afad-80cfe2b8e432","ios":"levelo://app?vid=f090e212-d3c8-4736-afad-80cfe2b8e432"},"vehicle_type_id":"4","last_reported":1748492162,"current_range_meters":12000,"station_id":"ce4bhph2rcd13ifvqheg","pricing_plan_id":"cebpf4jnsgd1na2vs0mg"},{"bike_id":"5425969b-1595-4148-b19f-88f5aacdc526","system_id":"levelo_inurba_marseille","lat":43.306542,"lon":5.400882,"is_reserved":false,"is_disabled":false,"rental_uris":{"android":"levelo://app?vid=5425969b-1595-4148-b19f-88f5aacdc526","ios":"levelo://app?vid=5425969b-1595-4148-b19f-88f5aacdc526"},"vehicle_type_id":"4","last_reported":1748492162,"current_range_meters":12400,"station_id":"ce4bh112rcd13ifvqda0","pricing_plan_id":"cebpf4jnsgd1na2vs0mg"},{"bike_id":"ae9abbf2-b91a-46d7-b826-ff2bfe50810f","system_id":"levelo_inurba_marseille","lat":43.284786,"lon":5.385568,"is_reserved":false,"is_disabled":false,"rental_uris":{"android":"levelo://app?vid=ae9abbf2-b91a-46d7-b826-ff2bfe50810f","ios":"levelo://app?vid=ae9abbf2-b91a-46d7-b826-ff2bfe50810f"},"vehicle_type_id":"4","last_reported":1748492162,"current_range_meters":12400,"station_id":"ce4bh8p2rcd13ifvqeb0","pricing_plan_id":"cebpf4jnsgd1na2vs0mg"},{"bike_id":"49b79540-0297-4e80-b550-af3946e0ba35","system_id":"levelo_inurba_marseille","lat":43.23181,"lon":5.39992,"is_reserved":false,"is_disabled":false,"rental_uris":{"android":"levelo://app?vid=49b79540-0297-4e80-b550-af3946e0ba35","ios":"levelo://app?vid=49b79540-0297-4e80-b550-af3946e0ba35"},"vehicle_type_id":"4","last_reported":1748492162,"current_range_meters":12400,"station_id":"ce4bhn12rcd13ifvqgqg","pricing_plan_id":"cebpf4jnsgd1na2vs0mg"},{"bike_id":"cc2536f5-d400-4045-ae04-96109c4d0ea4","system_id":"levelo_inurba_marseille","lat":43.30377,"lon":5.4248,"is_reserved":false,"is_disabled":false,"rental_uris":{"android":"levelo://app?vid=cc2536f5-d400-4045-ae04-96109c4d0ea4","ios":"levelo://app?vid=cc2536f5-d400-4045-ae04-96109c4d0ea4"},"vehicle_type_id":"4","last_reported":1748492162,"current_range_meters":12400,"station_id":"ce4bhoh2rcd13ifvqh6g","pricing_plan_id":"cebpf4jnsgd1na2vs0mg"},{"bike_id":"dc87d4f6-c035-423a-b8df-5123de13a0e7","system_id":"levelo_inurba_marseille","lat":43.287174,"lon":5.360759,"is_reserved":false,"is_disabled":false,"rental_uris":{"android":"levelo://app?vid=dc87d4f6-c035-423a-b8df-5123de13a0e7","ios":"levelo://app?vid=dc87d4f6-c035-423a-b8df-5123de13a0e7"},"vehicle_type_id":"4","last_reported":1748492162,"current_range_meters":12400,"station_id":"cki0cbj6b192h4jlfktg","pricing_plan_id":"cebpf4jnsgd1na2vs0mg"},{"bike_id":"42dca157-bdb0-4361-8022-7979135f94aa","system_id":"levelo_inurba_marseille","lat":43.285529,"lon":5.366651,"is_reserved":false,"is_disabled":false,"rental_uris":{"android":"levelo://app?vid=42dca157-bdb0-4361-8022-7979135f94aa","ios":"levelo://app?vid=42dca157-bdb0-4361-8022-7979135f94aa"},"vehicle_type_id":"4","last_reported":1748492162,"current_range_meters":12800,"station_id":"","pricing_plan_id":"cebpf4jnsgd1na2vs0mg"},{"bike_id":"74596cad-01b8-4827-9b35-ca1f4056673c","system_id":"levelo_inurba_marseille","lat":43.32379,"lon":5.38385,"is_reserved":false,"is_disabled":false,"rental_uris":{"android":"levelo://app?vid=74596cad-01b8-4827-9b35-ca1f4056673c","ios":"levelo://app?vid=74596cad-01b8-4827-9b35-ca1f4056673c"},"vehicle_type_id":"4","last_reported":1748492162,"current_range_meters":12800,"station_id":"","pricing_plan_id":"cebpf4jnsgd1na2vs0mg"},{"bike_id":"1c9b4761-e609-4e32-850e-f95c9f07553f","system_id":"levelo_inurba_marseille","lat":43.308795,"lon":5.396448,"is_reserved":false,"is_disabled":false,"rental_uris":{"android":"levelo://app?vid=1c9b4761-e609-4e32-850e-f95c9f07553f","ios":"levelo://app?vid=1c9b4761-e609-4e32-850e-f95c9f07553f"},"vehicle_type_id":"4","last_reported":1748492162,"current_range_meters":12800,"station_id":"ce4bh012rcd13ifvqcv0","pricing_plan_id":"cebpf4jnsgd1na2vs0mg"},{"bike_id":"8ea4d048-223c-4b9f-a79c-b8dc2c65d878","system_id":"levelo_inurba_marseille","lat":43.251115,"lon":5.403388,"is_reserved":false,"is_disabled":false,"rental_uris":{"android":"levelo://app?vid=8ea4d048-223c-4b9f-a79c-b8dc2c65d878","ios":"levelo://app?vid=8ea4d048-223c-4b9f-a79c-b8dc2c65d878"},"vehicle_type_id":"4","last_reported":1748492162,"current_range_meters":12800,"station_id":"ce4bhlh2rcd13ifvqgig","pricing_plan_id":"cebpf4jnsgd1na2vs0mg"},{"bike_id":"19c319b8-cb5c-4a9f-a123-c087da106c08","system_id":"levelo_inurba_marseille","lat":43.25926,"lon":5.40897,"is_reserved":false,"is_disabled":false,"rental_uris":{"android":"levelo://app?vid=19c319b8-cb5c-4a9f-a123-c087da106c08","ios":"levelo://app?vid=19c319b8-cb5c-4a9f-a123-c087da106c08"},"vehicle_type_id":"4","last_reported":1748492162,"current_range_meters":12800,"station_id":"ce4bhm92rcd13ifvqglg","pricing_plan_id":"cebpf4jnsgd1na2vs0mg"},{"bike_id":"d1160911-5dba-4a70-bdeb-2e5a47931200","system_id":"levelo_inurba_marseille","lat":43.27991,"lon":5.41671,"is_reserved":false,"is_disabled":false,"rental_uris":{"android":"levelo://app?vid=d1160911-5dba-4a70-bdeb-2e5a47931200","ios":"levelo://app?vid=d1160911-5dba-4a70-bdeb-2e5a47931200"},"vehicle_type_id":"4","last_reported":1748492162,"current_range_meters":12800,"station_id":"ce4bho12rcd13ifvqh1g","pricing_plan_id":"cebpf4jnsgd1na2vs0mg"},{"bike_id":"20216ba5-61bf-44de-983d-1d2b80d544f3","system_id":"levelo_inurba_marseille","lat":43.217561,"lon":5.34595,"is_reserved":false,"is_disabled":false,"rental_uris":{"android":"levelo://app?vid=20216ba5-61bf-44de-983d-1d2b80d544f3","ios":"levelo://app?vid=20216ba5-61bf-44de-983d-1d2b80d544f3"},"vehicle_type_id":"4","last_reported":1748492162,"current_range_meters":12800,"station_id":"st_cvj6r9ubvosntc0bgbag","pricing_plan_id":"cebpf4jnsgd1na2vs0mg"},{"bike_id":"08d55a27-5d7c-4af1-8d58-be2d7be64ebe","system_id":"levelo_inurba_marseille","lat":43.30935,"lon":5.40143,"is_reserved":false,"is_disabled":false,"rental_uris":{"android":"levelo://app?vid=08d55a27-5d7c-4af1-8d58-be2d7be64ebe","ios":"levelo://app?vid=08d55a27-5d7c-4af1-8d58-be2d7be64ebe"},"vehicle_type_id":"4","last_reported":1748492162,"current_range_meters":13600,"station_id":"ce4bgvp2rcd13ifvqct0","pricing_plan_id":"cebpf4jnsgd1na2vs0mg"},{"bike_id":"36fc1326-d8b9-4280-8634-1f810d31d6e7","system_id":"levelo_inurba_marseille","lat":43.251074,"lon":5.403345,"is_reserved":false,"is_disabled":false,"rental_uris":{"android":"levelo://app?vid=36fc1326-d8b9-4280-8634-1f810d31d6e7","ios":"levelo://app?vid=36fc1326-d8b9-4280-8634-1f810d31d6e7"},"vehicle_type_id":"4","last_reported":1748492162,"current_range_meters":13600,"station_id":"ce4bhlh2rcd13ifvqgig","pricing_plan_id":"cebpf4jnsgd1na2vs0mg"},{"bike_id":"446740e3-6543-4ad8-8d09-08b6a7fbd149","system_id":"levelo_inurba_marseille","lat":43.305924,"lon":5.37457,"is_reserved":false,"is_disabled":false,"rental_uris":{"android":"levelo://app?vid=446740e3-6543-4ad8-8d09-08b6a7fbd149","ios":"levelo://app?vid=446740e3-6543-4ad8-8d09-08b6a7fbd149"},"vehicle_type_id":"4","last_reported":1748492162,"current_range_meters":14000,"station_id":"","pricing_plan_id":"cebpf4jnsgd1na2vs0mg"},{"bike_id":"865dced6-4767-44f8-b4b9-2868a3d6910b","system_id":"levelo_inurba_marseille","lat":43.280309,"lon":5.369436,"is_reserved":false,"is_disabled":false,"rental_uris":{"android":"levelo://app?vid=865dced6-4767-44f8-b4b9-2868a3d6910b","ios":"levelo://app?vid=865dced6-4767-44f8-b4b9-2868a3d6910b"},"vehicle_type_id":"4","last_reported":1748492162,"current_range_meters":14000,"station_id":"ce4bha12rcd13ifvqef0","pricing_plan_id":"cebpf4jnsgd1na2vs0mg"},{"bike_id":"c779604e-4b6f-4fd8-b57d-6e2082107ff4","system_id":"levelo_inurba_marseille","lat":43.27673,"lon":5.38917,"is_reserved":false,"is_disabled":false,"rental_uris":{"android":"levelo://app?vid=c779604e-4b6f-4fd8-b57d-6e2082107ff4","ios":"levelo://app?vid=c779604e-4b6f-4fd8-b57d-6e2082107ff4"},"vehicle_type_id":"4","last_reported":1748492162,"current_range_meters":14000,"station_id":"ce4bhi12rcd13ifvqfo0","pricing_plan_id":"cebpf4jnsgd1na2vs0mg"},{"bike_id":"3d20b60e-73d8-4394-ba63-0cf59de05dfc","system_id":"levelo_inurba_marseille","lat":43.24672,"lon":5.38159,"is_reserved":false,"is_disabled":false,"rental_uris":{"android":"levelo://app?vid=3d20b60e-73d8-4394-ba63-0cf59de05dfc","ios":"levelo://app?vid=3d20b60e-73d8-4394-ba63-0cf59de05dfc"},"vehicle_type_id":"4","last_reported":1748492162,"current_range_meters":14000,"station_id":"ce4bhih2rcd13ifvqfr0","pricing_plan_id":"cebpf4jnsgd1na2vs0mg"},{"bike_id":"ae9e0357-b73f-43bb-ad14-492ca30fa510","system_id":"levelo_inurba_marseille","lat":43.25921,"lon":5.40902,"is_reserved":false,"is_disabled":false,"rental_uris":{"android":"levelo://app?vid=ae9e0357-b73f-43bb-ad14-492ca30fa510","ios":"levelo://app?vid=ae9e0357-b73f-43bb-ad14-492ca30fa510"},"vehicle_type_id":"4","last_reported":1748492162,"current_range_meters":14000,"station_id":"ce4bhm92rcd13ifvqglg","pricing_plan_id":"cebpf4jnsgd1na2vs0mg"},{"bike_id":"a6b28e17-c16b-4884-8368-e7506fec5d24","system_id":"levelo_inurba_marseille","lat":43.29807,"lon":5.38084,"is_reserved":false,"is_disabled":false,"rental_uris":{"android":"levelo://app?vid=a6b28e17-c16b-4884-8368-e7506fec5d24","ios":"levelo://app?vid=a6b28e17-c16b-4884-8368-e7506fec5d24"},"vehicle_type_id":"4","last_reported":1748492162,"current_range_meters":14400,"station_id":"ce4bgip2rcd13ifvqbb0","pricing_plan_id":"cebpf4jnsgd1na2vs0mg"},{"bike_id":"221eab07-12e0-4f23-8c3a-9f3c22311a6b","system_id":"levelo_inurba_marseille","lat":43.23203,"lon":5.40008,"is_reserved":false,"is_disabled":false,"rental_uris":{"android":"levelo://app?vid=221eab07-12e0-4f23-8c3a-9f3c22311a6b","ios":"levelo://app?vid=221eab07-12e0-4f23-8c3a-9f3c22311a6b"},"vehicle_type_id":"4","last_reported":1748492162,"current_range_meters":14400,"station_id":"ce4bhn12rcd13ifvqgqg","pricing_plan_id":"cebpf4jnsgd1na2vs0mg"},{"bike_id":"4c053a53-5a50-4e31-8104-9b41d82b2307","system_id":"levelo_inurba_marseille","lat":43.330701,"lon":5.393279,"is_reserved":false,"is_disabled":false,"rental_uris":{"android":"levelo://app?vid=4c053a53-5a50-4e31-8104-9b41d82b2307","ios":"levelo://app?vid=4c053a53-5a50-4e31-8104-9b41d82b2307"},"vehicle_type_id":"4","last_reported":1748492162,"current_range_meters":14800,"station_id":"","pricing_plan_id":"cebpf4jnsgd1na2vs0mg"},{"bike_id":"4607379c-9a5a-4d9c-8cea-20530a7eb964","system_id":"levelo_inurba_marseille","lat":43.30915,"lon":5.40157,"is_reserved":false,"is_disabled":false,"rental_uris":{"android":"levelo://app?vid=4607379c-9a5a-4d9c-8cea-20530a7eb964","ios":"levelo://app?vid=4607379c-9a5a-4d9c-8cea-20530a7eb964"},"vehicle_type_id":"4","last_reported":1748492162,"current_range_meters":14800,"station_id":"ce4bgvp2rcd13ifvqct0","pricing_plan_id":"cebpf4jnsgd1na2vs0mg"},{"bike_id":"9408a1f8-e4a4-4fef-9a21-57777e405a91","system_id":"levelo_inurba_marseille","lat":43.298641,"lon":5.402541,"is_reserved":false,"is_disabled":false,"rental_uris":{"android":"levelo://app?vid=9408a1f8-e4a4-4fef-9a21-57777e405a91","ios":"levelo://app?vid=9408a1f8-e4a4-4fef-9a21-57777e405a91"},"vehicle_type_id":"4","last_reported":1748492162,"current_range_meters":14800,"station_id":"ce4bh0h2rcd13ifvqd60","pricing_plan_id":"cebpf4jnsgd1na2vs0mg"},{"bike_id":"057891ca-d092-456d-a189-115276fd0030","system_id":"levelo_inurba_marseille","lat":43.28471,"lon":5.35882,"is_reserved":false,"is_disabled":false,"rental_uris":{"android":"levelo://app?vid=057891ca-d092-456d-a189-115276fd0030","ios":"levelo://app?vid=057891ca-d092-456d-a189-115276fd0030"},"vehicle_type_id":"4","last_reported":1748492162,"current_range_meters":14800,"station_id":"ce4bhah2rcd13ifvqei0","pricing_plan_id":"cebpf4jnsgd1na2vs0mg"},{"bike_id":"1139d786-38c5-41d1-b5c6-f08ef0be5f9d","system_id":"levelo_inurba_marseille","lat":43.27053,"lon":5.40261,"is_reserved":false,"is_disabled":false,"rental_uris":{"android":"levelo://app?vid=1139d786-38c5-41d1-b5c6-f08ef0be5f9d","ios":"levelo://app?vid=1139d786-38c5-41d1-b5c6-f08ef0be5f9d"},"vehicle_type_id":"4","last_reported":1748492162,"current_range_meters":14800,"station_id":"ce4bhk92rcd13ifvqgc0","pricing_plan_id":"cebpf4jnsgd1na2vs0mg"},{"bike_id":"a426f99b-d34a-41bf-bbda-59f7dfd6939b","system_id":"levelo_inurba_marseille","lat":43.255796,"lon":5.382262,"is_reserved":false,"is_disabled":false,"rental_uris":{"android":"levelo://app?vid=a426f99b-d34a-41bf-bbda-59f7dfd6939b","ios":"levelo://app?vid=a426f99b-d34a-41bf-bbda-59f7dfd6939b"},"vehicle_type_id":"4","last_reported":1748492162,"current_range_meters":14800,"station_id":"ce501612rcd8frsf0b60","pricing_plan_id":"cebpf4jnsgd1na2vs0mg"},{"bike_id":"f5733814-9732-4748-bcc9-3b2fac8e1564","system_id":"levelo_inurba_marseille","lat":43.31256,"lon":5.37829,"is_reserved":false,"is_disabled":false,"rental_uris":{"android":"levelo://app?vid=f5733814-9732-4748-bcc9-3b2fac8e1564","ios":"levelo://app?vid=f5733814-9732-4748-bcc9-3b2fac8e1564"},"vehicle_type_id":"4","last_reported":1748492162,"current_range_meters":15200,"station_id":"","pricing_plan_id":"cebpf4jnsgd1na2vs0mg"},{"bike_id":"1593ae6e-a41f-4398-8a0d-d8943190b5f1","system_id":"levelo_inurba_marseille","lat":43.284191,"lon":5.3752,"is_reserved":false,"is_disabled":false,"rental_uris":{"android":"levelo://app?vid=1593ae6e-a41f-4398-8a0d-d8943190b5f1","ios":"levelo://app?vid=1593ae6e-a41f-4398-8a0d-d8943190b5f1"},"vehicle_type_id":"4","last_reported":1748492162,"current_range_meters":15200,"station_id":"","pricing_plan_id":"cebpf4jnsgd1na2vs0mg"},{"bike_id":"a829ba8e-bf90-4a53-baee-0213b780debc","system_id":"levelo_inurba_marseille","lat":43.2928,"lon":5.40136,"is_reserved":false,"is_disabled":false,"rental_uris":{"android":"levelo://app?vid=a829ba8e-bf90-4a53-baee-0213b780debc","ios":"levelo://app?vid=a829ba8e-bf90-4a53-baee-0213b780debc"},"vehicle_type_id":"4","last_reported":1748492162,"current_range_meters":15200,"station_id":"ce4bh312rcd13ifvqdk0","pricing_plan_id":"cebpf4jnsgd1na2vs0mg"},{"bike_id":"e9cda520-c6f4-465d-ad7f-8c059b3dc45a","system_id":"levelo_inurba_marseille","lat":43.313362,"lon":5.384357,"is_reserved":false,"is_disabled":false,"rental_uris":{"android":"levelo://app?vid=e9cda520-c6f4-465d-ad7f-8c059b3dc45a","ios":"levelo://app?vid=e9cda520-c6f4-465d-ad7f-8c059b3dc45a"},"vehicle_type_id":"4","last_reported":1748492162,"current_range_meters":16000,"station_id":"ce4bgt92rcd13ifvqcf0","pricing_plan_id":"cebpf4jnsgd1na2vs0mg"},{"bike_id":"9a8ecd66-2bff-4799-88d1-e3d65db33a9f","system_id":"levelo_inurba_marseille","lat":43.30924,"lon":5.401633,"is_reserved":false,"is_disabled":false,"rental_uris":{"android":"levelo://app?vid=9a8ecd66-2bff-4799-88d1-e3d65db33a9f","ios":"levelo://app?vid=9a8ecd66-2bff-4799-88d1-e3d65db33a9f"},"vehicle_type_id":"4","last_reported":1748492162,"current_range_meters":16000,"station_id":"ce4bgvp2rcd13ifvqct0","pricing_plan_id":"cebpf4jnsgd1na2vs0mg"},{"bike_id":"8f7f9dba-c1a2-4705-9cfb-78b381b601cf","system_id":"levelo_inurba_marseille","lat":43.309324,"lon":5.401486,"is_reserved":false,"is_disabled":false,"rental_uris":{"android":"levelo://app?vid=8f7f9dba-c1a2-4705-9cfb-78b381b601cf","ios":"levelo://app?vid=8f7f9dba-c1a2-4705-9cfb-78b381b601cf"},"vehicle_type_id":"4","last_reported":1748492162,"current_range_meters":16000,"station_id":"ce4bgvp2rcd13ifvqct0","pricing_plan_id":"cebpf4jnsgd1na2vs0mg"},{"bike_id":"7b64b9e6-3c9a-49de-ae0e-b49897caef8d","system_id":"levelo_inurba_marseille","lat":43.30891,"lon":5.39638,"is_reserved":false,"is_disabled":false,"rental_uris":{"android":"levelo://app?vid=7b64b9e6-3c9a-49de-ae0e-b49897caef8d","ios":"levelo://app?vid=7b64b9e6-3c9a-49de-ae0e-b49897caef8d"},"vehicle_type_id":"4","last_reported":1748492162,"current_range_meters":16000,"station_id":"ce4bh012rcd13ifvqcv0","pricing_plan_id":"cebpf4jnsgd1na2vs0mg"},{"bike_id":"f12dfea2-4a20-4463-aa3e-7c0b4a86991a","system_id":"levelo_inurba_marseille","lat":43.28414,"lon":5.37525,"is_reserved":false,"is_disabled":false,"rental_uris":{"android":"levelo://app?vid=f12dfea2-4a20-4463-aa3e-7c0b4a86991a","ios":"levelo://app?vid=f12dfea2-4a20-4463-aa3e-7c0b4a86991a"},"vehicle_type_id":"4","last_reported":1748492162,"current_range_meters":16000,"station_id":"ce4bh412rcd13ifvqds0","pricing_plan_id":"cebpf4jnsgd1na2vs0mg"},{"bike_id":"50dbfc16-57f2-45be-8b4f-1c8f61506949","system_id":"levelo_inurba_marseille","lat":43.284936,"lon":5.385616,"is_reserved":false,"is_disabled":false,"rental_uris":{"android":"levelo://app?vid=50dbfc16-57f2-45be-8b4f-1c8f61506949","ios":"levelo://app?vid=50dbfc16-57f2-45be-8b4f-1c8f61506949"},"vehicle_type_id":"4","last_reported":1748492162,"current_range_meters":16000,"station_id":"ce4bh8p2rcd13ifvqeb0","pricing_plan_id":"cebpf4jnsgd1na2vs0mg"},{"bike_id":"bdd6f96e-9719-4584-8da3-0954b64dc169","system_id":"levelo_inurba_marseille","lat":43.284641,"lon":5.358833,"is_reserved":false,"is_disabled":false,"rental_uris":{"android":"levelo://app?vid=bdd6f96e-9719-4584-8da3-0954b64dc169","ios":"levelo://app?vid=bdd6f96e-9719-4584-8da3-0954b64dc169"},"vehicle_type_id":"4","last_reported":1748492162,"current_range_meters":16000,"station_id":"ce4bhah2rcd13ifvqei0","pricing_plan_id":"cebpf4jnsgd1na2vs0mg"},{"bike_id":"a98948c9-ab07-4786-a753-98919769d886","system_id":"levelo_inurba_marseille","lat":43.32366,"lon":5.38893,"is_reserved":false,"is_disabled":false,"rental_uris":{"android":"levelo://app?vid=a98948c9-ab07-4786-a753-98919769d886","ios":"levelo://app?vid=a98948c9-ab07-4786-a753-98919769d886"},"vehicle_type_id":"4","last_reported":1748492162,"current_range_meters":16000,"station_id":"ce4bhqp2rcd13ifvqhog","pricing_plan_id":"cebpf4jnsgd1na2vs0mg"},{"bike_id":"caba691e-3e1a-4a91-8958-c8fc2e373e15","system_id":"levelo_inurba_marseille","lat":43.337262,"lon":5.391867,"is_reserved":false,"is_disabled":false,"rental_uris":{"android":"levelo://app?vid=caba691e-3e1a-4a91-8958-c8fc2e373e15","ios":"levelo://app?vid=caba691e-3e1a-4a91-8958-c8fc2e373e15"},"vehicle_type_id":"4","last_reported":1748492162,"current_range_meters":16000,"station_id":"ce4bhr92rcd13ifvqhsg","pricing_plan_id":"cebpf4jnsgd1na2vs0mg"},{"bike_id":"c9835c10-7089-42d7-81f5-6b9063dafbd0","system_id":"levelo_inurba_marseille","lat":43.311683,"lon":5.387293,"is_reserved":false,"is_disabled":false,"rental_uris":{"android":"levelo://app?vid=c9835c10-7089-42d7-81f5-6b9063dafbd0","ios":"levelo://app?vid=c9835c10-7089-42d7-81f5-6b9063dafbd0"},"vehicle_type_id":"4","last_reported":1748492162,"current_range_meters":16400,"station_id":"ce4bgv12rcd13ifvqcp0","pricing_plan_id":"cebpf4jnsgd1na2vs0mg"},{"bike_id":"cbda0e3c-13a4-47fc-820d-975c52b70268","system_id":"levelo_inurba_marseille","lat":43.29238,"lon":5.40916,"is_reserved":false,"is_disabled":false,"rental_uris":{"android":"levelo://app?vid=cbda0e3c-13a4-47fc-820d-975c52b70268","ios":"levelo://app?vid=cbda0e3c-13a4-47fc-820d-975c52b70268"},"vehicle_type_id":"4","last_reported":1748492162,"current_range_meters":16400,"station_id":"ce4bh192rcd13ifvqdc0","pricing_plan_id":"cebpf4jnsgd1na2vs0mg"},{"bike_id":"0aeb2502-24df-4bc6-9001-b9ffef9b7ace","system_id":"levelo_inurba_marseille","lat":43.284,"lon":5.3751,"is_reserved":false,"is_disabled":false,"rental_uris":{"android":"levelo://app?vid=0aeb2502-24df-4bc6-9001-b9ffef9b7ace","ios":"levelo://app?vid=0aeb2502-24df-4bc6-9001-b9ffef9b7ace"},"vehicle_type_id":"4","last_reported":1748492162,"current_range_meters":16400,"station_id":"ce4bh412rcd13ifvqds0","pricing_plan_id":"cebpf4jnsgd1na2vs0mg"},{"bike_id":"7dab57f9-4e74-4ae0-ad58-da882b4ddf38","system_id":"levelo_inurba_marseille","lat":43.29089,"lon":5.38117,"is_reserved":false,"is_disabled":false,"rental_uris":{"android":"levelo://app?vid=7dab57f9-4e74-4ae0-ad58-da882b4ddf38","ios":"levelo://app?vid=7dab57f9-4e74-4ae0-ad58-da882b4ddf38"},"vehicle_type_id":"4","last_reported":1748492162,"current_range_meters":16400,"station_id":"ce4bh512rcd13ifvqe2g","pricing_plan_id":"cebpf4jnsgd1na2vs0mg"},{"bike_id":"204ccfe1-9199-4970-adb6-0a4f6a62a5df","system_id":"levelo_inurba_marseille","lat":43.279124,"lon":5.3958,"is_reserved":false,"is_disabled":false,"rental_uris":{"android":"levelo://app?vid=204ccfe1-9199-4970-adb6-0a4f6a62a5df","ios":"levelo://app?vid=204ccfe1-9199-4970-adb6-0a4f6a62a5df"},"vehicle_type_id":"4","last_reported":1748492162,"current_range_meters":16400,"station_id":"ce4bhf92rcd13ifvqf40","pricing_plan_id":"cebpf4jnsgd1na2vs0mg"},{"bike_id":"c29ce092-0794-4ee5-b982-bf3dc415ac4e","system_id":"levelo_inurba_marseille","lat":43.24811,"lon":5.37452,"is_reserved":false,"is_disabled":false,"rental_uris":{"android":"levelo://app?vid=c29ce092-0794-4ee5-b982-bf3dc415ac4e","ios":"levelo://app?vid=c29ce092-0794-4ee5-b982-bf3dc415ac4e"},"vehicle_type_id":"4","last_reported":1748492162,"current_range_meters":16400,"station_id":"ce4bhgh2rcd13ifvqfb0","pricing_plan_id":"cebpf4jnsgd1na2vs0mg"},{"bike_id":"b7d0182b-44ef-4781-8968-d21fb3c02045","system_id":"levelo_inurba_marseille","lat":43.250842,"lon":5.395223,"is_reserved":false,"is_disabled":false,"rental_uris":{"android":"levelo://app?vid=b7d0182b-44ef-4781-8968-d21fb3c02045","ios":"levelo://app?vid=b7d0182b-44ef-4781-8968-d21fb3c02045"},"vehicle_type_id":"4","last_reported":1748492162,"current_range_meters":16400,"station_id":"ce4bhm12rcd13ifvqgkg","pricing_plan_id":"cebpf4jnsgd1na2vs0mg"},{"bike_id":"268d8a39-8ebd-464e-bfc7-cb2851008607","system_id":"levelo_inurba_marseille","lat":43.24174,"lon":5.39738,"is_reserved":false,"is_disabled":false,"rental_uris":{"android":"levelo://app?vid=268d8a39-8ebd-464e-bfc7-cb2851008607","ios":"levelo://app?vid=268d8a39-8ebd-464e-bfc7-cb2851008607"},"vehicle_type_id":"4","last_reported":1748492162,"current_range_meters":16400,"station_id":"ce4bhn12rcd13ifvqgpg","pricing_plan_id":"cebpf4jnsgd1na2vs0mg"},{"bike_id":"8023504d-3ac6-4178-b0fc-b7283e21344c","system_id":"levelo_inurba_marseille","lat":43.27938,"lon":5.41037,"is_reserved":false,"is_disabled":false,"rental_uris":{"android":"levelo://app?vid=8023504d-3ac6-4178-b0fc-b7283e21344c","ios":"levelo://app?vid=8023504d-3ac6-4178-b0fc-b7283e21344c"},"vehicle_type_id":"4","last_reported":1748492162,"current_range_meters":16400,"station_id":"ce4bhnp2rcd13ifvqh0g","pricing_plan_id":"cebpf4jnsgd1na2vs0mg"},{"bike_id":"ad6aca86-7934-43a8-93e5-11f3e998538f","system_id":"levelo_inurba_marseille","lat":43.279373,"lon":5.410435,"is_reserved":false,"is_disabled":false,"rental_uris":{"android":"levelo://app?vid=ad6aca86-7934-43a8-93e5-11f3e998538f","ios":"levelo://app?vid=ad6aca86-7934-43a8-93e5-11f3e998538f"},"vehicle_type_id":"4","last_reported":1748492162,"current_range_meters":16400,"station_id":"ce4bhnp2rcd13ifvqh0g","pricing_plan_id":"cebpf4jnsgd1na2vs0mg"},{"bike_id":"5fcd1b68-fa00-4130-beb5-b6a3b3995b61","system_id":"levelo_inurba_marseille","lat":43.28692,"lon":5.39981,"is_reserved":false,"is_disabled":false,"rental_uris":{"android":"levelo://app?vid=5fcd1b68-fa00-4130-beb5-b6a3b3995b61","ios":"levelo://app?vid=5fcd1b68-fa00-4130-beb5-b6a3b3995b61"},"vehicle_type_id":"4","last_reported":1748492162,"current_range_meters":16400,"station_id":"ce4bho92rcd13ifvqh3g","pricing_plan_id":"cebpf4jnsgd1na2vs0mg"},{"bike_id":"3a980c08-346a-4f7f-9170-58456c34fda5","system_id":"levelo_inurba_marseille","lat":43.31744,"lon":5.40429,"is_reserved":false,"is_disabled":false,"rental_uris":{"android":"levelo://app?vid=3a980c08-346a-4f7f-9170-58456c34fda5","ios":"levelo://app?vid=3a980c08-346a-4f7f-9170-58456c34fda5"},"vehicle_type_id":"4","last_reported":1748492162,"current_range_meters":16800,"station_id":"","pricing_plan_id":"cebpf4jnsgd1na2vs0mg"},{"bike_id":"1d6d9702-438d-454d-974c-3073193f149e","system_id":"levelo_inurba_marseille","lat":43.30774,"lon":5.37659,"is_reserved":false,"is_disabled":false,"rental_uris":{"android":"levelo://app?vid=1d6d9702-438d-454d-974c-3073193f149e","ios":"levelo://app?vid=1d6d9702-438d-454d-974c-3073193f149e"},"vehicle_type_id":"4","last_reported":1748492162,"current_range_meters":16800,"station_id":"ce4bgv92rcd13ifvqcq0","pricing_plan_id":"cebpf4jnsgd1na2vs0mg"},{"bike_id":"6829e209-471a-4f5d-bdfa-f6471e8f3b4e","system_id":"levelo_inurba_marseille","lat":43.298714,"lon":5.397272,"is_reserved":false,"is_disabled":false,"rental_uris":{"android":"levelo://app?vid=6829e209-471a-4f5d-bdfa-f6471e8f3b4e","ios":"levelo://app?vid=6829e209-471a-4f5d-bdfa-f6471e8f3b4e"},"vehicle_type_id":"4","last_reported":1748492162,"current_range_meters":16800,"station_id":"ce4bh0h2rcd13ifvqd50","pricing_plan_id":"cebpf4jnsgd1na2vs0mg"},{"bike_id":"83fb3f10-b681-495e-addb-a701ea3161a7","system_id":"levelo_inurba_marseille","lat":43.29258,"lon":5.40905,"is_reserved":false,"is_disabled":false,"rental_uris":{"android":"levelo://app?vid=83fb3f10-b681-495e-addb-a701ea3161a7","ios":"levelo://app?vid=83fb3f10-b681-495e-addb-a701ea3161a7"},"vehicle_type_id":"4","last_reported":1748492162,"current_range_meters":16800,"station_id":"ce4bh192rcd13ifvqdc0","pricing_plan_id":"cebpf4jnsgd1na2vs0mg"},{"bike_id":"adcee82c-9db2-40d0-9e4e-8dd831ea6879","system_id":"levelo_inurba_marseille","lat":43.279163,"lon":5.395862,"is_reserved":false,"is_disabled":false,"rental_uris":{"android":"levelo://app?vid=adcee82c-9db2-40d0-9e4e-8dd831ea6879","ios":"levelo://app?vid=adcee82c-9db2-40d0-9e4e-8dd831ea6879"},"vehicle_type_id":"4","last_reported":1748492162,"current_range_meters":16800,"station_id":"ce4bhf92rcd13ifvqf40","pricing_plan_id":"cebpf4jnsgd1na2vs0mg"},{"bike_id":"747224c9-7e52-4c58-9390-d943c4f5446c","system_id":"levelo_inurba_marseille","lat":43.27179,"lon":5.410024,"is_reserved":false,"is_disabled":false,"rental_uris":{"android":"levelo://app?vid=747224c9-7e52-4c58-9390-d943c4f5446c","ios":"levelo://app?vid=747224c9-7e52-4c58-9390-d943c4f5446c"},"vehicle_type_id":"4","last_reported":1748492162,"current_range_meters":16800,"station_id":"ce4bhl12rcd13ifvqgf0","pricing_plan_id":"cebpf4jnsgd1na2vs0mg"},{"bike_id":"5acaccd8-78cb-4a55-9bc7-0d6139a2d3b4","system_id":"levelo_inurba_marseille","lat":43.287001,"lon":5.399855,"is_reserved":false,"is_disabled":false,"rental_uris":{"android":"levelo://app?vid=5acaccd8-78cb-4a55-9bc7-0d6139a2d3b4","ios":"levelo://app?vid=5acaccd8-78cb-4a55-9bc7-0d6139a2d3b4"},"vehicle_type_id":"4","last_reported":1748492162,"current_range_meters":16800,"station_id":"ce4bho92rcd13ifvqh3g","pricing_plan_id":"cebpf4jnsgd1na2vs0mg"},{"bike_id":"9a86381f-51bc-4d54-858d-d27c0e51d901","system_id":"levelo_inurba_marseille","lat":43.30737,"lon":5.42432,"is_reserved":false,"is_disabled":false,"rental_uris":{"android":"levelo://app?vid=9a86381f-51bc-4d54-858d-d27c0e51d901","ios":"levelo://app?vid=9a86381f-51bc-4d54-858d-d27c0e51d901"},"vehicle_type_id":"4","last_reported":1748492162,"current_range_meters":16800,"station_id":"st_cvj6ca6bvosntc0bfgr0","pricing_plan_id":"cebpf4jnsgd1na2vs0mg"},{"bike_id":"b7020ec2-d08d-489a-8b7c-6a077dc1acf5","system_id":"levelo_inurba_marseille","lat":43.23291,"lon":5.36123,"is_reserved":false,"is_disabled":false,"rental_uris":{"android":"levelo://app?vid=b7020ec2-d08d-489a-8b7c-6a077dc1acf5","ios":"levelo://app?vid=b7020ec2-d08d-489a-8b7c-6a077dc1acf5"},"vehicle_type_id":"4","last_reported":1748492162,"current_range_meters":17200,"station_id":"","pricing_plan_id":"cebpf4jnsgd1na2vs0mg"},{"bike_id":"381c23b0-a96d-4eeb-9825-9f605d6bdde1","system_id":"levelo_inurba_marseille","lat":43.303206,"lon":5.404433,"is_reserved":false,"is_disabled":false,"rental_uris":{"android":"levelo://app?vid=381c23b0-a96d-4eeb-9825-9f605d6bdde1","ios":"levelo://app?vid=381c23b0-a96d-4eeb-9825-9f605d6bdde1"},"vehicle_type_id":"4","last_reported":1748492162,"current_range_meters":17200,"station_id":"ce4bh012rcd13ifvqd10","pricing_plan_id":"cebpf4jnsgd1na2vs0mg"},{"bike_id":"c3f8f887-b01b-4e82-8971-e43226d4e847","system_id":"levelo_inurba_marseille","lat":43.286684,"lon":5.363574,"is_reserved":false,"is_disabled":false,"rental_uris":{"android":"levelo://app?vid=c3f8f887-b01b-4e82-8971-e43226d4e847","ios":"levelo://app?vid=c3f8f887-b01b-4e82-8971-e43226d4e847"},"vehicle_type_id":"4","last_reported":1748492162,"current_range_meters":17200,"station_id":"ce4bhah2rcd13ifvqej0","pricing_plan_id":"cebpf4jnsgd1na2vs0mg"},{"bike_id":"6b77d8e2-6914-4f74-b37c-4eb29bd3731c","system_id":"levelo_inurba_marseille","lat":43.259322,"lon":5.409029,"is_reserved":false,"is_disabled":false,"rental_uris":{"android":"levelo://app?vid=6b77d8e2-6914-4f74-b37c-4eb29bd3731c","ios":"levelo://app?vid=6b77d8e2-6914-4f74-b37c-4eb29bd3731c"},"vehicle_type_id":"4","last_reported":1748492162,"current_range_meters":17200,"station_id":"ce4bhm92rcd13ifvqglg","pricing_plan_id":"cebpf4jnsgd1na2vs0mg"},{"bike_id":"0e009545-9acc-491d-b143-22cbd0096db4","system_id":"levelo_inurba_marseille","lat":43.332998,"lon":5.396678,"is_reserved":false,"is_disabled":false,"rental_uris":{"android":"levelo://app?vid=0e009545-9acc-491d-b143-22cbd0096db4","ios":"levelo://app?vid=0e009545-9acc-491d-b143-22cbd0096db4"},"vehicle_type_id":"4","last_reported":1748492162,"current_range_meters":17600,"station_id":"","pricing_plan_id":"cebpf4jnsgd1na2vs0mg"},{"bike_id":"84b1cdb3-afec-4946-99df-4fcba5b743f0","system_id":"levelo_inurba_marseille","lat":43.26122,"lon":5.40089,"is_reserved":false,"is_disabled":false,"rental_uris":{"android":"levelo://app?vid=84b1cdb3-afec-4946-99df-4fcba5b743f0","ios":"levelo://app?vid=84b1cdb3-afec-4946-99df-4fcba5b743f0"},"vehicle_type_id":"4","last_reported":1748492162,"current_range_meters":17600,"station_id":"","pricing_plan_id":"cebpf4jnsgd1na2vs0mg"},{"bike_id":"861ca05e-27ed-4f0b-9b40-090302e61cea","system_id":"levelo_inurba_marseille","lat":43.292746,"lon":5.401347,"is_reserved":false,"is_disabled":false,"rental_uris":{"android":"levelo://app?vid=861ca05e-27ed-4f0b-9b40-090302e61cea","ios":"levelo://app?vid=861ca05e-27ed-4f0b-9b40-090302e61cea"},"vehicle_type_id":"4","last_reported":1748492162,"current_range_meters":17600,"station_id":"ce4bh312rcd13ifvqdk0","pricing_plan_id":"cebpf4jnsgd1na2vs0mg"},{"bike_id":"f2b6dd7e-f1cb-4e57-9f95-e5fdcce3608b","system_id":"levelo_inurba_marseille","lat":43.286692,"lon":5.363499,"is_reserved":false,"is_disabled":false,"rental_uris":{"android":"levelo://app?vid=f2b6dd7e-f1cb-4e57-9f95-e5fdcce3608b","ios":"levelo://app?vid=f2b6dd7e-f1cb-4e57-9f95-e5fdcce3608b"},"vehicle_type_id":"4","last_reported":1748492162,"current_range_meters":17600,"station_id":"ce4bhah2rcd13ifvqej0","pricing_plan_id":"cebpf4jnsgd1na2vs0mg"},{"bike_id":"dbe562a8-5982-4674-8802-fa833cff5d97","system_id":"levelo_inurba_marseille","lat":43.25096,"lon":5.40347,"is_reserved":false,"is_disabled":false,"rental_uris":{"android":"levelo://app?vid=dbe562a8-5982-4674-8802-fa833cff5d97","ios":"levelo://app?vid=dbe562a8-5982-4674-8802-fa833cff5d97"},"vehicle_type_id":"4","last_reported":1748492162,"current_range_meters":17600,"station_id":"ce4bhlh2rcd13ifvqgig","pricing_plan_id":"cebpf4jnsgd1na2vs0mg"},{"bike_id":"f61b7f73-84e3-4805-a73d-0334d49a8a59","system_id":"levelo_inurba_marseille","lat":43.231902,"lon":5.399918,"is_reserved":false,"is_disabled":false,"rental_uris":{"android":"levelo://app?vid=f61b7f73-84e3-4805-a73d-0334d49a8a59","ios":"levelo://app?vid=f61b7f73-84e3-4805-a73d-0334d49a8a59"},"vehicle_type_id":"4","last_reported":1748492162,"current_range_meters":17600,"station_id":"ce4bhn12rcd13ifvqgqg","pricing_plan_id":"cebpf4jnsgd1na2vs0mg"},{"bike_id":"f677692c-6f6c-496b-9875-62ce29648eb6","system_id":"levelo_inurba_marseille","lat":43.229339,"lon":5.353788,"is_reserved":false,"is_disabled":false,"rental_uris":{"android":"levelo://app?vid=f677692c-6f6c-496b-9875-62ce29648eb6","ios":"levelo://app?vid=f677692c-6f6c-496b-9875-62ce29648eb6"},"vehicle_type_id":"4","last_reported":1748492162,"current_range_meters":17600,"station_id":"cpo3532slgdg3j2ikp40","pricing_plan_id":"cebpf4jnsgd1na2vs0mg"},{"bike_id":"6449e09c-aa70-4db4-8717-6cdd9456c498","system_id":"levelo_inurba_marseille","lat":43.30472,"lon":5.37911,"is_reserved":false,"is_disabled":false,"rental_uris":{"android":"levelo://app?vid=6449e09c-aa70-4db4-8717-6cdd9456c498","ios":"levelo://app?vid=6449e09c-aa70-4db4-8717-6cdd9456c498"},"vehicle_type_id":"4","last_reported":1748492162,"current_range_meters":18000,"station_id":"ce4bgup2rcd13ifvqcn0","pricing_plan_id":"cebpf4jnsgd1na2vs0mg"},{"bike_id":"164da321-f998-4e1b-acb6-d8416d7c4b72","system_id":"levelo_inurba_marseille","lat":43.28463,"lon":5.35891,"is_reserved":false,"is_disabled":false,"rental_uris":{"android":"levelo://app?vid=164da321-f998-4e1b-acb6-d8416d7c4b72","ios":"levelo://app?vid=164da321-f998-4e1b-acb6-d8416d7c4b72"},"vehicle_type_id":"4","last_reported":1748492162,"current_range_meters":18000,"station_id":"ce4bhah2rcd13ifvqei0","pricing_plan_id":"cebpf4jnsgd1na2vs0mg"},{"bike_id":"f4e8e0bb-ba43-4097-bfe7-dcd796aa03f2","system_id":"levelo_inurba_marseille","lat":43.27983,"lon":5.41647,"is_reserved":false,"is_disabled":false,"rental_uris":{"android":"levelo://app?vid=f4e8e0bb-ba43-4097-bfe7-dcd796aa03f2","ios":"levelo://app?vid=f4e8e0bb-ba43-4097-bfe7-dcd796aa03f2"},"vehicle_type_id":"4","last_reported":1748492162,"current_range_meters":18000,"station_id":"ce4bho12rcd13ifvqh1g","pricing_plan_id":"cebpf4jnsgd1na2vs0mg"},{"bike_id":"7243d7c8-02f5-4392-89cf-8c360e846d55","system_id":"levelo_inurba_marseille","lat":43.252701,"lon":5.378313,"is_reserved":false,"is_disabled":false,"rental_uris":{"android":"levelo://app?vid=7243d7c8-02f5-4392-89cf-8c360e846d55","ios":"levelo://app?vid=7243d7c8-02f5-4392-89cf-8c360e846d55"},"vehicle_type_id":"4","last_reported":1748492162,"current_range_meters":18800,"station_id":"","pricing_plan_id":"cebpf4jnsgd1na2vs0mg"},{"bike_id":"0bef0415-ce51-40f5-8a31-e3d1218996d8","system_id":"levelo_inurba_marseille","lat":43.28959,"lon":5.35727,"is_reserved":false,"is_disabled":false,"rental_uris":{"android":"levelo://app?vid=0bef0415-ce51-40f5-8a31-e3d1218996d8","ios":"levelo://app?vid=0bef0415-ce51-40f5-8a31-e3d1218996d8"},"vehicle_type_id":"4","last_reported":1748492162,"current_range_meters":18800,"station_id":"","pricing_plan_id":"cebpf4jnsgd1na2vs0mg"},{"bike_id":"9e077e27-33c0-4331-96cc-ce43f93f1c2b","system_id":"levelo_inurba_marseille","lat":43.267314,"lon":5.37212,"is_reserved":false,"is_disabled":false,"rental_uris":{"android":"levelo://app?vid=9e077e27-33c0-4331-96cc-ce43f93f1c2b","ios":"levelo://app?vid=9e077e27-33c0-4331-96cc-ce43f93f1c2b"},"vehicle_type_id":"4","last_reported":1748492162,"current_range_meters":18800,"station_id":"","pricing_plan_id":"cebpf4jnsgd1na2vs0mg"},{"bike_id":"bd424364-9cf2-4bb8-822f-5ad8131fbbde","system_id":"levelo_inurba_marseille","lat":43.3093,"lon":5.40163,"is_reserved":false,"is_disabled":false,"rental_uris":{"android":"levelo://app?vid=bd424364-9cf2-4bb8-822f-5ad8131fbbde","ios":"levelo://app?vid=bd424364-9cf2-4bb8-822f-5ad8131fbbde"},"vehicle_type_id":"4","last_reported":1748492162,"current_range_meters":18800,"station_id":"ce4bgvp2rcd13ifvqct0","pricing_plan_id":"cebpf4jnsgd1na2vs0mg"},{"bike_id":"c0f19888-2324-469c-ab23-beb04da7e715","system_id":"levelo_inurba_marseille","lat":43.284645,"lon":5.358861,"is_reserved":false,"is_disabled":false,"rental_uris":{"android":"levelo://app?vid=c0f19888-2324-469c-ab23-beb04da7e715","ios":"levelo://app?vid=c0f19888-2324-469c-ab23-beb04da7e715"},"vehicle_type_id":"4","last_reported":1748492162,"current_range_meters":18800,"station_id":"ce4bhah2rcd13ifvqei0","pricing_plan_id":"cebpf4jnsgd1na2vs0mg"},{"bike_id":"24fac7d8-b294-491e-9322-2bc2c0a9e2ad","system_id":"levelo_inurba_marseille","lat":43.289353,"lon":5.366315,"is_reserved":false,"is_disabled":false,"rental_uris":{"android":"levelo://app?vid=24fac7d8-b294-491e-9322-2bc2c0a9e2ad","ios":"levelo://app?vid=24fac7d8-b294-491e-9322-2bc2c0a9e2ad"},"vehicle_type_id":"4","last_reported":1748492162,"current_range_meters":18800,"station_id":"ce4bhap2rcd13ifvqek0","pricing_plan_id":"cebpf4jnsgd1na2vs0mg"},{"bike_id":"1dd9514e-a34b-4f40-a9d8-48f456e00a3f","system_id":"levelo_inurba_marseille","lat":43.30281,"lon":5.39224,"is_reserved":false,"is_disabled":false,"rental_uris":{"android":"levelo://app?vid=1dd9514e-a34b-4f40-a9d8-48f456e00a3f","ios":"levelo://app?vid=1dd9514e-a34b-4f40-a9d8-48f456e00a3f"},"vehicle_type_id":"4","last_reported":1748492162,"current_range_meters":19200,"station_id":"ce4bgkh2rcd13ifvqbk0","pricing_plan_id":"cebpf4jnsgd1na2vs0mg"},{"bike_id":"8025af9a-957c-4dae-8aec-93c2f16f7798","system_id":"levelo_inurba_marseille","lat":43.30128,"lon":5.398743,"is_reserved":false,"is_disabled":false,"rental_uris":{"android":"levelo://app?vid=8025af9a-957c-4dae-8aec-93c2f16f7798","ios":"levelo://app?vid=8025af9a-957c-4dae-8aec-93c2f16f7798"},"vehicle_type_id":"4","last_reported":1748492162,"current_range_meters":19200,"station_id":"ce4bh0h2rcd13ifvqd40","pricing_plan_id":"cebpf4jnsgd1na2vs0mg"},{"bike_id":"9d7f5467-8060-4fd8-a149-7bfedb3e803a","system_id":"levelo_inurba_marseille","lat":43.30624,"lon":5.40088,"is_reserved":false,"is_disabled":false,"rental_uris":{"android":"levelo://app?vid=9d7f5467-8060-4fd8-a149-7bfedb3e803a","ios":"levelo://app?vid=9d7f5467-8060-4fd8-a149-7bfedb3e803a"},"vehicle_type_id":"4","last_reported":1748492162,"current_range_meters":19200,"station_id":"ce4bh112rcd13ifvqda0","pricing_plan_id":"cebpf4jnsgd1na2vs0mg"},{"bike_id":"43e6ed40-4275-42eb-84b4-268ba8898d1d","system_id":"levelo_inurba_marseille","lat":43.28703,"lon":5.399849,"is_reserved":false,"is_disabled":false,"rental_uris":{"android":"levelo://app?vid=43e6ed40-4275-42eb-84b4-268ba8898d1d","ios":"levelo://app?vid=43e6ed40-4275-42eb-84b4-268ba8898d1d"},"vehicle_type_id":"4","last_reported":1748492162,"current_range_meters":19200,"station_id":"ce4bho92rcd13ifvqh3g","pricing_plan_id":"cebpf4jnsgd1na2vs0mg"},{"bike_id":"b9fc76d8-1bdf-48f3-84a2-3e91d9ed74dc","system_id":"levelo_inurba_marseille","lat":43.3079,"lon":5.43514,"is_reserved":false,"is_disabled":false,"rental_uris":{"android":"levelo://app?vid=b9fc76d8-1bdf-48f3-84a2-3e91d9ed74dc","ios":"levelo://app?vid=b9fc76d8-1bdf-48f3-84a2-3e91d9ed74dc"},"vehicle_type_id":"4","last_reported":1748492162,"current_range_meters":19200,"station_id":"ce4bhph2rcd13ifvqheg","pricing_plan_id":"cebpf4jnsgd1na2vs0mg"},{"bike_id":"b9f95c4f-c796-4848-84fb-00424d27cb6a","system_id":"levelo_inurba_marseille","lat":43.268001,"lon":5.402613,"is_reserved":false,"is_disabled":false,"rental_uris":{"android":"levelo://app?vid=b9f95c4f-c796-4848-84fb-00424d27cb6a","ios":"levelo://app?vid=b9f95c4f-c796-4848-84fb-00424d27cb6a"},"vehicle_type_id":"4","last_reported":1748492162,"current_range_meters":19200,"station_id":"ce501612rcd8frsf0b60","pricing_plan_id":"cebpf4jnsgd1na2vs0mg"},{"bike_id":"574332a7-53c1-46ea-b207-efd8a0dae094","system_id":"levelo_inurba_marseille","lat":43.321747,"lon":5.388523,"is_reserved":false,"is_disabled":false,"rental_uris":{"android":"levelo://app?vid=574332a7-53c1-46ea-b207-efd8a0dae094","ios":"levelo://app?vid=574332a7-53c1-46ea-b207-efd8a0dae094"},"vehicle_type_id":"4","last_reported":1748492162,"current_range_meters":19600,"station_id":"","pricing_plan_id":"cebpf4jnsgd1na2vs0mg"},{"bike_id":"c1fe417f-2f0f-4b99-a6b4-c44acd65845f","system_id":"levelo_inurba_marseille","lat":43.331113,"lon":5.385175,"is_reserved":false,"is_disabled":false,"rental_uris":{"android":"levelo://app?vid=c1fe417f-2f0f-4b99-a6b4-c44acd65845f","ios":"levelo://app?vid=c1fe417f-2f0f-4b99-a6b4-c44acd65845f"},"vehicle_type_id":"4","last_reported":1748492162,"current_range_meters":19600,"station_id":"","pricing_plan_id":"cebpf4jnsgd1na2vs0mg"},{"bike_id":"737a56ca-50c6-44cd-b7ed-70eaefbd8a5d","system_id":"levelo_inurba_marseille","lat":43.30471,"lon":5.38886,"is_reserved":false,"is_disabled":false,"rental_uris":{"android":"levelo://app?vid=737a56ca-50c6-44cd-b7ed-70eaefbd8a5d","ios":"levelo://app?vid=737a56ca-50c6-44cd-b7ed-70eaefbd8a5d"},"vehicle_type_id":"4","last_reported":1748492162,"current_range_meters":19600,"station_id":"ce4bgk12rcd13ifvqbi0","pricing_plan_id":"cebpf4jnsgd1na2vs0mg"},{"bike_id":"2e8767e6-9e97-4614-aa14-3b1c93830b78","system_id":"levelo_inurba_marseille","lat":43.316897,"lon":5.404784,"is_reserved":false,"is_disabled":false,"rental_uris":{"android":"levelo://app?vid=2e8767e6-9e97-4614-aa14-3b1c93830b78","ios":"levelo://app?vid=2e8767e6-9e97-4614-aa14-3b1c93830b78"},"vehicle_type_id":"4","last_reported":1748492162,"current_range_meters":19600,"station_id":"ce4bh012rcd13ifvqd00","pricing_plan_id":"cebpf4jnsgd1na2vs0mg"},{"bike_id":"4a925db8-d3ae-4f8c-80c1-a7789c81e90e","system_id":"levelo_inurba_marseille","lat":43.27947,"lon":5.41046,"is_reserved":false,"is_disabled":false,"rental_uris":{"android":"levelo://app?vid=4a925db8-d3ae-4f8c-80c1-a7789c81e90e","ios":"levelo://app?vid=4a925db8-d3ae-4f8c-80c1-a7789c81e90e"},"vehicle_type_id":"4","last_reported":1748492162,"current_range_meters":19600,"station_id":"ce4bhnp2rcd13ifvqh0g","pricing_plan_id":"cebpf4jnsgd1na2vs0mg"},{"bike_id":"da990dcb-4bfa-4fbb-85a7-420225f26d7c","system_id":"levelo_inurba_marseille","lat":43.323395,"lon":5.406168,"is_reserved":false,"is_disabled":false,"rental_uris":{"android":"levelo://app?vid=da990dcb-4bfa-4fbb-85a7-420225f26d7c","ios":"levelo://app?vid=da990dcb-4bfa-4fbb-85a7-420225f26d7c"},"vehicle_type_id":"4","last_reported":1748492162,"current_range_meters":19600,"station_id":"ce4bhq92rcd13ifvqhjg","pricing_plan_id":"cebpf4jnsgd1na2vs0mg"},{"bike_id":"502b1051-0bae-4a23-bcbf-a876bfe3288a","system_id":"levelo_inurba_marseille","lat":43.312606,"lon":5.38251,"is_reserved":false,"is_disabled":false,"rental_uris":{"android":"levelo://app?vid=502b1051-0bae-4a23-bcbf-a876bfe3288a","ios":"levelo://app?vid=502b1051-0bae-4a23-bcbf-a876bfe3288a"},"vehicle_type_id":"4","last_reported":1748492162,"current_range_meters":20000,"station_id":"","pricing_plan_id":"cebpf4jnsgd1na2vs0mg"},{"bike_id":"eb59fdae-c751-4912-979e-bf13fa48c9ec","system_id":"levelo_inurba_marseille","lat":43.284141,"lon":5.37526,"is_reserved":false,"is_disabled":false,"rental_uris":{"android":"levelo://app?vid=eb59fdae-c751-4912-979e-bf13fa48c9ec","ios":"levelo://app?vid=eb59fdae-c751-4912-979e-bf13fa48c9ec"},"vehicle_type_id":"4","last_reported":1748492162,"current_range_meters":20000,"station_id":"ce4bh412rcd13ifvqds0","pricing_plan_id":"cebpf4jnsgd1na2vs0mg"},{"bike_id":"aac9bfdc-4e9a-477e-b684-02fdb0c182eb","system_id":"levelo_inurba_marseille","lat":43.30355,"lon":5.41882,"is_reserved":false,"is_disabled":false,"rental_uris":{"android":"levelo://app?vid=aac9bfdc-4e9a-477e-b684-02fdb0c182eb","ios":"levelo://app?vid=aac9bfdc-4e9a-477e-b684-02fdb0c182eb"},"vehicle_type_id":"4","last_reported":1748492162,"current_range_meters":20000,"station_id":"ce4bhop2rcd13ifvqh7g","pricing_plan_id":"cebpf4jnsgd1na2vs0mg"},{"bike_id":"54a239aa-9b34-4fe4-93c3-041aff5df104","system_id":"levelo_inurba_marseille","lat":43.33027,"lon":5.39041,"is_reserved":false,"is_disabled":false,"rental_uris":{"android":"levelo://app?vid=54a239aa-9b34-4fe4-93c3-041aff5df104","ios":"levelo://app?vid=54a239aa-9b34-4fe4-93c3-041aff5df104"},"vehicle_type_id":"4","last_reported":1748492162,"current_range_meters":20000,"station_id":"ce4bhr92rcd13ifvqhrg","pricing_plan_id":"cebpf4jnsgd1na2vs0mg"},{"bike_id":"12fb6655-991b-4561-99ed-737b85e43a99","system_id":"levelo_inurba_marseille","lat":43.30712,"lon":5.42465,"is_reserved":false,"is_disabled":false,"rental_uris":{"android":"levelo://app?vid=12fb6655-991b-4561-99ed-737b85e43a99","ios":"levelo://app?vid=12fb6655-991b-4561-99ed-737b85e43a99"},"vehicle_type_id":"4","last_reported":1748492162,"current_range_meters":20000,"station_id":"st_cvj6ca6bvosntc0bfgr0","pricing_plan_id":"cebpf4jnsgd1na2vs0mg"},{"bike_id":"6ad41f9b-58e2-4568-9a5e-bc6091e58ecf","system_id":"levelo_inurba_marseille","lat":43.30654,"lon":5.400728,"is_reserved":false,"is_disabled":false,"rental_uris":{"android":"levelo://app?vid=6ad41f9b-58e2-4568-9a5e-bc6091e58ecf","ios":"levelo://app?vid=6ad41f9b-58e2-4568-9a5e-bc6091e58ecf"},"vehicle_type_id":"4","last_reported":1748492162,"current_range_meters":20400,"station_id":"ce4bh112rcd13ifvqda0","pricing_plan_id":"cebpf4jnsgd1na2vs0mg"},{"bike_id":"d6d1ada7-d095-4848-a9c7-71d520f6d868","system_id":"levelo_inurba_marseille","lat":43.299666,"lon":5.384894,"is_reserved":false,"is_disabled":false,"rental_uris":{"android":"levelo://app?vid=d6d1ada7-d095-4848-a9c7-71d520f6d868","ios":"levelo://app?vid=d6d1ada7-d095-4848-a9c7-71d520f6d868"},"vehicle_type_id":"4","last_reported":1748492162,"current_range_meters":20800,"station_id":"","pricing_plan_id":"cebpf4jnsgd1na2vs0mg"},{"bike_id":"f038d5ea-f100-453b-8bd1-d3fcfb459ef3","system_id":"levelo_inurba_marseille","lat":43.309214,"lon":5.401517,"is_reserved":false,"is_disabled":false,"rental_uris":{"android":"levelo://app?vid=f038d5ea-f100-453b-8bd1-d3fcfb459ef3","ios":"levelo://app?vid=f038d5ea-f100-453b-8bd1-d3fcfb459ef3"},"vehicle_type_id":"4","last_reported":1748492162,"current_range_meters":20800,"station_id":"ce4bgvp2rcd13ifvqct0","pricing_plan_id":"cebpf4jnsgd1na2vs0mg"},{"bike_id":"5289106b-22b3-4a79-8cf4-556467ef5b25","system_id":"levelo_inurba_marseille","lat":43.30881,"lon":5.396411,"is_reserved":false,"is_disabled":false,"rental_uris":{"android":"levelo://app?vid=5289106b-22b3-4a79-8cf4-556467ef5b25","ios":"levelo://app?vid=5289106b-22b3-4a79-8cf4-556467ef5b25"},"vehicle_type_id":"4","last_reported":1748492162,"current_range_meters":20800,"station_id":"ce4bh012rcd13ifvqcv0","pricing_plan_id":"cebpf4jnsgd1na2vs0mg"},{"bike_id":"01c3f22c-f0c6-479e-8748-c13dac12a559","system_id":"levelo_inurba_marseille","lat":43.287071,"lon":5.373809,"is_reserved":false,"is_disabled":false,"rental_uris":{"android":"levelo://app?vid=01c3f22c-f0c6-479e-8748-c13dac12a559","ios":"levelo://app?vid=01c3f22c-f0c6-479e-8748-c13dac12a559"},