{"last_updated":1685775968,"ttl":30,"version":"2.2","data":{"bikes":[{"bike_id":"f6f26991-c9de-42d7-a1c0-7024758ccd3a","system_id":"levelo_inurba_marseille","lat":43.312239,"lon":5.368562,"is_reserved":false,"is_disabled":false,"rental_uris":{"android":"levelo://app?vid=f6f26991-c9de-42d7-a1c0-7024758ccd3a","ios":"levelo://app?vid=f6f26991-c9de-42d7-a1c0-7024758ccd3a"},"vehicle_type_id":"4","last_reported":1685775968,"current_range_meters":25200,"station_id":"ce4bgl92rcd13ifvqbq0","pricing_plan_id":"free"},{"bike_id":"d8f0431d-5b9e-4d6d-83c9-47a096a3c0cb","system_id":"levelo_inurba_marseille","lat":43.314811,"lon":5.373104,"is_reserved":false,"is_disabled":false,"rental_uris":{"android":"levelo://app?vid=d8f0431d-5b9e-4d6d-83c9-47a096a3c0cb","ios":"levelo://app?vid=d8f0431d-5b9e-4d6d-83c9-47a096a3c0cb"},"vehicle_type_id":"4","last_reported":1685775968,"current_range_meters":24000,"station_id":"ce4bgt12rcd13ifvqcd0","pricing_plan_id":"free"},{"bike_id":"26a10fca-4d46-460a-bdfc-05868268cbf8","system_id":"levelo_inurba_marseille","lat":43.314811,"lon":5.373104,"is_reserved":false,"is_disabled":false,"rental_uris":{"android":"levelo://app?vid=26a10fca-4d46-460a-bdfc-05868268cbf8","ios":"levelo://app?vid=26a10fca-4d46-460a-bdfc-05868268cbf8"},"vehicle_type_id":"4","last_reported":1685775968,"current_range_meters":4400,"station_id":"ce4bgt12rcd13ifvqcd0","pricing_plan_id":"free"},{"bike_id":"706b4d4c-7eb3-46a9-a8ef-073dc2828ab0","system_id":"levelo_inurba_marseille","lat":43.309,"lon":5.37185,"is_reserved":false,"is_disabled":false,"rental_uris":{"android":"levelo://app?vid=706b4d4c-7eb3-46a9-a8ef-073dc2828ab0","ios":"levelo://app?vid=706b4d4c-7eb3-46a9-a8ef-073dc2828ab0"},"vehicle_type_id":"4","last_reported":1685775968,"current_range_meters":6800,"station_id":"","pricing_plan_id":"free"},{"bike_id":"e5e7ebe9-ccb8-4d4c-80d3-0ccfde231f64","system_id":"levelo_inurba_marseille","lat":43.31564,"lon":5.37322,"is_reserved":false,"is_disabled":false,"rental_uris":{"android":"levelo://app?vid=e5e7ebe9-ccb8-4d4c-80d3-0ccfde231f64","ios":"levelo://app?vid=e5e7ebe9-ccb8-4d4c-80d3-0ccfde231f64"},"vehicle_type_id":"4","last_reported":1685775968,"current_range_meters":22400,"station_id":"","pricing_plan_id":"free"},{"bike_id":"25a8dcab-ece4-42b7-a12a-a0dd7d71635f","system_id":"levelo_inurba_marseille","lat":43.30901,"lon":5.3727,"is_reserved":false,"is_disabled":false,"rental_uris":{"android":"levelo://app?vid=25a8dcab-ece4-42b7-a12a-a0dd7d71635f","ios":"levelo://app?vid=25a8dcab-ece4-42b7-a12a-a0dd7d71635f"},"vehicle_type_id":"4","last_reported":1685775968,"current_range_meters":10800,"station_id":"","pricing_plan_id":"free"},{"bike_id":"890e93ac-4bac-484a-baff-b468d73fa7c8","system_id":"levelo_inurba_marseille","lat":43.31358,"lon":5.37655,"is_reserved":false,"is_disabled":false,"rental_uris":{"android":"levelo://app?vid=890e93ac-4bac-484a-baff-b468d73fa7c8","ios":"levelo://app?vid=890e93ac-4bac-484a-baff-b468d73fa7c8"},"vehicle_type_id":"4","last_reported":1685775968,"current_range_meters":12000,"station_id":"","pricing_plan_id":"free"},{"bike_id":"4d43e892-ec90-4fce-8475-f727fed3851f","system_id":"levelo_inurba_marseille","lat":43.31981,"lon":5.36583,"is_reserved":false,"is_disabled":false,"rental_uris":{"android":"levelo://app?vid=4d43e892-ec90-4fce-8475-f727fed3851f","ios":"levelo://app?vid=4d43e892-ec90-4fce-8475-f727fed3851f"},"vehicle_type_id":"4","last_reported":1685775968,"current_range_meters":6000,"station_id":"","pricing_plan_id":"free"},{"bike_id":"d89c3f39-f44d-4d03-9964-b8797f3c8b23","system_id":"levelo_inurba_marseille","lat":43.305368,"lon":5.367343,"is_reserved":false,"is_disabled":false,"rental_uris":{"android":"levelo://app?vid=d89c3f39-f44d-4d03-9964-b8797f3c8b23","ios":"levelo://app?vid=d89c3f39-f44d-4d03-9964-b8797f3c8b23"},"vehicle_type_id":"4","last_reported":1685775968,"current_range_meters":28000,"station_id":"ce4bgrp2rcd13ifvqc9g","pricing_plan_id":"free"},{"bike_id":"8a574687-bf70-4cba-82c1-1eefc1d2de74","system_id":"levelo_inurba_marseille","lat":43.305368,"lon":5.367343,"is_reserved":false,"is_disabled":false,"rental_uris":{"android":"levelo://app?vid=8a574687-bf70-4cba-82c1-1eefc1d2de74","ios":"levelo://app?vid=8a574687-bf70-4cba-82c1-1eefc1d2de74"},"vehicle_type_id":"4","last_reported":1685775968,"current_range_meters":23200,"station_id":"ce4bgrp2rcd13ifvqc9g","pricing_plan_id":"free"},{"bike_id":"0464a432-1ff8-41b4-8d66-fedf2f3f5011","system_id":"levelo_inurba_marseille","lat":43.305368,"lon":5.367343,"is_reserved":false,"is_disabled":false,"rental_uris":{"android":"levelo://app?vid=0464a432-1ff8-41b4-8d66-fedf2f3f5011","ios":"levelo://app?vid=0464a432-1ff8-41b4-8d66-fedf2f3f5011"},"vehicle_type_id":"4","last_reported":1685775968,"current_range_meters":22000,"station_id":"ce4bgrp2rcd13ifvqc9g","pricing_plan_id":"free"},{"bike_id":"65554d33-b508-436a-aac9-544974e5f617","system_id":"levelo_inurba_marseille","lat":43.311175,"lon":5.377713,"is_reserved":false,"is_disabled":false,"rental_uris":{"android":"levelo://app?vid=65554d33-b508-436a-aac9-544974e5f617","ios":"levelo://app?vid=65554d33-b508-436a-aac9-544974e5f617"},"vehicle_type_id":"4","last_reported":1685775968,"current_range_meters":22400,"station_id":"","pricing_plan_id":"free"},{"bike_id":"9185a4a0-201d-445c-88c1-b5a5662b0b22","system_id":"levelo_inurba_marseille","lat":43.311125,"lon":5.377624,"is_reserved":false,"is_disabled":false,"rental_uris":{"android":"levelo://app?vid=9185a4a0-201d-445c-88c1-b5a5662b0b22","ios":"levelo://app?vid=9185a4a0-201d-445c-88c1-b5a5662b0b22"},"vehicle_type_id":"4","last_reported":1685775968,"current_range_meters":17200,"station_id":"ce4bgt92rcd13ifvqcg0","pricing_plan_id":"free"},{"bike_id":"2720c82b-8f58-4e14-b6c7-3659ed4d53b3","system_id":"levelo_inurba_marseille","lat":43.3032,"lon":5.36912,"is_reserved":false,"is_disabled":false,"rental_uris":{"android":"levelo://app?vid=2720c82b-8f58-4e14-b6c7-3659ed4d53b3","ios":"levelo://app?vid=2720c82b-8f58-4e14-b6c7-3659ed4d53b3"},"vehicle_type_id":"4","last_reported":1685775968,"current_range_meters":0,"station_id":"ce4bgqh2rcd13ifvqc5g","pricing_plan_id":"free"},{"bike_id":"e677b7dd-3e36-4a90-a812-c2f136d6340b","system_id":"levelo_inurba_marseille","lat":43.303046,"lon":5.368981,"is_reserved":false,"is_disabled":false,"rental_uris":{"android":"levelo://app?vid=e677b7dd-3e36-4a90-a812-c2f136d6340b","ios":"levelo://app?vid=e677b7dd-3e36-4a90-a812-c2f136d6340b"},"vehicle_type_id":"4","last_reported":1685775968,"current_range_meters":30800,"station_id":"ce4bgqh2rcd13ifvqc5g","pricing_plan_id":"free"},{"bike_id":"275b9781-71e8-4428-a75a-6359edbe9eb0","system_id":"levelo_inurba_marseille","lat":43.303046,"lon":5.368981,"is_reserved":false,"is_disabled":false,"rental_uris":{"android":"levelo://app?vid=275b9781-71e8-4428-a75a-6359edbe9eb0","ios":"levelo://app?vid=275b9781-71e8-4428-a75a-6359edbe9eb0"},"vehicle_type_id":"4","last_reported":1685775968,"current_range_meters":26000,"station_id":"ce4bgqh2rcd13ifvqc5g","pricing_plan_id":"free"},{"bike_id":"fb0501dc-44ad-44c3-a3d1-a124b583b9e2","system_id":"levelo_inurba_marseille","lat":43.30464,"lon":5.37895,"is_reserved":false,"is_disabled":false,"rental_uris":{"android":"levelo://app?vid=fb0501dc-44ad-44c3-a3d1-a124b583b9e2","ios":"levelo://app?vid=fb0501dc-44ad-44c3-a3d1-a124b583b9e2"},"vehicle_type_id":"4","last_reported":1685775968,"current_range_meters":28800,"station_id":"ce4bgup2rcd13ifvqcn0","pricing_plan_id":"free"},{"bike_id":"029ad60f-00fc-4664-8e8d-ccb9cf4eb9ac","system_id":"levelo_inurba_marseille","lat":43.30468,"lon":5.37904,"is_reserved":false,"is_disabled":false,"rental_uris":{"android":"levelo://app?vid=029ad60f-00fc-4664-8e8d-ccb9cf4eb9ac","ios":"levelo://app?vid=029ad60f-00fc-4664-8e8d-ccb9cf4eb9ac"},"vehicle_type_id":"4","last_reported":1685775968,"current_range_meters":25600,"station_id":"ce4bgup2rcd13ifvqcn0","pricing_plan_id":"free"},{"bike_id":"2528c877-570b-429f-a573-a94c79a8b232","system_id":"levelo_inurba_marseille","lat":43.30463,"lon":5.37898,"is_reserved":false,"is_disabled":false,"rental_uris":{"android":"levelo://app?vid=2528c877-570b-429f-a573-a94c79a8b232","ios":"levelo://app?vid=2528c877-570b-429f-a573-a94c79a8b232"},"vehicle_type_id":"4","last_reported":1685775968,"current_range_meters":31200,"station_id":"ce4bgup2rcd13ifvqcn0","pricing_plan_id":"free"},{"bike_id":"1fd47272-f3e6-45a5-900e-7c36bdee5aa4","system_id":"levelo_inurba_marseille","lat":43.30465,"lon":5.37904,"is_reserved":false,"is_disabled":false,"rental_uris":{"android":"levelo://app?vid=1fd47272-f3e6-45a5-900e-7c36bdee5aa4","ios":"levelo://app?vid=1fd47272-f3e6-45a5-900e-7c36bdee5aa4"},"vehicle_type_id":"4","last_reported":1685775968,"current_range_meters":26000,"station_id":"ce4bgup2rcd13ifvqcn0","pricing_plan_id":"free"},{"bike_id":"cd84a9c0-c682-4b60-b19c-77443aff6570","system_id":"levelo_inurba_marseille","lat":43.304606,"lon":5.379026,"is_reserved":false,"is_disabled":false,"rental_uris":{"android":"levelo://app?vid=cd84a9c0-c682-4b60-b19c-77443aff6570","ios":"levelo://app?vid=cd84a9c0-c682-4b60-b19c-77443aff6570"},"vehicle_type_id":"4","last_reported":1685775968,"current_range_meters":11600,"station_id":"ce4bgup2rcd13ifvqcn0","pricing_plan_id":"free"},{"bike_id":"d0d2f117-95b9-484e-9bde-2f761bb31f16","system_id":"levelo_inurba_marseille","lat":43.3046,"lon":5.37899,"is_reserved":false,"is_disabled":false,"rental_uris":{"android":"levelo://app?vid=d0d2f117-95b9-484e-9bde-2f761bb31f16","ios":"levelo://app?vid=d0d2f117-95b9-484e-9bde-2f761bb31f16"},"vehicle_type_id":"4","last_reported":1685775968,"current_range_meters":30800,"station_id":"ce4bgup2rcd13ifvqcn0","pricing_plan_id":"free"},{"bike_id":"07aed1aa-2f58-4b8a-b1d1-ae93179bc64e","system_id":"levelo_inurba_marseille","lat":43.304606,"lon":5.379026,"is_reserved":false,"is_disabled":false,"rental_uris":{"android":"levelo://app?vid=07aed1aa-2f58-4b8a-b1d1-ae93179bc64e","ios":"levelo://app?vid=07aed1aa-2f58-4b8a-b1d1-ae93179bc64e"},"vehicle_type_id":"4","last_reported":1685775968,"current_range_meters":28000,"station_id":"ce4bgup2rcd13ifvqcn0","pricing_plan_id":"free"},{"bike_id":"617b8d55-071c-4418-8f7c-624077da0f8f","system_id":"levelo_inurba_marseille","lat":43.30451,"lon":5.37892,"is_reserved":false,"is_disabled":false,"rental_uris":{"android":"levelo://app?vid=617b8d55-071c-4418-8f7c-624077da0f8f","ios":"levelo://app?vid=617b8d55-071c-4418-8f7c-624077da0f8f"},"vehicle_type_id":"4","last_reported":1685775968,"current_range_meters":25600,"station_id":"ce4bgup2rcd13ifvqcn0","pricing_plan_id":"free"},{"bike_id":"4c6018dc-cd43-4c35-82fa-f456180b5edc","system_id":"levelo_inurba_marseille","lat":43.304606,"lon":5.379026,"is_reserved":false,"is_disabled":false,"rental_uris":{"android":"levelo://app?vid=4c6018dc-cd43-4c35-82fa-f456180b5edc","ios":"levelo://app?vid=4c6018dc-cd43-4c35-82fa-f456180b5edc"},"vehicle_type_id":"4","last_reported":1685775968,"current_range_meters":28400,"station_id":"ce4bgup2rcd13ifvqcn0","pricing_plan_id":"free"},{"bike_id":"46ca6b7e-2b8f-4eae-874b-7008be599951","system_id":"levelo_inurba_marseille","lat":43.30455,"lon":5.37898,"is_reserved":false,"is_disabled":false,"rental_uris":{"android":"levelo://app?vid=46ca6b7e-2b8f-4eae-874b-7008be599951","ios":"levelo://app?vid=46ca6b7e-2b8f-4eae-874b-7008be599951"},"vehicle_type_id":"4","last_reported":1685775968,"current_range_meters":24400,"station_id":"ce4bgup2rcd13ifvqcn0","pricing_plan_id":"free"},{"bike_id":"8c3cbb59-cd72-4768-8a58-eb62ab11aad1","system_id":"levelo_inurba_marseille","lat":43.319935,"lon":5.381699,"is_reserved":false,"is_disabled":false,"rental_uris":{"android":"levelo://app?vid=8c3cbb59-cd72-4768-8a58-eb62ab11aad1","ios":"levelo://app?vid=8c3cbb59-cd72-4768-8a58-eb62ab11aad1"},"vehicle_type_id":"4","last_reported":1685775968,"current_range_meters":30000,"station_id":"ce4bhr12rcd13ifvqhpg","pricing_plan_id":"free"},{"bike_id":"b6af2cee-22c0-4696-a3cc-c5ab5878f58f","system_id":"levelo_inurba_marseille","lat":43.319935,"lon":5.381699,"is_reserved":false,"is_disabled":false,"rental_uris":{"android":"levelo://app?vid=b6af2cee-22c0-4696-a3cc-c5ab5878f58f","ios":"levelo://app?vid=b6af2cee-22c0-4696-a3cc-c5ab5878f58f"},"vehicle_type_id":"4","last_reported":1685775968,"current_range_meters":28800,"station_id":"ce4bhr12rcd13ifvqhpg","pricing_plan_id":"free"},{"bike_id":"05e1af9b-f1ee-43fb-8b93-6d882c6be5fe","system_id":"levelo_inurba_marseille","lat":43.313571,"lon":5.384829,"is_reserved":false,"is_disabled":false,"rental_uris":{"android":"levelo://app?vid=05e1af9b-f1ee-43fb-8b93-6d882c6be5fe","ios":"levelo://app?vid=05e1af9b-f1ee-43fb-8b93-6d882c6be5fe"},"vehicle_type_id":"4","last_reported":1685775968,"current_range_meters":31200,"station_id":"ce4bgt92rcd13ifvqcf0","pricing_plan_id":"free"},{"bike_id":"8378b03b-6ed0-41b1-8fb0-aadd3fc16f96","system_id":"levelo_inurba_marseille","lat":43.313571,"lon":5.384829,"is_reserved":false,"is_disabled":false,"rental_uris":{"android":"levelo://app?vid=8378b03b-6ed0-41b1-8fb0-aadd3fc16f96","ios":"levelo://app?vid=8378b03b-6ed0-41b1-8fb0-aadd3fc16f96"},"vehicle_type_id":"4","last_reported":1685775968,"current_range_meters":31200,"station_id":"ce4bgt92rcd13ifvqcf0","pricing_plan_id":"free"},{"bike_id":"548c349e-be6a-4430-b129-e3909ffabcea","system_id":"levelo_inurba_marseille","lat":43.313571,"lon":5.384829,"is_reserved":false,"is_disabled":false,"rental_uris":{"android":"levelo://app?vid=548c349e-be6a-4430-b129-e3909ffabcea","ios":"levelo://app?vid=548c349e-be6a-4430-b129-e3909ffabcea"},"vehicle_type_id":"4","last_reported":1685775968,"current_range_meters":29200,"station_id":"ce4bgt92rcd13ifvqcf0","pricing_plan_id":"free"},{"bike_id":"d1abcb47-b00a-4044-94d5-8d3b71645ada","system_id":"levelo_inurba_marseille","lat":43.31368,"lon":5.38512,"is_reserved":false,"is_disabled":false,"rental_uris":{"android":"levelo://app?vid=d1abcb47-b00a-4044-94d5-8d3b71645ada","ios":"levelo://app?vid=d1abcb47-b00a-4044-94d5-8d3b71645ada"},"vehicle_type_id":"4","last_reported":1685775968,"current_range_meters":4800,"station_id":"","pricing_plan_id":"free"},{"bike_id":"281131fe-02db-4f9e-a68a-7fa6a29d79ec","system_id":"levelo_inurba_marseille","lat":43.299222,"lon":5.365554,"is_reserved":false,"is_disabled":false,"rental_uris":{"android":"levelo://app?vid=281131fe-02db-4f9e-a68a-7fa6a29d79ec","ios":"levelo://app?vid=281131fe-02db-4f9e-a68a-7fa6a29d79ec"},"vehicle_type_id":"4","last_reported":1685775968,"current_range_meters":30400,"station_id":"ce4bgm92rcd13ifvqbr0","pricing_plan_id":"free"},{"bike_id":"42e71d03-66bf-4303-87bc-d6e20f3751e2","system_id":"levelo_inurba_marseille","lat":43.29966,"lon":5.37156,"is_reserved":false,"is_disabled":false,"rental_uris":{"android":"levelo://app?vid=42e71d03-66bf-4303-87bc-d6e20f3751e2","ios":"levelo://app?vid=42e71d03-66bf-4303-87bc-d6e20f3751e2"},"vehicle_type_id":"4","last_reported":1685775968,"current_range_meters":6000,"station_id":"","pricing_plan_id":"free"},{"bike_id":"932f29d2-e9ed-4cf6-aa15-e7133c0aa201","system_id":"levelo_inurba_marseille","lat":43.298433,"lon":5.362774,"is_reserved":false,"is_disabled":false,"rental_uris":{"android":"levelo://app?vid=932f29d2-e9ed-4cf6-aa15-e7133c0aa201","ios":"levelo://app?vid=932f29d2-e9ed-4cf6-aa15-e7133c0aa201"},"vehicle_type_id":"4","last_reported":1685775968,"current_range_meters":20000,"station_id":"ce4bgpp2rcd13ifvqc3g","pricing_plan_id":"free"},{"bike_id":"c2cfb580-9c22-4fac-abdf-17ed60e5d711","system_id":"levelo_inurba_marseille","lat":43.298433,"lon":5.362774,"is_reserved":false,"is_disabled":false,"rental_uris":{"android":"levelo://app?vid=c2cfb580-9c22-4fac-abdf-17ed60e5d711","ios":"levelo://app?vid=c2cfb580-9c22-4fac-abdf-17ed60e5d711"},"vehicle_type_id":"4","last_reported":1685775968,"current_range_meters":29600,"station_id":"ce4bgpp2rcd13ifvqc3g","pricing_plan_id":"free"},{"bike_id":"34922b76-9abe-4f13-8ea2-0b97b881a34d","system_id":"levelo_inurba_marseille","lat":43.298433,"lon":5.362774,"is_reserved":false,"is_disabled":false,"rental_uris":{"android":"levelo://app?vid=34922b76-9abe-4f13-8ea2-0b97b881a34d","ios":"levelo://app?vid=34922b76-9abe-4f13-8ea2-0b97b881a34d"},"vehicle_type_id":"4","last_reported":1685775968,"current_range_meters":24400,"station_id":"ce4bgpp2rcd13ifvqc3g","pricing_plan_id":"free"},{"bike_id":"81f8ecf2-fabd-4efd-9941-ca0ad2ecf486","system_id":"levelo_inurba_marseille","lat":43.311722,"lon":5.387247,"is_reserved":false,"is_disabled":false,"rental_uris":{"android":"levelo://app?vid=81f8ecf2-fabd-4efd-9941-ca0ad2ecf486","ios":"levelo://app?vid=81f8ecf2-fabd-4efd-9941-ca0ad2ecf486"},"vehicle_type_id":"4","last_reported":1685775968,"current_range_meters":24000,"station_id":"ce4bgv12rcd13ifvqcp0","pricing_plan_id":"free"},{"bike_id":"81549507-0ff3-4f95-9c35-6a84cf0a1deb","system_id":"levelo_inurba_marseille","lat":43.29773,"lon":5.37114,"is_reserved":false,"is_disabled":false,"rental_uris":{"android":"levelo://app?vid=81549507-0ff3-4f95-9c35-6a84cf0a1deb","ios":"levelo://app?vid=81549507-0ff3-4f95-9c35-6a84cf0a1deb"},"vehicle_type_id":"4","last_reported":1685775968,"current_range_meters":31200,"station_id":"ce4bgop2rcd13ifvqc1g","pricing_plan_id":"free"},{"bike_id":"048d6a5e-97c9-4f67-bf89-16ecba2081b0","system_id":"levelo_inurba_marseille","lat":43.328371,"lon":5.366909,"is_reserved":false,"is_disabled":false,"rental_uris":{"android":"levelo://app?vid=048d6a5e-97c9-4f67-bf89-16ecba2081b0","ios":"levelo://app?vid=048d6a5e-97c9-4f67-bf89-16ecba2081b0"},"vehicle_type_id":"4","last_reported":1685775968,"current_range_meters":20400,"station_id":"ce4bhs92rcd13ifvqi0g","pricing_plan_id":"free"},{"bike_id":"44461937-e383-441a-8ed9-77517a1c8c2f","system_id":"levelo_inurba_marseille","lat":43.328371,"lon":5.366909,"is_reserved":false,"is_disabled":false,"rental_uris":{"android":"levelo://app?vid=44461937-e383-441a-8ed9-77517a1c8c2f","ios":"levelo://app?vid=44461937-e383-441a-8ed9-77517a1c8c2f"},"vehicle_type_id":"4","last_reported":1685775968,"current_range_meters":18400,"station_id":"ce4bhs92rcd13ifvqi0g","pricing_plan_id":"free"},{"bike_id":"6dab6eca-b352-49ea-add2-026ea7782376","system_id":"levelo_inurba_marseille","lat":43.328371,"lon":5.366909,"is_reserved":false,"is_disabled":false,"rental_uris":{"android":"levelo://app?vid=6dab6eca-b352-49ea-add2-026ea7782376","ios":"levelo://app?vid=6dab6eca-b352-49ea-add2-026ea7782376"},"vehicle_type_id":"4","last_reported":1685775968,"current_range_meters":30800,"station_id":"ce4bhs92rcd13ifvqi0g","pricing_plan_id":"free"},{"bike_id":"e7b88331-d377-4ae0-87d5-cda731a35544","system_id":"levelo_inurba_marseille","lat":43.328371,"lon":5.366909,"is_reserved":false,"is_disabled":false,"rental_uris":{"android":"levelo://app?vid=e7b88331-d377-4ae0-87d5-cda731a35544","ios":"levelo://app?vid=e7b88331-d377-4ae0-87d5-cda731a35544"},"vehicle_type_id":"4","last_reported":1685775968,"current_range_meters":21600,"station_id":"ce4bhs92rcd13ifvqi0g","pricing_plan_id":"free"},{"bike_id":"107e5e32-53a1-4f76-a566-545d00911b3c","system_id":"levelo_inurba_marseille","lat":43.29716,"lon":5.36604,"is_reserved":false,"is_disabled":false,"rental_uris":{"android":"levelo://app?vid=107e5e32-53a1-4f76-a566-545d00911b3c","ios":"levelo://app?vid=107e5e32-53a1-4f76-a566-545d00911b3c"},"vehicle_type_id":"4","last_reported":1685775968,"current_range_meters":15200,"station_id":"","pricing_plan_id":"free"},{"bike_id":"3df85bc5-dfcb-4777-95e4-83da0b168eb3","system_id":"levelo_inurba_marseille","lat":43.328371,"lon":5.366909,"is_reserved":false,"is_disabled":false,"rental_uris":{"android":"levelo://app?vid=3df85bc5-dfcb-4777-95e4-83da0b168eb3","ios":"levelo://app?vid=3df85bc5-dfcb-4777-95e4-83da0b168eb3"},"vehicle_type_id":"4","last_reported":1685775968,"current_range_meters":28400,"station_id":"ce4bhs92rcd13ifvqi0g","pricing_plan_id":"free"},{"bike_id":"73358a4c-93c0-4eda-a88d-776a673cd973","system_id":"levelo_inurba_marseille","lat":43.328371,"lon":5.366909,"is_reserved":false,"is_disabled":false,"rental_uris":{"android":"levelo://app?vid=73358a4c-93c0-4eda-a88d-776a673cd973","ios":"levelo://app?vid=73358a4c-93c0-4eda-a88d-776a673cd973"},"vehicle_type_id":"4","last_reported":1685775968,"current_range_meters":28800,"station_id":"ce4bhs92rcd13ifvqi0g","pricing_plan_id":"free"},{"bike_id":"4a86433f-b0d1-402a-834e-edd8632e2f21","system_id":"levelo_inurba_marseille","lat":43.296906,"lon":5.365879,"is_reserved":false,"is_disabled":false,"rental_uris":{"android":"levelo://app?vid=4a86433f-b0d1-402a-834e-edd8632e2f21","ios":"levelo://app?vid=4a86433f-b0d1-402a-834e-edd8632e2f21"},"vehicle_type_id":"4","last_reported":1685775968,"current_range_meters":29200,"station_id":"","pricing_plan_id":"free"},{"bike_id":"a0305e55-ea6a-42c4-b178-71343d216cef","system_id":"levelo_inurba_marseille","lat":43.2968,"lon":5.37291,"is_reserved":false,"is_disabled":false,"rental_uris":{"android":"levelo://app?vid=a0305e55-ea6a-42c4-b178-71343d216cef","ios":"levelo://app?vid=a0305e55-ea6a-42c4-b178-71343d216cef"},"vehicle_type_id":"4","last_reported":1685775968,"current_range_meters":29600,"station_id":"ce4bgk12rcd13ifvqbj0","pricing_plan_id":"free"},{"bike_id":"91915bb8-c036-4a9a-91aa-6fa41c8c88c4","system_id":"levelo_inurba_marseille","lat":43.317557,"lon":5.390173,"is_reserved":false,"is_disabled":false,"rental_uris":{"android":"levelo://app?vid=91915bb8-c036-4a9a-91aa-6fa41c8c88c4","ios":"levelo://app?vid=91915bb8-c036-4a9a-91aa-6fa41c8c88c4"},"vehicle_type_id":"4","last_reported":1685775968,"current_range_meters":20000,"station_id":"ce4bhqp2rcd13ifvqhng","pricing_plan_id":"free"},{"bike_id":"8142fb10-e6f0-4cbd-a950-3089a659608f","system_id":"levelo_inurba_marseille","lat":43.317557,"lon":5.390173,"is_reserved":false,"is_disabled":false,"rental_uris":{"android":"levelo://app?vid=8142fb10-e6f0-4cbd-a950-3089a659608f","ios":"levelo://app?vid=8142fb10-e6f0-4cbd-a950-3089a659608f"},"vehicle_type_id":"4","last_reported":1685775968,"current_range_meters":17600,"station_id":"ce4bhqp2rcd13ifvqhng","pricing_plan_id":"free"},{"bike_id":"89f4aedc-771e-4f66-8d72-d66e26bdde90","system_id":"levelo_inurba_marseille","lat":43.317557,"lon":5.390173,"is_reserved":false,"is_disabled":false,"rental_uris":{"android":"levelo://app?vid=89f4aedc-771e-4f66-8d72-d66e26bdde90","ios":"levelo://app?vid=89f4aedc-771e-4f66-8d72-d66e26bdde90"},"vehicle_type_id":"4","last_reported":1685775968,"current_range_meters":30000,"station_id":"ce4bhqp2rcd13ifvqhng","pricing_plan_id":"free"},{"bike_id":"1d532ab5-38fb-49ef-97e2-04eb3e3d3a7d","system_id":"levelo_inurba_marseille","lat":43.317557,"lon":5.390173,"is_reserved":false,"is_disabled":false,"rental_uris":{"android":"levelo://app?vid=1d532ab5-38fb-49ef-97e2-04eb3e3d3a7d","ios":"levelo://app?vid=1d532ab5-38fb-49ef-97e2-04eb3e3d3a7d"},"vehicle_type_id":"4","last_reported":1685775968,"current_range_meters":30400,"station_id":"ce4bhqp2rcd13ifvqhng","pricing_plan_id":"free"},{"bike_id":"07974fb4-088f-4350-8966-67a25abd9cf2","system_id":"levelo_inurba_marseille","lat":43.317557,"lon":5.390173,"is_reserved":false,"is_disabled":false,"rental_uris":{"android":"levelo://app?vid=07974fb4-088f-4350-8966-67a25abd9cf2","ios":"levelo://app?vid=07974fb4-088f-4350-8966-67a25abd9cf2"},"vehicle_type_id":"4","last_reported":1685775968,"current_range_meters":0,"station_id":"ce4bhqp2rcd13ifvqhng","pricing_plan_id":"free"},{"bike_id":"6f4ab275-515d-4942-bd81-693c13f10cf0","system_id":"levelo_inurba_marseille","lat":43.317557,"lon":5.390173,"is_reserved":false,"is_disabled":false,"rental_uris":{"android":"levelo://app?vid=6f4ab275-515d-4942-bd81-693c13f10cf0","ios":"levelo://app?vid=6f4ab275-515d-4942-bd81-693c13f10cf0"},"vehicle_type_id":"4","last_reported":1685775968,"current_range_meters":21600,"station_id":"ce4bhqp2rcd13ifvqhng","pricing_plan_id":"free"},{"bike_id":"6fc0cede-d279-4db8-9907-0a390206ab63","system_id":"levelo_inurba_marseille","lat":43.298037,"lon":5.381066,"is_reserved":false,"is_disabled":false,"rental_uris":{"android":"levelo://app?vid=6fc0cede-d279-4db8-9907-0a390206ab63","ios":"levelo://app?vid=6fc0cede-d279-4db8-9907-0a390206ab63"},"vehicle_type_id":"4","last_reported":1685775968,"current_range_meters":8400,"station_id":"ce4bgip2rcd13ifvqbb0","pricing_plan_id":"free"},{"bike_id":"b350d1e3-836b-4509-b71e-f76642fc9547","system_id":"levelo_inurba_marseille","lat":43.30438,"lon":5.38893,"is_reserved":false,"is_disabled":false,"rental_uris":{"android":"levelo://app?vid=b350d1e3-836b-4509-b71e-f76642fc9547","ios":"levelo://app?vid=b350d1e3-836b-4509-b71e-f76642fc9547"},"vehicle_type_id":"4","last_reported":1685775968,"current_range_meters":31600,"station_id":"ce4bgk12rcd13ifvqbi0","pricing_plan_id":"free"},{"bike_id":"dc673e84-7dd6-4f84-a893-75e35d31333b","system_id":"levelo_inurba_marseille","lat":43.298037,"lon":5.381066,"is_reserved":false,"is_disabled":false,"rental_uris":{"android":"levelo://app?vid=dc673e84-7dd6-4f84-a893-75e35d31333b","ios":"levelo://app?vid=dc673e84-7dd6-4f84-a893-75e35d31333b"},"vehicle_type_id":"4","last_reported":1685775968,"current_range_meters":19600,"station_id":"ce4bgip2rcd13ifvqbb0","pricing_plan_id":"free"},{"bike_id":"135e3f8d-0086-4ea4-93ce-51d286c1bc48","system_id":"levelo_inurba_marseille","lat":43.296263,"lon":5.377094,"is_reserved":false,"is_disabled":false,"rental_uris":{"android":"levelo://app?vid=135e3f8d-0086-4ea4-93ce-51d286c1bc48","ios":"levelo://app?vid=135e3f8d-0086-4ea4-93ce-51d286c1bc48"},"vehicle_type_id":"4","last_reported":1685775968,"current_range_meters":30000,"station_id":"ce4bgi92rcd13ifvqb90","pricing_plan_id":"free"},{"bike_id":"ebb1fde3-4e8e-412e-ad6a-6083e1a84b66","system_id":"levelo_inurba_marseille","lat":43.30435,"lon":5.38892,"is_reserved":false,"is_disabled":false,"rental_uris":{"android":"levelo://app?vid=ebb1fde3-4e8e-412e-ad6a-6083e1a84b66","ios":"levelo://app?vid=ebb1fde3-4e8e-412e-ad6a-6083e1a84b66"},"vehicle_type_id":"4","last_reported":1685775968,"current_range_meters":31200,"station_id":"ce4bgk12rcd13ifvqbi0","pricing_plan_id":"free"},{"bike_id":"67a4fa49-0676-4611-ba8f-e0a9dfa6bffd","system_id":"levelo_inurba_marseille","lat":43.30435,"lon":5.38893,"is_reserved":false,"is_disabled":false,"rental_uris":{"android":"levelo://app?vid=67a4fa49-0676-4611-ba8f-e0a9dfa6bffd","ios":"levelo://app?vid=67a4fa49-0676-4611-ba8f-e0a9dfa6bffd"},"vehicle_type_id":"4","last_reported":1685775968,"current_range_meters":30400,"station_id":"ce4bgk12rcd13ifvqbi0","pricing_plan_id":"free"},{"bike_id":"6561a2d2-7512-461a-8312-a5e927f0c0d4","system_id":"levelo_inurba_marseille","lat":43.295748,"lon":5.37522,"is_reserved":false,"is_disabled":false,"rental_uris":{"android":"levelo://app?vid=6561a2d2-7512-461a-8312-a5e927f0c0d4","ios":"levelo://app?vid=6561a2d2-7512-461a-8312-a5e927f0c0d4"},"vehicle_type_id":"4","last_reported":1685775968,"current_range_meters":30400,"station_id":"ce4bgh92rcd13ifvqb50","pricing_plan_id":"free"},{"bike_id":"97ed55f3-1d2a-459b-ad3b-57edeee56ed2","system_id":"levelo_inurba_marseille","lat":43.299707,"lon":5.384859,"is_reserved":false,"is_disabled":false,"rental_uris":{"android":"levelo://app?vid=97ed55f3-1d2a-459b-ad3b-57edeee56ed2","ios":"levelo://app?vid=97ed55f3-1d2a-459b-ad3b-57edeee56ed2"},"vehicle_type_id":"4","last_reported":1685775968,"current_range_meters":22800,"station_id":"ce4bgj92rcd13ifvqbd0","pricing_plan_id":"free"},{"bike_id":"be281a94-0661-487c-8cbb-bcc0abd17d38","system_id":"levelo_inurba_marseille","lat":43.295279,"lon":5.375048,"is_reserved":false,"is_disabled":false,"rental_uris":{"android":"levelo://app?vid=be281a94-0661-487c-8cbb-bcc0abd17d38","ios":"levelo://app?vid=be281a94-0661-487c-8cbb-bcc0abd17d38"},"vehicle_type_id":"4","last_reported":1685775968,"current_range_meters":19600,"station_id":"ce4bgkp2rcd13ifvqbmg","pricing_plan_id":"free"},{"bike_id":"a1bcd91a-094d-4ea6-b998-61b0e4964f00","system_id":"levelo_inurba_marseille","lat":43.295279,"lon":5.375048,"is_reserved":false,"is_disabled":false,"rental_uris":{"android":"levelo://app?vid=a1bcd91a-094d-4ea6-b998-61b0e4964f00","ios":"levelo://app?vid=a1bcd91a-094d-4ea6-b998-61b0e4964f00"},"vehicle_type_id":"4","last_reported":1685775968,"current_range_meters":12000,"station_id":"ce4bgkp2rcd13ifvqbmg","pricing_plan_id":"free"},{"bike_id":"c919e05a-02ce-44bc-8c3c-41cd7942cf68","system_id":"levelo_inurba_marseille","lat":43.299717,"lon":5.384845,"is_reserved":false,"is_disabled":false,"rental_uris":{"android":"levelo://app?vid=c919e05a-02ce-44bc-8c3c-41cd7942cf68","ios":"levelo://app?vid=c919e05a-02ce-44bc-8c3c-41cd7942cf68"},"vehicle_type_id":"4","last_reported":1685775968,"current_range_meters":27200,"station_id":"ce4bgj92rcd13ifvqbd0","pricing_plan_id":"free"},{"bike_id":"62ddb48e-265f-4629-b6fc-70ac1cddb70a","system_id":"levelo_inurba_marseille","lat":43.32367,"lon":5.388836,"is_reserved":false,"is_disabled":false,"rental_uris":{"android":"levelo://app?vid=62ddb48e-265f-4629-b6fc-70ac1cddb70a","ios":"levelo://app?vid=62ddb48e-265f-4629-b6fc-70ac1cddb70a"},"vehicle_type_id":"4","last_reported":1685775968,"current_range_meters":30800,"station_id":"ce4bhqp2rcd13ifvqhog","pricing_plan_id":"free"},{"bike_id":"d321ec47-f166-4381-afa6-7bf9afc7eee8","system_id":"levelo_inurba_marseille","lat":43.32367,"lon":5.388836,"is_reserved":false,"is_disabled":false,"rental_uris":{"android":"levelo://app?vid=d321ec47-f166-4381-afa6-7bf9afc7eee8","ios":"levelo://app?vid=d321ec47-f166-4381-afa6-7bf9afc7eee8"},"vehicle_type_id":"4","last_reported":1685775968,"current_range_meters":26400,"station_id":"ce4bhqp2rcd13ifvqhog","pricing_plan_id":"free"},{"bike_id":"90bbfd03-d00c-4933-b38d-99b5da852988","system_id":"levelo_inurba_marseille","lat":43.32367,"lon":5.388836,"is_reserved":false,"is_disabled":false,"rental_uris":{"android":"levelo://app?vid=90bbfd03-d00c-4933-b38d-99b5da852988","ios":"levelo://app?vid=90bbfd03-d00c-4933-b38d-99b5da852988"},"vehicle_type_id":"4","last_reported":1685775968,"current_range_meters":30800,"station_id":"ce4bhqp2rcd13ifvqhog","pricing_plan_id":"free"},{"bike_id":"d9b3487e-4661-4b3b-a198-2212de300ca1","system_id":"levelo_inurba_marseille","lat":43.32363,"lon":5.38882,"is_reserved":false,"is_disabled":false,"rental_uris":{"android":"levelo://app?vid=d9b3487e-4661-4b3b-a198-2212de300ca1","ios":"levelo://app?vid=d9b3487e-4661-4b3b-a198-2212de300ca1"},"vehicle_type_id":"4","last_reported":1685775968,"current_range_meters":29600,"station_id":"ce4bhqp2rcd13ifvqhog","pricing_plan_id":"free"},{"bike_id":"2bf9f571-8ae5-431e-aedf-1c815125cefd","system_id":"levelo_inurba_marseille","lat":43.32367,"lon":5.388836,"is_reserved":false,"is_disabled":false,"rental_uris":{"android":"levelo://app?vid=2bf9f571-8ae5-431e-aedf-1c815125cefd","ios":"levelo://app?vid=2bf9f571-8ae5-431e-aedf-1c815125cefd"},"vehicle_type_id":"4","last_reported":1685775968,"current_range_meters":22800,"station_id":"ce4bhqp2rcd13ifvqhog","pricing_plan_id":"free"},{"bike_id":"0c7ce3fd-9fe0-458e-9687-20b832dfee04","system_id":"levelo_inurba_marseille","lat":43.32367,"lon":5.388836,"is_reserved":false,"is_disabled":false,"rental_uris":{"android":"levelo://app?vid=0c7ce3fd-9fe0-458e-9687-20b832dfee04","ios":"levelo://app?vid=0c7ce3fd-9fe0-458e-9687-20b832dfee04"},"vehicle_type_id":"4","last_reported":1685775968,"current_range_meters":31200,"station_id":"ce4bhqp2rcd13ifvqhog","pricing_plan_id":"free"},{"bike_id":"eb500a68-299c-4bfe-996b-c50aa893b955","system_id":"levelo_inurba_marseille","lat":43.32367,"lon":5.388836,"is_reserved":false,"is_disabled":false,"rental_uris":{"android":"levelo://app?vid=eb500a68-299c-4bfe-996b-c50aa893b955","ios":"levelo://app?vid=eb500a68-299c-4bfe-996b-c50aa893b955"},"vehicle_type_id":"4","last_reported":1685775968,"current_range_meters":31200,"station_id":"ce4bhqp2rcd13ifvqhog","pricing_plan_id":"free"},{"bike_id":"c07fe0f2-772a-435f-9629-10108908cbeb","system_id":"levelo_inurba_marseille","lat":43.32367,"lon":5.388836,"is_reserved":false,"is_disabled":false,"rental_uris":{"android":"levelo://app?vid=c07fe0f2-772a-435f-9629-10108908cbeb","ios":"levelo://app?vid=c07fe0f2-772a-435f-9629-10108908cbeb"},"vehicle_type_id":"4","last_reported":1685775968,"current_range_meters":28800,"station_id":"ce4bhqp2rcd13ifvqhog","pricing_plan_id":"free"},{"bike_id":"89de6b20-c43a-4dd8-89d0-68075829fe85","system_id":"levelo_inurba_marseille","lat":43.32364,"lon":5.38895,"is_reserved":false,"is_disabled":false,"rental_uris":{"android":"levelo://app?vid=89de6b20-c43a-4dd8-89d0-68075829fe85","ios":"levelo://app?vid=89de6b20-c43a-4dd8-89d0-68075829fe85"},"vehicle_type_id":"4","last_reported":1685775968,"current_range_meters":31200,"station_id":"ce4bhqp2rcd13ifvqhog","pricing_plan_id":"free"},{"bike_id":"d0fced42-ee06-466d-8581-a73cd594d426","system_id":"levelo_inurba_marseille","lat":43.29602,"lon":5.381084,"is_reserved":false,"is_disabled":false,"rental_uris":{"android":"levelo://app?vid=d0fced42-ee06-466d-8581-a73cd594d426","ios":"levelo://app?vid=d0fced42-ee06-466d-8581-a73cd594d426"},"vehicle_type_id":"4","last_reported":1685775968,"current_range_meters":24400,"station_id":"ce4bgl12rcd13ifvqbo0","pricing_plan_id":"free"},{"bike_id":"8e1e9cab-1ece-42e9-8ff4-71f50c412731","system_id":"levelo_inurba_marseille","lat":43.292749,"lon":5.368398,"is_reserved":false,"is_disabled":false,"rental_uris":{"android":"levelo://app?vid=8e1e9cab-1ece-42e9-8ff4-71f50c412731","ios":"levelo://app?vid=8e1e9cab-1ece-42e9-8ff4-71f50c412731"},"vehicle_type_id":"4","last_reported":1685775968,"current_range_meters":30000,"station_id":"ce4bhbp2rcd13ifvqesg","pricing_plan_id":"free"},{"bike_id":"00c53f01-9daf-400a-acb3-9a57b54cd874","system_id":"levelo_inurba_marseille","lat":43.292749,"lon":5.368398,"is_reserved":false,"is_disabled":false,"rental_uris":{"android":"levelo://app?vid=00c53f01-9daf-400a-acb3-9a57b54cd874","ios":"levelo://app?vid=00c53f01-9daf-400a-acb3-9a57b54cd874"},"vehicle_type_id":"4","last_reported":1685775968,"current_range_meters":18800,"station_id":"ce4bhbp2rcd13ifvqesg","pricing_plan_id":"free"},{"bike_id":"8e230476-85d0-4454-a933-dce010ca26a2","system_id":"levelo_inurba_marseille","lat":43.29276,"lon":5.36843,"is_reserved":false,"is_disabled":false,"rental_uris":{"android":"levelo://app?vid=8e230476-85d0-4454-a933-dce010ca26a2","ios":"levelo://app?vid=8e230476-85d0-4454-a933-dce010ca26a2"},"vehicle_type_id":"4","last_reported":1685775968,"current_range_meters":23600,"station_id":"ce4bhbp2rcd13ifvqesg","pricing_plan_id":"free"},{"bike_id":"143ba757-3d0f-4011-b834-dedba721bfdd","system_id":"levelo_inurba_marseille","lat":43.29304,"lon":5.37438,"is_reserved":false,"is_disabled":false,"rental_uris":{"android":"levelo://app?vid=143ba757-3d0f-4011-b834-dedba721bfdd","ios":"levelo://app?vid=143ba757-3d0f-4011-b834-dedba721bfdd"},"vehicle_type_id":"4","last_reported":1685775968,"current_range_meters":0,"station_id":"ce4bgi12rcd13ifvqb70","pricing_plan_id":"free"},{"bike_id":"a4e81497-a4f4-4443-aea7-f79dae266972","system_id":"levelo_inurba_marseille","lat":43.29303,"lon":5.37448,"is_reserved":false,"is_disabled":false,"rental_uris":{"android":"levelo://app?vid=a4e81497-a4f4-4443-aea7-f79dae266972","ios":"levelo://app?vid=a4e81497-a4f4-4443-aea7-f79dae266972"},"vehicle_type_id":"4","last_reported":1685775968,"current_range_meters":0,"station_id":"ce4bgi12rcd13ifvqb70","pricing_plan_id":"free"},{"bike_id":"01ef37ce-f7ca-481c-b313-7ac5866de03f","system_id":"levelo_inurba_marseille","lat":43.293009,"lon":5.374584,"is_reserved":false,"is_disabled":false,"rental_uris":{"android":"levelo://app?vid=01ef37ce-f7ca-481c-b313-7ac5866de03f","ios":"levelo://app?vid=01ef37ce-f7ca-481c-b313-7ac5866de03f"},"vehicle_type_id":"4","last_reported":1685775968,"current_range_meters":26400,"station_id":"ce4bgi12rcd13ifvqb70","pricing_plan_id":"free"},{"bike_id":"550c96f3-1963-4bcb-8511-de045dfa045c","system_id":"levelo_inurba_marseille","lat":43.305994,"lon":5.393687,"is_reserved":false,"is_disabled":false,"rental_uris":{"android":"levelo://app?vid=550c96f3-1963-4bcb-8511-de045dfa045c","ios":"levelo://app?vid=550c96f3-1963-4bcb-8511-de045dfa045c"},"vehicle_type_id":"4","last_reported":1685775968,"current_range_meters":31200,"station_id":"ce4bh0p2rcd13ifvqd80","pricing_plan_id":"free"},{"bike_id":"aafbfa7f-2f57-4616-b9e0-1436015e90f6","system_id":"levelo_inurba_marseille","lat":43.29518,"lon":5.3818,"is_reserved":false,"is_disabled":false,"rental_uris":{"android":"levelo://app?vid=aafbfa7f-2f57-4616-b9e0-1436015e90f6","ios":"levelo://app?vid=aafbfa7f-2f57-4616-b9e0-1436015e90f6"},"vehicle_type_id":"4","last_reported":1685775968,"current_range_meters":0,"station_id":"","pricing_plan_id":"free"},{"bike_id":"f618a8be-6abe-4b39-ada5-7611cad5c63c","system_id":"levelo_inurba_marseille","lat":43.2988,"lon":5.389,"is_reserved":false,"is_disabled":false,"rental_uris":{"android":"levelo://app?vid=f618a8be-6abe-4b39-ada5-7611cad5c63c","ios":"levelo://app?vid=f618a8be-6abe-4b39-ada5-7611cad5c63c"},"vehicle_type_id":"4","last_reported":1685775968,"current_range_meters":18800,"station_id":"ce4bh392rcd13ifvqdl0","pricing_plan_id":"free"},{"bike_id":"37b8ece4-7cc4-4f74-86e7-c43d86c7b5ff","system_id":"levelo_inurba_marseille","lat":43.29879,"lon":5.38901,"is_reserved":false,"is_disabled":false,"rental_uris":{"android":"levelo://app?vid=37b8ece4-7cc4-4f74-86e7-c43d86c7b5ff","ios":"levelo://app?vid=37b8ece4-7cc4-4f74-86e7-c43d86c7b5ff"},"vehicle_type_id":"4","last_reported":1685775968,"current_range_meters":20400,"station_id":"ce4bh392rcd13ifvqdl0","pricing_plan_id":"free"},{"bike_id":"d6d6588b-d902-4f45-bcb0-431686a96ba0","system_id":"levelo_inurba_marseille","lat":43.29884,"lon":5.38907,"is_reserved":false,"is_disabled":false,"rental_uris":{"android":"levelo://app?vid=d6d6588b-d902-4f45-bcb0-431686a96ba0","ios":"levelo://app?vid=d6d6588b-d902-4f45-bcb0-431686a96ba0"},"vehicle_type_id":"4","last_reported":1685775968,"current_range_meters":31200,"station_id":"ce4bh392rcd13ifvqdl0","pricing_plan_id":"free"},{"bike_id":"77a9206c-340e-49a3-82ad-812b1a3050f0","system_id":"levelo_inurba_marseille","lat":43.29878,"lon":5.38907,"is_reserved":false,"is_disabled":false,"rental_uris":{"android":"levelo://app?vid=77a9206c-340e-49a3-82ad-812b1a3050f0","ios":"levelo://app?vid=77a9206c-340e-49a3-82ad-812b1a3050f0"},"vehicle_type_id":"4","last_reported":1685775968,"current_range_meters":29600,"station_id":"ce4bh392rcd13ifvqdl0","pricing_plan_id":"free"},{"bike_id":"7279b47d-e1b2-4510-a5ee-f58f16156673","system_id":"levelo_inurba_marseille","lat":43.29875,"lon":5.38904,"is_reserved":false,"is_disabled":false,"rental_uris":{"android":"levelo://app?vid=7279b47d-e1b2-4510-a5ee-f58f16156673","ios":"levelo://app?vid=7279b47d-e1b2-4510-a5ee-f58f16156673"},"vehicle_type_id":"4","last_reported":1685775968,"current_range_meters":31200,"station_id":"ce4bh392rcd13ifvqdl0","pricing_plan_id":"free"},{"bike_id":"bf4f66b6-d19a-4bbb-8c96-635a9c8f6c6e","system_id":"levelo_inurba_marseille","lat":43.309047,"lon":5.396551,"is_reserved":false,"is_disabled":false,"rental_uris":{"android":"levelo://app?vid=bf4f66b6-d19a-4bbb-8c96-635a9c8f6c6e","ios":"levelo://app?vid=bf4f66b6-d19a-4bbb-8c96-635a9c8f6c6e"},"vehicle_type_id":"4","last_reported":1685775968,"current_range_meters":31200,"station_id":"ce4bh012rcd13ifvqcv0","pricing_plan_id":"free"},{"bike_id":"2e967802-a01e-4d48-abc4-bd74cbbfb0dc","system_id":"levelo_inurba_marseille","lat":43.291994,"lon":5.357886,"is_reserved":false,"is_disabled":false,"rental_uris":{"android":"levelo://app?vid=2e967802-a01e-4d48-abc4-bd74cbbfb0dc","ios":"levelo://app?vid=2e967802-a01e-4d48-abc4-bd74cbbfb0dc"},"vehicle_type_id":"4","last_reported":1685775968,"current_range_meters":20000,"station_id":"ce4bhb12rcd13ifvqel0","pricing_plan_id":"free"},{"bike_id":"ccd939e3-45bd-4ad5-a686-9ff2d0cc3893","system_id":"levelo_inurba_marseille","lat":43.309038,"lon":5.396546,"is_reserved":false,"is_disabled":false,"rental_uris":{"android":"levelo://app?vid=ccd939e3-45bd-4ad5-a686-9ff2d0cc3893","ios":"levelo://app?vid=ccd939e3-45bd-4ad5-a686-9ff2d0cc3893"},"vehicle_type_id":"4","last_reported":1685775968,"current_range_meters":31200,"station_id":"ce4bh012rcd13ifvqcv0","pricing_plan_id":"free"},{"bike_id":"d1a6650d-935a-419a-a873-62e13d60b6c2","system_id":"levelo_inurba_marseille","lat":43.309038,"lon":5.396546,"is_reserved":false,"is_disabled":false,"rental_uris":{"android":"levelo://app?vid=d1a6650d-935a-419a-a873-62e13d60b6c2","ios":"levelo://app?vid=d1a6650d-935a-419a-a873-62e13d60b6c2"},"vehicle_type_id":"4","last_reported":1685775968,"current_range_meters":11600,"station_id":"ce4bh012rcd13ifvqcv0","pricing_plan_id":"free"},{"bike_id":"62f45c81-2c35-405e-bfc8-b836d16ebc41","system_id":"levelo_inurba_marseille","lat":43.33256,"lon":5.3793,"is_reserved":false,"is_disabled":false,"rental_uris":{"android":"levelo://app?vid=62f45c81-2c35-405e-bfc8-b836d16ebc41","ios":"levelo://app?vid=62f45c81-2c35-405e-bfc8-b836d16ebc41"},"vehicle_type_id":"4","last_reported":1685775968,"current_range_meters":0,"station_id":"","pricing_plan_id":"free"},{"bike_id":"ee82b8cf-78f5-4f94-a9d0-1a7087e9925c","system_id":"levelo_inurba_marseille","lat":43.31328,"lon":5.39688,"is_reserved":false,"is_disabled":false,"rental_uris":{"android":"levelo://app?vid=ee82b8cf-78f5-4f94-a9d0-1a7087e9925c","ios":"levelo://app?vid=ee82b8cf-78f5-4f94-a9d0-1a7087e9925c"},"vehicle_type_id":"4","last_reported":1685775968,"current_range_meters":31200,"station_id":"ce4bgvp2rcd13ifvqcu0","pricing_plan_id":"free"},{"bike_id":"1e4b93b8-b47b-4d54-8cc0-9aa25f8b4c90","system_id":"levelo_inurba_marseille","lat":43.31327,"lon":5.39691,"is_reserved":false,"is_disabled":false,"rental_uris":{"android":"levelo://app?vid=1e4b93b8-b47b-4d54-8cc0-9aa25f8b4c90","ios":"levelo://app?vid=1e4b93b8-b47b-4d54-8cc0-9aa25f8b4c90"},"vehicle_type_id":"4","last_reported":1685775968,"current_range_meters":31200,"station_id":"ce4bgvp2rcd13ifvqcu0","pricing_plan_id":"free"},{"bike_id":"4358e34b-5910-4761-bd1e-0ec8ea81613c","system_id":"levelo_inurba_marseille","lat":43.313291,"lon":5.396838,"is_reserved":false,"is_disabled":false,"rental_uris":{"android":"levelo://app?vid=4358e34b-5910-4761-bd1e-0ec8ea81613c","ios":"levelo://app?vid=4358e34b-5910-4761-bd1e-0ec8ea81613c"},"vehicle_type_id":"4","last_reported":1685775968,"current_range_meters":31200,"station_id":"ce4bgvp2rcd13ifvqcu0","pricing_plan_id":"free"},{"bike_id":"32f9a4a8-e94c-477d-9f4d-1587098b798e","system_id":"levelo_inurba_marseille","lat":43.31328,"lon":5.39692,"is_reserved":false,"is_disabled":false,"rental_uris":{"android":"levelo://app?vid=32f9a4a8-e94c-477d-9f4d-1587098b798e","ios":"levelo://app?vid=32f9a4a8-e94c-477d-9f4d-1587098b798e"},"vehicle_type_id":"4","last_reported":1685775968,"current_range_meters":1600,"station_id":"ce4bgvp2rcd13ifvqcu0","pricing_plan_id":"free"},{"bike_id":"e79598f5-7a3d-4734-8fa1-aa447d4c1019","system_id":"levelo_inurba_marseille","lat":43.313291,"lon":5.396838,"is_reserved":false,"is_disabled":false,"rental_uris":{"android":"levelo://app?vid=e79598f5-7a3d-4734-8fa1-aa447d4c1019","ios":"levelo://app?vid=e79598f5-7a3d-4734-8fa1-aa447d4c1019"},"vehicle_type_id":"4","last_reported":1685775968,"current_range_meters":2000,"station_id":"ce4bgvp2rcd13ifvqcu0","pricing_plan_id":"free"},{"bike_id":"654c442b-68a1-40ec-b4f0-237a22b84156","system_id":"levelo_inurba_marseille","lat":43.31326,"lon":5.39696,"is_reserved":false,"is_disabled":false,"rental_uris":{"android":"levelo://app?vid=654c442b-68a1-40ec-b4f0-237a22b84156","ios":"levelo://app?vid=654c442b-68a1-40ec-b4f0-237a22b84156"},"vehicle_type_id":"4","last_reported":1685775968,"current_range_meters":27600,"station_id":"ce4bgvp2rcd13ifvqcu0","pricing_plan_id":"free"},{"bike_id":"87cdf31a-7b4b-4a5e-8d41-333834bf1d44","system_id":"levelo_inurba_marseille","lat":43.29529,"lon":5.385581,"is_reserved":false,"is_disabled":false,"rental_uris":{"android":"levelo://app?vid=87cdf31a-7b4b-4a5e-8d41-333834bf1d44","ios":"levelo://app?vid=87cdf31a-7b4b-4a5e-8d41-333834bf1d44"},"vehicle_type_id":"4","last_reported":1685775968,"current_range_meters":23600,"station_id":"ce4bgih2rcd13ifvqba0","pricing_plan_id":"free"},{"bike_id":"038f0a68-fc52-42a7-998d-1024976c307e","system_id":"levelo_inurba_marseille","lat":43.29076,"lon":5.37171,"is_reserved":false,"is_disabled":false,"rental_uris":{"android":"levelo://app?vid=038f0a68-fc52-42a7-998d-1024976c307e","ios":"levelo://app?vid=038f0a68-fc52-42a7-998d-1024976c307e"},"vehicle_type_id":"4","last_reported":1685775968,"current_range_meters":24800,"station_id":"ce4bh5p2rcd13ifvqe4g","pricing_plan_id":"free"},{"bike_id":"2cbbc67f-a2f4-4d2a-9a03-8f124a999781","system_id":"levelo_inurba_marseille","lat":43.290739,"lon":5.371588,"is_reserved":false,"is_disabled":false,"rental_uris":{"android":"levelo://app?vid=2cbbc67f-a2f4-4d2a-9a03-8f124a999781","ios":"levelo://app?vid=2cbbc67f-a2f4-4d2a-9a03-8f124a999781"},"vehicle_type_id":"4","last_reported":1685775968,"current_range_meters":28400,"station_id":"ce4bh5p2rcd13ifvqe4g","pricing_plan_id":"free"},{"bike_id":"17c850ea-8aeb-44f7-9bc3-8b9dcf9f07ad","system_id":"levelo_inurba_marseille","lat":43.290779,"lon":5.371482,"is_reserved":false,"is_disabled":false,"rental_uris":{"android":"levelo://app?vid=17c850ea-8aeb-44f7-9bc3-8b9dcf9f07ad","ios":"levelo://app?vid=17c850ea-8aeb-44f7-9bc3-8b9dcf9f07ad"},"vehicle_type_id":"4","last_reported":1685775968,"current_range_meters":29200,"station_id":"ce4bh5p2rcd13ifvqe4g","pricing_plan_id":"free"},{"bike_id":"76bf299f-df4d-4fb9-9cb0-bb2daf1eb8c1","system_id":"levelo_inurba_marseille","lat":43.290779,"lon":5.371482,"is_reserved":false,"is_disabled":false,"rental_uris":{"android":"levelo://app?vid=76bf299f-df4d-4fb9-9cb0-bb2daf1eb8c1","ios":"levelo://app?vid=76bf299f-df4d-4fb9-9cb0-bb2daf1eb8c1"},"vehicle_type_id":"4","last_reported":1685775968,"current_range_meters":31200,"station_id":"ce4bh5p2rcd13ifvqe4g","pricing_plan_id":"free"},{"bike_id":"a1d588f9-8125-4a8f-9f59-c1cf1bdc5430","system_id":"levelo_inurba_marseille","lat":43.3283,"lon":5.38895,"is_reserved":false,"is_disabled":false,"rental_uris":{"android":"levelo://app?vid=a1d588f9-8125-4a8f-9f59-c1cf1bdc5430","ios":"levelo://app?vid=a1d588f9-8125-4a8f-9f59-c1cf1bdc5430"},"vehicle_type_id":"4","last_reported":1685775968,"current_range_meters":18000,"station_id":"","pricing_plan_id":"free"},{"bike_id":"2e065892-2e44-4c0e-9e03-7f5a7a936718","system_id":"levelo_inurba_marseille","lat":43.29065,"lon":5.37157,"is_reserved":false,"is_disabled":false,"rental_uris":{"android":"levelo://app?vid=2e065892-2e44-4c0e-9e03-7f5a7a936718","ios":"levelo://app?vid=2e065892-2e44-4c0e-9e03-7f5a7a936718"},"vehicle_type_id":"4","last_reported":1685775968,"current_range_meters":28000,"station_id":"ce4bh5p2rcd13ifvqe4g","pricing_plan_id":"free"},{"bike_id":"3be5c302-196e-43c0-8987-7c6b57e99dc0","system_id":"levelo_inurba_marseille","lat":43.290779,"lon":5.371482,"is_reserved":false,"is_disabled":false,"rental_uris":{"android":"levelo://app?vid=3be5c302-196e-43c0-8987-7c6b57e99dc0","ios":"levelo://app?vid=3be5c302-196e-43c0-8987-7c6b57e99dc0"},"vehicle_type_id":"4","last_reported":1685775968,"current_range_meters":26000,"station_id":"ce4bh5p2rcd13ifvqe4g","pricing_plan_id":"free"},{"bike_id":"3ade8561-5910-450e-ac84-b0a8141a3296","system_id":"levelo_inurba_marseille","lat":43.302008,"lon":5.394694,"is_reserved":false,"is_disabled":false,"rental_uris":{"android":"levelo://app?vid=3ade8561-5910-450e-ac84-b0a8141a3296","ios":"levelo://app?vid=3ade8561-5910-450e-ac84-b0a8141a3296"},"vehicle_type_id":"4","last_reported":1685775968,"current_range_meters":27200,"station_id":"ce4bh0p2rcd13ifvqd70","pricing_plan_id":"free"},{"bike_id":"14b06fec-0565-4e2e-b267-a11f1d1a7d86","system_id":"levelo_inurba_marseille","lat":43.29043,"lon":5.35913,"is_reserved":false,"is_disabled":false,"rental_uris":{"android":"levelo://app?vid=14b06fec-0565-4e2e-b267-a11f1d1a7d86","ios":"levelo://app?vid=14b06fec-0565-4e2e-b267-a11f1d1a7d86"},"vehicle_type_id":"4","last_reported":1685775968,"current_range_meters":0,"station_id":"ce4bha92rcd13ifvqeg0","pricing_plan_id":"free"},{"bike_id":"0e1e7373-1c7c-4da4-b6da-af974ebee562","system_id":"levelo_inurba_marseille","lat":43.29043,"lon":5.35903,"is_reserved":false,"is_disabled":false,"rental_uris":{"android":"levelo://app?vid=0e1e7373-1c7c-4da4-b6da-af974ebee562","ios":"levelo://app?vid=0e1e7373-1c7c-4da4-b6da-af974ebee562"},"vehicle_type_id":"4","last_reported":1685775968,"current_range_meters":0,"station_id":"ce4bha92rcd13ifvqeg0","pricing_plan_id":"free"},{"bike_id":"7a99922a-ba8b-4c2d-b536-6dc9e52363ba","system_id":"levelo_inurba_marseille","lat":43.290327,"lon":5.375711,"is_reserved":false,"is_disabled":false,"rental_uris":{"android":"levelo://app?vid=7a99922a-ba8b-4c2d-b536-6dc9e52363ba","ios":"levelo://app?vid=7a99922a-ba8b-4c2d-b536-6dc9e52363ba"},"vehicle_type_id":"4","last_reported":1685775968,"current_range_meters":30800,"station_id":"ce4bh692rcd13ifvqe90","pricing_plan_id":"free"},{"bike_id":"5dca7226-99b1-41e6-aeb6-0634622b2358","system_id":"levelo_inurba_marseille","lat":43.304296,"lon":5.397513,"is_reserved":false,"is_disabled":false,"rental_uris":{"android":"levelo://app?vid=5dca7226-99b1-41e6-aeb6-0634622b2358","ios":"levelo://app?vid=5dca7226-99b1-41e6-aeb6-0634622b2358"},"vehicle_type_id":"4","last_reported":1685775968,"current_range_meters":6000,"station_id":"ce4bh092rcd13ifvqd20","pricing_plan_id":"free"},{"bike_id":"78d10448-faee-485e-90ea-9399a09b9c38","system_id":"levelo_inurba_marseille","lat":43.29409,"lon":5.38618,"is_reserved":false,"is_disabled":false,"rental_uris":{"android":"levelo://app?vid=78d10448-faee-485e-90ea-9399a09b9c38","ios":"levelo://app?vid=78d10448-faee-485e-90ea-9399a09b9c38"},"vehicle_type_id":"4","last_reported":1685775968,"current_range_meters":26400,"station_id":"ce4bh2h2rcd13ifvqdh0","pricing_plan_id":"free"},{"bike_id":"b1e3c3d4-5871-4233-95ad-2225dc348e76","system_id":"levelo_inurba_marseille","lat":43.292732,"lon":5.384388,"is_reserved":false,"is_disabled":false,"rental_uris":{"android":"levelo://app?vid=b1e3c3d4-5871-4233-95ad-2225dc348e76","ios":"levelo://app?vid=b1e3c3d4-5871-4233-95ad-2225dc348e76"},"vehicle_type_id":"4","last_reported":1685775968,"current_range_meters":400,"station_id":"","pricing_plan_id":"free"},{"bike_id":"05f1a2c7-d830-495c-86b8-292585194459","system_id":"levelo_inurba_marseille","lat":43.3304,"lon":5.38919,"is_reserved":false,"is_disabled":false,"rental_uris":{"android":"levelo://app?vid=05f1a2c7-d830-495c-86b8-292585194459","ios":"levelo://app?vid=05f1a2c7-d830-495c-86b8-292585194459"},"vehicle_type_id":"4","last_reported":1685775968,"current_range_meters":24400,"station_id":"ce4bhr92rcd13ifvqhrg","pricing_plan_id":"free"},{"bike_id":"a05aa7b2-65ae-4c00-9ac7-36200056da53","system_id":"levelo_inurba_marseille","lat":43.3304,"lon":5.3892,"is_reserved":false,"is_disabled":false,"rental_uris":{"android":"levelo://app?vid=a05aa7b2-65ae-4c00-9ac7-36200056da53","ios":"levelo://app?vid=a05aa7b2-65ae-4c00-9ac7-36200056da53"},"vehicle_type_id":"4","last_reported":1685775968,"current_range_meters":30400,"station_id":"ce4bhr92rcd13ifvqhrg","pricing_plan_id":"free"},{"bike_id":"2364282a-cb9d-46e5-8a93-f3855a133753","system_id":"levelo_inurba_marseille","lat":43.330427,"lon":5.38921,"is_reserved":false,"is_disabled":false,"rental_uris":{"android":"levelo://app?vid=2364282a-cb9d-46e5-8a93-f3855a133753","ios":"levelo://app?vid=2364282a-cb9d-46e5-8a93-f3855a133753"},"vehicle_type_id":"4","last_reported":1685775968,"current_range_meters":21200,"station_id":"ce4bhr92rcd13ifvqhrg","pricing_plan_id":"free"},{"bike_id":"dc0de6f7-7f41-4d77-b3c3-31c4816122b2","system_id":"levelo_inurba_marseille","lat":43.290104,"lon":5.356111,"is_reserved":false,"is_disabled":false,"rental_uris":{"android":"levelo://app?vid=dc0de6f7-7f41-4d77-b3c3-31c4816122b2","ios":"levelo://app?vid=dc0de6f7-7f41-4d77-b3c3-31c4816122b2"},"vehicle_type_id":"4","last_reported":1685775968,"current_range_meters":26000,"station_id":"ce4bhb92rcd13ifvqen0","pricing_plan_id":"free"},{"bike_id":"af245af8-cc9e-4224-9f36-3420281614cc","system_id":"levelo_inurba_marseille","lat":43.29002,"lon":5.35619,"is_reserved":false,"is_disabled":false,"rental_uris":{"android":"levelo://app?vid=af245af8-cc9e-4224-9f36-3420281614cc","ios":"levelo://app?vid=af245af8-cc9e-4224-9f36-3420281614cc"},"vehicle_type_id":"4","last_reported":1685775968,"current_range_meters":22400,"station_id":"ce4bhb92rcd13ifvqen0","pricing_plan_id":"free"},{"bike_id":"982319b6-81fb-49e9-b8c5-da162418c1ce","system_id":"levelo_inurba_marseille","lat":43.2911,"lon":5.38145,"is_reserved":false,"is_disabled":false,"rental_uris":{"android":"levelo://app?vid=982319b6-81fb-49e9-b8c5-da162418c1ce","ios":"levelo://app?vid=982319b6-81fb-49e9-b8c5-da162418c1ce"},"vehicle_type_id":"4","last_reported":1685775968,"current_range_meters":0,"station_id":"ce4bh512rcd13ifvqe2g","pricing_plan_id":"free"},{"bike_id":"66e209c3-c05c-4024-bf06-bd261c20483e","system_id":"levelo_inurba_marseille","lat":43.290995,"lon":5.381361,"is_reserved":false,"is_disabled":false,"rental_uris":{"android":"levelo://app?vid=66e209c3-c05c-4024-bf06-bd261c20483e","ios":"levelo://app?vid=66e209c3-c05c-4024-bf06-bd261c20483e"},"vehicle_type_id":"4","last_reported":1685775968,"current_range_meters":25200,"station_id":"ce4bh512rcd13ifvqe2g","pricing_plan_id":"free"},{"bike_id":"dea19c4b-ecb5-4763-85a1-cc499cd27033","system_id":"levelo_inurba_marseille","lat":43.290995,"lon":5.381361,"is_reserved":false,"is_disabled":false,"rental_uris":{"android":"levelo://app?vid=dea19c4b-ecb5-4763-85a1-cc499cd27033","ios":"levelo://app?vid=dea19c4b-ecb5-4763-85a1-cc499cd27033"},"vehicle_type_id":"4","last_reported":1685775968,"current_range_meters":24800,"station_id":"ce4bh512rcd13ifvqe2g","pricing_plan_id":"free"},{"bike_id":"d419b30b-1292-4786-9cfa-1b2a5b1839ce","system_id":"levelo_inurba_marseille","lat":43.289732,"lon":5.378425,"is_reserved":false,"is_disabled":false,"rental_uris":{"android":"levelo://app?vid=d419b30b-1292-4786-9cfa-1b2a5b1839ce","ios":"levelo://app?vid=d419b30b-1292-4786-9cfa-1b2a5b1839ce"},"vehicle_type_id":"4","last_reported":1685775968,"current_range_meters":12800,"station_id":"ce4bh9p2rcd13ifvqed0","pricing_plan_id":"free"},{"bike_id":"6fc77a80-cf9d-46c3-a9bb-253e508a5690","system_id":"levelo_inurba_marseille","lat":43.2901,"lon":5.381269,"is_reserved":false,"is_disabled":false,"rental_uris":{"android":"levelo://app?vid=6fc77a80-cf9d-46c3-a9bb-253e508a5690","ios":"levelo://app?vid=6fc77a80-cf9d-46c3-a9bb-253e508a5690"},"vehicle_type_id":"4","last_reported":1685775968,"current_range_meters":15600,"station_id":"ce4bh4p2rcd13ifvqe1g","pricing_plan_id":"free"},{"bike_id":"1dcaa270-78fa-460e-81ea-78c9a76c8a12","system_id":"levelo_inurba_marseille","lat":43.30936,"lon":5.40143,"is_reserved":false,"is_disabled":false,"rental_uris":{"android":"levelo://app?vid=1dcaa270-78fa-460e-81ea-78c9a76c8a12","ios":"levelo://app?vid=1dcaa270-78fa-460e-81ea-78c9a76c8a12"},"vehicle_type_id":"4","last_reported":1685775968,"current_range_meters":4400,"station_id":"","pricing_plan_id":"free"},{"bike_id":"bae974bb-cb49-4ceb-b06d-aa8b29365088","system_id":"levelo_inurba_marseille","lat":43.30641,"lon":5.40065,"is_reserved":false,"is_disabled":false,"rental_uris":{"android":"levelo://app?vid=bae974bb-cb49-4ceb-b06d-aa8b29365088","ios":"levelo://app?vid=bae974bb-cb49-4ceb-b06d-aa8b29365088"},"vehicle_type_id":"4","last_reported":1685775968,"current_range_meters":31200,"station_id":"","pricing_plan_id":"free"},{"bike_id":"d2d22ada-ab7a-43df-8c6e-c627b2b9b36e","system_id":"levelo_inurba_marseille","lat":43.30937,"lon":5.40145,"is_reserved":false,"is_disabled":false,"rental_uris":{"android":"levelo://app?vid=d2d22ada-ab7a-43df-8c6e-c627b2b9b36e","ios":"levelo://app?vid=d2d22ada-ab7a-43df-8c6e-c627b2b9b36e"},"vehicle_type_id":"4","last_reported":1685775968,"current_range_meters":29200,"station_id":"","pricing_plan_id":"free"},{"bike_id":"078b0493-3cdb-4be0-9172-7ed80122f3ae","system_id":"levelo_inurba_marseille","lat":43.30635,"lon":5.40072,"is_reserved":false,"is_disabled":false,"rental_uris":{"android":"levelo://app?vid=078b0493-3cdb-4be0-9172-7ed80122f3ae","ios":"levelo://app?vid=078b0493-3cdb-4be0-9172-7ed80122f3ae"},"vehicle_type_id":"4","last_reported":1685775968,"current_range_meters":15200,"station_id":"ce4bh112rcd13ifvqda0","pricing_plan_id":"free"},{"bike_id":"a5c23062-7c79-4017-836c-d3338f24ba8e","system_id":"levelo_inurba_marseille","lat":43.30646,"lon":5.40076,"is_reserved":false,"is_disabled":false,"rental_uris":{"android":"levelo://app?vid=a5c23062-7c79-4017-836c-d3338f24ba8e","ios":"levelo://app?vid=a5c23062-7c79-4017-836c-d3338f24ba8e"},"vehicle_type_id":"4","last_reported":1685775968,"current_range_meters":31200,"station_id":"ce4bh112rcd13ifvqda0","pricing_plan_id":"free"},{"bike_id":"3d3ad317-6351-4c68-9583-f1096c8c2c22","system_id":"levelo_inurba_marseille","lat":43.33753,"lon":5.37469,"is_reserved":false,"is_disabled":false,"rental_uris":{"android":"levelo://app?vid=3d3ad317-6351-4c68-9583-f1096c8c2c22","ios":"levelo://app?vid=3d3ad317-6351-4c68-9583-f1096c8c2c22"},"vehicle_type_id":"4","last_reported":1685775968,"current_range_meters":31200,"station_id":"","pricing_plan_id":"free"},{"bike_id":"8ac4d23a-b0b9-43d8-ac07-e8633f370e3f","system_id":"levelo_inurba_marseille","lat":43.30645,"lon":5.40079,"is_reserved":false,"is_disabled":false,"rental_uris":{"android":"levelo://app?vid=8ac4d23a-b0b9-43d8-ac07-e8633f370e3f","ios":"levelo://app?vid=8ac4d23a-b0b9-43d8-ac07-e8633f370e3f"},"vehicle_type_id":"4","last_reported":1685775968,"current_range_meters":27200,"station_id":"ce4bh112rcd13ifvqda0","pricing_plan_id":"free"},{"bike_id":"5524a949-1ef1-475c-a36d-ee73a6528238","system_id":"levelo_inurba_marseille","lat":43.3064,"lon":5.40079,"is_reserved":false,"is_disabled":false,"rental_uris":{"android":"levelo://app?vid=5524a949-1ef1-475c-a36d-ee73a6528238","ios":"levelo://app?vid=5524a949-1ef1-475c-a36d-ee73a6528238"},"vehicle_type_id":"4","last_reported":1685775968,"current_range_meters":31200,"station_id":"ce4bh112rcd13ifvqda0","pricing_plan_id":"free"},{"bike_id":"2a7cef6e-3e2c-43aa-9bb1-e7602822fc07","system_id":"levelo_inurba_marseille","lat":43.30644,"lon":5.40082,"is_reserved":false,"is_disabled":false,"rental_uris":{"android":"levelo://app?vid=2a7cef6e-3e2c-43aa-9bb1-e7602822fc07","ios":"levelo://app?vid=2a7cef6e-3e2c-43aa-9bb1-e7602822fc07"},"vehicle_type_id":"4","last_reported":1685775968,"current_range_meters":27600,"station_id":"ce4bh112rcd13ifvqda0","pricing_plan_id":"free"},{"bike_id":"09044982-2e58-4a53-993c-2701ccdb63d8","system_id":"levelo_inurba_marseille","lat":43.33762,"lon":5.37457,"is_reserved":false,"is_disabled":false,"rental_uris":{"android":"levelo://app?vid=09044982-2e58-4a53-993c-2701ccdb63d8","ios":"levelo://app?vid=09044982-2e58-4a53-993c-2701ccdb63d8"},"vehicle_type_id":"4","last_reported":1685775968,"current_range_meters":16800,"station_id":"","pricing_plan_id":"free"},{"bike_id":"0113e38e-96e8-443e-8ffa-9a4f8c786a1e","system_id":"levelo_inurba_marseille","lat":43.33771,"lon":5.37424,"is_reserved":false,"is_disabled":false,"rental_uris":{"android":"levelo://app?vid=0113e38e-96e8-443e-8ffa-9a4f8c786a1e","ios":"levelo://app?vid=0113e38e-96e8-443e-8ffa-9a4f8c786a1e"},"vehicle_type_id":"4","last_reported":1685775968,"current_range_meters":22000,"station_id":"","pricing_plan_id":"free"},{"bike_id":"9d1dcca5-8c40-4357-a3d8-707dd9f3c91e","system_id":"levelo_inurba_marseille","lat":43.30644,"lon":5.40099,"is_reserved":false,"is_disabled":false,"rental_uris":{"android":"levelo://app?vid=9d1dcca5-8c40-4357-a3d8-707dd9f3c91e","ios":"levelo://app?vid=9d1dcca5-8c40-4357-a3d8-707dd9f3c91e"},"vehicle_type_id":"4","last_reported":1685775968,"current_range_meters":16400,"station_id":"ce4bh112rcd13ifvqda0","pricing_plan_id":"free"},{"bike_id":"cf0caa37-cec8-408b-98f7-37211a80813c","system_id":"levelo_inurba_marseille","lat":43.33781,"lon":5.3741,"is_reserved":false,"is_disabled":false,"rental_uris":{"android":"levelo://app?vid=cf0caa37-cec8-408b-98f7-37211a80813c","ios":"levelo://app?vid=cf0caa37-cec8-408b-98f7-37211a80813c"},"vehicle_type_id":"4","last_reported":1685775968,"current_range_meters":25600,"station_id":"","pricing_plan_id":"free"},{"bike_id":"73a46448-0260-49b0-a18b-c8aca0b3d05a","system_id":"levelo_inurba_marseille","lat":43.295213,"lon":5.393962,"is_reserved":false,"is_disabled":false,"rental_uris":{"android":"levelo://app?vid=73a46448-0260-49b0-a18b-c8aca0b3d05a","ios":"levelo://app?vid=73a46448-0260-49b0-a18b-c8aca0b3d05a"},"vehicle_type_id":"4","last_reported":1685775968,"current_range_meters":0,"station_id":"ce4bh292rcd13ifvqdf0","pricing_plan_id":"free"},{"bike_id":"acb17d94-6f17-47a4-851d-cbb71a4d223e","system_id":"levelo_inurba_marseille","lat":43.29521,"lon":5.39402,"is_reserved":false,"is_disabled":false,"rental_uris":{"android":"levelo://app?vid=acb17d94-6f17-47a4-851d-cbb71a4d223e","ios":"levelo://app?vid=acb17d94-6f17-47a4-851d-cbb71a4d223e"},"vehicle_type_id":"4","last_reported":1685775968,"current_range_meters":22800,"station_id":"ce4bh292rcd13ifvqdf0","pricing_plan_id":"free"},{"bike_id":"5ff92603-e92e-4a43-87bf-37df839c44bf","system_id":"levelo_inurba_marseille","lat":43.302759,"lon":5.400793,"is_reserved":false,"is_disabled":false,"rental_uris":{"android":"levelo://app?vid=5ff92603-e92e-4a43-87bf-37df839c44bf","ios":"levelo://app?vid=5ff92603-e92e-4a43-87bf-37df839c44bf"},"vehicle_type_id":"4","last_reported":1685775968,"current_range_meters":2800,"station_id":"ce4bgvh2rcd13ifvqcs0","pricing_plan_id":"free"},{"bike_id":"81845646-15f0-4d60-ac16-1cce172a2eba","system_id":"levelo_inurba_marseille","lat":43.284534,"lon":5.358662,"is_reserved":false,"is_disabled":false,"rental_uris":{"android":"levelo://app?vid=81845646-15f0-4d60-ac16-1cce172a2eba","ios":"levelo://app?vid=81845646-15f0-4d60-ac16-1cce172a2eba"},"vehicle_type_id":"4","last_reported":1685775968,"current_range_meters":30000,"station_id":"ce4bhah2rcd13ifvqei0","pricing_plan_id":"free"},{"bike_id":"4343154b-e5ef-4aff-ad4c-3b79d2f72d14","system_id":"levelo_inurba_marseille","lat":43.284534,"lon":5.358662,"is_reserved":false,"is_disabled":false,"rental_uris":{"android":"levelo://app?vid=4343154b-e5ef-4aff-ad4c-3b79d2f72d14","ios":"levelo://app?vid=4343154b-e5ef-4aff-ad4c-3b79d2f72d14"},"vehicle_type_id":"4","last_reported":1685775968,"current_range_meters":27200,"station_id":"ce4bhah2rcd13ifvqei0","pricing_plan_id":"free"},{"bike_id":"60bbacbe-f001-45a7-b4e9-26ffa98ff739","system_id":"levelo_inurba_marseille","lat":43.284538,"lon":5.358657,"is_reserved":false,"is_disabled":false,"rental_uris":{"android":"levelo://app?vid=60bbacbe-f001-45a7-b4e9-26ffa98ff739","ios":"levelo://app?vid=60bbacbe-f001-45a7-b4e9-26ffa98ff739"},"vehicle_type_id":"4","last_reported":1685775968,"current_range_meters":31200,"station_id":"ce4bhah2rcd13ifvqei0","pricing_plan_id":"free"},{"bike_id":"d074ebe2-546f-4cbb-8a17-0ded560a99cf","system_id":"levelo_inurba_marseille","lat":43.28615,"lon":5.35107,"is_reserved":false,"is_disabled":false,"rental_uris":{"android":"levelo://app?vid=d074ebe2-546f-4cbb-8a17-0ded560a99cf","ios":"levelo://app?vid=d074ebe2-546f-4cbb-8a17-0ded560a99cf"},"vehicle_type_id":"4","last_reported":1685775968,"current_range_meters":17600,"station_id":"","pricing_plan_id":"free"},{"bike_id":"35a5974e-5776-429f-a263-b68ecb8cc1fd","system_id":"levelo_inurba_marseille","lat":43.285848,"lon":5.350787,"is_reserved":false,"is_disabled":false,"rental_uris":{"android":"levelo://app?vid=35a5974e-5776-429f-a263-b68ecb8cc1fd","ios":"levelo://app?vid=35a5974e-5776-429f-a263-b68ecb8cc1fd"},"vehicle_type_id":"4","last_reported":1685775968,"current_range_meters":26800,"station_id":"ce4bhch2rcd13ifvqeug","pricing_plan_id":"free"},{"bike_id":"ca497db2-86b8-4ced-a461-df20cbdd1be9","system_id":"levelo_inurba_marseille","lat":43.286026,"lon":5.351114,"is_reserved":false,"is_disabled":false,"rental_uris":{"android":"levelo://app?vid=ca497db2-86b8-4ced-a461-df20cbdd1be9","ios":"levelo://app?vid=ca497db2-86b8-4ced-a461-df20cbdd1be9"},"vehicle_type_id":"4","last_reported":1685775968,"current_range_meters":28000,"station_id":"","pricing_plan_id":"free"},{"bike_id":"0a8aba60-b51b-427d-be66-8709066b23d1","system_id":"levelo_inurba_marseille","lat":43.33155,"lon":5.39807,"is_reserved":false,"is_disabled":false,"rental_uris":{"android":"levelo://app?vid=0a8aba60-b51b-427d-be66-8709066b23d1","ios":"levelo://app?vid=0a8aba60-b51b-427d-be66-8709066b23d1"},"vehicle_type_id":"4","last_reported":1685775968,"current_range_meters":30400,"station_id":"","pricing_plan_id":"free"},{"bike_id":"f95b3f4d-3a71-45a5-804d-1b1d4351c6ce","system_id":"levelo_inurba_marseille","lat":43.28686,"lon":5.38647,"is_reserved":false,"is_disabled":false,"rental_uris":{"android":"levelo://app?vid=f95b3f4d-3a71-45a5-804d-1b1d4351c6ce","ios":"levelo://app?vid=f95b3f4d-3a71-45a5-804d-1b1d4351c6ce"},"vehicle_type_id":"4","last_reported":1685775968,"current_range_meters":31200,"station_id":"","pricing_plan_id":"free"},{"bike_id":"1bdbd475-a14f-4b54-8680-07a579106d83","system_id":"levelo_inurba_marseille","lat":43.286595,"lon":5.386795,"is_reserved":false,"is_disabled":false,"rental_uris":{"android":"levelo://app?vid=1bdbd475-a14f-4b54-8680-07a579106d83","ios":"levelo://app?vid=1bdbd475-a14f-4b54-8680-07a579106d83"},"vehicle_type_id":"4","last_reported":1685775968,"current_range_meters":25600,"station_id":"ce4bh492rcd13ifvqdug","pricing_plan_id":"free"},{"bike_id":"b205e703-9cc6-479d-b47b-dcec15459f4d","system_id":"levelo_inurba_marseille","lat":43.32699,"lon":5.40374,"is_reserved":false,"is_disabled":false,"rental_uris":{"android":"levelo://app?vid=b205e703-9cc6-479d-b47b-dcec15459f4d","ios":"levelo://app?vid=b205e703-9cc6-479d-b47b-dcec15459f4d"},"vehicle_type_id":"4","last_reported":1685775968,"current_range_meters":18400,"station_id":"","pricing_plan_id":"free"},{"bike_id":"c6efa6ac-d327-4735-a284-170628c19eab","system_id":"levelo_inurba_marseille","lat":43.323464,"lon":5.406297,"is_reserved":false,"is_disabled":false,"rental_uris":{"android":"levelo://app?vid=c6efa6ac-d327-4735-a284-170628c19eab","ios":"levelo://app?vid=c6efa6ac-d327-4735-a284-170628c19eab"},"vehicle_type_id":"4","last_reported":1685775968,"current_range_meters":30000,"station_id":"ce4bhq92rcd13ifvqhjg","pricing_plan_id":"free"},{"bike_id":"0a1605d6-87c9-472d-8606-00b4cb8bcbb4","system_id":"levelo_inurba_marseille","lat":43.323464,"lon":5.406297,"is_reserved":false,"is_disabled":false,"rental_uris":{"android":"levelo://app?vid=0a1605d6-87c9-472d-8606-00b4cb8bcbb4","ios":"levelo://app?vid=0a1605d6-87c9-472d-8606-00b4cb8bcbb4"},"vehicle_type_id":"4","last_reported":1685775968,"current_range_meters":16000,"station_id":"ce4bhq92rcd13ifvqhjg","pricing_plan_id":"free"},{"bike_id":"d7f3818d-412d-43e2-871a-4d55a6dfd6cb","system_id":"levelo_inurba_marseille","lat":43.30966,"lon":5.40861,"is_reserved":false,"is_disabled":false,"rental_uris":{"android":"levelo://app?vid=d7f3818d-412d-43e2-871a-4d55a6dfd6cb","ios":"levelo://app?vid=d7f3818d-412d-43e2-871a-4d55a6dfd6cb"},"vehicle_type_id":"4","last_reported":1685775968,"current_range_meters":7600,"station_id":"","pricing_plan_id":"free"},{"bike_id":"b4fa9470-cecd-4e05-8c5d-47b75f84e216","system_id":"levelo_inurba_marseille","lat":43.323464,"lon":5.406297,"is_reserved":false,"is_disabled":false,"rental_uris":{"android":"levelo://app?vid=b4fa9470-cecd-4e05-8c5d-47b75f84e216","ios":"levelo://app?vid=b4fa9470-cecd-4e05-8c5d-47b75f84e216"},"vehicle_type_id":"4","last_reported":1685775968,"current_range_meters":30400,"station_id":"ce4bhq92rcd13ifvqhjg","pricing_plan_id":"free"},{"bike_id":"feefbb35-6501-43e1-bdd8-ea327a5b6496","system_id":"levelo_inurba_marseille","lat":43.288497,"lon":5.393089,"is_reserved":false,"is_disabled":false,"rental_uris":{"android":"levelo://app?vid=feefbb35-6501-43e1-bdd8-ea327a5b6496","ios":"levelo://app?vid=feefbb35-6501-43e1-bdd8-ea327a5b6496"},"vehicle_type_id":"4","last_reported":1685775968,"current_range_meters":26800,"station_id":"ce4bh2p2rcd13ifvqdi0","pricing_plan_id":"free"},{"bike_id":"e3cb1b79-e48a-49c9-8d8a-9c7f31ae5d0f","system_id":"levelo_inurba_marseille","lat":43.283478,"lon":5.380902,"is_reserved":false,"is_disabled":false,"rental_uris":{"android":"levelo://app?vid=e3cb1b79-e48a-49c9-8d8a-9c7f31ae5d0f","ios":"levelo://app?vid=e3cb1b79-e48a-49c9-8d8a-9c7f31ae5d0f"},"vehicle_type_id":"4","last_reported":1685775968,"current_range_meters":18400,"station_id":"","pricing_plan_id":"free"},{"bike_id":"116371d7-297f-4354-b067-2b57f496b55b","system_id":"levelo_inurba_marseille","lat":43.284217,"lon":5.349697,"is_reserved":false,"is_disabled":false,"rental_uris":{"android":"levelo://app?vid=116371d7-297f-4354-b067-2b57f496b55b","ios":"levelo://app?vid=116371d7-297f-4354-b067-2b57f496b55b"},"vehicle_type_id":"4","last_reported":1685775968,"current_range_meters":30000,"station_id":"ce4bhbh2rcd13ifvqepg","pricing_plan_id":"free"},{"bike_id":"bfa5803a-60c1-4d27-8744-bcab9b20e932","system_id":"levelo_inurba_marseille","lat":43.284219,"lon":5.3497,"is_reserved":false,"is_disabled":false,"rental_uris":{"android":"levelo://app?vid=bfa5803a-60c1-4d27-8744-bcab9b20e932","ios":"levelo://app?vid=bfa5803a-60c1-4d27-8744-bcab9b20e932"},"vehicle_type_id":"4","last_reported":1685775968,"current_range_meters":29200,"station_id":"ce4bhbh2rcd13ifvqepg","pricing_plan_id":"free"},{"bike_id":"289ad4d2-234a-4e6e-a28b-e186271f648c","system_id":"levelo_inurba_marseille","lat":43.2842,"lon":5.34969,"is_reserved":false,"is_disabled":false,"rental_uris":{"android":"levelo://app?vid=289ad4d2-234a-4e6e-a28b-e186271f648c","ios":"levelo://app?vid=289ad4d2-234a-4e6e-a28b-e186271f648c"},"vehicle_type_id":"4","last_reported":1685775968,"current_range_meters":28000,"station_id":"ce4bhbh2rcd13ifvqepg","pricing_plan_id":"free"},{"bike_id":"fee7ee8b-9689-499f-bb2f-50348ebe565b","system_id":"levelo_inurba_marseille","lat":43.284187,"lon":5.34971,"is_reserved":false,"is_disabled":false,"rental_uris":{"android":"levelo://app?vid=fee7ee8b-9689-499f-bb2f-50348ebe565b","ios":"levelo://app?vid=fee7ee8b-9689-499f-bb2f-50348ebe565b"},"vehicle_type_id":"4","last_reported":1685775968,"current_range_meters":18000,"station_id":"ce4bhbh2rcd13ifvqepg","pricing_plan_id":"free"},{"bike_id":"6b26d359-6b37-4b3d-8503-3149bec908dc","system_id":"levelo_inurba_marseille","lat":43.284217,"lon":5.349697,"is_reserved":false,"is_disabled":false,"rental_uris":{"android":"levelo://app?vid=6b26d359-6b37-4b3d-8503-3149bec908dc","ios":"levelo://app?vid=6b26d359-6b37-4b3d-8503-3149bec908dc"},"vehicle_type_id":"4","last_reported":1685775968,"current_range_meters":31200,"station_id":"ce4bhbh2rcd13ifvqepg","pricing_plan_id":"free"},{"bike_id":"a7aa5bdb-3354-4998-b11b-e89d7bbdbcfc","system_id":"levelo_inurba_marseille","lat":43.289363,"lon":5.396322,"is_reserved":false,"is_disabled":false,"rental_uris":{"android":"levelo://app?vid=a7aa5bdb-3354-4998-b11b-e89d7bbdbcfc","ios":"levelo://app?vid=a7aa5bdb-3354-4998-b11b-e89d7bbdbcfc"},"vehicle_type_id":"4","last_reported":1685775968,"current_range_meters":31200,"station_id":"ce4bh3h2rcd13ifvqdn0","pricing_plan_id":"free"},{"bike_id":"3491e45a-3e79-4ec4-bdfe-812050bc71e5","system_id":"levelo_inurba_marseille","lat":43.289393,"lon":5.396247,"is_reserved":false,"is_disabled":false,"rental_uris":{"android":"levelo://app?vid=3491e45a-3e79-4ec4-bdfe-812050bc71e5","ios":"levelo://app?vid=3491e45a-3e79-4ec4-bdfe-812050bc71e5"},"vehicle_type_id":"4","last_reported":1685775968,"current_range_meters":30000,"station_id":"ce4bh3h2rcd13ifvqdn0","pricing_plan_id":"free"},{"bike_id":"b271fed4-f944-4d8a-a3d5-8aab82e8e4b7","system_id":"levelo_inurba_marseille","lat":43.282744,"lon":5.350533,"is_reserved":false,"is_disabled":false,"rental_uris":{"android":"levelo://app?vid=b271fed4-f944-4d8a-a3d5-8aab82e8e4b7","ios":"levelo://app?vid=b271fed4-f944-4d8a-a3d5-8aab82e8e4b7"},"vehicle_type_id":"4","last_reported":1685775968,"current_range_meters":28400,"station_id":"ce4bhbp2rcd13ifvqerg","pricing_plan_id":"free"},{"bike_id":"0db1a0e6-9ec8-4862-886b-73177626d090","system_id":"levelo_inurba_marseille","lat":43.283502,"lon":5.386471,"is_reserved":false,"is_disabled":false,"rental_uris":{"android":"levelo://app?vid=0db1a0e6-9ec8-4862-886b-73177626d090","ios":"levelo://app?vid=0db1a0e6-9ec8-4862-886b-73177626d090"},"vehicle_type_id":"4","last_reported":1685775968,"current_range_meters":0,"station_id":"ce4bh492rcd13ifvqdvg","pricing_plan_id":"free"},{"bike_id":"1b576179-7c55-4b02-8834-5e1f98ef4e6b","system_id":"levelo_inurba_marseille","lat":43.282744,"lon":5.350533,"is_reserved":false,"is_disabled":false,"rental_uris":{"android":"levelo://app?vid=1b576179-7c55-4b02-8834-5e1f98ef4e6b","ios":"levelo://app?vid=1b576179-7c55-4b02-8834-5e1f98ef4e6b"},"vehicle_type_id":"4","last_reported":1685775968,"current_range_meters":26000,"station_id":"ce4bhbp2rcd13ifvqerg","pricing_plan_id":"free"},{"bike_id":"9a91f124-f1ef-4233-9a8e-31abf6ef9711","system_id":"levelo_inurba_marseille","lat":43.282754,"lon":5.350519,"is_reserved":false,"is_disabled":false,"rental_uris":{"android":"levelo://app?vid=9a91f124-f1ef-4233-9a8e-31abf6ef9711","ios":"levelo://app?vid=9a91f124-f1ef-4233-9a8e-31abf6ef9711"},"vehicle_type_id":"4","last_reported":1685775968,"current_range_meters":15200,"station_id":"ce4bhbp2rcd13ifvqerg","pricing_plan_id":"free"},{"bike_id":"3130445e-039d-47cf-845a-53b49cb21d6b","system_id":"levelo_inurba_marseille","lat":43.282754,"lon":5.350519,"is_reserved":false,"is_disabled":false,"rental_uris":{"android":"levelo://app?vid=3130445e-039d-47cf-845a-53b49cb21d6b","ios":"levelo://app?vid=3130445e-039d-47cf-845a-53b49cb21d6b"},"vehicle_type_id":"4","last_reported":1685775968,"current_range_meters":31200,"station_id":"ce4bhbp2rcd13ifvqerg","pricing_plan_id":"free"},{"bike_id":"1bbd3025-9a76-4b64-8ef0-27b95c3f6653","system_id":"levelo_inurba_marseille","lat":43.282754,"lon":5.350519,"is_reserved":false,"is_disabled":false,"rental_uris":{"android":"levelo://app?vid=1bbd3025-9a76-4b64-8ef0-27b95c3f6653","ios":"levelo://app?vid=1bbd3025-9a76-4b64-8ef0-27b95c3f6653"},"vehicle_type_id":"4","last_reported":1685775968,"current_range_meters":6400,"station_id":"ce4bhbp2rcd13ifvqerg","pricing_plan_id":"free"},{"bike_id":"1b563f93-ce44-435a-b09d-c58c7e4935c9","system_id":"levelo_inurba_marseille","lat":43.282754,"lon":5.350519,"is_reserved":false,"is_disabled":false,"rental_uris":{"android":"levelo://app?vid=1b563f93-ce44-435a-b09d-c58c7e4935c9","ios":"levelo://app?vid=1b563f93-ce44-435a-b09d-c58c7e4935c9"},"vehicle_type_id":"4","last_reported":1685775968,"current_range_meters":29200,"station_id":"ce4bhbp2rcd13ifvqerg","pricing_plan_id":"free"},{"bike_id":"8af67f3c-edce-4d54-93b0-2ef8111f31fb","system_id":"levelo_inurba_marseille","lat":43.283502,"lon":5.386471,"is_reserved":false,"is_disabled":false,"rental_uris":{"android":"levelo://app?vid=8af67f3c-edce-4d54-93b0-2ef8111f31fb","ios":"levelo://app?vid=8af67f3c-edce-4d54-93b0-2ef8111f31fb"},"vehicle_type_id":"4","last_reported":1685775968,"current_range_meters":31200,"station_id":"ce4bh492rcd13ifvqdvg","pricing_plan_id":"free"},{"bike_id":"3018deb0-f42a-4ba2-9376-f6419047b6bf","system_id":"levelo_inurba_marseille","lat":43.296263,"lon":5.40601,"is_reserved":false,"is_disabled":false,"rental_uris":{"android":"levelo://app?vid=3018deb0-f42a-4ba2-9376-f6419047b6bf","ios":"levelo://app?vid=3018deb0-f42a-4ba2-9376-f6419047b6bf"},"vehicle_type_id":"4","last_reported":1685775968,"current_range_meters":10400,"station_id":"ce4bh0h2rcd13ifvqd60","pricing_plan_id":"free"},{"bike_id":"4e5a2f24-6cff-4b00-b622-2cd1c67427c7","system_id":"levelo_inurba_marseille","lat":43.304188,"lon":5.412904,"is_reserved":false,"is_disabled":false,"rental_uris":{"android":"levelo://app?vid=4e5a2f24-6cff-4b00-b622-2cd1c67427c7","ios":"levelo://app?vid=4e5a2f24-6cff-4b00-b622-2cd1c67427c7"},"vehicle_type_id":"4","last_reported":1685775968,"current_range_meters":1200,"station_id":"ce4bhop2rcd13ifvqh8g","pricing_plan_id":"free"},{"bike_id":"64276e10-ce58-4087-bf84-bf27b35a1165","system_id":"levelo_inurba_marseille","lat":43.304188,"lon":5.412904,"is_reserved":false,"is_disabled":false,"rental_uris":{"android":"levelo://app?vid=64276e10-ce58-4087-bf84-bf27b35a1165","ios":"levelo://app?vid=64276e10-ce58-4087-bf84-bf27b35a1165"},"vehicle_type_id":"4","last_reported":1685775968,"current_range_meters":14400,"station_id":"ce4bhop2rcd13ifvqh8g","pricing_plan_id":"free"},{"bike_id":"4e0ac645-a893-4045-a69f-f7488007fe7a","system_id":"levelo_inurba_marseille","lat":43.304188,"lon":5.412904,"is_reserved":false,"is_disabled":false,"rental_uris":{"android":"levelo://app?vid=4e0ac645-a893-4045-a69f-f7488007fe7a","ios":"levelo://app?vid=4e0ac645-a893-4045-a69f-f7488007fe7a"},"vehicle_type_id":"4","last_reported":1685775968,"current_range_meters":26000,"station_id":"ce4bhop2rcd13ifvqh8g","pricing_plan_id":"free"},{"bike_id":"ed530ae4-75eb-4fbd-8765-f582fba6c516","system_id":"levelo_inurba_marseille","lat":43.34631,"lon":5.38057,"is_reserved":false,"is_disabled":false,"rental_uris":{"android":"levelo://app?vid=ed530ae4-75eb-4fbd-8765-f582fba6c516","ios":"levelo://app?vid=ed530ae4-75eb-4fbd-8765-f582fba6c516"},"vehicle_type_id":"4","last_reported":1685775968,"current_range_meters":0,"station_id":"","pricing_plan_id":"free"},{"bike_id":"ecc99947-5ed1-4bd2-84ee-04505db5300d","system_id":"levelo_inurba_marseille","lat":43.27907,"lon":5.3801,"is_reserved":false,"is_disabled":false,"rental_uris":{"android":"levelo://app?vid=ecc99947-5ed1-4bd2-84ee-04505db5300d","ios":"levelo://app?vid=ecc99947-5ed1-4bd2-84ee-04505db5300d"},"vehicle_type_id":"4","last_reported":1685775968,"current_range_meters":2400,"station_id":"","pricing_plan_id":"free"},{"bike_id":"4110d3a4-b418-42d5-8063-a06f0b2f5818","system_id":"levelo_inurba_marseille","lat":43.287083,"lon":5.399886,"is_reserved":false,"is_disabled":false,"rental_uris":{"android":"levelo://app?vid=4110d3a4-b418-42d5-8063-a06f0b2f5818","ios":"levelo://app?vid=4110d3a4-b418-42d5-8063-a06f0b2f5818"},"vehicle_type_id":"4","last_reported":1685775968,"current_range_meters":20400,"station_id":"ce4bho92rcd13ifvqh3g","pricing_plan_id":"free"},{"bike_id":"c6e6968b-7a52-4ad8-b761-6986a9601c1e","system_id":"levelo_inurba_marseille","lat":43.299579,"lon":5.413255,"is_reserved":false,"is_disabled":false,"rental_uris":{"android":"levelo://app?vid=c6e6968b-7a52-4ad8-b761-6986a9601c1e","ios":"levelo://app?vid=c6e6968b-7a52-4ad8-b761-6986a9601c1e"},"vehicle_type_id":"4","last_reported":1685775968,"current_range_meters":25600,"station_id":"ce4bhp12rcd13ifvqh9g","pricing_plan_id":"free"},{"bike_id":"82b6947a-32fb-4388-bf28-5a44eae1c551","system_id":"levelo_inurba_marseille","lat":43.320045,"lon":5.415046,"is_reserved":false,"is_disabled":false,"rental_uris":{"android":"levelo://app?vid=82b6947a-32fb-4388-bf28-5a44eae1c551","ios":"levelo://app?vid=82b6947a-32fb-4388-bf28-5a44eae1c551"},"vehicle_type_id":"4","last_reported":1685775968,"current_range_meters":30000,"station_id":"ce4bhq92rcd13ifvqhkg","pricing_plan_id":"free"},{"bike_id":"3e4b0161-6deb-4f2f-9446-bd5731c1ed2e","system_id":"levelo_inurba_marseille","lat":43.325233,"lon":5.414318,"is_reserved":false,"is_disabled":false,"rental_uris":{"android":"levelo://app?vid=3e4b0161-6deb-4f2f-9446-bd5731c1ed2e","ios":"levelo://app?vid=3e4b0161-6deb-4f2f-9446-bd5731c1ed2e"},"vehicle_type_id":"4","last_reported":1685775968,"current_range_meters":16400,"station_id":"ce4bhq12rcd13ifvqhhg","pricing_plan_id":"free"},{"bike_id":"42b0c55b-f7f6-4d91-951d-82b0c800af61","system_id":"levelo_inurba_marseille","lat":43.292571,"lon":5.409107,"is_reserved":false,"is_disabled":false,"rental_uris":{"android":"levelo://app?vid=42b0c55b-f7f6-4d91-951d-82b0c800af61","ios":"levelo://app?vid=42b0c55b-f7f6-4d91-951d-82b0c800af61"},"vehicle_type_id":"4","last_reported":1685775968,"current_range_meters":1600,"station_id":"ce4bh192rcd13ifvqdc0","pricing_plan_id":"free"},{"bike_id":"5fccf78e-1b26-4af2-9d5d-f14aa0074ff6","system_id":"levelo_inurba_marseille","lat":43.27618,"lon":5.361009,"is_reserved":false,"is_disabled":false,"rental_uris":{"android":"levelo://app?vid=5fccf78e-1b26-4af2-9d5d-f14aa0074ff6","ios":"levelo://app?vid=5fccf78e-1b26-4af2-9d5d-f14aa0074ff6"},"vehicle_type_id":"4","last_reported":1685775968,"current_range_meters":12400,"station_id":"ce4bgj92rcd13ifvqbe0","pricing_plan_id":"free"},{"bike_id":"45ce5223-a02d-445c-b06f-e819e3f2973a","system_id":"levelo_inurba_marseille","lat":43.29258,"lon":5.40915,"is_reserved":false,"is_disabled":false,"rental_uris":{"android":"levelo://app?vid=45ce5223-a02d-445c-b06f-e819e3f2973a","ios":"levelo://app?vid=45ce5223-a02d-445c-b06f-e819e3f2973a"},"vehicle_type_id":"4","last_reported":1685775968,"current_range_meters":0,"station_id":"ce4bh192rcd13ifvqdc0","pricing_plan_id":"free"},{"bike_id":"6ad4e901-191c-401f-a468-150fff2d30e2","system_id":"levelo_inurba_marseille","lat":43.27618,"lon":5.361009,"is_reserved":false,"is_disabled":false,"rental_uris":{"android":"levelo://app?vid=6ad4e901-191c-401f-a468-150fff2d30e2","ios":"levelo://app?vid=6ad4e901-191c-401f-a468-150fff2d30e2"},"vehicle_type_id":"4","last_reported":1685775968,"current_range_meters":31200,"station_id":"ce4bgj92rcd13ifvqbe0","pricing_plan_id":"free"},{"bike_id":"4604a8e2-a798-400e-9cfe-93a8133d2b47","system_id":"levelo_inurba_marseille","lat":43.276179,"lon":5.361009,"is_reserved":false,"is_disabled":false,"rental_uris":{"android":"levelo://app?vid=4604a8e2-a798-400e-9cfe-93a8133d2b47","ios":"levelo://app?vid=4604a8e2-a798-400e-9cfe-93a8133d2b47"},"vehicle_type_id":"4","last_reported":1685775968,"current_range_meters":20000,"station_id":"ce4bgj92rcd13ifvqbe0","pricing_plan_id":"free"},{"bike_id":"3a3fd791-e951-45b9-ad2c-af12ba987ffd","system_id":"levelo_inurba_marseille","lat":43.27618,"lon":5.361009,"is_reserved":false,"is_disabled":false,"rental_uris":{"android":"levelo://app?vid=3a3fd791-e951-45b9-ad2c-af12ba987ffd","ios":"levelo://app?vid=3a3fd791-e951-45b9-ad2c-af12ba987ffd"},"vehicle_type_id":"4","last_reported":1685775968,"current_range_meters":0,"station_id":"ce4bgj92rcd13ifvqbe0","pricing_plan_id":"free"},{"bike_id":"9e702849-8d9b-4edf-8f9b-274639fd1e93","system_id":"levelo_inurba_marseille","lat":43.276179,"lon":5.361009,"is_reserved":false,"is_disabled":false,"rental_uris":{"android":"levelo://app?vid=9e702849-8d9b-4edf-8f9b-274639fd1e93","ios":"levelo://app?vid=9e702849-8d9b-4edf-8f9b-274639fd1e93"},"vehicle_type_id":"4","last_reported":1685775968,"current_range_meters":17600,"station_id":"ce4bgj92rcd13ifvqbe0","pricing_plan_id":"free"},{"bike_id":"eae25d34-e0df-41bf-bb8f-8f87f9310151","system_id":"levelo_inurba_marseille","lat":43.28083,"lon":5.39663,"is_reserved":false,"is_disabled":false,"rental_uris":{"android":"levelo://app?vid=eae25d34-e0df-41bf-bb8f-8f87f9310151","ios":"levelo://app?vid=eae25d34-e0df-41bf-bb8f-8f87f9310151"},"vehicle_type_id":"4","last_reported":1685775968,"current_range_meters":23200,"station_id":"ce4bho12rcd13ifvqh2g","pricing_plan_id":"free"},{"bike_id":"3ebe5adf-b30c-4d22-97a5-7b78404d0f71","system_id":"levelo_inurba_marseille","lat":43.280784,"lon":5.396622,"is_reserved":false,"is_disabled":false,"rental_uris":{"android":"levelo://app?vid=3ebe5adf-b30c-4d22-97a5-7b78404d0f71","ios":"levelo://app?vid=3ebe5adf-b30c-4d22-97a5-7b78404d0f71"},"vehicle_type_id":"4","last_reported":1685775968,"current_range_meters":18800,"station_id":"ce4bho12rcd13ifvqh2g","pricing_plan_id":"free"},{"bike_id":"67b6e695-a581-409f-8849-f21aacb3b38b","system_id":"levelo_inurba_marseille","lat":43.303837,"lon":5.418724,"is_reserved":false,"is_disabled":false,"rental_uris":{"android":"levelo://app?vid=67b6e695-a581-409f-8849-f21aacb3b38b","ios":"levelo://app?vid=67b6e695-a581-409f-8849-f21aacb3b38b"},"vehicle_type_id":"4","last_reported":1685775968,"current_range_meters":0,"station_id":"ce4bhop2rcd13ifvqh7g","pricing_plan_id":"free"},{"bike_id":"cb3bb1c8-6484-472f-b262-1553f46b0d97","system_id":"levelo_inurba_marseille","lat":43.28047,"lon":5.3968,"is_reserved":false,"is_disabled":false,"rental_uris":{"android":"levelo://app?vid=cb3bb1c8-6484-472f-b262-1553f46b0d97","ios":"levelo://app?vid=cb3bb1c8-6484-472f-b262-1553f46b0d97"},"vehicle_type_id":"4","last_reported":1685775968,"current_range_meters":0,"station_id":"","pricing_plan_id":"free"},{"bike_id":"23b88c47-0836-44e6-a39b-dfcd8efb74f3","system_id":"levelo_inurba_marseille","lat":43.33612,"lon":5.410321,"is_reserved":false,"is_disabled":false,"rental_uris":{"android":"levelo://app?vid=23b88c47-0836-44e6-a39b-dfcd8efb74f3","ios":"levelo://app?vid=23b88c47-0836-44e6-a39b-dfcd8efb74f3"},"vehicle_type_id":"4","last_reported":1685775968,"current_range_meters":25200,"station_id":"ce4bhqh2rcd13ifvqhmg","pricing_plan_id":"free"},{"bike_id":"50bb9802-5c27-4d7f-93fd-fa65e98fbad4","system_id":"levelo_inurba_marseille","lat":43.336134,"lon":5.410341,"is_reserved":false,"is_disabled":false,"rental_uris":{"android":"levelo://app?vid=50bb9802-5c27-4d7f-93fd-fa65e98fbad4","ios":"levelo://app?vid=50bb9802-5c27-4d7f-93fd-fa65e98fbad4"},"vehicle_type_id":"4","last_reported":1685775968,"current_range_meters":23600,"station_id":"ce4bhqh2rcd13ifvqhmg","pricing_plan_id":"free"},{"bike_id":"6e8d25ee-59c4-4f91-b18a-b8bc2708fac2","system_id":"levelo_inurba_marseille","lat":43.33612,"lon":5.410321,"is_reserved":false,"is_disabled":false,"rental_uris":{"android":"levelo://app?vid=6e8d25ee-59c4-4f91-b18a-b8bc2708fac2","ios":"levelo://app?vid=6e8d25ee-59c4-4f91-b18a-b8bc2708fac2"},"vehicle_type_id":"4","last_reported":1685775968,"current_range_meters":31200,"station_id":"ce4bhqh2rcd13ifvqhmg","pricing_plan_id":"free"},{"bike_id":"58e206d3-dff7-4eb6-99c0-9d27a0184883","system_id":"levelo_inurba_marseille","lat":43.33612,"lon":5.410321,"is_reserved":false,"is_disabled":false,"rental_uris":{"android":"levelo://app?vid=58e206d3-dff7-4eb6-99c0-9d27a0184883","ios":"levelo://app?vid=58e206d3-dff7-4eb6-99c0-9d27a0184883"},"vehicle_type_id":"4","last_reported":1685775968,"current_range_meters":31200,"station_id":"ce4bhqh2rcd13ifvqhmg","pricing_plan_id":"free"},{"bike_id":"b788d885-8749-43c2-8fc2-f6662e04a807","system_id":"levelo_inurba_marseille","lat":43.336134,"lon":5.410341,"is_reserved":false,"is_disabled":false,"rental_uris":{"android":"levelo://app?vid=b788d885-8749-43c2-8fc2-f6662e04a807","ios":"levelo://app?vid=b788d885-8749-43c2-8fc2-f6662e04a807"},"vehicle_type_id":"4","last_reported":1685775968,"current_range_meters":30800,"station_id":"ce4bhqh2rcd13ifvqhmg","pricing_plan_id":"free"},{"bike_id":"9db9545d-f63d-42be-a674-9c25625f916b","system_id":"levelo_inurba_marseille","lat":43.29395,"lon":5.41922,"is_reserved":false,"is_disabled":false,"rental_uris":{"android":"levelo://app?vid=9db9545d-f63d-42be-a674-9c25625f916b","ios":"levelo://app?vid=9db9545d-f63d-42be-a674-9c25625f916b"},"vehicle_type_id":"4","last_reported":1685775968,"current_range_meters":13200,"station_id":"","pricing_plan_id":"free"},{"bike_id":"6b41c33a-a2ab-4b78-b350-c2f9c48cfba2","system_id":"levelo_inurba_marseille","lat":43.304088,"lon":5.425388,"is_reserved":false,"is_disabled":false,"rental_uris":{"android":"levelo://app?vid=6b41c33a-a2ab-4b78-b350-c2f9c48cfba2","ios":"levelo://app?vid=6b41c33a-a2ab-4b78-b350-c2f9c48cfba2"},"vehicle_type_id":"4","last_reported":1685775968,"current_range_meters":17600,"station_id":"ce4bhoh2rcd13ifvqh6g","pricing_plan_id":"free"},{"bike_id":"6fa4c3f8-5165-44e1-a959-fb880a3ee57c","system_id":"levelo_inurba_marseille","lat":43.295523,"lon":5.422926,"is_reserved":false,"is_disabled":false,"rental_uris":{"android":"levelo://app?vid=6fa4c3f8-5165-44e1-a959-fb880a3ee57c","ios":"levelo://app?vid=6fa4c3f8-5165-44e1-a959-fb880a3ee57c"},"vehicle_type_id":"4","last_reported":1685775968,"current_range_meters":26400,"station_id":"ce4bhph2rcd13ifvqhdg","pricing_plan_id":"free"},{"bike_id":"28e28263-1e4a-4307-9d03-c0b5eaba4031","system_id":"levelo_inurba_marseille","lat":43.295523,"lon":5.422926,"is_reserved":false,"is_disabled":false,"rental_uris":{"android":"levelo://app?vid=28e28263-1e4a-4307-9d03-c0b5eaba4031","ios":"levelo://app?vid=28e28263-1e4a-4307-9d03-c0b5eaba4031"},"vehicle_type_id":"4","last_reported":1685775968,"current_range_meters":24000,"station_id":"ce4bhph2rcd13ifvqhdg","pricing_plan_id":"free"},{"bike_id":"4f44adc4-6ab4-4398-8c19-3d30547ee166","system_id":"levelo_inurba_marseille","lat":43.272118,"lon":5.391758,"is_reserved":false,"is_disabled":false,"rental_uris":{"android":"levelo://app?vid=4f44adc4-6ab4-4398-8c19-3d30547ee166","ios":"levelo://app?vid=4f44adc4-6ab4-4398-8c19-3d30547ee166"},"vehicle_type_id":"4","last_reported":1685775968,"current_range_meters":7200,"station_id":"ce4bhhp2rcd13ifvqfm0","pricing_plan_id":"free"},{"bike_id":"72105b99-c84a-4e98-a118-496fbcb89841","system_id":"levelo_inurba_marseille","lat":43.272116,"lon":5.391763,"is_reserved":false,"is_disabled":false,"rental_uris":{"android":"levelo://app?vid=72105b99-c84a-4e98-a118-496fbcb89841","ios":"levelo://app?vid=72105b99-c84a-4e98-a118-496fbcb89841"},"vehicle_type_id":"4","last_reported":1685775968,"current_range_meters":30400,"station_id":"ce4bhhp2rcd13ifvqfm0","pricing_plan_id":"free"},{"bike_id":"06538980-c887-4f73-a2df-b6985c28bed8","system_id":"levelo_inurba_marseille","lat":43.265714,"lon":5.372891,"is_reserved":false,"is_disabled":false,"rental_uris":{"android":"levelo://app?vid=06538980-c887-4f73-a2df-b6985c28bed8","ios":"levelo://app?vid=06538980-c887-4f73-a2df-b6985c28bed8"},"vehicle_type_id":"4","last_reported":1685775968,"current_range_meters":20800,"station_id":"ce4bhg12rcd13ifvqf70","pricing_plan_id":"free"},{"bike_id":"4cc695ff-946f-433d-a86c-f0687a656e46","system_id":"levelo_inurba_marseille","lat":43.26681,"lon":5.382694,"is_reserved":false,"is_disabled":false,"rental_uris":{"android":"levelo://app?vid=4cc695ff-946f-433d-a86c-f0687a656e46","ios":"levelo://app?vid=4cc695ff-946f-433d-a86c-f0687a656e46"},"vehicle_type_id":"4","last_reported":1685775968,"current_range_meters":28800,"station_id":"ce4bhg92rcd13ifvqf90","pricing_plan_id":"free"},{"bike_id":"aa65ffa8-39de-49fb-9968-335dd7261f08","system_id":"levelo_inurba_marseille","lat":43.265714,"lon":5.372891,"is_reserved":false,"is_disabled":false,"rental_uris":{"android":"levelo://app?vid=aa65ffa8-39de-49fb-9968-335dd7261f08","ios":"levelo://app?vid=aa65ffa8-39de-49fb-9968-335dd7261f08"},"vehicle_type_id":"4","last_reported":1685775968,"current_range_meters":30000,"station_id":"ce4bhg12rcd13ifvqf70","pricing_plan_id":"free"},{"bike_id":"c072fc1b-a001-4309-9a74-eabaa1f2a61c","system_id":"levelo_inurba_marseille","lat":43.265714,"lon":5.372891,"is_reserved":false,"is_disabled":false,"rental_uris":{"android":"levelo://app?vid=c072fc1b-a001-4309-9a74-eabaa1f2a61c","ios":"levelo://app?vid=c072fc1b-a001-4309-9a74-eabaa1f2a61c"},"vehicle_type_id":"4","last_reported":1685775968,"current_range_meters":20000,"station_id":"ce4bhg12rcd13ifvqf70","pricing_plan_id":"free"},{"bike_id":"4830acd4-f7c2-464b-9e2d-adad2a7fe8c5","system_id":"levelo_inurba_marseille","lat":43.265714,"lon":5.372891,"is_reserved":false,"is_disabled":false,"rental_uris":{"android":"levelo://app?vid=4830acd4-f7c2-464b-9e2d-adad2a7fe8c5","ios":"levelo://app?vid=4830acd4-f7c2-464b-9e2d-adad2a7fe8c5"},"vehicle_type_id":"4","last_reported":1685775968,"current_range_meters":26400,"station_id":"ce4bhg12rcd13ifvqf70","pricing_plan_id":"free"},{"bike_id":"13c5750c-ab02-4b84-aaaf-438240a826ea","system_id":"levelo_inurba_marseille","lat":43.265714,"lon":5.372891,"is_reserved":false,"is_disabled":false,"rental_uris":{"android":"levelo://app?vid=13c5750c-ab02-4b84-aaaf-438240a826ea","ios":"levelo://app?vid=13c5750c-ab02-4b84-aaaf-438240a826ea"},"vehicle_type_id":"4","last_reported":1685775968,"current_range_meters":28800,"station_id":"ce4bhg12rcd13ifvqf70","pricing_plan_id":"free"},{"bike_id":"8fed6ad7-2b91-4890-b081-fafc7c17798f","system_id":"levelo_inurba_marseille","lat":43.265714,"lon":5.372891,"is_reserved":false,"is_disabled":false,"rental_uris":{"android":"levelo://app?vid=8fed6ad7-2b91-4890-b081-fafc7c17798f","ios":"levelo://app?vid=8fed6ad7-2b91-4890-b081-fafc7c17798f"},"vehicle_type_id":"4","last_reported":1685775968,"current_range_meters":29600,"station_id":"ce4bhg12rcd13ifvqf70","pricing_plan_id":"free"},{"bike_id":"c6cb5599-e718-4af4-8c4b-4d1deb710381","system_id":"levelo_inurba_marseille","lat":43.265714,"lon":5.372891,"is_reserved":false,"is_disabled":false,"rental_uris":{"android":"levelo://app?vid=c6cb5599-e718-4af4-8c4b-4d1deb710381","ios":"levelo://app?vid=c6cb5599-e718-4af4-8c4b-4d1deb710381"},"vehicle_type_id":"4","last_reported":1685775968,"current_range_meters":31200,"station_id":"ce4bhg12rcd13ifvqf70","pricing_plan_id":"free"},{"bike_id":"eecb070c-d337-45e2-b31f-3d7f687cc646","system_id":"levelo_inurba_marseille","lat":43.2655,"lon":5.37281,"is_reserved":false,"is_disabled":false,"rental_uris":{"android":"levelo://app?vid=eecb070c-d337-45e2-b31f-3d7f687cc646","ios":"levelo://app?vid=eecb070c-d337-45e2-b31f-3d7f687cc646"},"vehicle_type_id":"4","last_reported":1685775968,"current_range_meters":24800,"station_id":"ce4bhg12rcd13ifvqf70","pricing_plan_id":"free"},{"bike_id":"477c9b24-a1bd-4af2-9e3a-7a10b9af13d1","system_id":"levelo_inurba_marseille","lat":43.31719,"lon":5.43313,"is_reserved":false,"is_disabled":false,"rental_uris":{"android":"levelo://app?vid=477c9b24-a1bd-4af2-9e3a-7a10b9af13d1","ios":"levelo://app?vid=477c9b24-a1bd-4af2-9e3a-7a10b9af13d1"},"vehicle_type_id":"4","last_reported":1685775968,"current_range_meters":0,"station_id":"","pricing_plan_id":"free"},{"bike_id":"13d2b631-42e8-471d-bd10-78f10c8555a9","system_id":"levelo_inurba_marseille","lat":43.27995,"lon":5.41654,"is_reserved":false,"is_disabled":false,"rental_uris":{"android":"levelo://app?vid=13d2b631-42e8-471d-bd10-78f10c8555a9","ios":"levelo://app?vid=13d2b631-42e8-471d-bd10-78f10c8555a9"},"vehicle_type_id":"4","last_reported":1685775968,"current_range_meters":22800,"station_id":"ce4bho12rcd13ifvqh1g","pricing_plan_id":"free"},{"bike_id":"7df0f172-b2ad-480f-a4c7-c7a0c91e85fa","system_id":"levelo_inurba_marseille","lat":43.27993,"lon":5.41658,"is_reserved":false,"is_disabled":false,"rental_uris":{"android":"levelo://app?vid=7df0f172-b2ad-480f-a4c7-c7a0c91e85fa","ios":"levelo://app?vid=7df0f172-b2ad-480f-a4c7-c7a0c91e85fa"},"vehicle_type_id":"4","last_reported":1685775968,"current_range_meters":19600,"station_id":"ce4bho12rcd13ifvqh1g","pricing_plan_id":"free"},{"bike_id":"1d0d511f-c782-4696-a46d-da0ac58e0f0f","system_id":"levelo_inurba_marseille","lat":43.27984,"lon":5.4166,"is_reserved":false,"is_disabled":false,"rental_uris":{"android":"levelo://app?vid=1d0d511f-c782-4696-a46d-da0ac58e0f0f","ios":"levelo://app?vid=1d0d511f-c782-4696-a46d-da0ac58e0f0f"},"vehicle_type_id":"4","last_reported":1685775968,"current_range_meters":22800,"station_id":"ce4bho12rcd13ifvqh1g","pricing_plan_id":"free"},{"bike_id":"82446da1-6a3c-47ac-a5a1-cdd3bf3a59ce","system_id":"levelo_inurba_marseille","lat":43.267966,"lon":5.393976,"is_reserved":false,"is_disabled":false,"rental_uris":{"android":"levelo://app?vid=82446da1-6a3c-47ac-a5a1-cdd3bf3a59ce","ios":"levelo://app?vid=82446da1-6a3c-47ac-a5a1-cdd3bf3a59ce"},"vehicle_type_id":"4","last_reported":1685775968,"current_range_meters":14400,"station_id":"ce4bhh12rcd13ifvqfg0","pricing_plan_id":"free"},{"bike_id":"26e1ac57-a65a-48de-b4e4-bcfc0b364a7a","system_id":"levelo_inurba_marseille","lat":43.30805,"lon":5.43525,"is_reserved":false,"is_disabled":false,"rental_uris":{"android":"levelo://app?vid=26e1ac57-a65a-48de-b4e4-bcfc0b364a7a","ios":"levelo://app?vid=26e1ac57-a65a-48de-b4e4-bcfc0b364a7a"},"vehicle_type_id":"4","last_reported":1685775968,"current_range_meters":4000,"station_id":"","pricing_plan_id":"free"},{"bike_id":"df18bcba-8c12-452b-961a-aea12c9e49ad","system_id":"levelo_inurba_marseille","lat":43.30795,"lon":5.43527,"is_reserved":false,"is_disabled":false,"rental_uris":{"android":"levelo://app?vid=df18bcba-8c12-452b-961a-aea12c9e49ad","ios":"levelo://app?vid=df18bcba-8c12-452b-961a-aea12c9e49ad"},"vehicle_type_id":"4","last_reported":1685775968,"current_range_meters":25200,"station_id":"","pricing_plan_id":"free"},{"bike_id":"9195428b-d75f-48c6-8965-defae91f8dc0","system_id":"levelo_inurba_marseille","lat":43.265571,"lon":5.390032,"is_reserved":false,"is_disabled":false,"rental_uris":{"android":"levelo://app?vid=9195428b-d75f-48c6-8965-defae91f8dc0","ios":"levelo://app?vid=9195428b-d75f-48c6-8965-defae91f8dc0"},"vehicle_type_id":"4","last_reported":1685775968,"current_range_meters":26400,"station_id":"ce4bhe12rcd13ifvqf30","pricing_plan_id":"free"},{"bike_id":"48051daf-9727-4420-ac8a-dfbdf17d4f8b","system_id":"levelo_inurba_marseille","lat":43.265571,"lon":5.390032,"is_reserved":false,"is_disabled":false,"rental_uris":{"android":"levelo://app?vid=48051daf-9727-4420-ac8a-dfbdf17d4f8b","ios":"levelo://app?vid=48051daf-9727-4420-ac8a-dfbdf17d4f8b"},"vehicle_type_id":"4","last_reported":1685775968,"current_range_meters":20400,"station_id":"ce4bhe12rcd13ifvqf30","pricing_plan_id":"free"},{"bike_id":"bd0476c3-8471-45cd-9199-989a2c0cd47a","system_id":"levelo_inurba_marseille","lat":43.261782,"lon":5.374515,"is_reserved":false,"is_disabled":false,"rental_uris":{"android":"levelo://app?vid=bd0476c3-8471-45cd-9199-989a2c0cd47a","ios":"levelo://app?vid=bd0476c3-8471-45cd-9199-989a2c0cd47a"},"vehicle_type_id":"4","last_reported":1685775968,"current_range_meters":27600,"station_id":"ce4bhgp2rcd13ifvqfc0","pricing_plan_id":"free"},{"bike_id":"2af74695-3cf0-4e60-9eac-f6f72c49d5d6","system_id":"levelo_inurba_marseille","lat":43.261782,"lon":5.374515,"is_reserved":false,"is_disabled":false,"rental_uris":{"android":"levelo://app?vid=2af74695-3cf0-4e60-9eac-f6f72c49d5d6","ios":"levelo://app?vid=2af74695-3cf0-4e60-9eac-f6f72c49d5d6"},"vehicle_type_id":"4","last_reported":1685775968,"current_range_meters":31200,"station_id":"ce4bhgp2rcd13ifvqfc0","pricing_plan_id":"free"},{"bike_id":"7c146720-0470-42ab-8b91-10c219c21a59","system_id":"levelo_inurba_marseille","lat":43.261782,"lon":5.374515,"is_reserved":false,"is_disabled":false,"rental_uris":{"android":"levelo://app?vid=7c146720-0470-42ab-8b91-10c219c21a59","ios":"levelo://app?vid=7c146720-0470-42ab-8b91-10c219c21a59"},"vehicle_type_id":"4","last_reported":1685775968,"current_range_meters":31200,"station_id":"ce4bhgp2rcd13ifvqfc0","pricing_plan_id":"free"},{"bike_id":"8d00262b-f322-47de-b6aa-36ae0a8649f0","system_id":"levelo_inurba_marseille","lat":43.261782,"lon":5.374515,"is_reserved":false,"is_disabled":false,"rental_uris":{"android":"levelo://app?vid=8d00262b-f322-47de-b6aa-36ae0a8649f0","ios":"levelo://app?vid=8d00262b-f322-47de-b6aa-36ae0a8649f0"},"vehicle_type_id":"4","last_reported":1685775968,"current_range_meters":31200,"station_id":"ce4bhgp2rcd13ifvqfc0","pricing_plan_id":"free"},{"bike_id":"7d0da3e2-abbd-454d-85ac-076dd3685020","system_id":"levelo_inurba_marseille","lat":43.261782,"lon":5.374515,"is_reserved":false,"is_disabled":false,"rental_uris":{"android":"levelo://app?vid=7d0da3e2-abbd-454d-85ac-076dd3685020","ios":"levelo://app?vid=7d0da3e2-abbd-454d-85ac-076dd3685020"},"vehicle_type_id":"4","last_reported":1685775968,"current_range_meters":24000,"station_id":"ce4bhgp2rcd13ifvqfc0","pricing_plan_id":"free"},{"bike_id":"17975e74-45d5-4a43-9708-19e540c40f99","system_id":"levelo_inurba_marseille","lat":43.261782,"lon":5.374515,"is_reserved":false,"is_disabled":false,"rental_uris":{"android":"levelo://app?vid=17975e74-45d5-4a43-9708-19e540c40f99","ios":"levelo://app?vid=17975e74-45d5-4a43-9708-19e540c40f99"},"vehicle_type_id":"4","last_reported":1685775968,"current_range_meters":31600,"station_id":"ce4bhgp2rcd13ifvqfc0","pricing_plan_id":"free"},{"bike_id":"eccae3b2-bdf7-4c97-b786-93ee7e43adeb","system_id":"levelo_inurba_marseille","lat":43.261782,"lon":5.374515,"is_reserved":false,"is_disabled":false,"rental_uris":{"android":"levelo://app?vid=eccae3b2-bdf7-4c97-b786-93ee7e43adeb","ios":"levelo://app?vid=eccae3b2-bdf7-4c97-b786-93ee7e43adeb"},