{"last_updated":1702195748,"ttl":30,"version":"2.2","data":{"bikes":[{"bike_id":"b8cfaa12-a0be-4156-8f5f-64c2540d1f5d","system_id":"levelo_inurba_marseille","lat":43.314811,"lon":5.373103,"is_reserved":false,"is_disabled":false,"rental_uris":{"android":"levelo://app?vid=b8cfaa12-a0be-4156-8f5f-64c2540d1f5d","ios":"levelo://app?vid=b8cfaa12-a0be-4156-8f5f-64c2540d1f5d"},"vehicle_type_id":"4","last_reported":1702195749,"current_range_meters":22800,"station_id":"ce4bgt12rcd13ifvqcd0","pricing_plan_id":"free"},{"bike_id":"2ebe9719-a8e1-4c38-a2a3-4c0c675e8ea4","system_id":"levelo_inurba_marseille","lat":43.314811,"lon":5.373103,"is_reserved":false,"is_disabled":false,"rental_uris":{"android":"levelo://app?vid=2ebe9719-a8e1-4c38-a2a3-4c0c675e8ea4","ios":"levelo://app?vid=2ebe9719-a8e1-4c38-a2a3-4c0c675e8ea4"},"vehicle_type_id":"4","last_reported":1702195749,"current_range_meters":22000,"station_id":"ce4bgt12rcd13ifvqcd0","pricing_plan_id":"free"},{"bike_id":"6d127254-6afc-45f0-bd9f-2c5eea3196f9","system_id":"levelo_inurba_marseille","lat":43.30546,"lon":5.365383,"is_reserved":false,"is_disabled":false,"rental_uris":{"android":"levelo://app?vid=6d127254-6afc-45f0-bd9f-2c5eea3196f9","ios":"levelo://app?vid=6d127254-6afc-45f0-bd9f-2c5eea3196f9"},"vehicle_type_id":"4","last_reported":1702195749,"current_range_meters":30000,"station_id":"ce4bgs12rcd13ifvqcag","pricing_plan_id":"free"},{"bike_id":"b9d6c71a-3fde-4794-891d-c42bb7cf843f","system_id":"levelo_inurba_marseille","lat":43.301939,"lon":5.366286,"is_reserved":false,"is_disabled":false,"rental_uris":{"android":"levelo://app?vid=b9d6c71a-3fde-4794-891d-c42bb7cf843f","ios":"levelo://app?vid=b9d6c71a-3fde-4794-891d-c42bb7cf843f"},"vehicle_type_id":"4","last_reported":1702195749,"current_range_meters":26800,"station_id":"ce4bgrh2rcd13ifvqc8g","pricing_plan_id":"free"},{"bike_id":"23d868cc-3adf-48c5-a90f-32eb4c4ae8cb","system_id":"levelo_inurba_marseille","lat":43.304606,"lon":5.379026,"is_reserved":false,"is_disabled":false,"rental_uris":{"android":"levelo://app?vid=23d868cc-3adf-48c5-a90f-32eb4c4ae8cb","ios":"levelo://app?vid=23d868cc-3adf-48c5-a90f-32eb4c4ae8cb"},"vehicle_type_id":"4","last_reported":1702195749,"current_range_meters":22400,"station_id":"ce4bgup2rcd13ifvqcn0","pricing_plan_id":"free"},{"bike_id":"e226f3d9-7b34-42c6-8510-999f4bdae60d","system_id":"levelo_inurba_marseille","lat":43.304606,"lon":5.379026,"is_reserved":false,"is_disabled":false,"rental_uris":{"android":"levelo://app?vid=e226f3d9-7b34-42c6-8510-999f4bdae60d","ios":"levelo://app?vid=e226f3d9-7b34-42c6-8510-999f4bdae60d"},"vehicle_type_id":"4","last_reported":1702195749,"current_range_meters":19600,"station_id":"ce4bgup2rcd13ifvqcn0","pricing_plan_id":"free"},{"bike_id":"a892cb0a-d851-4ffa-9e63-6ecde5c166ec","system_id":"levelo_inurba_marseille","lat":43.304606,"lon":5.379026,"is_reserved":false,"is_disabled":false,"rental_uris":{"android":"levelo://app?vid=a892cb0a-d851-4ffa-9e63-6ecde5c166ec","ios":"levelo://app?vid=a892cb0a-d851-4ffa-9e63-6ecde5c166ec"},"vehicle_type_id":"4","last_reported":1702195749,"current_range_meters":13200,"station_id":"ce4bgup2rcd13ifvqcn0","pricing_plan_id":"free"},{"bike_id":"e606102b-a630-4793-8c67-412e6b33c3ae","system_id":"levelo_inurba_marseille","lat":43.31997,"lon":5.38155,"is_reserved":false,"is_disabled":false,"rental_uris":{"android":"levelo://app?vid=e606102b-a630-4793-8c67-412e6b33c3ae","ios":"levelo://app?vid=e606102b-a630-4793-8c67-412e6b33c3ae"},"vehicle_type_id":"4","last_reported":1702195749,"current_range_meters":11200,"station_id":"ce4bhr12rcd13ifvqhpg","pricing_plan_id":"free"},{"bike_id":"d8be298e-f4c0-4479-a66b-e307c680d7cc","system_id":"levelo_inurba_marseille","lat":43.31356,"lon":5.38493,"is_reserved":false,"is_disabled":false,"rental_uris":{"android":"levelo://app?vid=d8be298e-f4c0-4479-a66b-e307c680d7cc","ios":"levelo://app?vid=d8be298e-f4c0-4479-a66b-e307c680d7cc"},"vehicle_type_id":"4","last_reported":1702195749,"current_range_meters":21200,"station_id":"ce4bgt92rcd13ifvqcf0","pricing_plan_id":"free"},{"bike_id":"c0a64277-f5dd-4691-8acb-5c084fb0cfac","system_id":"levelo_inurba_marseille","lat":43.298433,"lon":5.362774,"is_reserved":false,"is_disabled":false,"rental_uris":{"android":"levelo://app?vid=c0a64277-f5dd-4691-8acb-5c084fb0cfac","ios":"levelo://app?vid=c0a64277-f5dd-4691-8acb-5c084fb0cfac"},"vehicle_type_id":"4","last_reported":1702195749,"current_range_meters":26800,"station_id":"ce4bgpp2rcd13ifvqc3g","pricing_plan_id":"free"},{"bike_id":"0f38e561-9622-492c-ac86-230a8d7bf515","system_id":"levelo_inurba_marseille","lat":43.298433,"lon":5.362774,"is_reserved":false,"is_disabled":false,"rental_uris":{"android":"levelo://app?vid=0f38e561-9622-492c-ac86-230a8d7bf515","ios":"levelo://app?vid=0f38e561-9622-492c-ac86-230a8d7bf515"},"vehicle_type_id":"4","last_reported":1702195749,"current_range_meters":29600,"station_id":"ce4bgpp2rcd13ifvqc3g","pricing_plan_id":"free"},{"bike_id":"8ff2259b-de53-42dc-bd46-c598c051b4f8","system_id":"levelo_inurba_marseille","lat":43.3053,"lon":5.38437,"is_reserved":false,"is_disabled":false,"rental_uris":{"android":"levelo://app?vid=8ff2259b-de53-42dc-bd46-c598c051b4f8","ios":"levelo://app?vid=8ff2259b-de53-42dc-bd46-c598c051b4f8"},"vehicle_type_id":"4","last_reported":1702195749,"current_range_meters":14000,"station_id":"ce4bgg92rcd13ifvqb30","pricing_plan_id":"free"},{"bike_id":"e9493a6f-af65-4b64-9213-23ca1b95b4c4","system_id":"levelo_inurba_marseille","lat":43.297794,"lon":5.370888,"is_reserved":false,"is_disabled":false,"rental_uris":{"android":"levelo://app?vid=e9493a6f-af65-4b64-9213-23ca1b95b4c4","ios":"levelo://app?vid=e9493a6f-af65-4b64-9213-23ca1b95b4c4"},"vehicle_type_id":"4","last_reported":1702195749,"current_range_meters":23600,"station_id":"ce4bgop2rcd13ifvqc1g","pricing_plan_id":"free"},{"bike_id":"c60cbb7e-9382-450f-b819-5c2450f4f643","system_id":"levelo_inurba_marseille","lat":43.32288,"lon":5.38257,"is_reserved":false,"is_disabled":false,"rental_uris":{"android":"levelo://app?vid=c60cbb7e-9382-450f-b819-5c2450f4f643","ios":"levelo://app?vid=c60cbb7e-9382-450f-b819-5c2450f4f643"},"vehicle_type_id":"4","last_reported":1702195749,"current_range_meters":1600,"station_id":"ce4bhr12rcd13ifvqhqg","pricing_plan_id":"free"},{"bike_id":"0370f0dd-02e1-44c3-b626-7cdd11d7ffac","system_id":"levelo_inurba_marseille","lat":43.32287,"lon":5.38266,"is_reserved":false,"is_disabled":false,"rental_uris":{"android":"levelo://app?vid=0370f0dd-02e1-44c3-b626-7cdd11d7ffac","ios":"levelo://app?vid=0370f0dd-02e1-44c3-b626-7cdd11d7ffac"},"vehicle_type_id":"4","last_reported":1702195749,"current_range_meters":31200,"station_id":"ce4bhr12rcd13ifvqhqg","pricing_plan_id":"free"},{"bike_id":"6ac675f1-e0be-498c-ad2f-b742a949d4b0","system_id":"levelo_inurba_marseille","lat":43.298218,"lon":5.374416,"is_reserved":false,"is_disabled":false,"rental_uris":{"android":"levelo://app?vid=6ac675f1-e0be-498c-ad2f-b742a949d4b0","ios":"levelo://app?vid=6ac675f1-e0be-498c-ad2f-b742a949d4b0"},"vehicle_type_id":"4","last_reported":1702195749,"current_range_meters":0,"station_id":"","pricing_plan_id":"free"},{"bike_id":"9a75aac0-2e54-4ffe-8b56-07e48315b873","system_id":"levelo_inurba_marseille","lat":43.328371,"lon":5.366909,"is_reserved":false,"is_disabled":false,"rental_uris":{"android":"levelo://app?vid=9a75aac0-2e54-4ffe-8b56-07e48315b873","ios":"levelo://app?vid=9a75aac0-2e54-4ffe-8b56-07e48315b873"},"vehicle_type_id":"4","last_reported":1702195749,"current_range_meters":24400,"station_id":"ce4bhs92rcd13ifvqi0g","pricing_plan_id":"free"},{"bike_id":"2173e759-f238-48f8-9561-5f434d35a60d","system_id":"levelo_inurba_marseille","lat":43.297163,"lon":5.365866,"is_reserved":false,"is_disabled":false,"rental_uris":{"android":"levelo://app?vid=2173e759-f238-48f8-9561-5f434d35a60d","ios":"levelo://app?vid=2173e759-f238-48f8-9561-5f434d35a60d"},"vehicle_type_id":"4","last_reported":1702195749,"current_range_meters":29200,"station_id":"ce4bgn12rcd13ifvqbt0","pricing_plan_id":"free"},{"bike_id":"616e8526-5b38-4994-9814-0ba76b59228f","system_id":"levelo_inurba_marseille","lat":43.2968,"lon":5.37291,"is_reserved":false,"is_disabled":false,"rental_uris":{"android":"levelo://app?vid=616e8526-5b38-4994-9814-0ba76b59228f","ios":"levelo://app?vid=616e8526-5b38-4994-9814-0ba76b59228f"},"vehicle_type_id":"4","last_reported":1702195749,"current_range_meters":29600,"station_id":"ce4bgk12rcd13ifvqbj0","pricing_plan_id":"free"},{"bike_id":"92dc65d6-6823-4de3-93d4-056f738f090c","system_id":"levelo_inurba_marseille","lat":43.316538,"lon":5.38954,"is_reserved":false,"is_disabled":false,"rental_uris":{"android":"levelo://app?vid=92dc65d6-6823-4de3-93d4-056f738f090c","ios":"levelo://app?vid=92dc65d6-6823-4de3-93d4-056f738f090c"},"vehicle_type_id":"4","last_reported":1702195749,"current_range_meters":0,"station_id":"","pricing_plan_id":"free"},{"bike_id":"67522d27-9c6f-46be-869a-3da9ea934162","system_id":"levelo_inurba_marseille","lat":43.299028,"lon":5.381509,"is_reserved":false,"is_disabled":false,"rental_uris":{"android":"levelo://app?vid=67522d27-9c6f-46be-869a-3da9ea934162","ios":"levelo://app?vid=67522d27-9c6f-46be-869a-3da9ea934162"},"vehicle_type_id":"4","last_reported":1702195749,"current_range_meters":28800,"station_id":"ce4bgj12rcd13ifvqbc0","pricing_plan_id":"free"},{"bike_id":"dffaf13e-09f7-47c8-adcf-35ba84052115","system_id":"levelo_inurba_marseille","lat":43.29901,"lon":5.38135,"is_reserved":false,"is_disabled":false,"rental_uris":{"android":"levelo://app?vid=dffaf13e-09f7-47c8-adcf-35ba84052115","ios":"levelo://app?vid=dffaf13e-09f7-47c8-adcf-35ba84052115"},"vehicle_type_id":"4","last_reported":1702195749,"current_range_meters":24000,"station_id":"ce4bgj12rcd13ifvqbc0","pricing_plan_id":"free"},{"bike_id":"c2adb916-d991-4ba7-8f83-7a3f8fa4db2d","system_id":"levelo_inurba_marseille","lat":43.296935,"lon":5.376544,"is_reserved":false,"is_disabled":false,"rental_uris":{"android":"levelo://app?vid=c2adb916-d991-4ba7-8f83-7a3f8fa4db2d","ios":"levelo://app?vid=c2adb916-d991-4ba7-8f83-7a3f8fa4db2d"},"vehicle_type_id":"4","last_reported":1702195749,"current_range_meters":4800,"station_id":"ce4bgkh2rcd13ifvqbl0","pricing_plan_id":"free"},{"bike_id":"d69f04d9-84df-4f26-bc64-9f532752e790","system_id":"levelo_inurba_marseille","lat":43.31755,"lon":5.39017,"is_reserved":false,"is_disabled":false,"rental_uris":{"android":"levelo://app?vid=d69f04d9-84df-4f26-bc64-9f532752e790","ios":"levelo://app?vid=d69f04d9-84df-4f26-bc64-9f532752e790"},"vehicle_type_id":"4","last_reported":1702195749,"current_range_meters":6400,"station_id":"ce4bhqp2rcd13ifvqhng","pricing_plan_id":"free"},{"bike_id":"1aceff91-ce5b-45e9-9b00-a78d790a3335","system_id":"levelo_inurba_marseille","lat":43.295748,"lon":5.37522,"is_reserved":false,"is_disabled":false,"rental_uris":{"android":"levelo://app?vid=1aceff91-ce5b-45e9-9b00-a78d790a3335","ios":"levelo://app?vid=1aceff91-ce5b-45e9-9b00-a78d790a3335"},"vehicle_type_id":"4","last_reported":1702195749,"current_range_meters":24800,"station_id":"ce4bgh92rcd13ifvqb50","pricing_plan_id":"free"},{"bike_id":"6b563076-5794-4ff4-aa49-6c87963efe82","system_id":"levelo_inurba_marseille","lat":43.295748,"lon":5.37522,"is_reserved":false,"is_disabled":false,"rental_uris":{"android":"levelo://app?vid=6b563076-5794-4ff4-aa49-6c87963efe82","ios":"levelo://app?vid=6b563076-5794-4ff4-aa49-6c87963efe82"},"vehicle_type_id":"4","last_reported":1702195749,"current_range_meters":17200,"station_id":"ce4bgh92rcd13ifvqb50","pricing_plan_id":"free"},{"bike_id":"ad76b06a-cace-4642-8a1f-e8875d513440","system_id":"levelo_inurba_marseille","lat":43.295748,"lon":5.37522,"is_reserved":false,"is_disabled":false,"rental_uris":{"android":"levelo://app?vid=ad76b06a-cace-4642-8a1f-e8875d513440","ios":"levelo://app?vid=ad76b06a-cace-4642-8a1f-e8875d513440"},"vehicle_type_id":"4","last_reported":1702195749,"current_range_meters":21600,"station_id":"ce4bgh92rcd13ifvqb50","pricing_plan_id":"free"},{"bike_id":"a3beeb4c-e62e-4572-96b3-116736114ede","system_id":"levelo_inurba_marseille","lat":43.292792,"lon":5.368522,"is_reserved":false,"is_disabled":false,"rental_uris":{"android":"levelo://app?vid=a3beeb4c-e62e-4572-96b3-116736114ede","ios":"levelo://app?vid=a3beeb4c-e62e-4572-96b3-116736114ede"},"vehicle_type_id":"4","last_reported":1702195749,"current_range_meters":28800,"station_id":"ce4bhbp2rcd13ifvqesg","pricing_plan_id":"free"},{"bike_id":"84f4cdcf-c199-4789-9683-5a3f2582e0a2","system_id":"levelo_inurba_marseille","lat":43.29352,"lon":5.37454,"is_reserved":false,"is_disabled":false,"rental_uris":{"android":"levelo://app?vid=84f4cdcf-c199-4789-9683-5a3f2582e0a2","ios":"levelo://app?vid=84f4cdcf-c199-4789-9683-5a3f2582e0a2"},"vehicle_type_id":"4","last_reported":1702195749,"current_range_meters":7600,"station_id":"","pricing_plan_id":"free"},{"bike_id":"fd25a0e6-bcdd-49be-ad78-d33a3f898c6f","system_id":"levelo_inurba_marseille","lat":43.292311,"lon":5.360731,"is_reserved":false,"is_disabled":false,"rental_uris":{"android":"levelo://app?vid=fd25a0e6-bcdd-49be-ad78-d33a3f898c6f","ios":"levelo://app?vid=fd25a0e6-bcdd-49be-ad78-d33a3f898c6f"},"vehicle_type_id":"4","last_reported":1702195749,"current_range_meters":10400,"station_id":"ce4bhbh2rcd13ifvqeqg","pricing_plan_id":"free"},{"bike_id":"f6c5f525-b908-406a-81e6-1e25dde9d7b1","system_id":"levelo_inurba_marseille","lat":43.292311,"lon":5.360731,"is_reserved":false,"is_disabled":false,"rental_uris":{"android":"levelo://app?vid=f6c5f525-b908-406a-81e6-1e25dde9d7b1","ios":"levelo://app?vid=f6c5f525-b908-406a-81e6-1e25dde9d7b1"},"vehicle_type_id":"4","last_reported":1702195749,"current_range_meters":20800,"station_id":"ce4bhbh2rcd13ifvqeqg","pricing_plan_id":"free"},{"bike_id":"ffe8e861-9583-46be-9da3-462d5c1037ee","system_id":"levelo_inurba_marseille","lat":43.29265,"lon":5.37629,"is_reserved":false,"is_disabled":false,"rental_uris":{"android":"levelo://app?vid=ffe8e861-9583-46be-9da3-462d5c1037ee","ios":"levelo://app?vid=ffe8e861-9583-46be-9da3-462d5c1037ee"},"vehicle_type_id":"4","last_reported":1702195749,"current_range_meters":8000,"station_id":"ce4bgi12rcd13ifvqb80","pricing_plan_id":"free"},{"bike_id":"1ba97cda-8729-47d8-918a-f7a30b624bda","system_id":"levelo_inurba_marseille","lat":43.290327,"lon":5.375711,"is_reserved":false,"is_disabled":false,"rental_uris":{"android":"levelo://app?vid=1ba97cda-8729-47d8-918a-f7a30b624bda","ios":"levelo://app?vid=1ba97cda-8729-47d8-918a-f7a30b624bda"},"vehicle_type_id":"4","last_reported":1702195749,"current_range_meters":12000,"station_id":"ce4bh692rcd13ifvqe90","pricing_plan_id":"free"},{"bike_id":"0d55287e-6324-4a21-96f1-2aa124f5d1a5","system_id":"levelo_inurba_marseille","lat":43.290161,"lon":5.375651,"is_reserved":false,"is_disabled":false,"rental_uris":{"android":"levelo://app?vid=0d55287e-6324-4a21-96f1-2aa124f5d1a5","ios":"levelo://app?vid=0d55287e-6324-4a21-96f1-2aa124f5d1a5"},"vehicle_type_id":"4","last_reported":1702195749,"current_range_meters":10400,"station_id":"","pricing_plan_id":"free"},{"bike_id":"a02a1b20-1fb1-4951-988a-77389649024d","system_id":"levelo_inurba_marseille","lat":43.289259,"lon":5.366364,"is_reserved":false,"is_disabled":false,"rental_uris":{"android":"levelo://app?vid=a02a1b20-1fb1-4951-988a-77389649024d","ios":"levelo://app?vid=a02a1b20-1fb1-4951-988a-77389649024d"},"vehicle_type_id":"4","last_reported":1702195749,"current_range_meters":9200,"station_id":"","pricing_plan_id":"free"},{"bike_id":"9137595e-4656-4eb6-af67-3f2050316f8e","system_id":"levelo_inurba_marseille","lat":43.290104,"lon":5.356111,"is_reserved":false,"is_disabled":false,"rental_uris":{"android":"levelo://app?vid=9137595e-4656-4eb6-af67-3f2050316f8e","ios":"levelo://app?vid=9137595e-4656-4eb6-af67-3f2050316f8e"},"vehicle_type_id":"4","last_reported":1702195749,"current_range_meters":16000,"station_id":"ce4bhb92rcd13ifvqen0","pricing_plan_id":"free"},{"bike_id":"5c79bc93-8f13-4c40-8a8c-8f35d3902245","system_id":"levelo_inurba_marseille","lat":43.333825,"lon":5.382915,"is_reserved":false,"is_disabled":false,"rental_uris":{"android":"levelo://app?vid=5c79bc93-8f13-4c40-8a8c-8f35d3902245","ios":"levelo://app?vid=5c79bc93-8f13-4c40-8a8c-8f35d3902245"},"vehicle_type_id":"4","last_reported":1702195749,"current_range_meters":12000,"station_id":"","pricing_plan_id":"free"},{"bike_id":"5ed66215-e812-4934-8bd8-05fa06e2778c","system_id":"levelo_inurba_marseille","lat":43.333858,"lon":5.382851,"is_reserved":false,"is_disabled":false,"rental_uris":{"android":"levelo://app?vid=5ed66215-e812-4934-8bd8-05fa06e2778c","ios":"levelo://app?vid=5ed66215-e812-4934-8bd8-05fa06e2778c"},"vehicle_type_id":"4","last_reported":1702195749,"current_range_meters":27200,"station_id":"","pricing_plan_id":"free"},{"bike_id":"4d3bc24f-5d77-47a8-a528-fdb18e7d198d","system_id":"levelo_inurba_marseille","lat":43.29102,"lon":5.38134,"is_reserved":false,"is_disabled":false,"rental_uris":{"android":"levelo://app?vid=4d3bc24f-5d77-47a8-a528-fdb18e7d198d","ios":"levelo://app?vid=4d3bc24f-5d77-47a8-a528-fdb18e7d198d"},"vehicle_type_id":"4","last_reported":1702195749,"current_range_meters":2800,"station_id":"ce4bh512rcd13ifvqe2g","pricing_plan_id":"free"},{"bike_id":"b7a9e7bf-3a15-4e3e-a20d-93eca0e304b7","system_id":"levelo_inurba_marseille","lat":43.29784,"lon":5.39342,"is_reserved":false,"is_disabled":false,"rental_uris":{"android":"levelo://app?vid=b7a9e7bf-3a15-4e3e-a20d-93eca0e304b7","ios":"levelo://app?vid=b7a9e7bf-3a15-4e3e-a20d-93eca0e304b7"},"vehicle_type_id":"4","last_reported":1702195749,"current_range_meters":21600,"station_id":"chh1huq6cuj3fo74tm60","pricing_plan_id":"free"},{"bike_id":"4007f970-7075-4777-9aec-66a256913525","system_id":"levelo_inurba_marseille","lat":43.290094,"lon":5.381264,"is_reserved":false,"is_disabled":false,"rental_uris":{"android":"levelo://app?vid=4007f970-7075-4777-9aec-66a256913525","ios":"levelo://app?vid=4007f970-7075-4777-9aec-66a256913525"},"vehicle_type_id":"4","last_reported":1702195749,"current_range_meters":8000,"station_id":"ce4bh4p2rcd13ifvqe1g","pricing_plan_id":"free"},{"bike_id":"16a548ac-a264-4843-91b1-f67b9819a473","system_id":"levelo_inurba_marseille","lat":43.33769,"lon":5.37468,"is_reserved":false,"is_disabled":false,"rental_uris":{"android":"levelo://app?vid=16a548ac-a264-4843-91b1-f67b9819a473","ios":"levelo://app?vid=16a548ac-a264-4843-91b1-f67b9819a473"},"vehicle_type_id":"4","last_reported":1702195749,"current_range_meters":30000,"station_id":"","pricing_plan_id":"free"},{"bike_id":"4015c590-8b74-4dec-b47c-b86a2d5c5771","system_id":"levelo_inurba_marseille","lat":43.28727,"lon":5.36078,"is_reserved":false,"is_disabled":false,"rental_uris":{"android":"levelo://app?vid=4015c590-8b74-4dec-b47c-b86a2d5c5771","ios":"levelo://app?vid=4015c590-8b74-4dec-b47c-b86a2d5c5771"},"vehicle_type_id":"4","last_reported":1702195749,"current_range_meters":25600,"station_id":"cki0cbj6b192h4jlfktg","pricing_plan_id":"free"},{"bike_id":"090f8abd-8109-471a-8851-c0dde1f6b98f","system_id":"levelo_inurba_marseille","lat":43.290336,"lon":5.386425,"is_reserved":false,"is_disabled":false,"rental_uris":{"android":"levelo://app?vid=090f8abd-8109-471a-8851-c0dde1f6b98f","ios":"levelo://app?vid=090f8abd-8109-471a-8851-c0dde1f6b98f"},"vehicle_type_id":"4","last_reported":1702195749,"current_range_meters":26400,"station_id":"ce4bh4p2rcd13ifvqe0g","pricing_plan_id":"free"},{"bike_id":"974a99a6-6d14-406f-9f26-9b07a02981d6","system_id":"levelo_inurba_marseille","lat":43.302759,"lon":5.400793,"is_reserved":false,"is_disabled":false,"rental_uris":{"android":"levelo://app?vid=974a99a6-6d14-406f-9f26-9b07a02981d6","ios":"levelo://app?vid=974a99a6-6d14-406f-9f26-9b07a02981d6"},"vehicle_type_id":"4","last_reported":1702195749,"current_range_meters":6400,"station_id":"ce4bgvh2rcd13ifvqcs0","pricing_plan_id":"free"},{"bike_id":"d3b94379-b2aa-4cd5-aebc-857639d65bbc","system_id":"levelo_inurba_marseille","lat":43.286039,"lon":5.370681,"is_reserved":false,"is_disabled":false,"rental_uris":{"android":"levelo://app?vid=d3b94379-b2aa-4cd5-aebc-857639d65bbc","ios":"levelo://app?vid=d3b94379-b2aa-4cd5-aebc-857639d65bbc"},"vehicle_type_id":"4","last_reported":1702195749,"current_range_meters":12400,"station_id":"ce4bht12rcd13ifvqi60","pricing_plan_id":"free"},{"bike_id":"96bd9a7a-3c3b-42d0-b0bf-bd63b0d48809","system_id":"levelo_inurba_marseille","lat":43.291999,"lon":5.393093,"is_reserved":false,"is_disabled":false,"rental_uris":{"android":"levelo://app?vid=96bd9a7a-3c3b-42d0-b0bf-bd63b0d48809","ios":"levelo://app?vid=96bd9a7a-3c3b-42d0-b0bf-bd63b0d48809"},"vehicle_type_id":"4","last_reported":1702195749,"current_range_meters":12400,"station_id":"ce4bh192rcd13ifvqdd0","pricing_plan_id":"free"},{"bike_id":"ccdfa572-54d3-4959-8778-d041672c287e","system_id":"levelo_inurba_marseille","lat":43.29203,"lon":5.39324,"is_reserved":false,"is_disabled":false,"rental_uris":{"android":"levelo://app?vid=ccdfa572-54d3-4959-8778-d041672c287e","ios":"levelo://app?vid=ccdfa572-54d3-4959-8778-d041672c287e"},"vehicle_type_id":"4","last_reported":1702195749,"current_range_meters":20400,"station_id":"ce4bh192rcd13ifvqdd0","pricing_plan_id":"free"},{"bike_id":"1739eb12-f7a4-4e61-90a8-1bb69b0d8764","system_id":"levelo_inurba_marseille","lat":43.291994,"lon":5.392907,"is_reserved":false,"is_disabled":false,"rental_uris":{"android":"levelo://app?vid=1739eb12-f7a4-4e61-90a8-1bb69b0d8764","ios":"levelo://app?vid=1739eb12-f7a4-4e61-90a8-1bb69b0d8764"},"vehicle_type_id":"4","last_reported":1702195749,"current_range_meters":31200,"station_id":"ce4bh192rcd13ifvqdd0","pricing_plan_id":"free"},{"bike_id":"ebff0c55-1de6-46ce-a6a2-135539698e5e","system_id":"levelo_inurba_marseille","lat":43.285856,"lon":5.350771,"is_reserved":false,"is_disabled":false,"rental_uris":{"android":"levelo://app?vid=ebff0c55-1de6-46ce-a6a2-135539698e5e","ios":"levelo://app?vid=ebff0c55-1de6-46ce-a6a2-135539698e5e"},"vehicle_type_id":"4","last_reported":1702195749,"current_range_meters":13600,"station_id":"ce4bhch2rcd13ifvqeug","pricing_plan_id":"free"},{"bike_id":"316f93ca-9502-4b95-a65f-42fb645a2a01","system_id":"levelo_inurba_marseille","lat":43.285856,"lon":5.350771,"is_reserved":false,"is_disabled":false,"rental_uris":{"android":"levelo://app?vid=316f93ca-9502-4b95-a65f-42fb645a2a01","ios":"levelo://app?vid=316f93ca-9502-4b95-a65f-42fb645a2a01"},"vehicle_type_id":"4","last_reported":1702195749,"current_range_meters":19200,"station_id":"ce4bhch2rcd13ifvqeug","pricing_plan_id":"free"},{"bike_id":"fdad5871-d4ce-4671-80c9-cb4c238f314c","system_id":"levelo_inurba_marseille","lat":43.29572,"lon":5.39963,"is_reserved":false,"is_disabled":false,"rental_uris":{"android":"levelo://app?vid=fdad5871-d4ce-4671-80c9-cb4c238f314c","ios":"levelo://app?vid=fdad5871-d4ce-4671-80c9-cb4c238f314c"},"vehicle_type_id":"4","last_reported":1702195749,"current_range_meters":20800,"station_id":"ce4bh312rcd13ifvqdj0","pricing_plan_id":"free"},{"bike_id":"4302da41-0fa9-4738-8b5e-132acb65214a","system_id":"levelo_inurba_marseille","lat":43.295713,"lon":5.399639,"is_reserved":false,"is_disabled":false,"rental_uris":{"android":"levelo://app?vid=4302da41-0fa9-4738-8b5e-132acb65214a","ios":"levelo://app?vid=4302da41-0fa9-4738-8b5e-132acb65214a"},"vehicle_type_id":"4","last_reported":1702195749,"current_range_meters":22000,"station_id":"ce4bh312rcd13ifvqdj0","pricing_plan_id":"free"},{"bike_id":"e47df94a-14c6-4c56-80ba-c3b978dbd1cd","system_id":"levelo_inurba_marseille","lat":43.295713,"lon":5.399639,"is_reserved":false,"is_disabled":false,"rental_uris":{"android":"levelo://app?vid=e47df94a-14c6-4c56-80ba-c3b978dbd1cd","ios":"levelo://app?vid=e47df94a-14c6-4c56-80ba-c3b978dbd1cd"},"vehicle_type_id":"4","last_reported":1702195749,"current_range_meters":23600,"station_id":"ce4bh312rcd13ifvqdj0","pricing_plan_id":"free"},{"bike_id":"dc054975-6a48-4061-bf44-0bc6e5190bf4","system_id":"levelo_inurba_marseille","lat":43.319179,"lon":5.407725,"is_reserved":false,"is_disabled":false,"rental_uris":{"android":"levelo://app?vid=dc054975-6a48-4061-bf44-0bc6e5190bf4","ios":"levelo://app?vid=dc054975-6a48-4061-bf44-0bc6e5190bf4"},"vehicle_type_id":"4","last_reported":1702195749,"current_range_meters":22800,"station_id":"ce4bhq12rcd13ifvqhig","pricing_plan_id":"free"},{"bike_id":"991ddd9a-1c6e-4cbb-a571-16a27948f6ae","system_id":"levelo_inurba_marseille","lat":43.28427,"lon":5.34986,"is_reserved":false,"is_disabled":false,"rental_uris":{"android":"levelo://app?vid=991ddd9a-1c6e-4cbb-a571-16a27948f6ae","ios":"levelo://app?vid=991ddd9a-1c6e-4cbb-a571-16a27948f6ae"},"vehicle_type_id":"4","last_reported":1702195749,"current_range_meters":28800,"station_id":"ce4bhbh2rcd13ifvqepg","pricing_plan_id":"free"},{"bike_id":"04ea0db6-64fe-489b-8130-dafd142542e4","system_id":"levelo_inurba_marseille","lat":43.284219,"lon":5.3497,"is_reserved":false,"is_disabled":false,"rental_uris":{"android":"levelo://app?vid=04ea0db6-64fe-489b-8130-dafd142542e4","ios":"levelo://app?vid=04ea0db6-64fe-489b-8130-dafd142542e4"},"vehicle_type_id":"4","last_reported":1702195749,"current_range_meters":30000,"station_id":"ce4bhbh2rcd13ifvqepg","pricing_plan_id":"free"},{"bike_id":"d6ab1e02-7820-4ad3-8f07-71828489cdf1","system_id":"levelo_inurba_marseille","lat":43.289363,"lon":5.396322,"is_reserved":false,"is_disabled":false,"rental_uris":{"android":"levelo://app?vid=d6ab1e02-7820-4ad3-8f07-71828489cdf1","ios":"levelo://app?vid=d6ab1e02-7820-4ad3-8f07-71828489cdf1"},"vehicle_type_id":"4","last_reported":1702195749,"current_range_meters":19600,"station_id":"ce4bh3h2rcd13ifvqdn0","pricing_plan_id":"free"},{"bike_id":"bd8a4dd3-b1c9-44db-995f-fc5efb8e93c6","system_id":"levelo_inurba_marseille","lat":43.292724,"lon":5.401131,"is_reserved":false,"is_disabled":false,"rental_uris":{"android":"levelo://app?vid=bd8a4dd3-b1c9-44db-995f-fc5efb8e93c6","ios":"levelo://app?vid=bd8a4dd3-b1c9-44db-995f-fc5efb8e93c6"},"vehicle_type_id":"4","last_reported":1702195749,"current_range_meters":12400,"station_id":"ce4bh312rcd13ifvqdk0","pricing_plan_id":"free"},{"bike_id":"11424dab-098e-4a78-9c76-068034ebf895","system_id":"levelo_inurba_marseille","lat":43.282754,"lon":5.350519,"is_reserved":false,"is_disabled":false,"rental_uris":{"android":"levelo://app?vid=11424dab-098e-4a78-9c76-068034ebf895","ios":"levelo://app?vid=11424dab-098e-4a78-9c76-068034ebf895"},"vehicle_type_id":"4","last_reported":1702195749,"current_range_meters":23200,"station_id":"ce4bhbp2rcd13ifvqerg","pricing_plan_id":"free"},{"bike_id":"4435bfef-b3b8-4058-84bf-68d8cc973a03","system_id":"levelo_inurba_marseille","lat":43.280382,"lon":5.369291,"is_reserved":false,"is_disabled":false,"rental_uris":{"android":"levelo://app?vid=4435bfef-b3b8-4058-84bf-68d8cc973a03","ios":"levelo://app?vid=4435bfef-b3b8-4058-84bf-68d8cc973a03"},"vehicle_type_id":"4","last_reported":1702195749,"current_range_meters":18000,"station_id":"ce4bha12rcd13ifvqef0","pricing_plan_id":"free"},{"bike_id":"b00f5340-00c7-46cf-a639-ed5c863cb6cb","system_id":"levelo_inurba_marseille","lat":43.281044,"lon":5.378308,"is_reserved":false,"is_disabled":false,"rental_uris":{"android":"levelo://app?vid=b00f5340-00c7-46cf-a639-ed5c863cb6cb","ios":"levelo://app?vid=b00f5340-00c7-46cf-a639-ed5c863cb6cb"},"vehicle_type_id":"4","last_reported":1702195749,"current_range_meters":11200,"station_id":"ce4bha12rcd13ifvqee0","pricing_plan_id":"free"},{"bike_id":"4ebe9070-e99f-4493-be64-95a2d9dbcde2","system_id":"levelo_inurba_marseille","lat":43.296263,"lon":5.40601,"is_reserved":false,"is_disabled":false,"rental_uris":{"android":"levelo://app?vid=4ebe9070-e99f-4493-be64-95a2d9dbcde2","ios":"levelo://app?vid=4ebe9070-e99f-4493-be64-95a2d9dbcde2"},"vehicle_type_id":"4","last_reported":1702195749,"current_range_meters":24800,"station_id":"ce4bh0h2rcd13ifvqd60","pricing_plan_id":"free"},{"bike_id":"e2d17c71-1426-462e-9c1e-c9fc623ceed1","system_id":"levelo_inurba_marseille","lat":43.326605,"lon":5.409903,"is_reserved":false,"is_disabled":false,"rental_uris":{"android":"levelo://app?vid=e2d17c71-1426-462e-9c1e-c9fc623ceed1","ios":"levelo://app?vid=e2d17c71-1426-462e-9c1e-c9fc623ceed1"},"vehicle_type_id":"4","last_reported":1702195749,"current_range_meters":29600,"station_id":"ce4bhpp2rcd13ifvqhgg","pricing_plan_id":"free"},{"bike_id":"4583bc60-704d-4596-b75e-88e1f01a6bd1","system_id":"levelo_inurba_marseille","lat":43.326605,"lon":5.409903,"is_reserved":false,"is_disabled":false,"rental_uris":{"android":"levelo://app?vid=4583bc60-704d-4596-b75e-88e1f01a6bd1","ios":"levelo://app?vid=4583bc60-704d-4596-b75e-88e1f01a6bd1"},"vehicle_type_id":"4","last_reported":1702195749,"current_range_meters":12800,"station_id":"ce4bhpp2rcd13ifvqhgg","pricing_plan_id":"free"},{"bike_id":"6020eb43-c1b0-4340-aa00-25e2e88e33bf","system_id":"levelo_inurba_marseille","lat":43.326605,"lon":5.409903,"is_reserved":false,"is_disabled":false,"rental_uris":{"android":"levelo://app?vid=6020eb43-c1b0-4340-aa00-25e2e88e33bf","ios":"levelo://app?vid=6020eb43-c1b0-4340-aa00-25e2e88e33bf"},"vehicle_type_id":"4","last_reported":1702195749,"current_range_meters":27600,"station_id":"ce4bhpp2rcd13ifvqhgg","pricing_plan_id":"free"},{"bike_id":"f95a19e9-7b32-49ce-a457-a2df8fc69118","system_id":"levelo_inurba_marseille","lat":43.3042,"lon":5.41282,"is_reserved":false,"is_disabled":false,"rental_uris":{"android":"levelo://app?vid=f95a19e9-7b32-49ce-a457-a2df8fc69118","ios":"levelo://app?vid=f95a19e9-7b32-49ce-a457-a2df8fc69118"},"vehicle_type_id":"4","last_reported":1702195749,"current_range_meters":4800,"station_id":"ce4bhop2rcd13ifvqh8g","pricing_plan_id":"free"},{"bike_id":"130f4392-f78a-4479-b25d-58a7d67aabe1","system_id":"levelo_inurba_marseille","lat":43.304181,"lon":5.412869,"is_reserved":false,"is_disabled":false,"rental_uris":{"android":"levelo://app?vid=130f4392-f78a-4479-b25d-58a7d67aabe1","ios":"levelo://app?vid=130f4392-f78a-4479-b25d-58a7d67aabe1"},"vehicle_type_id":"4","last_reported":1702195749,"current_range_meters":31200,"station_id":"ce4bhop2rcd13ifvqh8g","pricing_plan_id":"free"},{"bike_id":"0bc1eb45-a665-44a3-8a8b-d748ef95b051","system_id":"levelo_inurba_marseille","lat":43.304134,"lon":5.412907,"is_reserved":false,"is_disabled":false,"rental_uris":{"android":"levelo://app?vid=0bc1eb45-a665-44a3-8a8b-d748ef95b051","ios":"levelo://app?vid=0bc1eb45-a665-44a3-8a8b-d748ef95b051"},"vehicle_type_id":"4","last_reported":1702195749,"current_range_meters":24000,"station_id":"ce4bhop2rcd13ifvqh8g","pricing_plan_id":"free"},{"bike_id":"58f52f1b-f682-43f9-888f-474549184cf8","system_id":"levelo_inurba_marseille","lat":43.32215,"lon":5.41464,"is_reserved":false,"is_disabled":false,"rental_uris":{"android":"levelo://app?vid=58f52f1b-f682-43f9-888f-474549184cf8","ios":"levelo://app?vid=58f52f1b-f682-43f9-888f-474549184cf8"},"vehicle_type_id":"4","last_reported":1702195749,"current_range_meters":14400,"station_id":"","pricing_plan_id":"free"},{"bike_id":"84520233-7c1d-425e-b28d-d323f0b15b3b","system_id":"levelo_inurba_marseille","lat":43.299579,"lon":5.413255,"is_reserved":false,"is_disabled":false,"rental_uris":{"android":"levelo://app?vid=84520233-7c1d-425e-b28d-d323f0b15b3b","ios":"levelo://app?vid=84520233-7c1d-425e-b28d-d323f0b15b3b"},"vehicle_type_id":"4","last_reported":1702195749,"current_range_meters":30400,"station_id":"ce4bhp12rcd13ifvqh9g","pricing_plan_id":"free"},{"bike_id":"44c8100c-f6fa-4a5b-9224-234e6380e89c","system_id":"levelo_inurba_marseille","lat":43.320045,"lon":5.415048,"is_reserved":false,"is_disabled":false,"rental_uris":{"android":"levelo://app?vid=44c8100c-f6fa-4a5b-9224-234e6380e89c","ios":"levelo://app?vid=44c8100c-f6fa-4a5b-9224-234e6380e89c"},"vehicle_type_id":"4","last_reported":1702195749,"current_range_meters":30000,"station_id":"ce4bhq92rcd13ifvqhkg","pricing_plan_id":"free"},{"bike_id":"d9ecff20-f8e1-44f7-847f-a1b7f5bb6b0c","system_id":"levelo_inurba_marseille","lat":43.320045,"lon":5.415046,"is_reserved":false,"is_disabled":false,"rental_uris":{"android":"levelo://app?vid=d9ecff20-f8e1-44f7-847f-a1b7f5bb6b0c","ios":"levelo://app?vid=d9ecff20-f8e1-44f7-847f-a1b7f5bb6b0c"},"vehicle_type_id":"4","last_reported":1702195749,"current_range_meters":7200,"station_id":"ce4bhq92rcd13ifvqhkg","pricing_plan_id":"free"},{"bike_id":"1ae047ec-9761-4939-97fc-a17bf2fe6c47","system_id":"levelo_inurba_marseille","lat":43.320045,"lon":5.415046,"is_reserved":false,"is_disabled":false,"rental_uris":{"android":"levelo://app?vid=1ae047ec-9761-4939-97fc-a17bf2fe6c47","ios":"levelo://app?vid=1ae047ec-9761-4939-97fc-a17bf2fe6c47"},"vehicle_type_id":"4","last_reported":1702195749,"current_range_meters":31200,"station_id":"ce4bhq92rcd13ifvqhkg","pricing_plan_id":"free"},{"bike_id":"60acf5ee-5101-4a63-9e84-8f1eb397caa4","system_id":"levelo_inurba_marseille","lat":43.325243,"lon":5.414326,"is_reserved":false,"is_disabled":false,"rental_uris":{"android":"levelo://app?vid=60acf5ee-5101-4a63-9e84-8f1eb397caa4","ios":"levelo://app?vid=60acf5ee-5101-4a63-9e84-8f1eb397caa4"},"vehicle_type_id":"4","last_reported":1702195749,"current_range_meters":27200,"station_id":"ce4bhq12rcd13ifvqhhg","pricing_plan_id":"free"},{"bike_id":"2343de40-e0ab-462e-b79d-bec56d2edffd","system_id":"levelo_inurba_marseille","lat":43.278401,"lon":5.392152,"is_reserved":false,"is_disabled":false,"rental_uris":{"android":"levelo://app?vid=2343de40-e0ab-462e-b79d-bec56d2edffd","ios":"levelo://app?vid=2343de40-e0ab-462e-b79d-bec56d2edffd"},"vehicle_type_id":"4","last_reported":1702195749,"current_range_meters":23600,"station_id":"ce4bhjp2rcd13ifvqga0","pricing_plan_id":"free"},{"bike_id":"6653323c-ce52-45ab-b010-5e270f0c1b09","system_id":"levelo_inurba_marseille","lat":43.336148,"lon":5.410349,"is_reserved":false,"is_disabled":false,"rental_uris":{"android":"levelo://app?vid=6653323c-ce52-45ab-b010-5e270f0c1b09","ios":"levelo://app?vid=6653323c-ce52-45ab-b010-5e270f0c1b09"},"vehicle_type_id":"4","last_reported":1702195749,"current_range_meters":26000,"station_id":"ce4bhqh2rcd13ifvqhmg","pricing_plan_id":"free"},{"bike_id":"980ce821-5a5f-4dfb-a895-9c119d96e24a","system_id":"levelo_inurba_marseille","lat":43.336148,"lon":5.410349,"is_reserved":false,"is_disabled":false,"rental_uris":{"android":"levelo://app?vid=980ce821-5a5f-4dfb-a895-9c119d96e24a","ios":"levelo://app?vid=980ce821-5a5f-4dfb-a895-9c119d96e24a"},"vehicle_type_id":"4","last_reported":1702195749,"current_range_meters":29600,"station_id":"ce4bhqh2rcd13ifvqhmg","pricing_plan_id":"free"},{"bike_id":"5baf8328-4363-4821-9c76-b6eaf235fdb5","system_id":"levelo_inurba_marseille","lat":43.279952,"lon":5.400085,"is_reserved":false,"is_disabled":false,"rental_uris":{"android":"levelo://app?vid=5baf8328-4363-4821-9c76-b6eaf235fdb5","ios":"levelo://app?vid=5baf8328-4363-4821-9c76-b6eaf235fdb5"},"vehicle_type_id":"4","last_reported":1702195749,"current_range_meters":20800,"station_id":"ce4bho92rcd13ifvqh4g","pricing_plan_id":"free"},{"bike_id":"88e59060-d458-48a8-8abe-8a1913097d92","system_id":"levelo_inurba_marseille","lat":43.31713,"lon":5.424,"is_reserved":false,"is_disabled":false,"rental_uris":{"android":"levelo://app?vid=88e59060-d458-48a8-8abe-8a1913097d92","ios":"levelo://app?vid=88e59060-d458-48a8-8abe-8a1913097d92"},"vehicle_type_id":"4","last_reported":1702195749,"current_range_meters":20800,"station_id":"ce4bhp92rcd13ifvqhbg","pricing_plan_id":"free"},{"bike_id":"02791883-a925-42a0-9dd3-b7193f6a574b","system_id":"levelo_inurba_marseille","lat":43.31718,"lon":5.42401,"is_reserved":false,"is_disabled":false,"rental_uris":{"android":"levelo://app?vid=02791883-a925-42a0-9dd3-b7193f6a574b","ios":"levelo://app?vid=02791883-a925-42a0-9dd3-b7193f6a574b"},"vehicle_type_id":"4","last_reported":1702195749,"current_range_meters":27200,"station_id":"ce4bhp92rcd13ifvqhbg","pricing_plan_id":"free"},{"bike_id":"e7bd1e73-4f86-473d-905c-a7b0f3d6ad8a","system_id":"levelo_inurba_marseille","lat":43.31723,"lon":5.42405,"is_reserved":false,"is_disabled":false,"rental_uris":{"android":"levelo://app?vid=e7bd1e73-4f86-473d-905c-a7b0f3d6ad8a","ios":"levelo://app?vid=e7bd1e73-4f86-473d-905c-a7b0f3d6ad8a"},"vehicle_type_id":"4","last_reported":1702195749,"current_range_meters":14000,"station_id":"ce4bhp92rcd13ifvqhbg","pricing_plan_id":"free"},{"bike_id":"80038031-3601-4c51-b66a-c6c9131d41d1","system_id":"levelo_inurba_marseille","lat":43.310785,"lon":5.424305,"is_reserved":false,"is_disabled":false,"rental_uris":{"android":"levelo://app?vid=80038031-3601-4c51-b66a-c6c9131d41d1","ios":"levelo://app?vid=80038031-3601-4c51-b66a-c6c9131d41d1"},"vehicle_type_id":"4","last_reported":1702195749,"current_range_meters":30400,"station_id":"ce4bhp92rcd13ifvqhag","pricing_plan_id":"free"},{"bike_id":"affb4f45-d821-4c0f-b637-138a01e9a1ab","system_id":"levelo_inurba_marseille","lat":43.310785,"lon":5.424305,"is_reserved":false,"is_disabled":false,"rental_uris":{"android":"levelo://app?vid=affb4f45-d821-4c0f-b637-138a01e9a1ab","ios":"levelo://app?vid=affb4f45-d821-4c0f-b637-138a01e9a1ab"},"vehicle_type_id":"4","last_reported":1702195749,"current_range_meters":7200,"station_id":"ce4bhp92rcd13ifvqhag","pricing_plan_id":"free"},{"bike_id":"5e846a49-28a7-48fe-8d3c-0c53874a1a5b","system_id":"levelo_inurba_marseille","lat":43.340804,"lon":5.410219,"is_reserved":false,"is_disabled":false,"rental_uris":{"android":"levelo://app?vid=5e846a49-28a7-48fe-8d3c-0c53874a1a5b","ios":"levelo://app?vid=5e846a49-28a7-48fe-8d3c-0c53874a1a5b"},"vehicle_type_id":"4","last_reported":1702195749,"current_range_meters":11600,"station_id":"ce4bhqh2rcd13ifvqhlg","pricing_plan_id":"free"},{"bike_id":"12d9e6c5-8093-4626-a4c2-d964ff0400f8","system_id":"levelo_inurba_marseille","lat":43.340804,"lon":5.410219,"is_reserved":false,"is_disabled":false,"rental_uris":{"android":"levelo://app?vid=12d9e6c5-8093-4626-a4c2-d964ff0400f8","ios":"levelo://app?vid=12d9e6c5-8093-4626-a4c2-d964ff0400f8"},"vehicle_type_id":"4","last_reported":1702195749,"current_range_meters":31200,"station_id":"ce4bhqh2rcd13ifvqhlg","pricing_plan_id":"free"},{"bike_id":"63133364-316e-458e-b234-bbd4926c63fc","system_id":"levelo_inurba_marseille","lat":43.27583,"lon":5.39474,"is_reserved":false,"is_disabled":false,"rental_uris":{"android":"levelo://app?vid=63133364-316e-458e-b234-bbd4926c63fc","ios":"levelo://app?vid=63133364-316e-458e-b234-bbd4926c63fc"},"vehicle_type_id":"4","last_reported":1702195749,"current_range_meters":4400,"station_id":"","pricing_plan_id":"free"},{"bike_id":"8be9e6e0-911d-43da-82c2-8ca366e16d3c","system_id":"levelo_inurba_marseille","lat":43.273125,"lon":5.390731,"is_reserved":false,"is_disabled":false,"rental_uris":{"android":"levelo://app?vid=8be9e6e0-911d-43da-82c2-8ca366e16d3c","ios":"levelo://app?vid=8be9e6e0-911d-43da-82c2-8ca366e16d3c"},"vehicle_type_id":"4","last_reported":1702195749,"current_range_meters":28000,"station_id":"ce4bhgp2rcd13ifvqfe0","pricing_plan_id":"free"},{"bike_id":"e6b1d061-ecb8-42dd-b593-20142b9e2e8e","system_id":"levelo_inurba_marseille","lat":43.30414,"lon":5.42538,"is_reserved":false,"is_disabled":false,"rental_uris":{"android":"levelo://app?vid=e6b1d061-ecb8-42dd-b593-20142b9e2e8e","ios":"levelo://app?vid=e6b1d061-ecb8-42dd-b593-20142b9e2e8e"},"vehicle_type_id":"4","last_reported":1702195749,"current_range_meters":3600,"station_id":"ce4bhoh2rcd13ifvqh6g","pricing_plan_id":"free"},{"bike_id":"8f021145-48f8-459b-aef0-f8921e18b0a0","system_id":"levelo_inurba_marseille","lat":43.27214,"lon":5.3925,"is_reserved":false,"is_disabled":false,"rental_uris":{"android":"levelo://app?vid=8f021145-48f8-459b-aef0-f8921e18b0a0","ios":"levelo://app?vid=8f021145-48f8-459b-aef0-f8921e18b0a0"},"vehicle_type_id":"4","last_reported":1702195749,"current_range_meters":0,"station_id":"","pricing_plan_id":"free"},{"bike_id":"f0ebddec-d6cc-4cea-9205-f0ce292b2962","system_id":"levelo_inurba_marseille","lat":43.278128,"lon":5.407195,"is_reserved":false,"is_disabled":false,"rental_uris":{"android":"levelo://app?vid=f0ebddec-d6cc-4cea-9205-f0ce292b2962","ios":"levelo://app?vid=f0ebddec-d6cc-4cea-9205-f0ce292b2962"},"vehicle_type_id":"4","last_reported":1702195749,"current_range_meters":26800,"station_id":"ce4bhnh2rcd13ifvqgtg","pricing_plan_id":"free"},{"bike_id":"be8b92ea-1c09-44aa-b85f-00eed445ecb3","system_id":"levelo_inurba_marseille","lat":43.279453,"lon":5.410492,"is_reserved":false,"is_disabled":false,"rental_uris":{"android":"levelo://app?vid=be8b92ea-1c09-44aa-b85f-00eed445ecb3","ios":"levelo://app?vid=be8b92ea-1c09-44aa-b85f-00eed445ecb3"},"vehicle_type_id":"4","last_reported":1702195749,"current_range_meters":14000,"station_id":"ce4bhnp2rcd13ifvqh0g","pricing_plan_id":"free"},{"bike_id":"dc281884-6c8a-483e-bac4-030521a08bd1","system_id":"levelo_inurba_marseille","lat":43.279465,"lon":5.410561,"is_reserved":false,"is_disabled":false,"rental_uris":{"android":"levelo://app?vid=dc281884-6c8a-483e-bac4-030521a08bd1","ios":"levelo://app?vid=dc281884-6c8a-483e-bac4-030521a08bd1"},"vehicle_type_id":"4","last_reported":1702195749,"current_range_meters":26400,"station_id":"ce4bhnp2rcd13ifvqh0g","pricing_plan_id":"free"},{"bike_id":"02978ae7-dc4e-4418-95db-592c2015b82a","system_id":"levelo_inurba_marseille","lat":43.26555,"lon":5.37286,"is_reserved":false,"is_disabled":false,"rental_uris":{"android":"levelo://app?vid=02978ae7-dc4e-4418-95db-592c2015b82a","ios":"levelo://app?vid=02978ae7-dc4e-4418-95db-592c2015b82a"},"vehicle_type_id":"4","last_reported":1702195749,"current_range_meters":25200,"station_id":"ce4bhg12rcd13ifvqf70","pricing_plan_id":"free"},{"bike_id":"b13193fc-ca28-429e-808e-52ccff7d8ef2","system_id":"levelo_inurba_marseille","lat":43.27993,"lon":5.41655,"is_reserved":false,"is_disabled":false,"rental_uris":{"android":"levelo://app?vid=b13193fc-ca28-429e-808e-52ccff7d8ef2","ios":"levelo://app?vid=b13193fc-ca28-429e-808e-52ccff7d8ef2"},"vehicle_type_id":"4","last_reported":1702195749,"current_range_meters":30800,"station_id":"ce4bho12rcd13ifvqh1g","pricing_plan_id":"free"},{"bike_id":"9da712cb-385d-4ab6-9d63-ebdddd761536","system_id":"levelo_inurba_marseille","lat":43.27999,"lon":5.41664,"is_reserved":false,"is_disabled":false,"rental_uris":{"android":"levelo://app?vid=9da712cb-385d-4ab6-9d63-ebdddd761536","ios":"levelo://app?vid=9da712cb-385d-4ab6-9d63-ebdddd761536"},"vehicle_type_id":"4","last_reported":1702195749,"current_range_meters":31200,"station_id":"ce4bho12rcd13ifvqh1g","pricing_plan_id":"free"},{"bike_id":"19cc942f-ece9-40d3-8083-cccfba7fe5b1","system_id":"levelo_inurba_marseille","lat":43.279881,"lon":5.416579,"is_reserved":false,"is_disabled":false,"rental_uris":{"android":"levelo://app?vid=19cc942f-ece9-40d3-8083-cccfba7fe5b1","ios":"levelo://app?vid=19cc942f-ece9-40d3-8083-cccfba7fe5b1"},"vehicle_type_id":"4","last_reported":1702195749,"current_range_meters":0,"station_id":"ce4bho12rcd13ifvqh1g","pricing_plan_id":"free"},{"bike_id":"4add95f2-2b11-41d1-bd6e-7e6b527ea6f9","system_id":"levelo_inurba_marseille","lat":43.267966,"lon":5.393976,"is_reserved":false,"is_disabled":false,"rental_uris":{"android":"levelo://app?vid=4add95f2-2b11-41d1-bd6e-7e6b527ea6f9","ios":"levelo://app?vid=4add95f2-2b11-41d1-bd6e-7e6b527ea6f9"},"vehicle_type_id":"4","last_reported":1702195749,"current_range_meters":30000,"station_id":"ce4bhh12rcd13ifvqfg0","pricing_plan_id":"free"},{"bike_id":"74945471-49c2-4e6d-a307-30ade296f3ca","system_id":"levelo_inurba_marseille","lat":43.26361,"lon":5.37539,"is_reserved":false,"is_disabled":false,"rental_uris":{"android":"levelo://app?vid=74945471-49c2-4e6d-a307-30ade296f3ca","ios":"levelo://app?vid=74945471-49c2-4e6d-a307-30ade296f3ca"},"vehicle_type_id":"4","last_reported":1702195749,"current_range_meters":11200,"station_id":"","pricing_plan_id":"free"},{"bike_id":"1594ab0c-8aba-4a4a-83ff-da41c83152d6","system_id":"levelo_inurba_marseille","lat":43.308051,"lon":5.43527,"is_reserved":false,"is_disabled":false,"rental_uris":{"android":"levelo://app?vid=1594ab0c-8aba-4a4a-83ff-da41c83152d6","ios":"levelo://app?vid=1594ab0c-8aba-4a4a-83ff-da41c83152d6"},"vehicle_type_id":"4","last_reported":1702195749,"current_range_meters":26000,"station_id":"ce4bhph2rcd13ifvqheg","pricing_plan_id":"free"},{"bike_id":"983ed045-1f7b-4579-b9d1-f93588aba3b1","system_id":"levelo_inurba_marseille","lat":43.30797,"lon":5.43531,"is_reserved":false,"is_disabled":false,"rental_uris":{"android":"levelo://app?vid=983ed045-1f7b-4579-b9d1-f93588aba3b1","ios":"levelo://app?vid=983ed045-1f7b-4579-b9d1-f93588aba3b1"},"vehicle_type_id":"4","last_reported":1702195749,"current_range_meters":30000,"station_id":"ce4bhph2rcd13ifvqheg","pricing_plan_id":"free"},{"bike_id":"0e5d4cb7-17cd-40bb-8cdc-cb12dbe8b887","system_id":"levelo_inurba_marseille","lat":43.26942,"lon":5.40247,"is_reserved":false,"is_disabled":false,"rental_uris":{"android":"levelo://app?vid=0e5d4cb7-17cd-40bb-8cdc-cb12dbe8b887","ios":"levelo://app?vid=0e5d4cb7-17cd-40bb-8cdc-cb12dbe8b887"},"vehicle_type_id":"4","last_reported":1702195749,"current_range_meters":19600,"station_id":"cjm6bp8fraef2m0cb0m0","pricing_plan_id":"free"},{"bike_id":"ff48d4e2-17f1-49a1-8100-dd0025443bdf","system_id":"levelo_inurba_marseille","lat":43.26937,"lon":5.40255,"is_reserved":false,"is_disabled":false,"rental_uris":{"android":"levelo://app?vid=ff48d4e2-17f1-49a1-8100-dd0025443bdf","ios":"levelo://app?vid=ff48d4e2-17f1-49a1-8100-dd0025443bdf"},"vehicle_type_id":"4","last_reported":1702195749,"current_range_meters":24800,"station_id":"cjm6bp8fraef2m0cb0m0","pricing_plan_id":"free"},{"bike_id":"6e4ef9a4-8ece-4932-b43b-b3a60d61a2ca","system_id":"levelo_inurba_marseille","lat":43.317104,"lon":5.436818,"is_reserved":false,"is_disabled":false,"rental_uris":{"android":"levelo://app?vid=6e4ef9a4-8ece-4932-b43b-b3a60d61a2ca","ios":"levelo://app?vid=6e4ef9a4-8ece-4932-b43b-b3a60d61a2ca"},"vehicle_type_id":"4","last_reported":1702195749,"current_range_meters":1200,"station_id":"ce4bhp92rcd13ifvqhcg","pricing_plan_id":"free"},{"bike_id":"dbacbb4a-9e99-4a7a-9713-43dac221ae4c","system_id":"levelo_inurba_marseille","lat":43.317104,"lon":5.436818,"is_reserved":false,"is_disabled":false,"rental_uris":{"android":"levelo://app?vid=dbacbb4a-9e99-4a7a-9713-43dac221ae4c","ios":"levelo://app?vid=dbacbb4a-9e99-4a7a-9713-43dac221ae4c"},"vehicle_type_id":"4","last_reported":1702195749,"current_range_meters":31200,"station_id":"ce4bhp92rcd13ifvqhcg","pricing_plan_id":"free"},{"bike_id":"e2a5fdfb-8206-4159-81d6-1ab96fe4d7e7","system_id":"levelo_inurba_marseille","lat":43.262012,"lon":5.379307,"is_reserved":false,"is_disabled":false,"rental_uris":{"android":"levelo://app?vid=e2a5fdfb-8206-4159-81d6-1ab96fe4d7e7","ios":"levelo://app?vid=e2a5fdfb-8206-4159-81d6-1ab96fe4d7e7"},"vehicle_type_id":"4","last_reported":1702195749,"current_range_meters":26800,"station_id":"ce4bhjp2rcd13ifvqg90","pricing_plan_id":"free"},{"bike_id":"3ef100ae-f89f-44f5-89e8-967b4acd17f5","system_id":"levelo_inurba_marseille","lat":43.26202,"lon":5.379299,"is_reserved":false,"is_disabled":false,"rental_uris":{"android":"levelo://app?vid=3ef100ae-f89f-44f5-89e8-967b4acd17f5","ios":"levelo://app?vid=3ef100ae-f89f-44f5-89e8-967b4acd17f5"},"vehicle_type_id":"4","last_reported":1702195749,"current_range_meters":27600,"station_id":"ce4bhjp2rcd13ifvqg90","pricing_plan_id":"free"},{"bike_id":"4f68f183-a711-4386-a731-e8ea8e2f115e","system_id":"levelo_inurba_marseille","lat":43.298768,"lon":5.43643,"is_reserved":false,"is_disabled":false,"rental_uris":{"android":"levelo://app?vid=4f68f183-a711-4386-a731-e8ea8e2f115e","ios":"levelo://app?vid=4f68f183-a711-4386-a731-e8ea8e2f115e"},"vehicle_type_id":"4","last_reported":1702195749,"current_range_meters":24800,"station_id":"ce4bhpp2rcd13ifvqhfg","pricing_plan_id":"free"},{"bike_id":"5f2d3882-2773-4d5c-828c-4c3c96bb97f7","system_id":"levelo_inurba_marseille","lat":43.298768,"lon":5.43643,"is_reserved":false,"is_disabled":false,"rental_uris":{"android":"levelo://app?vid=5f2d3882-2773-4d5c-828c-4c3c96bb97f7","ios":"levelo://app?vid=5f2d3882-2773-4d5c-828c-4c3c96bb97f7"},"vehicle_type_id":"4","last_reported":1702195749,"current_range_meters":31200,"station_id":"ce4bhpp2rcd13ifvqhfg","pricing_plan_id":"free"},{"bike_id":"70c52fa1-91be-4fbd-9217-7a0c668f9310","system_id":"levelo_inurba_marseille","lat":43.299015,"lon":5.43659,"is_reserved":false,"is_disabled":false,"rental_uris":{"android":"levelo://app?vid=70c52fa1-91be-4fbd-9217-7a0c668f9310","ios":"levelo://app?vid=70c52fa1-91be-4fbd-9217-7a0c668f9310"},"vehicle_type_id":"4","last_reported":1702195749,"current_range_meters":22000,"station_id":"ce4bhpp2rcd13ifvqhfg","pricing_plan_id":"free"},{"bike_id":"c4a32d8b-8a0b-4189-aa9f-2983a413dfe8","system_id":"levelo_inurba_marseille","lat":43.299018,"lon":5.436634,"is_reserved":false,"is_disabled":false,"rental_uris":{"android":"levelo://app?vid=c4a32d8b-8a0b-4189-aa9f-2983a413dfe8","ios":"levelo://app?vid=c4a32d8b-8a0b-4189-aa9f-2983a413dfe8"},"vehicle_type_id":"4","last_reported":1702195749,"current_range_meters":26800,"station_id":"ce4bhpp2rcd13ifvqhfg","pricing_plan_id":"free"},{"bike_id":"83e2018e-7127-4415-8bbf-2e347a9c6750","system_id":"levelo_inurba_marseille","lat":43.298977,"lon":5.436628,"is_reserved":false,"is_disabled":false,"rental_uris":{"android":"levelo://app?vid=83e2018e-7127-4415-8bbf-2e347a9c6750","ios":"levelo://app?vid=83e2018e-7127-4415-8bbf-2e347a9c6750"},"vehicle_type_id":"4","last_reported":1702195749,"current_range_meters":26400,"station_id":"ce4bhpp2rcd13ifvqhfg","pricing_plan_id":"free"},{"bike_id":"6b17b896-99f2-456b-929e-df3811eeb274","system_id":"levelo_inurba_marseille","lat":43.298768,"lon":5.43643,"is_reserved":false,"is_disabled":false,"rental_uris":{"android":"levelo://app?vid=6b17b896-99f2-456b-929e-df3811eeb274","ios":"levelo://app?vid=6b17b896-99f2-456b-929e-df3811eeb274"},"vehicle_type_id":"4","last_reported":1702195749,"current_range_meters":27200,"station_id":"ce4bhpp2rcd13ifvqhfg","pricing_plan_id":"free"},{"bike_id":"b9063a33-13b5-4cca-826c-3f51be03f8ec","system_id":"levelo_inurba_marseille","lat":43.281548,"lon":5.42643,"is_reserved":false,"is_disabled":false,"rental_uris":{"android":"levelo://app?vid=b9063a33-13b5-4cca-826c-3f51be03f8ec","ios":"levelo://app?vid=b9063a33-13b5-4cca-826c-3f51be03f8ec"},"vehicle_type_id":"4","last_reported":1702195749,"current_range_meters":31200,"station_id":"ce4bhnh2rcd13ifvqgug","pricing_plan_id":"free"},{"bike_id":"0341a2e7-04a4-4d8e-b96d-44e5882da047","system_id":"levelo_inurba_marseille","lat":43.275028,"lon":5.424534,"is_reserved":false,"is_disabled":false,"rental_uris":{"android":"levelo://app?vid=0341a2e7-04a4-4d8e-b96d-44e5882da047","ios":"levelo://app?vid=0341a2e7-04a4-4d8e-b96d-44e5882da047"},"vehicle_type_id":"4","last_reported":1702195749,"current_range_meters":27600,"station_id":"ce4bhn92rcd13ifvqgrg","pricing_plan_id":"free"},{"bike_id":"2f004831-b00c-4e4a-b7b3-6d00fc459a36","system_id":"levelo_inurba_marseille","lat":43.25587,"lon":5.38231,"is_reserved":false,"is_disabled":false,"rental_uris":{"android":"levelo://app?vid=2f004831-b00c-4e4a-b7b3-6d00fc459a36","ios":"levelo://app?vid=2f004831-b00c-4e4a-b7b3-6d00fc459a36"},"vehicle_type_id":"4","last_reported":1702195749,"current_range_meters":9200,"station_id":"ce4bhih2rcd13ifvqfs0","pricing_plan_id":"free"},{"bike_id":"c84a2b07-1a24-4c2b-9039-a2e319dc57fc","system_id":"levelo_inurba_marseille","lat":43.255756,"lon":5.382303,"is_reserved":false,"is_disabled":false,"rental_uris":{"android":"levelo://app?vid=c84a2b07-1a24-4c2b-9039-a2e319dc57fc","ios":"levelo://app?vid=c84a2b07-1a24-4c2b-9039-a2e319dc57fc"},"vehicle_type_id":"4","last_reported":1702195749,"current_range_meters":4000,"station_id":"ce4bhih2rcd13ifvqfs0","pricing_plan_id":"free"},{"bike_id":"9403a47c-9166-4906-a009-e96cb999ffef","system_id":"levelo_inurba_marseille","lat":43.254947,"lon":5.376454,"is_reserved":false,"is_disabled":false,"rental_uris":{"android":"levelo://app?vid=9403a47c-9166-4906-a009-e96cb999ffef","ios":"levelo://app?vid=9403a47c-9166-4906-a009-e96cb999ffef"},"vehicle_type_id":"4","last_reported":1702195749,"current_range_meters":23600,"station_id":"ce4bhh12rcd13ifvqff0","pricing_plan_id":"free"},{"bike_id":"71e4f32e-ccb2-4c9d-ad16-d9b4cb1405d0","system_id":"levelo_inurba_marseille","lat":43.254947,"lon":5.376454,"is_reserved":false,"is_disabled":false,"rental_uris":{"android":"levelo://app?vid=71e4f32e-ccb2-4c9d-ad16-d9b4cb1405d0","ios":"levelo://app?vid=71e4f32e-ccb2-4c9d-ad16-d9b4cb1405d0"},"vehicle_type_id":"4","last_reported":1702195749,"current_range_meters":16000,"station_id":"ce4bhh12rcd13ifvqff0","pricing_plan_id":"free"},{"bike_id":"46488328-c339-4346-9280-ec5f809f328b","system_id":"levelo_inurba_marseille","lat":43.270721,"lon":5.422764,"is_reserved":false,"is_disabled":false,"rental_uris":{"android":"levelo://app?vid=46488328-c339-4346-9280-ec5f809f328b","ios":"levelo://app?vid=46488328-c339-4346-9280-ec5f809f328b"},"vehicle_type_id":"4","last_reported":1702195749,"current_range_meters":23600,"station_id":"ce4bhk92rcd13ifvqgb0","pricing_plan_id":"free"},{"bike_id":"c4962b24-02bb-4eb6-abd3-b5c966e043fc","system_id":"levelo_inurba_marseille","lat":43.250009,"lon":5.389195,"is_reserved":false,"is_disabled":false,"rental_uris":{"android":"levelo://app?vid=c4962b24-02bb-4eb6-abd3-b5c966e043fc","ios":"levelo://app?vid=c4962b24-02bb-4eb6-abd3-b5c966e043fc"},"vehicle_type_id":"4","last_reported":1702195749,"current_range_meters":27600,"station_id":"ce4bhgp2rcd13ifvqfd0","pricing_plan_id":"free"},{"bike_id":"deeabba4-3efb-4ead-8f41-4e9c61bc0f7c","system_id":"levelo_inurba_marseille","lat":43.250023,"lon":5.38919,"is_reserved":false,"is_disabled":false,"rental_uris":{"android":"levelo://app?vid=deeabba4-3efb-4ead-8f41-4e9c61bc0f7c","ios":"levelo://app?vid=deeabba4-3efb-4ead-8f41-4e9c61bc0f7c"},"vehicle_type_id":"4","last_reported":1702195749,"current_range_meters":27200,"station_id":"ce4bhgp2rcd13ifvqfd0","pricing_plan_id":"free"},{"bike_id":"b254cc68-7ded-4b0c-9b18-01968b6035f5","system_id":"levelo_inurba_marseille","lat":43.2479,"lon":5.374457,"is_reserved":false,"is_disabled":false,"rental_uris":{"android":"levelo://app?vid=b254cc68-7ded-4b0c-9b18-01968b6035f5","ios":"levelo://app?vid=b254cc68-7ded-4b0c-9b18-01968b6035f5"},"vehicle_type_id":"4","last_reported":1702195749,"current_range_meters":26800,"station_id":"ce4bhgh2rcd13ifvqfb0","pricing_plan_id":"free"},{"bike_id":"37a79cee-3c73-43bf-98f2-248543826831","system_id":"levelo_inurba_marseille","lat":43.2479,"lon":5.374457,"is_reserved":false,"is_disabled":false,"rental_uris":{"android":"levelo://app?vid=37a79cee-3c73-43bf-98f2-248543826831","ios":"levelo://app?vid=37a79cee-3c73-43bf-98f2-248543826831"},"vehicle_type_id":"4","last_reported":1702195749,"current_range_meters":30400,"station_id":"ce4bhgh2rcd13ifvqfb0","pricing_plan_id":"free"},{"bike_id":"ecaaa105-2a48-4c50-8e07-9c077b4c4844","system_id":"levelo_inurba_marseille","lat":43.2479,"lon":5.374457,"is_reserved":false,"is_disabled":false,"rental_uris":{"android":"levelo://app?vid=ecaaa105-2a48-4c50-8e07-9c077b4c4844","ios":"levelo://app?vid=ecaaa105-2a48-4c50-8e07-9c077b4c4844"},"vehicle_type_id":"4","last_reported":1702195749,"current_range_meters":10000,"station_id":"ce4bhgh2rcd13ifvqfb0","pricing_plan_id":"free"},{"bike_id":"41969743-2e50-48cb-8161-aa851361b17e","system_id":"levelo_inurba_marseille","lat":43.250966,"lon":5.395186,"is_reserved":false,"is_disabled":false,"rental_uris":{"android":"levelo://app?vid=41969743-2e50-48cb-8161-aa851361b17e","ios":"levelo://app?vid=41969743-2e50-48cb-8161-aa851361b17e"},"vehicle_type_id":"4","last_reported":1702195749,"current_range_meters":31200,"station_id":"ce4bhm12rcd13ifvqgkg","pricing_plan_id":"free"},{"bike_id":"89f6b9c7-2e47-467d-a5da-27592e88272c","system_id":"levelo_inurba_marseille","lat":43.250966,"lon":5.395186,"is_reserved":false,"is_disabled":false,"rental_uris":{"android":"levelo://app?vid=89f6b9c7-2e47-467d-a5da-27592e88272c","ios":"levelo://app?vid=89f6b9c7-2e47-467d-a5da-27592e88272c"},"vehicle_type_id":"4","last_reported":1702195749,"current_range_meters":31200,"station_id":"ce4bhm12rcd13ifvqgkg","pricing_plan_id":"free"},{"bike_id":"e8e987f9-9cec-4c4b-9320-30911ed37f92","system_id":"levelo_inurba_marseille","lat":43.24693,"lon":5.382096,"is_reserved":false,"is_disabled":false,"rental_uris":{"android":"levelo://app?vid=e8e987f9-9cec-4c4b-9320-30911ed37f92","ios":"levelo://app?vid=e8e987f9-9cec-4c4b-9320-30911ed37f92"},"vehicle_type_id":"4","last_reported":1702195749,"current_range_meters":7200,"station_id":"ce4bhih2rcd13ifvqfr0","pricing_plan_id":"free"},{"bike_id":"3f2977c7-2d3e-4b05-813b-c8cad00b1d30","system_id":"levelo_inurba_marseille","lat":43.25102,"lon":5.403214,"is_reserved":false,"is_disabled":false,"rental_uris":{"android":"levelo://app?vid=3f2977c7-2d3e-4b05-813b-c8cad00b1d30","ios":"levelo://app?vid=3f2977c7-2d3e-4b05-813b-c8cad00b1d30"},"vehicle_type_id":"4","last_reported":1702195749,"current_range_meters":4000,"station_id":"ce4bhlh2rcd13ifvqgig","pricing_plan_id":"free"},{"bike_id":"d608bd2a-1e64-45d8-8604-2f7a0c32cafc","system_id":"levelo_inurba_marseille","lat":43.25113,"lon":5.40323,"is_reserved":false,"is_disabled":false,"rental_uris":{"android":"levelo://app?vid=d608bd2a-1e64-45d8-8604-2f7a0c32cafc","ios":"levelo://app?vid=d608bd2a-1e64-45d8-8604-2f7a0c32cafc"},"vehicle_type_id":"4","last_reported":1702195749,"current_range_meters":18800,"station_id":"ce4bhlh2rcd13ifvqgig","pricing_plan_id":"free"},{"bike_id":"9dc6e68a-3233-4e75-b32d-e08b4c53470d","system_id":"levelo_inurba_marseille","lat":43.2511,"lon":5.40323,"is_reserved":false,"is_disabled":false,"rental_uris":{"android":"levelo://app?vid=9dc6e68a-3233-4e75-b32d-e08b4c53470d","ios":"levelo://app?vid=9dc6e68a-3233-4e75-b32d-e08b4c53470d"},"vehicle_type_id":"4","last_reported":1702195749,"current_range_meters":18000,"station_id":"ce4bhlh2rcd13ifvqgig","pricing_plan_id":"free"},{"bike_id":"0d1213a3-e784-41d4-aebb-4f491d90bbd2","system_id":"levelo_inurba_marseille","lat":43.25106,"lon":5.40327,"is_reserved":false,"is_disabled":false,"rental_uris":{"android":"levelo://app?vid=0d1213a3-e784-41d4-aebb-4f491d90bbd2","ios":"levelo://app?vid=0d1213a3-e784-41d4-aebb-4f491d90bbd2"},"vehicle_type_id":"4","last_reported":1702195749,"current_range_meters":21200,"station_id":"ce4bhlh2rcd13ifvqgig","pricing_plan_id":"free"},{"bike_id":"5e605dd7-7449-4197-aebf-bcb50d65c55f","system_id":"levelo_inurba_marseille","lat":43.246461,"lon":5.389014,"is_reserved":false,"is_disabled":false,"rental_uris":{"android":"levelo://app?vid=5e605dd7-7449-4197-aebf-bcb50d65c55f","ios":"levelo://app?vid=5e605dd7-7449-4197-aebf-bcb50d65c55f"},"vehicle_type_id":"4","last_reported":1702195749,"current_range_meters":27600,"station_id":"ce4bhg12rcd13ifvqf60","pricing_plan_id":"free"},{"bike_id":"1a23636c-273b-427e-ba3a-4cc57a24dce9","system_id":"levelo_inurba_marseille","lat":43.246467,"lon":5.388984,"is_reserved":false,"is_disabled":false,"rental_uris":{"android":"levelo://app?vid=1a23636c-273b-427e-ba3a-4cc57a24dce9","ios":"levelo://app?vid=1a23636c-273b-427e-ba3a-4cc57a24dce9"},"vehicle_type_id":"4","last_reported":1702195749,"current_range_meters":29600,"station_id":"ce4bhg12rcd13ifvqf60","pricing_plan_id":"free"},{"bike_id":"fd3f6665-316c-41dc-94ab-145c31afc58a","system_id":"levelo_inurba_marseille","lat":43.246457,"lon":5.389115,"is_reserved":false,"is_disabled":false,"rental_uris":{"android":"levelo://app?vid=fd3f6665-316c-41dc-94ab-145c31afc58a","ios":"levelo://app?vid=fd3f6665-316c-41dc-94ab-145c31afc58a"},"vehicle_type_id":"4","last_reported":1702195749,"current_range_meters":26800,"station_id":"","pricing_plan_id":"free"},{"bike_id":"c3901b09-d68f-4dd0-9d45-380144f89c00","system_id":"levelo_inurba_marseille","lat":43.243884,"lon":5.370737,"is_reserved":false,"is_disabled":false,"rental_uris":{"android":"levelo://app?vid=c3901b09-d68f-4dd0-9d45-380144f89c00","ios":"levelo://app?vid=c3901b09-d68f-4dd0-9d45-380144f89c00"},"vehicle_type_id":"4","last_reported":1702195749,"current_range_meters":31200,"station_id":"ce4bhhh2rcd13ifvqfk0","pricing_plan_id":"free"},{"bike_id":"4be15561-cb90-4d46-9d25-d93d6ef6aaa0","system_id":"levelo_inurba_marseille","lat":43.243884,"lon":5.370737,"is_reserved":false,"is_disabled":false,"rental_uris":{"android":"levelo://app?vid=4be15561-cb90-4d46-9d25-d93d6ef6aaa0","ios":"levelo://app?vid=4be15561-cb90-4d46-9d25-d93d6ef6aaa0"},"vehicle_type_id":"4","last_reported":1702195749,"current_range_meters":29200,"station_id":"ce4bhhh2rcd13ifvqfk0","pricing_plan_id":"free"},{"bike_id":"07dede9f-b29f-4a51-a4af-7e4eed41d00c","system_id":"levelo_inurba_marseille","lat":43.243884,"lon":5.370736,"is_reserved":false,"is_disabled":false,"rental_uris":{"android":"levelo://app?vid=07dede9f-b29f-4a51-a4af-7e4eed41d00c","ios":"levelo://app?vid=07dede9f-b29f-4a51-a4af-7e4eed41d00c"},"vehicle_type_id":"4","last_reported":1702195749,"current_range_meters":31200,"station_id":"ce4bhhh2rcd13ifvqfk0","pricing_plan_id":"free"},{"bike_id":"c16a1286-3c23-49d2-b110-1ce5ddf6b528","system_id":"levelo_inurba_marseille","lat":43.245581,"lon":5.395069,"is_reserved":false,"is_disabled":false,"rental_uris":{"android":"levelo://app?vid=c16a1286-3c23-49d2-b110-1ce5ddf6b528","ios":"levelo://app?vid=c16a1286-3c23-49d2-b110-1ce5ddf6b528"},"vehicle_type_id":"4","last_reported":1702195749,"current_range_meters":16800,"station_id":"ce4bhlp2rcd13ifvqgjg","pricing_plan_id":"free"},{"bike_id":"2189fc5b-972b-481a-8599-b7f74600c485","system_id":"levelo_inurba_marseille","lat":43.245581,"lon":5.395069,"is_reserved":false,"is_disabled":false,"rental_uris":{"android":"levelo://app?vid=2189fc5b-972b-481a-8599-b7f74600c485","ios":"levelo://app?vid=2189fc5b-972b-481a-8599-b7f74600c485"},"vehicle_type_id":"4","last_reported":1702195749,"current_range_meters":31200,"station_id":"ce4bhlp2rcd13ifvqgjg","pricing_plan_id":"free"},{"bike_id":"92bbcc08-2e4f-4b21-893d-04844baae76e","system_id":"levelo_inurba_marseille","lat":43.245581,"lon":5.395069,"is_reserved":false,"is_disabled":false,"rental_uris":{"android":"levelo://app?vid=92bbcc08-2e4f-4b21-893d-04844baae76e","ios":"levelo://app?vid=92bbcc08-2e4f-4b21-893d-04844baae76e"},"vehicle_type_id":"4","last_reported":1702195749,"current_range_meters":30000,"station_id":"ce4bhlp2rcd13ifvqgjg","pricing_plan_id":"free"},{"bike_id":"e0027151-3876-4e17-8b4a-b5c8f5b31988","system_id":"levelo_inurba_marseille","lat":43.240623,"lon":5.377642,"is_reserved":false,"is_disabled":false,"rental_uris":{"android":"levelo://app?vid=e0027151-3876-4e17-8b4a-b5c8f5b31988","ios":"levelo://app?vid=e0027151-3876-4e17-8b4a-b5c8f5b31988"},"vehicle_type_id":"4","last_reported":1702195749,"current_range_meters":14800,"station_id":"ce4bhnp2rcd13ifvqgvg","pricing_plan_id":"free"},{"bike_id":"4957a337-3ca2-4e57-9d2b-f7ca1f659f14","system_id":"levelo_inurba_marseille","lat":43.240623,"lon":5.377642,"is_reserved":false,"is_disabled":false,"rental_uris":{"android":"levelo://app?vid=4957a337-3ca2-4e57-9d2b-f7ca1f659f14","ios":"levelo://app?vid=4957a337-3ca2-4e57-9d2b-f7ca1f659f14"},"vehicle_type_id":"4","last_reported":1702195749,"current_range_meters":13200,"station_id":"ce4bhnp2rcd13ifvqgvg","pricing_plan_id":"free"},{"bike_id":"e23e6f4c-b4a9-4b45-8d2d-3376b5cc5c6a","system_id":"levelo_inurba_marseille","lat":43.240623,"lon":5.377642,"is_reserved":false,"is_disabled":false,"rental_uris":{"android":"levelo://app?vid=e23e6f4c-b4a9-4b45-8d2d-3376b5cc5c6a","ios":"levelo://app?vid=e23e6f4c-b4a9-4b45-8d2d-3376b5cc5c6a"},"vehicle_type_id":"4","last_reported":1702195749,"current_range_meters":31200,"station_id":"ce4bhnp2rcd13ifvqgvg","pricing_plan_id":"free"},{"bike_id":"617c2586-f562-4602-ba86-a0b0c829c528","system_id":"levelo_inurba_marseille","lat":43.239588,"lon":5.366238,"is_reserved":false,"is_disabled":false,"rental_uris":{"android":"levelo://app?vid=617c2586-f562-4602-ba86-a0b0c829c528","ios":"levelo://app?vid=617c2586-f562-4602-ba86-a0b0c829c528"},"vehicle_type_id":"4","last_reported":1702195749,"current_range_meters":30800,"station_id":"ce4bhi12rcd13ifvqfp0","pricing_plan_id":"free"},{"bike_id":"dd51e42e-76c5-4a71-b86f-36ea61792ecb","system_id":"levelo_inurba_marseille","lat":43.241782,"lon":5.397264,"is_reserved":false,"is_disabled":false,"rental_uris":{"android":"levelo://app?vid=dd51e42e-76c5-4a71-b86f-36ea61792ecb","ios":"levelo://app?vid=dd51e42e-76c5-4a71-b86f-36ea61792ecb"},"vehicle_type_id":"4","last_reported":1702195749,"current_range_meters":13200,"station_id":"ce4bhn12rcd13ifvqgpg","pricing_plan_id":"free"},{"bike_id":"5bfc6137-deaa-46c8-b023-706fbe757221","system_id":"levelo_inurba_marseille","lat":43.241782,"lon":5.397261,"is_reserved":false,"is_disabled":false,"rental_uris":{"android":"levelo://app?vid=5bfc6137-deaa-46c8-b023-706fbe757221","ios":"levelo://app?vid=5bfc6137-deaa-46c8-b023-706fbe757221"},"vehicle_type_id":"4","last_reported":1702195749,"current_range_meters":30800,"station_id":"ce4bhn12rcd13ifvqgpg","pricing_plan_id":"free"},{"bike_id":"696980ad-f9d9-4995-b1c3-ecede5046486","system_id":"levelo_inurba_marseille","lat":43.241782,"lon":5.397261,"is_reserved":false,"is_disabled":false,"rental_uris":{"android":"levelo://app?vid=696980ad-f9d9-4995-b1c3-ecede5046486","ios":"levelo://app?vid=696980ad-f9d9-4995-b1c3-ecede5046486"},"vehicle_type_id":"4","last_reported":1702195749,"current_range_meters":27200,"station_id":"ce4bhn12rcd13ifvqgpg","pricing_plan_id":"free"},{"bike_id":"efdf0b62-a012-45f2-a093-48aedd562b0c","system_id":"levelo_inurba_marseille","lat":43.231919,"lon":5.355532,"is_reserved":false,"is_disabled":false,"rental_uris":{"android":"levelo://app?vid=efdf0b62-a012-45f2-a093-48aedd562b0c","ios":"levelo://app?vid=efdf0b62-a012-45f2-a093-48aedd562b0c"},"vehicle_type_id":"4","last_reported":1702195749,"current_range_meters":18800,"station_id":"ce4bhu92rcd13ifvqi70","pricing_plan_id":"free"},{"bike_id":"88360225-83fa-42a7-aa9d-04d6e2f27256","system_id":"levelo_inurba_marseille","lat":43.231919,"lon":5.355532,"is_reserved":false,"is_disabled":false,"rental_uris":{"android":"levelo://app?vid=88360225-83fa-42a7-aa9d-04d6e2f27256","ios":"levelo://app?vid=88360225-83fa-42a7-aa9d-04d6e2f27256"},"vehicle_type_id":"4","last_reported":1702195749,"current_range_meters":31200,"station_id":"ce4bhu92rcd13ifvqi70","pricing_plan_id":"free"},{"bike_id":"b96276b1-bc86-4ab5-bea8-83947df245f6","system_id":"levelo_inurba_marseille","lat":43.231919,"lon":5.355532,"is_reserved":false,"is_disabled":false,"rental_uris":{"android":"levelo://app?vid=b96276b1-bc86-4ab5-bea8-83947df245f6","ios":"levelo://app?vid=b96276b1-bc86-4ab5-bea8-83947df245f6"},"vehicle_type_id":"4","last_reported":1702195749,"current_range_meters":19600,"station_id":"ce4bhu92rcd13ifvqi70","pricing_plan_id":"free"},{"bike_id":"a8c501f0-1f0c-4126-b8d3-0e787022ce6a","system_id":"levelo_inurba_marseille","lat":43.231919,"lon":5.355532,"is_reserved":false,"is_disabled":false,"rental_uris":{"android":"levelo://app?vid=a8c501f0-1f0c-4126-b8d3-0e787022ce6a","ios":"levelo://app?vid=a8c501f0-1f0c-4126-b8d3-0e787022ce6a"},"vehicle_type_id":"4","last_reported":1702195749,"current_range_meters":31200,"station_id":"ce4bhu92rcd13ifvqi70","pricing_plan_id":"free"},{"bike_id":"22cd89f2-b023-439e-829d-c2731be2db27","system_id":"levelo_inurba_marseille","lat":43.231794,"lon":5.400052,"is_reserved":false,"is_disabled":false,"rental_uris":{"android":"levelo://app?vid=22cd89f2-b023-439e-829d-c2731be2db27","ios":"levelo://app?vid=22cd89f2-b023-439e-829d-c2731be2db27"},"vehicle_type_id":"4","last_reported":1702195749,"current_range_meters":3600,"station_id":"ce4bhn12rcd13ifvqgqg","pricing_plan_id":"free"},{"bike_id":"291500d0-9d8c-4548-9a9d-9a7f79b46317","system_id":"levelo_inurba_marseille","lat":43.231794,"lon":5.400052,"is_reserved":false,"is_disabled":false,"rental_uris":{"android":"levelo://app?vid=291500d0-9d8c-4548-9a9d-9a7f79b46317","ios":"levelo://app?vid=291500d0-9d8c-4548-9a9d-9a7f79b46317"},"vehicle_type_id":"4","last_reported":1702195749,"current_range_meters":31200,"station_id":"ce4bhn12rcd13ifvqgqg","pricing_plan_id":"free"},{"bike_id":"bfbb4102-66c5-4281-8850-ca35098b4665","system_id":"levelo_inurba_marseille","lat":43.231794,"lon":5.400052,"is_reserved":false,"is_disabled":false,"rental_uris":{"android":"levelo://app?vid=bfbb4102-66c5-4281-8850-ca35098b4665","ios":"levelo://app?vid=bfbb4102-66c5-4281-8850-ca35098b4665"},"vehicle_type_id":"4","last_reported":1702195749,"current_range_meters":23200,"station_id":"ce4bhn12rcd13ifvqgqg","pricing_plan_id":"free"},{"bike_id":"80019cd3-e779-4c71-b181-3cecb4aeecdb","system_id":"levelo_inurba_marseille","lat":43.231794,"lon":5.400052,"is_reserved":false,"is_disabled":false,"rental_uris":{"android":"levelo://app?vid=80019cd3-e779-4c71-b181-3cecb4aeecdb","ios":"levelo://app?vid=80019cd3-e779-4c71-b181-3cecb4aeecdb"},"vehicle_type_id":"4","last_reported":1702195749,"current_range_meters":10800,"station_id":"ce4bhn12rcd13ifvqgqg","pricing_plan_id":"free"},{"bike_id":"173eb18e-fdac-470f-92e7-9e4b8a0030f0","system_id":"levelo_inurba_marseille","lat":43.231793,"lon":5.400044,"is_reserved":false,"is_disabled":false,"rental_uris":{"android":"levelo://app?vid=173eb18e-fdac-470f-92e7-9e4b8a0030f0","ios":"levelo://app?vid=173eb18e-fdac-470f-92e7-9e4b8a0030f0"},"vehicle_type_id":"4","last_reported":1702195749,"current_range_meters":22000,"station_id":"ce4bhn12rcd13ifvqgqg","pricing_plan_id":"free"},{"bike_id":"92e5148d-4fb4-4386-8a07-4b4b7dd6e12c","system_id":"levelo_inurba_marseille","lat":43.231793,"lon":5.400044,"is_reserved":false,"is_disabled":false,"rental_uris":{"android":"levelo://app?vid=92e5148d-4fb4-4386-8a07-4b4b7dd6e12c","ios":"levelo://app?vid=92e5148d-4fb4-4386-8a07-4b4b7dd6e12c"},"vehicle_type_id":"4","last_reported":1702195749,"current_range_meters":30800,"station_id":"ce4bhn12rcd13ifvqgqg","pricing_plan_id":"free"},{"bike_id":"f4e1dd60-16f7-43e3-ad0a-3fe94fa1eb5c","system_id":"levelo_inurba_marseille","lat":43.231562,"lon":5.436933,"is_reserved":false,"is_disabled":false,"rental_uris":{"android":"levelo://app?vid=f4e1dd60-16f7-43e3-ad0a-3fe94fa1eb5c","ios":"levelo://app?vid=f4e1dd60-16f7-43e3-ad0a-3fe94fa1eb5c"},"vehicle_type_id":"4","last_reported":1702195749,"current_range_meters":7200,"station_id":"ce4bhmp2rcd13ifvqgog","pricing_plan_id":"free"},{"bike_id":"fb6cc714-659e-4d67-908c-bf9ffc457342","system_id":"levelo_inurba_marseille","lat":43.231562,"lon":5.436933,"is_reserved":false,"is_disabled":false,"rental_uris":{"android":"levelo://app?vid=fb6cc714-659e-4d67-908c-bf9ffc457342","ios":"levelo://app?vid=fb6cc714-659e-4d67-908c-bf9ffc457342"},"vehicle_type_id":"4","last_reported":1702195749,"current_range_meters":12400,"station_id":"ce4bhmp2rcd13ifvqgog","pricing_plan_id":"free"},{"bike_id":"0c4daa76-20b2-44aa-8f00-39adef08a916","system_id":"levelo_inurba_marseille","lat":43.231562,"lon":5.436933,"is_reserved":false,"is_disabled":false,"rental_uris":{"android":"levelo://app?vid=0c4daa76-20b2-44aa-8f00-39adef08a916","ios":"levelo://app?vid=0c4daa76-20b2-44aa-8f00-39adef08a916"},"vehicle_type_id":"4","last_reported":1702195749,"current_range_meters":30400,"station_id":"ce4bhmp2rcd13ifvqgog","pricing_plan_id":"free"}]}}