{"last_updated":1781204058,"ttl":60,"version":"2.2","data":{"bikes":[{"bike_id":"ec12d144-24c8-4071-abf6-197e520eae96","system_id":"levelo_inurba_marseille","lat":43.337444,"lon":5.374475,"is_reserved":false,"is_disabled":false,"rental_uris":{"android":"levelo://app?vid=ec12d144-24c8-4071-abf6-197e520eae96","ios":"levelo://app?vid=ec12d144-24c8-4071-abf6-197e520eae96"},"vehicle_type_id":"4","last_reported":1781204059,"current_range_meters":0,"station_id":"","pricing_plan_id":"cebpf4jnsgd1na2vs0mg"},{"bike_id":"2ff017c8-2cbc-493f-b435-f6a67427a94c","system_id":"levelo_inurba_marseille","lat":43.30121,"lon":5.43086,"is_reserved":false,"is_disabled":false,"rental_uris":{"android":"levelo://app?vid=2ff017c8-2cbc-493f-b435-f6a67427a94c","ios":"levelo://app?vid=2ff017c8-2cbc-493f-b435-f6a67427a94c"},"vehicle_type_id":"4","last_reported":1781204059,"current_range_meters":2800,"station_id":"st_d3js3co5814s73ftftug","pricing_plan_id":"cebpf4jnsgd1na2vs0mg"},{"bike_id":"1b6ca918-1743-49ab-af19-a83031407f07","system_id":"levelo_inurba_marseille","lat":43.23903,"lon":5.37432,"is_reserved":false,"is_disabled":true,"rental_uris":{"android":"levelo://app?vid=1b6ca918-1743-49ab-af19-a83031407f07","ios":"levelo://app?vid=1b6ca918-1743-49ab-af19-a83031407f07"},"vehicle_type_id":"4","last_reported":1781204059,"current_range_meters":2800,"station_id":"st_d6sm7csbq4hs73f8fpjg","pricing_plan_id":"cebpf4jnsgd1na2vs0mg"},{"bike_id":"c46384f4-53c8-4f51-8b80-c45773b69697","system_id":"levelo_inurba_marseille","lat":43.30173,"lon":5.37708,"is_reserved":false,"is_disabled":false,"rental_uris":{"android":"levelo://app?vid=c46384f4-53c8-4f51-8b80-c45773b69697","ios":"levelo://app?vid=c46384f4-53c8-4f51-8b80-c45773b69697"},"vehicle_type_id":"4","last_reported":1781204059,"current_range_meters":2800,"station_id":"","pricing_plan_id":"cebpf4jnsgd1na2vs0mg"},{"bike_id":"2143cd6c-a07c-4ba3-8e95-abf9053c01b2","system_id":"levelo_inurba_marseille","lat":43.2874,"lon":5.38891,"is_reserved":false,"is_disabled":false,"rental_uris":{"android":"levelo://app?vid=2143cd6c-a07c-4ba3-8e95-abf9053c01b2","ios":"levelo://app?vid=2143cd6c-a07c-4ba3-8e95-abf9053c01b2"},"vehicle_type_id":"4","last_reported":1781204059,"current_range_meters":2800,"station_id":"","pricing_plan_id":"cebpf4jnsgd1na2vs0mg"},{"bike_id":"41bf15b4-9e7d-4e15-89f5-448703554bd7","system_id":"levelo_inurba_marseille","lat":43.29017,"lon":5.37556,"is_reserved":false,"is_disabled":false,"rental_uris":{"android":"levelo://app?vid=41bf15b4-9e7d-4e15-89f5-448703554bd7","ios":"levelo://app?vid=41bf15b4-9e7d-4e15-89f5-448703554bd7"},"vehicle_type_id":"4","last_reported":1781204059,"current_range_meters":2800,"station_id":"ce4bh692rcd13ifvqe90","pricing_plan_id":"cebpf4jnsgd1na2vs0mg"},{"bike_id":"507b37da-4f43-4b75-9319-032917942125","system_id":"levelo_inurba_marseille","lat":43.29886,"lon":5.39733,"is_reserved":false,"is_disabled":false,"rental_uris":{"android":"levelo://app?vid=507b37da-4f43-4b75-9319-032917942125","ios":"levelo://app?vid=507b37da-4f43-4b75-9319-032917942125"},"vehicle_type_id":"4","last_reported":1781204059,"current_range_meters":2800,"station_id":"ce4bh0h2rcd13ifvqd50","pricing_plan_id":"cebpf4jnsgd1na2vs0mg"},{"bike_id":"bfead3df-3898-46ff-8027-03c813a765b0","system_id":"levelo_inurba_marseille","lat":43.30083,"lon":5.43079,"is_reserved":false,"is_disabled":false,"rental_uris":{"android":"levelo://app?vid=bfead3df-3898-46ff-8027-03c813a765b0","ios":"levelo://app?vid=bfead3df-3898-46ff-8027-03c813a765b0"},"vehicle_type_id":"4","last_reported":1781204059,"current_range_meters":2800,"station_id":"st_d3js3co5814s73ftftug","pricing_plan_id":"cebpf4jnsgd1na2vs0mg"},{"bike_id":"1b0eac04-f591-4a98-a859-f6b12de18cd7","system_id":"levelo_inurba_marseille","lat":43.28707,"lon":5.46663,"is_reserved":false,"is_disabled":false,"rental_uris":{"android":"levelo://app?vid=1b0eac04-f591-4a98-a859-f6b12de18cd7","ios":"levelo://app?vid=1b0eac04-f591-4a98-a859-f6b12de18cd7"},"vehicle_type_id":"4","last_reported":1781204059,"current_range_meters":2800,"station_id":"st_d6tc3vkotcvc738tfjhg","pricing_plan_id":"cebpf4jnsgd1na2vs0mg"},{"bike_id":"19228bef-fcd6-4271-8e37-37d6339d7079","system_id":"levelo_inurba_marseille","lat":43.26573,"lon":5.37298,"is_reserved":false,"is_disabled":false,"rental_uris":{"android":"levelo://app?vid=19228bef-fcd6-4271-8e37-37d6339d7079","ios":"levelo://app?vid=19228bef-fcd6-4271-8e37-37d6339d7079"},"vehicle_type_id":"4","last_reported":1781204059,"current_range_meters":2800,"station_id":"ce4bhg12rcd13ifvqf70","pricing_plan_id":"cebpf4jnsgd1na2vs0mg"},{"bike_id":"67aece76-5abe-432c-8d37-e20e73249db7","system_id":"levelo_inurba_marseille","lat":43.286614,"lon":5.386711,"is_reserved":false,"is_disabled":false,"rental_uris":{"android":"levelo://app?vid=67aece76-5abe-432c-8d37-e20e73249db7","ios":"levelo://app?vid=67aece76-5abe-432c-8d37-e20e73249db7"},"vehicle_type_id":"4","last_reported":1781204059,"current_range_meters":2800,"station_id":"ce4bh492rcd13ifvqdug","pricing_plan_id":"cebpf4jnsgd1na2vs0mg"},{"bike_id":"0bd54677-cb0b-4b74-84af-e60bfdebdc12","system_id":"levelo_inurba_marseille","lat":43.29169,"lon":5.37156,"is_reserved":false,"is_disabled":false,"rental_uris":{"android":"levelo://app?vid=0bd54677-cb0b-4b74-84af-e60bfdebdc12","ios":"levelo://app?vid=0bd54677-cb0b-4b74-84af-e60bfdebdc12"},"vehicle_type_id":"4","last_reported":1781204059,"current_range_meters":2800,"station_id":"ce4bha92rcd13ifvqeh0","pricing_plan_id":"cebpf4jnsgd1na2vs0mg"},{"bike_id":"3a1b71dc-839a-4870-9a71-9f1b373362f4","system_id":"levelo_inurba_marseille","lat":43.2657,"lon":5.38976,"is_reserved":false,"is_disabled":false,"rental_uris":{"android":"levelo://app?vid=3a1b71dc-839a-4870-9a71-9f1b373362f4","ios":"levelo://app?vid=3a1b71dc-839a-4870-9a71-9f1b373362f4"},"vehicle_type_id":"4","last_reported":1781204059,"current_range_meters":2800,"station_id":"ce4bhe12rcd13ifvqf30","pricing_plan_id":"cebpf4jnsgd1na2vs0mg"},{"bike_id":"4d735a9e-f2c8-4bb6-9521-dc1073864621","system_id":"levelo_inurba_marseille","lat":43.29287,"lon":5.42084,"is_reserved":false,"is_disabled":false,"rental_uris":{"android":"levelo://app?vid=4d735a9e-f2c8-4bb6-9521-dc1073864621","ios":"levelo://app?vid=4d735a9e-f2c8-4bb6-9521-dc1073864621"},"vehicle_type_id":"4","last_reported":1781204059,"current_range_meters":2800,"station_id":"","pricing_plan_id":"cebpf4jnsgd1na2vs0mg"},{"bike_id":"8d3cb676-a306-49cc-9efb-f43d02ac8dc2","system_id":"levelo_inurba_marseille","lat":43.29272,"lon":5.38445,"is_reserved":false,"is_disabled":false,"rental_uris":{"android":"levelo://app?vid=8d3cb676-a306-49cc-9efb-f43d02ac8dc2","ios":"levelo://app?vid=8d3cb676-a306-49cc-9efb-f43d02ac8dc2"},"vehicle_type_id":"4","last_reported":1781204059,"current_range_meters":2800,"station_id":"ce4bh692rcd13ifvqea0","pricing_plan_id":"cebpf4jnsgd1na2vs0mg"},{"bike_id":"ceac9220-73d0-4a52-b668-c1783a35963f","system_id":"levelo_inurba_marseille","lat":43.30212,"lon":5.36623,"is_reserved":false,"is_disabled":false,"rental_uris":{"android":"levelo://app?vid=ceac9220-73d0-4a52-b668-c1783a35963f","ios":"levelo://app?vid=ceac9220-73d0-4a52-b668-c1783a35963f"},"vehicle_type_id":"4","last_reported":1781204059,"current_range_meters":3200,"station_id":"ce4bgrh2rcd13ifvqc8g","pricing_plan_id":"cebpf4jnsgd1na2vs0mg"},{"bike_id":"f2861ad1-3e36-4887-9d63-001a384c787c","system_id":"levelo_inurba_marseille","lat":43.29278,"lon":5.38434,"is_reserved":false,"is_disabled":false,"rental_uris":{"android":"levelo://app?vid=f2861ad1-3e36-4887-9d63-001a384c787c","ios":"levelo://app?vid=f2861ad1-3e36-4887-9d63-001a384c787c"},"vehicle_type_id":"4","last_reported":1781204059,"current_range_meters":3200,"station_id":"ce4bh692rcd13ifvqea0","pricing_plan_id":"cebpf4jnsgd1na2vs0mg"},{"bike_id":"33676267-77eb-4130-9e3f-9f08bed2d07a","system_id":"levelo_inurba_marseille","lat":43.28848,"lon":5.4252,"is_reserved":false,"is_disabled":false,"rental_uris":{"android":"levelo://app?vid=33676267-77eb-4130-9e3f-9f08bed2d07a","ios":"levelo://app?vid=33676267-77eb-4130-9e3f-9f08bed2d07a"},"vehicle_type_id":"4","last_reported":1781204059,"current_range_meters":3200,"station_id":"st_d3b462108ojc7389ooeg","pricing_plan_id":"cebpf4jnsgd1na2vs0mg"},{"bike_id":"3e8f0d33-8a56-4117-a9cb-d3af529e5122","system_id":"levelo_inurba_marseille","lat":43.2658,"lon":5.39002,"is_reserved":false,"is_disabled":false,"rental_uris":{"android":"levelo://app?vid=3e8f0d33-8a56-4117-a9cb-d3af529e5122","ios":"levelo://app?vid=3e8f0d33-8a56-4117-a9cb-d3af529e5122"},"vehicle_type_id":"4","last_reported":1781204059,"current_range_meters":3200,"station_id":"ce4bhe12rcd13ifvqf30","pricing_plan_id":"cebpf4jnsgd1na2vs0mg"},{"bike_id":"2a8ee5a0-6852-44b0-a6e2-f4e4bf4a3fe5","system_id":"levelo_inurba_marseille","lat":43.25497,"lon":5.3891,"is_reserved":false,"is_disabled":true,"rental_uris":{"android":"levelo://app?vid=2a8ee5a0-6852-44b0-a6e2-f4e4bf4a3fe5","ios":"levelo://app?vid=2a8ee5a0-6852-44b0-a6e2-f4e4bf4a3fe5"},"vehicle_type_id":"4","last_reported":1781204059,"current_range_meters":3200,"station_id":"","pricing_plan_id":"cebpf4jnsgd1na2vs0mg"},{"bike_id":"9af18462-a9ef-420f-a4fd-49f8abc35c04","system_id":"levelo_inurba_marseille","lat":43.30881,"lon":5.39622,"is_reserved":false,"is_disabled":false,"rental_uris":{"android":"levelo://app?vid=9af18462-a9ef-420f-a4fd-49f8abc35c04","ios":"levelo://app?vid=9af18462-a9ef-420f-a4fd-49f8abc35c04"},"vehicle_type_id":"4","last_reported":1781204059,"current_range_meters":3200,"station_id":"ce4bh012rcd13ifvqcv0","pricing_plan_id":"cebpf4jnsgd1na2vs0mg"},{"bike_id":"3450a67a-1b5c-4440-b353-257f89a60875","system_id":"levelo_inurba_marseille","lat":43.29079,"lon":5.37174,"is_reserved":false,"is_disabled":false,"rental_uris":{"android":"levelo://app?vid=3450a67a-1b5c-4440-b353-257f89a60875","ios":"levelo://app?vid=3450a67a-1b5c-4440-b353-257f89a60875"},"vehicle_type_id":"4","last_reported":1781204059,"current_range_meters":3200,"station_id":"ce4bh5p2rcd13ifvqe4g","pricing_plan_id":"cebpf4jnsgd1na2vs0mg"},{"bike_id":"26a548b1-2ac5-4ad7-89b5-8bc650cf2caa","system_id":"levelo_inurba_marseille","lat":43.24699,"lon":5.38129,"is_reserved":false,"is_disabled":false,"rental_uris":{"android":"levelo://app?vid=26a548b1-2ac5-4ad7-89b5-8bc650cf2caa","ios":"levelo://app?vid=26a548b1-2ac5-4ad7-89b5-8bc650cf2caa"},"vehicle_type_id":"4","last_reported":1781204059,"current_range_meters":3200,"station_id":"","pricing_plan_id":"cebpf4jnsgd1na2vs0mg"},{"bike_id":"4c9315b6-5037-48f8-acd1-7a92cedaad02","system_id":"levelo_inurba_marseille","lat":43.27301,"lon":5.41037,"is_reserved":false,"is_disabled":false,"rental_uris":{"android":"levelo://app?vid=4c9315b6-5037-48f8-acd1-7a92cedaad02","ios":"levelo://app?vid=4c9315b6-5037-48f8-acd1-7a92cedaad02"},"vehicle_type_id":"4","last_reported":1781204059,"current_range_meters":3200,"station_id":"","pricing_plan_id":"cebpf4jnsgd1na2vs0mg"},{"bike_id":"3e4de553-df26-4c72-8bfd-65de60122813","system_id":"levelo_inurba_marseille","lat":43.29018,"lon":5.35613,"is_reserved":false,"is_disabled":false,"rental_uris":{"android":"levelo://app?vid=3e4de553-df26-4c72-8bfd-65de60122813","ios":"levelo://app?vid=3e4de553-df26-4c72-8bfd-65de60122813"},"vehicle_type_id":"4","last_reported":1781204059,"current_range_meters":3200,"station_id":"ce4bhb92rcd13ifvqen0","pricing_plan_id":"cebpf4jnsgd1na2vs0mg"},{"bike_id":"4cf4a57f-7f39-4e6d-9c3f-ccda5af3ecde","system_id":"levelo_inurba_marseille","lat":43.29047,"lon":5.35919,"is_reserved":false,"is_disabled":false,"rental_uris":{"android":"levelo://app?vid=4cf4a57f-7f39-4e6d-9c3f-ccda5af3ecde","ios":"levelo://app?vid=4cf4a57f-7f39-4e6d-9c3f-ccda5af3ecde"},"vehicle_type_id":"4","last_reported":1781204059,"current_range_meters":3200,"station_id":"ce4bha92rcd13ifvqeg0","pricing_plan_id":"cebpf4jnsgd1na2vs0mg"},{"bike_id":"627383c3-1ca4-4292-a0f0-c21bf7584678","system_id":"levelo_inurba_marseille","lat":43.28746,"lon":5.42706,"is_reserved":false,"is_disabled":false,"rental_uris":{"android":"levelo://app?vid=627383c3-1ca4-4292-a0f0-c21bf7584678","ios":"levelo://app?vid=627383c3-1ca4-4292-a0f0-c21bf7584678"},"vehicle_type_id":"4","last_reported":1781204059,"current_range_meters":3200,"station_id":"","pricing_plan_id":"cebpf4jnsgd1na2vs0mg"},{"bike_id":"291a9c35-35dd-42aa-bdfc-4e281234a90a","system_id":"levelo_inurba_marseille","lat":43.28483,"lon":5.38494,"is_reserved":false,"is_disabled":true,"rental_uris":{"android":"levelo://app?vid=291a9c35-35dd-42aa-bdfc-4e281234a90a","ios":"levelo://app?vid=291a9c35-35dd-42aa-bdfc-4e281234a90a"},"vehicle_type_id":"4","last_reported":1781204059,"current_range_meters":3200,"station_id":"","pricing_plan_id":"cebpf4jnsgd1na2vs0mg"},{"bike_id":"a949ab75-be2f-4de3-87b1-03b69d2967c5","system_id":"levelo_inurba_marseille","lat":43.25181,"lon":5.41127,"is_reserved":false,"is_disabled":false,"rental_uris":{"android":"levelo://app?vid=a949ab75-be2f-4de3-87b1-03b69d2967c5","ios":"levelo://app?vid=a949ab75-be2f-4de3-87b1-03b69d2967c5"},"vehicle_type_id":"4","last_reported":1781204059,"current_range_meters":3200,"station_id":"","pricing_plan_id":"cebpf4jnsgd1na2vs0mg"},{"bike_id":"b83d98b3-81d2-4cea-bf0a-53539033ab07","system_id":"levelo_inurba_marseille","lat":43.27623,"lon":5.36115,"is_reserved":false,"is_disabled":false,"rental_uris":{"android":"levelo://app?vid=b83d98b3-81d2-4cea-bf0a-53539033ab07","ios":"levelo://app?vid=b83d98b3-81d2-4cea-bf0a-53539033ab07"},"vehicle_type_id":"4","last_reported":1781204059,"current_range_meters":3200,"station_id":"ce4bgj92rcd13ifvqbe0","pricing_plan_id":"cebpf4jnsgd1na2vs0mg"},{"bike_id":"564980c7-4086-4d0c-b20e-906bc61640a8","system_id":"levelo_inurba_marseille","lat":43.29675,"lon":5.36326,"is_reserved":false,"is_disabled":false,"rental_uris":{"android":"levelo://app?vid=564980c7-4086-4d0c-b20e-906bc61640a8","ios":"levelo://app?vid=564980c7-4086-4d0c-b20e-906bc61640a8"},"vehicle_type_id":"4","last_reported":1781204059,"current_range_meters":3200,"station_id":"","pricing_plan_id":"cebpf4jnsgd1na2vs0mg"},{"bike_id":"c635d9ff-a2b9-45a2-bea1-fdd86616b4a4","system_id":"levelo_inurba_marseille","lat":43.26569,"lon":5.39,"is_reserved":false,"is_disabled":false,"rental_uris":{"android":"levelo://app?vid=c635d9ff-a2b9-45a2-bea1-fdd86616b4a4","ios":"levelo://app?vid=c635d9ff-a2b9-45a2-bea1-fdd86616b4a4"},"vehicle_type_id":"4","last_reported":1781204059,"current_range_meters":3200,"station_id":"ce4bhe12rcd13ifvqf30","pricing_plan_id":"cebpf4jnsgd1na2vs0mg"},{"bike_id":"61e05d2d-ee99-4e44-b53d-2198150acbb6","system_id":"levelo_inurba_marseille","lat":43.31723,"lon":5.42398,"is_reserved":false,"is_disabled":false,"rental_uris":{"android":"levelo://app?vid=61e05d2d-ee99-4e44-b53d-2198150acbb6","ios":"levelo://app?vid=61e05d2d-ee99-4e44-b53d-2198150acbb6"},"vehicle_type_id":"4","last_reported":1781204059,"current_range_meters":3200,"station_id":"ce4bhp92rcd13ifvqhbg","pricing_plan_id":"cebpf4jnsgd1na2vs0mg"},{"bike_id":"fafdb545-4263-4738-90a4-2c4a24e0b45a","system_id":"levelo_inurba_marseille","lat":43.33352,"lon":5.41055,"is_reserved":false,"is_disabled":false,"rental_uris":{"android":"levelo://app?vid=fafdb545-4263-4738-90a4-2c4a24e0b45a","ios":"levelo://app?vid=fafdb545-4263-4738-90a4-2c4a24e0b45a"},"vehicle_type_id":"4","last_reported":1781204059,"current_range_meters":3200,"station_id":"","pricing_plan_id":"cebpf4jnsgd1na2vs0mg"},{"bike_id":"c50a9e43-666a-4ebb-bb15-fba6ac3b0d59","system_id":"levelo_inurba_marseille","lat":43.29311,"lon":5.36324,"is_reserved":false,"is_disabled":false,"rental_uris":{"android":"levelo://app?vid=c50a9e43-666a-4ebb-bb15-fba6ac3b0d59","ios":"levelo://app?vid=c50a9e43-666a-4ebb-bb15-fba6ac3b0d59"},"vehicle_type_id":"4","last_reported":1781204059,"current_range_meters":3200,"station_id":"","pricing_plan_id":"cebpf4jnsgd1na2vs0mg"},{"bike_id":"3a0a3c1e-d128-4138-b2e1-df846eb876c4","system_id":"levelo_inurba_marseille","lat":43.28679,"lon":5.39453,"is_reserved":false,"is_disabled":false,"rental_uris":{"android":"levelo://app?vid=3a0a3c1e-d128-4138-b2e1-df846eb876c4","ios":"levelo://app?vid=3a0a3c1e-d128-4138-b2e1-df846eb876c4"},"vehicle_type_id":"4","last_reported":1781204059,"current_range_meters":3600,"station_id":"","pricing_plan_id":"cebpf4jnsgd1na2vs0mg"},{"bike_id":"12df29cc-abfa-41e4-9d8d-6005376fb963","system_id":"levelo_inurba_marseille","lat":43.266188,"lon":5.394222,"is_reserved":false,"is_disabled":false,"rental_uris":{"android":"levelo://app?vid=12df29cc-abfa-41e4-9d8d-6005376fb963","ios":"levelo://app?vid=12df29cc-abfa-41e4-9d8d-6005376fb963"},"vehicle_type_id":"4","last_reported":1781204059,"current_range_meters":3600,"station_id":"","pricing_plan_id":"cebpf4jnsgd1na2vs0mg"},{"bike_id":"7f33a980-7b36-4535-890a-7d69e7cba083","system_id":"levelo_inurba_marseille","lat":43.28111,"lon":5.37834,"is_reserved":false,"is_disabled":false,"rental_uris":{"android":"levelo://app?vid=7f33a980-7b36-4535-890a-7d69e7cba083","ios":"levelo://app?vid=7f33a980-7b36-4535-890a-7d69e7cba083"},"vehicle_type_id":"4","last_reported":1781204059,"current_range_meters":3600,"station_id":"ce4bha12rcd13ifvqee0","pricing_plan_id":"cebpf4jnsgd1na2vs0mg"},{"bike_id":"1acf58bb-9e73-491f-a655-3b7e388b81f6","system_id":"levelo_inurba_marseille","lat":43.292762,"lon":5.368478,"is_reserved":false,"is_disabled":false,"rental_uris":{"android":"levelo://app?vid=1acf58bb-9e73-491f-a655-3b7e388b81f6","ios":"levelo://app?vid=1acf58bb-9e73-491f-a655-3b7e388b81f6"},"vehicle_type_id":"4","last_reported":1781204059,"current_range_meters":3600,"station_id":"ce4bhbp2rcd13ifvqesg","pricing_plan_id":"cebpf4jnsgd1na2vs0mg"},{"bike_id":"cc044a5d-6424-486c-a90d-3884464a6b29","system_id":"levelo_inurba_marseille","lat":43.32033,"lon":5.36347,"is_reserved":false,"is_disabled":false,"rental_uris":{"android":"levelo://app?vid=cc044a5d-6424-486c-a90d-3884464a6b29","ios":"levelo://app?vid=cc044a5d-6424-486c-a90d-3884464a6b29"},"vehicle_type_id":"4","last_reported":1781204059,"current_range_meters":3600,"station_id":"","pricing_plan_id":"cebpf4jnsgd1na2vs0mg"},{"bike_id":"a505f735-00e2-4af4-afb1-acab7dfc77f9","system_id":"levelo_inurba_marseille","lat":43.29265,"lon":5.38428,"is_reserved":false,"is_disabled":false,"rental_uris":{"android":"levelo://app?vid=a505f735-00e2-4af4-afb1-acab7dfc77f9","ios":"levelo://app?vid=a505f735-00e2-4af4-afb1-acab7dfc77f9"},"vehicle_type_id":"4","last_reported":1781204059,"current_range_meters":3600,"station_id":"ce4bh692rcd13ifvqea0","pricing_plan_id":"cebpf4jnsgd1na2vs0mg"},{"bike_id":"9ce1515e-aefe-49a1-b28e-6d8151fcaddb","system_id":"levelo_inurba_marseille","lat":43.301255,"lon":5.387799,"is_reserved":false,"is_disabled":false,"rental_uris":{"android":"levelo://app?vid=9ce1515e-aefe-49a1-b28e-6d8151fcaddb","ios":"levelo://app?vid=9ce1515e-aefe-49a1-b28e-6d8151fcaddb"},"vehicle_type_id":"4","last_reported":1781204059,"current_range_meters":3600,"station_id":"ce4bghh2rcd13ifvqb60","pricing_plan_id":"cebpf4jnsgd1na2vs0mg"},{"bike_id":"49d541d1-650b-45f6-8562-d243a5fa903b","system_id":"levelo_inurba_marseille","lat":43.26553,"lon":5.37285,"is_reserved":false,"is_disabled":false,"rental_uris":{"android":"levelo://app?vid=49d541d1-650b-45f6-8562-d243a5fa903b","ios":"levelo://app?vid=49d541d1-650b-45f6-8562-d243a5fa903b"},"vehicle_type_id":"4","last_reported":1781204059,"current_range_meters":3600,"station_id":"ce4bhg12rcd13ifvqf70","pricing_plan_id":"cebpf4jnsgd1na2vs0mg"},{"bike_id":"0b542d53-e4b2-4fd5-adf4-084e17c09620","system_id":"levelo_inurba_marseille","lat":43.30125,"lon":5.43106,"is_reserved":false,"is_disabled":false,"rental_uris":{"android":"levelo://app?vid=0b542d53-e4b2-4fd5-adf4-084e17c09620","ios":"levelo://app?vid=0b542d53-e4b2-4fd5-adf4-084e17c09620"},"vehicle_type_id":"4","last_reported":1781204059,"current_range_meters":3600,"station_id":"st_d3js3co5814s73ftftug","pricing_plan_id":"cebpf4jnsgd1na2vs0mg"},{"bike_id":"2b30f3fc-003b-4403-8c3c-1b01799bfe6b","system_id":"levelo_inurba_marseille","lat":43.29287,"lon":5.40111,"is_reserved":false,"is_disabled":false,"rental_uris":{"android":"levelo://app?vid=2b30f3fc-003b-4403-8c3c-1b01799bfe6b","ios":"levelo://app?vid=2b30f3fc-003b-4403-8c3c-1b01799bfe6b"},"vehicle_type_id":"4","last_reported":1781204059,"current_range_meters":3600,"station_id":"ce4bh312rcd13ifvqdk0","pricing_plan_id":"cebpf4jnsgd1na2vs0mg"},{"bike_id":"18d225b7-0a58-408c-b272-a75a855df045","system_id":"levelo_inurba_marseille","lat":43.29305,"lon":5.37458,"is_reserved":false,"is_disabled":false,"rental_uris":{"android":"levelo://app?vid=18d225b7-0a58-408c-b272-a75a855df045","ios":"levelo://app?vid=18d225b7-0a58-408c-b272-a75a855df045"},"vehicle_type_id":"4","last_reported":1781204059,"current_range_meters":3600,"station_id":"ce4bgi12rcd13ifvqb70","pricing_plan_id":"cebpf4jnsgd1na2vs0mg"},{"bike_id":"8b476511-21d9-4a0f-a1a0-2547d4284bd0","system_id":"levelo_inurba_marseille","lat":43.28736,"lon":5.3608,"is_reserved":false,"is_disabled":false,"rental_uris":{"android":"levelo://app?vid=8b476511-21d9-4a0f-a1a0-2547d4284bd0","ios":"levelo://app?vid=8b476511-21d9-4a0f-a1a0-2547d4284bd0"},"vehicle_type_id":"4","last_reported":1781204059,"current_range_meters":3600,"station_id":"cki0cbj6b192h4jlfktg","pricing_plan_id":"cebpf4jnsgd1na2vs0mg"},{"bike_id":"e5b6ca23-847c-4e20-b10b-8bc36fc0862f","system_id":"levelo_inurba_marseille","lat":43.3026,"lon":5.40059,"is_reserved":false,"is_disabled":false,"rental_uris":{"android":"levelo://app?vid=e5b6ca23-847c-4e20-b10b-8bc36fc0862f","ios":"levelo://app?vid=e5b6ca23-847c-4e20-b10b-8bc36fc0862f"},"vehicle_type_id":"4","last_reported":1781204059,"current_range_meters":3600,"station_id":"ce4bgvh2rcd13ifvqcs0","pricing_plan_id":"cebpf4jnsgd1na2vs0mg"},{"bike_id":"a305b165-f3ea-446d-b188-949aacd68319","system_id":"levelo_inurba_marseille","lat":43.33612,"lon":5.40995,"is_reserved":false,"is_disabled":false,"rental_uris":{"android":"levelo://app?vid=a305b165-f3ea-446d-b188-949aacd68319","ios":"levelo://app?vid=a305b165-f3ea-446d-b188-949aacd68319"},"vehicle_type_id":"4","last_reported":1781204059,"current_range_meters":3600,"station_id":"ce4bhqh2rcd13ifvqhmg","pricing_plan_id":"cebpf4jnsgd1na2vs0mg"},{"bike_id":"d4a485ca-544f-4e15-a3d5-638351c050dc","system_id":"levelo_inurba_marseille","lat":43.28726,"lon":5.40397,"is_reserved":false,"is_disabled":false,"rental_uris":{"android":"levelo://app?vid=d4a485ca-544f-4e15-a3d5-638351c050dc","ios":"levelo://app?vid=d4a485ca-544f-4e15-a3d5-638351c050dc"},"vehicle_type_id":"4","last_reported":1781204059,"current_range_meters":3600,"station_id":"","pricing_plan_id":"cebpf4jnsgd1na2vs0mg"},{"bike_id":"1140d017-c3b9-43dd-ba73-6e5a45e2fcc8","system_id":"levelo_inurba_marseille","lat":43.31999,"lon":5.38131,"is_reserved":false,"is_disabled":false,"rental_uris":{"android":"levelo://app?vid=1140d017-c3b9-43dd-ba73-6e5a45e2fcc8","ios":"levelo://app?vid=1140d017-c3b9-43dd-ba73-6e5a45e2fcc8"},"vehicle_type_id":"4","last_reported":1781204059,"current_range_meters":3600,"station_id":"ce4bhr12rcd13ifvqhpg","pricing_plan_id":"cebpf4jnsgd1na2vs0mg"},{"bike_id":"7ea1884c-094b-4013-b661-83148087e79b","system_id":"levelo_inurba_marseille","lat":43.29263,"lon":5.38404,"is_reserved":false,"is_disabled":false,"rental_uris":{"android":"levelo://app?vid=7ea1884c-094b-4013-b661-83148087e79b","ios":"levelo://app?vid=7ea1884c-094b-4013-b661-83148087e79b"},"vehicle_type_id":"4","last_reported":1781204059,"current_range_meters":3600,"station_id":"","pricing_plan_id":"cebpf4jnsgd1na2vs0mg"},{"bike_id":"f8671556-b7c4-4a04-86c9-422f70a6fa84","system_id":"levelo_inurba_marseille","lat":43.33497,"lon":5.42009,"is_reserved":false,"is_disabled":false,"rental_uris":{"android":"levelo://app?vid=f8671556-b7c4-4a04-86c9-422f70a6fa84","ios":"levelo://app?vid=f8671556-b7c4-4a04-86c9-422f70a6fa84"},"vehicle_type_id":"4","last_reported":1781204059,"current_range_meters":3600,"station_id":"","pricing_plan_id":"cebpf4jnsgd1na2vs0mg"},{"bike_id":"60726254-c8fc-4392-ad13-50ba34082b25","system_id":"levelo_inurba_marseille","lat":43.2812,"lon":5.4046,"is_reserved":false,"is_disabled":false,"rental_uris":{"android":"levelo://app?vid=60726254-c8fc-4392-ad13-50ba34082b25","ios":"levelo://app?vid=60726254-c8fc-4392-ad13-50ba34082b25"},"vehicle_type_id":"4","last_reported":1781204059,"current_range_meters":3600,"station_id":"","pricing_plan_id":"cebpf4jnsgd1na2vs0mg"},{"bike_id":"ba827d80-c862-4b5e-a12f-08d306670451","system_id":"levelo_inurba_marseille","lat":43.25646,"lon":5.38509,"is_reserved":false,"is_disabled":false,"rental_uris":{"android":"levelo://app?vid=ba827d80-c862-4b5e-a12f-08d306670451","ios":"levelo://app?vid=ba827d80-c862-4b5e-a12f-08d306670451"},"vehicle_type_id":"4","last_reported":1781204059,"current_range_meters":3600,"station_id":"","pricing_plan_id":"cebpf4jnsgd1na2vs0mg"},{"bike_id":"402cee7f-7d33-47c7-a4a6-ec74389838c4","system_id":"levelo_inurba_marseille","lat":43.31454,"lon":5.37343,"is_reserved":false,"is_disabled":false,"rental_uris":{"android":"levelo://app?vid=402cee7f-7d33-47c7-a4a6-ec74389838c4","ios":"levelo://app?vid=402cee7f-7d33-47c7-a4a6-ec74389838c4"},"vehicle_type_id":"4","last_reported":1781204059,"current_range_meters":4000,"station_id":"ce4bgt12rcd13ifvqcd0","pricing_plan_id":"cebpf4jnsgd1na2vs0mg"},{"bike_id":"4ac9e88b-c671-4557-8838-fe3557509874","system_id":"levelo_inurba_marseille","lat":43.24071,"lon":5.37723,"is_reserved":false,"is_disabled":true,"rental_uris":{"android":"levelo://app?vid=4ac9e88b-c671-4557-8838-fe3557509874","ios":"levelo://app?vid=4ac9e88b-c671-4557-8838-fe3557509874"},"vehicle_type_id":"4","last_reported":1781204059,"current_range_meters":4000,"station_id":"ce4bhnp2rcd13ifvqgvg","pricing_plan_id":"cebpf4jnsgd1na2vs0mg"},{"bike_id":"c9401336-deb6-4056-a13a-1b9ad50493e4","system_id":"levelo_inurba_marseille","lat":43.28718,"lon":5.36083,"is_reserved":false,"is_disabled":false,"rental_uris":{"android":"levelo://app?vid=c9401336-deb6-4056-a13a-1b9ad50493e4","ios":"levelo://app?vid=c9401336-deb6-4056-a13a-1b9ad50493e4"},"vehicle_type_id":"4","last_reported":1781204059,"current_range_meters":4000,"station_id":"cki0cbj6b192h4jlfktg","pricing_plan_id":"cebpf4jnsgd1na2vs0mg"},{"bike_id":"4e17272c-b89d-49d2-a525-ba19690bc97b","system_id":"levelo_inurba_marseille","lat":43.28572,"lon":5.39486,"is_reserved":false,"is_disabled":false,"rental_uris":{"android":"levelo://app?vid=4e17272c-b89d-49d2-a525-ba19690bc97b","ios":"levelo://app?vid=4e17272c-b89d-49d2-a525-ba19690bc97b"},"vehicle_type_id":"4","last_reported":1781204059,"current_range_meters":4000,"station_id":"ce4bh292rcd13ifvqdg0","pricing_plan_id":"cebpf4jnsgd1na2vs0mg"},{"bike_id":"845a3784-b288-41b3-8cc0-32d8dd65a7d5","system_id":"levelo_inurba_marseille","lat":43.29491,"lon":5.43303,"is_reserved":false,"is_disabled":false,"rental_uris":{"android":"levelo://app?vid=845a3784-b288-41b3-8cc0-32d8dd65a7d5","ios":"levelo://app?vid=845a3784-b288-41b3-8cc0-32d8dd65a7d5"},"vehicle_type_id":"4","last_reported":1781204059,"current_range_meters":4000,"station_id":"st_d3j5ugp08ojc73fj9d10","pricing_plan_id":"cebpf4jnsgd1na2vs0mg"},{"bike_id":"e1c6c299-9da3-4fb8-8020-b461c214840d","system_id":"levelo_inurba_marseille","lat":43.31985,"lon":5.39036,"is_reserved":false,"is_disabled":false,"rental_uris":{"android":"levelo://app?vid=e1c6c299-9da3-4fb8-8020-b461c214840d","ios":"levelo://app?vid=e1c6c299-9da3-4fb8-8020-b461c214840d"},"vehicle_type_id":"4","last_reported":1781204059,"current_range_meters":4000,"station_id":"","pricing_plan_id":"cebpf4jnsgd1na2vs0mg"},{"bike_id":"45d0451e-a02a-4c7d-bb1f-c3f668a2e1ed","system_id":"levelo_inurba_marseille","lat":43.299138,"lon":5.374727,"is_reserved":false,"is_disabled":false,"rental_uris":{"android":"levelo://app?vid=45d0451e-a02a-4c7d-bb1f-c3f668a2e1ed","ios":"levelo://app?vid=45d0451e-a02a-4c7d-bb1f-c3f668a2e1ed"},"vehicle_type_id":"4","last_reported":1781204059,"current_range_meters":4000,"station_id":"ce4bgjh2rcd13ifvqbg0","pricing_plan_id":"cebpf4jnsgd1na2vs0mg"},{"bike_id":"03d15c59-a7ba-4731-92c9-d0a95469168a","system_id":"levelo_inurba_marseille","lat":43.28724,"lon":5.37355,"is_reserved":false,"is_disabled":false,"rental_uris":{"android":"levelo://app?vid=03d15c59-a7ba-4731-92c9-d0a95469168a","ios":"levelo://app?vid=03d15c59-a7ba-4731-92c9-d0a95469168a"},"vehicle_type_id":"4","last_reported":1781204059,"current_range_meters":4000,"station_id":"ce4bh3p2rcd13ifvqdq0","pricing_plan_id":"cebpf4jnsgd1na2vs0mg"},{"bike_id":"a35d6ad5-98df-4043-bf93-164e38cc614c","system_id":"levelo_inurba_marseille","lat":43.33122,"lon":5.40799,"is_reserved":false,"is_disabled":false,"rental_uris":{"android":"levelo://app?vid=a35d6ad5-98df-4043-bf93-164e38cc614c","ios":"levelo://app?vid=a35d6ad5-98df-4043-bf93-164e38cc614c"},"vehicle_type_id":"4","last_reported":1781204059,"current_range_meters":4000,"station_id":"","pricing_plan_id":"cebpf4jnsgd1na2vs0mg"},{"bike_id":"9f4fcf20-1a53-472f-9347-4549e57b79ba","system_id":"levelo_inurba_marseille","lat":43.29288,"lon":5.37437,"is_reserved":false,"is_disabled":false,"rental_uris":{"android":"levelo://app?vid=9f4fcf20-1a53-472f-9347-4549e57b79ba","ios":"levelo://app?vid=9f4fcf20-1a53-472f-9347-4549e57b79ba"},"vehicle_type_id":"4","last_reported":1781204059,"current_range_meters":4000,"station_id":"ce4bgi12rcd13ifvqb70","pricing_plan_id":"cebpf4jnsgd1na2vs0mg"},{"bike_id":"ff3f8ae3-b500-4185-bec6-1d96949fa697","system_id":"levelo_inurba_marseille","lat":43.309331,"lon":5.401413,"is_reserved":false,"is_disabled":false,"rental_uris":{"android":"levelo://app?vid=ff3f8ae3-b500-4185-bec6-1d96949fa697","ios":"levelo://app?vid=ff3f8ae3-b500-4185-bec6-1d96949fa697"},"vehicle_type_id":"4","last_reported":1781204059,"current_range_meters":4000,"station_id":"ce4bgvp2rcd13ifvqct0","pricing_plan_id":"cebpf4jnsgd1na2vs0mg"},{"bike_id":"14b4b371-8f26-4cf1-95b4-880cc3bc4611","system_id":"levelo_inurba_marseille","lat":43.29309,"lon":5.37168,"is_reserved":false,"is_disabled":true,"rental_uris":{"android":"levelo://app?vid=14b4b371-8f26-4cf1-95b4-880cc3bc4611","ios":"levelo://app?vid=14b4b371-8f26-4cf1-95b4-880cc3bc4611"},"vehicle_type_id":"4","last_reported":1781204059,"current_range_meters":4000,"station_id":"ce4bgh92rcd13ifvqb40","pricing_plan_id":"cebpf4jnsgd1na2vs0mg"},{"bike_id":"ee997103-6fa6-478e-8b65-ecc20695c978","system_id":"levelo_inurba_marseille","lat":43.26209,"lon":5.37438,"is_reserved":false,"is_disabled":false,"rental_uris":{"android":"levelo://app?vid=ee997103-6fa6-478e-8b65-ecc20695c978","ios":"levelo://app?vid=ee997103-6fa6-478e-8b65-ecc20695c978"},"vehicle_type_id":"4","last_reported":1781204059,"current_range_meters":4000,"station_id":"ce4bhgp2rcd13ifvqfc0","pricing_plan_id":"cebpf4jnsgd1na2vs0mg"},{"bike_id":"ba5f4fd6-2466-43fe-a6c2-f8b24131479c","system_id":"levelo_inurba_marseille","lat":43.302563,"lon":5.400758,"is_reserved":false,"is_disabled":false,"rental_uris":{"android":"levelo://app?vid=ba5f4fd6-2466-43fe-a6c2-f8b24131479c","ios":"levelo://app?vid=ba5f4fd6-2466-43fe-a6c2-f8b24131479c"},"vehicle_type_id":"4","last_reported":1781204059,"current_range_meters":4000,"station_id":"ce4bgvh2rcd13ifvqcs0","pricing_plan_id":"cebpf4jnsgd1na2vs0mg"},{"bike_id":"3b6bce5c-9235-443e-96db-da8ad4b9a6a2","system_id":"levelo_inurba_marseille","lat":43.28477,"lon":5.3842,"is_reserved":false,"is_disabled":false,"rental_uris":{"android":"levelo://app?vid=3b6bce5c-9235-443e-96db-da8ad4b9a6a2","ios":"levelo://app?vid=3b6bce5c-9235-443e-96db-da8ad4b9a6a2"},"vehicle_type_id":"4","last_reported":1781204059,"current_range_meters":4000,"station_id":"ce4bh512rcd13ifvqe3g","pricing_plan_id":"cebpf4jnsgd1na2vs0mg"},{"bike_id":"4df93a2d-aa6a-4b31-93fb-7fa77fa8a80d","system_id":"levelo_inurba_marseille","lat":43.32217,"lon":5.44006,"is_reserved":false,"is_disabled":false,"rental_uris":{"android":"levelo://app?vid=4df93a2d-aa6a-4b31-93fb-7fa77fa8a80d","ios":"levelo://app?vid=4df93a2d-aa6a-4b31-93fb-7fa77fa8a80d"},"vehicle_type_id":"4","last_reported":1781204059,"current_range_meters":4000,"station_id":"","pricing_plan_id":"cebpf4jnsgd1na2vs0mg"},{"bike_id":"8dd12d45-f6c2-4f37-90c2-4eaa520c828b","system_id":"levelo_inurba_marseille","lat":43.2439,"lon":5.37062,"is_reserved":false,"is_disabled":false,"rental_uris":{"android":"levelo://app?vid=8dd12d45-f6c2-4f37-90c2-4eaa520c828b","ios":"levelo://app?vid=8dd12d45-f6c2-4f37-90c2-4eaa520c828b"},"vehicle_type_id":"4","last_reported":1781204059,"current_range_meters":4000,"station_id":"","pricing_plan_id":"cebpf4jnsgd1na2vs0mg"},{"bike_id":"b54b0e07-8606-40be-9922-6ed1ad8b78ac","system_id":"levelo_inurba_marseille","lat":43.28769,"lon":5.37436,"is_reserved":false,"is_disabled":false,"rental_uris":{"android":"levelo://app?vid=b54b0e07-8606-40be-9922-6ed1ad8b78ac","ios":"levelo://app?vid=b54b0e07-8606-40be-9922-6ed1ad8b78ac"},"vehicle_type_id":"4","last_reported":1781204059,"current_range_meters":4400,"station_id":"","pricing_plan_id":"cebpf4jnsgd1na2vs0mg"},{"bike_id":"ab450d47-d293-44a6-8426-9362fe0e8737","system_id":"levelo_inurba_marseille","lat":43.27595,"lon":5.43392,"is_reserved":false,"is_disabled":false,"rental_uris":{"android":"levelo://app?vid=ab450d47-d293-44a6-8426-9362fe0e8737","ios":"levelo://app?vid=ab450d47-d293-44a6-8426-9362fe0e8737"},"vehicle_type_id":"4","last_reported":1781204059,"current_range_meters":4400,"station_id":"","pricing_plan_id":"cebpf4jnsgd1na2vs0mg"},{"bike_id":"720b7a81-8ca4-4e49-b6a1-61c4c62a08f7","system_id":"levelo_inurba_marseille","lat":43.24829,"lon":5.37438,"is_reserved":false,"is_disabled":true,"rental_uris":{"android":"levelo://app?vid=720b7a81-8ca4-4e49-b6a1-61c4c62a08f7","ios":"levelo://app?vid=720b7a81-8ca4-4e49-b6a1-61c4c62a08f7"},"vehicle_type_id":"4","last_reported":1781204059,"current_range_meters":4400,"station_id":"ce4bhgh2rcd13ifvqfb0","pricing_plan_id":"cebpf4jnsgd1na2vs0mg"},{"bike_id":"6ba15c2b-70bf-4892-8b14-66870b37121b","system_id":"levelo_inurba_marseille","lat":43.29813,"lon":5.3712,"is_reserved":false,"is_disabled":true,"rental_uris":{"android":"levelo://app?vid=6ba15c2b-70bf-4892-8b14-66870b37121b","ios":"levelo://app?vid=6ba15c2b-70bf-4892-8b14-66870b37121b"},"vehicle_type_id":"4","last_reported":1781204059,"current_range_meters":4400,"station_id":"ce4bgop2rcd13ifvqc1g","pricing_plan_id":"cebpf4jnsgd1na2vs0mg"},{"bike_id":"6c96fca7-4a83-479d-ac62-b341b0e9aa74","system_id":"levelo_inurba_marseille","lat":43.30426,"lon":5.38884,"is_reserved":false,"is_disabled":false,"rental_uris":{"android":"levelo://app?vid=6c96fca7-4a83-479d-ac62-b341b0e9aa74","ios":"levelo://app?vid=6c96fca7-4a83-479d-ac62-b341b0e9aa74"},"vehicle_type_id":"4","last_reported":1781204059,"current_range_meters":4400,"station_id":"ce4bgk12rcd13ifvqbi0","pricing_plan_id":"cebpf4jnsgd1na2vs0mg"},{"bike_id":"36a52cc1-4b60-4aac-8384-5286b63a149c","system_id":"levelo_inurba_marseille","lat":43.32115,"lon":5.36764,"is_reserved":false,"is_disabled":false,"rental_uris":{"android":"levelo://app?vid=36a52cc1-4b60-4aac-8384-5286b63a149c","ios":"levelo://app?vid=36a52cc1-4b60-4aac-8384-5286b63a149c"},"vehicle_type_id":"4","last_reported":1781204059,"current_range_meters":4400,"station_id":"ce4bhrh2rcd13ifvqhug","pricing_plan_id":"cebpf4jnsgd1na2vs0mg"},{"bike_id":"683a5cb4-23ad-4e17-a7ba-421543a86b87","system_id":"levelo_inurba_marseille","lat":43.27966,"lon":5.4105,"is_reserved":false,"is_disabled":false,"rental_uris":{"android":"levelo://app?vid=683a5cb4-23ad-4e17-a7ba-421543a86b87","ios":"levelo://app?vid=683a5cb4-23ad-4e17-a7ba-421543a86b87"},"vehicle_type_id":"4","last_reported":1781204059,"current_range_meters":4400,"station_id":"ce4bhnp2rcd13ifvqh0g","pricing_plan_id":"cebpf4jnsgd1na2vs0mg"},{"bike_id":"fadca27b-ab27-4a8b-89f8-fce658eff09b","system_id":"levelo_inurba_marseille","lat":43.27605,"lon":5.36104,"is_reserved":false,"is_disabled":false,"rental_uris":{"android":"levelo://app?vid=fadca27b-ab27-4a8b-89f8-fce658eff09b","ios":"levelo://app?vid=fadca27b-ab27-4a8b-89f8-fce658eff09b"},"vehicle_type_id":"4","last_reported":1781204059,"current_range_meters":4400,"station_id":"ce4bgj92rcd13ifvqbe0","pricing_plan_id":"cebpf4jnsgd1na2vs0mg"},{"bike_id":"de87dfdf-9a67-40d1-8879-92e22647face","system_id":"levelo_inurba_marseille","lat":43.291898,"lon":5.358035,"is_reserved":false,"is_disabled":false,"rental_uris":{"android":"levelo://app?vid=de87dfdf-9a67-40d1-8879-92e22647face","ios":"levelo://app?vid=de87dfdf-9a67-40d1-8879-92e22647face"},"vehicle_type_id":"4","last_reported":1781204059,"current_range_meters":4400,"station_id":"ce4bhb12rcd13ifvqel0","pricing_plan_id":"cebpf4jnsgd1na2vs0mg"},{"bike_id":"3a75f0d0-f871-460b-9645-7adb90b5c1ca","system_id":"levelo_inurba_marseille","lat":43.25131,"lon":5.40306,"is_reserved":false,"is_disabled":true,"rental_uris":{"android":"levelo://app?vid=3a75f0d0-f871-460b-9645-7adb90b5c1ca","ios":"levelo://app?vid=3a75f0d0-f871-460b-9645-7adb90b5c1ca"},"vehicle_type_id":"4","last_reported":1781204059,"current_range_meters":4400,"station_id":"ce4bhlh2rcd13ifvqgig","pricing_plan_id":"cebpf4jnsgd1na2vs0mg"},{"bike_id":"35dc0700-0037-42fc-9144-2780131db7b6","system_id":"levelo_inurba_marseille","lat":43.298633,"lon":5.39727,"is_reserved":false,"is_disabled":false,"rental_uris":{"android":"levelo://app?vid=35dc0700-0037-42fc-9144-2780131db7b6","ios":"levelo://app?vid=35dc0700-0037-42fc-9144-2780131db7b6"},"vehicle_type_id":"4","last_reported":1781204059,"current_range_meters":4400,"station_id":"ce4bh0h2rcd13ifvqd50","pricing_plan_id":"cebpf4jnsgd1na2vs0mg"},{"bike_id":"10735159-3397-4800-83f9-6dea2cbec6ca","system_id":"levelo_inurba_marseille","lat":43.33531,"lon":5.37425,"is_reserved":false,"is_disabled":false,"rental_uris":{"android":"levelo://app?vid=10735159-3397-4800-83f9-6dea2cbec6ca","ios":"levelo://app?vid=10735159-3397-4800-83f9-6dea2cbec6ca"},"vehicle_type_id":"4","last_reported":1781204059,"current_range_meters":4400,"station_id":"st_d46tts09ee8s73dlu43g","pricing_plan_id":"cebpf4jnsgd1na2vs0mg"},{"bike_id":"9caa4f18-c443-48c6-a3d1-f58fac60bb1f","system_id":"levelo_inurba_marseille","lat":43.26118,"lon":5.37524,"is_reserved":false,"is_disabled":false,"rental_uris":{"android":"levelo://app?vid=9caa4f18-c443-48c6-a3d1-f58fac60bb1f","ios":"levelo://app?vid=9caa4f18-c443-48c6-a3d1-f58fac60bb1f"},"vehicle_type_id":"4","last_reported":1781204059,"current_range_meters":4400,"station_id":"","pricing_plan_id":"cebpf4jnsgd1na2vs0mg"},{"bike_id":"74be860d-c5c9-4f11-b561-e66f62ac6cdb","system_id":"levelo_inurba_marseille","lat":43.30145,"lon":5.37418,"is_reserved":false,"is_disabled":false,"rental_uris":{"android":"levelo://app?vid=74be860d-c5c9-4f11-b561-e66f62ac6cdb","ios":"levelo://app?vid=74be860d-c5c9-4f11-b561-e66f62ac6cdb"},"vehicle_type_id":"4","last_reported":1781204059,"current_range_meters":4400,"station_id":"ce4bgs92rcd13ifvqcc0","pricing_plan_id":"cebpf4jnsgd1na2vs0mg"},{"bike_id":"df378fcc-2c71-4c37-9a49-0eac1d5ed827","system_id":"levelo_inurba_marseille","lat":43.30651,"lon":5.40087,"is_reserved":false,"is_disabled":false,"rental_uris":{"android":"levelo://app?vid=df378fcc-2c71-4c37-9a49-0eac1d5ed827","ios":"levelo://app?vid=df378fcc-2c71-4c37-9a49-0eac1d5ed827"},"vehicle_type_id":"4","last_reported":1781204059,"current_range_meters":4800,"station_id":"ce4bh112rcd13ifvqda0","pricing_plan_id":"cebpf4jnsgd1na2vs0mg"},{"bike_id":"582c6b7b-37e6-4a03-8f89-52fb5665e43d","system_id":"levelo_inurba_marseille","lat":43.2904,"lon":5.38637,"is_reserved":false,"is_disabled":true,"rental_uris":{"android":"levelo://app?vid=582c6b7b-37e6-4a03-8f89-52fb5665e43d","ios":"levelo://app?vid=582c6b7b-37e6-4a03-8f89-52fb5665e43d"},"vehicle_type_id":"4","last_reported":1781204059,"current_range_meters":4800,"station_id":"ce4bh4p2rcd13ifvqe0g","pricing_plan_id":"cebpf4jnsgd1na2vs0mg"},{"bike_id":"c69fc585-ff62-496c-87f2-6287cb91c479","system_id":"levelo_inurba_marseille","lat":43.29592,"lon":5.3811,"is_reserved":false,"is_disabled":false,"rental_uris":{"android":"levelo://app?vid=c69fc585-ff62-496c-87f2-6287cb91c479","ios":"levelo://app?vid=c69fc585-ff62-496c-87f2-6287cb91c479"},"vehicle_type_id":"4","last_reported":1781204059,"current_range_meters":4800,"station_id":"ce4bgl12rcd13ifvqbo0","pricing_plan_id":"cebpf4jnsgd1na2vs0mg"},{"bike_id":"18ef74f6-f248-4a2c-8cf7-9e3e238771e6","system_id":"levelo_inurba_marseille","lat":43.28629,"lon":5.35096,"is_reserved":false,"is_disabled":false,"rental_uris":{"android":"levelo://app?vid=18ef74f6-f248-4a2c-8cf7-9e3e238771e6","ios":"levelo://app?vid=18ef74f6-f248-4a2c-8cf7-9e3e238771e6"},"vehicle_type_id":"4","last_reported":1781204059,"current_range_meters":4800,"station_id":"ce4bhch2rcd13ifvqeug","pricing_plan_id":"cebpf4jnsgd1na2vs0mg"},{"bike_id":"a4b00031-ee09-4aec-8eb7-94d1603e3e96","system_id":"levelo_inurba_marseille","lat":43.32111,"lon":5.36782,"is_reserved":false,"is_disabled":false,"rental_uris":{"android":"levelo://app?vid=a4b00031-ee09-4aec-8eb7-94d1603e3e96","ios":"levelo://app?vid=a4b00031-ee09-4aec-8eb7-94d1603e3e96"},"vehicle_type_id":"4","last_reported":1781204059,"current_range_meters":4800,"station_id":"ce4bhrh2rcd13ifvqhug","pricing_plan_id":"cebpf4jnsgd1na2vs0mg"},{"bike_id":"9845ecd6-c2e1-44c8-9b95-22ed5860c660","system_id":"levelo_inurba_marseille","lat":43.23173,"lon":5.40514,"is_reserved":false,"is_disabled":false,"rental_uris":{"android":"levelo://app?vid=9845ecd6-c2e1-44c8-9b95-22ed5860c660","ios":"levelo://app?vid=9845ecd6-c2e1-44c8-9b95-22ed5860c660"},"vehicle_type_id":"4","last_reported":1781204059,"current_range_meters":4800,"station_id":"","pricing_plan_id":"cebpf4jnsgd1na2vs0mg"},{"bike_id":"37408d93-33ed-43f9-a6ea-2a47c69d4974","system_id":"levelo_inurba_marseille","lat":43.29694,"lon":5.37285,"is_reserved":false,"is_disabled":false,"rental_uris":{"android":"levelo://app?vid=37408d93-33ed-43f9-a6ea-2a47c69d4974","ios":"levelo://app?vid=37408d93-33ed-43f9-a6ea-2a47c69d4974"},"vehicle_type_id":"4","last_reported":1781204059,"current_range_meters":4800,"station_id":"ce4bgk12rcd13ifvqbj0","pricing_plan_id":"cebpf4jnsgd1na2vs0mg"},{"bike_id":"7f3eec27-e9b9-4475-a8d9-852842966b0a","system_id":"levelo_inurba_marseille","lat":43.29302,"lon":5.37454,"is_reserved":false,"is_disabled":false,"rental_uris":{"android":"levelo://app?vid=7f3eec27-e9b9-4475-a8d9-852842966b0a","ios":"levelo://app?vid=7f3eec27-e9b9-4475-a8d9-852842966b0a"},"vehicle_type_id":"4","last_reported":1781204059,"current_range_meters":4800,"station_id":"ce4bgi12rcd13ifvqb70","pricing_plan_id":"cebpf4jnsgd1na2vs0mg"},{"bike_id":"a5738529-d6fe-4d63-b356-4ef3c5027584","system_id":"levelo_inurba_marseille","lat":43.24947,"lon":5.39023,"is_reserved":false,"is_disabled":false,"rental_uris":{"android":"levelo://app?vid=a5738529-d6fe-4d63-b356-4ef3c5027584","ios":"levelo://app?vid=a5738529-d6fe-4d63-b356-4ef3c5027584"},"vehicle_type_id":"4","last_reported":1781204059,"current_range_meters":4800,"station_id":"","pricing_plan_id":"cebpf4jnsgd1na2vs0mg"},{"bike_id":"c2fd1dcf-9515-4468-8e03-d5ed5d6a02f1","system_id":"levelo_inurba_marseille","lat":43.2888,"lon":5.35821,"is_reserved":false,"is_disabled":false,"rental_uris":{"android":"levelo://app?vid=c2fd1dcf-9515-4468-8e03-d5ed5d6a02f1","ios":"levelo://app?vid=c2fd1dcf-9515-4468-8e03-d5ed5d6a02f1"},"vehicle_type_id":"4","last_reported":1781204059,"current_range_meters":4800,"station_id":"ce4bhb12rcd13ifvqem0","pricing_plan_id":"cebpf4jnsgd1na2vs0mg"},{"bike_id":"fc55da65-697c-4788-898a-0fa5c3a38063","system_id":"levelo_inurba_marseille","lat":43.29268,"lon":5.38438,"is_reserved":false,"is_disabled":false,"rental_uris":{"android":"levelo://app?vid=fc55da65-697c-4788-898a-0fa5c3a38063","ios":"levelo://app?vid=fc55da65-697c-4788-898a-0fa5c3a38063"},"vehicle_type_id":"4","last_reported":1781204059,"current_range_meters":4800,"station_id":"ce4bh692rcd13ifvqea0","pricing_plan_id":"cebpf4jnsgd1na2vs0mg"},{"bike_id":"06b0e4c9-7d0e-4204-99ac-ea2c0040b0a5","system_id":"levelo_inurba_marseille","lat":43.27958,"lon":5.41011,"is_reserved":false,"is_disabled":false,"rental_uris":{"android":"levelo://app?vid=06b0e4c9-7d0e-4204-99ac-ea2c0040b0a5","ios":"levelo://app?vid=06b0e4c9-7d0e-4204-99ac-ea2c0040b0a5"},"vehicle_type_id":"4","last_reported":1781204059,"current_range_meters":5600,"station_id":"ce4bhnp2rcd13ifvqh0g","pricing_plan_id":"cebpf4jnsgd1na2vs0mg"},{"bike_id":"e2efc7c7-a347-4a56-a140-e9f45c94d1eb","system_id":"levelo_inurba_marseille","lat":43.28464,"lon":5.38507,"is_reserved":false,"is_disabled":true,"rental_uris":{"android":"levelo://app?vid=e2efc7c7-a347-4a56-a140-e9f45c94d1eb","ios":"levelo://app?vid=e2efc7c7-a347-4a56-a140-e9f45c94d1eb"},"vehicle_type_id":"4","last_reported":1781204059,"current_range_meters":5600,"station_id":"ce4bh8p2rcd13ifvqeb0","pricing_plan_id":"cebpf4jnsgd1na2vs0mg"},{"bike_id":"581eb976-4601-4f87-b521-f567cf030906","system_id":"levelo_inurba_marseille","lat":43.2394,"lon":5.43786,"is_reserved":false,"is_disabled":false,"rental_uris":{"android":"levelo://app?vid=581eb976-4601-4f87-b521-f567cf030906","ios":"levelo://app?vid=581eb976-4601-4f87-b521-f567cf030906"},"vehicle_type_id":"4","last_reported":1781204059,"current_range_meters":5600,"station_id":"","pricing_plan_id":"cebpf4jnsgd1na2vs0mg"},{"bike_id":"5c17057b-bf5f-46fb-a6d3-4474bdd8a421","system_id":"levelo_inurba_marseille","lat":43.29262,"lon":5.38437,"is_reserved":false,"is_disabled":false,"rental_uris":{"android":"levelo://app?vid=5c17057b-bf5f-46fb-a6d3-4474bdd8a421","ios":"levelo://app?vid=5c17057b-bf5f-46fb-a6d3-4474bdd8a421"},"vehicle_type_id":"4","last_reported":1781204059,"current_range_meters":5600,"station_id":"ce4bh692rcd13ifvqea0","pricing_plan_id":"cebpf4jnsgd1na2vs0mg"},{"bike_id":"a1c015e9-3e11-46f0-b642-1fa3036dfa73","system_id":"levelo_inurba_marseille","lat":43.33148,"lon":5.37709,"is_reserved":false,"is_disabled":false,"rental_uris":{"android":"levelo://app?vid=a1c015e9-3e11-46f0-b642-1fa3036dfa73","ios":"levelo://app?vid=a1c015e9-3e11-46f0-b642-1fa3036dfa73"},"vehicle_type_id":"4","last_reported":1781204059,"current_range_meters":5600,"station_id":"st_d46cu089ee8s73dldbu0","pricing_plan_id":"cebpf4jnsgd1na2vs0mg"},{"bike_id":"e24b70c6-3a8a-4e01-ab56-31a97bcc3861","system_id":"levelo_inurba_marseille","lat":43.29261,"lon":5.38437,"is_reserved":false,"is_disabled":false,"rental_uris":{"android":"levelo://app?vid=e24b70c6-3a8a-4e01-ab56-31a97bcc3861","ios":"levelo://app?vid=e24b70c6-3a8a-4e01-ab56-31a97bcc3861"},"vehicle_type_id":"4","last_reported":1781204059,"current_range_meters":5600,"station_id":"ce4bh692rcd13ifvqea0","pricing_plan_id":"cebpf4jnsgd1na2vs0mg"},{"bike_id":"a9c6ea0e-e582-4254-8783-076f5e9d8d41","system_id":"levelo_inurba_marseille","lat":43.28864,"lon":5.39306,"is_reserved":false,"is_disabled":true,"rental_uris":{"android":"levelo://app?vid=a9c6ea0e-e582-4254-8783-076f5e9d8d41","ios":"levelo://app?vid=a9c6ea0e-e582-4254-8783-076f5e9d8d41"},"vehicle_type_id":"4","last_reported":1781204059,"current_range_meters":5600,"station_id":"ce4bh2p2rcd13ifvqdi0","pricing_plan_id":"cebpf4jnsgd1na2vs0mg"},{"bike_id":"becf7538-a49a-47b2-898c-da691a16b228","system_id":"levelo_inurba_marseille","lat":43.2904,"lon":5.35929,"is_reserved":false,"is_disabled":true,"rental_uris":{"android":"levelo://app?vid=becf7538-a49a-47b2-898c-da691a16b228","ios":"levelo://app?vid=becf7538-a49a-47b2-898c-da691a16b228"},"vehicle_type_id":"4","last_reported":1781204059,"current_range_meters":5600,"station_id":"ce4bha92rcd13ifvqeg0","pricing_plan_id":"cebpf4jnsgd1na2vs0mg"},{"bike_id":"ec26d88c-9134-4544-b37b-f3aa9bbce20d","system_id":"levelo_inurba_marseille","lat":43.29074,"lon":5.35907,"is_reserved":false,"is_disabled":false,"rental_uris":{"android":"levelo://app?vid=ec26d88c-9134-4544-b37b-f3aa9bbce20d","ios":"levelo://app?vid=ec26d88c-9134-4544-b37b-f3aa9bbce20d"},"vehicle_type_id":"4","last_reported":1781204059,"current_range_meters":5600,"station_id":"ce4bha92rcd13ifvqeg0","pricing_plan_id":"cebpf4jnsgd1na2vs0mg"},{"bike_id":"ad76d0d0-de48-4521-8957-9ea62ade903d","system_id":"levelo_inurba_marseille","lat":43.29877,"lon":5.39698,"is_reserved":false,"is_disabled":false,"rental_uris":{"android":"levelo://app?vid=ad76d0d0-de48-4521-8957-9ea62ade903d","ios":"levelo://app?vid=ad76d0d0-de48-4521-8957-9ea62ade903d"},"vehicle_type_id":"4","last_reported":1781204059,"current_range_meters":5600,"station_id":"ce4bh0h2rcd13ifvqd50","pricing_plan_id":"cebpf4jnsgd1na2vs0mg"},{"bike_id":"f2727594-e0fb-4f25-8236-f0137e059e06","system_id":"levelo_inurba_marseille","lat":43.28479,"lon":5.38412,"is_reserved":false,"is_disabled":false,"rental_uris":{"android":"levelo://app?vid=f2727594-e0fb-4f25-8236-f0137e059e06","ios":"levelo://app?vid=f2727594-e0fb-4f25-8236-f0137e059e06"},"vehicle_type_id":"4","last_reported":1781204059,"current_range_meters":5600,"station_id":"ce4bh512rcd13ifvqe3g","pricing_plan_id":"cebpf4jnsgd1na2vs0mg"},{"bike_id":"4f400fb0-7b5c-4c35-ba18-dc0934bbd600","system_id":"levelo_inurba_marseille","lat":43.29522,"lon":5.39401,"is_reserved":false,"is_disabled":false,"rental_uris":{"android":"levelo://app?vid=4f400fb0-7b5c-4c35-ba18-dc0934bbd600","ios":"levelo://app?vid=4f400fb0-7b5c-4c35-ba18-dc0934bbd600"},"vehicle_type_id":"4","last_reported":1781204059,"current_range_meters":5600,"station_id":"ce4bh292rcd13ifvqdf0","pricing_plan_id":"cebpf4jnsgd1na2vs0mg"},{"bike_id":"4343f291-38b8-47e7-a883-039a0fd0f77e","system_id":"levelo_inurba_marseille","lat":43.32108,"lon":5.36783,"is_reserved":false,"is_disabled":false,"rental_uris":{"android":"levelo://app?vid=4343f291-38b8-47e7-a883-039a0fd0f77e","ios":"levelo://app?vid=4343f291-38b8-47e7-a883-039a0fd0f77e"},"vehicle_type_id":"4","last_reported":1781204059,"current_range_meters":5600,"station_id":"ce4bhrh2rcd13ifvqhug","pricing_plan_id":"cebpf4jnsgd1na2vs0mg"},{"bike_id":"dedca6ab-ea1a-4adc-8ebc-caf57a72d77b","system_id":"levelo_inurba_marseille","lat":43.25341,"lon":5.42144,"is_reserved":false,"is_disabled":false,"rental_uris":{"android":"levelo://app?vid=dedca6ab-ea1a-4adc-8ebc-caf57a72d77b","ios":"levelo://app?vid=dedca6ab-ea1a-4adc-8ebc-caf57a72d77b"},"vehicle_type_id":"4","last_reported":1781204059,"current_range_meters":5600,"station_id":"st_d2m65c5bi1j21697t3ng","pricing_plan_id":"cebpf4jnsgd1na2vs0mg"},{"bike_id":"76f5dd5d-ca31-4b0e-8dbb-b6ce3553ebe9","system_id":"levelo_inurba_marseille","lat":43.26062,"lon":5.39396,"is_reserved":false,"is_disabled":false,"rental_uris":{"android":"levelo://app?vid=76f5dd5d-ca31-4b0e-8dbb-b6ce3553ebe9","ios":"levelo://app?vid=76f5dd5d-ca31-4b0e-8dbb-b6ce3553ebe9"},"vehicle_type_id":"4","last_reported":1781204059,"current_range_meters":5600,"station_id":"ce4bhh92rcd13ifvqfj0","pricing_plan_id":"cebpf4jnsgd1na2vs0mg"},{"bike_id":"1a21cec0-4b08-48db-b357-38e0e0f38fb7","system_id":"levelo_inurba_marseille","lat":43.2813,"lon":5.37822,"is_reserved":false,"is_disabled":false,"rental_uris":{"android":"levelo://app?vid=1a21cec0-4b08-48db-b357-38e0e0f38fb7","ios":"levelo://app?vid=1a21cec0-4b08-48db-b357-38e0e0f38fb7"},"vehicle_type_id":"4","last_reported":1781204059,"current_range_meters":5600,"station_id":"ce4bha12rcd13ifvqee0","pricing_plan_id":"cebpf4jnsgd1na2vs0mg"},{"bike_id":"0be2ecc3-07f5-4760-b184-9d28bdbbf08a","system_id":"levelo_inurba_marseille","lat":43.28616,"lon":5.35096,"is_reserved":false,"is_disabled":false,"rental_uris":{"android":"levelo://app?vid=0be2ecc3-07f5-4760-b184-9d28bdbbf08a","ios":"levelo://app?vid=0be2ecc3-07f5-4760-b184-9d28bdbbf08a"},"vehicle_type_id":"4","last_reported":1781204059,"current_range_meters":5600,"station_id":"ce4bhch2rcd13ifvqeug","pricing_plan_id":"cebpf4jnsgd1na2vs0mg"},{"bike_id":"9c950017-90b1-4f2a-8b80-26f2a3bd699c","system_id":"levelo_inurba_marseille","lat":43.27185,"lon":5.40952,"is_reserved":false,"is_disabled":false,"rental_uris":{"android":"levelo://app?vid=9c950017-90b1-4f2a-8b80-26f2a3bd699c","ios":"levelo://app?vid=9c950017-90b1-4f2a-8b80-26f2a3bd699c"},"vehicle_type_id":"4","last_reported":1781204059,"current_range_meters":5600,"station_id":"ce4bhl12rcd13ifvqgf0","pricing_plan_id":"cebpf4jnsgd1na2vs0mg"},{"bike_id":"f6bac920-035a-425f-9d43-04738b60b9e9","system_id":"levelo_inurba_marseille","lat":43.29276,"lon":5.38886,"is_reserved":false,"is_disabled":false,"rental_uris":{"android":"levelo://app?vid=f6bac920-035a-425f-9d43-04738b60b9e9","ios":"levelo://app?vid=f6bac920-035a-425f-9d43-04738b60b9e9"},"vehicle_type_id":"4","last_reported":1781204059,"current_range_meters":5600,"station_id":"","pricing_plan_id":"cebpf4jnsgd1na2vs0mg"},{"bike_id":"f42ad956-5eb1-4d9b-82e8-cfaf1aa616a2","system_id":"levelo_inurba_marseille","lat":43.26046,"lon":5.37541,"is_reserved":false,"is_disabled":false,"rental_uris":{"android":"levelo://app?vid=f42ad956-5eb1-4d9b-82e8-cfaf1aa616a2","ios":"levelo://app?vid=f42ad956-5eb1-4d9b-82e8-cfaf1aa616a2"},"vehicle_type_id":"4","last_reported":1781204059,"current_range_meters":6000,"station_id":"ce4bhgh2rcd13ifvqfa0","pricing_plan_id":"cebpf4jnsgd1na2vs0mg"},{"bike_id":"58c6dcaa-5d0c-4dbc-99d5-3a5cd9ef72a5","system_id":"levelo_inurba_marseille","lat":43.24667,"lon":5.38153,"is_reserved":false,"is_disabled":false,"rental_uris":{"android":"levelo://app?vid=58c6dcaa-5d0c-4dbc-99d5-3a5cd9ef72a5","ios":"levelo://app?vid=58c6dcaa-5d0c-4dbc-99d5-3a5cd9ef72a5"},"vehicle_type_id":"4","last_reported":1781204059,"current_range_meters":6000,"station_id":"ce4bhih2rcd13ifvqfr0","pricing_plan_id":"cebpf4jnsgd1na2vs0mg"},{"bike_id":"e30ddbc6-0254-49b9-9ae4-b157e53a94df","system_id":"levelo_inurba_marseille","lat":43.26229,"lon":5.37421,"is_reserved":false,"is_disabled":false,"rental_uris":{"android":"levelo://app?vid=e30ddbc6-0254-49b9-9ae4-b157e53a94df","ios":"levelo://app?vid=e30ddbc6-0254-49b9-9ae4-b157e53a94df"},"vehicle_type_id":"4","last_reported":1781204059,"current_range_meters":6000,"station_id":"","pricing_plan_id":"cebpf4jnsgd1na2vs0mg"},{"bike_id":"7a2582a1-9f4e-4b77-a662-c666529e13ef","system_id":"levelo_inurba_marseille","lat":43.28055,"lon":5.35002,"is_reserved":false,"is_disabled":false,"rental_uris":{"android":"levelo://app?vid=7a2582a1-9f4e-4b77-a662-c666529e13ef","ios":"levelo://app?vid=7a2582a1-9f4e-4b77-a662-c666529e13ef"},"vehicle_type_id":"4","last_reported":1781204059,"current_range_meters":6000,"station_id":"","pricing_plan_id":"cebpf4jnsgd1na2vs0mg"},{"bike_id":"0a53059c-6749-4eb6-a110-7397c69b5b85","system_id":"levelo_inurba_marseille","lat":43.28474,"lon":5.38376,"is_reserved":false,"is_disabled":false,"rental_uris":{"android":"levelo://app?vid=0a53059c-6749-4eb6-a110-7397c69b5b85","ios":"levelo://app?vid=0a53059c-6749-4eb6-a110-7397c69b5b85"},"vehicle_type_id":"4","last_reported":1781204059,"current_range_meters":6000,"station_id":"ce4bh512rcd13ifvqe3g","pricing_plan_id":"cebpf4jnsgd1na2vs0mg"},{"bike_id":"4313f4a8-e448-48f6-a77b-52f407980397","system_id":"levelo_inurba_marseille","lat":43.29009,"lon":5.38122,"is_reserved":false,"is_disabled":false,"rental_uris":{"android":"levelo://app?vid=4313f4a8-e448-48f6-a77b-52f407980397","ios":"levelo://app?vid=4313f4a8-e448-48f6-a77b-52f407980397"},"vehicle_type_id":"4","last_reported":1781204059,"current_range_meters":6000,"station_id":"ce4bh4p2rcd13ifvqe1g","pricing_plan_id":"cebpf4jnsgd1na2vs0mg"},{"bike_id":"f56bfebc-1520-43e5-bcaf-6e136d85b55a","system_id":"levelo_inurba_marseille","lat":43.2904,"lon":5.3866,"is_reserved":false,"is_disabled":false,"rental_uris":{"android":"levelo://app?vid=f56bfebc-1520-43e5-bcaf-6e136d85b55a","ios":"levelo://app?vid=f56bfebc-1520-43e5-bcaf-6e136d85b55a"},"vehicle_type_id":"4","last_reported":1781204059,"current_range_meters":6000,"station_id":"ce4bh4p2rcd13ifvqe0g","pricing_plan_id":"cebpf4jnsgd1na2vs0mg"},{"bike_id":"05cb6286-1955-4fb9-9132-52963aaae345","system_id":"levelo_inurba_marseille","lat":43.29532,"lon":5.38511,"is_reserved":false,"is_disabled":false,"rental_uris":{"android":"levelo://app?vid=05cb6286-1955-4fb9-9132-52963aaae345","ios":"levelo://app?vid=05cb6286-1955-4fb9-9132-52963aaae345"},"vehicle_type_id":"4","last_reported":1781204059,"current_range_meters":6000,"station_id":"ce4bgih2rcd13ifvqba0","pricing_plan_id":"cebpf4jnsgd1na2vs0mg"},{"bike_id":"cdaffa5f-9ecb-409f-93bc-f132f49ebaf0","system_id":"levelo_inurba_marseille","lat":43.27622,"lon":5.36116,"is_reserved":false,"is_disabled":false,"rental_uris":{"android":"levelo://app?vid=cdaffa5f-9ecb-409f-93bc-f132f49ebaf0","ios":"levelo://app?vid=cdaffa5f-9ecb-409f-93bc-f132f49ebaf0"},"vehicle_type_id":"4","last_reported":1781204059,"current_range_meters":6000,"station_id":"ce4bgj92rcd13ifvqbe0","pricing_plan_id":"cebpf4jnsgd1na2vs0mg"},{"bike_id":"79eaab26-b3ae-4543-b904-4f081a11153b","system_id":"levelo_inurba_marseille","lat":43.30145,"lon":5.39842,"is_reserved":false,"is_disabled":false,"rental_uris":{"android":"levelo://app?vid=79eaab26-b3ae-4543-b904-4f081a11153b","ios":"levelo://app?vid=79eaab26-b3ae-4543-b904-4f081a11153b"},"vehicle_type_id":"4","last_reported":1781204059,"current_range_meters":6000,"station_id":"ce4bh0h2rcd13ifvqd40","pricing_plan_id":"cebpf4jnsgd1na2vs0mg"},{"bike_id":"7c131e63-4882-494d-814c-185065bffc7c","system_id":"levelo_inurba_marseille","lat":43.28468,"lon":5.48399,"is_reserved":false,"is_disabled":false,"rental_uris":{"android":"levelo://app?vid=7c131e63-4882-494d-814c-185065bffc7c","ios":"levelo://app?vid=7c131e63-4882-494d-814c-185065bffc7c"},"vehicle_type_id":"4","last_reported":1781204059,"current_range_meters":6000,"station_id":"st_d3svhcjqgbts73a3dn0g","pricing_plan_id":"cebpf4jnsgd1na2vs0mg"},{"bike_id":"72596ebd-ea6d-4b6d-968a-acb42e5b04cf","system_id":"levelo_inurba_marseille","lat":43.29615,"lon":5.37903,"is_reserved":false,"is_disabled":false,"rental_uris":{"android":"levelo://app?vid=72596ebd-ea6d-4b6d-968a-acb42e5b04cf","ios":"levelo://app?vid=72596ebd-ea6d-4b6d-968a-acb42e5b04cf"},"vehicle_type_id":"4","last_reported":1781204059,"current_range_meters":6000,"station_id":"","pricing_plan_id":"cebpf4jnsgd1na2vs0mg"},{"bike_id":"1f9ce275-7633-4feb-bcf5-02b13c6860a4","system_id":"levelo_inurba_marseille","lat":43.3112,"lon":5.37767,"is_reserved":false,"is_disabled":false,"rental_uris":{"android":"levelo://app?vid=1f9ce275-7633-4feb-bcf5-02b13c6860a4","ios":"levelo://app?vid=1f9ce275-7633-4feb-bcf5-02b13c6860a4"},"vehicle_type_id":"4","last_reported":1781204059,"current_range_meters":6000,"station_id":"ce4bgt92rcd13ifvqcg0","pricing_plan_id":"cebpf4jnsgd1na2vs0mg"},{"bike_id":"d2fae584-e8a4-411b-8497-01e9defa4f72","system_id":"levelo_inurba_marseille","lat":43.28622,"lon":5.35089,"is_reserved":false,"is_disabled":false,"rental_uris":{"android":"levelo://app?vid=d2fae584-e8a4-411b-8497-01e9defa4f72","ios":"levelo://app?vid=d2fae584-e8a4-411b-8497-01e9defa4f72"},"vehicle_type_id":"4","last_reported":1781204059,"current_range_meters":6000,"station_id":"ce4bhch2rcd13ifvqeug","pricing_plan_id":"cebpf4jnsgd1na2vs0mg"},{"bike_id":"55b5bfc5-4cc2-4013-8a9d-77fc56d78c5e","system_id":"levelo_inurba_marseille","lat":43.29258,"lon":5.38441,"is_reserved":false,"is_disabled":false,"rental_uris":{"android":"levelo://app?vid=55b5bfc5-4cc2-4013-8a9d-77fc56d78c5e","ios":"levelo://app?vid=55b5bfc5-4cc2-4013-8a9d-77fc56d78c5e"},"vehicle_type_id":"4","last_reported":1781204059,"current_range_meters":6000,"station_id":"ce4bh692rcd13ifvqea0","pricing_plan_id":"cebpf4jnsgd1na2vs0mg"},{"bike_id":"563e7e66-6e25-4625-b398-b66a26715b2e","system_id":"levelo_inurba_marseille","lat":43.26571,"lon":5.39028,"is_reserved":false,"is_disabled":false,"rental_uris":{"android":"levelo://app?vid=563e7e66-6e25-4625-b398-b66a26715b2e","ios":"levelo://app?vid=563e7e66-6e25-4625-b398-b66a26715b2e"},"vehicle_type_id":"4","last_reported":1781204059,"current_range_meters":6000,"station_id":"ce4bhe12rcd13ifvqf30","pricing_plan_id":"cebpf4jnsgd1na2vs0mg"},{"bike_id":"856a0f1c-245c-4323-93c0-4fee0b6c4444","system_id":"levelo_inurba_marseille","lat":43.29234,"lon":5.36072,"is_reserved":false,"is_disabled":false,"rental_uris":{"android":"levelo://app?vid=856a0f1c-245c-4323-93c0-4fee0b6c4444","ios":"levelo://app?vid=856a0f1c-245c-4323-93c0-4fee0b6c4444"},"vehicle_type_id":"4","last_reported":1781204059,"current_range_meters":6000,"station_id":"ce4bhbh2rcd13ifvqeqg","pricing_plan_id":"cebpf4jnsgd1na2vs0mg"},{"bike_id":"52ceaff1-740e-447d-91e1-c3c26c40a858","system_id":"levelo_inurba_marseille","lat":43.27384,"lon":5.36267,"is_reserved":false,"is_disabled":false,"rental_uris":{"android":"levelo://app?vid=52ceaff1-740e-447d-91e1-c3c26c40a858","ios":"levelo://app?vid=52ceaff1-740e-447d-91e1-c3c26c40a858"},"vehicle_type_id":"4","last_reported":1781204059,"current_range_meters":6000,"station_id":"ce4bhbh2rcd13ifvqeo0","pricing_plan_id":"cebpf4jnsgd1na2vs0mg"},{"bike_id":"22d09473-ee01-44e7-9262-c524673dac69","system_id":"levelo_inurba_marseille","lat":43.276804,"lon":5.388694,"is_reserved":false,"is_disabled":false,"rental_uris":{"android":"levelo://app?vid=22d09473-ee01-44e7-9262-c524673dac69","ios":"levelo://app?vid=22d09473-ee01-44e7-9262-c524673dac69"},"vehicle_type_id":"4","last_reported":1781204059,"current_range_meters":6000,"station_id":"","pricing_plan_id":"cebpf4jnsgd1na2vs0mg"},{"bike_id":"bc21bf03-4137-4d04-86ac-ec41e9d80439","system_id":"levelo_inurba_marseille","lat":43.2887,"lon":5.4251,"is_reserved":false,"is_disabled":false,"rental_uris":{"android":"levelo://app?vid=bc21bf03-4137-4d04-86ac-ec41e9d80439","ios":"levelo://app?vid=bc21bf03-4137-4d04-86ac-ec41e9d80439"},"vehicle_type_id":"4","last_reported":1781204059,"current_range_meters":6000,"station_id":"st_d3b462108ojc7389ooeg","pricing_plan_id":"cebpf4jnsgd1na2vs0mg"},{"bike_id":"05dbeb00-c94d-4fd8-88ff-0b9e5369bba0","system_id":"levelo_inurba_marseille","lat":43.24406,"lon":5.37017,"is_reserved":false,"is_disabled":false,"rental_uris":{"android":"levelo://app?vid=05dbeb00-c94d-4fd8-88ff-0b9e5369bba0","ios":"levelo://app?vid=05dbeb00-c94d-4fd8-88ff-0b9e5369bba0"},"vehicle_type_id":"4","last_reported":1781204059,"current_range_meters":6400,"station_id":"ce4bhhh2rcd13ifvqfk0","pricing_plan_id":"cebpf4jnsgd1na2vs0mg"},{"bike_id":"808279de-6721-4bb4-ac49-277575f1d466","system_id":"levelo_inurba_marseille","lat":43.29048,"lon":5.39944,"is_reserved":false,"is_disabled":false,"rental_uris":{"android":"levelo://app?vid=808279de-6721-4bb4-ac49-277575f1d466","ios":"levelo://app?vid=808279de-6721-4bb4-ac49-277575f1d466"},"vehicle_type_id":"4","last_reported":1781204059,"current_range_meters":6400,"station_id":"ce4bh392rcd13ifvqdm0","pricing_plan_id":"cebpf4jnsgd1na2vs0mg"},{"bike_id":"1a40880f-06f1-44a4-ba92-708afeb30515","system_id":"levelo_inurba_marseille","lat":43.26203,"lon":5.37444,"is_reserved":false,"is_disabled":false,"rental_uris":{"android":"levelo://app?vid=1a40880f-06f1-44a4-ba92-708afeb30515","ios":"levelo://app?vid=1a40880f-06f1-44a4-ba92-708afeb30515"},"vehicle_type_id":"4","last_reported":1781204059,"current_range_meters":6400,"station_id":"ce4bhgp2rcd13ifvqfc0","pricing_plan_id":"cebpf4jnsgd1na2vs0mg"},{"bike_id":"27d225c2-8565-4602-93d9-28b45c6693a2","system_id":"levelo_inurba_marseille","lat":43.25721,"lon":5.41113,"is_reserved":false,"is_disabled":false,"rental_uris":{"android":"levelo://app?vid=27d225c2-8565-4602-93d9-28b45c6693a2","ios":"levelo://app?vid=27d225c2-8565-4602-93d9-28b45c6693a2"},"vehicle_type_id":"4","last_reported":1781204059,"current_range_meters":6400,"station_id":"ce4bhkp2rcd13ifvqgd0","pricing_plan_id":"cebpf4jnsgd1na2vs0mg"},{"bike_id":"3baa0b0a-3f15-4a6e-8e8a-c926251735e9","system_id":"levelo_inurba_marseille","lat":43.3052,"lon":5.36535,"is_reserved":false,"is_disabled":true,"rental_uris":{"android":"levelo://app?vid=3baa0b0a-3f15-4a6e-8e8a-c926251735e9","ios":"levelo://app?vid=3baa0b0a-3f15-4a6e-8e8a-c926251735e9"},"vehicle_type_id":"4","last_reported":1781204059,"current_range_meters":6400,"station_id":"ce4bgs12rcd13ifvqcag","pricing_plan_id":"cebpf4jnsgd1na2vs0mg"},{"bike_id":"a2e67601-4678-407f-a001-e53cd8d57696","system_id":"levelo_inurba_marseille","lat":43.29514,"lon":5.38479,"is_reserved":false,"is_disabled":false,"rental_uris":{"android":"levelo://app?vid=a2e67601-4678-407f-a001-e53cd8d57696","ios":"levelo://app?vid=a2e67601-4678-407f-a001-e53cd8d57696"},"vehicle_type_id":"4","last_reported":1781204059,"current_range_meters":6400,"station_id":"ce4bgih2rcd13ifvqba0","pricing_plan_id":"cebpf4jnsgd1na2vs0mg"},{"bike_id":"742dca8c-f5db-4c45-bb54-d3bc982dbb56","system_id":"levelo_inurba_marseille","lat":43.30453,"lon":5.38905,"is_reserved":false,"is_disabled":false,"rental_uris":{"android":"levelo://app?vid=742dca8c-f5db-4c45-bb54-d3bc982dbb56","ios":"levelo://app?vid=742dca8c-f5db-4c45-bb54-d3bc982dbb56"},"vehicle_type_id":"4","last_reported":1781204059,"current_range_meters":6400,"station_id":"ce4bgk12rcd13ifvqbi0","pricing_plan_id":"cebpf4jnsgd1na2vs0mg"},{"bike_id":"a49e079e-56e5-45de-9def-f5d53e5437d9","system_id":"levelo_inurba_marseille","lat":43.28027,"lon":5.35365,"is_reserved":false,"is_disabled":false,"rental_uris":{"android":"levelo://app?vid=a49e079e-56e5-45de-9def-f5d53e5437d9","ios":"levelo://app?vid=a49e079e-56e5-45de-9def-f5d53e5437d9"},"vehicle_type_id":"4","last_reported":1781204059,"current_range_meters":6400,"station_id":"","pricing_plan_id":"cebpf4jnsgd1na2vs0mg"},{"bike_id":"406c92e3-e806-4551-a2b6-fea67fbe0a72","system_id":"levelo_inurba_marseille","lat":43.28631,"lon":5.35093,"is_reserved":false,"is_disabled":false,"rental_uris":{"android":"levelo://app?vid=406c92e3-e806-4551-a2b6-fea67fbe0a72","ios":"levelo://app?vid=406c92e3-e806-4551-a2b6-fea67fbe0a72"},"vehicle_type_id":"4","last_reported":1781204059,"current_range_meters":6400,"station_id":"ce4bhch2rcd13ifvqeug","pricing_plan_id":"cebpf4jnsgd1na2vs0mg"},{"bike_id":"6bcc356f-7f69-45b4-a42f-c8af24594173","system_id":"levelo_inurba_marseille","lat":43.29652,"lon":5.38069,"is_reserved":false,"is_disabled":false,"rental_uris":{"android":"levelo://app?vid=6bcc356f-7f69-45b4-a42f-c8af24594173","ios":"levelo://app?vid=6bcc356f-7f69-45b4-a42f-c8af24594173"},"vehicle_type_id":"4","last_reported":1781204059,"current_range_meters":6400,"station_id":"","pricing_plan_id":"cebpf4jnsgd1na2vs0mg"},{"bike_id":"f1365b28-37d6-4651-a9bd-34492e8813b1","system_id":"levelo_inurba_marseille","lat":43.29272,"lon":5.37613,"is_reserved":false,"is_disabled":false,"rental_uris":{"android":"levelo://app?vid=f1365b28-37d6-4651-a9bd-34492e8813b1","ios":"levelo://app?vid=f1365b28-37d6-4651-a9bd-34492e8813b1"},"vehicle_type_id":"4","last_reported":1781204059,"current_range_meters":6400,"station_id":"ce4bgi12rcd13ifvqb80","pricing_plan_id":"cebpf4jnsgd1na2vs0mg"},{"bike_id":"f4604c3b-a56a-425f-8d90-3b8e1f77f859","system_id":"levelo_inurba_marseille","lat":43.31379,"lon":5.38485,"is_reserved":false,"is_disabled":false,"rental_uris":{"android":"levelo://app?vid=f4604c3b-a56a-425f-8d90-3b8e1f77f859","ios":"levelo://app?vid=f4604c3b-a56a-425f-8d90-3b8e1f77f859"},"vehicle_type_id":"4","last_reported":1781204059,"current_range_meters":6400,"station_id":"ce4bgt92rcd13ifvqcf0","pricing_plan_id":"cebpf4jnsgd1na2vs0mg"},{"bike_id":"de648162-aaef-4bfd-86bb-810a5c9563cf","system_id":"levelo_inurba_marseille","lat":43.265,"lon":5.39544,"is_reserved":false,"is_disabled":false,"rental_uris":{"android":"levelo://app?vid=de648162-aaef-4bfd-86bb-810a5c9563cf","ios":"levelo://app?vid=de648162-aaef-4bfd-86bb-810a5c9563cf"},"vehicle_type_id":"4","last_reported":1781204059,"current_range_meters":6400,"station_id":"ce4bhi12rcd13ifvqfq0","pricing_plan_id":"cebpf4jnsgd1na2vs0mg"},{"bike_id":"9f300d81-81eb-46f9-bc47-edaed9983160","system_id":"levelo_inurba_marseille","lat":43.29264,"lon":5.40901,"is_reserved":false,"is_disabled":false,"rental_uris":{"android":"levelo://app?vid=9f300d81-81eb-46f9-bc47-edaed9983160","ios":"levelo://app?vid=9f300d81-81eb-46f9-bc47-edaed9983160"},"vehicle_type_id":"4","last_reported":1781204059,"current_range_meters":6400,"station_id":"ce4bh192rcd13ifvqdc0","pricing_plan_id":"cebpf4jnsgd1na2vs0mg"},{"bike_id":"28c50dd0-1240-48bc-b7f4-8133a44238c9","system_id":"levelo_inurba_marseille","lat":43.29913,"lon":5.38142,"is_reserved":false,"is_disabled":false,"rental_uris":{"android":"levelo://app?vid=28c50dd0-1240-48bc-b7f4-8133a44238c9","ios":"levelo://app?vid=28c50dd0-1240-48bc-b7f4-8133a44238c9"},"vehicle_type_id":"4","last_reported":1781204059,"current_range_meters":6400,"station_id":"ce4bgj12rcd13ifvqbc0","pricing_plan_id":"cebpf4jnsgd1na2vs0mg"},{"bike_id":"bf0d513d-d24a-47b1-bcdb-11e9c8e00198","system_id":"levelo_inurba_marseille","lat":43.26394,"lon":5.4107,"is_reserved":false,"is_disabled":true,"rental_uris":{"android":"levelo://app?vid=bf0d513d-d24a-47b1-bcdb-11e9c8e00198","ios":"levelo://app?vid=bf0d513d-d24a-47b1-bcdb-11e9c8e00198"},"vehicle_type_id":"4","last_reported":1781204059,"current_range_meters":6400,"station_id":"st_d4e5ca6na9uc73bfl5fg","pricing_plan_id":"cebpf4jnsgd1na2vs0mg"},{"bike_id":"1f1f8195-aeb2-4398-a169-6417cb3ad5a3","system_id":"levelo_inurba_marseille","lat":43.29632,"lon":5.37685,"is_reserved":false,"is_disabled":false,"rental_uris":{"android":"levelo://app?vid=1f1f8195-aeb2-4398-a169-6417cb3ad5a3","ios":"levelo://app?vid=1f1f8195-aeb2-4398-a169-6417cb3ad5a3"},"vehicle_type_id":"4","last_reported":1781204059,"current_range_meters":6400,"station_id":"ce4bgi92rcd13ifvqb90","pricing_plan_id":"cebpf4jnsgd1na2vs0mg"},{"bike_id":"36237cef-fbad-4ed6-a954-845aa26160cb","system_id":"levelo_inurba_marseille","lat":43.28729,"lon":5.37921,"is_reserved":false,"is_disabled":false,"rental_uris":{"android":"levelo://app?vid=36237cef-fbad-4ed6-a954-845aa26160cb","ios":"levelo://app?vid=36237cef-fbad-4ed6-a954-845aa26160cb"},"vehicle_type_id":"4","last_reported":1781204059,"current_range_meters":6400,"station_id":"ce4bh9p2rcd13ifvqec0","pricing_plan_id":"cebpf4jnsgd1na2vs0mg"},{"bike_id":"e2e0aaf9-5234-4f7c-8827-f41cdeee5a7a","system_id":"levelo_inurba_marseille","lat":43.31124,"lon":5.37774,"is_reserved":false,"is_disabled":false,"rental_uris":{"android":"levelo://app?vid=e2e0aaf9-5234-4f7c-8827-f41cdeee5a7a","ios":"levelo://app?vid=e2e0aaf9-5234-4f7c-8827-f41cdeee5a7a"},"vehicle_type_id":"4","last_reported":1781204059,"current_range_meters":6400,"station_id":"ce4bgt92rcd13ifvqcg0","pricing_plan_id":"cebpf4jnsgd1na2vs0mg"},{"bike_id":"5ef8b45c-5a2e-4ef3-b317-791d97d054bf","system_id":"levelo_inurba_marseille","lat":43.27166,"lon":5.4145,"is_reserved":false,"is_disabled":false,"rental_uris":{"android":"levelo://app?vid=5ef8b45c-5a2e-4ef3-b317-791d97d054bf","ios":"levelo://app?vid=5ef8b45c-5a2e-4ef3-b317-791d97d054bf"},"vehicle_type_id":"4","last_reported":1781204059,"current_range_meters":6400,"station_id":"","pricing_plan_id":"cebpf4jnsgd1na2vs0mg"},{"bike_id":"8682f4e8-0798-4b4f-8fef-c4dc002ea1c8","system_id":"levelo_inurba_marseille","lat":43.29146,"lon":5.46114,"is_reserved":false,"is_disabled":false,"rental_uris":{"android":"levelo://app?vid=8682f4e8-0798-4b4f-8fef-c4dc002ea1c8","ios":"levelo://app?vid=8682f4e8-0798-4b4f-8fef-c4dc002ea1c8"},"vehicle_type_id":"4","last_reported":1781204059,"current_range_meters":6400,"station_id":"","pricing_plan_id":"cebpf4jnsgd1na2vs0mg"},{"bike_id":"643a5108-6712-460c-84ac-96a9e310c2a1","system_id":"levelo_inurba_marseille","lat":43.32334,"lon":5.36738,"is_reserved":false,"is_disabled":false,"rental_uris":{"android":"levelo://app?vid=643a5108-6712-460c-84ac-96a9e310c2a1","ios":"levelo://app?vid=643a5108-6712-460c-84ac-96a9e310c2a1"},"vehicle_type_id":"4","last_reported":1781204059,"current_range_meters":6800,"station_id":"ce4bhsh2rcd13ifvqi2g","pricing_plan_id":"cebpf4jnsgd1na2vs0mg"},{"bike_id":"b2ad6388-0d4f-4e9c-8ff3-f1ad38b97382","system_id":"levelo_inurba_marseille","lat":43.27676,"lon":5.42441,"is_reserved":false,"is_disabled":false,"rental_uris":{"android":"levelo://app?vid=b2ad6388-0d4f-4e9c-8ff3-f1ad38b97382","ios":"levelo://app?vid=b2ad6388-0d4f-4e9c-8ff3-f1ad38b97382"},"vehicle_type_id":"4","last_reported":1781204059,"current_range_meters":6800,"station_id":"","pricing_plan_id":"cebpf4jnsgd1na2vs0mg"},{"bike_id":"680f1b78-f257-4001-b384-47c4c774d972","system_id":"levelo_inurba_marseille","lat":43.26197,"lon":5.37897,"is_reserved":false,"is_disabled":false,"rental_uris":{"android":"levelo://app?vid=680f1b78-f257-4001-b384-47c4c774d972","ios":"levelo://app?vid=680f1b78-f257-4001-b384-47c4c774d972"},"vehicle_type_id":"4","last_reported":1781204059,"current_range_meters":6800,"station_id":"ce4bhjp2rcd13ifvqg90","pricing_plan_id":"cebpf4jnsgd1na2vs0mg"},{"bike_id":"a4519ab8-8a91-4627-a831-ddbbcc2b09e2","system_id":"levelo_inurba_marseille","lat":43.30417,"lon":5.39754,"is_reserved":false,"is_disabled":true,"rental_uris":{"android":"levelo://app?vid=a4519ab8-8a91-4627-a831-ddbbcc2b09e2","ios":"levelo://app?vid=a4519ab8-8a91-4627-a831-ddbbcc2b09e2"},"vehicle_type_id":"4","last_reported":1781204059,"current_range_meters":6800,"station_id":"ce4bh092rcd13ifvqd20","pricing_plan_id":"cebpf4jnsgd1na2vs0mg"},{"bike_id":"1c2a1b5b-c049-4e5c-b1d0-b40ecc795b35","system_id":"levelo_inurba_marseille","lat":43.23017,"lon":5.43686,"is_reserved":false,"is_disabled":false,"rental_uris":{"android":"levelo://app?vid=1c2a1b5b-c049-4e5c-b1d0-b40ecc795b35","ios":"levelo://app?vid=1c2a1b5b-c049-4e5c-b1d0-b40ecc795b35"},"vehicle_type_id":"4","last_reported":1781204059,"current_range_meters":6800,"station_id":"","pricing_plan_id":"cebpf4jnsgd1na2vs0mg"},{"bike_id":"23ae47f5-c564-485d-805f-a3f32f7b712a","system_id":"levelo_inurba_marseille","lat":43.278123,"lon":5.40714,"is_reserved":false,"is_disabled":false,"rental_uris":{"android":"levelo://app?vid=23ae47f5-c564-485d-805f-a3f32f7b712a","ios":"levelo://app?vid=23ae47f5-c564-485d-805f-a3f32f7b712a"},"vehicle_type_id":"4","last_reported":1781204059,"current_range_meters":6800,"station_id":"ce4bhnh2rcd13ifvqgtg","pricing_plan_id":"cebpf4jnsgd1na2vs0mg"},{"bike_id":"2c2c83a5-19bc-49bd-ab4a-4e5f10f3d5aa","system_id":"levelo_inurba_marseille","lat":43.27921,"lon":5.39576,"is_reserved":false,"is_disabled":false,"rental_uris":{"android":"levelo://app?vid=2c2c83a5-19bc-49bd-ab4a-4e5f10f3d5aa","ios":"levelo://app?vid=2c2c83a5-19bc-49bd-ab4a-4e5f10f3d5aa"},"vehicle_type_id":"4","last_reported":1781204059,"current_range_meters":6800,"station_id":"ce4bhf92rcd13ifvqf40","pricing_plan_id":"cebpf4jnsgd1na2vs0mg"},{"bike_id":"17369bee-43fb-4510-ab11-4bc54a77a2f2","system_id":"levelo_inurba_marseille","lat":43.28609,"lon":5.35089,"is_reserved":false,"is_disabled":false,"rental_uris":{"android":"levelo://app?vid=17369bee-43fb-4510-ab11-4bc54a77a2f2","ios":"levelo://app?vid=17369bee-43fb-4510-ab11-4bc54a77a2f2"},"vehicle_type_id":"4","last_reported":1781204059,"current_range_meters":6800,"station_id":"ce4bhch2rcd13ifvqeug","pricing_plan_id":"cebpf4jnsgd1na2vs0mg"},{"bike_id":"fb7a7915-3284-46c7-8f39-e4136b86d37e","system_id":"levelo_inurba_marseille","lat":43.3076,"lon":5.42437,"is_reserved":false,"is_disabled":false,"rental_uris":{"android":"levelo://app?vid=fb7a7915-3284-46c7-8f39-e4136b86d37e","ios":"levelo://app?vid=fb7a7915-3284-46c7-8f39-e4136b86d37e"},"vehicle_type_id":"4","last_reported":1781204059,"current_range_meters":6800,"station_id":"st_cvj6ca6bvosntc0bfgr0","pricing_plan_id":"cebpf4jnsgd1na2vs0mg"},{"bike_id":"fbdfa317-724b-4527-894d-7d409cedbf5f","system_id":"levelo_inurba_marseille","lat":43.26063,"lon":5.39389,"is_reserved":false,"is_disabled":false,"rental_uris":{"android":"levelo://app?vid=fbdfa317-724b-4527-894d-7d409cedbf5f","ios":"levelo://app?vid=fbdfa317-724b-4527-894d-7d409cedbf5f"},"vehicle_type_id":"4","last_reported":1781204059,"current_range_meters":6800,"station_id":"ce4bhh92rcd13ifvqfj0","pricing_plan_id":"cebpf4jnsgd1na2vs0mg"},{"bike_id":"72477282-3901-47f8-8e4f-cec0d47fffe9","system_id":"levelo_inurba_marseille","lat":43.27074,"lon":5.42268,"is_reserved":false,"is_disabled":false,"rental_uris":{"android":"levelo://app?vid=72477282-3901-47f8-8e4f-cec0d47fffe9","ios":"levelo://app?vid=72477282-3901-47f8-8e4f-cec0d47fffe9"},"vehicle_type_id":"4","last_reported":1781204059,"current_range_meters":6800,"station_id":"ce4bhk92rcd13ifvqgb0","pricing_plan_id":"cebpf4jnsgd1na2vs0mg"},{"bike_id":"58f3b7a4-2899-49d0-9e34-3aa19aecec65","system_id":"levelo_inurba_marseille","lat":43.25506,"lon":5.37627,"is_reserved":false,"is_disabled":false,"rental_uris":{"android":"levelo://app?vid=58f3b7a4-2899-49d0-9e34-3aa19aecec65","ios":"levelo://app?vid=58f3b7a4-2899-49d0-9e34-3aa19aecec65"},"vehicle_type_id":"4","last_reported":1781204059,"current_range_meters":6800,"station_id":"ce4bhh12rcd13ifvqff0","pricing_plan_id":"cebpf4jnsgd1na2vs0mg"},{"bike_id":"95d4cd27-1914-4549-910d-e788342e2817","system_id":"levelo_inurba_marseille","lat":43.25496,"lon":5.3764,"is_reserved":false,"is_disabled":false,"rental_uris":{"android":"levelo://app?vid=95d4cd27-1914-4549-910d-e788342e2817","ios":"levelo://app?vid=95d4cd27-1914-4549-910d-e788342e2817"},"vehicle_type_id":"4","last_reported":1781204059,"current_range_meters":6800,"station_id":"ce4bhh12rcd13ifvqff0","pricing_plan_id":"cebpf4jnsgd1na2vs0mg"},{"bike_id":"b3cd018e-1511-4a6b-b772-282aca17506b","system_id":"levelo_inurba_marseille","lat":43.28494,"lon":5.38433,"is_reserved":false,"is_disabled":false,"rental_uris":{"android":"levelo://app?vid=b3cd018e-1511-4a6b-b772-282aca17506b","ios":"levelo://app?vid=b3cd018e-1511-4a6b-b772-282aca17506b"},"vehicle_type_id":"4","last_reported":1781204059,"current_range_meters":6800,"station_id":"ce4bh512rcd13ifvqe3g","pricing_plan_id":"cebpf4jnsgd1na2vs0mg"},{"bike_id":"a8a18a33-f450-4ec8-b7cf-349a0bc97bbe","system_id":"levelo_inurba_marseille","lat":43.28257,"lon":5.35055,"is_reserved":false,"is_disabled":false,"rental_uris":{"android":"levelo://app?vid=a8a18a33-f450-4ec8-b7cf-349a0bc97bbe","ios":"levelo://app?vid=a8a18a33-f450-4ec8-b7cf-349a0bc97bbe"},"vehicle_type_id":"4","last_reported":1781204059,"current_range_meters":6800,"station_id":"ce4bhbp2rcd13ifvqerg","pricing_plan_id":"cebpf4jnsgd1na2vs0mg"},{"bike_id":"60210465-87aa-4993-adce-44c433a76140","system_id":"levelo_inurba_marseille","lat":43.27335,"lon":5.36268,"is_reserved":false,"is_disabled":false,"rental_uris":{"android":"levelo://app?vid=60210465-87aa-4993-adce-44c433a76140","ios":"levelo://app?vid=60210465-87aa-4993-adce-44c433a76140"},"vehicle_type_id":"4","last_reported":1781204059,"current_range_meters":6800,"station_id":"ce4bhbh2rcd13ifvqeo0","pricing_plan_id":"cebpf4jnsgd1na2vs0mg"},{"bike_id":"19019c8f-5d24-4317-93d4-718a502b010c","system_id":"levelo_inurba_marseille","lat":43.29944,"lon":5.37121,"is_reserved":false,"is_disabled":false,"rental_uris":{"android":"levelo://app?vid=19019c8f-5d24-4317-93d4-718a502b010c","ios":"levelo://app?vid=19019c8f-5d24-4317-93d4-718a502b010c"},"vehicle_type_id":"4","last_reported":1781204059,"current_range_meters":6800,"station_id":"","pricing_plan_id":"cebpf4jnsgd1na2vs0mg"},{"bike_id":"feeaf8b9-320a-45d1-baf0-7a0561f10b2b","system_id":"levelo_inurba_marseille","lat":43.29595,"lon":5.38099,"is_reserved":false,"is_disabled":false,"rental_uris":{"android":"levelo://app?vid=feeaf8b9-320a-45d1-baf0-7a0561f10b2b","ios":"levelo://app?vid=feeaf8b9-320a-45d1-baf0-7a0561f10b2b"},"vehicle_type_id":"4","last_reported":1781204059,"current_range_meters":6800,"station_id":"ce4bgl12rcd13ifvqbo0","pricing_plan_id":"cebpf4jnsgd1na2vs0mg"},{"bike_id":"5a002f4d-8910-4e53-9437-396742d0a86f","system_id":"levelo_inurba_marseille","lat":43.29242,"lon":5.38435,"is_reserved":false,"is_disabled":false,"rental_uris":{"android":"levelo://app?vid=5a002f4d-8910-4e53-9437-396742d0a86f","ios":"levelo://app?vid=5a002f4d-8910-4e53-9437-396742d0a86f"},"vehicle_type_id":"4","last_reported":1781204059,"current_range_meters":6800,"station_id":"ce4bh692rcd13ifvqea0","pricing_plan_id":"cebpf4jnsgd1na2vs0mg"},{"bike_id":"ccca9ee5-7bf9-4425-a9b2-ecb6b4ef44af","system_id":"levelo_inurba_marseille","lat":43.27375,"lon":5.36253,"is_reserved":false,"is_disabled":false,"rental_uris":{"android":"levelo://app?vid=ccca9ee5-7bf9-4425-a9b2-ecb6b4ef44af","ios":"levelo://app?vid=ccca9ee5-7bf9-4425-a9b2-ecb6b4ef44af"},"vehicle_type_id":"4","last_reported":1781204059,"current_range_meters":6800,"station_id":"ce4bhbh2rcd13ifvqeo0","pricing_plan_id":"cebpf4jnsgd1na2vs0mg"},{"bike_id":"7f3d2f2d-fc8e-40d3-8f1d-86d8d8acbe39","system_id":"levelo_inurba_marseille","lat":43.28617,"lon":5.35104,"is_reserved":false,"is_disabled":false,"rental_uris":{"android":"levelo://app?vid=7f3d2f2d-fc8e-40d3-8f1d-86d8d8acbe39","ios":"levelo://app?vid=7f3d2f2d-fc8e-40d3-8f1d-86d8d8acbe39"},"vehicle_type_id":"4","last_reported":1781204059,"current_range_meters":6800,"station_id":"ce4bhch2rcd13ifvqeug","pricing_plan_id":"cebpf4jnsgd1na2vs0mg"},{"bike_id":"070057c1-c992-4bf0-8866-a67f352f117e","system_id":"levelo_inurba_marseille","lat":43.29539,"lon":5.38525,"is_reserved":false,"is_disabled":false,"rental_uris":{"android":"levelo://app?vid=070057c1-c992-4bf0-8866-a67f352f117e","ios":"levelo://app?vid=070057c1-c992-4bf0-8866-a67f352f117e"},"vehicle_type_id":"4","last_reported":1781204059,"current_range_meters":6800,"station_id":"ce4bgih2rcd13ifvqba0","pricing_plan_id":"cebpf4jnsgd1na2vs0mg"},{"bike_id":"75248494-6e46-4c4b-92d2-9db9ddbe9016","system_id":"levelo_inurba_marseille","lat":43.28479,"lon":5.48393,"is_reserved":false,"is_disabled":false,"rental_uris":{"android":"levelo://app?vid=75248494-6e46-4c4b-92d2-9db9ddbe9016","ios":"levelo://app?vid=75248494-6e46-4c4b-92d2-9db9ddbe9016"},"vehicle_type_id":"4","last_reported":1781204059,"current_range_meters":6800,"station_id":"st_d3svhcjqgbts73a3dn0g","pricing_plan_id":"cebpf4jnsgd1na2vs0mg"},{"bike_id":"a8cff10f-925f-47d3-8d2a-4913d17e9425","system_id":"levelo_inurba_marseille","lat":43.30244,"lon":5.40038,"is_reserved":false,"is_disabled":true,"rental_uris":{"android":"levelo://app?vid=a8cff10f-925f-47d3-8d2a-4913d17e9425","ios":"levelo://app?vid=a8cff10f-925f-47d3-8d2a-4913d17e9425"},"vehicle_type_id":"4","last_reported":1781204059,"current_range_meters":7200,"station_id":"ce4bgvh2rcd13ifvqcs0","pricing_plan_id":"cebpf4jnsgd1na2vs0mg"},{"bike_id":"e2301970-743d-48b6-a9cc-2abc9beb0150","system_id":"levelo_inurba_marseille","lat":43.29342,"lon":5.37139,"is_reserved":false,"is_disabled":false,"rental_uris":{"android":"levelo://app?vid=e2301970-743d-48b6-a9cc-2abc9beb0150","ios":"levelo://app?vid=e2301970-743d-48b6-a9cc-2abc9beb0150"},"vehicle_type_id":"4","last_reported":1781204059,"current_range_meters":7200,"station_id":"","pricing_plan_id":"cebpf4jnsgd1na2vs0mg"},{"bike_id":"70eaaf10-991d-4235-857f-4132c8289c1e","system_id":"levelo_inurba_marseille","lat":43.25508,"lon":5.37652,"is_reserved":false,"is_disabled":false,"rental_uris":{"android":"levelo://app?vid=70eaaf10-991d-4235-857f-4132c8289c1e","ios":"levelo://app?vid=70eaaf10-991d-4235-857f-4132c8289c1e"},"vehicle_type_id":"4","last_reported":1781204059,"current_range_meters":7200,"station_id":"ce4bhh12rcd13ifvqff0","pricing_plan_id":"cebpf4jnsgd1na2vs0mg"},{"bike_id":"cebd1f5e-4615-475e-bb1f-b98342d910da","system_id":"levelo_inurba_marseille","lat":43.25074,"lon":5.39521,"is_reserved":false,"is_disabled":false,"rental_uris":{"android":"levelo://app?vid=cebd1f5e-4615-475e-bb1f-b98342d910da","ios":"levelo://app?vid=cebd1f5e-4615-475e-bb1f-b98342d910da"},"vehicle_type_id":"4","last_reported":1781204059,"current_range_meters":7200,"station_id":"ce4bhm12rcd13ifvqgkg","pricing_plan_id":"cebpf4jnsgd1na2vs0mg"},{"bike_id":"59d963d0-d1fe-483b-80d5-41df37ab3e9b","system_id":"levelo_inurba_marseille","lat":43.25574,"lon":5.38244,"is_reserved":false,"is_disabled":false,"rental_uris":{"android":"levelo://app?vid=59d963d0-d1fe-483b-80d5-41df37ab3e9b","ios":"levelo://app?vid=59d963d0-d1fe-483b-80d5-41df37ab3e9b"},"vehicle_type_id":"4","last_reported":1781204059,"current_range_meters":7200,"station_id":"ce4bhih2rcd13ifvqfs0","pricing_plan_id":"cebpf4jnsgd1na2vs0mg"},{"bike_id":"315d3cd3-9556-47d2-bf87-42573b9faa84","system_id":"levelo_inurba_marseille","lat":43.29973,"lon":5.38354,"is_reserved":false,"is_disabled":false,"rental_uris":{"android":"levelo://app?vid=315d3cd3-9556-47d2-bf87-42573b9faa84","ios":"levelo://app?vid=315d3cd3-9556-47d2-bf87-42573b9faa84"},"vehicle_type_id":"4","last_reported":1781204059,"current_range_meters":7200,"station_id":"","pricing_plan_id":"cebpf4jnsgd1na2vs0mg"},{"bike_id":"1d00e877-a9f8-4a55-8de8-7f231d49d2e1","system_id":"levelo_inurba_marseille","lat":43.28569,"lon":5.39493,"is_reserved":false,"is_disabled":true,"rental_uris":{"android":"levelo://app?vid=1d00e877-a9f8-4a55-8de8-7f231d49d2e1","ios":"levelo://app?vid=1d00e877-a9f8-4a55-8de8-7f231d49d2e1"},"vehicle_type_id":"4","last_reported":1781204059,"current_range_meters":7200,"station_id":"ce4bh292rcd13ifvqdg0","pricing_plan_id":"cebpf4jnsgd1na2vs0mg"},{"bike_id":"e47dfd39-5c0c-45eb-a41f-cf3fd7d5df32","system_id":"levelo_inurba_marseille","lat":43.28959,"lon":5.46117,"is_reserved":false,"is_disabled":true,"rental_uris":{"android":"levelo://app?vid=e47dfd39-5c0c-45eb-a41f-cf3fd7d5df32","ios":"levelo://app?vid=e47dfd39-5c0c-45eb-a41f-cf3fd7d5df32"},"vehicle_type_id":"4","last_reported":1781204059,"current_range_meters":7200,"station_id":"","pricing_plan_id":"cebpf4jnsgd1na2vs0mg"},{"bike_id":"14308449-0dbe-45aa-a61a-4feced6ded38","system_id":"levelo_inurba_marseille","lat":43.28705,"lon":5.37886,"is_reserved":false,"is_disabled":false,"rental_uris":{"android":"levelo://app?vid=14308449-0dbe-45aa-a61a-4feced6ded38","ios":"levelo://app?vid=14308449-0dbe-45aa-a61a-4feced6ded38"},"vehicle_type_id":"4","last_reported":1781204059,"current_range_meters":7200,"station_id":"ce4bh9p2rcd13ifvqec0","pricing_plan_id":"cebpf4jnsgd1na2vs0mg"},{"bike_id":"e11eb246-67c3-4f5b-a5ba-6160aaedd36d","system_id":"levelo_inurba_marseille","lat":43.29527,"lon":5.38552,"is_reserved":false,"is_disabled":false,"rental_uris":{"android":"levelo://app?vid=e11eb246-67c3-4f5b-a5ba-6160aaedd36d","ios":"levelo://app?vid=e11eb246-67c3-4f5b-a5ba-6160aaedd36d"},"vehicle_type_id":"4","last_reported":1781204059,"current_range_meters":7200,"station_id":"ce4bgih2rcd13ifvqba0","pricing_plan_id":"cebpf4jnsgd1na2vs0mg"},{"bike_id":"a903384a-f583-41b3-8106-27010cf65664","system_id":"levelo_inurba_marseille","lat":43.28481,"lon":5.38372,"is_reserved":false,"is_disabled":false,"rental_uris":{"android":"levelo://app?vid=a903384a-f583-41b3-8106-27010cf65664","ios":"levelo://app?vid=a903384a-f583-41b3-8106-27010cf65664"},"vehicle_type_id":"4","last_reported":1781204059,"current_range_meters":7200,"station_id":"ce4bh512rcd13ifvqe3g","pricing_plan_id":"cebpf4jnsgd1na2vs0mg"},{"bike_id":"f63e0e69-6a54-4e19-8d8e-f67680de3ed1","system_id":"levelo_inurba_marseille","lat":43.24667,"lon":5.43141,"is_reserved":false,"is_disabled":false,"rental_uris":{"android":"levelo://app?vid=f63e0e69-6a54-4e19-8d8e-f67680de3ed1","ios":"levelo://app?vid=f63e0e69-6a54-4e19-8d8e-f67680de3ed1"},"vehicle_type_id":"4","last_reported":1781204059,"current_range_meters":7200,"station_id":"st_d2m6c4gdas8pm72e190g","pricing_plan_id":"cebpf4jnsgd1na2vs0mg"},{"bike_id":"40de0209-043c-4ed6-84c3-7ac1da5cf58d","system_id":"levelo_inurba_marseille","lat":43.32081,"lon":5.36758,"is_reserved":false,"is_disabled":false,"rental_uris":{"android":"levelo://app?vid=40de0209-043c-4ed6-84c3-7ac1da5cf58d","ios":"levelo://app?vid=40de0209-043c-4ed6-84c3-7ac1da5cf58d"},"vehicle_type_id":"4","last_reported":1781204059,"current_range_meters":7200,"station_id":"ce4bhrh2rcd13ifvqhug","pricing_plan_id":"cebpf4jnsgd1na2vs0mg"},{"bike_id":"c93c5c3d-0399-41f2-9364-8579b4d871cd","system_id":"levelo_inurba_marseille","lat":43.23977,"lon":5.3629,"is_reserved":false,"is_disabled":false,"rental_uris":{"android":"levelo://app?vid=c93c5c3d-0399-41f2-9364-8579b4d871cd","ios":"levelo://app?vid=c93c5c3d-0399-41f2-9364-8579b4d871cd"},"vehicle_type_id":"4","last_reported":1781204059,"current_range_meters":7200,"station_id":"","pricing_plan_id":"cebpf4jnsgd1na2vs0mg"},{"bike_id":"8859d173-9f5d-4e39-86ed-34ec86a90175","system_id":"levelo_inurba_marseille","lat":43.29954,"lon":5.42764,"is_reserved":false,"is_disabled":false,"rental_uris":{"android":"levelo://app?vid=8859d173-9f5d-4e39-86ed-34ec86a90175","ios":"levelo://app?vid=8859d173-9f5d-4e39-86ed-34ec86a90175"},"vehicle_type_id":"4","last_reported":1781204059,"current_range_meters":7200,"station_id":"","pricing_plan_id":"cebpf4jnsgd1na2vs0mg"},{"bike_id":"2507d607-3822-4c87-a669-ab9b0690fc01","system_id":"levelo_inurba_marseille","lat":43.28653,"lon":5.3513,"is_reserved":false,"is_disabled":false,"rental_uris":{"android":"levelo://app?vid=2507d607-3822-4c87-a669-ab9b0690fc01","ios":"levelo://app?vid=2507d607-3822-4c87-a669-ab9b0690fc01"},"vehicle_type_id":"4","last_reported":1781204059,"current_range_meters":7200,"station_id":"ce4bhch2rcd13ifvqeug","pricing_plan_id":"cebpf4jnsgd1na2vs0mg"},{"bike_id":"35c92d8e-31de-44fa-9f93-746602e76286","system_id":"levelo_inurba_marseille","lat":43.27075,"lon":5.38294,"is_reserved":false,"is_disabled":false,"rental_uris":{"android":"levelo://app?vid=35c92d8e-31de-44fa-9f93-746602e76286","ios":"levelo://app?vid=35c92d8e-31de-44fa-9f93-746602e76286"},"vehicle_type_id":"4","last_reported":1781204059,"current_range_meters":7200,"station_id":"st_d3n2fo6cfp8s73cte1j0","pricing_plan_id":"cebpf4jnsgd1na2vs0mg"},{"bike_id":"e9ce25b8-b480-4907-8ce1-b8aecfbb3105","system_id":"levelo_inurba_marseille","lat":43.32321,"lon":5.3674,"is_reserved":false,"is_disabled":false,"rental_uris":{"android":"levelo://app?vid=e9ce25b8-b480-4907-8ce1-b8aecfbb3105","ios":"levelo://app?vid=e9ce25b8-b480-4907-8ce1-b8aecfbb3105"},"vehicle_type_id":"4","last_reported":1781204059,"current_range_meters":7200,"station_id":"ce4bhsh2rcd13ifvqi2g","pricing_plan_id":"cebpf4jnsgd1na2vs0mg"},{"bike_id":"996ceaa2-e5b1-4b4d-b4f2-cd99bed83787","system_id":"levelo_inurba_marseille","lat":43.291705,"lon":5.371537,"is_reserved":false,"is_disabled":false,"rental_uris":{"android":"levelo://app?vid=996ceaa2-e5b1-4b4d-b4f2-cd99bed83787","ios":"levelo://app?vid=996ceaa2-e5b1-4b4d-b4f2-cd99bed83787"},"vehicle_type_id":"4","last_reported":1781204059,"current_range_meters":7200,"station_id":"ce4bha92rcd13ifvqeh0","pricing_plan_id":"cebpf4jnsgd1na2vs0mg"},{"bike_id":"2b77c4c7-5c8a-485c-8ae0-c6e07643f197","system_id":"levelo_inurba_marseille","lat":43.29287,"lon":5.38412,"is_reserved":false,"is_disabled":false,"rental_uris":{"android":"levelo://app?vid=2b77c4c7-5c8a-485c-8ae0-c6e07643f197","ios":"levelo://app?vid=2b77c4c7-5c8a-485c-8ae0-c6e07643f197"},"vehicle_type_id":"4","last_reported":1781204059,"current_range_meters":7200,"station_id":"ce4bh692rcd13ifvqea0","pricing_plan_id":"cebpf4jnsgd1na2vs0mg"},{"bike_id":"397736ae-ddf7-4a55-b20d-a9b88be08d15","system_id":"levelo_inurba_marseille","lat":43.29266,"lon":5.38437,"is_reserved":false,"is_disabled":false,"rental_uris":{"android":"levelo://app?vid=397736ae-ddf7-4a55-b20d-a9b88be08d15","ios":"levelo://app?vid=397736ae-ddf7-4a55-b20d-a9b88be08d15"},"vehicle_type_id":"4","last_reported":1781204059,"current_range_meters":7200,"station_id":"ce4bh692rcd13ifvqea0","pricing_plan_id":"cebpf4jnsgd1na2vs0mg"},{"bike_id":"23feb093-a456-4c17-b1bd-ac8c4e2f95e3","system_id":"levelo_inurba_marseille","lat":43.29295,"lon":5.37457,"is_reserved":false,"is_disabled":false,"rental_uris":{"android":"levelo://app?vid=23feb093-a456-4c17-b1bd-ac8c4e2f95e3","ios":"levelo://app?vid=23feb093-a456-4c17-b1bd-ac8c4e2f95e3"},"vehicle_type_id":"4","last_reported":1781204059,"current_range_meters":7200,"station_id":"ce4bgi12rcd13ifvqb70","pricing_plan_id":"cebpf4jnsgd1na2vs0mg"},{"bike_id":"3584e241-1942-4015-86a4-f6e09519a952","system_id":"levelo_inurba_marseille","lat":43.28943,"lon":5.36611,"is_reserved":false,"is_disabled":false,"rental_uris":{"android":"levelo://app?vid=3584e241-1942-4015-86a4-f6e09519a952","ios":"levelo://app?vid=3584e241-1942-4015-86a4-f6e09519a952"},"vehicle_type_id":"4","last_reported":1781204059,"current_range_meters":7200,"station_id":"ce4bhap2rcd13ifvqek0","pricing_plan_id":"cebpf4jnsgd1na2vs0mg"},{"bike_id":"dddeaef2-d9ea-4476-bb8b-3961c41b1060","system_id":"levelo_inurba_marseille","lat":43.29198,"lon":5.35806,"is_reserved":false,"is_disabled":false,"rental_uris":{"android":"levelo://app?vid=dddeaef2-d9ea-4476-bb8b-3961c41b1060","ios":"levelo://app?vid=dddeaef2-d9ea-4476-bb8b-3961c41b1060"},"vehicle_type_id":"4","last_reported":1781204059,"current_range_meters":7200,"station_id":"ce4bhb12rcd13ifvqel0","pricing_plan_id":"cebpf4jnsgd1na2vs0mg"},{"bike_id":"55392f14-95e8-49a8-a1a7-bab0159559ee","system_id":"levelo_inurba_marseille","lat":43.29987,"lon":5.38487,"is_reserved":false,"is_disabled":false,"rental_uris":{"android":"levelo://app?vid=55392f14-95e8-49a8-a1a7-bab0159559ee","ios":"levelo://app?vid=55392f14-95e8-49a8-a1a7-bab0159559ee"},"vehicle_type_id":"4","last_reported":1781204059,"current_range_meters":7200,"station_id":"ce4bgj92rcd13ifvqbd0","pricing_plan_id":"cebpf4jnsgd1na2vs0mg"},{"bike_id":"dc73c328-897b-43d1-8b5d-64ea0e70a4c7","system_id":"levelo_inurba_marseille","lat":43.25572,"lon":5.38193,"is_reserved":false,"is_disabled":false,"rental_uris":{"android":"levelo://app?vid=dc73c328-897b-43d1-8b5d-64ea0e70a4c7","ios":"levelo://app?vid=dc73c328-897b-43d1-8b5d-64ea0e70a4c7"},"vehicle_type_id":"4","last_reported":1781204059,"current_range_meters":7200,"station_id":"ce4bhih2rcd13ifvqfs0","pricing_plan_id":"cebpf4jnsgd1na2vs0mg"},{"bike_id":"078a9912-314b-4791-a1b5-9e120e7893fe","system_id":"levelo_inurba_marseille","lat":43.26045,"lon":5.37542,"is_reserved":false,"is_disabled":false,"rental_uris":{"android":"levelo://app?vid=078a9912-314b-4791-a1b5-9e120e7893fe","ios":"levelo://app?vid=078a9912-314b-4791-a1b5-9e120e7893fe"},"vehicle_type_id":"4","last_reported":1781204059,"current_range_meters":7200,"station_id":"ce4bhgh2rcd13ifvqfa0","pricing_plan_id":"cebpf4jnsgd1na2vs0mg"},{"bike_id":"bdf74b18-9690-4f98-ad3f-523ee9585a12","system_id":"levelo_inurba_marseille","lat":43.29227,"lon":5.36061,"is_reserved":false,"is_disabled":false,"rental_uris":{"android":"levelo://app?vid=bdf74b18-9690-4f98-ad3f-523ee9585a12","ios":"levelo://app?vid=bdf74b18-9690-4f98-ad3f-523ee9585a12"},"vehicle_type_id":"4","last_reported":1781204059,"current_range_meters":8000,"station_id":"ce4bhbh2rcd13ifvqeqg","pricing_plan_id":"cebpf4jnsgd1na2vs0mg"},{"bike_id":"06667cc3-d524-4e6b-85b7-e9f231cd5446","system_id":"levelo_inurba_marseille","lat":43.29532,"lon":5.38551,"is_reserved":false,"is_disabled":false,"rental_uris":{"android":"levelo://app?vid=06667cc3-d524-4e6b-85b7-e9f231cd5446","ios":"levelo://app?vid=06667cc3-d524-4e6b-85b7-e9f231cd5446"},"vehicle_type_id":"4","last_reported":1781204059,"current_range_meters":8000,"station_id":"ce4bgih2rcd13ifvqba0","pricing_plan_id":"cebpf4jnsgd1na2vs0mg"},{"bike_id":"490137b5-27e8-4439-82b1-1a734d651ab0","system_id":"levelo_inurba_marseille","lat":43.31531,"lon":5.37996,"is_reserved":false,"is_disabled":false,"rental_uris":{"android":"levelo://app?vid=490137b5-27e8-4439-82b1-1a734d651ab0","ios":"levelo://app?vid=490137b5-27e8-4439-82b1-1a734d651ab0"},"vehicle_type_id":"4","last_reported":1781204059,"current_range_meters":8000,"station_id":"ce4bhsp2rcd13ifvqi50","pricing_plan_id":"cebpf4jnsgd1na2vs0mg"},{"bike_id":"779fdad7-e7f4-436c-9fce-9a7825f91cf8","system_id":"levelo_inurba_marseille","lat":43.26243,"lon":5.37446,"is_reserved":false,"is_disabled":false,"rental_uris":{"android":"levelo://app?vid=779fdad7-e7f4-436c-9fce-9a7825f91cf8","ios":"levelo://app?vid=779fdad7-e7f4-436c-9fce-9a7825f91cf8"},"vehicle_type_id":"4","last_reported":1781204059,"current_range_meters":8000,"station_id":"","pricing_plan_id":"cebpf4jnsgd1na2vs0mg"},{"bike_id":"0e86ce8f-0e91-432f-80bf-d4513463cb14","system_id":"levelo_inurba_marseille","lat":43.26238,"lon":5.37446,"is_reserved":false,"is_disabled":false,"rental_uris":{"android":"levelo://app?vid=0e86ce8f-0e91-432f-80bf-d4513463cb14","ios":"levelo://app?vid=0e86ce8f-0e91-432f-80bf-d4513463cb14"},"vehicle_type_id":"4","last_reported":1781204059,"current_range_meters":8000,"station_id":"ce4bhgp2rcd13ifvqfc0","pricing_plan_id":"cebpf4jnsgd1na2vs0mg"},{"bike_id":"2e41d0d3-9e86-4c08-89a6-e0a70cc8ae89","system_id":"levelo_inurba_marseille","lat":43.29248,"lon":5.38251,"is_reserved":false,"is_disabled":true,"rental_uris":{"android":"levelo://app?vid=2e41d0d3-9e86-4c08-89a6-e0a70cc8ae89","ios":"levelo://app?vid=2e41d0d3-9e86-4c08-89a6-e0a70cc8ae89"},"vehicle_type_id":"4","last_reported":1781204059,"current_range_meters":8000,"station_id":"","pricing_plan_id":"cebpf4jnsgd1na2vs0mg"},{"bike_id":"6586e6bd-0aa3-4435-974b-25aae462b2f6","system_id":"levelo_inurba_marseille","lat":43.262119,"lon":5.379249,"is_reserved":false,"is_disabled":false,"rental_uris":{"android":"levelo://app?vid=6586e6bd-0aa3-4435-974b-25aae462b2f6","ios":"levelo://app?vid=6586e6bd-0aa3-4435-974b-25aae462b2f6"},"vehicle_type_id":"4","last_reported":1781204059,"current_range_meters":8000,"station_id":"ce4bhjp2rcd13ifvqg90","pricing_plan_id":"cebpf4jnsgd1na2vs0mg"},{"bike_id":"3643eb2e-b0e4-40f6-9aa2-b567c4963540","system_id":"levelo_inurba_marseille","lat":43.32118,"lon":5.3678,"is_reserved":false,"is_disabled":false,"rental_uris":{"android":"levelo://app?vid=3643eb2e-b0e4-40f6-9aa2-b567c4963540","ios":"levelo://app?vid=3643eb2e-b0e4-40f6-9aa2-b567c4963540"},"vehicle_type_id":"4","last_reported":1781204059,"current_range_meters":8000,"station_id":"ce4bhrh2rcd13ifvqhug","pricing_plan_id":"cebpf4jnsgd1na2vs0mg"},{"bike_id":"cbb16737-bcd7-402c-8690-3019f42a1be1","system_id":"levelo_inurba_marseille","lat":43.28442,"lon":5.39205,"is_reserved":false,"is_disabled":false,"rental_uris":{"android":"levelo://app?vid=cbb16737-bcd7-402c-8690-3019f42a1be1","ios":"levelo://app?vid=cbb16737-bcd7-402c-8690-3019f42a1be1"},"vehicle_type_id":"4","last_reported":1781204059,"current_range_meters":8000,"station_id":"ce4bhoh2rcd13ifvqh5g","pricing_plan_id":"cebpf4jnsgd1na2vs0mg"},{"bike_id":"b6d507f5-c915-4915-8d1e-3c84726370da","system_id":"levelo_inurba_marseille","lat":43.32109,"lon":5.36788,"is_reserved":false,"is_disabled":false,"rental_uris":{"android":"levelo://app?vid=b6d507f5-c915-4915-8d1e-3c84726370da","ios":"levelo://app?vid=b6d507f5-c915-4915-8d1e-3c84726370da"},"vehicle_type_id":"4","last_reported":1781204059,"current_range_meters":8000,"station_id":"ce4bhrh2rcd13ifvqhug","pricing_plan_id":"cebpf4jnsgd1na2vs0mg"},{"bike_id":"78486d95-eae8-4f9f-af58-decc1476efea","system_id":"levelo_inurba_marseille","lat":43.2656,"lon":5.37279,"is_reserved":false,"is_disabled":false,"rental_uris":{"android":"levelo://app?vid=78486d95-eae8-4f9f-af58-decc1476efea","ios":"levelo://app?vid=78486d95-eae8-4f9f-af58-decc1476efea"},"vehicle_type_id":"4","last_reported":1781204059,"current_range_meters":8000,"station_id":"ce4bhg12rcd13ifvqf70","pricing_plan_id":"cebpf4jnsgd1na2vs0mg"},{"bike_id":"f36a7326-9811-479f-8f8d-7d9611e1577d","system_id":"levelo_inurba_marseille","lat":43.26214,"lon":5.37405,"is_reserved":false,"is_disabled":false,"rental_uris":{"android":"levelo://app?vid=f36a7326-9811-479f-8f8d-7d9611e1577d","ios":"levelo://app?vid=f36a7326-9811-479f-8f8d-7d9611e1577d"},"vehicle_type_id":"4","last_reported":1781204059,"current_range_meters":8000,"station_id":"","pricing_plan_id":"cebpf4jnsgd1na2vs0mg"},{"bike_id":"30a5e852-0c99-43e2-b551-259fe8f9ee59","system_id":"levelo_inurba_marseille","lat":43.27372,"lon":5.36262,"is_reserved":false,"is_disabled":false,"rental_uris":{"android":"levelo://app?vid=30a5e852-0c99-43e2-b551-259fe8f9ee59","ios":"levelo://app?vid=30a5e852-0c99-43e2-b551-259fe8f9ee59"},"vehicle_type_id":"4","last_reported":1781204059,"current_range_meters":8000,"station_id":"ce4bhbh2rcd13ifvqeo0","pricing_plan_id":"cebpf4jnsgd1na2vs0mg"},{"bike_id":"f165abb2-7744-4ffb-b278-55e94862d529","system_id":"levelo_inurba_marseille","lat":43.25554,"lon":5.39175,"is_reserved":false,"is_disabled":false,"rental_uris":{"android":"levelo://app?vid=f165abb2-7744-4ffb-b278-55e94862d529","ios":"levelo://app?vid=f165abb2-7744-4ffb-b278-55e94862d529"},"vehicle_type_id":"4","last_reported":1781204059,"current_range_meters":8000,"station_id":"","pricing_plan_id":"cebpf4jnsgd1na2vs0mg"},