{"last_updated":1737205853,"ttl":60,"version":"2.2","data":{"bikes":[{"bike_id":"6079b780-f3b4-463d-a4c5-83165224f3d9","system_id":"levelo_inurba_marseille","lat":43.32002,"lon":5.381646,"is_reserved":false,"is_disabled":false,"rental_uris":{"android":"levelo://app?vid=6079b780-f3b4-463d-a4c5-83165224f3d9","ios":"levelo://app?vid=6079b780-f3b4-463d-a4c5-83165224f3d9"},"vehicle_type_id":"4","last_reported":1737205853,"current_range_meters":27600,"station_id":"ce4bhr12rcd13ifvqhpg","pricing_plan_id":"cebpf4jnsgd1na2vs0mg"},{"bike_id":"9a94713b-6e30-4f63-bf81-a8b1a503a122","system_id":"levelo_inurba_marseille","lat":43.2835,"lon":5.38108,"is_reserved":false,"is_disabled":false,"rental_uris":{"android":"levelo://app?vid=9a94713b-6e30-4f63-bf81-a8b1a503a122","ios":"levelo://app?vid=9a94713b-6e30-4f63-bf81-a8b1a503a122"},"vehicle_type_id":"4","last_reported":1737205853,"current_range_meters":38000,"station_id":"ce4bh412rcd13ifvqdr0","pricing_plan_id":"cebpf4jnsgd1na2vs0mg"},{"bike_id":"530be816-56a5-4372-bab8-ad37ced15789","system_id":"levelo_inurba_marseille","lat":43.27993,"lon":5.40023,"is_reserved":false,"is_disabled":false,"rental_uris":{"android":"levelo://app?vid=530be816-56a5-4372-bab8-ad37ced15789","ios":"levelo://app?vid=530be816-56a5-4372-bab8-ad37ced15789"},"vehicle_type_id":"4","last_reported":1737205853,"current_range_meters":8400,"station_id":"ce4bho92rcd13ifvqh4g","pricing_plan_id":"cebpf4jnsgd1na2vs0mg"},{"bike_id":"aa57ca90-ff9b-48bb-9426-fa04e96896c3","system_id":"levelo_inurba_marseille","lat":43.29006,"lon":5.35611,"is_reserved":false,"is_disabled":false,"rental_uris":{"android":"levelo://app?vid=aa57ca90-ff9b-48bb-9426-fa04e96896c3","ios":"levelo://app?vid=aa57ca90-ff9b-48bb-9426-fa04e96896c3"},"vehicle_type_id":"4","last_reported":1737205853,"current_range_meters":38000,"station_id":"ce4bhb92rcd13ifvqen0","pricing_plan_id":"cebpf4jnsgd1na2vs0mg"},{"bike_id":"fd2a0fd9-a263-4f53-b422-10661caed9f2","system_id":"levelo_inurba_marseille","lat":43.28723,"lon":5.37908,"is_reserved":false,"is_disabled":false,"rental_uris":{"android":"levelo://app?vid=fd2a0fd9-a263-4f53-b422-10661caed9f2","ios":"levelo://app?vid=fd2a0fd9-a263-4f53-b422-10661caed9f2"},"vehicle_type_id":"4","last_reported":1737205853,"current_range_meters":29600,"station_id":"ce4bh9p2rcd13ifvqec0","pricing_plan_id":"cebpf4jnsgd1na2vs0mg"},{"bike_id":"7ea5b6fb-a0a6-44ea-b495-bd80cfd71e00","system_id":"levelo_inurba_marseille","lat":43.291,"lon":5.38129,"is_reserved":false,"is_disabled":false,"rental_uris":{"android":"levelo://app?vid=7ea5b6fb-a0a6-44ea-b495-bd80cfd71e00","ios":"levelo://app?vid=7ea5b6fb-a0a6-44ea-b495-bd80cfd71e00"},"vehicle_type_id":"4","last_reported":1737205853,"current_range_meters":38800,"station_id":"ce4bh512rcd13ifvqe2g","pricing_plan_id":"cebpf4jnsgd1na2vs0mg"},{"bike_id":"b8f4761d-63f1-4640-9d29-ed5f8c77803c","system_id":"levelo_inurba_marseille","lat":43.25088,"lon":5.39526,"is_reserved":false,"is_disabled":false,"rental_uris":{"android":"levelo://app?vid=b8f4761d-63f1-4640-9d29-ed5f8c77803c","ios":"levelo://app?vid=b8f4761d-63f1-4640-9d29-ed5f8c77803c"},"vehicle_type_id":"4","last_reported":1737205853,"current_range_meters":9600,"station_id":"ce4bhm12rcd13ifvqgkg","pricing_plan_id":"cebpf4jnsgd1na2vs0mg"},{"bike_id":"bba3fe45-e5d9-4113-b532-86b39321d998","system_id":"levelo_inurba_marseille","lat":43.29367,"lon":5.37851,"is_reserved":false,"is_disabled":false,"rental_uris":{"android":"levelo://app?vid=bba3fe45-e5d9-4113-b532-86b39321d998","ios":"levelo://app?vid=bba3fe45-e5d9-4113-b532-86b39321d998"},"vehicle_type_id":"4","last_reported":1737205853,"current_range_meters":8000,"station_id":"ce4bgjh2rcd13ifvqbf0","pricing_plan_id":"cebpf4jnsgd1na2vs0mg"},{"bike_id":"bb4c23f6-3088-4ba7-a53a-409f4844e31f","system_id":"levelo_inurba_marseille","lat":43.28497,"lon":5.38423,"is_reserved":false,"is_disabled":false,"rental_uris":{"android":"levelo://app?vid=bb4c23f6-3088-4ba7-a53a-409f4844e31f","ios":"levelo://app?vid=bb4c23f6-3088-4ba7-a53a-409f4844e31f"},"vehicle_type_id":"4","last_reported":1737205853,"current_range_meters":30400,"station_id":"ce4bh512rcd13ifvqe3g","pricing_plan_id":"cebpf4jnsgd1na2vs0mg"},{"bike_id":"2facf60e-4b74-4408-be56-5e144c403151","system_id":"levelo_inurba_marseille","lat":43.30516,"lon":5.36704,"is_reserved":false,"is_disabled":false,"rental_uris":{"android":"levelo://app?vid=2facf60e-4b74-4408-be56-5e144c403151","ios":"levelo://app?vid=2facf60e-4b74-4408-be56-5e144c403151"},"vehicle_type_id":"4","last_reported":1737205853,"current_range_meters":39200,"station_id":"ce4bgrp2rcd13ifvqc9g","pricing_plan_id":"cebpf4jnsgd1na2vs0mg"},{"bike_id":"7c6fe78e-2ad3-4542-a601-5fc1503a6f6a","system_id":"levelo_inurba_marseille","lat":43.29891,"lon":5.38918,"is_reserved":false,"is_disabled":false,"rental_uris":{"android":"levelo://app?vid=7c6fe78e-2ad3-4542-a601-5fc1503a6f6a","ios":"levelo://app?vid=7c6fe78e-2ad3-4542-a601-5fc1503a6f6a"},"vehicle_type_id":"4","last_reported":1737205853,"current_range_meters":25600,"station_id":"ce4bh392rcd13ifvqdl0","pricing_plan_id":"cebpf4jnsgd1na2vs0mg"},{"bike_id":"c717f2a7-de2a-4c46-a25b-711791478edc","system_id":"levelo_inurba_marseille","lat":43.25575,"lon":5.38241,"is_reserved":false,"is_disabled":false,"rental_uris":{"android":"levelo://app?vid=c717f2a7-de2a-4c46-a25b-711791478edc","ios":"levelo://app?vid=c717f2a7-de2a-4c46-a25b-711791478edc"},"vehicle_type_id":"4","last_reported":1737205853,"current_range_meters":28800,"station_id":"ce4bhih2rcd13ifvqfs0","pricing_plan_id":"cebpf4jnsgd1na2vs0mg"},{"bike_id":"1d1c79a0-7348-4331-b1b8-ed8f2caede51","system_id":"levelo_inurba_marseille","lat":43.30308,"lon":5.36876,"is_reserved":false,"is_disabled":false,"rental_uris":{"android":"levelo://app?vid=1d1c79a0-7348-4331-b1b8-ed8f2caede51","ios":"levelo://app?vid=1d1c79a0-7348-4331-b1b8-ed8f2caede51"},"vehicle_type_id":"4","last_reported":1737205853,"current_range_meters":14800,"station_id":"ce4bgqh2rcd13ifvqc5g","pricing_plan_id":"cebpf4jnsgd1na2vs0mg"},{"bike_id":"1ca09bf7-61ea-456c-9bde-631c2561ab63","system_id":"levelo_inurba_marseille","lat":43.30553,"lon":5.36526,"is_reserved":false,"is_disabled":false,"rental_uris":{"android":"levelo://app?vid=1ca09bf7-61ea-456c-9bde-631c2561ab63","ios":"levelo://app?vid=1ca09bf7-61ea-456c-9bde-631c2561ab63"},"vehicle_type_id":"4","last_reported":1737205853,"current_range_meters":31200,"station_id":"ce4bgs12rcd13ifvqcag","pricing_plan_id":"cebpf4jnsgd1na2vs0mg"},{"bike_id":"0bbfed84-aaea-446d-9091-9a8a8c37411e","system_id":"levelo_inurba_marseille","lat":43.31227,"lon":5.36833,"is_reserved":false,"is_disabled":false,"rental_uris":{"android":"levelo://app?vid=0bbfed84-aaea-446d-9091-9a8a8c37411e","ios":"levelo://app?vid=0bbfed84-aaea-446d-9091-9a8a8c37411e"},"vehicle_type_id":"4","last_reported":1737205853,"current_range_meters":38800,"station_id":"ce4bgl92rcd13ifvqbq0","pricing_plan_id":"cebpf4jnsgd1na2vs0mg"},{"bike_id":"607ab423-2eaa-4ae3-bd26-ca675f5968ff","system_id":"levelo_inurba_marseille","lat":43.28255,"lon":5.35073,"is_reserved":false,"is_disabled":false,"rental_uris":{"android":"levelo://app?vid=607ab423-2eaa-4ae3-bd26-ca675f5968ff","ios":"levelo://app?vid=607ab423-2eaa-4ae3-bd26-ca675f5968ff"},"vehicle_type_id":"4","last_reported":1737205853,"current_range_meters":38800,"station_id":"ce4bhbp2rcd13ifvqerg","pricing_plan_id":"cebpf4jnsgd1na2vs0mg"},{"bike_id":"b42d349b-8767-4500-922c-77c53d2c4648","system_id":"levelo_inurba_marseille","lat":43.26062,"lon":5.393996,"is_reserved":false,"is_disabled":false,"rental_uris":{"android":"levelo://app?vid=b42d349b-8767-4500-922c-77c53d2c4648","ios":"levelo://app?vid=b42d349b-8767-4500-922c-77c53d2c4648"},"vehicle_type_id":"4","last_reported":1737205853,"current_range_meters":22800,"station_id":"ce4bhh92rcd13ifvqfj0","pricing_plan_id":"cebpf4jnsgd1na2vs0mg"},{"bike_id":"74a5e774-7a52-4794-8ff3-ebbbb37caeb0","system_id":"levelo_inurba_marseille","lat":43.30949,"lon":5.39037,"is_reserved":false,"is_disabled":false,"rental_uris":{"android":"levelo://app?vid=74a5e774-7a52-4794-8ff3-ebbbb37caeb0","ios":"levelo://app?vid=74a5e774-7a52-4794-8ff3-ebbbb37caeb0"},"vehicle_type_id":"4","last_reported":1737205853,"current_range_meters":36000,"station_id":"ce4bgup2rcd13ifvqco0","pricing_plan_id":"cebpf4jnsgd1na2vs0mg"},{"bike_id":"f3c94274-f861-4c89-8bb1-1ebe1a531935","system_id":"levelo_inurba_marseille","lat":43.25005,"lon":5.38922,"is_reserved":false,"is_disabled":true,"rental_uris":{"android":"levelo://app?vid=f3c94274-f861-4c89-8bb1-1ebe1a531935","ios":"levelo://app?vid=f3c94274-f861-4c89-8bb1-1ebe1a531935"},"vehicle_type_id":"4","last_reported":1737205853,"current_range_meters":400,"station_id":"ce4bhgp2rcd13ifvqfd0","pricing_plan_id":"cebpf4jnsgd1na2vs0mg"},{"bike_id":"d3235b2a-4a94-4094-a068-d10e062b5d0b","system_id":"levelo_inurba_marseille","lat":43.29037,"lon":5.38151,"is_reserved":false,"is_disabled":false,"rental_uris":{"android":"levelo://app?vid=d3235b2a-4a94-4094-a068-d10e062b5d0b","ios":"levelo://app?vid=d3235b2a-4a94-4094-a068-d10e062b5d0b"},"vehicle_type_id":"4","last_reported":1737205853,"current_range_meters":27200,"station_id":"ce4bh4p2rcd13ifvqe1g","pricing_plan_id":"cebpf4jnsgd1na2vs0mg"},{"bike_id":"ea820ade-d81d-428e-82b9-7f165f7e8e75","system_id":"levelo_inurba_marseille","lat":43.32361,"lon":5.36758,"is_reserved":false,"is_disabled":false,"rental_uris":{"android":"levelo://app?vid=ea820ade-d81d-428e-82b9-7f165f7e8e75","ios":"levelo://app?vid=ea820ade-d81d-428e-82b9-7f165f7e8e75"},"vehicle_type_id":"4","last_reported":1737205853,"current_range_meters":22800,"station_id":"ce4bhsh2rcd13ifvqi2g","pricing_plan_id":"cebpf4jnsgd1na2vs0mg"},{"bike_id":"ff4b68f1-ba61-49bc-bc42-1ee83da4c2ee","system_id":"levelo_inurba_marseille","lat":43.30905,"lon":5.39631,"is_reserved":false,"is_disabled":true,"rental_uris":{"android":"levelo://app?vid=ff4b68f1-ba61-49bc-bc42-1ee83da4c2ee","ios":"levelo://app?vid=ff4b68f1-ba61-49bc-bc42-1ee83da4c2ee"},"vehicle_type_id":"4","last_reported":1737205853,"current_range_meters":36000,"station_id":"ce4bh012rcd13ifvqcv0","pricing_plan_id":"cebpf4jnsgd1na2vs0mg"},{"bike_id":"1b0931f0-3312-4883-8a27-451132a4dc3d","system_id":"levelo_inurba_marseille","lat":43.31211,"lon":5.36855,"is_reserved":false,"is_disabled":false,"rental_uris":{"android":"levelo://app?vid=1b0931f0-3312-4883-8a27-451132a4dc3d","ios":"levelo://app?vid=1b0931f0-3312-4883-8a27-451132a4dc3d"},"vehicle_type_id":"4","last_reported":1737205853,"current_range_meters":38000,"station_id":"ce4bgl92rcd13ifvqbq0","pricing_plan_id":"cebpf4jnsgd1na2vs0mg"},{"bike_id":"880fcafb-c9ff-4b10-9fe1-72031548689a","system_id":"levelo_inurba_marseille","lat":43.28735,"lon":5.36081,"is_reserved":false,"is_disabled":false,"rental_uris":{"android":"levelo://app?vid=880fcafb-c9ff-4b10-9fe1-72031548689a","ios":"levelo://app?vid=880fcafb-c9ff-4b10-9fe1-72031548689a"},"vehicle_type_id":"4","last_reported":1737205853,"current_range_meters":38000,"station_id":"cki0cbj6b192h4jlfktg","pricing_plan_id":"cebpf4jnsgd1na2vs0mg"},{"bike_id":"234a24b2-67f4-470b-a11a-a7b60b2f1f3e","system_id":"levelo_inurba_marseille","lat":43.2923,"lon":5.36074,"is_reserved":false,"is_disabled":false,"rental_uris":{"android":"levelo://app?vid=234a24b2-67f4-470b-a11a-a7b60b2f1f3e","ios":"levelo://app?vid=234a24b2-67f4-470b-a11a-a7b60b2f1f3e"},"vehicle_type_id":"4","last_reported":1737205853,"current_range_meters":33200,"station_id":"ce4bhbh2rcd13ifvqeqg","pricing_plan_id":"cebpf4jnsgd1na2vs0mg"},{"bike_id":"2e00ce67-d361-4edc-b2f6-0809ad451868","system_id":"levelo_inurba_marseille","lat":43.23191,"lon":5.39973,"is_reserved":false,"is_disabled":false,"rental_uris":{"android":"levelo://app?vid=2e00ce67-d361-4edc-b2f6-0809ad451868","ios":"levelo://app?vid=2e00ce67-d361-4edc-b2f6-0809ad451868"},"vehicle_type_id":"4","last_reported":1737205853,"current_range_meters":38800,"station_id":"ce4bhn12rcd13ifvqgqg","pricing_plan_id":"cebpf4jnsgd1na2vs0mg"},{"bike_id":"40c0b6c0-8afe-4089-98d3-594ab9179cf8","system_id":"levelo_inurba_marseille","lat":43.29706,"lon":5.37698,"is_reserved":false,"is_disabled":true,"rental_uris":{"android":"levelo://app?vid=40c0b6c0-8afe-4089-98d3-594ab9179cf8","ios":"levelo://app?vid=40c0b6c0-8afe-4089-98d3-594ab9179cf8"},"vehicle_type_id":"4","last_reported":1737205853,"current_range_meters":0,"station_id":"ce4bgkh2rcd13ifvqbl0","pricing_plan_id":"cebpf4jnsgd1na2vs0mg"},{"bike_id":"b672b566-ae6e-4181-a2cb-0155be334a04","system_id":"levelo_inurba_marseille","lat":43.28928,"lon":5.36623,"is_reserved":false,"is_disabled":true,"rental_uris":{"android":"levelo://app?vid=b672b566-ae6e-4181-a2cb-0155be334a04","ios":"levelo://app?vid=b672b566-ae6e-4181-a2cb-0155be334a04"},"vehicle_type_id":"4","last_reported":1737205853,"current_range_meters":0,"station_id":"ce4bhap2rcd13ifvqek0","pricing_plan_id":"cebpf4jnsgd1na2vs0mg"},{"bike_id":"0f1648ef-1c50-4d9f-bae4-e9070877900a","system_id":"levelo_inurba_marseille","lat":43.29062,"lon":5.37201,"is_reserved":false,"is_disabled":false,"rental_uris":{"android":"levelo://app?vid=0f1648ef-1c50-4d9f-bae4-e9070877900a","ios":"levelo://app?vid=0f1648ef-1c50-4d9f-bae4-e9070877900a"},"vehicle_type_id":"4","last_reported":1737205853,"current_range_meters":39200,"station_id":"ce4bh5p2rcd13ifvqe4g","pricing_plan_id":"cebpf4jnsgd1na2vs0mg"},{"bike_id":"b56d7cfb-6d51-4fa5-ac98-edff26387e02","system_id":"levelo_inurba_marseille","lat":43.29057,"lon":5.38163,"is_reserved":false,"is_disabled":false,"rental_uris":{"android":"levelo://app?vid=b56d7cfb-6d51-4fa5-ac98-edff26387e02","ios":"levelo://app?vid=b56d7cfb-6d51-4fa5-ac98-edff26387e02"},"vehicle_type_id":"4","last_reported":1737205853,"current_range_meters":34800,"station_id":"","pricing_plan_id":"cebpf4jnsgd1na2vs0mg"},{"bike_id":"0cffed77-e82b-4054-8cf0-8e0af3a6b4d7","system_id":"levelo_inurba_marseille","lat":43.29714,"lon":5.37704,"is_reserved":false,"is_disabled":false,"rental_uris":{"android":"levelo://app?vid=0cffed77-e82b-4054-8cf0-8e0af3a6b4d7","ios":"levelo://app?vid=0cffed77-e82b-4054-8cf0-8e0af3a6b4d7"},"vehicle_type_id":"4","last_reported":1737205853,"current_range_meters":22000,"station_id":"ce4bgkh2rcd13ifvqbl0","pricing_plan_id":"cebpf4jnsgd1na2vs0mg"},{"bike_id":"3eb60c52-95d6-4d4e-9bc7-66b0d87c4a90","system_id":"levelo_inurba_marseille","lat":43.29619,"lon":5.37172,"is_reserved":false,"is_disabled":false,"rental_uris":{"android":"levelo://app?vid=3eb60c52-95d6-4d4e-9bc7-66b0d87c4a90","ios":"levelo://app?vid=3eb60c52-95d6-4d4e-9bc7-66b0d87c4a90"},"vehicle_type_id":"4","last_reported":1737205853,"current_range_meters":39200,"station_id":"ce4bgnh2rcd13ifvqc0g","pricing_plan_id":"cebpf4jnsgd1na2vs0mg"},{"bike_id":"6767abdc-3c6a-42d0-9e7b-2128533c47af","system_id":"levelo_inurba_marseille","lat":43.290283,"lon":5.38138,"is_reserved":false,"is_disabled":false,"rental_uris":{"android":"levelo://app?vid=6767abdc-3c6a-42d0-9e7b-2128533c47af","ios":"levelo://app?vid=6767abdc-3c6a-42d0-9e7b-2128533c47af"},"vehicle_type_id":"4","last_reported":1737205853,"current_range_meters":38800,"station_id":"ce4bh4p2rcd13ifvqe1g","pricing_plan_id":"cebpf4jnsgd1na2vs0mg"},{"bike_id":"699f9075-c5fb-4c2e-b1de-3e38057eaabe","system_id":"levelo_inurba_marseille","lat":43.25016,"lon":5.38929,"is_reserved":false,"is_disabled":false,"rental_uris":{"android":"levelo://app?vid=699f9075-c5fb-4c2e-b1de-3e38057eaabe","ios":"levelo://app?vid=699f9075-c5fb-4c2e-b1de-3e38057eaabe"},"vehicle_type_id":"4","last_reported":1737205853,"current_range_meters":24400,"station_id":"ce4bhgp2rcd13ifvqfd0","pricing_plan_id":"cebpf4jnsgd1na2vs0mg"},{"bike_id":"4c27c779-0ab3-4f2a-93df-3fb0c8e38926","system_id":"levelo_inurba_marseille","lat":43.29876,"lon":5.39729,"is_reserved":false,"is_disabled":false,"rental_uris":{"android":"levelo://app?vid=4c27c779-0ab3-4f2a-93df-3fb0c8e38926","ios":"levelo://app?vid=4c27c779-0ab3-4f2a-93df-3fb0c8e38926"},"vehicle_type_id":"4","last_reported":1737205853,"current_range_meters":33200,"station_id":"ce4bh0h2rcd13ifvqd50","pricing_plan_id":"cebpf4jnsgd1na2vs0mg"},{"bike_id":"31a98fb4-ec8e-4f3e-9363-3f49a6908b29","system_id":"levelo_inurba_marseille","lat":43.2842,"lon":5.34973,"is_reserved":false,"is_disabled":false,"rental_uris":{"android":"levelo://app?vid=31a98fb4-ec8e-4f3e-9363-3f49a6908b29","ios":"levelo://app?vid=31a98fb4-ec8e-4f3e-9363-3f49a6908b29"},"vehicle_type_id":"4","last_reported":1737205853,"current_range_meters":11200,"station_id":"ce4bhbh2rcd13ifvqepg","pricing_plan_id":"cebpf4jnsgd1na2vs0mg"},{"bike_id":"295ae294-3a65-4fed-ae58-bcda6f46004d","system_id":"levelo_inurba_marseille","lat":43.23152,"lon":5.43697,"is_reserved":false,"is_disabled":false,"rental_uris":{"android":"levelo://app?vid=295ae294-3a65-4fed-ae58-bcda6f46004d","ios":"levelo://app?vid=295ae294-3a65-4fed-ae58-bcda6f46004d"},"vehicle_type_id":"4","last_reported":1737205853,"current_range_meters":13600,"station_id":"ce4bhmp2rcd13ifvqgog","pricing_plan_id":"cebpf4jnsgd1na2vs0mg"},{"bike_id":"1477df1e-7f90-456f-83d3-515b3688ceeb","system_id":"levelo_inurba_marseille","lat":43.25938,"lon":5.40907,"is_reserved":false,"is_disabled":false,"rental_uris":{"android":"levelo://app?vid=1477df1e-7f90-456f-83d3-515b3688ceeb","ios":"levelo://app?vid=1477df1e-7f90-456f-83d3-515b3688ceeb"},"vehicle_type_id":"4","last_reported":1737205853,"current_range_meters":8000,"station_id":"ce4bhm92rcd13ifvqglg","pricing_plan_id":"cebpf4jnsgd1na2vs0mg"},{"bike_id":"eae4938b-82ed-48a2-af5e-c6d7cb90fcde","system_id":"levelo_inurba_marseille","lat":43.24543,"lon":5.39531,"is_reserved":false,"is_disabled":false,"rental_uris":{"android":"levelo://app?vid=eae4938b-82ed-48a2-af5e-c6d7cb90fcde","ios":"levelo://app?vid=eae4938b-82ed-48a2-af5e-c6d7cb90fcde"},"vehicle_type_id":"4","last_reported":1737205853,"current_range_meters":30000,"station_id":"ce4bhlp2rcd13ifvqgjg","pricing_plan_id":"cebpf4jnsgd1na2vs0mg"},{"bike_id":"c509df4a-1f94-42c6-801f-559aef643954","system_id":"levelo_inurba_marseille","lat":43.30141,"lon":5.39869,"is_reserved":false,"is_disabled":false,"rental_uris":{"android":"levelo://app?vid=c509df4a-1f94-42c6-801f-559aef643954","ios":"levelo://app?vid=c509df4a-1f94-42c6-801f-559aef643954"},"vehicle_type_id":"4","last_reported":1737205853,"current_range_meters":24000,"station_id":"ce4bh0h2rcd13ifvqd40","pricing_plan_id":"cebpf4jnsgd1na2vs0mg"},{"bike_id":"11854ff7-8188-4d1d-a4c6-3790dab1f10c","system_id":"levelo_inurba_marseille","lat":43.32055,"lon":5.41578,"is_reserved":false,"is_disabled":false,"rental_uris":{"android":"levelo://app?vid=11854ff7-8188-4d1d-a4c6-3790dab1f10c","ios":"levelo://app?vid=11854ff7-8188-4d1d-a4c6-3790dab1f10c"},"vehicle_type_id":"4","last_reported":1737205853,"current_range_meters":38800,"station_id":"ce4bhq92rcd13ifvqhkg","pricing_plan_id":"cebpf4jnsgd1na2vs0mg"},{"bike_id":"b94614d3-2c6c-4b7f-a918-eb726c1cd570","system_id":"levelo_inurba_marseille","lat":43.32048,"lon":5.41545,"is_reserved":false,"is_disabled":true,"rental_uris":{"android":"levelo://app?vid=b94614d3-2c6c-4b7f-a918-eb726c1cd570","ios":"levelo://app?vid=b94614d3-2c6c-4b7f-a918-eb726c1cd570"},"vehicle_type_id":"4","last_reported":1737205853,"current_range_meters":1600,"station_id":"ce4bhq92rcd13ifvqhkg","pricing_plan_id":"cebpf4jnsgd1na2vs0mg"},{"bike_id":"cf0638aa-29b4-4316-9baa-b44eddc082d7","system_id":"levelo_inurba_marseille","lat":43.300593,"lon":5.370709,"is_reserved":false,"is_disabled":false,"rental_uris":{"android":"levelo://app?vid=cf0638aa-29b4-4316-9baa-b44eddc082d7","ios":"levelo://app?vid=cf0638aa-29b4-4316-9baa-b44eddc082d7"},"vehicle_type_id":"4","last_reported":1737205853,"current_range_meters":36800,"station_id":"","pricing_plan_id":"cebpf4jnsgd1na2vs0mg"},{"bike_id":"e0708113-5966-4f96-b9e3-4e0cd00543de","system_id":"levelo_inurba_marseille","lat":43.29713,"lon":5.37705,"is_reserved":false,"is_disabled":false,"rental_uris":{"android":"levelo://app?vid=e0708113-5966-4f96-b9e3-4e0cd00543de","ios":"levelo://app?vid=e0708113-5966-4f96-b9e3-4e0cd00543de"},"vehicle_type_id":"4","last_reported":1737205853,"current_range_meters":25600,"station_id":"ce4bgkh2rcd13ifvqbl0","pricing_plan_id":"cebpf4jnsgd1na2vs0mg"},{"bike_id":"0190f9ed-f672-484d-932e-c0ad891df792","system_id":"levelo_inurba_marseille","lat":43.31324,"lon":5.39696,"is_reserved":false,"is_disabled":false,"rental_uris":{"android":"levelo://app?vid=0190f9ed-f672-484d-932e-c0ad891df792","ios":"levelo://app?vid=0190f9ed-f672-484d-932e-c0ad891df792"},"vehicle_type_id":"4","last_reported":1737205853,"current_range_meters":35600,"station_id":"ce4bgvp2rcd13ifvqcu0","pricing_plan_id":"cebpf4jnsgd1na2vs0mg"},{"bike_id":"ca8aa51d-4833-4c77-8009-59b7c07323a3","system_id":"levelo_inurba_marseille","lat":43.32356,"lon":5.36765,"is_reserved":false,"is_disabled":false,"rental_uris":{"android":"levelo://app?vid=ca8aa51d-4833-4c77-8009-59b7c07323a3","ios":"levelo://app?vid=ca8aa51d-4833-4c77-8009-59b7c07323a3"},"vehicle_type_id":"4","last_reported":1737205853,"current_range_meters":10000,"station_id":"ce4bhsh2rcd13ifvqi2g","pricing_plan_id":"cebpf4jnsgd1na2vs0mg"},{"bike_id":"5faa8c62-2ac8-41ab-93f0-47014fb93567","system_id":"levelo_inurba_marseille","lat":43.300942,"lon":5.390844,"is_reserved":false,"is_disabled":false,"rental_uris":{"android":"levelo://app?vid=5faa8c62-2ac8-41ab-93f0-47014fb93567","ios":"levelo://app?vid=5faa8c62-2ac8-41ab-93f0-47014fb93567"},"vehicle_type_id":"4","last_reported":1737205853,"current_range_meters":28400,"station_id":"ce4bh192rcd13ifvqdb0","pricing_plan_id":"cebpf4jnsgd1na2vs0mg"},{"bike_id":"bf628e73-4f96-442c-8952-6a6d4246bb57","system_id":"levelo_inurba_marseille","lat":43.29308,"lon":5.37443,"is_reserved":false,"is_disabled":false,"rental_uris":{"android":"levelo://app?vid=bf628e73-4f96-442c-8952-6a6d4246bb57","ios":"levelo://app?vid=bf628e73-4f96-442c-8952-6a6d4246bb57"},"vehicle_type_id":"4","last_reported":1737205853,"current_range_meters":14400,"station_id":"ce4bgi12rcd13ifvqb70","pricing_plan_id":"cebpf4jnsgd1na2vs0mg"},{"bike_id":"96c695e4-d2ae-4622-8b84-ac5bd76f7fbd","system_id":"levelo_inurba_marseille","lat":43.27611,"lon":5.36118,"is_reserved":false,"is_disabled":false,"rental_uris":{"android":"levelo://app?vid=96c695e4-d2ae-4622-8b84-ac5bd76f7fbd","ios":"levelo://app?vid=96c695e4-d2ae-4622-8b84-ac5bd76f7fbd"},"vehicle_type_id":"4","last_reported":1737205853,"current_range_meters":26800,"station_id":"ce4bgj92rcd13ifvqbe0","pricing_plan_id":"cebpf4jnsgd1na2vs0mg"},{"bike_id":"d6fcb2b2-2cb2-421d-ab7a-3b0afff15b9e","system_id":"levelo_inurba_marseille","lat":43.272847,"lon":5.391103,"is_reserved":false,"is_disabled":false,"rental_uris":{"android":"levelo://app?vid=d6fcb2b2-2cb2-421d-ab7a-3b0afff15b9e","ios":"levelo://app?vid=d6fcb2b2-2cb2-421d-ab7a-3b0afff15b9e"},"vehicle_type_id":"4","last_reported":1737205853,"current_range_meters":9600,"station_id":"ce4bhgp2rcd13ifvqfe0","pricing_plan_id":"cebpf4jnsgd1na2vs0mg"},{"bike_id":"33e88fa8-4809-4a68-aace-deef5e28dce0","system_id":"levelo_inurba_marseille","lat":43.29528,"lon":5.39054,"is_reserved":false,"is_disabled":false,"rental_uris":{"android":"levelo://app?vid=33e88fa8-4809-4a68-aace-deef5e28dce0","ios":"levelo://app?vid=33e88fa8-4809-4a68-aace-deef5e28dce0"},"vehicle_type_id":"4","last_reported":1737205853,"current_range_meters":29600,"station_id":"ce4bh3p2rcd13ifvqdp0","pricing_plan_id":"cebpf4jnsgd1na2vs0mg"},{"bike_id":"10b88601-1b3c-41f1-aeb7-884146b89453","system_id":"levelo_inurba_marseille","lat":43.28623,"lon":5.35108,"is_reserved":false,"is_disabled":false,"rental_uris":{"android":"levelo://app?vid=10b88601-1b3c-41f1-aeb7-884146b89453","ios":"levelo://app?vid=10b88601-1b3c-41f1-aeb7-884146b89453"},"vehicle_type_id":"4","last_reported":1737205853,"current_range_meters":27600,"station_id":"ce4bhch2rcd13ifvqeug","pricing_plan_id":"cebpf4jnsgd1na2vs0mg"},{"bike_id":"fe4e8d1f-2600-468f-a43a-eb21b90157aa","system_id":"levelo_inurba_marseille","lat":43.27316,"lon":5.39094,"is_reserved":false,"is_disabled":false,"rental_uris":{"android":"levelo://app?vid=fe4e8d1f-2600-468f-a43a-eb21b90157aa","ios":"levelo://app?vid=fe4e8d1f-2600-468f-a43a-eb21b90157aa"},"vehicle_type_id":"4","last_reported":1737205853,"current_range_meters":17600,"station_id":"ce4bhgp2rcd13ifvqfe0","pricing_plan_id":"cebpf4jnsgd1na2vs0mg"},{"bike_id":"c9be01c1-c65a-4c98-8923-01889b467275","system_id":"levelo_inurba_marseille","lat":43.265527,"lon":5.372877,"is_reserved":false,"is_disabled":false,"rental_uris":{"android":"levelo://app?vid=c9be01c1-c65a-4c98-8923-01889b467275","ios":"levelo://app?vid=c9be01c1-c65a-4c98-8923-01889b467275"},"vehicle_type_id":"4","last_reported":1737205853,"current_range_meters":38800,"station_id":"ce4bhg12rcd13ifvqf70","pricing_plan_id":"cebpf4jnsgd1na2vs0mg"},{"bike_id":"cf507987-64c3-4d62-8bcc-151213485ee1","system_id":"levelo_inurba_marseille","lat":43.27306,"lon":5.39083,"is_reserved":false,"is_disabled":false,"rental_uris":{"android":"levelo://app?vid=cf507987-64c3-4d62-8bcc-151213485ee1","ios":"levelo://app?vid=cf507987-64c3-4d62-8bcc-151213485ee1"},"vehicle_type_id":"4","last_reported":1737205853,"current_range_meters":39200,"station_id":"ce4bhgp2rcd13ifvqfe0","pricing_plan_id":"cebpf4jnsgd1na2vs0mg"},{"bike_id":"4dddf982-5ca7-40ba-9ade-0b40991a7fe6","system_id":"levelo_inurba_marseille","lat":43.26806,"lon":5.40278,"is_reserved":false,"is_disabled":false,"rental_uris":{"android":"levelo://app?vid=4dddf982-5ca7-40ba-9ade-0b40991a7fe6","ios":"levelo://app?vid=4dddf982-5ca7-40ba-9ade-0b40991a7fe6"},"vehicle_type_id":"4","last_reported":1737205853,"current_range_meters":32000,"station_id":"ce501612rcd8frsf0b60","pricing_plan_id":"cebpf4jnsgd1na2vs0mg"},{"bike_id":"8eaddf67-1ea5-48ba-bed3-583a76394419","system_id":"levelo_inurba_marseille","lat":43.25008,"lon":5.38942,"is_reserved":false,"is_disabled":false,"rental_uris":{"android":"levelo://app?vid=8eaddf67-1ea5-48ba-bed3-583a76394419","ios":"levelo://app?vid=8eaddf67-1ea5-48ba-bed3-583a76394419"},"vehicle_type_id":"4","last_reported":1737205853,"current_range_meters":17600,"station_id":"ce4bhgp2rcd13ifvqfd0","pricing_plan_id":"cebpf4jnsgd1na2vs0mg"},{"bike_id":"0aacbbb4-b4df-4112-9f3e-9c8b0c3a36b2","system_id":"levelo_inurba_marseille","lat":43.24423,"lon":5.37055,"is_reserved":false,"is_disabled":false,"rental_uris":{"android":"levelo://app?vid=0aacbbb4-b4df-4112-9f3e-9c8b0c3a36b2","ios":"levelo://app?vid=0aacbbb4-b4df-4112-9f3e-9c8b0c3a36b2"},"vehicle_type_id":"4","last_reported":1737205853,"current_range_meters":39200,"station_id":"ce4bhhh2rcd13ifvqfk0","pricing_plan_id":"cebpf4jnsgd1na2vs0mg"},{"bike_id":"b269cd70-a238-4327-b0c3-3e8629daf71a","system_id":"levelo_inurba_marseille","lat":43.271807,"lon":5.391451,"is_reserved":false,"is_disabled":false,"rental_uris":{"android":"levelo://app?vid=b269cd70-a238-4327-b0c3-3e8629daf71a","ios":"levelo://app?vid=b269cd70-a238-4327-b0c3-3e8629daf71a"},"vehicle_type_id":"4","last_reported":1737205853,"current_range_meters":22000,"station_id":"ce4bhhp2rcd13ifvqfm0","pricing_plan_id":"cebpf4jnsgd1na2vs0mg"},{"bike_id":"7b42a98f-a6d5-44c4-85b1-ac2cd91aafd3","system_id":"levelo_inurba_marseille","lat":43.27198,"lon":5.39197,"is_reserved":false,"is_disabled":true,"rental_uris":{"android":"levelo://app?vid=7b42a98f-a6d5-44c4-85b1-ac2cd91aafd3","ios":"levelo://app?vid=7b42a98f-a6d5-44c4-85b1-ac2cd91aafd3"},"vehicle_type_id":"4","last_reported":1737205853,"current_range_meters":0,"station_id":"ce4bhhp2rcd13ifvqfm0","pricing_plan_id":"cebpf4jnsgd1na2vs0mg"},{"bike_id":"891d5aa4-b1b0-4e0c-90ac-49e97bf9c382","system_id":"levelo_inurba_marseille","lat":43.23192,"lon":5.39977,"is_reserved":false,"is_disabled":false,"rental_uris":{"android":"levelo://app?vid=891d5aa4-b1b0-4e0c-90ac-49e97bf9c382","ios":"levelo://app?vid=891d5aa4-b1b0-4e0c-90ac-49e97bf9c382"},"vehicle_type_id":"4","last_reported":1737205853,"current_range_meters":30000,"station_id":"ce4bhn12rcd13ifvqgqg","pricing_plan_id":"cebpf4jnsgd1na2vs0mg"},{"bike_id":"3d446c1d-4f77-4412-91e2-529c2a6671c7","system_id":"levelo_inurba_marseille","lat":43.29299,"lon":5.37456,"is_reserved":false,"is_disabled":false,"rental_uris":{"android":"levelo://app?vid=3d446c1d-4f77-4412-91e2-529c2a6671c7","ios":"levelo://app?vid=3d446c1d-4f77-4412-91e2-529c2a6671c7"},"vehicle_type_id":"4","last_reported":1737205853,"current_range_meters":33200,"station_id":"ce4bgi12rcd13ifvqb70","pricing_plan_id":"cebpf4jnsgd1na2vs0mg"},{"bike_id":"8bb72a74-f62a-4d4e-b8b8-937cb888ec71","system_id":"levelo_inurba_marseille","lat":43.2652,"lon":5.39532,"is_reserved":false,"is_disabled":false,"rental_uris":{"android":"levelo://app?vid=8bb72a74-f62a-4d4e-b8b8-937cb888ec71","ios":"levelo://app?vid=8bb72a74-f62a-4d4e-b8b8-937cb888ec71"},"vehicle_type_id":"4","last_reported":1737205853,"current_range_meters":12000,"station_id":"ce4bhi12rcd13ifvqfq0","pricing_plan_id":"cebpf4jnsgd1na2vs0mg"},{"bike_id":"61edbcd9-c35d-44cd-8931-a0a4066be2b7","system_id":"levelo_inurba_marseille","lat":43.2906,"lon":5.37175,"is_reserved":false,"is_disabled":false,"rental_uris":{"android":"levelo://app?vid=61edbcd9-c35d-44cd-8931-a0a4066be2b7","ios":"levelo://app?vid=61edbcd9-c35d-44cd-8931-a0a4066be2b7"},"vehicle_type_id":"4","last_reported":1737205853,"current_range_meters":39200,"station_id":"ce4bh5p2rcd13ifvqe4g","pricing_plan_id":"cebpf4jnsgd1na2vs0mg"},{"bike_id":"357eaeda-fef2-41f2-9ad0-621ae2cc5c09","system_id":"levelo_inurba_marseille","lat":43.33768,"lon":5.37496,"is_reserved":false,"is_disabled":false,"rental_uris":{"android":"levelo://app?vid=357eaeda-fef2-41f2-9ad0-621ae2cc5c09","ios":"levelo://app?vid=357eaeda-fef2-41f2-9ad0-621ae2cc5c09"},"vehicle_type_id":"4","last_reported":1737205853,"current_range_meters":31200,"station_id":"","pricing_plan_id":"cebpf4jnsgd1na2vs0mg"},{"bike_id":"54c9f7de-8fe5-4fd6-a934-8372e9cad70a","system_id":"levelo_inurba_marseille","lat":43.28846,"lon":5.39329,"is_reserved":false,"is_disabled":true,"rental_uris":{"android":"levelo://app?vid=54c9f7de-8fe5-4fd6-a934-8372e9cad70a","ios":"levelo://app?vid=54c9f7de-8fe5-4fd6-a934-8372e9cad70a"},"vehicle_type_id":"4","last_reported":1737205853,"current_range_meters":22800,"station_id":"ce4bh2p2rcd13ifvqdi0","pricing_plan_id":"cebpf4jnsgd1na2vs0mg"},{"bike_id":"4fa0a681-74d2-4b11-8fc1-31bafd22f45e","system_id":"levelo_inurba_marseille","lat":43.31179,"lon":5.38718,"is_reserved":false,"is_disabled":false,"rental_uris":{"android":"levelo://app?vid=4fa0a681-74d2-4b11-8fc1-31bafd22f45e","ios":"levelo://app?vid=4fa0a681-74d2-4b11-8fc1-31bafd22f45e"},"vehicle_type_id":"4","last_reported":1737205853,"current_range_meters":38800,"station_id":"ce4bgv12rcd13ifvqcp0","pricing_plan_id":"cebpf4jnsgd1na2vs0mg"},{"bike_id":"c16af295-34ba-47e2-83f5-588ec70db48a","system_id":"levelo_inurba_marseille","lat":43.29018,"lon":5.40022,"is_reserved":false,"is_disabled":true,"rental_uris":{"android":"levelo://app?vid=c16af295-34ba-47e2-83f5-588ec70db48a","ios":"levelo://app?vid=c16af295-34ba-47e2-83f5-588ec70db48a"},"vehicle_type_id":"4","last_reported":1737205853,"current_range_meters":38000,"station_id":"","pricing_plan_id":"cebpf4jnsgd1na2vs0mg"},{"bike_id":"735750d8-5f08-4431-bc24-398e0f49226d","system_id":"levelo_inurba_marseille","lat":43.25733,"lon":5.41106,"is_reserved":false,"is_disabled":false,"rental_uris":{"android":"levelo://app?vid=735750d8-5f08-4431-bc24-398e0f49226d","ios":"levelo://app?vid=735750d8-5f08-4431-bc24-398e0f49226d"},"vehicle_type_id":"4","last_reported":1737205853,"current_range_meters":11600,"station_id":"ce4bhkp2rcd13ifvqgd0","pricing_plan_id":"cebpf4jnsgd1na2vs0mg"},{"bike_id":"1d286ee4-8730-43d1-b062-3cef70256d46","system_id":"levelo_inurba_marseille","lat":43.29023,"lon":5.38143,"is_reserved":false,"is_disabled":false,"rental_uris":{"android":"levelo://app?vid=1d286ee4-8730-43d1-b062-3cef70256d46","ios":"levelo://app?vid=1d286ee4-8730-43d1-b062-3cef70256d46"},"vehicle_type_id":"4","last_reported":1737205853,"current_range_meters":39200,"station_id":"ce4bh4p2rcd13ifvqe1g","pricing_plan_id":"cebpf4jnsgd1na2vs0mg"},{"bike_id":"127980a1-0c9f-407e-be8c-6d9c0ac5cb6f","system_id":"levelo_inurba_marseille","lat":43.291991,"lon":5.358017,"is_reserved":false,"is_disabled":false,"rental_uris":{"android":"levelo://app?vid=127980a1-0c9f-407e-be8c-6d9c0ac5cb6f","ios":"levelo://app?vid=127980a1-0c9f-407e-be8c-6d9c0ac5cb6f"},"vehicle_type_id":"4","last_reported":1737205853,"current_range_meters":38400,"station_id":"ce4bhb12rcd13ifvqel0","pricing_plan_id":"cebpf4jnsgd1na2vs0mg"},{"bike_id":"140fc8cf-4281-44e3-bae8-ed54dc40a31c","system_id":"levelo_inurba_marseille","lat":43.25939,"lon":5.40904,"is_reserved":false,"is_disabled":false,"rental_uris":{"android":"levelo://app?vid=140fc8cf-4281-44e3-bae8-ed54dc40a31c","ios":"levelo://app?vid=140fc8cf-4281-44e3-bae8-ed54dc40a31c"},"vehicle_type_id":"4","last_reported":1737205853,"current_range_meters":28800,"station_id":"ce4bhm92rcd13ifvqglg","pricing_plan_id":"cebpf4jnsgd1na2vs0mg"},{"bike_id":"bcd58053-bae7-45e1-88e2-378c4d0a6c9f","system_id":"levelo_inurba_marseille","lat":43.31754,"lon":5.4043,"is_reserved":false,"is_disabled":false,"rental_uris":{"android":"levelo://app?vid=bcd58053-bae7-45e1-88e2-378c4d0a6c9f","ios":"levelo://app?vid=bcd58053-bae7-45e1-88e2-378c4d0a6c9f"},"vehicle_type_id":"4","last_reported":1737205853,"current_range_meters":26800,"station_id":"ce4bh012rcd13ifvqd00","pricing_plan_id":"cebpf4jnsgd1na2vs0mg"},{"bike_id":"01a07bd9-36a1-4c19-a88b-7c9e3a6ee490","system_id":"levelo_inurba_marseille","lat":43.25103,"lon":5.39527,"is_reserved":false,"is_disabled":false,"rental_uris":{"android":"levelo://app?vid=01a07bd9-36a1-4c19-a88b-7c9e3a6ee490","ios":"levelo://app?vid=01a07bd9-36a1-4c19-a88b-7c9e3a6ee490"},"vehicle_type_id":"4","last_reported":1737205853,"current_range_meters":36800,"station_id":"ce4bhm12rcd13ifvqgkg","pricing_plan_id":"cebpf4jnsgd1na2vs0mg"},{"bike_id":"ed86bcef-c18f-44e4-8d9b-7e2c0070d7b1","system_id":"levelo_inurba_marseille","lat":43.27367,"lon":5.36241,"is_reserved":false,"is_disabled":false,"rental_uris":{"android":"levelo://app?vid=ed86bcef-c18f-44e4-8d9b-7e2c0070d7b1","ios":"levelo://app?vid=ed86bcef-c18f-44e4-8d9b-7e2c0070d7b1"},"vehicle_type_id":"4","last_reported":1737205853,"current_range_meters":32400,"station_id":"ce4bhbh2rcd13ifvqeo0","pricing_plan_id":"cebpf4jnsgd1na2vs0mg"},{"bike_id":"d615d74e-143c-44d0-9a61-fef9d499e25b","system_id":"levelo_inurba_marseille","lat":43.260314,"lon":5.375485,"is_reserved":false,"is_disabled":false,"rental_uris":{"android":"levelo://app?vid=d615d74e-143c-44d0-9a61-fef9d499e25b","ios":"levelo://app?vid=d615d74e-143c-44d0-9a61-fef9d499e25b"},"vehicle_type_id":"4","last_reported":1737205853,"current_range_meters":38800,"station_id":"ce4bhgh2rcd13ifvqfa0","pricing_plan_id":"cebpf4jnsgd1na2vs0mg"},{"bike_id":"4ffb2fd7-5f5b-4f82-8ddf-9fe95e000c38","system_id":"levelo_inurba_marseille","lat":43.25397,"lon":5.41657,"is_reserved":false,"is_disabled":true,"rental_uris":{"android":"levelo://app?vid=4ffb2fd7-5f5b-4f82-8ddf-9fe95e000c38","ios":"levelo://app?vid=4ffb2fd7-5f5b-4f82-8ddf-9fe95e000c38"},"vehicle_type_id":"4","last_reported":1737205853,"current_range_meters":0,"station_id":"","pricing_plan_id":"cebpf4jnsgd1na2vs0mg"},{"bike_id":"9be957d2-26d1-49a4-9f85-b06ee3432064","system_id":"levelo_inurba_marseille","lat":43.33715,"lon":5.39189,"is_reserved":false,"is_disabled":false,"rental_uris":{"android":"levelo://app?vid=9be957d2-26d1-49a4-9f85-b06ee3432064","ios":"levelo://app?vid=9be957d2-26d1-49a4-9f85-b06ee3432064"},"vehicle_type_id":"4","last_reported":1737205853,"current_range_meters":26800,"station_id":"ce4bhr92rcd13ifvqhsg","pricing_plan_id":"cebpf4jnsgd1na2vs0mg"},{"bike_id":"7d5878b8-cebf-4126-bebd-600cf4c9b2a0","system_id":"levelo_inurba_marseille","lat":43.28365,"lon":5.38636,"is_reserved":false,"is_disabled":false,"rental_uris":{"android":"levelo://app?vid=7d5878b8-cebf-4126-bebd-600cf4c9b2a0","ios":"levelo://app?vid=7d5878b8-cebf-4126-bebd-600cf4c9b2a0"},"vehicle_type_id":"4","last_reported":1737205853,"current_range_meters":32800,"station_id":"ce4bh492rcd13ifvqdvg","pricing_plan_id":"cebpf4jnsgd1na2vs0mg"},{"bike_id":"7474cf9f-a50a-4064-8ee9-625b0bfc2233","system_id":"levelo_inurba_marseille","lat":43.29184,"lon":5.37145,"is_reserved":false,"is_disabled":true,"rental_uris":{"android":"levelo://app?vid=7474cf9f-a50a-4064-8ee9-625b0bfc2233","ios":"levelo://app?vid=7474cf9f-a50a-4064-8ee9-625b0bfc2233"},"vehicle_type_id":"4","last_reported":1737205853,"current_range_meters":0,"station_id":"ce4bha92rcd13ifvqeh0","pricing_plan_id":"cebpf4jnsgd1na2vs0mg"},{"bike_id":"9d571973-919f-4d9a-8263-16469bc08d16","system_id":"levelo_inurba_marseille","lat":43.31363,"lon":5.36758,"is_reserved":false,"is_disabled":false,"rental_uris":{"android":"levelo://app?vid=9d571973-919f-4d9a-8263-16469bc08d16","ios":"levelo://app?vid=9d571973-919f-4d9a-8263-16469bc08d16"},"vehicle_type_id":"4","last_reported":1737205853,"current_range_meters":16000,"station_id":"ce4bgr92rcd13ifvqc6g","pricing_plan_id":"cebpf4jnsgd1na2vs0mg"},{"bike_id":"fd153fd4-8c71-4200-95f4-e02852c298c7","system_id":"levelo_inurba_marseille","lat":43.25084,"lon":5.39513,"is_reserved":false,"is_disabled":false,"rental_uris":{"android":"levelo://app?vid=fd153fd4-8c71-4200-95f4-e02852c298c7","ios":"levelo://app?vid=fd153fd4-8c71-4200-95f4-e02852c298c7"},"vehicle_type_id":"4","last_reported":1737205853,"current_range_meters":36000,"station_id":"ce4bhm12rcd13ifvqgkg","pricing_plan_id":"cebpf4jnsgd1na2vs0mg"},{"bike_id":"3a4204c8-9fba-4be7-9fa2-58a8cfd4d291","system_id":"levelo_inurba_marseille","lat":43.24548,"lon":5.39533,"is_reserved":false,"is_disabled":false,"rental_uris":{"android":"levelo://app?vid=3a4204c8-9fba-4be7-9fa2-58a8cfd4d291","ios":"levelo://app?vid=3a4204c8-9fba-4be7-9fa2-58a8cfd4d291"},"vehicle_type_id":"4","last_reported":1737205853,"current_range_meters":21600,"station_id":"ce4bhlp2rcd13ifvqgjg","pricing_plan_id":"cebpf4jnsgd1na2vs0mg"},{"bike_id":"e99154f1-aafc-4205-a57d-43bf4549e42b","system_id":"levelo_inurba_marseille","lat":43.29368,"lon":5.37831,"is_reserved":false,"is_disabled":false,"rental_uris":{"android":"levelo://app?vid=e99154f1-aafc-4205-a57d-43bf4549e42b","ios":"levelo://app?vid=e99154f1-aafc-4205-a57d-43bf4549e42b"},"vehicle_type_id":"4","last_reported":1737205853,"current_range_meters":38400,"station_id":"ce4bgjh2rcd13ifvqbf0","pricing_plan_id":"cebpf4jnsgd1na2vs0mg"},{"bike_id":"4489757e-df01-42da-be3a-27402f07b76a","system_id":"levelo_inurba_marseille","lat":43.31085,"lon":5.42431,"is_reserved":false,"is_disabled":false,"rental_uris":{"android":"levelo://app?vid=4489757e-df01-42da-be3a-27402f07b76a","ios":"levelo://app?vid=4489757e-df01-42da-be3a-27402f07b76a"},"vehicle_type_id":"4","last_reported":1737205853,"current_range_meters":28000,"station_id":"ce4bhp92rcd13ifvqhag","pricing_plan_id":"cebpf4jnsgd1na2vs0mg"},{"bike_id":"41e66b43-81c2-4cc4-b4fc-989eb06aea62","system_id":"levelo_inurba_marseille","lat":43.25118,"lon":5.40323,"is_reserved":false,"is_disabled":false,"rental_uris":{"android":"levelo://app?vid=41e66b43-81c2-4cc4-b4fc-989eb06aea62","ios":"levelo://app?vid=41e66b43-81c2-4cc4-b4fc-989eb06aea62"},"vehicle_type_id":"4","last_reported":1737205853,"current_range_meters":18800,"station_id":"ce4bhlh2rcd13ifvqgig","pricing_plan_id":"cebpf4jnsgd1na2vs0mg"},{"bike_id":"aaf9b19d-0d21-4f60-bd85-a79491ea0c6f","system_id":"levelo_inurba_marseille","lat":43.26186,"lon":5.37459,"is_reserved":false,"is_disabled":false,"rental_uris":{"android":"levelo://app?vid=aaf9b19d-0d21-4f60-bd85-a79491ea0c6f","ios":"levelo://app?vid=aaf9b19d-0d21-4f60-bd85-a79491ea0c6f"},"vehicle_type_id":"4","last_reported":1737205853,"current_range_meters":36400,"station_id":"ce4bhgp2rcd13ifvqfc0","pricing_plan_id":"cebpf4jnsgd1na2vs0mg"},{"bike_id":"550a2164-b25c-4884-becd-80661e1ab521","system_id":"levelo_inurba_marseille","lat":43.29527,"lon":5.375,"is_reserved":false,"is_disabled":false,"rental_uris":{"android":"levelo://app?vid=550a2164-b25c-4884-becd-80661e1ab521","ios":"levelo://app?vid=550a2164-b25c-4884-becd-80661e1ab521"},"vehicle_type_id":"4","last_reported":1737205853,"current_range_meters":28000,"station_id":"ce4bgkp2rcd13ifvqbmg","pricing_plan_id":"cebpf4jnsgd1na2vs0mg"},{"bike_id":"d29beac8-a618-4bab-b648-f7daf71dd18c","system_id":"levelo_inurba_marseille","lat":43.26672,"lon":5.38279,"is_reserved":false,"is_disabled":false,"rental_uris":{"android":"levelo://app?vid=d29beac8-a618-4bab-b648-f7daf71dd18c","ios":"levelo://app?vid=d29beac8-a618-4bab-b648-f7daf71dd18c"},"vehicle_type_id":"4","last_reported":1737205853,"current_range_meters":20000,"station_id":"ce4bhg92rcd13ifvqf90","pricing_plan_id":"cebpf4jnsgd1na2vs0mg"},{"bike_id":"fae143cc-e0b7-42e0-ac41-6327643321d0","system_id":"levelo_inurba_marseille","lat":43.2582,"lon":5.3944,"is_reserved":false,"is_disabled":false,"rental_uris":{"android":"levelo://app?vid=fae143cc-e0b7-42e0-ac41-6327643321d0","ios":"levelo://app?vid=fae143cc-e0b7-42e0-ac41-6327643321d0"},"vehicle_type_id":"4","last_reported":1737205853,"current_range_meters":32000,"station_id":"ce4bhip2rcd13ifvqft0","pricing_plan_id":"cebpf4jnsgd1na2vs0mg"},{"bike_id":"ec11ae4d-2021-4294-bd30-e659b381e2c6","system_id":"levelo_inurba_marseille","lat":43.29316,"lon":5.37432,"is_reserved":false,"is_disabled":false,"rental_uris":{"android":"levelo://app?vid=ec11ae4d-2021-4294-bd30-e659b381e2c6","ios":"levelo://app?vid=ec11ae4d-2021-4294-bd30-e659b381e2c6"},"vehicle_type_id":"4","last_reported":1737205853,"current_range_meters":20400,"station_id":"ce4bgi12rcd13ifvqb70","pricing_plan_id":"cebpf4jnsgd1na2vs0mg"},{"bike_id":"f50acf71-2c71-425a-9d6e-b4c69fb6b254","system_id":"levelo_inurba_marseille","lat":43.30899,"lon":5.36865,"is_reserved":false,"is_disabled":false,"rental_uris":{"android":"levelo://app?vid=f50acf71-2c71-425a-9d6e-b4c69fb6b254","ios":"levelo://app?vid=f50acf71-2c71-425a-9d6e-b4c69fb6b254"},"vehicle_type_id":"4","last_reported":1737205853,"current_range_meters":34000,"station_id":"ce4bgn92rcd13ifvqbvg","pricing_plan_id":"cebpf4jnsgd1na2vs0mg"},{"bike_id":"76951e68-0ac4-4a3b-8e67-4dfdc5bda009","system_id":"levelo_inurba_marseille","lat":43.28617,"lon":5.35099,"is_reserved":false,"is_disabled":true,"rental_uris":{"android":"levelo://app?vid=76951e68-0ac4-4a3b-8e67-4dfdc5bda009","ios":"levelo://app?vid=76951e68-0ac4-4a3b-8e67-4dfdc5bda009"},"vehicle_type_id":"4","last_reported":1737205853,"current_range_meters":13600,"station_id":"ce4bhch2rcd13ifvqeug","pricing_plan_id":"cebpf4jnsgd1na2vs0mg"},{"bike_id":"f4a4a406-b0a5-42fc-9236-32e93ac6f6b2","system_id":"levelo_inurba_marseille","lat":43.23148,"lon":5.4371,"is_reserved":false,"is_disabled":true,"rental_uris":{"android":"levelo://app?vid=f4a4a406-b0a5-42fc-9236-32e93ac6f6b2","ios":"levelo://app?vid=f4a4a406-b0a5-42fc-9236-32e93ac6f6b2"},"vehicle_type_id":"4","last_reported":1737205853,"current_range_meters":29600,"station_id":"ce4bhmp2rcd13ifvqgog","pricing_plan_id":"cebpf4jnsgd1na2vs0mg"},{"bike_id":"dd8af31b-21b6-45e7-b915-5f0eb6f0377d","system_id":"levelo_inurba_marseille","lat":43.30562,"lon":5.384,"is_reserved":false,"is_disabled":false,"rental_uris":{"android":"levelo://app?vid=dd8af31b-21b6-45e7-b915-5f0eb6f0377d","ios":"levelo://app?vid=dd8af31b-21b6-45e7-b915-5f0eb6f0377d"},"vehicle_type_id":"4","last_reported":1737205853,"current_range_meters":38800,"station_id":"ce4bgg92rcd13ifvqb30","pricing_plan_id":"cebpf4jnsgd1na2vs0mg"},{"bike_id":"1f928bb1-63de-4ca7-9e8f-7b057b6e7f95","system_id":"levelo_inurba_marseille","lat":43.27209,"lon":5.39181,"is_reserved":false,"is_disabled":false,"rental_uris":{"android":"levelo://app?vid=1f928bb1-63de-4ca7-9e8f-7b057b6e7f95","ios":"levelo://app?vid=1f928bb1-63de-4ca7-9e8f-7b057b6e7f95"},"vehicle_type_id":"4","last_reported":1737205853,"current_range_meters":32000,"station_id":"ce4bhhp2rcd13ifvqfm0","pricing_plan_id":"cebpf4jnsgd1na2vs0mg"},{"bike_id":"8746e685-1bb6-4230-95fe-2c80d2550f5b","system_id":"levelo_inurba_marseille","lat":43.2721,"lon":5.39189,"is_reserved":false,"is_disabled":false,"rental_uris":{"android":"levelo://app?vid=8746e685-1bb6-4230-95fe-2c80d2550f5b","ios":"levelo://app?vid=8746e685-1bb6-4230-95fe-2c80d2550f5b"},"vehicle_type_id":"4","last_reported":1737205853,"current_range_meters":2800,"station_id":"ce4bhhp2rcd13ifvqfm0","pricing_plan_id":"cebpf4jnsgd1na2vs0mg"},{"bike_id":"278a6ac0-9a71-4f00-9126-5f5bf2a8c2cf","system_id":"levelo_inurba_marseille","lat":43.29611,"lon":5.3774,"is_reserved":false,"is_disabled":false,"rental_uris":{"android":"levelo://app?vid=278a6ac0-9a71-4f00-9126-5f5bf2a8c2cf","ios":"levelo://app?vid=278a6ac0-9a71-4f00-9126-5f5bf2a8c2cf"},"vehicle_type_id":"4","last_reported":1737205853,"current_range_meters":38800,"station_id":"ce4bgi92rcd13ifvqb90","pricing_plan_id":"cebpf4jnsgd1na2vs0mg"},{"bike_id":"897b5451-91a4-4507-b30e-ad2e4e884264","system_id":"levelo_inurba_marseille","lat":43.26684,"lon":5.38273,"is_reserved":false,"is_disabled":false,"rental_uris":{"android":"levelo://app?vid=897b5451-91a4-4507-b30e-ad2e4e884264","ios":"levelo://app?vid=897b5451-91a4-4507-b30e-ad2e4e884264"},"vehicle_type_id":"4","last_reported":1737205853,"current_range_meters":6400,"station_id":"ce4bhg92rcd13ifvqf90","pricing_plan_id":"cebpf4jnsgd1na2vs0mg"},{"bike_id":"67c549d5-ce81-408a-a146-d43915340e7f","system_id":"levelo_inurba_marseille","lat":43.33721,"lon":5.39182,"is_reserved":false,"is_disabled":false,"rental_uris":{"android":"levelo://app?vid=67c549d5-ce81-408a-a146-d43915340e7f","ios":"levelo://app?vid=67c549d5-ce81-408a-a146-d43915340e7f"},"vehicle_type_id":"4","last_reported":1737205853,"current_range_meters":38400,"station_id":"ce4bhr92rcd13ifvqhsg","pricing_plan_id":"cebpf4jnsgd1na2vs0mg"},{"bike_id":"b58dcef5-cab9-4732-933d-c18fb8a74b04","system_id":"levelo_inurba_marseille","lat":43.23145,"lon":5.43719,"is_reserved":false,"is_disabled":true,"rental_uris":{"android":"levelo://app?vid=b58dcef5-cab9-4732-933d-c18fb8a74b04","ios":"levelo://app?vid=b58dcef5-cab9-4732-933d-c18fb8a74b04"},"vehicle_type_id":"4","last_reported":1737205853,"current_range_meters":0,"station_id":"ce4bhmp2rcd13ifvqgog","pricing_plan_id":"cebpf4jnsgd1na2vs0mg"},{"bike_id":"b936ffa6-9085-46b5-a0df-a1a2f8dd85b8","system_id":"levelo_inurba_marseille","lat":43.250003,"lon":5.389392,"is_reserved":false,"is_disabled":false,"rental_uris":{"android":"levelo://app?vid=b936ffa6-9085-46b5-a0df-a1a2f8dd85b8","ios":"levelo://app?vid=b936ffa6-9085-46b5-a0df-a1a2f8dd85b8"},"vehicle_type_id":"4","last_reported":1737205853,"current_range_meters":38000,"station_id":"ce4bhgp2rcd13ifvqfd0","pricing_plan_id":"cebpf4jnsgd1na2vs0mg"},{"bike_id":"2b8e66f9-42fe-4fbb-8e79-d03f64ea7468","system_id":"levelo_inurba_marseille","lat":43.30538,"lon":5.36548,"is_reserved":false,"is_disabled":false,"rental_uris":{"android":"levelo://app?vid=2b8e66f9-42fe-4fbb-8e79-d03f64ea7468","ios":"levelo://app?vid=2b8e66f9-42fe-4fbb-8e79-d03f64ea7468"},"vehicle_type_id":"4","last_reported":1737205853,"current_range_meters":16000,"station_id":"ce4bgs12rcd13ifvqcag","pricing_plan_id":"cebpf4jnsgd1na2vs0mg"},{"bike_id":"6e5e7057-82d6-477f-835d-fbe2b18afc5e","system_id":"levelo_inurba_marseille","lat":43.30356,"lon":5.41883,"is_reserved":false,"is_disabled":false,"rental_uris":{"android":"levelo://app?vid=6e5e7057-82d6-477f-835d-fbe2b18afc5e","ios":"levelo://app?vid=6e5e7057-82d6-477f-835d-fbe2b18afc5e"},"vehicle_type_id":"4","last_reported":1737205853,"current_range_meters":36800,"station_id":"ce4bhop2rcd13ifvqh7g","pricing_plan_id":"cebpf4jnsgd1na2vs0mg"},{"bike_id":"5bf2320d-fb57-4289-8e32-2814f98fc0cf","system_id":"levelo_inurba_marseille","lat":43.30467,"lon":5.37914,"is_reserved":false,"is_disabled":false,"rental_uris":{"android":"levelo://app?vid=5bf2320d-fb57-4289-8e32-2814f98fc0cf","ios":"levelo://app?vid=5bf2320d-fb57-4289-8e32-2814f98fc0cf"},"vehicle_type_id":"4","last_reported":1737205853,"current_range_meters":4400,"station_id":"ce4bgup2rcd13ifvqcn0","pricing_plan_id":"cebpf4jnsgd1na2vs0mg"},{"bike_id":"cf98d7bc-88c9-4636-b93b-e0a2762b5583","system_id":"levelo_inurba_marseille","lat":43.29573,"lon":5.37511,"is_reserved":false,"is_disabled":false,"rental_uris":{"android":"levelo://app?vid=cf98d7bc-88c9-4636-b93b-e0a2762b5583","ios":"levelo://app?vid=cf98d7bc-88c9-4636-b93b-e0a2762b5583"},"vehicle_type_id":"4","last_reported":1737205853,"current_range_meters":30000,"station_id":"ce4bgh92rcd13ifvqb50","pricing_plan_id":"cebpf4jnsgd1na2vs0mg"},{"bike_id":"4e83e641-07e2-4608-8f02-8957658fd67f","system_id":"levelo_inurba_marseille","lat":43.32357,"lon":5.38881,"is_reserved":false,"is_disabled":false,"rental_uris":{"android":"levelo://app?vid=4e83e641-07e2-4608-8f02-8957658fd67f","ios":"levelo://app?vid=4e83e641-07e2-4608-8f02-8957658fd67f"},"vehicle_type_id":"4","last_reported":1737205853,"current_range_meters":17600,"station_id":"ce4bhqp2rcd13ifvqhog","pricing_plan_id":"cebpf4jnsgd1na2vs0mg"},{"bike_id":"37feb261-44b2-4b27-b3ae-078664007b08","system_id":"levelo_inurba_marseille","lat":43.324894,"lon":5.365667,"is_reserved":false,"is_disabled":false,"rental_uris":{"android":"levelo://app?vid=37feb261-44b2-4b27-b3ae-078664007b08","ios":"levelo://app?vid=37feb261-44b2-4b27-b3ae-078664007b08"},"vehicle_type_id":"4","last_reported":1737205853,"current_range_meters":6400,"station_id":"ce4bhs12rcd13ifvqhvg","pricing_plan_id":"cebpf4jnsgd1na2vs0mg"},{"bike_id":"ecd216b3-d748-4857-8a10-be6a68f6cfba","system_id":"levelo_inurba_marseille","lat":43.29008,"lon":5.35611,"is_reserved":false,"is_disabled":false,"rental_uris":{"android":"levelo://app?vid=ecd216b3-d748-4857-8a10-be6a68f6cfba","ios":"levelo://app?vid=ecd216b3-d748-4857-8a10-be6a68f6cfba"},"vehicle_type_id":"4","last_reported":1737205853,"current_range_meters":36000,"station_id":"ce4bhb92rcd13ifvqen0","pricing_plan_id":"cebpf4jnsgd1na2vs0mg"},{"bike_id":"2dea0b7e-5dd1-4c22-adc1-7788674bffbb","system_id":"levelo_inurba_marseille","lat":43.23194,"lon":5.35554,"is_reserved":false,"is_disabled":false,"rental_uris":{"android":"levelo://app?vid=2dea0b7e-5dd1-4c22-adc1-7788674bffbb","ios":"levelo://app?vid=2dea0b7e-5dd1-4c22-adc1-7788674bffbb"},"vehicle_type_id":"4","last_reported":1737205853,"current_range_meters":9600,"station_id":"ce4bhu92rcd13ifvqi70","pricing_plan_id":"cebpf4jnsgd1na2vs0mg"},{"bike_id":"56b8e9bc-f750-4815-bc98-9098414d16db","system_id":"levelo_inurba_marseille","lat":43.23201,"lon":5.3556,"is_reserved":false,"is_disabled":true,"rental_uris":{"android":"levelo://app?vid=56b8e9bc-f750-4815-bc98-9098414d16db","ios":"levelo://app?vid=56b8e9bc-f750-4815-bc98-9098414d16db"},"vehicle_type_id":"4","last_reported":1737205853,"current_range_meters":0,"station_id":"ce4bhu92rcd13ifvqi70","pricing_plan_id":"cebpf4jnsgd1na2vs0mg"},{"bike_id":"0e91b70c-1e42-4d65-a90a-72cbd40954b0","system_id":"levelo_inurba_marseille","lat":43.32363,"lon":5.36764,"is_reserved":false,"is_disabled":false,"rental_uris":{"android":"levelo://app?vid=0e91b70c-1e42-4d65-a90a-72cbd40954b0","ios":"levelo://app?vid=0e91b70c-1e42-4d65-a90a-72cbd40954b0"},"vehicle_type_id":"4","last_reported":1737205853,"current_range_meters":10800,"station_id":"ce4bhsh2rcd13ifvqi2g","pricing_plan_id":"cebpf4jnsgd1na2vs0mg"},{"bike_id":"5fb86e2a-f17f-4e92-a4a5-f9135659e774","system_id":"levelo_inurba_marseille","lat":43.29226,"lon":5.36058,"is_reserved":false,"is_disabled":false,"rental_uris":{"android":"levelo://app?vid=5fb86e2a-f17f-4e92-a4a5-f9135659e774","ios":"levelo://app?vid=5fb86e2a-f17f-4e92-a4a5-f9135659e774"},"vehicle_type_id":"4","last_reported":1737205853,"current_range_meters":21600,"station_id":"ce4bhbh2rcd13ifvqeqg","pricing_plan_id":"cebpf4jnsgd1na2vs0mg"},{"bike_id":"aa13ca21-ef33-41a6-ad42-91dade63743e","system_id":"levelo_inurba_marseille","lat":43.28349,"lon":5.38095,"is_reserved":false,"is_disabled":false,"rental_uris":{"android":"levelo://app?vid=aa13ca21-ef33-41a6-ad42-91dade63743e","ios":"levelo://app?vid=aa13ca21-ef33-41a6-ad42-91dade63743e"},"vehicle_type_id":"4","last_reported":1737205853,"current_range_meters":21600,"station_id":"ce4bh412rcd13ifvqdr0","pricing_plan_id":"cebpf4jnsgd1na2vs0mg"},{"bike_id":"3b395d7c-e93c-4001-880d-73684759e4ce","system_id":"levelo_inurba_marseille","lat":43.26956,"lon":5.3863,"is_reserved":false,"is_disabled":false,"rental_uris":{"android":"levelo://app?vid=3b395d7c-e93c-4001-880d-73684759e4ce","ios":"levelo://app?vid=3b395d7c-e93c-4001-880d-73684759e4ce"},"vehicle_type_id":"4","last_reported":1737205853,"current_range_meters":36800,"station_id":"ce4bhh92rcd13ifvqfh0","pricing_plan_id":"cebpf4jnsgd1na2vs0mg"},{"bike_id":"e5071bec-f78f-48d5-8f3d-b25e0575a71d","system_id":"levelo_inurba_marseille","lat":43.29186,"lon":5.35812,"is_reserved":false,"is_disabled":false,"rental_uris":{"android":"levelo://app?vid=e5071bec-f78f-48d5-8f3d-b25e0575a71d","ios":"levelo://app?vid=e5071bec-f78f-48d5-8f3d-b25e0575a71d"},"vehicle_type_id":"4","last_reported":1737205853,"current_range_meters":19200,"station_id":"ce4bhb12rcd13ifvqel0","pricing_plan_id":"cebpf4jnsgd1na2vs0mg"},{"bike_id":"1872c41d-2b26-4fa6-b496-932a9e0e9645","system_id":"levelo_inurba_marseille","lat":43.29731,"lon":5.37686,"is_reserved":false,"is_disabled":false,"rental_uris":{"android":"levelo://app?vid=1872c41d-2b26-4fa6-b496-932a9e0e9645","ios":"levelo://app?vid=1872c41d-2b26-4fa6-b496-932a9e0e9645"},"vehicle_type_id":"4","last_reported":1737205853,"current_range_meters":38800,"station_id":"ce4bgkh2rcd13ifvqbl0","pricing_plan_id":"cebpf4jnsgd1na2vs0mg"},{"bike_id":"22465212-93af-4e0b-b803-6ee82bba56d5","system_id":"levelo_inurba_marseille","lat":43.33759,"lon":5.3748,"is_reserved":false,"is_disabled":false,"rental_uris":{"android":"levelo://app?vid=22465212-93af-4e0b-b803-6ee82bba56d5","ios":"levelo://app?vid=22465212-93af-4e0b-b803-6ee82bba56d5"},"vehicle_type_id":"4","last_reported":1737205853,"current_range_meters":32800,"station_id":"","pricing_plan_id":"cebpf4jnsgd1na2vs0mg"},{"bike_id":"275aed3e-104b-4ec9-ace4-af91fc180de6","system_id":"levelo_inurba_marseille","lat":43.31088,"lon":5.42434,"is_reserved":false,"is_disabled":false,"rental_uris":{"android":"levelo://app?vid=275aed3e-104b-4ec9-ace4-af91fc180de6","ios":"levelo://app?vid=275aed3e-104b-4ec9-ace4-af91fc180de6"},"vehicle_type_id":"4","last_reported":1737205853,"current_range_meters":38000,"station_id":"ce4bhp92rcd13ifvqhag","pricing_plan_id":"cebpf4jnsgd1na2vs0mg"},{"bike_id":"730df4ba-4772-4a0e-9e4a-bb6bde6caaeb","system_id":"levelo_inurba_marseille","lat":43.301345,"lon":5.39883,"is_reserved":false,"is_disabled":true,"rental_uris":{"android":"levelo://app?vid=730df4ba-4772-4a0e-9e4a-bb6bde6caaeb","ios":"levelo://app?vid=730df4ba-4772-4a0e-9e4a-bb6bde6caaeb"},"vehicle_type_id":"4","last_reported":1737205853,"current_range_meters":35600,"station_id":"ce4bh0h2rcd13ifvqd40","pricing_plan_id":"cebpf4jnsgd1na2vs0mg"},{"bike_id":"2669dc48-d52c-4df4-a185-3258641e3a0a","system_id":"levelo_inurba_marseille","lat":43.27963,"lon":5.3872,"is_reserved":false,"is_disabled":true,"rental_uris":{"android":"levelo://app?vid=2669dc48-d52c-4df4-a185-3258641e3a0a","ios":"levelo://app?vid=2669dc48-d52c-4df4-a185-3258641e3a0a"},"vehicle_type_id":"4","last_reported":1737205853,"current_range_meters":0,"station_id":"ce4bhg12rcd13ifvqf80","pricing_plan_id":"cebpf4jnsgd1na2vs0mg"},{"bike_id":"8abb5a3b-38a6-42c5-a883-8793093e3dab","system_id":"levelo_inurba_marseille","lat":43.248047,"lon":5.374583,"is_reserved":false,"is_disabled":false,"rental_uris":{"android":"levelo://app?vid=8abb5a3b-38a6-42c5-a883-8793093e3dab","ios":"levelo://app?vid=8abb5a3b-38a6-42c5-a883-8793093e3dab"},"vehicle_type_id":"4","last_reported":1737205853,"current_range_meters":6800,"station_id":"ce4bhgh2rcd13ifvqfb0","pricing_plan_id":"cebpf4jnsgd1na2vs0mg"},{"bike_id":"492bb2a4-bb26-45e4-9edc-d3f9691e28d1","system_id":"levelo_inurba_marseille","lat":43.31756,"lon":5.39034,"is_reserved":false,"is_disabled":false,"rental_uris":{"android":"levelo://app?vid=492bb2a4-bb26-45e4-9edc-d3f9691e28d1","ios":"levelo://app?vid=492bb2a4-bb26-45e4-9edc-d3f9691e28d1"},"vehicle_type_id":"4","last_reported":1737205853,"current_range_meters":36800,"station_id":"ce4bhqp2rcd13ifvqhng","pricing_plan_id":"cebpf4jnsgd1na2vs0mg"},{"bike_id":"86b1129b-34c7-4cb1-acb7-46aa8942c62c","system_id":"levelo_inurba_marseille","lat":43.23156,"lon":5.43711,"is_reserved":false,"is_disabled":true,"rental_uris":{"android":"levelo://app?vid=86b1129b-34c7-4cb1-acb7-46aa8942c62c","ios":"levelo://app?vid=86b1129b-34c7-4cb1-acb7-46aa8942c62c"},"vehicle_type_id":"4","last_reported":1737205853,"current_range_meters":0,"station_id":"ce4bhmp2rcd13ifvqgog","pricing_plan_id":"cebpf4jnsgd1na2vs0mg"},{"bike_id":"8e58b092-ba8e-4f96-9901-b2504a890168","system_id":"levelo_inurba_marseille","lat":43.28616,"lon":5.35104,"is_reserved":false,"is_disabled":false,"rental_uris":{"android":"levelo://app?vid=8e58b092-ba8e-4f96-9901-b2504a890168","ios":"levelo://app?vid=8e58b092-ba8e-4f96-9901-b2504a890168"},"vehicle_type_id":"4","last_reported":1737205853,"current_range_meters":16000,"station_id":"ce4bhch2rcd13ifvqeug","pricing_plan_id":"cebpf4jnsgd1na2vs0mg"},{"bike_id":"a0cb0e47-f7f9-4145-8f68-7a3ff930764d","system_id":"levelo_inurba_marseille","lat":43.26948,"lon":5.38652,"is_reserved":false,"is_disabled":false,"rental_uris":{"android":"levelo://app?vid=a0cb0e47-f7f9-4145-8f68-7a3ff930764d","ios":"levelo://app?vid=a0cb0e47-f7f9-4145-8f68-7a3ff930764d"},"vehicle_type_id":"4","last_reported":1737205853,"current_range_meters":26000,"station_id":"ce4bhh92rcd13ifvqfh0","pricing_plan_id":"cebpf4jnsgd1na2vs0mg"},{"bike_id":"b663f53e-1e42-4f0c-a05f-fde242cb0184","system_id":"levelo_inurba_marseille","lat":43.28623,"lon":5.35097,"is_reserved":false,"is_disabled":false,"rental_uris":{"android":"levelo://app?vid=b663f53e-1e42-4f0c-a05f-fde242cb0184","ios":"levelo://app?vid=b663f53e-1e42-4f0c-a05f-fde242cb0184"},"vehicle_type_id":"4","last_reported":1737205853,"current_range_meters":25200,"station_id":"ce4bhch2rcd13ifvqeug","pricing_plan_id":"cebpf4jnsgd1na2vs0mg"},{"bike_id":"16f0074a-60b0-4cc9-b04b-6855b4ec88ee","system_id":"levelo_inurba_marseille","lat":43.30883,"lon":5.37191,"is_reserved":false,"is_disabled":false,"rental_uris":{"android":"levelo://app?vid=16f0074a-60b0-4cc9-b04b-6855b4ec88ee","ios":"levelo://app?vid=16f0074a-60b0-4cc9-b04b-6855b4ec88ee"},"vehicle_type_id":"4","last_reported":1737205853,"current_range_meters":22800,"station_id":"ce4bguh2rcd13ifvqckg","pricing_plan_id":"cebpf4jnsgd1na2vs0mg"},{"bike_id":"c6f874ed-7baa-4ffa-b8dc-93b47368c64c","system_id":"levelo_inurba_marseille","lat":43.27363,"lon":5.36238,"is_reserved":false,"is_disabled":false,"rental_uris":{"android":"levelo://app?vid=c6f874ed-7baa-4ffa-b8dc-93b47368c64c","ios":"levelo://app?vid=c6f874ed-7baa-4ffa-b8dc-93b47368c64c"},"vehicle_type_id":"4","last_reported":1737205853,"current_range_meters":38800,"station_id":"ce4bhbh2rcd13ifvqeo0","pricing_plan_id":"cebpf4jnsgd1na2vs0mg"},{"bike_id":"82eafdac-bd81-479d-a7b0-05db8ca76c26","system_id":"levelo_inurba_marseille","lat":43.25837,"lon":5.39439,"is_reserved":false,"is_disabled":true,"rental_uris":{"android":"levelo://app?vid=82eafdac-bd81-479d-a7b0-05db8ca76c26","ios":"levelo://app?vid=82eafdac-bd81-479d-a7b0-05db8ca76c26"},"vehicle_type_id":"4","last_reported":1737205853,"current_range_meters":0,"station_id":"ce4bhip2rcd13ifvqft0","pricing_plan_id":"cebpf4jnsgd1na2vs0mg"},{"bike_id":"77af8838-f478-444e-8e11-1d0135afb986","system_id":"levelo_inurba_marseille","lat":43.28463,"lon":5.35884,"is_reserved":false,"is_disabled":false,"rental_uris":{"android":"levelo://app?vid=77af8838-f478-444e-8e11-1d0135afb986","ios":"levelo://app?vid=77af8838-f478-444e-8e11-1d0135afb986"},"vehicle_type_id":"4","last_reported":1737205853,"current_range_meters":38000,"station_id":"ce4bhah2rcd13ifvqei0","pricing_plan_id":"cebpf4jnsgd1na2vs0mg"},{"bike_id":"5cf5f4cd-fea4-4d75-9a78-4d8e2b211145","system_id":"levelo_inurba_marseille","lat":43.26209,"lon":5.37444,"is_reserved":false,"is_disabled":false,"rental_uris":{"android":"levelo://app?vid=5cf5f4cd-fea4-4d75-9a78-4d8e2b211145","ios":"levelo://app?vid=5cf5f4cd-fea4-4d75-9a78-4d8e2b211145"},"vehicle_type_id":"4","last_reported":1737205853,"current_range_meters":25200,"station_id":"ce4bhgp2rcd13ifvqfc0","pricing_plan_id":"cebpf4jnsgd1na2vs0mg"},{"bike_id":"cf543ec1-44eb-49b4-81df-93a06fe81b97","system_id":"levelo_inurba_marseille","lat":43.30143,"lon":5.38765,"is_reserved":false,"is_disabled":false,"rental_uris":{"android":"levelo://app?vid=cf543ec1-44eb-49b4-81df-93a06fe81b97","ios":"levelo://app?vid=cf543ec1-44eb-49b4-81df-93a06fe81b97"},"vehicle_type_id":"4","last_reported":1737205853,"current_range_meters":18800,"station_id":"ce4bghh2rcd13ifvqb60","pricing_plan_id":"cebpf4jnsgd1na2vs0mg"},{"bike_id":"c5e9582c-f791-48cb-b29f-91f8675f074e","system_id":"levelo_inurba_marseille","lat":43.31998,"lon":5.38165,"is_reserved":false,"is_disabled":false,"rental_uris":{"android":"levelo://app?vid=c5e9582c-f791-48cb-b29f-91f8675f074e","ios":"levelo://app?vid=c5e9582c-f791-48cb-b29f-91f8675f074e"},"vehicle_type_id":"4","last_reported":1737205853,"current_range_meters":38800,"station_id":"ce4bhr12rcd13ifvqhpg","pricing_plan_id":"cebpf4jnsgd1na2vs0mg"},{"bike_id":"35deb437-7ef2-4ee7-9ea5-27ce0001ca7b","system_id":"levelo_inurba_marseille","lat":43.26069,"lon":5.39396,"is_reserved":false,"is_disabled":false,"rental_uris":{"android":"levelo://app?vid=35deb437-7ef2-4ee7-9ea5-27ce0001ca7b","ios":"levelo://app?vid=35deb437-7ef2-4ee7-9ea5-27ce0001ca7b"},"vehicle_type_id":"4","last_reported":1737205853,"current_range_meters":38000,"station_id":"ce4bhh92rcd13ifvqfj0","pricing_plan_id":"cebpf4jnsgd1na2vs0mg"},{"bike_id":"df2b2dfd-5e8b-42a6-bb0f-314e49585874","system_id":"levelo_inurba_marseille","lat":43.28318,"lon":5.37356,"is_reserved":false,"is_disabled":false,"rental_uris":{"android":"levelo://app?vid=df2b2dfd-5e8b-42a6-bb0f-314e49585874","ios":"levelo://app?vid=df2b2dfd-5e8b-42a6-bb0f-314e49585874"},"vehicle_type_id":"4","last_reported":1737205853,"current_range_meters":26000,"station_id":"ce4bh3p2rcd13ifvqdq0","pricing_plan_id":"cebpf4jnsgd1na2vs0mg"},{"bike_id":"f2390374-e060-4fe1-bcfa-cb2711193e58","system_id":"levelo_inurba_marseille","lat":43.25093,"lon":5.39519,"is_reserved":false,"is_disabled":false,"rental_uris":{"android":"levelo://app?vid=f2390374-e060-4fe1-bcfa-cb2711193e58","ios":"levelo://app?vid=f2390374-e060-4fe1-bcfa-cb2711193e58"},"vehicle_type_id":"4","last_reported":1737205853,"current_range_meters":10000,"station_id":"ce4bhm12rcd13ifvqgkg","pricing_plan_id":"cebpf4jnsgd1na2vs0mg"},{"bike_id":"8caece16-a274-4801-83ed-17227752ce06","system_id":"levelo_inurba_marseille","lat":43.23151,"lon":5.4373,"is_reserved":false,"is_disabled":false,"rental_uris":{"android":"levelo://app?vid=8caece16-a274-4801-83ed-17227752ce06","ios":"levelo://app?vid=8caece16-a274-4801-83ed-17227752ce06"},"vehicle_type_id":"4","last_reported":1737205853,"current_range_meters":16000,"station_id":"ce4bhmp2rcd13ifvqgog","pricing_plan_id":"cebpf4jnsgd1na2vs0mg"},{"bike_id":"5ef90ea5-ea27-4aa1-882a-23301d1e650d","system_id":"levelo_inurba_marseille","lat":43.28272,"lon":5.35071,"is_reserved":false,"is_disabled":false,"rental_uris":{"android":"levelo://app?vid=5ef90ea5-ea27-4aa1-882a-23301d1e650d","ios":"levelo://app?vid=5ef90ea5-ea27-4aa1-882a-23301d1e650d"},"vehicle_type_id":"4","last_reported":1737205853,"current_range_meters":39200,"station_id":"ce4bhbp2rcd13ifvqerg","pricing_plan_id":"cebpf4jnsgd1na2vs0mg"},{"bike_id":"0305f394-c880-4930-a94c-8281d7145570","system_id":"levelo_inurba_marseille","lat":43.27369,"lon":5.36253,"is_reserved":false,"is_disabled":false,"rental_uris":{"android":"levelo://app?vid=0305f394-c880-4930-a94c-8281d7145570","ios":"levelo://app?vid=0305f394-c880-4930-a94c-8281d7145570"},"vehicle_type_id":"4","last_reported":1737205853,"current_range_meters":22400,"station_id":"ce4bhbh2rcd13ifvqeo0","pricing_plan_id":"cebpf4jnsgd1na2vs0mg"},{"bike_id":"8626833d-4f50-47a8-9a52-5d912ba997ae","system_id":"levelo_inurba_marseille","lat":43.27371,"lon":5.36266,"is_reserved":false,"is_disabled":false,"rental_uris":{"android":"levelo://app?vid=8626833d-4f50-47a8-9a52-5d912ba997ae","ios":"levelo://app?vid=8626833d-4f50-47a8-9a52-5d912ba997ae"},"vehicle_type_id":"4","last_reported":1737205853,"current_range_meters":25600,"station_id":"ce4bhbh2rcd13ifvqeo0","pricing_plan_id":"cebpf4jnsgd1na2vs0mg"},{"bike_id":"aa46790d-0450-4918-bc1d-99d07bd2f297","system_id":"levelo_inurba_marseille","lat":43.27429,"lon":5.39422,"is_reserved":false,"is_disabled":false,"rental_uris":{"android":"levelo://app?vid=aa46790d-0450-4918-bc1d-99d07bd2f297","ios":"levelo://app?vid=aa46790d-0450-4918-bc1d-99d07bd2f297"},"vehicle_type_id":"4","last_reported":1737205853,"current_range_meters":35200,"station_id":"ce4bhdp2rcd13ifvqf20","pricing_plan_id":"cebpf4jnsgd1na2vs0mg"},{"bike_id":"c4ab3838-1d61-4e29-a39f-fbac00aa12d4","system_id":"levelo_inurba_marseille","lat":43.31112,"lon":5.36908,"is_reserved":false,"is_disabled":false,"rental_uris":{"android":"levelo://app?vid=c4ab3838-1d61-4e29-a39f-fbac00aa12d4","ios":"levelo://app?vid=c4ab3838-1d61-4e29-a39f-fbac00aa12d4"},"vehicle_type_id":"4","last_reported":1737205853,"current_range_meters":36800,"station_id":"","pricing_plan_id":"cebpf4jnsgd1na2vs0mg"},{"bike_id":"4697b5a1-a9b5-4890-8123-a290b2fc91c7","system_id":"levelo_inurba_marseille","lat":43.32474,"lon":5.36568,"is_reserved":false,"is_disabled":false,"rental_uris":{"android":"levelo://app?vid=4697b5a1-a9b5-4890-8123-a290b2fc91c7","ios":"levelo://app?vid=4697b5a1-a9b5-4890-8123-a290b2fc91c7"},"vehicle_type_id":"4","last_reported":1737205853,"current_range_meters":12800,"station_id":"ce4bhs12rcd13ifvqhvg","pricing_plan_id":"cebpf4jnsgd1na2vs0mg"},{"bike_id":"72ee9bfe-9639-4843-a6a4-d6b0950d8a1a","system_id":"levelo_inurba_marseille","lat":43.27906,"lon":5.37996,"is_reserved":false,"is_disabled":true,"rental_uris":{"android":"levelo://app?vid=72ee9bfe-9639-4843-a6a4-d6b0950d8a1a","ios":"levelo://app?vid=72ee9bfe-9639-4843-a6a4-d6b0950d8a1a"},"vehicle_type_id":"4","last_reported":1737205853,"current_range_meters":2000,"station_id":"ce4bhf92rcd13ifvqf50","pricing_plan_id":"cebpf4jnsgd1na2vs0mg"},{"bike_id":"a95248e8-7ba2-479e-9b5c-9fb4d8e98c2b","system_id":"levelo_inurba_marseille","lat":43.2809,"lon":5.42191,"is_reserved":false,"is_disabled":true,"rental_uris":{"android":"levelo://app?vid=a95248e8-7ba2-479e-9b5c-9fb4d8e98c2b","ios":"levelo://app?vid=a95248e8-7ba2-479e-9b5c-9fb4d8e98c2b"},"vehicle_type_id":"4","last_reported":1737205853,"current_range_meters":0,"station_id":"","pricing_plan_id":"cebpf4jnsgd1na2vs0mg"},{"bike_id":"246f2aa1-d855-40ee-b8e2-0e541013d632","system_id":"levelo_inurba_marseille","lat":43.2781,"lon":5.40692,"is_reserved":false,"is_disabled":true,"rental_uris":{"android":"levelo://app?vid=246f2aa1-d855-40ee-b8e2-0e541013d632","ios":"levelo://app?vid=246f2aa1-d855-40ee-b8e2-0e541013d632"},"vehicle_type_id":"4","last_reported":1737205853,"current_range_meters":800,"station_id":"ce4bhnh2rcd13ifvqgtg","pricing_plan_id":"cebpf4jnsgd1na2vs0mg"},{"bike_id":"99a6c1a0-67e9-4a5e-8c3b-5d12fae3dd76","system_id":"levelo_inurba_marseille","lat":43.29904,"lon":5.3748,"is_reserved":false,"is_disabled":false,"rental_uris":{"android":"levelo://app?vid=99a6c1a0-67e9-4a5e-8c3b-5d12fae3dd76","ios":"levelo://app?vid=99a6c1a0-67e9-4a5e-8c3b-5d12fae3dd76"},"vehicle_type_id":"4","last_reported":1737205853,"current_range_meters":10000,"station_id":"ce4bgjh2rcd13ifvqbg0","pricing_plan_id":"cebpf4jnsgd1na2vs0mg"},{"bike_id":"7e7dfa00-356f-4b05-bb9a-e18d6d238cce","system_id":"levelo_inurba_marseille","lat":43.29031,"lon":5.37567,"is_reserved":false,"is_disabled":false,"rental_uris":{"android":"levelo://app?vid=7e7dfa00-356f-4b05-bb9a-e18d6d238cce","ios":"levelo://app?vid=7e7dfa00-356f-4b05-bb9a-e18d6d238cce"},"vehicle_type_id":"4","last_reported":1737205853,"current_range_meters":19200,"station_id":"ce4bh692rcd13ifvqe90","pricing_plan_id":"cebpf4jnsgd1na2vs0mg"},{"bike_id":"1e2f115e-489f-4c45-b5ad-3280ad4c66fe","system_id":"levelo_inurba_marseille","lat":43.317058,"lon":5.437099,"is_reserved":false,"is_disabled":false,"rental_uris":{"android":"levelo://app?vid=1e2f115e-489f-4c45-b5ad-3280ad4c66fe","ios":"levelo://app?vid=1e2f115e-489f-4c45-b5ad-3280ad4c66fe"},"vehicle_type_id":"4","last_reported":1737205853,"current_range_meters":19600,"station_id":"ce4bhp92rcd13ifvqhcg","pricing_plan_id":"cebpf4jnsgd1na2vs0mg"},{"bike_id":"f8dfd5b4-e9f5-4ba9-b11a-c919bcb8f056","system_id":"levelo_inurba_marseille","lat":43.29372,"lon":5.37855,"is_reserved":false,"is_disabled":false,"rental_uris":{"android":"levelo://app?vid=f8dfd5b4-e9f5-4ba9-b11a-c919bcb8f056","ios":"levelo://app?vid=f8dfd5b4-e9f5-4ba9-b11a-c919bcb8f056"},"vehicle_type_id":"4","last_reported":1737205853,"current_range_meters":27200,"station_id":"ce4bgjh2rcd13ifvqbf0","pricing_plan_id":"cebpf4jnsgd1na2vs0mg"},{"bike_id":"7383474c-b45a-4438-837c-99d7ae866fe7","system_id":"levelo_inurba_marseille","lat":43.260678,"lon":5.393915,"is_reserved":false,"is_disabled":false,"rental_uris":{"android":"levelo://app?vid=7383474c-b45a-4438-837c-99d7ae866fe7","ios":"levelo://app?vid=7383474c-b45a-4438-837c-99d7ae866fe7"},"vehicle_type_id":"4","last_reported":1737205853,"current_range_meters":38000,"station_id":"ce4bhh92rcd13ifvqfj0","pricing_plan_id":"cebpf4jnsgd1na2vs0mg"},{"bike_id":"57ee26b8-38d7-4e6a-b76f-969492568a58","system_id":"levelo_inurba_marseille","lat":43.26943,"lon":5.4025,"is_reserved":false,"is_disabled":false,"rental_uris":{"android":"levelo://app?vid=57ee26b8-38d7-4e6a-b76f-969492568a58","ios":"levelo://app?vid=57ee26b8-38d7-4e6a-b76f-969492568a58"},"vehicle_type_id":"4","last_reported":1737205853,"current_range_meters":22400,"station_id":"cjm6bp8fraef2m0cb0m0","pricing_plan_id":"cebpf4jnsgd1na2vs0mg"},{"bike_id":"0ec45a9a-7197-48d7-aa43-dcad382dfff0","system_id":"levelo_inurba_marseille","lat":43.3054,"lon":5.36554,"is_reserved":false,"is_disabled":false,"rental_uris":{"android":"levelo://app?vid=0ec45a9a-7197-48d7-aa43-dcad382dfff0","ios":"levelo://app?vid=0ec45a9a-7197-48d7-aa43-dcad382dfff0"},"vehicle_type_id":"4","last_reported":1737205853,"current_range_meters":24400,"station_id":"ce4bgs12rcd13ifvqcag","pricing_plan_id":"cebpf4jnsgd1na2vs0mg"},{"bike_id":"9657151a-f0ed-4e70-a62b-590fe85280be","system_id":"levelo_inurba_marseille","lat":43.29387,"lon":5.3785,"is_reserved":false,"is_disabled":false,"rental_uris":{"android":"levelo://app?vid=9657151a-f0ed-4e70-a62b-590fe85280be","ios":"levelo://app?vid=9657151a-f0ed-4e70-a62b-590fe85280be"},"vehicle_type_id":"4","last_reported":1737205853,"current_range_meters":24400,"station_id":"ce4bgjh2rcd13ifvqbf0","pricing_plan_id":"cebpf4jnsgd1na2vs0mg"},{"bike_id":"0d5bf58b-8962-4322-87c4-754920ec04ac","system_id":"levelo_inurba_marseille","lat":43.31193,"lon":5.38701,"is_reserved":false,"is_disabled":true,"rental_uris":{"android":"levelo://app?vid=0d5bf58b-8962-4322-87c4-754920ec04ac","ios":"levelo://app?vid=0d5bf58b-8962-4322-87c4-754920ec04ac"},"vehicle_type_id":"4","last_reported":1737205853,"current_range_meters":36800,"station_id":"ce4bgv12rcd13ifvqcp0","pricing_plan_id":"cebpf4jnsgd1na2vs0mg"},{"bike_id":"44bccd7b-e954-4fef-a58a-1bfa0b432213","system_id":"levelo_inurba_marseille","lat":43.28295,"lon":5.35101,"is_reserved":false,"is_disabled":false,"rental_uris":{"android":"levelo://app?vid=44bccd7b-e954-4fef-a58a-1bfa0b432213","ios":"levelo://app?vid=44bccd7b-e954-4fef-a58a-1bfa0b432213"},"vehicle_type_id":"4","last_reported":1737205853,"current_range_meters":36400,"station_id":"ce4bhbp2rcd13ifvqerg","pricing_plan_id":"cebpf4jnsgd1na2vs0mg"},{"bike_id":"34f630ca-671b-439f-aff3-48503d8a59e8","system_id":"levelo_inurba_marseille","lat":43.30461,"lon":5.3791,"is_reserved":false,"is_disabled":false,"rental_uris":{"android":"levelo://app?vid=34f630ca-671b-439f-aff3-48503d8a59e8","ios":"levelo://app?vid=34f630ca-671b-439f-aff3-48503d8a59e8"},"vehicle_type_id":"4","last_reported":1737205853,"current_range_meters":4000,"station_id":"ce4bgup2rcd13ifvqcn0","pricing_plan_id":"cebpf4jnsgd1na2vs0mg"},{"bike_id":"286da564-29a9-4a39-b74b-8cebd3e436d4","system_id":"levelo_inurba_marseille","lat":43.27553,"lon":5.38433,"is_reserved":false,"is_disabled":false,"rental_uris":{"android":"levelo://app?vid=286da564-29a9-4a39-b74b-8cebd3e436d4","ios":"levelo://app?vid=286da564-29a9-4a39-b74b-8cebd3e436d4"},"vehicle_type_id":"4","last_reported":1737205853,"current_range_meters":27200,"station_id":"ce4bhh92rcd13ifvqfi0","pricing_plan_id":"cebpf4jnsgd1na2vs0mg"},{"bike_id":"94770b67-adeb-4227-a049-e190b2cc0f97","system_id":"levelo_inurba_marseille","lat":43.271995,"lon":5.391745,"is_reserved":false,"is_disabled":false,"rental_uris":{"android":"levelo://app?vid=94770b67-adeb-4227-a049-e190b2cc0f97","ios":"levelo://app?vid=94770b67-adeb-4227-a049-e190b2cc0f97"},"vehicle_type_id":"4","last_reported":1737205853,"current_range_meters":32000,"station_id":"ce4bhhp2rcd13ifvqfm0","pricing_plan_id":"cebpf4jnsgd1na2vs0mg"},{"bike_id":"fe90f7a6-3920-456a-9451-50d213b7000f","system_id":"levelo_inurba_marseille","lat":43.284774,"lon":5.384429,"is_reserved":false,"is_disabled":true,"rental_uris":{"android":"levelo://app?vid=fe90f7a6-3920-456a-9451-50d213b7000f","ios":"levelo://app?vid=fe90f7a6-3920-456a-9451-50d213b7000f"},"vehicle_type_id":"4","last_reported":1737205853,"current_range_meters":36800,"station_id":"ce4bh512rcd13ifvqe3g","pricing_plan_id":"cebpf4jnsgd1na2vs0mg"},{"bike_id":"3958b03d-b591-4d79-80a4-059614f22dc2","system_id":"levelo_inurba_marseille","lat":43.29898,"lon":5.43664,"is_reserved":false,"is_disabled":false,"rental_uris":{"android":"levelo://app?vid=3958b03d-b591-4d79-80a4-059614f22dc2","ios":"levelo://app?vid=3958b03d-b591-4d79-80a4-059614f22dc2"},"vehicle_type_id":"4","last_reported":1737205853,"current_range_meters":34800,"station_id":"ce4bhpp2rcd13ifvqhfg","pricing_plan_id":"cebpf4jnsgd1na2vs0mg"},{"bike_id":"d68d4c6c-ace6-47ca-a78f-51f9adc5b848","system_id":"levelo_inurba_marseille","lat":43.26239,"lon":5.40405,"is_reserved":false,"is_disabled":false,"rental_uris":{"android":"levelo://app?vid=d68d4c6c-ace6-47ca-a78f-51f9adc5b848","ios":"levelo://app?vid=d68d4c6c-ace6-47ca-a78f-51f9adc5b848"},"vehicle_type_id":"4","last_reported":1737205853,"current_range_meters":8800,"station_id":"","pricing_plan_id":"cebpf4jnsgd1na2vs0mg"},{"bike_id":"910d1690-8e74-46e9-a779-620892417947","system_id":"levelo_inurba_marseille","lat":43.27061,"lon":5.42287,"is_reserved":false,"is_disabled":false,"rental_uris":{"android":"levelo://app?vid=910d1690-8e74-46e9-a779-620892417947","ios":"levelo://app?vid=910d1690-8e74-46e9-a779-620892417947"},"vehicle_type_id":"4","last_reported":1737205853,"current_range_meters":38800,"station_id":"ce4bhk92rcd13ifvqgb0","pricing_plan_id":"cebpf4jnsgd1na2vs0mg"},{"bike_id":"30c55592-5c2d-4766-9ae9-6f1e5192194b","system_id":"levelo_inurba_marseille","lat":43.30785,"lon":5.3767,"is_reserved":false,"is_disabled":true,"rental_uris":{"android":"levelo://app?vid=30c55592-5c2d-4766-9ae9-6f1e5192194b","ios":"levelo://app?vid=30c55592-5c2d-4766-9ae9-6f1e5192194b"},"vehicle_type_id":"4","last_reported":1737205853,"current_range_meters":0,"station_id":"ce4bgv92rcd13ifvqcq0","pricing_plan_id":"cebpf4jnsgd1na2vs0mg"},{"bike_id":"58a7e2a5-74df-4f28-97c9-6dbcabf70f4b","system_id":"levelo_inurba_marseille","lat":43.27373,"lon":5.36249,"is_reserved":false,"is_disabled":false,"rental_uris":{"android":"levelo://app?vid=58a7e2a5-74df-4f28-97c9-6dbcabf70f4b","ios":"levelo://app?vid=58a7e2a5-74df-4f28-97c9-6dbcabf70f4b"},"vehicle_type_id":"4","last_reported":1737205853,"current_range_meters":37600,"station_id":"ce4bhbh2rcd13ifvqeo0","pricing_plan_id":"cebpf4jnsgd1na2vs0mg"},{"bike_id":"b205d6b8-894d-4fbe-b662-7e7cffdad903","system_id":"levelo_inurba_marseille","lat":43.30534,"lon":5.36523,"is_reserved":false,"is_disabled":false,"rental_uris":{"android":"levelo://app?vid=b205d6b8-894d-4fbe-b662-7e7cffdad903","ios":"levelo://app?vid=b205d6b8-894d-4fbe-b662-7e7cffdad903"},"vehicle_type_id":"4","last_reported":1737205853,"current_range_meters":38000,"station_id":"ce4bgs12rcd13ifvqcag","pricing_plan_id":"cebpf4jnsgd1na2vs0mg"},{"bike_id":"a9a0e60f-8e94-490a-988c-5a9cfc45d626","system_id":"levelo_inurba_marseille","lat":43.241651,"lon":5.363939,"is_reserved":false,"is_disabled":false,"rental_uris":{"android":"levelo://app?vid=a9a0e60f-8e94-490a-988c-5a9cfc45d626","ios":"levelo://app?vid=a9a0e60f-8e94-490a-988c-5a9cfc45d626"},"vehicle_type_id":"4","last_reported":1737205853,"current_range_meters":10800,"station_id":"cpo36qri1sfpv3e86is0","pricing_plan_id":"cebpf4jnsgd1na2vs0mg"},{"bike_id":"c08aa9a5-9070-4550-b495-b813c9c89de5","system_id":"levelo_inurba_marseille","lat":43.32289,"lon":5.38266,"is_reserved":false,"is_disabled":false,"rental_uris":{"android":"levelo://app?vid=c08aa9a5-9070-4550-b495-b813c9c89de5","ios":"levelo://app?vid=c08aa9a5-9070-4550-b495-b813c9c89de5"},"vehicle_type_id":"4","last_reported":1737205853,"current_range_meters":18800,"station_id":"ce4bhr12rcd13ifvqhqg","pricing_plan_id":"cebpf4jnsgd1na2vs0mg"},{"bike_id":"11cd2222-dd89-422a-913d-4cdc05e996df","system_id":"levelo_inurba_marseille","lat":43.29355,"lon":5.37844,"is_reserved":false,"is_disabled":false,"rental_uris":{"android":"levelo://app?vid=11cd2222-dd89-422a-913d-4cdc05e996df","ios":"levelo://app?vid=11cd2222-dd89-422a-913d-4cdc05e996df"},"vehicle_type_id":"4","last_reported":1737205853,"current_range_meters":39200,"station_id":"ce4bgjh2rcd13ifvqbf0","pricing_plan_id":"cebpf4jnsgd1na2vs0mg"},{"bike_id":"76dbf6ef-b4a8-4cef-8918-462b67116819","system_id":"levelo_inurba_marseille","lat":43.32282,"lon":5.38294,"is_reserved":false,"is_disabled":false,"rental_uris":{"android":"levelo://app?vid=76dbf6ef-b4a8-4cef-8918-462b67116819","ios":"levelo://app?vid=76dbf6ef-b4a8-4cef-8918-462b67116819"},"vehicle_type_id":"4","last_reported":1737205853,"current_range_meters":6400,"station_id":"ce4bhr12rcd13ifvqhqg","pricing_plan_id":"cebpf4jnsgd1na2vs0mg"},{"bike_id":"2a456570-dda5-4513-90d7-29300d60015b","system_id":"levelo_inurba_marseille","lat":43.27207,"lon":5.39182,"is_reserved":false,"is_disabled":false,"rental_uris":{"android":"levelo://app?vid=2a456570-dda5-4513-90d7-29300d60015b","ios":"levelo://app?vid=2a456570-dda5-4513-90d7-29300d60015b"},"vehicle_type_id":"4","last_reported":1737205853,"current_range_meters":30800,"station_id":"ce4bhhp2rcd13ifvqfm0","pricing_plan_id":"cebpf4jnsgd1na2vs0mg"},{"bike_id":"5f53307b-ee16-438d-a3a1-ae0d88beedb5","system_id":"levelo_inurba_marseille","lat":43.29573,"lon":5.39967,"is_reserved":false,"is_disabled":false,"rental_uris":{"android":"levelo://app?vid=5f53307b-ee16-438d-a3a1-ae0d88beedb5","ios":"levelo://app?vid=5f53307b-ee16-438d-a3a1-ae0d88beedb5"},"vehicle_type_id":"4","last_reported":1737205853,"current_range_meters":38000,"station_id":"ce4bh312rcd13ifvqdj0","pricing_plan_id":"cebpf4jnsgd1na2vs0mg"},{"bike_id":"95d5fca7-dfda-4bcf-a78d-e81265e6be5f","system_id":"levelo_inurba_marseille","lat":43.30903,"lon":5.36867,"is_reserved":false,"is_disabled":false,"rental_uris":{"android":"levelo://app?vid=95d5fca7-dfda-4bcf-a78d-e81265e6be5f","ios":"levelo://app?vid=95d5fca7-dfda-4bcf-a78d-e81265e6be5f"},"vehicle_type_id":"4","last_reported":1737205853,"current_range_meters":38400,"station_id":"ce4bgn92rcd13ifvqbvg","pricing_plan_id":"cebpf4jnsgd1na2vs0mg"},{"bike_id":"8aa0f02a-0eab-489f-9eb4-1ed50b410874","system_id":"levelo_inurba_marseille","lat":43.30946,"lon":5.39058,"is_reserved":false,"is_disabled":false,"rental_uris":{"android":"levelo://app?vid=8aa0f02a-0eab-489f-9eb4-1ed50b410874","ios":"levelo://app?vid=8aa0f02a-0eab-489f-9eb4-1ed50b410874"},"vehicle_type_id":"4","last_reported":1737205853,"current_range_meters":21600,"station_id":"ce4bgup2rcd13ifvqco0","pricing_plan_id":"cebpf4jnsgd1na2vs0mg"},{"bike_id":"aa32e303-3695-43a0-a50f-267e5dd388f6","system_id":"levelo_inurba_marseille","lat":43.30359,"lon":5.41875,"is_reserved":false,"is_disabled":false,"rental_uris":{"android":"levelo://app?vid=aa32e303-3695-43a0-a50f-267e5dd388f6","ios":"levelo://app?vid=aa32e303-3695-43a0-a50f-267e5dd388f6"},"vehicle_type_id":"4","last_reported":1737205853,"current_range_meters":14800,"station_id":"ce4bhop2rcd13ifvqh7g","pricing_plan_id":"cebpf4jnsgd1na2vs0mg"},{"bike_id":"c2b7dedd-bc2b-42ca-9b31-248473534d26","system_id":"levelo_inurba_marseille","lat":43.26955,"lon":5.3864,"is_reserved":false,"is_disabled":false,"rental_uris":{"android":"levelo://app?vid=c2b7dedd-bc2b-42ca-9b31-248473534d26","ios":"levelo://app?vid=c2b7dedd-bc2b-42ca-9b31-248473534d26"},"vehicle_type_id":"4","last_reported":1737205853,"current_range_meters":34800,"station_id":"ce4bhh92rcd13ifvqfh0","pricing_plan_id":"cebpf4jnsgd1na2vs0mg"},{"bike_id":"f5863b18-13a1-4c6e-92de-5668ea912ad3","system_id":"levelo_inurba_marseille","lat":43.26226,"lon":5.40446,"is_reserved":false,"is_disabled":true,"rental_uris":{"android":"levelo://app?vid=f5863b18-13a1-4c6e-92de-5668ea912ad3","ios":"levelo://app?vid=f5863b18-13a1-4c6e-92de-5668ea912ad3"},"vehicle_type_id":"4","last_reported":1737205853,"current_range_meters":0,"station_id":"","pricing_plan_id":"cebpf4jnsgd1na2vs0mg"},{"bike_id":"df39bcdc-6de6-4923-bf11-80f31ebfa2d0","system_id":"levelo_inurba_marseille","lat":43.29031,"lon":5.37573,"is_reserved":false,"is_disabled":false,"rental_uris":{"android":"levelo://app?vid=df39bcdc-6de6-4923-bf11-80f31ebfa2d0","ios":"levelo://app?vid=df39bcdc-6de6-4923-bf11-80f31ebfa2d0"},"vehicle_type_id":"4","last_reported":1737205853,"current_range_meters":30800,"station_id":"ce4bh692rcd13ifvqe90","pricing_plan_id":"cebpf4jnsgd1na2vs0mg"},{"bike_id":"88a76da0-7897-4660-ab0b-9b88fd3742fb","system_id":"levelo_inurba_marseille","lat":43.26495,"lon":5.39552,"is_reserved":false,"is_disabled":false,"rental_uris":{"android":"levelo://app?vid=88a76da0-7897-4660-ab0b-9b88fd3742fb","ios":"levelo://app?vid=88a76da0-7897-4660-ab0b-9b88fd3742fb"},"vehicle_type_id":"4","last_reported":1737205853,"current_range_meters":27200,"station_id":"ce4bhi12rcd13ifvqfq0","pricing_plan_id":"cebpf4jnsgd1na2vs0mg"},{"bike_id":"1666e036-c2b7-43c8-8189-305efbbd1a9a","system_id":"levelo_inurba_marseille","lat":43.25003,"lon":5.38942,"is_reserved":false,"is_disabled":false,"rental_uris":{"android":"levelo://app?vid=1666e036-c2b7-43c8-8189-305efbbd1a9a","ios":"levelo://app?vid=1666e036-c2b7-43c8-8189-305efbbd1a9a"},"vehicle_type_id":"4","last_reported":1737205853,"current_range_meters":24400,"station_id":"ce4bhgp2rcd13ifvqfd0","pricing_plan_id":"cebpf4jnsgd1na2vs0mg"},{"bike_id":"46686b70-f375-4947-b209-2f4548c2edcf","system_id":"levelo_inurba_marseille","lat":43.28889,"lon":5.39465,"is_reserved":false,"is_disabled":true,"rental_uris":{"android":"levelo://app?vid=46686b70-f375-4947-b209-2f4548c2edcf","ios":"levelo://app?vid=46686b70-f375-4947-b209-2f4548c2edcf"},"vehicle_type_id":"4","last_reported":1737205853,"current_range_meters":0,"station_id":"","pricing_plan_id":"cebpf4jnsgd1na2vs0mg"},{"bike_id":"b05ae610-20c1-45a1-b652-b1686c6a21ba","system_id":"levelo_inurba_marseille","lat":43.322915,"lon":5.382717,"is_reserved":false,"is_disabled":false,"rental_uris":{"android":"levelo://app?vid=b05ae610-20c1-45a1-b652-b1686c6a21ba","ios":"levelo://app?vid=b05ae610-20c1-45a1-b652-b1686c6a21ba"},"vehicle_type_id":"4","last_reported":1737205853,"current_range_meters":36000,"station_id":"ce4bhr12rcd13ifvqhqg","pricing_plan_id":"cebpf4jnsgd1na2vs0mg"},{"bike_id":"2b6cf3f8-20e0-4fa6-b4a9-93bea8949299","system_id":"levelo_inurba_marseille","lat":43.30134,"lon":5.38763,"is_reserved":false,"is_disabled":false,"rental_uris":{"android":"levelo://app?vid=2b6cf3f8-20e0-4fa6-b4a9-93bea8949299","ios":"levelo://app?vid=2b6cf3f8-20e0-4fa6-b4a9-93bea8949299"},"vehicle_type_id":"4","last_reported":1737205853,"current_range_meters":9600,"station_id":"ce4bhoh2rcd13ifvqh6g","pricing_plan_id":"cebpf4jnsgd1na2vs0mg"},{"bike_id":"982c5e56-6f26-48c1-aefd-d611c3ea6ec0","system_id":"levelo_inurba_marseille","lat":43.23149,"lon":5.4372,"is_reserved":false,"is_disabled":false,"rental_uris":{"android":"levelo://app?vid=982c5e56-6f26-48c1-aefd-d611c3ea6ec0","ios":"levelo://app?vid=982c5e56-6f26-48c1-aefd-d611c3ea6ec0"},"vehicle_type_id":"4","last_reported":1737205853,"current_range_meters":8800,"station_id":"ce4bhmp2rcd13ifvqgog","pricing_plan_id":"cebpf4jnsgd1na2vs0mg"},{"bike_id":"6e5ce8bc-0f63-4e4a-8f4b-3a83a897df0d","system_id":"levelo_inurba_marseille","lat":43.23152,"lon":5.43714,"is_reserved":false,"is_disabled":false,"rental_uris":{"android":"levelo://app?vid=6e5ce8bc-0f63-4e4a-8f4b-3a83a897df0d","ios":"levelo://app?vid=6e5ce8bc-0f63-4e4a-8f4b-3a83a897df0d"},"vehicle_type_id":"4","last_reported":1737205853,"current_range_meters":6000,"station_id":"ce4bhmp2rcd13ifvqgog","pricing_plan_id":"cebpf4jnsgd1na2vs0mg"},{"bike_id":"a502fac6-fc2c-47d3-b5a0-b0b0d12c1a71","system_id":"levelo_inurba_marseille","lat":43.30798,"lon":5.38173,"is_reserved":false,"is_disabled":true,"rental_uris":{"android":"levelo://app?vid=a502fac6-fc2c-47d3-b5a0-b0b0d12c1a71","ios":"levelo://app?vid=a502fac6-fc2c-47d3-b5a0-b0b0d12c1a71"},"vehicle_type_id":"4","last_reported":1737205853,"current_range_meters":6400,"station_id":"ce4bgt12rcd13ifvqce0","pricing_plan_id":"cebpf4jnsgd1na2vs0mg"},{"bike_id":"a93661f0-c7f9-47c4-aabc-bf1cd45422ea","system_id":"levelo_inurba_marseille","lat":43.27212,"lon":5.39189,"is_reserved":false,"is_disabled":false,"rental_uris":{"android":"levelo://app?vid=a93661f0-c7f9-47c4-aabc-bf1cd45422ea","ios":"levelo://app?vid=a93661f0-c7f9-47c4-aabc-bf1cd45422ea"},"vehicle_type_id":"4","last_reported":1737205853,"current_range_meters":38800,"station_id":"ce4bhhp2rcd13ifvqfm0","pricing_plan_id":"cebpf4jnsgd1na2vs0mg"},{"bike_id":"aee77450-e637-4195-bb0f-578307372c59","system_id":"levelo_inurba_marseille","lat":43.29895,"lon":5.43649,"is_reserved":false,"is_disabled":false,"rental_uris":{"android":"levelo://app?vid=aee77450-e637-4195-bb0f-578307372c59","ios":"levelo://app?vid=aee77450-e637-4195-bb0f-578307372c59"},"vehicle_type_id":"4","last_reported":1737205853,"current_range_meters":38000,"station_id":"ce4bhpp2rcd13ifvqhfg","pricing_plan_id":"cebpf4jnsgd1na2vs0mg"},{"bike_id":"6a0bd30f-92e9-4498-8e2c-7b6717170252","system_id":"levelo_inurba_marseille","lat":43.27211,"lon":5.39189,"is_reserved":false,"is_disabled":false,"rental_uris":{"android":"levelo://app?vid=6a0bd30f-92e9-4498-8e2c-7b6717170252","ios":"levelo://app?vid=6a0bd30f-92e9-4498-8e2c-7b6717170252"},"vehicle_type_id":"4","last_reported":1737205853,"current_range_meters":18000,"station_id":"ce4bhhp2rcd13ifvqfm0","pricing_plan_id":"cebpf4jnsgd1na2vs0mg"},{"bike_id":"38faa407-6403-4f33-bedc-7d91dfea4d6e","system_id":"levelo_inurba_marseille","lat":43.29515,"lon":5.37502,"is_reserved":false,"is_disabled":true,"rental_uris":{"android":"levelo://app?vid=38faa407-6403-4f33-bedc-7d91dfea4d6e","ios":"levelo://app?vid=38faa407-6403-4f33-bedc-7d91dfea4d6e"},"vehicle_type_id":"4","last_reported":1737205853,"current_range_meters":2000,"station_id":"ce4bgkp2rcd13ifvqbmg","pricing_plan_id":"cebpf4jnsgd1na2vs0mg"},{"bike_id":"6870a9e0-7988-452a-a0a6-84e136278682","system_id":"levelo_inurba_marseille","lat":43.26551,"lon":5.37291,"is_reserved":false,"is_disabled":false,"rental_uris":{"android":"levelo://app?vid=6870a9e0-7988-452a-a0a6-84e136278682","ios":"levelo://app?vid=6870a9e0-7988-452a-a0a6-84e136278682"},"vehicle_type_id":"4","last_reported":1737205853,"current_range_meters":37600,"station_id":"ce4bhg12rcd13ifvqf70","pricing_plan_id":"cebpf4jnsgd1na2vs0mg"},{"bike_id":"eca6b47e-66a5-44b3-b44c-80357e608f8d","system_id":"levelo_inurba_marseille","lat":43.31506,"lon":5.37312,"is_reserved":false,"is_disabled":false,"rental_uris":{"android":"levelo://app?vid=eca6b47e-66a5-44b3-b44c-80357e608f8d","ios":"levelo://app?vid=eca6b47e-66a5-44b3-b44c-80357e608f8d"},"vehicle_type_id":"4","last_reported":1737205853,"current_range_meters":34000,"station_id":"ce4bgt12rcd13ifvqcd0","pricing_plan_id":"cebpf4jnsgd1na2vs0mg"},{"bike_id":"f4b03e8f-370c-4696-bf18-15651a5ea3bf","system_id":"levelo_inurba_marseille","lat":43.257223,"lon":5.411122,"is_reserved":false,"is_disabled":false,"rental_uris":{"android":"levelo://app?vid=f4b03e8f-370c-4696-bf18-15651a5ea3bf","ios":"levelo://app?vid=f4b03e8f-370c-4696-bf18-15651a5ea3bf"},"vehicle_type_id":"4","last_reported":1737205853,"current_range_meters":36400,"station_id":"ce4bhkp2rcd13ifvqgd0","pricing_plan_id":"cebpf4jnsgd1na2vs0mg"},{"bike_id":"97b134fb-2916-4b92-9f87-d86c7c005145","system_id":"levelo_inurba_marseille","lat":43.28661,"lon":5.36355,"is_reserved":false,"is_disabled":false,"rental_uris":{"android":"levelo://app?vid=97b134fb-2916-4b92-9f87-d86c7c005145","ios":"levelo://app?vid=97b134fb-2916-4b92-9f87-d86c7c005145"},"vehicle_type_id":"4","last_reported":1737205853,"current_range_meters":39200,"station_id":"ce4bhah2rcd13ifvqej0","pricing_plan_id":"cebpf4jnsgd1na2vs0mg"},{"bike_id":"d1d630df-c8e5-4660-8552-fb3c8dba2c28","system_id":"levelo_inurba_marseille","lat":43.26556,"lon":5.37284,"is_reserved":false,"is_disabled":false,"rental_uris":{"android":"levelo://app?vid=d1d630df-c8e5-4660-8552-fb3c8dba2c28","ios":"levelo://app?vid=d1d630df-c8e5-4660-8552-fb3c8dba2c28"},"vehicle_type_id":"4","last_reported":1737205853,"current_range_meters":27200,"station_id":"ce4bhg12rcd13ifvqf70","pricing_plan_id":"cebpf4jnsgd1na2vs0mg"},{"bike_id":"a68d3354-0b81-4c38-a7c2-d4974f9ecd5e","system_id":"levelo_inurba_marseille","lat":43.28461,"lon":5.35889,"is_reserved":false,"is_disabled":false,"rental_uris":{"android":"levelo://app?vid=a68d3354-0b81-4c38-a7c2-d4974f9ecd5e","ios":"levelo://app?vid=a68d3354-0b81-4c38-a7c2-d4974f9ecd5e"},"vehicle_type_id":"4","last_reported":1737205853,"current_range_meters":24400,"station_id":"ce4bhah2rcd13ifvqei0","pricing_plan_id":"cebpf4jnsgd1na2vs0mg"},{"bike_id":"b2e3142b-3b1b-4d56-9872-73ee689f9ab7","system_id":"levelo_inurba_marseille","lat":43.2668,"lon":5.38268,"is_reserved":false,"is_disabled":false,"rental_uris":{"android":"levelo://app?vid=b2e3142b-3b1b-4d56-9872-73ee689f9ab7","ios":"levelo://app?vid=b2e3142b-3b1b-4d56-9872-73ee689f9ab7"},"vehicle_type_id":"4","last_reported":1737205853,"current_range_meters":32000,"station_id":"ce4bhg92rcd13ifvqf90","pricing_plan_id":"cebpf4jnsgd1na2vs0mg"},{"bike_id":"89e5abf9-db11-4176-8d87-4ded95733757","system_id":"levelo_inurba_marseille","lat":43.30483,"lon":5.37904,"is_reserved":false,"is_disabled":false,"rental_uris":{"android":"levelo://app?vid=89e5abf9-db11-4176-8d87-4ded95733757","ios":"levelo://app?vid=89e5abf9-db11-4176-8d87-4ded95733757"},"vehicle_type_id":"4","last_reported":1737205853,"current_range_meters":16000,"station_id":"ce4bgup2rcd13ifvqcn0","pricing_plan_id":"cebpf4jnsgd1na2vs0mg"},{"bike_id":"5bbc58ba-a206-496a-87c8-2cecc90ce11a","system_id":"levelo_inurba_marseille","lat":43.25081,"lon":5.39518,"is_reserved":false,"is_disabled":false,"rental_uris":{"android":"levelo://app?vid=5bbc58ba-a206-496a-87c8-2cecc90ce11a","ios":"levelo://app?vid=5bbc58ba-a206-496a-87c8-2cecc90ce11a"},"vehicle_type_id":"4","last_reported":1737205853,"current_range_meters":37600,"station_id":"ce4bhm12rcd13ifvqgkg","pricing_plan_id":"cebpf4jnsgd1na2vs0mg"},{"bike_id":"3846f4c1-ecec-4085-9e16-0b5f7b47a9f0","system_id":"levelo_inurba_marseille","lat":43.30047,"lon":5.3967,"is_reserved":false,"is_disabled":false,"rental_uris":{"android":"levelo://app?vid=3846f4c1-ecec-4085-9e16-0b5f7b47a9f0","ios":"levelo://app?vid=3846f4c1-ecec-4085-9e16-0b5f7b47a9f0"},"vehicle_type_id":"4","last_reported":1737205853,"current_range_meters":33200,"station_id":"ce4bh0h2rcd13ifvqd50","pricing_plan_id":"cebpf4jnsgd1na2vs0mg"},{"bike_id":"c73224c5-8662-473f-8844-f010af6d2952","system_id":"levelo_inurba_marseille","lat":43.27209,"lon":5.40977,"is_reserved":false,"is_disabled":true,"rental_uris":{"android":"levelo://app?vid=c73224c5-8662-473f-8844-f010af6d2952","ios":"levelo://app?vid=c73224c5-8662-473f-8844-f010af6d2952"},"vehicle_type_id":"4","last_reported":1737205853,"current_range_meters":24000,"station_id":"ce4bhl12rcd13ifvqgf0","pricing_plan_id":"cebpf4jnsgd1na2vs0mg"},{"bike_id":"95b517d0-9dcf-47f9-8053-773bec6e6a69","system_id":"levelo_inurba_marseille","lat":43.266843,"lon":5.395218,"is_reserved":false,"is_disabled":false,"rental_uris":{"android":"levelo://app?vid=95b517d0-9dcf-47f9-8053-773bec6e6a69","ios":"levelo://app?vid=95b517d0-9dcf-47f9-8053-773bec6e6a69"},"vehicle_type_id":"4","last_reported":1737205853,"current_range_meters":16800,"station_id":"","pricing_plan_id":"cebpf4jnsgd1na2vs0mg"},{"bike_id":"3538af8a-8ae6-4dc0-8a0b-71d76a7f4df8","system_id":"levelo_inurba_marseille","lat":43.23151,"lon":5.43711,"is_reserved":false,"is_disabled":false,"rental_uris":{"android":"levelo://app?vid=3538af8a-8ae6-4dc0-8a0b-71d76a7f4df8","ios":"levelo://app?vid=3538af8a-8ae6-4dc0-8a0b-71d76a7f4df8"},"vehicle_type_id":"4","last_reported":1737205853,"current_range_meters":20800,"station_id":"ce4bhmp2rcd13ifvqgog","pricing_plan_id":"cebpf4jnsgd1na2vs0mg"},{"bike_id":"aee46743-f0f7-4648-88e1-fa3d3a7aa9c0","system_id":"levelo_inurba_marseille","lat":43.2508,"lon":5.3952,"is_reserved":false,"is_disabled":false,"rental_uris":{"android":"levelo://app?vid=aee46743-f0f7-4648-88e1-fa3d3a7aa9c0","ios":"levelo://app?vid=aee46743-f0f7-4648-88e1-fa3d3a7aa9c0"},"vehicle_type_id":"4","last_reported":1737205853,"current_range_meters":24400,"station_id":"ce4bhm12rcd13ifvqgkg","pricing_plan_id":"cebpf4jnsgd1na2vs0mg"},{"bike_id":"426c6dbb-f325-4738-906d-29242f82afb0","system_id":"levelo_inurba_marseille","lat":43.3134,"lon":5.36697,"is_reserved":false,"is_disabled":false,"rental_uris":{"android":"levelo://app?vid=426c6dbb-f325-4738-906d-29242f82afb0","ios":"levelo://app?vid=426c6dbb-f325-4738-906d-29242f82afb0"},"vehicle_type_id":"4","last_reported":1737205853,"current_range_meters":4400,"station_id":"ce4bgr92rcd13ifvqc6g","pricing_plan_id":"cebpf4jnsgd1na2vs0mg"},{"bike_id":"702d477f-58b0-4e53-9e19-be7bbb68bee3","system_id":"levelo_inurba_marseille","lat":43.29477,"lon":5.38711,"is_reserved":false,"is_disabled":true,"rental_uris":{"android":"levelo://app?vid=702d477f-58b0-4e53-9e19-be7bbb68bee3","ios":"levelo://app?vid=702d477f-58b0-4e53-9e19-be7bbb68bee3"},"vehicle_type_id":"4","last_reported":1737205853,"current_range_meters":0,"station_id":"","pricing_plan_id":"cebpf4jnsgd1na2vs0mg"},{"bike_id":"527c23cf-e193-4b3b-b4e9-bc9d0d5bc833","system_id":"levelo_inurba_marseille","lat":43.27308,"lon":5.39104,"is_reserved":false,"is_disabled":false,"rental_uris":{"android":"levelo://app?vid=527c23cf-e193-4b3b-b4e9-bc9d0d5bc833","ios":"levelo://app?vid=527c23cf-e193-4b3b-b4e9-bc9d0d5bc833"},"vehicle_type_id":"4","last_reported":1737205853,"current_range_meters":10000,"station_id":"ce4bhgp2rcd13ifvqfe0","pricing_plan_id":"cebpf4jnsgd1na2vs0mg"},{"bike_id":"a74844a8-2476-4c7d-afaf-2327257fdd01","system_id":"levelo_inurba_marseille","lat":43.2319,"lon":5.40007,"is_reserved":false,"is_disabled":false,"rental_uris":{"android":"levelo://app?vid=a74844a8-2476-4c7d-afaf-2327257fdd01","ios":"levelo://app?vid=a74844a8-2476-4c7d-afaf-2327257fdd01"},"vehicle_type_id":"4","last_reported":1737205853,"current_range_meters":36400,"station_id":"ce4bhn12rcd13ifvqgqg","pricing_plan_id":"cebpf4jnsgd1na2vs0mg"},{"bike_id":"7465dfbc-5f37-485c-9d03-1b50d8a6270b","system_id":"levelo_inurba_marseille","lat":43.30548,"lon":5.36554,"is_reserved":false,"is_disabled":false,"rental_uris":{"android":"levelo://app?vid=7465dfbc-5f37-485c-9d03-1b50d8a6270b","ios":"levelo://app?vid=7465dfbc-5f37-485c-9d03-1b50d8a6270b"},"vehicle_type_id":"4","last_reported":1737205853,"current_range_meters":27200,"station_id":"ce4bgs12rcd13ifvqcag","pricing_plan_id":"cebpf4jnsgd1na2vs0mg"},{"bike_id":"47518f80-4779-432d-96f2-6fd1d45f818e","system_id":"levelo_inurba_marseille","lat":43.29369,"lon":5.37846,"is_reserved":false,"is_disabled":false,"rental_uris":{"android":"levelo://app?vid=47518f80-4779-432d-96f2-6fd1d45f818e","ios":"levelo://app?vid=47518f80-4779-432d-96f2-6fd1d45f818e"},"vehicle_type_id":"4","last_reported":1737205853,"current_range_meters":38800,"station_id":"ce4bgjh2rcd13ifvqbf0","pricing_plan_id":"cebpf4jnsgd1na2vs0mg"},{"bike_id":"ad196e54-cfe1-4f39-ad58-e7cdfa0873bc","system_id":"levelo_inurba_marseille","lat":43.29578,"lon":5.36738,"is_reserved":false,"is_disabled":false,"rental_uris":{"android":"levelo://app?vid=ad196e54-cfe1-4f39-ad58-e7cdfa0873bc","ios":"levelo://app?vid=ad196e54-cfe1-4f39-ad58-e7cdfa0873bc"},"vehicle_type_id":"4","last_reported":1737205853,"current_range_meters":22800,"station_id":"ce4bgph2rcd13ifvqc2g","pricing_plan_id":"cebpf4jnsgd1na2vs0mg"},{"bike_id":"08c38441-aeb4-40d9-94a4-35297458995e","system_id":"levelo_inurba_marseille","lat":43.2826,"lon":5.35079,"is_reserved":false,"is_disabled":false,"rental_uris":{"android":"levelo://app?vid=08c38441-aeb4-40d9-94a4-35297458995e","ios":"levelo://app?vid=08c38441-aeb4-40d9-94a4-35297458995e"},"vehicle_type_id":"4","last_reported":1737205853,"current_range_meters":38800,"station_id":"ce4bhbp2rcd13ifvqerg","pricing_plan_id":"cebpf4jnsgd1na2vs0mg"},{"bike_id":"9fe3c534-f2e8-4ab9-a1bb-92cf464bcc62","system_id":"levelo_inurba_marseille","lat":43.246451,"lon":5.388943,"is_reserved":false,"is_disabled":false,"rental_uris":{"android":"levelo://app?vid=9fe3c534-f2e8-4ab9-a1bb-92cf464bcc62","ios":"levelo://app?vid=9fe3c534-f2e8-4ab9-a1bb-92cf464bcc62"},"vehicle_type_id":"4","last_reported":1737205853,"current_range_meters":32800,"station_id":"ce4bhg12rcd13ifvqf60","pricing_plan_id":"cebpf4jnsgd1na2vs0mg"},{"bike_id":"da1902e5-b73b-408e-b76c-ba718488cefd","system_id":"levelo_inurba_marseille","lat":43.30518,"lon":5.36526,"is_reserved":false,"is_disabled":false,"rental_uris":{"android":"levelo://app?vid=da1902e5-b73b-408e-b76c-ba718488cefd","ios":"levelo://app?vid=da1902e5-b73b-408e-b76c-ba718488cefd"},"vehicle_type_id":"4","last_reported":1737205853,"current_range_meters":29600,"station_id":"","pricing_plan_id":"cebpf4jnsgd1na2vs0mg"},{"bike_id":"994036af-157a-4481-b51c-d39eb0fced08","system_id":"levelo_inurba_marseille","lat":43.31394,"lon":5.3669,"is_reserved":false,"is_disabled":false,"rental_uris":{"android":"levelo://app?vid=994036af-157a-4481-b51c-d39eb0fced08","ios":"levelo://app?vid=994036af-157a-4481-b51c-d39eb0fced08"},"vehicle_type_id":"4","last_reported":1737205853,"current_range_meters":9200,"station_id":"","pricing_plan_id":"cebpf4jnsgd1na2vs0mg"},{"bike_id":"68676ff0-1a05-48a8-8028-acb9858beb08","system_id":"levelo_inurba_marseille","lat":43.32114,"lon":5.3678,"is_reserved":false,"is_disabled":false,"rental_uris":{"android":"levelo://app?vid=68676ff0-1a05-48a8-8028-acb9858beb08","ios":"levelo://app?vid=68676ff0-1a05-48a8-8028-acb9858beb08"},"vehicle_type_id":"4","last_reported":1737205853,"current_range_meters":26000,"station_id":"ce4bhrh2rcd13ifvqhug","pricing_plan_id":"cebpf4jnsgd1na2vs0mg"},{"bike_id":"a0238efb-ba0a-49d1-9b38-db4e728d95b8","system_id":"levelo_inurba_marseille","lat":43.2923,"lon":5.36071,"is_reserved":false,"is_disabled":false,"rental_uris":{"android":"levelo://app?vid=a0238efb-ba0a-49d1-9b38-db4e728d95b8","ios":"levelo://app?vid=a0238efb-ba0a-49d1-9b38-db4e728d95b8"},"vehicle_type_id":"4","last_reported":1737205853,"current_range_meters":36400,"station_id":"ce4bhbh2rcd13ifvqeqg","pricing_plan_id":"cebpf4jnsgd1na2vs0mg"},{"bike_id":"2f9c1e26-d444-4f69-bb6a-b0b7dbe69217","system_id":"levelo_inurba_marseille","lat":43.29852,"lon":5.36285,"is_reserved":false,"is_disabled":false,"rental_uris":{"android":"levelo://app?vid=2f9c1e26-d444-4f69-bb6a-b0b7dbe69217","ios":"levelo://app?vid=2f9c1e26-d444-4f69-bb6a-b0b7dbe69217"},"vehicle_type_id":"4","last_reported":1737205853,"current_range_meters":19200,"station_id":"ce4bgpp2rcd13ifvqc3g","pricing_plan_id":"cebpf4jnsgd1na2vs0mg"},