{"last_updated":1750604942,"ttl":60,"version":"2.2","data":{"bikes":[{"bike_id":"3da29fb8-fc97-44c6-b9ac-31dd456b2fd4","system_id":"levelo_inurba_marseille","lat":43.33771,"lon":5.37424,"is_reserved":false,"is_disabled":true,"rental_uris":{"android":"levelo://app?vid=3da29fb8-fc97-44c6-b9ac-31dd456b2fd4","ios":"levelo://app?vid=3da29fb8-fc97-44c6-b9ac-31dd456b2fd4"},"vehicle_type_id":"4","last_reported":1750604942,"current_range_meters":0,"station_id":"","pricing_plan_id":"cebpf4jnsgd1na2vs0mg"},{"bike_id":"01861ad8-a8d7-4be6-816e-651927c87584","system_id":"levelo_inurba_marseille","lat":43.33751,"lon":5.37456,"is_reserved":false,"is_disabled":true,"rental_uris":{"android":"levelo://app?vid=01861ad8-a8d7-4be6-816e-651927c87584","ios":"levelo://app?vid=01861ad8-a8d7-4be6-816e-651927c87584"},"vehicle_type_id":"4","last_reported":1750604942,"current_range_meters":0,"station_id":"","pricing_plan_id":"cebpf4jnsgd1na2vs0mg"},{"bike_id":"8aac1d05-8d34-4cb9-9043-c80980ff219d","system_id":"levelo_inurba_marseille","lat":43.25201,"lon":5.41895,"is_reserved":false,"is_disabled":true,"rental_uris":{"android":"levelo://app?vid=8aac1d05-8d34-4cb9-9043-c80980ff219d","ios":"levelo://app?vid=8aac1d05-8d34-4cb9-9043-c80980ff219d"},"vehicle_type_id":"4","last_reported":1750604942,"current_range_meters":0,"station_id":"","pricing_plan_id":"cebpf4jnsgd1na2vs0mg"},{"bike_id":"f0a1d594-9817-42ab-a8d6-aea4947e8858","system_id":"levelo_inurba_marseille","lat":43.28807,"lon":5.43421,"is_reserved":false,"is_disabled":true,"rental_uris":{"android":"levelo://app?vid=f0a1d594-9817-42ab-a8d6-aea4947e8858","ios":"levelo://app?vid=f0a1d594-9817-42ab-a8d6-aea4947e8858"},"vehicle_type_id":"4","last_reported":1750604942,"current_range_meters":0,"station_id":"","pricing_plan_id":"cebpf4jnsgd1na2vs0mg"},{"bike_id":"62a493c7-4534-4419-ad43-0582de34a72a","system_id":"levelo_inurba_marseille","lat":43.21366,"lon":5.355183,"is_reserved":false,"is_disabled":true,"rental_uris":{"android":"levelo://app?vid=62a493c7-4534-4419-ad43-0582de34a72a","ios":"levelo://app?vid=62a493c7-4534-4419-ad43-0582de34a72a"},"vehicle_type_id":"4","last_reported":1750604942,"current_range_meters":0,"station_id":"","pricing_plan_id":"cebpf4jnsgd1na2vs0mg"},{"bike_id":"ffa6bd9a-2058-4b26-a35e-7647d43580d8","system_id":"levelo_inurba_marseille","lat":43.26415,"lon":5.37329,"is_reserved":false,"is_disabled":true,"rental_uris":{"android":"levelo://app?vid=ffa6bd9a-2058-4b26-a35e-7647d43580d8","ios":"levelo://app?vid=ffa6bd9a-2058-4b26-a35e-7647d43580d8"},"vehicle_type_id":"4","last_reported":1750604942,"current_range_meters":0,"station_id":"","pricing_plan_id":"cebpf4jnsgd1na2vs0mg"},{"bike_id":"3a3a1818-f20a-442b-bfcf-0e0a18008f43","system_id":"levelo_inurba_marseille","lat":43.26621,"lon":5.3747,"is_reserved":false,"is_disabled":true,"rental_uris":{"android":"levelo://app?vid=3a3a1818-f20a-442b-bfcf-0e0a18008f43","ios":"levelo://app?vid=3a3a1818-f20a-442b-bfcf-0e0a18008f43"},"vehicle_type_id":"4","last_reported":1750604942,"current_range_meters":0,"station_id":"","pricing_plan_id":"cebpf4jnsgd1na2vs0mg"},{"bike_id":"88393bee-2e8a-437d-b0b1-4aa69b0186dc","system_id":"levelo_inurba_marseille","lat":43.24773,"lon":5.40163,"is_reserved":false,"is_disabled":true,"rental_uris":{"android":"levelo://app?vid=88393bee-2e8a-437d-b0b1-4aa69b0186dc","ios":"levelo://app?vid=88393bee-2e8a-437d-b0b1-4aa69b0186dc"},"vehicle_type_id":"4","last_reported":1750604942,"current_range_meters":0,"station_id":"","pricing_plan_id":"cebpf4jnsgd1na2vs0mg"},{"bike_id":"d6609b4f-333b-43c1-9ebe-8726f5e76e88","system_id":"levelo_inurba_marseille","lat":43.337444,"lon":5.374475,"is_reserved":false,"is_disabled":true,"rental_uris":{"android":"levelo://app?vid=d6609b4f-333b-43c1-9ebe-8726f5e76e88","ios":"levelo://app?vid=d6609b4f-333b-43c1-9ebe-8726f5e76e88"},"vehicle_type_id":"4","last_reported":1750604942,"current_range_meters":0,"station_id":"","pricing_plan_id":"cebpf4jnsgd1na2vs0mg"},{"bike_id":"e8b2899a-4211-4f31-b803-6ec5b4d26202","system_id":"levelo_inurba_marseille","lat":43.27555,"lon":5.39718,"is_reserved":false,"is_disabled":true,"rental_uris":{"android":"levelo://app?vid=e8b2899a-4211-4f31-b803-6ec5b4d26202","ios":"levelo://app?vid=e8b2899a-4211-4f31-b803-6ec5b4d26202"},"vehicle_type_id":"4","last_reported":1750604942,"current_range_meters":0,"station_id":"","pricing_plan_id":"cebpf4jnsgd1na2vs0mg"},{"bike_id":"8559ab1e-0e5a-4428-a027-d5383a3be045","system_id":"levelo_inurba_marseille","lat":43.23091,"lon":5.4372,"is_reserved":false,"is_disabled":true,"rental_uris":{"android":"levelo://app?vid=8559ab1e-0e5a-4428-a027-d5383a3be045","ios":"levelo://app?vid=8559ab1e-0e5a-4428-a027-d5383a3be045"},"vehicle_type_id":"4","last_reported":1750604942,"current_range_meters":0,"station_id":"","pricing_plan_id":"cebpf4jnsgd1na2vs0mg"},{"bike_id":"a2d8a218-5e8c-42bc-bf37-717fb0cd1068","system_id":"levelo_inurba_marseille","lat":43.299933,"lon":5.374831,"is_reserved":false,"is_disabled":true,"rental_uris":{"android":"levelo://app?vid=a2d8a218-5e8c-42bc-bf37-717fb0cd1068","ios":"levelo://app?vid=a2d8a218-5e8c-42bc-bf37-717fb0cd1068"},"vehicle_type_id":"4","last_reported":1750604942,"current_range_meters":0,"station_id":"","pricing_plan_id":"cebpf4jnsgd1na2vs0mg"},{"bike_id":"0c86cdad-b64a-47bf-ba91-5b398064181c","system_id":"levelo_inurba_marseille","lat":43.3848,"lon":5.36063,"is_reserved":false,"is_disabled":true,"rental_uris":{"android":"levelo://app?vid=0c86cdad-b64a-47bf-ba91-5b398064181c","ios":"levelo://app?vid=0c86cdad-b64a-47bf-ba91-5b398064181c"},"vehicle_type_id":"4","last_reported":1750604942,"current_range_meters":0,"station_id":"","pricing_plan_id":"cebpf4jnsgd1na2vs0mg"},{"bike_id":"b0d9b383-7722-4a44-abc8-5f39e3eff8f6","system_id":"levelo_inurba_marseille","lat":43.2931,"lon":5.3718,"is_reserved":false,"is_disabled":true,"rental_uris":{"android":"levelo://app?vid=b0d9b383-7722-4a44-abc8-5f39e3eff8f6","ios":"levelo://app?vid=b0d9b383-7722-4a44-abc8-5f39e3eff8f6"},"vehicle_type_id":"4","last_reported":1750604942,"current_range_meters":0,"station_id":"ce4bgh92rcd13ifvqb40","pricing_plan_id":"cebpf4jnsgd1na2vs0mg"},{"bike_id":"1d638405-20ef-4b75-ad39-118bc55fa6ac","system_id":"levelo_inurba_marseille","lat":43.29965,"lon":5.38497,"is_reserved":false,"is_disabled":true,"rental_uris":{"android":"levelo://app?vid=1d638405-20ef-4b75-ad39-118bc55fa6ac","ios":"levelo://app?vid=1d638405-20ef-4b75-ad39-118bc55fa6ac"},"vehicle_type_id":"4","last_reported":1750604942,"current_range_meters":0,"station_id":"ce4bgj92rcd13ifvqbd0","pricing_plan_id":"cebpf4jnsgd1na2vs0mg"},{"bike_id":"470b38a9-759a-4699-a73d-b1851065ad45","system_id":"levelo_inurba_marseille","lat":43.29931,"lon":5.36564,"is_reserved":false,"is_disabled":true,"rental_uris":{"android":"levelo://app?vid=470b38a9-759a-4699-a73d-b1851065ad45","ios":"levelo://app?vid=470b38a9-759a-4699-a73d-b1851065ad45"},"vehicle_type_id":"4","last_reported":1750604942,"current_range_meters":0,"station_id":"ce4bgm92rcd13ifvqbr0","pricing_plan_id":"cebpf4jnsgd1na2vs0mg"},{"bike_id":"85668860-64fc-4d9a-a83e-efd7602c5eaa","system_id":"levelo_inurba_marseille","lat":43.30587,"lon":5.39347,"is_reserved":false,"is_disabled":true,"rental_uris":{"android":"levelo://app?vid=85668860-64fc-4d9a-a83e-efd7602c5eaa","ios":"levelo://app?vid=85668860-64fc-4d9a-a83e-efd7602c5eaa"},"vehicle_type_id":"4","last_reported":1750604942,"current_range_meters":0,"station_id":"ce4bh0p2rcd13ifvqd80","pricing_plan_id":"cebpf4jnsgd1na2vs0mg"},{"bike_id":"9ea2afbb-5234-4cd9-95d8-01bd0598402f","system_id":"levelo_inurba_marseille","lat":43.29035,"lon":5.39969,"is_reserved":false,"is_disabled":true,"rental_uris":{"android":"levelo://app?vid=9ea2afbb-5234-4cd9-95d8-01bd0598402f","ios":"levelo://app?vid=9ea2afbb-5234-4cd9-95d8-01bd0598402f"},"vehicle_type_id":"4","last_reported":1750604942,"current_range_meters":0,"station_id":"ce4bh392rcd13ifvqdm0","pricing_plan_id":"cebpf4jnsgd1na2vs0mg"},{"bike_id":"327f238f-9f72-4acc-b02c-688c59616a8d","system_id":"levelo_inurba_marseille","lat":43.28722,"lon":5.37374,"is_reserved":false,"is_disabled":true,"rental_uris":{"android":"levelo://app?vid=327f238f-9f72-4acc-b02c-688c59616a8d","ios":"levelo://app?vid=327f238f-9f72-4acc-b02c-688c59616a8d"},"vehicle_type_id":"4","last_reported":1750604942,"current_range_meters":0,"station_id":"ce4bh3p2rcd13ifvqdq0","pricing_plan_id":"cebpf4jnsgd1na2vs0mg"},{"bike_id":"f45f3b4c-ba5a-4901-aec5-291018d64bb5","system_id":"levelo_inurba_marseille","lat":43.29024,"lon":5.38131,"is_reserved":false,"is_disabled":true,"rental_uris":{"android":"levelo://app?vid=f45f3b4c-ba5a-4901-aec5-291018d64bb5","ios":"levelo://app?vid=f45f3b4c-ba5a-4901-aec5-291018d64bb5"},"vehicle_type_id":"4","last_reported":1750604942,"current_range_meters":0,"station_id":"ce4bh4p2rcd13ifvqe1g","pricing_plan_id":"cebpf4jnsgd1na2vs0mg"},{"bike_id":"5c9a4f74-3b51-4fb0-8ac9-19c8d4ab1e04","system_id":"levelo_inurba_marseille","lat":43.27378,"lon":5.36251,"is_reserved":false,"is_disabled":true,"rental_uris":{"android":"levelo://app?vid=5c9a4f74-3b51-4fb0-8ac9-19c8d4ab1e04","ios":"levelo://app?vid=5c9a4f74-3b51-4fb0-8ac9-19c8d4ab1e04"},"vehicle_type_id":"4","last_reported":1750604942,"current_range_meters":0,"station_id":"ce4bhbh2rcd13ifvqeo0","pricing_plan_id":"cebpf4jnsgd1na2vs0mg"},{"bike_id":"b52e22c3-d6b7-4b07-b0ad-96a85e6d1dee","system_id":"levelo_inurba_marseille","lat":43.273811,"lon":5.362548,"is_reserved":false,"is_disabled":true,"rental_uris":{"android":"levelo://app?vid=b52e22c3-d6b7-4b07-b0ad-96a85e6d1dee","ios":"levelo://app?vid=b52e22c3-d6b7-4b07-b0ad-96a85e6d1dee"},"vehicle_type_id":"4","last_reported":1750604942,"current_range_meters":0,"station_id":"ce4bhbh2rcd13ifvqeo0","pricing_plan_id":"cebpf4jnsgd1na2vs0mg"},{"bike_id":"c7f3b661-64f8-4c40-8ac0-9ed18daaad97","system_id":"levelo_inurba_marseille","lat":43.28264,"lon":5.35077,"is_reserved":false,"is_disabled":true,"rental_uris":{"android":"levelo://app?vid=c7f3b661-64f8-4c40-8ac0-9ed18daaad97","ios":"levelo://app?vid=c7f3b661-64f8-4c40-8ac0-9ed18daaad97"},"vehicle_type_id":"4","last_reported":1750604942,"current_range_meters":0,"station_id":"ce4bhbp2rcd13ifvqerg","pricing_plan_id":"cebpf4jnsgd1na2vs0mg"},{"bike_id":"2b08da1e-24ea-442f-903c-68462361ef67","system_id":"levelo_inurba_marseille","lat":43.28264,"lon":5.35071,"is_reserved":false,"is_disabled":true,"rental_uris":{"android":"levelo://app?vid=2b08da1e-24ea-442f-903c-68462361ef67","ios":"levelo://app?vid=2b08da1e-24ea-442f-903c-68462361ef67"},"vehicle_type_id":"4","last_reported":1750604942,"current_range_meters":0,"station_id":"ce4bhbp2rcd13ifvqerg","pricing_plan_id":"cebpf4jnsgd1na2vs0mg"},{"bike_id":"8dc7163f-6f32-4aa2-ad00-705d87ade47c","system_id":"levelo_inurba_marseille","lat":43.2656,"lon":5.37281,"is_reserved":false,"is_disabled":true,"rental_uris":{"android":"levelo://app?vid=8dc7163f-6f32-4aa2-ad00-705d87ade47c","ios":"levelo://app?vid=8dc7163f-6f32-4aa2-ad00-705d87ade47c"},"vehicle_type_id":"4","last_reported":1750604942,"current_range_meters":0,"station_id":"ce4bhg12rcd13ifvqf70","pricing_plan_id":"cebpf4jnsgd1na2vs0mg"},{"bike_id":"0bc8d7a4-0457-4813-be01-54713b07449d","system_id":"levelo_inurba_marseille","lat":43.26568,"lon":5.37281,"is_reserved":false,"is_disabled":true,"rental_uris":{"android":"levelo://app?vid=0bc8d7a4-0457-4813-be01-54713b07449d","ios":"levelo://app?vid=0bc8d7a4-0457-4813-be01-54713b07449d"},"vehicle_type_id":"4","last_reported":1750604942,"current_range_meters":0,"station_id":"ce4bhg12rcd13ifvqf70","pricing_plan_id":"cebpf4jnsgd1na2vs0mg"},{"bike_id":"281791fd-a732-4c53-b97c-c4b3a61a45c4","system_id":"levelo_inurba_marseille","lat":43.23151,"lon":5.43718,"is_reserved":false,"is_disabled":true,"rental_uris":{"android":"levelo://app?vid=281791fd-a732-4c53-b97c-c4b3a61a45c4","ios":"levelo://app?vid=281791fd-a732-4c53-b97c-c4b3a61a45c4"},"vehicle_type_id":"4","last_reported":1750604942,"current_range_meters":0,"station_id":"ce4bhmp2rcd13ifvqgog","pricing_plan_id":"cebpf4jnsgd1na2vs0mg"},{"bike_id":"76b7e298-916d-4901-800b-923963bb2a2b","system_id":"levelo_inurba_marseille","lat":43.2794,"lon":5.41049,"is_reserved":false,"is_disabled":true,"rental_uris":{"android":"levelo://app?vid=76b7e298-916d-4901-800b-923963bb2a2b","ios":"levelo://app?vid=76b7e298-916d-4901-800b-923963bb2a2b"},"vehicle_type_id":"4","last_reported":1750604942,"current_range_meters":0,"station_id":"ce4bhnp2rcd13ifvqh0g","pricing_plan_id":"cebpf4jnsgd1na2vs0mg"},{"bike_id":"3db268bb-355a-499e-8044-38eedfe84d15","system_id":"levelo_inurba_marseille","lat":43.2956,"lon":5.42275,"is_reserved":false,"is_disabled":true,"rental_uris":{"android":"levelo://app?vid=3db268bb-355a-499e-8044-38eedfe84d15","ios":"levelo://app?vid=3db268bb-355a-499e-8044-38eedfe84d15"},"vehicle_type_id":"4","last_reported":1750604942,"current_range_meters":0,"station_id":"ce4bhph2rcd13ifvqhdg","pricing_plan_id":"cebpf4jnsgd1na2vs0mg"},{"bike_id":"b35db14a-9b66-4d99-9233-b3621bb980f4","system_id":"levelo_inurba_marseille","lat":43.30733,"lon":5.42461,"is_reserved":false,"is_disabled":true,"rental_uris":{"android":"levelo://app?vid=b35db14a-9b66-4d99-9233-b3621bb980f4","ios":"levelo://app?vid=b35db14a-9b66-4d99-9233-b3621bb980f4"},"vehicle_type_id":"4","last_reported":1750604942,"current_range_meters":0,"station_id":"st_cvj6ca6bvosntc0bfgr0","pricing_plan_id":"cebpf4jnsgd1na2vs0mg"},{"bike_id":"31add964-8ccf-4281-8e49-509506e69c20","system_id":"levelo_inurba_marseille","lat":43.29567,"lon":5.37499,"is_reserved":false,"is_disabled":true,"rental_uris":{"android":"levelo://app?vid=31add964-8ccf-4281-8e49-509506e69c20","ios":"levelo://app?vid=31add964-8ccf-4281-8e49-509506e69c20"},"vehicle_type_id":"4","last_reported":1750604942,"current_range_meters":400,"station_id":"ce4bgh92rcd13ifvqb50","pricing_plan_id":"cebpf4jnsgd1na2vs0mg"},{"bike_id":"64ef1b9c-d7cf-4cd0-a124-2ff5baf228af","system_id":"levelo_inurba_marseille","lat":43.28412,"lon":5.34994,"is_reserved":false,"is_disabled":true,"rental_uris":{"android":"levelo://app?vid=64ef1b9c-d7cf-4cd0-a124-2ff5baf228af","ios":"levelo://app?vid=64ef1b9c-d7cf-4cd0-a124-2ff5baf228af"},"vehicle_type_id":"4","last_reported":1750604942,"current_range_meters":400,"station_id":"ce4bhbh2rcd13ifvqepg","pricing_plan_id":"cebpf4jnsgd1na2vs0mg"},{"bike_id":"0881af93-8cb5-43ac-b9f7-bac827bb3977","system_id":"levelo_inurba_marseille","lat":43.28277,"lon":5.35082,"is_reserved":false,"is_disabled":true,"rental_uris":{"android":"levelo://app?vid=0881af93-8cb5-43ac-b9f7-bac827bb3977","ios":"levelo://app?vid=0881af93-8cb5-43ac-b9f7-bac827bb3977"},"vehicle_type_id":"4","last_reported":1750604942,"current_range_meters":400,"station_id":"ce4bhbp2rcd13ifvqerg","pricing_plan_id":"cebpf4jnsgd1na2vs0mg"},{"bike_id":"4621c84c-311c-49bd-9483-d6dbfbf2ffc6","system_id":"levelo_inurba_marseille","lat":43.26563,"lon":5.39015,"is_reserved":false,"is_disabled":true,"rental_uris":{"android":"levelo://app?vid=4621c84c-311c-49bd-9483-d6dbfbf2ffc6","ios":"levelo://app?vid=4621c84c-311c-49bd-9483-d6dbfbf2ffc6"},"vehicle_type_id":"4","last_reported":1750604942,"current_range_meters":400,"station_id":"ce4bhe12rcd13ifvqf30","pricing_plan_id":"cebpf4jnsgd1na2vs0mg"},{"bike_id":"1f593914-0fc1-41f1-9406-860a6026347f","system_id":"levelo_inurba_marseille","lat":43.2603,"lon":5.37546,"is_reserved":false,"is_disabled":true,"rental_uris":{"android":"levelo://app?vid=1f593914-0fc1-41f1-9406-860a6026347f","ios":"levelo://app?vid=1f593914-0fc1-41f1-9406-860a6026347f"},"vehicle_type_id":"4","last_reported":1750604942,"current_range_meters":400,"station_id":"ce4bhgh2rcd13ifvqfa0","pricing_plan_id":"cebpf4jnsgd1na2vs0mg"},{"bike_id":"c2be3d19-7cf6-4fee-ac38-0f67e18e4176","system_id":"levelo_inurba_marseille","lat":43.26189,"lon":5.37449,"is_reserved":false,"is_disabled":true,"rental_uris":{"android":"levelo://app?vid=c2be3d19-7cf6-4fee-ac38-0f67e18e4176","ios":"levelo://app?vid=c2be3d19-7cf6-4fee-ac38-0f67e18e4176"},"vehicle_type_id":"4","last_reported":1750604942,"current_range_meters":400,"station_id":"ce4bhgp2rcd13ifvqfc0","pricing_plan_id":"cebpf4jnsgd1na2vs0mg"},{"bike_id":"31d1b9dc-b106-4067-8140-faa8c1a15d15","system_id":"levelo_inurba_marseille","lat":43.27664,"lon":5.38876,"is_reserved":false,"is_disabled":true,"rental_uris":{"android":"levelo://app?vid=31d1b9dc-b106-4067-8140-faa8c1a15d15","ios":"levelo://app?vid=31d1b9dc-b106-4067-8140-faa8c1a15d15"},"vehicle_type_id":"4","last_reported":1750604942,"current_range_meters":400,"station_id":"ce4bhi12rcd13ifvqfo0","pricing_plan_id":"cebpf4jnsgd1na2vs0mg"},{"bike_id":"7158d030-f584-4678-ba37-db635a6c95d4","system_id":"levelo_inurba_marseille","lat":43.24543,"lon":5.39522,"is_reserved":false,"is_disabled":true,"rental_uris":{"android":"levelo://app?vid=7158d030-f584-4678-ba37-db635a6c95d4","ios":"levelo://app?vid=7158d030-f584-4678-ba37-db635a6c95d4"},"vehicle_type_id":"4","last_reported":1750604942,"current_range_meters":400,"station_id":"ce4bhlp2rcd13ifvqgjg","pricing_plan_id":"cebpf4jnsgd1na2vs0mg"},{"bike_id":"41f45505-b45c-47bf-95c5-f5bf4ac44e60","system_id":"levelo_inurba_marseille","lat":43.31684,"lon":5.40475,"is_reserved":false,"is_disabled":true,"rental_uris":{"android":"levelo://app?vid=41f45505-b45c-47bf-95c5-f5bf4ac44e60","ios":"levelo://app?vid=41f45505-b45c-47bf-95c5-f5bf4ac44e60"},"vehicle_type_id":"4","last_reported":1750604942,"current_range_meters":800,"station_id":"ce4bh012rcd13ifvqd00","pricing_plan_id":"cebpf4jnsgd1na2vs0mg"},{"bike_id":"7d504543-679a-412b-87e7-e571727d3259","system_id":"levelo_inurba_marseille","lat":43.29191,"lon":5.35805,"is_reserved":false,"is_disabled":true,"rental_uris":{"android":"levelo://app?vid=7d504543-679a-412b-87e7-e571727d3259","ios":"levelo://app?vid=7d504543-679a-412b-87e7-e571727d3259"},"vehicle_type_id":"4","last_reported":1750604942,"current_range_meters":800,"station_id":"ce4bhb12rcd13ifvqel0","pricing_plan_id":"cebpf4jnsgd1na2vs0mg"},{"bike_id":"5da8c1f0-d501-4638-b076-5bdb46d763ae","system_id":"levelo_inurba_marseille","lat":43.27369,"lon":5.36259,"is_reserved":false,"is_disabled":true,"rental_uris":{"android":"levelo://app?vid=5da8c1f0-d501-4638-b076-5bdb46d763ae","ios":"levelo://app?vid=5da8c1f0-d501-4638-b076-5bdb46d763ae"},"vehicle_type_id":"4","last_reported":1750604942,"current_range_meters":800,"station_id":"ce4bhbh2rcd13ifvqeo0","pricing_plan_id":"cebpf4jnsgd1na2vs0mg"},{"bike_id":"cf39b35f-98ce-4c26-a915-c4a91ce7363e","system_id":"levelo_inurba_marseille","lat":43.28421,"lon":5.34974,"is_reserved":false,"is_disabled":true,"rental_uris":{"android":"levelo://app?vid=cf39b35f-98ce-4c26-a915-c4a91ce7363e","ios":"levelo://app?vid=cf39b35f-98ce-4c26-a915-c4a91ce7363e"},"vehicle_type_id":"4","last_reported":1750604942,"current_range_meters":1200,"station_id":"ce4bhbh2rcd13ifvqepg","pricing_plan_id":"cebpf4jnsgd1na2vs0mg"},{"bike_id":"cebb894f-f672-428d-a694-99032846c02c","system_id":"levelo_inurba_marseille","lat":43.28269,"lon":5.35076,"is_reserved":false,"is_disabled":true,"rental_uris":{"android":"levelo://app?vid=cebb894f-f672-428d-a694-99032846c02c","ios":"levelo://app?vid=cebb894f-f672-428d-a694-99032846c02c"},"vehicle_type_id":"4","last_reported":1750604942,"current_range_meters":1200,"station_id":"ce4bhbp2rcd13ifvqerg","pricing_plan_id":"cebpf4jnsgd1na2vs0mg"},{"bike_id":"84bfcf02-9930-4894-9fbc-8142cf69ef9f","system_id":"levelo_inurba_marseille","lat":43.27917,"lon":5.41257,"is_reserved":false,"is_disabled":true,"rental_uris":{"android":"levelo://app?vid=84bfcf02-9930-4894-9fbc-8142cf69ef9f","ios":"levelo://app?vid=84bfcf02-9930-4894-9fbc-8142cf69ef9f"},"vehicle_type_id":"4","last_reported":1750604942,"current_range_meters":1600,"station_id":"","pricing_plan_id":"cebpf4jnsgd1na2vs0mg"},{"bike_id":"5ccc4492-5250-451e-90df-2029637ee595","system_id":"levelo_inurba_marseille","lat":43.29298,"lon":5.37456,"is_reserved":false,"is_disabled":true,"rental_uris":{"android":"levelo://app?vid=5ccc4492-5250-451e-90df-2029637ee595","ios":"levelo://app?vid=5ccc4492-5250-451e-90df-2029637ee595"},"vehicle_type_id":"4","last_reported":1750604942,"current_range_meters":1600,"station_id":"ce4bgi12rcd13ifvqb70","pricing_plan_id":"cebpf4jnsgd1na2vs0mg"},{"bike_id":"d1bb8da4-d436-4a00-80a2-a99f8acbb9f7","system_id":"levelo_inurba_marseille","lat":43.29529,"lon":5.38535,"is_reserved":false,"is_disabled":false,"rental_uris":{"android":"levelo://app?vid=d1bb8da4-d436-4a00-80a2-a99f8acbb9f7","ios":"levelo://app?vid=d1bb8da4-d436-4a00-80a2-a99f8acbb9f7"},"vehicle_type_id":"4","last_reported":1750604942,"current_range_meters":1600,"station_id":"ce4bgih2rcd13ifvqba0","pricing_plan_id":"cebpf4jnsgd1na2vs0mg"},{"bike_id":"23aa96f0-101f-4490-a244-180a42c54028","system_id":"levelo_inurba_marseille","lat":43.30174,"lon":5.36621,"is_reserved":false,"is_disabled":true,"rental_uris":{"android":"levelo://app?vid=23aa96f0-101f-4490-a244-180a42c54028","ios":"levelo://app?vid=23aa96f0-101f-4490-a244-180a42c54028"},"vehicle_type_id":"4","last_reported":1750604942,"current_range_meters":1600,"station_id":"ce4bgrh2rcd13ifvqc8g","pricing_plan_id":"cebpf4jnsgd1na2vs0mg"},{"bike_id":"a617d68b-3c7e-4854-ae02-88a413d81f51","system_id":"levelo_inurba_marseille","lat":43.25719,"lon":5.4111,"is_reserved":false,"is_disabled":true,"rental_uris":{"android":"levelo://app?vid=a617d68b-3c7e-4854-ae02-88a413d81f51","ios":"levelo://app?vid=a617d68b-3c7e-4854-ae02-88a413d81f51"},"vehicle_type_id":"4","last_reported":1750604942,"current_range_meters":1600,"station_id":"ce4bhkp2rcd13ifvqgd0","pricing_plan_id":"cebpf4jnsgd1na2vs0mg"},{"bike_id":"fc77453f-aab3-4e91-81e2-bb6415c317b7","system_id":"levelo_inurba_marseille","lat":43.3017,"lon":5.39863,"is_reserved":false,"is_disabled":false,"rental_uris":{"android":"levelo://app?vid=fc77453f-aab3-4e91-81e2-bb6415c317b7","ios":"levelo://app?vid=fc77453f-aab3-4e91-81e2-bb6415c317b7"},"vehicle_type_id":"4","last_reported":1750604942,"current_range_meters":2000,"station_id":"ce4bh0h2rcd13ifvqd40","pricing_plan_id":"cebpf4jnsgd1na2vs0mg"},{"bike_id":"62777be6-cf11-4cbc-9eb2-793f887bcb3c","system_id":"levelo_inurba_marseille","lat":43.28411,"lon":5.34992,"is_reserved":false,"is_disabled":true,"rental_uris":{"android":"levelo://app?vid=62777be6-cf11-4cbc-9eb2-793f887bcb3c","ios":"levelo://app?vid=62777be6-cf11-4cbc-9eb2-793f887bcb3c"},"vehicle_type_id":"4","last_reported":1750604942,"current_range_meters":2000,"station_id":"ce4bhbh2rcd13ifvqepg","pricing_plan_id":"cebpf4jnsgd1na2vs0mg"},{"bike_id":"feb46f94-7c07-4e64-b621-fa14b170f936","system_id":"levelo_inurba_marseille","lat":43.2408,"lon":5.37753,"is_reserved":false,"is_disabled":true,"rental_uris":{"android":"levelo://app?vid=feb46f94-7c07-4e64-b621-fa14b170f936","ios":"levelo://app?vid=feb46f94-7c07-4e64-b621-fa14b170f936"},"vehicle_type_id":"4","last_reported":1750604942,"current_range_meters":2000,"station_id":"ce4bhnp2rcd13ifvqgvg","pricing_plan_id":"cebpf4jnsgd1na2vs0mg"},{"bike_id":"4d81def3-e396-40d4-b287-aaea02493d12","system_id":"levelo_inurba_marseille","lat":43.28602,"lon":5.35182,"is_reserved":false,"is_disabled":false,"rental_uris":{"android":"levelo://app?vid=4d81def3-e396-40d4-b287-aaea02493d12","ios":"levelo://app?vid=4d81def3-e396-40d4-b287-aaea02493d12"},"vehicle_type_id":"4","last_reported":1750604942,"current_range_meters":2800,"station_id":"","pricing_plan_id":"cebpf4jnsgd1na2vs0mg"},{"bike_id":"71bf700c-0229-4f07-983b-1b4c891d0e91","system_id":"levelo_inurba_marseille","lat":43.30192,"lon":5.36631,"is_reserved":false,"is_disabled":false,"rental_uris":{"android":"levelo://app?vid=71bf700c-0229-4f07-983b-1b4c891d0e91","ios":"levelo://app?vid=71bf700c-0229-4f07-983b-1b4c891d0e91"},"vehicle_type_id":"4","last_reported":1750604942,"current_range_meters":2800,"station_id":"ce4bgrh2rcd13ifvqc8g","pricing_plan_id":"cebpf4jnsgd1na2vs0mg"},{"bike_id":"c595d0e1-c778-4abe-9c79-a9dd74f54e27","system_id":"levelo_inurba_marseille","lat":43.24466,"lon":5.37226,"is_reserved":false,"is_disabled":false,"rental_uris":{"android":"levelo://app?vid=c595d0e1-c778-4abe-9c79-a9dd74f54e27","ios":"levelo://app?vid=c595d0e1-c778-4abe-9c79-a9dd74f54e27"},"vehicle_type_id":"4","last_reported":1750604942,"current_range_meters":3200,"station_id":"","pricing_plan_id":"cebpf4jnsgd1na2vs0mg"},{"bike_id":"a0e63477-edaf-4e7c-b33d-6a29e6244c17","system_id":"levelo_inurba_marseille","lat":43.28659,"lon":5.36343,"is_reserved":false,"is_disabled":false,"rental_uris":{"android":"levelo://app?vid=a0e63477-edaf-4e7c-b33d-6a29e6244c17","ios":"levelo://app?vid=a0e63477-edaf-4e7c-b33d-6a29e6244c17"},"vehicle_type_id":"4","last_reported":1750604942,"current_range_meters":3200,"station_id":"ce4bhah2rcd13ifvqej0","pricing_plan_id":"cebpf4jnsgd1na2vs0mg"},{"bike_id":"0fee886e-d55d-42b0-b27b-c39cef2e2c58","system_id":"levelo_inurba_marseille","lat":43.28295,"lon":5.35057,"is_reserved":false,"is_disabled":false,"rental_uris":{"android":"levelo://app?vid=0fee886e-d55d-42b0-b27b-c39cef2e2c58","ios":"levelo://app?vid=0fee886e-d55d-42b0-b27b-c39cef2e2c58"},"vehicle_type_id":"4","last_reported":1750604942,"current_range_meters":3200,"station_id":"ce4bhbp2rcd13ifvqerg","pricing_plan_id":"cebpf4jnsgd1na2vs0mg"},{"bike_id":"726453f1-e5e8-47b3-be08-7ec30d7a175b","system_id":"levelo_inurba_marseille","lat":43.26575,"lon":5.37289,"is_reserved":false,"is_disabled":false,"rental_uris":{"android":"levelo://app?vid=726453f1-e5e8-47b3-be08-7ec30d7a175b","ios":"levelo://app?vid=726453f1-e5e8-47b3-be08-7ec30d7a175b"},"vehicle_type_id":"4","last_reported":1750604942,"current_range_meters":3200,"station_id":"ce4bhg12rcd13ifvqf70","pricing_plan_id":"cebpf4jnsgd1na2vs0mg"},{"bike_id":"13380c1f-e291-4d49-aac9-2a61d38d2568","system_id":"levelo_inurba_marseille","lat":43.30731,"lon":5.42434,"is_reserved":false,"is_disabled":false,"rental_uris":{"android":"levelo://app?vid=13380c1f-e291-4d49-aac9-2a61d38d2568","ios":"levelo://app?vid=13380c1f-e291-4d49-aac9-2a61d38d2568"},"vehicle_type_id":"4","last_reported":1750604942,"current_range_meters":4000,"station_id":"st_cvj6ca6bvosntc0bfgr0","pricing_plan_id":"cebpf4jnsgd1na2vs0mg"},{"bike_id":"a8b80f08-3afd-421f-b266-d37bc70b2321","system_id":"levelo_inurba_marseille","lat":43.21192,"lon":5.35069,"is_reserved":false,"is_disabled":false,"rental_uris":{"android":"levelo://app?vid=a8b80f08-3afd-421f-b266-d37bc70b2321","ios":"levelo://app?vid=a8b80f08-3afd-421f-b266-d37bc70b2321"},"vehicle_type_id":"4","last_reported":1750604942,"current_range_meters":4000,"station_id":"st_cvj6sg6p6f1abm77japg","pricing_plan_id":"cebpf4jnsgd1na2vs0mg"},{"bike_id":"8300812b-c3f4-4460-a462-0c10590e5460","system_id":"levelo_inurba_marseille","lat":43.32948,"lon":5.4056,"is_reserved":false,"is_disabled":false,"rental_uris":{"android":"levelo://app?vid=8300812b-c3f4-4460-a462-0c10590e5460","ios":"levelo://app?vid=8300812b-c3f4-4460-a462-0c10590e5460"},"vehicle_type_id":"4","last_reported":1750604942,"current_range_meters":4800,"station_id":"","pricing_plan_id":"cebpf4jnsgd1na2vs0mg"},{"bike_id":"199c2831-e081-4bc0-9b94-19503817091d","system_id":"levelo_inurba_marseille","lat":43.249133,"lon":5.406701,"is_reserved":false,"is_disabled":false,"rental_uris":{"android":"levelo://app?vid=199c2831-e081-4bc0-9b94-19503817091d","ios":"levelo://app?vid=199c2831-e081-4bc0-9b94-19503817091d"},"vehicle_type_id":"4","last_reported":1750604942,"current_range_meters":4800,"station_id":"","pricing_plan_id":"cebpf4jnsgd1na2vs0mg"},{"bike_id":"1a5a99ee-012d-47e0-8447-47791bcb5764","system_id":"levelo_inurba_marseille","lat":43.32475,"lon":5.36562,"is_reserved":false,"is_disabled":false,"rental_uris":{"android":"levelo://app?vid=1a5a99ee-012d-47e0-8447-47791bcb5764","ios":"levelo://app?vid=1a5a99ee-012d-47e0-8447-47791bcb5764"},"vehicle_type_id":"4","last_reported":1750604942,"current_range_meters":4800,"station_id":"ce4bhs12rcd13ifvqhvg","pricing_plan_id":"cebpf4jnsgd1na2vs0mg"},{"bike_id":"453e0010-908e-456b-a5d3-c11c9f161895","system_id":"levelo_inurba_marseille","lat":43.30807,"lon":5.43519,"is_reserved":false,"is_disabled":false,"rental_uris":{"android":"levelo://app?vid=453e0010-908e-456b-a5d3-c11c9f161895","ios":"levelo://app?vid=453e0010-908e-456b-a5d3-c11c9f161895"},"vehicle_type_id":"4","last_reported":1750604942,"current_range_meters":5600,"station_id":"ce4bhph2rcd13ifvqheg","pricing_plan_id":"cebpf4jnsgd1na2vs0mg"},{"bike_id":"2086f3ca-f45f-486b-8f8c-d47b10632ba0","system_id":"levelo_inurba_marseille","lat":43.22937,"lon":5.35375,"is_reserved":false,"is_disabled":false,"rental_uris":{"android":"levelo://app?vid=2086f3ca-f45f-486b-8f8c-d47b10632ba0","ios":"levelo://app?vid=2086f3ca-f45f-486b-8f8c-d47b10632ba0"},"vehicle_type_id":"4","last_reported":1750604942,"current_range_meters":5600,"station_id":"cpo3532slgdg3j2ikp40","pricing_plan_id":"cebpf4jnsgd1na2vs0mg"},{"bike_id":"9ea835e9-27c2-45e2-9d32-ba917478fad4","system_id":"levelo_inurba_marseille","lat":43.299668,"lon":5.384768,"is_reserved":false,"is_disabled":false,"rental_uris":{"android":"levelo://app?vid=9ea835e9-27c2-45e2-9d32-ba917478fad4","ios":"levelo://app?vid=9ea835e9-27c2-45e2-9d32-ba917478fad4"},"vehicle_type_id":"4","last_reported":1750604942,"current_range_meters":6000,"station_id":"ce4bgj92rcd13ifvqbd0","pricing_plan_id":"cebpf4jnsgd1na2vs0mg"},{"bike_id":"bd27fe72-6fbc-453f-8b77-bee10ab3b13c","system_id":"levelo_inurba_marseille","lat":43.29533,"lon":5.42353,"is_reserved":false,"is_disabled":false,"rental_uris":{"android":"levelo://app?vid=bd27fe72-6fbc-453f-8b77-bee10ab3b13c","ios":"levelo://app?vid=bd27fe72-6fbc-453f-8b77-bee10ab3b13c"},"vehicle_type_id":"4","last_reported":1750604942,"current_range_meters":6400,"station_id":"","pricing_plan_id":"cebpf4jnsgd1na2vs0mg"},{"bike_id":"84efd8ff-2090-432c-8699-076991b121dc","system_id":"levelo_inurba_marseille","lat":43.262085,"lon":5.374408,"is_reserved":false,"is_disabled":false,"rental_uris":{"android":"levelo://app?vid=84efd8ff-2090-432c-8699-076991b121dc","ios":"levelo://app?vid=84efd8ff-2090-432c-8699-076991b121dc"},"vehicle_type_id":"4","last_reported":1750604942,"current_range_meters":6400,"station_id":"ce4bhgp2rcd13ifvqfc0","pricing_plan_id":"cebpf4jnsgd1na2vs0mg"},{"bike_id":"75872252-41b0-4700-8179-469a88ad4d46","system_id":"levelo_inurba_marseille","lat":43.25494,"lon":5.37658,"is_reserved":false,"is_disabled":false,"rental_uris":{"android":"levelo://app?vid=75872252-41b0-4700-8179-469a88ad4d46","ios":"levelo://app?vid=75872252-41b0-4700-8179-469a88ad4d46"},"vehicle_type_id":"4","last_reported":1750604942,"current_range_meters":6400,"station_id":"ce4bhh12rcd13ifvqff0","pricing_plan_id":"cebpf4jnsgd1na2vs0mg"},{"bike_id":"13f7aa5e-9a78-41f7-8f63-3f7a54374a00","system_id":"levelo_inurba_marseille","lat":43.27984,"lon":5.41665,"is_reserved":false,"is_disabled":false,"rental_uris":{"android":"levelo://app?vid=13f7aa5e-9a78-41f7-8f63-3f7a54374a00","ios":"levelo://app?vid=13f7aa5e-9a78-41f7-8f63-3f7a54374a00"},"vehicle_type_id":"4","last_reported":1750604942,"current_range_meters":6400,"station_id":"ce4bho12rcd13ifvqh1g","pricing_plan_id":"cebpf4jnsgd1na2vs0mg"},{"bike_id":"47f139f2-8bd5-4552-a6ab-130bfb2aba4d","system_id":"levelo_inurba_marseille","lat":43.26022,"lon":5.41743,"is_reserved":false,"is_disabled":false,"rental_uris":{"android":"levelo://app?vid=47f139f2-8bd5-4552-a6ab-130bfb2aba4d","ios":"levelo://app?vid=47f139f2-8bd5-4552-a6ab-130bfb2aba4d"},"vehicle_type_id":"4","last_reported":1750604942,"current_range_meters":6800,"station_id":"","pricing_plan_id":"cebpf4jnsgd1na2vs0mg"},{"bike_id":"0c6ff6c9-143c-4581-925f-8d2da15ed75e","system_id":"levelo_inurba_marseille","lat":43.26556,"lon":5.37283,"is_reserved":false,"is_disabled":false,"rental_uris":{"android":"levelo://app?vid=0c6ff6c9-143c-4581-925f-8d2da15ed75e","ios":"levelo://app?vid=0c6ff6c9-143c-4581-925f-8d2da15ed75e"},"vehicle_type_id":"4","last_reported":1750604942,"current_range_meters":6800,"station_id":"ce4bhg12rcd13ifvqf70","pricing_plan_id":"cebpf4jnsgd1na2vs0mg"},{"bike_id":"77b9affc-66e0-4277-8170-25c186af9ba7","system_id":"levelo_inurba_marseille","lat":43.26194,"lon":5.37453,"is_reserved":false,"is_disabled":false,"rental_uris":{"android":"levelo://app?vid=77b9affc-66e0-4277-8170-25c186af9ba7","ios":"levelo://app?vid=77b9affc-66e0-4277-8170-25c186af9ba7"},"vehicle_type_id":"4","last_reported":1750604942,"current_range_meters":6800,"station_id":"ce4bhgp2rcd13ifvqfc0","pricing_plan_id":"cebpf4jnsgd1na2vs0mg"},{"bike_id":"028a5a54-e867-49a9-8cd9-42809d0b81fa","system_id":"levelo_inurba_marseille","lat":43.2175,"lon":5.34596,"is_reserved":false,"is_disabled":false,"rental_uris":{"android":"levelo://app?vid=028a5a54-e867-49a9-8cd9-42809d0b81fa","ios":"levelo://app?vid=028a5a54-e867-49a9-8cd9-42809d0b81fa"},"vehicle_type_id":"4","last_reported":1750604942,"current_range_meters":6800,"station_id":"st_cvj6r9ubvosntc0bgbag","pricing_plan_id":"cebpf4jnsgd1na2vs0mg"},{"bike_id":"cdad3616-6d2a-4c29-a0b8-b5bc84209c59","system_id":"levelo_inurba_marseille","lat":43.32696,"lon":5.3923,"is_reserved":false,"is_disabled":false,"rental_uris":{"android":"levelo://app?vid=cdad3616-6d2a-4c29-a0b8-b5bc84209c59","ios":"levelo://app?vid=cdad3616-6d2a-4c29-a0b8-b5bc84209c59"},"vehicle_type_id":"4","last_reported":1750604942,"current_range_meters":7200,"station_id":"","pricing_plan_id":"cebpf4jnsgd1na2vs0mg"},{"bike_id":"d40af265-11b5-43a6-9bb6-f910f57901ba","system_id":"levelo_inurba_marseille","lat":43.33033,"lon":5.38002,"is_reserved":false,"is_disabled":false,"rental_uris":{"android":"levelo://app?vid=d40af265-11b5-43a6-9bb6-f910f57901ba","ios":"levelo://app?vid=d40af265-11b5-43a6-9bb6-f910f57901ba"},"vehicle_type_id":"4","last_reported":1750604942,"current_range_meters":7200,"station_id":"","pricing_plan_id":"cebpf4jnsgd1na2vs0mg"},{"bike_id":"41e0b0b9-0961-4661-aee5-cc2122114604","system_id":"levelo_inurba_marseille","lat":43.24795,"lon":5.37465,"is_reserved":false,"is_disabled":false,"rental_uris":{"android":"levelo://app?vid=41e0b0b9-0961-4661-aee5-cc2122114604","ios":"levelo://app?vid=41e0b0b9-0961-4661-aee5-cc2122114604"},"vehicle_type_id":"4","last_reported":1750604942,"current_range_meters":7200,"station_id":"ce4bhgh2rcd13ifvqfb0","pricing_plan_id":"cebpf4jnsgd1na2vs0mg"},{"bike_id":"6c7d5f2d-fd11-422c-acc4-74dbc0fb02c2","system_id":"levelo_inurba_marseille","lat":43.29901,"lon":5.43665,"is_reserved":false,"is_disabled":false,"rental_uris":{"android":"levelo://app?vid=6c7d5f2d-fd11-422c-acc4-74dbc0fb02c2","ios":"levelo://app?vid=6c7d5f2d-fd11-422c-acc4-74dbc0fb02c2"},"vehicle_type_id":"4","last_reported":1750604942,"current_range_meters":7200,"station_id":"ce4bhpp2rcd13ifvqhfg","pricing_plan_id":"cebpf4jnsgd1na2vs0mg"},{"bike_id":"073cc134-90c8-4f2f-a7ec-1eaaddf52ba5","system_id":"levelo_inurba_marseille","lat":43.28438,"lon":5.34975,"is_reserved":false,"is_disabled":false,"rental_uris":{"android":"levelo://app?vid=073cc134-90c8-4f2f-a7ec-1eaaddf52ba5","ios":"levelo://app?vid=073cc134-90c8-4f2f-a7ec-1eaaddf52ba5"},"vehicle_type_id":"4","last_reported":1750604942,"current_range_meters":8000,"station_id":"ce4bhbh2rcd13ifvqepg","pricing_plan_id":"cebpf4jnsgd1na2vs0mg"},{"bike_id":"95280fb2-ef1b-4b2c-a0a8-7d9c2f195d85","system_id":"levelo_inurba_marseille","lat":43.24799,"lon":5.37419,"is_reserved":false,"is_disabled":false,"rental_uris":{"android":"levelo://app?vid=95280fb2-ef1b-4b2c-a0a8-7d9c2f195d85","ios":"levelo://app?vid=95280fb2-ef1b-4b2c-a0a8-7d9c2f195d85"},"vehicle_type_id":"4","last_reported":1750604942,"current_range_meters":8000,"station_id":"ce4bhgh2rcd13ifvqfb0","pricing_plan_id":"cebpf4jnsgd1na2vs0mg"},{"bike_id":"3954a614-99c6-4261-a97b-0bc96a77bf57","system_id":"levelo_inurba_marseille","lat":43.271754,"lon":5.409978,"is_reserved":false,"is_disabled":false,"rental_uris":{"android":"levelo://app?vid=3954a614-99c6-4261-a97b-0bc96a77bf57","ios":"levelo://app?vid=3954a614-99c6-4261-a97b-0bc96a77bf57"},"vehicle_type_id":"4","last_reported":1750604942,"current_range_meters":8000,"station_id":"ce4bhl12rcd13ifvqgf0","pricing_plan_id":"cebpf4jnsgd1na2vs0mg"},{"bike_id":"a22aa312-0025-4f42-88e2-b1e95e79340f","system_id":"levelo_inurba_marseille","lat":43.31626,"lon":5.38318,"is_reserved":false,"is_disabled":false,"rental_uris":{"android":"levelo://app?vid=a22aa312-0025-4f42-88e2-b1e95e79340f","ios":"levelo://app?vid=a22aa312-0025-4f42-88e2-b1e95e79340f"},"vehicle_type_id":"4","last_reported":1750604942,"current_range_meters":8400,"station_id":"","pricing_plan_id":"cebpf4jnsgd1na2vs0mg"},{"bike_id":"3af8e414-6142-4432-a6dc-f481c7269c68","system_id":"levelo_inurba_marseille","lat":43.231255,"lon":5.366124,"is_reserved":false,"is_disabled":false,"rental_uris":{"android":"levelo://app?vid=3af8e414-6142-4432-a6dc-f481c7269c68","ios":"levelo://app?vid=3af8e414-6142-4432-a6dc-f481c7269c68"},"vehicle_type_id":"4","last_reported":1750604942,"current_range_meters":8400,"station_id":"","pricing_plan_id":"cebpf4jnsgd1na2vs0mg"},{"bike_id":"a5d9f26d-f115-41fe-b6a9-5d3926a51d03","system_id":"levelo_inurba_marseille","lat":43.28359,"lon":5.38639,"is_reserved":false,"is_disabled":false,"rental_uris":{"android":"levelo://app?vid=a5d9f26d-f115-41fe-b6a9-5d3926a51d03","ios":"levelo://app?vid=a5d9f26d-f115-41fe-b6a9-5d3926a51d03"},"vehicle_type_id":"4","last_reported":1750604942,"current_range_meters":8400,"station_id":"ce4bh492rcd13ifvqdvg","pricing_plan_id":"cebpf4jnsgd1na2vs0mg"},{"bike_id":"b639ca5d-b29f-4854-8151-e8055afbcb5c","system_id":"levelo_inurba_marseille","lat":43.273748,"lon":5.362482,"is_reserved":false,"is_disabled":false,"rental_uris":{"android":"levelo://app?vid=b639ca5d-b29f-4854-8151-e8055afbcb5c","ios":"levelo://app?vid=b639ca5d-b29f-4854-8151-e8055afbcb5c"},"vehicle_type_id":"4","last_reported":1750604942,"current_range_meters":8400,"station_id":"ce4bhbh2rcd13ifvqeo0","pricing_plan_id":"cebpf4jnsgd1na2vs0mg"},{"bike_id":"b3874023-e737-468a-8af8-a34c822ccfc6","system_id":"levelo_inurba_marseille","lat":43.24389,"lon":5.37059,"is_reserved":false,"is_disabled":false,"rental_uris":{"android":"levelo://app?vid=b3874023-e737-468a-8af8-a34c822ccfc6","ios":"levelo://app?vid=b3874023-e737-468a-8af8-a34c822ccfc6"},"vehicle_type_id":"4","last_reported":1750604942,"current_range_meters":8400,"station_id":"ce4bhhh2rcd13ifvqfk0","pricing_plan_id":"cebpf4jnsgd1na2vs0mg"},{"bike_id":"4aefd1ab-3220-470c-ab79-f92d68e437e9","system_id":"levelo_inurba_marseille","lat":43.23968,"lon":5.36633,"is_reserved":false,"is_disabled":false,"rental_uris":{"android":"levelo://app?vid=4aefd1ab-3220-470c-ab79-f92d68e437e9","ios":"levelo://app?vid=4aefd1ab-3220-470c-ab79-f92d68e437e9"},"vehicle_type_id":"4","last_reported":1750604942,"current_range_meters":8400,"station_id":"ce4bhi12rcd13ifvqfp0","pricing_plan_id":"cebpf4jnsgd1na2vs0mg"},{"bike_id":"5d57b9c3-fabf-43e4-8294-b9138dfc1ddd","system_id":"levelo_inurba_marseille","lat":43.25112,"lon":5.40332,"is_reserved":false,"is_disabled":false,"rental_uris":{"android":"levelo://app?vid=5d57b9c3-fabf-43e4-8294-b9138dfc1ddd","ios":"levelo://app?vid=5d57b9c3-fabf-43e4-8294-b9138dfc1ddd"},"vehicle_type_id":"4","last_reported":1750604942,"current_range_meters":8400,"station_id":"ce4bhlh2rcd13ifvqgig","pricing_plan_id":"cebpf4jnsgd1na2vs0mg"},{"bike_id":"a9738db2-ea43-470f-a988-6a2900317084","system_id":"levelo_inurba_marseille","lat":43.23184,"lon":5.35539,"is_reserved":false,"is_disabled":false,"rental_uris":{"android":"levelo://app?vid=a9738db2-ea43-470f-a988-6a2900317084","ios":"levelo://app?vid=a9738db2-ea43-470f-a988-6a2900317084"},"vehicle_type_id":"4","last_reported":1750604942,"current_range_meters":8400,"station_id":"ce4bhu92rcd13ifvqi70","pricing_plan_id":"cebpf4jnsgd1na2vs0mg"},{"bike_id":"dcd09717-ed61-4dd0-817c-1abe723b367e","system_id":"levelo_inurba_marseille","lat":43.2417,"lon":5.3639,"is_reserved":false,"is_disabled":false,"rental_uris":{"android":"levelo://app?vid=dcd09717-ed61-4dd0-817c-1abe723b367e","ios":"levelo://app?vid=dcd09717-ed61-4dd0-817c-1abe723b367e"},"vehicle_type_id":"4","last_reported":1750604942,"current_range_meters":8400,"station_id":"cpo36qri1sfpv3e86is0","pricing_plan_id":"cebpf4jnsgd1na2vs0mg"},{"bike_id":"780eef01-2a8e-4455-be7b-1f15df3fd545","system_id":"levelo_inurba_marseille","lat":43.26212,"lon":5.37436,"is_reserved":false,"is_disabled":false,"rental_uris":{"android":"levelo://app?vid=780eef01-2a8e-4455-be7b-1f15df3fd545","ios":"levelo://app?vid=780eef01-2a8e-4455-be7b-1f15df3fd545"},"vehicle_type_id":"4","last_reported":1750604942,"current_range_meters":8800,"station_id":"ce4bhgp2rcd13ifvqfc0","pricing_plan_id":"cebpf4jnsgd1na2vs0mg"},{"bike_id":"65667ca0-6e68-439b-9faf-39cfa14b34f4","system_id":"levelo_inurba_marseille","lat":43.23152,"lon":5.43715,"is_reserved":false,"is_disabled":false,"rental_uris":{"android":"levelo://app?vid=65667ca0-6e68-439b-9faf-39cfa14b34f4","ios":"levelo://app?vid=65667ca0-6e68-439b-9faf-39cfa14b34f4"},"vehicle_type_id":"4","last_reported":1750604942,"current_range_meters":8800,"station_id":"ce4bhmp2rcd13ifvqgog","pricing_plan_id":"cebpf4jnsgd1na2vs0mg"},{"bike_id":"94733a87-ab0f-4c0e-ba48-316b3ac1807e","system_id":"levelo_inurba_marseille","lat":43.26206,"lon":5.37446,"is_reserved":false,"is_disabled":false,"rental_uris":{"android":"levelo://app?vid=94733a87-ab0f-4c0e-ba48-316b3ac1807e","ios":"levelo://app?vid=94733a87-ab0f-4c0e-ba48-316b3ac1807e"},"vehicle_type_id":"4","last_reported":1750604942,"current_range_meters":9200,"station_id":"ce4bhgp2rcd13ifvqfc0","pricing_plan_id":"cebpf4jnsgd1na2vs0mg"},{"bike_id":"ec41df0a-ecd2-468b-afa3-eb7c88b4166b","system_id":"levelo_inurba_marseille","lat":43.25499,"lon":5.37657,"is_reserved":false,"is_disabled":false,"rental_uris":{"android":"levelo://app?vid=ec41df0a-ecd2-468b-afa3-eb7c88b4166b","ios":"levelo://app?vid=ec41df0a-ecd2-468b-afa3-eb7c88b4166b"},"vehicle_type_id":"4","last_reported":1750604942,"current_range_meters":9200,"station_id":"ce4bhh12rcd13ifvqff0","pricing_plan_id":"cebpf4jnsgd1na2vs0mg"},{"bike_id":"f0346c68-04bd-4fe1-ae97-71a8a19b4339","system_id":"levelo_inurba_marseille","lat":43.24168,"lon":5.36404,"is_reserved":false,"is_disabled":false,"rental_uris":{"android":"levelo://app?vid=f0346c68-04bd-4fe1-ae97-71a8a19b4339","ios":"levelo://app?vid=f0346c68-04bd-4fe1-ae97-71a8a19b4339"},"vehicle_type_id":"4","last_reported":1750604942,"current_range_meters":9200,"station_id":"cpo36qri1sfpv3e86is0","pricing_plan_id":"cebpf4jnsgd1na2vs0mg"},{"bike_id":"2460bdfc-baea-45e5-9f51-4be6cc8872c8","system_id":"levelo_inurba_marseille","lat":43.25114,"lon":5.40381,"is_reserved":false,"is_disabled":false,"rental_uris":{"android":"levelo://app?vid=2460bdfc-baea-45e5-9f51-4be6cc8872c8","ios":"levelo://app?vid=2460bdfc-baea-45e5-9f51-4be6cc8872c8"},"vehicle_type_id":"4","last_reported":1750604942,"current_range_meters":9600,"station_id":"","pricing_plan_id":"cebpf4jnsgd1na2vs0mg"},{"bike_id":"b7036bc1-c072-4f36-9c66-21ff695540f4","system_id":"levelo_inurba_marseille","lat":43.2466,"lon":5.3949,"is_reserved":false,"is_disabled":false,"rental_uris":{"android":"levelo://app?vid=b7036bc1-c072-4f36-9c66-21ff695540f4","ios":"levelo://app?vid=b7036bc1-c072-4f36-9c66-21ff695540f4"},"vehicle_type_id":"4","last_reported":1750604942,"current_range_meters":9600,"station_id":"","pricing_plan_id":"cebpf4jnsgd1na2vs0mg"},{"bike_id":"17eb49f6-4aac-4211-9745-67c4c7ea4661","system_id":"levelo_inurba_marseille","lat":43.29714,"lon":5.36603,"is_reserved":false,"is_disabled":false,"rental_uris":{"android":"levelo://app?vid=17eb49f6-4aac-4211-9745-67c4c7ea4661","ios":"levelo://app?vid=17eb49f6-4aac-4211-9745-67c4c7ea4661"},"vehicle_type_id":"4","last_reported":1750604942,"current_range_meters":9600,"station_id":"ce4bgn12rcd13ifvqbt0","pricing_plan_id":"cebpf4jnsgd1na2vs0mg"},{"bike_id":"1ba66dc9-0643-453e-b7dc-afe6e2c585fd","system_id":"levelo_inurba_marseille","lat":43.23161,"lon":5.43703,"is_reserved":false,"is_disabled":false,"rental_uris":{"android":"levelo://app?vid=1ba66dc9-0643-453e-b7dc-afe6e2c585fd","ios":"levelo://app?vid=1ba66dc9-0643-453e-b7dc-afe6e2c585fd"},"vehicle_type_id":"4","last_reported":1750604942,"current_range_meters":9600,"station_id":"ce4bhmp2rcd13ifvqgog","pricing_plan_id":"cebpf4jnsgd1na2vs0mg"},{"bike_id":"c0c696b4-db7c-43eb-a77b-028160fe1d47","system_id":"levelo_inurba_marseille","lat":43.28416,"lon":5.34991,"is_reserved":false,"is_disabled":false,"rental_uris":{"android":"levelo://app?vid=c0c696b4-db7c-43eb-a77b-028160fe1d47","ios":"levelo://app?vid=c0c696b4-db7c-43eb-a77b-028160fe1d47"},"vehicle_type_id":"4","last_reported":1750604942,"current_range_meters":10000,"station_id":"ce4bhbh2rcd13ifvqepg","pricing_plan_id":"cebpf4jnsgd1na2vs0mg"},{"bike_id":"573e8eee-69b2-4cb7-8c3f-8e1bf869867f","system_id":"levelo_inurba_marseille","lat":43.31874,"lon":5.4074,"is_reserved":false,"is_disabled":false,"rental_uris":{"android":"levelo://app?vid=573e8eee-69b2-4cb7-8c3f-8e1bf869867f","ios":"levelo://app?vid=573e8eee-69b2-4cb7-8c3f-8e1bf869867f"},"vehicle_type_id":"4","last_reported":1750604942,"current_range_meters":10000,"station_id":"ce4bhq12rcd13ifvqhig","pricing_plan_id":"cebpf4jnsgd1na2vs0mg"},{"bike_id":"f48425cf-611c-4160-aff9-97d658cfa133","system_id":"levelo_inurba_marseille","lat":43.33726,"lon":5.39193,"is_reserved":false,"is_disabled":false,"rental_uris":{"android":"levelo://app?vid=f48425cf-611c-4160-aff9-97d658cfa133","ios":"levelo://app?vid=f48425cf-611c-4160-aff9-97d658cfa133"},"vehicle_type_id":"4","last_reported":1750604942,"current_range_meters":10000,"station_id":"ce4bhr92rcd13ifvqhsg","pricing_plan_id":"cebpf4jnsgd1na2vs0mg"},{"bike_id":"e672c7ab-9539-485a-b360-1e12bbab178b","system_id":"levelo_inurba_marseille","lat":43.30332,"lon":5.43486,"is_reserved":false,"is_disabled":false,"rental_uris":{"android":"levelo://app?vid=e672c7ab-9539-485a-b360-1e12bbab178b","ios":"levelo://app?vid=e672c7ab-9539-485a-b360-1e12bbab178b"},"vehicle_type_id":"4","last_reported":1750604942,"current_range_meters":10800,"station_id":"","pricing_plan_id":"cebpf4jnsgd1na2vs0mg"},{"bike_id":"242baff6-2cd3-441f-a7ad-08f8c6f12d44","system_id":"levelo_inurba_marseille","lat":43.25083,"lon":5.39521,"is_reserved":false,"is_disabled":false,"rental_uris":{"android":"levelo://app?vid=242baff6-2cd3-441f-a7ad-08f8c6f12d44","ios":"levelo://app?vid=242baff6-2cd3-441f-a7ad-08f8c6f12d44"},"vehicle_type_id":"4","last_reported":1750604942,"current_range_meters":10800,"station_id":"ce4bhm12rcd13ifvqgkg","pricing_plan_id":"cebpf4jnsgd1na2vs0mg"},{"bike_id":"5d3e199f-4449-4268-b4f1-515d3a2c7418","system_id":"levelo_inurba_marseille","lat":43.241752,"lon":5.36392,"is_reserved":false,"is_disabled":false,"rental_uris":{"android":"levelo://app?vid=5d3e199f-4449-4268-b4f1-515d3a2c7418","ios":"levelo://app?vid=5d3e199f-4449-4268-b4f1-515d3a2c7418"},"vehicle_type_id":"4","last_reported":1750604942,"current_range_meters":10800,"station_id":"cpo36qri1sfpv3e86is0","pricing_plan_id":"cebpf4jnsgd1na2vs0mg"},{"bike_id":"8d197929-9fd5-4312-a5f7-b6d7fc6475a8","system_id":"levelo_inurba_marseille","lat":43.23497,"lon":5.36031,"is_reserved":false,"is_disabled":false,"rental_uris":{"android":"levelo://app?vid=8d197929-9fd5-4312-a5f7-b6d7fc6475a8","ios":"levelo://app?vid=8d197929-9fd5-4312-a5f7-b6d7fc6475a8"},"vehicle_type_id":"4","last_reported":1750604942,"current_range_meters":11200,"station_id":"","pricing_plan_id":"cebpf4jnsgd1na2vs0mg"},{"bike_id":"a3eae1d9-690f-469d-af29-379421fd5887","system_id":"levelo_inurba_marseille","lat":43.27369,"lon":5.3624,"is_reserved":false,"is_disabled":false,"rental_uris":{"android":"levelo://app?vid=a3eae1d9-690f-469d-af29-379421fd5887","ios":"levelo://app?vid=a3eae1d9-690f-469d-af29-379421fd5887"},"vehicle_type_id":"4","last_reported":1750604942,"current_range_meters":11200,"station_id":"ce4bhbh2rcd13ifvqeo0","pricing_plan_id":"cebpf4jnsgd1na2vs0mg"},{"bike_id":"7a7ffbce-30fd-4ac2-803a-48bd723af119","system_id":"levelo_inurba_marseille","lat":43.27372,"lon":5.36249,"is_reserved":false,"is_disabled":false,"rental_uris":{"android":"levelo://app?vid=7a7ffbce-30fd-4ac2-803a-48bd723af119","ios":"levelo://app?vid=7a7ffbce-30fd-4ac2-803a-48bd723af119"},"vehicle_type_id":"4","last_reported":1750604942,"current_range_meters":11200,"station_id":"ce4bhbh2rcd13ifvqeo0","pricing_plan_id":"cebpf4jnsgd1na2vs0mg"},{"bike_id":"9bb2de17-a3c0-4e39-a88c-7f8be3a52562","system_id":"levelo_inurba_marseille","lat":43.28427,"lon":5.34991,"is_reserved":false,"is_disabled":false,"rental_uris":{"android":"levelo://app?vid=9bb2de17-a3c0-4e39-a88c-7f8be3a52562","ios":"levelo://app?vid=9bb2de17-a3c0-4e39-a88c-7f8be3a52562"},"vehicle_type_id":"4","last_reported":1750604942,"current_range_meters":11200,"station_id":"ce4bhbh2rcd13ifvqepg","pricing_plan_id":"cebpf4jnsgd1na2vs0mg"},{"bike_id":"2ef31fed-8dcf-469a-a124-23a7f2536432","system_id":"levelo_inurba_marseille","lat":43.229342,"lon":5.353824,"is_reserved":false,"is_disabled":false,"rental_uris":{"android":"levelo://app?vid=2ef31fed-8dcf-469a-a124-23a7f2536432","ios":"levelo://app?vid=2ef31fed-8dcf-469a-a124-23a7f2536432"},"vehicle_type_id":"4","last_reported":1750604942,"current_range_meters":11200,"station_id":"cpo3532slgdg3j2ikp40","pricing_plan_id":"cebpf4jnsgd1na2vs0mg"},{"bike_id":"4d80d21e-3dc9-4004-a3c0-eb7b371a8ccf","system_id":"levelo_inurba_marseille","lat":43.33035,"lon":5.39355,"is_reserved":false,"is_disabled":false,"rental_uris":{"android":"levelo://app?vid=4d80d21e-3dc9-4004-a3c0-eb7b371a8ccf","ios":"levelo://app?vid=4d80d21e-3dc9-4004-a3c0-eb7b371a8ccf"},"vehicle_type_id":"4","last_reported":1750604942,"current_range_meters":11600,"station_id":"","pricing_plan_id":"cebpf4jnsgd1na2vs0mg"},{"bike_id":"c691a3c7-1c2d-4e78-929c-1c9e95dbb4f3","system_id":"levelo_inurba_marseille","lat":43.23329,"lon":5.36154,"is_reserved":false,"is_disabled":false,"rental_uris":{"android":"levelo://app?vid=c691a3c7-1c2d-4e78-929c-1c9e95dbb4f3","ios":"levelo://app?vid=c691a3c7-1c2d-4e78-929c-1c9e95dbb4f3"},"vehicle_type_id":"4","last_reported":1750604942,"current_range_meters":11600,"station_id":"","pricing_plan_id":"cebpf4jnsgd1na2vs0mg"},{"bike_id":"c59e2915-e9b7-48c6-a3e1-93b6c4bbc1d9","system_id":"levelo_inurba_marseille","lat":43.28405,"lon":5.37516,"is_reserved":false,"is_disabled":false,"rental_uris":{"android":"levelo://app?vid=c59e2915-e9b7-48c6-a3e1-93b6c4bbc1d9","ios":"levelo://app?vid=c59e2915-e9b7-48c6-a3e1-93b6c4bbc1d9"},"vehicle_type_id":"4","last_reported":1750604942,"current_range_meters":11600,"station_id":"ce4bh412rcd13ifvqds0","pricing_plan_id":"cebpf4jnsgd1na2vs0mg"},{"bike_id":"d2cbbde0-1d63-40e7-a978-922438877821","system_id":"levelo_inurba_marseille","lat":43.26685,"lon":5.38278,"is_reserved":false,"is_disabled":false,"rental_uris":{"android":"levelo://app?vid=d2cbbde0-1d63-40e7-a978-922438877821","ios":"levelo://app?vid=d2cbbde0-1d63-40e7-a978-922438877821"},"vehicle_type_id":"4","last_reported":1750604942,"current_range_meters":11600,"station_id":"ce4bhg92rcd13ifvqf90","pricing_plan_id":"cebpf4jnsgd1na2vs0mg"},{"bike_id":"53e3cac3-c637-4e25-be10-c2eee629a6ba","system_id":"levelo_inurba_marseille","lat":43.22927,"lon":5.35375,"is_reserved":false,"is_disabled":false,"rental_uris":{"android":"levelo://app?vid=53e3cac3-c637-4e25-be10-c2eee629a6ba","ios":"levelo://app?vid=53e3cac3-c637-4e25-be10-c2eee629a6ba"},"vehicle_type_id":"4","last_reported":1750604942,"current_range_meters":11600,"station_id":"cpo3532slgdg3j2ikp40","pricing_plan_id":"cebpf4jnsgd1na2vs0mg"},{"bike_id":"383f6c23-5900-403c-9f1d-b77754335d0d","system_id":"levelo_inurba_marseille","lat":43.225026,"lon":5.347822,"is_reserved":false,"is_disabled":false,"rental_uris":{"android":"levelo://app?vid=383f6c23-5900-403c-9f1d-b77754335d0d","ios":"levelo://app?vid=383f6c23-5900-403c-9f1d-b77754335d0d"},"vehicle_type_id":"4","last_reported":1750604942,"current_range_meters":11600,"station_id":"st_cvj5dfep6f1abm77gieg","pricing_plan_id":"cebpf4jnsgd1na2vs0mg"},{"bike_id":"fb948f3e-43d5-464b-86d7-10ff74a9703d","system_id":"levelo_inurba_marseille","lat":43.283569,"lon":5.399426,"is_reserved":false,"is_disabled":false,"rental_uris":{"android":"levelo://app?vid=fb948f3e-43d5-464b-86d7-10ff74a9703d","ios":"levelo://app?vid=fb948f3e-43d5-464b-86d7-10ff74a9703d"},"vehicle_type_id":"4","last_reported":1750604942,"current_range_meters":12400,"station_id":"","pricing_plan_id":"cebpf4jnsgd1na2vs0mg"},{"bike_id":"ffbb0c22-3f4e-4cdb-a0e5-79e3b9f3e1a2","system_id":"levelo_inurba_marseille","lat":43.33769,"lon":5.37469,"is_reserved":false,"is_disabled":false,"rental_uris":{"android":"levelo://app?vid=ffbb0c22-3f4e-4cdb-a0e5-79e3b9f3e1a2","ios":"levelo://app?vid=ffbb0c22-3f4e-4cdb-a0e5-79e3b9f3e1a2"},"vehicle_type_id":"4","last_reported":1750604942,"current_range_meters":12400,"station_id":"","pricing_plan_id":"cebpf4jnsgd1na2vs0mg"},{"bike_id":"e957ad26-66eb-4f0e-bbd5-f617bb0859b3","system_id":"levelo_inurba_marseille","lat":43.26032,"lon":5.3755,"is_reserved":false,"is_disabled":false,"rental_uris":{"android":"levelo://app?vid=e957ad26-66eb-4f0e-bbd5-f617bb0859b3","ios":"levelo://app?vid=e957ad26-66eb-4f0e-bbd5-f617bb0859b3"},"vehicle_type_id":"4","last_reported":1750604942,"current_range_meters":12400,"station_id":"ce4bhgh2rcd13ifvqfa0","pricing_plan_id":"cebpf4jnsgd1na2vs0mg"},{"bike_id":"dcf2f8dd-68ea-4b6f-adad-8f0375fb4780","system_id":"levelo_inurba_marseille","lat":43.26216,"lon":5.37417,"is_reserved":false,"is_disabled":false,"rental_uris":{"android":"levelo://app?vid=dcf2f8dd-68ea-4b6f-adad-8f0375fb4780","ios":"levelo://app?vid=dcf2f8dd-68ea-4b6f-adad-8f0375fb4780"},"vehicle_type_id":"4","last_reported":1750604942,"current_range_meters":12400,"station_id":"ce4bhgp2rcd13ifvqfc0","pricing_plan_id":"cebpf4jnsgd1na2vs0mg"},{"bike_id":"e2cd70a6-cac8-4fff-825c-092c24bf4f8c","system_id":"levelo_inurba_marseille","lat":43.239689,"lon":5.366301,"is_reserved":false,"is_disabled":false,"rental_uris":{"android":"levelo://app?vid=e2cd70a6-cac8-4fff-825c-092c24bf4f8c","ios":"levelo://app?vid=e2cd70a6-cac8-4fff-825c-092c24bf4f8c"},"vehicle_type_id":"4","last_reported":1750604942,"current_range_meters":12400,"station_id":"ce4bhi12rcd13ifvqfp0","pricing_plan_id":"cebpf4jnsgd1na2vs0mg"},{"bike_id":"eb8e0445-594f-44a0-85cb-9b475413e1ad","system_id":"levelo_inurba_marseille","lat":43.29548,"lon":5.4229,"is_reserved":false,"is_disabled":false,"rental_uris":{"android":"levelo://app?vid=eb8e0445-594f-44a0-85cb-9b475413e1ad","ios":"levelo://app?vid=eb8e0445-594f-44a0-85cb-9b475413e1ad"},"vehicle_type_id":"4","last_reported":1750604942,"current_range_meters":12400,"station_id":"ce4bhph2rcd13ifvqhdg","pricing_plan_id":"cebpf4jnsgd1na2vs0mg"},{"bike_id":"4bc4f8a4-a961-4a4e-b49b-e8c235b4ba74","system_id":"levelo_inurba_marseille","lat":43.21747,"lon":5.3461,"is_reserved":false,"is_disabled":false,"rental_uris":{"android":"levelo://app?vid=4bc4f8a4-a961-4a4e-b49b-e8c235b4ba74","ios":"levelo://app?vid=4bc4f8a4-a961-4a4e-b49b-e8c235b4ba74"},"vehicle_type_id":"4","last_reported":1750604942,"current_range_meters":12400,"station_id":"st_cvj6r9ubvosntc0bgbag","pricing_plan_id":"cebpf4jnsgd1na2vs0mg"},{"bike_id":"a9e5e555-fdaf-49c0-b286-f0f2659b17d0","system_id":"levelo_inurba_marseille","lat":43.28359,"lon":5.43208,"is_reserved":false,"is_disabled":false,"rental_uris":{"android":"levelo://app?vid=a9e5e555-fdaf-49c0-b286-f0f2659b17d0","ios":"levelo://app?vid=a9e5e555-fdaf-49c0-b286-f0f2659b17d0"},"vehicle_type_id":"4","last_reported":1750604942,"current_range_meters":12800,"station_id":"","pricing_plan_id":"cebpf4jnsgd1na2vs0mg"},{"bike_id":"1b8b7670-81d0-449f-9dd8-cc210611eb9d","system_id":"levelo_inurba_marseille","lat":43.28418,"lon":5.34991,"is_reserved":false,"is_disabled":false,"rental_uris":{"android":"levelo://app?vid=1b8b7670-81d0-449f-9dd8-cc210611eb9d","ios":"levelo://app?vid=1b8b7670-81d0-449f-9dd8-cc210611eb9d"},"vehicle_type_id":"4","last_reported":1750604942,"current_range_meters":12800,"station_id":"ce4bhbh2rcd13ifvqepg","pricing_plan_id":"cebpf4jnsgd1na2vs0mg"},{"bike_id":"3da8262f-797d-4e1c-a66b-1c864b58cc46","system_id":"levelo_inurba_marseille","lat":43.239687,"lon":5.366109,"is_reserved":false,"is_disabled":false,"rental_uris":{"android":"levelo://app?vid=3da8262f-797d-4e1c-a66b-1c864b58cc46","ios":"levelo://app?vid=3da8262f-797d-4e1c-a66b-1c864b58cc46"},"vehicle_type_id":"4","last_reported":1750604942,"current_range_meters":12800,"station_id":"ce4bhi12rcd13ifvqfp0","pricing_plan_id":"cebpf4jnsgd1na2vs0mg"},{"bike_id":"c6ce529e-50db-43ac-9727-6dd531cecf53","system_id":"levelo_inurba_marseille","lat":43.2315,"lon":5.43699,"is_reserved":false,"is_disabled":false,"rental_uris":{"android":"levelo://app?vid=c6ce529e-50db-43ac-9727-6dd531cecf53","ios":"levelo://app?vid=c6ce529e-50db-43ac-9727-6dd531cecf53"},"vehicle_type_id":"4","last_reported":1750604942,"current_range_meters":12800,"station_id":"ce4bhmp2rcd13ifvqgog","pricing_plan_id":"cebpf4jnsgd1na2vs0mg"},{"bike_id":"ac672664-2bcb-4fee-82c4-756f19f6e113","system_id":"levelo_inurba_marseille","lat":43.28172,"lon":5.42654,"is_reserved":false,"is_disabled":false,"rental_uris":{"android":"levelo://app?vid=ac672664-2bcb-4fee-82c4-756f19f6e113","ios":"levelo://app?vid=ac672664-2bcb-4fee-82c4-756f19f6e113"},"vehicle_type_id":"4","last_reported":1750604942,"current_range_meters":12800,"station_id":"ce4bhnh2rcd13ifvqgug","pricing_plan_id":"cebpf4jnsgd1na2vs0mg"},{"bike_id":"fc1701fb-c8d2-4e92-b4e7-64fbd1db5917","system_id":"levelo_inurba_marseille","lat":43.325424,"lon":5.41431,"is_reserved":false,"is_disabled":false,"rental_uris":{"android":"levelo://app?vid=fc1701fb-c8d2-4e92-b4e7-64fbd1db5917","ios":"levelo://app?vid=fc1701fb-c8d2-4e92-b4e7-64fbd1db5917"},"vehicle_type_id":"4","last_reported":1750604942,"current_range_meters":12800,"station_id":"ce4bhq12rcd13ifvqhhg","pricing_plan_id":"cebpf4jnsgd1na2vs0mg"},{"bike_id":"8a3720dc-f5ab-476e-87dc-d7ca90f8bd30","system_id":"levelo_inurba_marseille","lat":43.28612,"lon":5.37062,"is_reserved":false,"is_disabled":false,"rental_uris":{"android":"levelo://app?vid=8a3720dc-f5ab-476e-87dc-d7ca90f8bd30","ios":"levelo://app?vid=8a3720dc-f5ab-476e-87dc-d7ca90f8bd30"},"vehicle_type_id":"4","last_reported":1750604942,"current_range_meters":12800,"station_id":"ce4bht12rcd13ifvqi60","pricing_plan_id":"cebpf4jnsgd1na2vs0mg"},{"bike_id":"25790cba-7290-4e93-8d5d-484e9f3e44fa","system_id":"levelo_inurba_marseille","lat":43.26947,"lon":5.38626,"is_reserved":false,"is_disabled":false,"rental_uris":{"android":"levelo://app?vid=25790cba-7290-4e93-8d5d-484e9f3e44fa","ios":"levelo://app?vid=25790cba-7290-4e93-8d5d-484e9f3e44fa"},"vehicle_type_id":"4","last_reported":1750604942,"current_range_meters":13600,"station_id":"ce4bhh92rcd13ifvqfh0","pricing_plan_id":"cebpf4jnsgd1na2vs0mg"},{"bike_id":"b557ac4e-7c35-4c68-ac5e-24c2c13cbf6d","system_id":"levelo_inurba_marseille","lat":43.25111,"lon":5.40326,"is_reserved":false,"is_disabled":false,"rental_uris":{"android":"levelo://app?vid=b557ac4e-7c35-4c68-ac5e-24c2c13cbf6d","ios":"levelo://app?vid=b557ac4e-7c35-4c68-ac5e-24c2c13cbf6d"},"vehicle_type_id":"4","last_reported":1750604942,"current_range_meters":13600,"station_id":"ce4bhlh2rcd13ifvqgig","pricing_plan_id":"cebpf4jnsgd1na2vs0mg"},{"bike_id":"6b27f7b8-51cc-4f28-87d5-18fcd331832c","system_id":"levelo_inurba_marseille","lat":43.23194,"lon":5.35566,"is_reserved":false,"is_disabled":false,"rental_uris":{"android":"levelo://app?vid=6b27f7b8-51cc-4f28-87d5-18fcd331832c","ios":"levelo://app?vid=6b27f7b8-51cc-4f28-87d5-18fcd331832c"},"vehicle_type_id":"4","last_reported":1750604942,"current_range_meters":13600,"station_id":"ce4bhu92rcd13ifvqi70","pricing_plan_id":"cebpf4jnsgd1na2vs0mg"},{"bike_id":"301ca1de-5ab6-40c8-802e-4abec08c6c2d","system_id":"levelo_inurba_marseille","lat":43.28142,"lon":5.42648,"is_reserved":false,"is_disabled":false,"rental_uris":{"android":"levelo://app?vid=301ca1de-5ab6-40c8-802e-4abec08c6c2d","ios":"levelo://app?vid=301ca1de-5ab6-40c8-802e-4abec08c6c2d"},"vehicle_type_id":"4","last_reported":1750604942,"current_range_meters":14000,"station_id":"ce4bhnh2rcd13ifvqgug","pricing_plan_id":"cebpf4jnsgd1na2vs0mg"},{"bike_id":"9363287f-6df2-4a2e-9407-f36e5156253d","system_id":"levelo_inurba_marseille","lat":43.24149,"lon":5.36417,"is_reserved":false,"is_disabled":false,"rental_uris":{"android":"levelo://app?vid=9363287f-6df2-4a2e-9407-f36e5156253d","ios":"levelo://app?vid=9363287f-6df2-4a2e-9407-f36e5156253d"},"vehicle_type_id":"4","last_reported":1750604942,"current_range_meters":14000,"station_id":"cpo36qri1sfpv3e86is0","pricing_plan_id":"cebpf4jnsgd1na2vs0mg"},{"bike_id":"f10e38ce-c08a-4001-873a-ec3e8846285a","system_id":"levelo_inurba_marseille","lat":43.32894,"lon":5.38029,"is_reserved":false,"is_disabled":false,"rental_uris":{"android":"levelo://app?vid=f10e38ce-c08a-4001-873a-ec3e8846285a","ios":"levelo://app?vid=f10e38ce-c08a-4001-873a-ec3e8846285a"},"vehicle_type_id":"4","last_reported":1750604942,"current_range_meters":14400,"station_id":"","pricing_plan_id":"cebpf4jnsgd1na2vs0mg"},{"bike_id":"c4165092-bc28-40e9-9c27-976bc3406f4f","system_id":"levelo_inurba_marseille","lat":43.29783,"lon":5.37095,"is_reserved":false,"is_disabled":false,"rental_uris":{"android":"levelo://app?vid=c4165092-bc28-40e9-9c27-976bc3406f4f","ios":"levelo://app?vid=c4165092-bc28-40e9-9c27-976bc3406f4f"},"vehicle_type_id":"4","last_reported":1750604942,"current_range_meters":14400,"station_id":"ce4bgop2rcd13ifvqc1g","pricing_plan_id":"cebpf4jnsgd1na2vs0mg"},{"bike_id":"7b6937df-9911-4114-85be-7284cf1e38fb","system_id":"levelo_inurba_marseille","lat":43.31359,"lon":5.38484,"is_reserved":false,"is_disabled":false,"rental_uris":{"android":"levelo://app?vid=7b6937df-9911-4114-85be-7284cf1e38fb","ios":"levelo://app?vid=7b6937df-9911-4114-85be-7284cf1e38fb"},"vehicle_type_id":"4","last_reported":1750604942,"current_range_meters":14400,"station_id":"ce4bgt92rcd13ifvqcf0","pricing_plan_id":"cebpf4jnsgd1na2vs0mg"},{"bike_id":"ef48c7ef-4e22-4cd4-9ef6-e3ff0f77a60b","system_id":"levelo_inurba_marseille","lat":43.25117,"lon":5.4032,"is_reserved":false,"is_disabled":false,"rental_uris":{"android":"levelo://app?vid=ef48c7ef-4e22-4cd4-9ef6-e3ff0f77a60b","ios":"levelo://app?vid=ef48c7ef-4e22-4cd4-9ef6-e3ff0f77a60b"},"vehicle_type_id":"4","last_reported":1750604942,"current_range_meters":14400,"station_id":"ce4bhlh2rcd13ifvqgig","pricing_plan_id":"cebpf4jnsgd1na2vs0mg"},{"bike_id":"70764641-799a-4261-99bd-903918c1b74a","system_id":"levelo_inurba_marseille","lat":43.32872,"lon":5.38356,"is_reserved":false,"is_disabled":false,"rental_uris":{"android":"levelo://app?vid=70764641-799a-4261-99bd-903918c1b74a","ios":"levelo://app?vid=70764641-799a-4261-99bd-903918c1b74a"},"vehicle_type_id":"4","last_reported":1750604942,"current_range_meters":14800,"station_id":"","pricing_plan_id":"cebpf4jnsgd1na2vs0mg"},{"bike_id":"03570331-698f-46fc-8e54-3a1308937f47","system_id":"levelo_inurba_marseille","lat":43.26186,"lon":5.3747,"is_reserved":false,"is_disabled":false,"rental_uris":{"android":"levelo://app?vid=03570331-698f-46fc-8e54-3a1308937f47","ios":"levelo://app?vid=03570331-698f-46fc-8e54-3a1308937f47"},"vehicle_type_id":"4","last_reported":1750604942,"current_range_meters":14800,"station_id":"ce4bhgp2rcd13ifvqfc0","pricing_plan_id":"cebpf4jnsgd1na2vs0mg"},{"bike_id":"dee38bf7-052a-44ff-8d9b-2ef73b99dcfa","system_id":"levelo_inurba_marseille","lat":43.25497,"lon":5.37653,"is_reserved":false,"is_disabled":false,"rental_uris":{"android":"levelo://app?vid=dee38bf7-052a-44ff-8d9b-2ef73b99dcfa","ios":"levelo://app?vid=dee38bf7-052a-44ff-8d9b-2ef73b99dcfa"},"vehicle_type_id":"4","last_reported":1750604942,"current_range_meters":14800,"station_id":"ce4bhh12rcd13ifvqff0","pricing_plan_id":"cebpf4jnsgd1na2vs0mg"},{"bike_id":"41147ef4-8dc8-4dd0-9239-5b4289f4ad35","system_id":"levelo_inurba_marseille","lat":43.23958,"lon":5.36634,"is_reserved":false,"is_disabled":false,"rental_uris":{"android":"levelo://app?vid=41147ef4-8dc8-4dd0-9239-5b4289f4ad35","ios":"levelo://app?vid=41147ef4-8dc8-4dd0-9239-5b4289f4ad35"},"vehicle_type_id":"4","last_reported":1750604942,"current_range_meters":14800,"station_id":"ce4bhi12rcd13ifvqfp0","pricing_plan_id":"cebpf4jnsgd1na2vs0mg"},{"bike_id":"131ea8ab-a8dc-479c-9b70-2901aaeab53d","system_id":"levelo_inurba_marseille","lat":43.24163,"lon":5.36389,"is_reserved":false,"is_disabled":false,"rental_uris":{"android":"levelo://app?vid=131ea8ab-a8dc-479c-9b70-2901aaeab53d","ios":"levelo://app?vid=131ea8ab-a8dc-479c-9b70-2901aaeab53d"},"vehicle_type_id":"4","last_reported":1750604942,"current_range_meters":14800,"station_id":"cpo36qri1sfpv3e86is0","pricing_plan_id":"cebpf4jnsgd1na2vs0mg"},{"bike_id":"a1f6a6f5-912b-4b03-b917-cd4d1fdab5c3","system_id":"levelo_inurba_marseille","lat":43.24173,"lon":5.36398,"is_reserved":false,"is_disabled":false,"rental_uris":{"android":"levelo://app?vid=a1f6a6f5-912b-4b03-b917-cd4d1fdab5c3","ios":"levelo://app?vid=a1f6a6f5-912b-4b03-b917-cd4d1fdab5c3"},"vehicle_type_id":"4","last_reported":1750604942,"current_range_meters":14800,"station_id":"cpo36qri1sfpv3e86is0","pricing_plan_id":"cebpf4jnsgd1na2vs0mg"},{"bike_id":"1c00ed5c-d23b-4f3b-b478-c16a1e956047","system_id":"levelo_inurba_marseille","lat":43.25528,"lon":5.40958,"is_reserved":false,"is_disabled":false,"rental_uris":{"android":"levelo://app?vid=1c00ed5c-d23b-4f3b-b478-c16a1e956047","ios":"levelo://app?vid=1c00ed5c-d23b-4f3b-b478-c16a1e956047"},"vehicle_type_id":"4","last_reported":1750604942,"current_range_meters":15200,"station_id":"","pricing_plan_id":"cebpf4jnsgd1na2vs0mg"},{"bike_id":"36e20b5b-ed57-467b-8ab0-f4d8a7a2b602","system_id":"levelo_inurba_marseille","lat":43.26228,"lon":5.40471,"is_reserved":false,"is_disabled":false,"rental_uris":{"android":"levelo://app?vid=36e20b5b-ed57-467b-8ab0-f4d8a7a2b602","ios":"levelo://app?vid=36e20b5b-ed57-467b-8ab0-f4d8a7a2b602"},"vehicle_type_id":"4","last_reported":1750604942,"current_range_meters":15200,"station_id":"ce4bhmh2rcd13ifvqgmg","pricing_plan_id":"cebpf4jnsgd1na2vs0mg"},{"bike_id":"97949f71-f9b1-406c-a366-15f981639631","system_id":"levelo_inurba_marseille","lat":43.33603,"lon":5.41022,"is_reserved":false,"is_disabled":false,"rental_uris":{"android":"levelo://app?vid=97949f71-f9b1-406c-a366-15f981639631","ios":"levelo://app?vid=97949f71-f9b1-406c-a366-15f981639631"},"vehicle_type_id":"4","last_reported":1750604942,"current_range_meters":15200,"station_id":"ce4bhqh2rcd13ifvqhmg","pricing_plan_id":"cebpf4jnsgd1na2vs0mg"},{"bike_id":"c293810b-745e-4142-adba-d40ed136f868","system_id":"levelo_inurba_marseille","lat":43.21747,"lon":5.34605,"is_reserved":false,"is_disabled":false,"rental_uris":{"android":"levelo://app?vid=c293810b-745e-4142-adba-d40ed136f868","ios":"levelo://app?vid=c293810b-745e-4142-adba-d40ed136f868"},"vehicle_type_id":"4","last_reported":1750604942,"current_range_meters":15200,"station_id":"st_cvj6r9ubvosntc0bgbag","pricing_plan_id":"cebpf4jnsgd1na2vs0mg"},{"bike_id":"f4f79626-6189-4461-8ee6-5f825c69973d","system_id":"levelo_inurba_marseille","lat":43.21748,"lon":5.34601,"is_reserved":false,"is_disabled":false,"rental_uris":{"android":"levelo://app?vid=f4f79626-6189-4461-8ee6-5f825c69973d","ios":"levelo://app?vid=f4f79626-6189-4461-8ee6-5f825c69973d"},"vehicle_type_id":"4","last_reported":1750604942,"current_range_meters":15200,"station_id":"st_cvj6r9ubvosntc0bgbag","pricing_plan_id":"cebpf4jnsgd1na2vs0mg"},{"bike_id":"189c12ea-c7dd-40da-bdbf-0c43bf151586","system_id":"levelo_inurba_marseille","lat":43.283556,"lon":5.386379,"is_reserved":false,"is_disabled":false,"rental_uris":{"android":"levelo://app?vid=189c12ea-c7dd-40da-bdbf-0c43bf151586","ios":"levelo://app?vid=189c12ea-c7dd-40da-bdbf-0c43bf151586"},"vehicle_type_id":"4","last_reported":1750604942,"current_range_meters":16000,"station_id":"ce4bh492rcd13ifvqdvg","pricing_plan_id":"cebpf4jnsgd1na2vs0mg"},{"bike_id":"3c602d14-fb0b-46c1-8ab6-a37390953826","system_id":"levelo_inurba_marseille","lat":43.26213,"lon":5.37443,"is_reserved":false,"is_disabled":false,"rental_uris":{"android":"levelo://app?vid=3c602d14-fb0b-46c1-8ab6-a37390953826","ios":"levelo://app?vid=3c602d14-fb0b-46c1-8ab6-a37390953826"},"vehicle_type_id":"4","last_reported":1750604942,"current_range_meters":16000,"station_id":"ce4bhgp2rcd13ifvqfc0","pricing_plan_id":"cebpf4jnsgd1na2vs0mg"},{"bike_id":"b97e40a1-c8a9-43e2-9a83-11432e8c1372","system_id":"levelo_inurba_marseille","lat":43.25112,"lon":5.40332,"is_reserved":false,"is_disabled":false,"rental_uris":{"android":"levelo://app?vid=b97e40a1-c8a9-43e2-9a83-11432e8c1372","ios":"levelo://app?vid=b97e40a1-c8a9-43e2-9a83-11432e8c1372"},"vehicle_type_id":"4","last_reported":1750604942,"current_range_meters":16000,"station_id":"ce4bhlh2rcd13ifvqgig","pricing_plan_id":"cebpf4jnsgd1na2vs0mg"},{"bike_id":"c39e11e2-7441-4b60-9e7e-6a100678ea3e","system_id":"levelo_inurba_marseille","lat":43.21741,"lon":5.34624,"is_reserved":false,"is_disabled":false,"rental_uris":{"android":"levelo://app?vid=c39e11e2-7441-4b60-9e7e-6a100678ea3e","ios":"levelo://app?vid=c39e11e2-7441-4b60-9e7e-6a100678ea3e"},"vehicle_type_id":"4","last_reported":1750604942,"current_range_meters":16000,"station_id":"st_cvj6r9ubvosntc0bgbag","pricing_plan_id":"cebpf4jnsgd1na2vs0mg"},{"bike_id":"cfd7d34e-81c9-4b41-9687-525714073580","system_id":"levelo_inurba_marseille","lat":43.32477,"lon":5.38667,"is_reserved":false,"is_disabled":false,"rental_uris":{"android":"levelo://app?vid=cfd7d34e-81c9-4b41-9687-525714073580","ios":"levelo://app?vid=cfd7d34e-81c9-4b41-9687-525714073580"},"vehicle_type_id":"4","last_reported":1750604942,"current_range_meters":16400,"station_id":"","pricing_plan_id":"cebpf4jnsgd1na2vs0mg"},{"bike_id":"83aa6663-2fd5-4a37-92da-222af0ad3b0a","system_id":"levelo_inurba_marseille","lat":43.29934,"lon":5.36562,"is_reserved":false,"is_disabled":false,"rental_uris":{"android":"levelo://app?vid=83aa6663-2fd5-4a37-92da-222af0ad3b0a","ios":"levelo://app?vid=83aa6663-2fd5-4a37-92da-222af0ad3b0a"},"vehicle_type_id":"4","last_reported":1750604942,"current_range_meters":16400,"station_id":"ce4bgm92rcd13ifvqbr0","pricing_plan_id":"cebpf4jnsgd1na2vs0mg"},{"bike_id":"8607fd9f-da94-4744-b97a-8997398d4989","system_id":"levelo_inurba_marseille","lat":43.24675,"lon":5.38153,"is_reserved":false,"is_disabled":false,"rental_uris":{"android":"levelo://app?vid=8607fd9f-da94-4744-b97a-8997398d4989","ios":"levelo://app?vid=8607fd9f-da94-4744-b97a-8997398d4989"},"vehicle_type_id":"4","last_reported":1750604942,"current_range_meters":16400,"station_id":"ce4bhih2rcd13ifvqfr0","pricing_plan_id":"cebpf4jnsgd1na2vs0mg"},{"bike_id":"bb68df3f-135c-4f6b-b658-a61885a9abd7","system_id":"levelo_inurba_marseille","lat":43.30792,"lon":5.43526,"is_reserved":false,"is_disabled":false,"rental_uris":{"android":"levelo://app?vid=bb68df3f-135c-4f6b-b658-a61885a9abd7","ios":"levelo://app?vid=bb68df3f-135c-4f6b-b658-a61885a9abd7"},"vehicle_type_id":"4","last_reported":1750604942,"current_range_meters":16400,"station_id":"ce4bhph2rcd13ifvqheg","pricing_plan_id":"cebpf4jnsgd1na2vs0mg"},{"bike_id":"2b760d42-b8a0-4d2b-933e-f0862fdecabd","system_id":"levelo_inurba_marseille","lat":43.30537,"lon":5.36557,"is_reserved":false,"is_disabled":false,"rental_uris":{"android":"levelo://app?vid=2b760d42-b8a0-4d2b-933e-f0862fdecabd","ios":"levelo://app?vid=2b760d42-b8a0-4d2b-933e-f0862fdecabd"},"vehicle_type_id":"4","last_reported":1750604942,"current_range_meters":16800,"station_id":"ce4bgs12rcd13ifvqcag","pricing_plan_id":"cebpf4jnsgd1na2vs0mg"},{"bike_id":"98def97f-314b-496b-ad79-650932b27c1e","system_id":"levelo_inurba_marseille","lat":43.26211,"lon":5.37443,"is_reserved":false,"is_disabled":false,"rental_uris":{"android":"levelo://app?vid=98def97f-314b-496b-ad79-650932b27c1e","ios":"levelo://app?vid=98def97f-314b-496b-ad79-650932b27c1e"},"vehicle_type_id":"4","last_reported":1750604942,"current_range_meters":16800,"station_id":"ce4bhgp2rcd13ifvqfc0","pricing_plan_id":"cebpf4jnsgd1na2vs0mg"},{"bike_id":"a4d0f19e-d09e-4527-a429-40dfe8d5449c","system_id":"levelo_inurba_marseille","lat":43.26192,"lon":5.3745,"is_reserved":false,"is_disabled":false,"rental_uris":{"android":"levelo://app?vid=a4d0f19e-d09e-4527-a429-40dfe8d5449c","ios":"levelo://app?vid=a4d0f19e-d09e-4527-a429-40dfe8d5449c"},"vehicle_type_id":"4","last_reported":1750604942,"current_range_meters":16800,"station_id":"ce4bhgp2rcd13ifvqfc0","pricing_plan_id":"cebpf4jnsgd1na2vs0mg"},{"bike_id":"deb33a22-c71e-46e8-8444-837a38fbff09","system_id":"levelo_inurba_marseille","lat":43.26208,"lon":5.37442,"is_reserved":false,"is_disabled":false,"rental_uris":{"android":"levelo://app?vid=deb33a22-c71e-46e8-8444-837a38fbff09","ios":"levelo://app?vid=deb33a22-c71e-46e8-8444-837a38fbff09"},"vehicle_type_id":"4","last_reported":1750604942,"current_range_meters":16800,"station_id":"ce4bhgp2rcd13ifvqfc0","pricing_plan_id":"cebpf4jnsgd1na2vs0mg"},{"bike_id":"d8c823da-174d-451e-ba75-f5d5106bae3d","system_id":"levelo_inurba_marseille","lat":43.26223,"lon":5.40364,"is_reserved":false,"is_disabled":false,"rental_uris":{"android":"levelo://app?vid=d8c823da-174d-451e-ba75-f5d5106bae3d","ios":"levelo://app?vid=d8c823da-174d-451e-ba75-f5d5106bae3d"},"vehicle_type_id":"4","last_reported":1750604942,"current_range_meters":16800,"station_id":"ce4bhmh2rcd13ifvqgmg","pricing_plan_id":"cebpf4jnsgd1na2vs0mg"},{"bike_id":"2de8087a-9c49-4629-9564-a1fec90860d1","system_id":"levelo_inurba_marseille","lat":43.33607,"lon":5.41015,"is_reserved":false,"is_disabled":false,"rental_uris":{"android":"levelo://app?vid=2de8087a-9c49-4629-9564-a1fec90860d1","ios":"levelo://app?vid=2de8087a-9c49-4629-9564-a1fec90860d1"},"vehicle_type_id":"4","last_reported":1750604942,"current_range_meters":16800,"station_id":"ce4bhqh2rcd13ifvqhmg","pricing_plan_id":"cebpf4jnsgd1na2vs0mg"},{"bike_id":"f3bcc310-a280-4745-9f55-a0e6260b0cbd","system_id":"levelo_inurba_marseille","lat":43.21723,"lon":5.34628,"is_reserved":false,"is_disabled":false,"rental_uris":{"android":"levelo://app?vid=f3bcc310-a280-4745-9f55-a0e6260b0cbd","ios":"levelo://app?vid=f3bcc310-a280-4745-9f55-a0e6260b0cbd"},"vehicle_type_id":"4","last_reported":1750604942,"current_range_meters":16800,"station_id":"st_cvj6r9ubvosntc0bgbag","pricing_plan_id":"cebpf4jnsgd1na2vs0mg"},{"bike_id":"a7858566-d658-41ac-b103-479c32c0de8f","system_id":"levelo_inurba_marseille","lat":43.21196,"lon":5.35088,"is_reserved":false,"is_disabled":false,"rental_uris":{"android":"levelo://app?vid=a7858566-d658-41ac-b103-479c32c0de8f","ios":"levelo://app?vid=a7858566-d658-41ac-b103-479c32c0de8f"},"vehicle_type_id":"4","last_reported":1750604942,"current_range_meters":16800,"station_id":"st_cvj6sg6p6f1abm77japg","pricing_plan_id":"cebpf4jnsgd1na2vs0mg"},{"bike_id":"b121b815-4832-48cb-be5c-48bedc9fea93","system_id":"levelo_inurba_marseille","lat":43.25688,"lon":5.40955,"is_reserved":false,"is_disabled":false,"rental_uris":{"android":"levelo://app?vid=b121b815-4832-48cb-be5c-48bedc9fea93","ios":"levelo://app?vid=b121b815-4832-48cb-be5c-48bedc9fea93"},"vehicle_type_id":"4","last_reported":1750604942,"current_range_meters":17200,"station_id":"","pricing_plan_id":"cebpf4jnsgd1na2vs0mg"},{"bike_id":"aa788c3f-e4d2-4a5c-9c83-2af34f888d47","system_id":"levelo_inurba_marseille","lat":43.254942,"lon":5.376463,"is_reserved":false,"is_disabled":false,"rental_uris":{"android":"levelo://app?vid=aa788c3f-e4d2-4a5c-9c83-2af34f888d47","ios":"levelo://app?vid=aa788c3f-e4d2-4a5c-9c83-2af34f888d47"},"vehicle_type_id":"4","last_reported":1750604942,"current_range_meters":17200,"station_id":"ce4bhh12rcd13ifvqff0","pricing_plan_id":"cebpf4jnsgd1na2vs0mg"},{"bike_id":"14c99257-8427-4442-aa65-f7263bfb8ec8","system_id":"levelo_inurba_marseille","lat":43.25498,"lon":5.37662,"is_reserved":false,"is_disabled":false,"rental_uris":{"android":"levelo://app?vid=14c99257-8427-4442-aa65-f7263bfb8ec8","ios":"levelo://app?vid=14c99257-8427-4442-aa65-f7263bfb8ec8"},"vehicle_type_id":"4","last_reported":1750604942,"current_range_meters":17200,"station_id":"ce4bhh12rcd13ifvqff0","pricing_plan_id":"cebpf4jnsgd1na2vs0mg"},{"bike_id":"247de6d6-464f-4280-a501-020c0eabf0c5","system_id":"levelo_inurba_marseille","lat":43.24424,"lon":5.37047,"is_reserved":false,"is_disabled":false,"rental_uris":{"android":"levelo://app?vid=247de6d6-464f-4280-a501-020c0eabf0c5","ios":"levelo://app?vid=247de6d6-464f-4280-a501-020c0eabf0c5"},"vehicle_type_id":"4","last_reported":1750604942,"current_range_meters":17200,"station_id":"ce4bhhh2rcd13ifvqfk0","pricing_plan_id":"cebpf4jnsgd1na2vs0mg"},{"bike_id":"8a101407-b05c-414b-8bbf-588cd11760c1","system_id":"levelo_inurba_marseille","lat":43.2582,"lon":5.39445,"is_reserved":false,"is_disabled":false,"rental_uris":{"android":"levelo://app?vid=8a101407-b05c-414b-8bbf-588cd11760c1","ios":"levelo://app?vid=8a101407-b05c-414b-8bbf-588cd11760c1"},"vehicle_type_id":"4","last_reported":1750604942,"current_range_meters":17200,"station_id":"ce4bhip2rcd13ifvqft0","pricing_plan_id":"cebpf4jnsgd1na2vs0mg"},{"bike_id":"d6445367-ef97-4d3d-8a6d-b8b0bfc28181","system_id":"levelo_inurba_marseille","lat":43.24172,"lon":5.36395,"is_reserved":false,"is_disabled":false,"rental_uris":{"android":"levelo://app?vid=d6445367-ef97-4d3d-8a6d-b8b0bfc28181","ios":"levelo://app?vid=d6445367-ef97-4d3d-8a6d-b8b0bfc28181"},"vehicle_type_id":"4","last_reported":1750604942,"current_range_meters":17200,"station_id":"cpo36qri1sfpv3e86is0","pricing_plan_id":"cebpf4jnsgd1na2vs0mg"},{"bike_id":"56ae7983-8a3b-4349-b166-789921242c31","system_id":"levelo_inurba_marseille","lat":43.211954,"lon":5.350746,"is_reserved":false,"is_disabled":false,"rental_uris":{"android":"levelo://app?vid=56ae7983-8a3b-4349-b166-789921242c31","ios":"levelo://app?vid=56ae7983-8a3b-4349-b166-789921242c31"},"vehicle_type_id":"4","last_reported":1750604942,"current_range_meters":17200,"station_id":"st_cvj6sg6p6f1abm77japg","pricing_plan_id":"cebpf4jnsgd1na2vs0mg"},{"bike_id":"1634ba79-1e0f-402e-8615-238d7b091789","system_id":"levelo_inurba_marseille","lat":43.25499,"lon":5.37645,"is_reserved":false,"is_disabled":false,"rental_uris":{"android":"levelo://app?vid=1634ba79-1e0f-402e-8615-238d7b091789","ios":"levelo://app?vid=1634ba79-1e0f-402e-8615-238d7b091789"},"vehicle_type_id":"4","last_reported":1750604942,"current_range_meters":17600,"station_id":"ce4bhh12rcd13ifvqff0","pricing_plan_id":"cebpf4jnsgd1na2vs0mg"},{"bike_id":"cd3fce3f-5d95-475c-9ad0-0df04d20b344","system_id":"levelo_inurba_marseille","lat":43.26554,"lon":5.37285,"is_reserved":false,"is_disabled":false,"rental_uris":{"android":"levelo://app?vid=cd3fce3f-5d95-475c-9ad0-0df04d20b344","ios":"levelo://app?vid=cd3fce3f-5d95-475c-9ad0-0df04d20b344"},"vehicle_type_id":"4","last_reported":1750604942,"current_range_meters":18000,"station_id":"ce4bhg12rcd13ifvqf70","pricing_plan_id":"cebpf4jnsgd1na2vs0mg"},{"bike_id":"8ef031ff-d27f-4af4-a29b-cd944b337ade","system_id":"levelo_inurba_marseille","lat":43.23967,"lon":5.36624,"is_reserved":false,"is_disabled":false,"rental_uris":{"android":"levelo://app?vid=8ef031ff-d27f-4af4-a29b-cd944b337ade","ios":"levelo://app?vid=8ef031ff-d27f-4af4-a29b-cd944b337ade"},"vehicle_type_id":"4","last_reported":1750604942,"current_range_meters":18000,"station_id":"ce4bhi12rcd13ifvqfp0","pricing_plan_id":"cebpf4jnsgd1na2vs0mg"},{"bike_id":"aa73c2fe-6e23-4c24-8432-cb9663b6b586","system_id":"levelo_inurba_marseille","lat":43.26025,"lon":5.37545,"is_reserved":false,"is_disabled":false,"rental_uris":{"android":"levelo://app?vid=aa73c2fe-6e23-4c24-8432-cb9663b6b586","ios":"levelo://app?vid=aa73c2fe-6e23-4c24-8432-cb9663b6b586"},"vehicle_type_id":"4","last_reported":1750604942,"current_range_meters":18800,"station_id":"ce4bhgh2rcd13ifvqfa0","pricing_plan_id":"cebpf4jnsgd1na2vs0mg"},{"bike_id":"af3d763d-480a-4972-a3a8-34f78ee85f3b","system_id":"levelo_inurba_marseille","lat":43.2557,"lon":5.38262,"is_reserved":false,"is_disabled":false,"rental_uris":{"android":"levelo://app?vid=af3d763d-480a-4972-a3a8-34f78ee85f3b","ios":"levelo://app?vid=af3d763d-480a-4972-a3a8-34f78ee85f3b"},"vehicle_type_id":"4","last_reported":1750604942,"current_range_meters":18800,"station_id":"ce4bhih2rcd13ifvqfs0","pricing_plan_id":"cebpf4jnsgd1na2vs0mg"},{"bike_id":"92407afe-2e73-42e5-9701-169e66be890b","system_id":"levelo_inurba_marseille","lat":43.25823,"lon":5.39429,"is_reserved":false,"is_disabled":false,"rental_uris":{"android":"levelo://app?vid=92407afe-2e73-42e5-9701-169e66be890b","ios":"levelo://app?vid=92407afe-2e73-42e5-9701-169e66be890b"},"vehicle_type_id":"4","last_reported":1750604942,"current_range_meters":18800,"station_id":"ce4bhip2rcd13ifvqft0","pricing_plan_id":"cebpf4jnsgd1na2vs0mg"},{"bike_id":"b718e97c-a331-4678-a1b8-94cff2345e10","system_id":"levelo_inurba_marseille","lat":43.271869,"lon":5.391501,"is_reserved":false,"is_disabled":false,"rental_uris":{"android":"levelo://app?vid=b718e97c-a331-4678-a1b8-94cff2345e10","ios":"levelo://app?vid=b718e97c-a331-4678-a1b8-94cff2345e10"},"vehicle_type_id":"4","last_reported":1750604942,"current_range_meters":18800,"station_id":"ce4bhl12rcd13ifvqgf0","pricing_plan_id":"cebpf4jnsgd1na2vs0mg"},{"bike_id":"0bf40f02-a305-40e9-8f74-4d58baf152f5","system_id":"levelo_inurba_marseille","lat":43.23154,"lon":5.437059,"is_reserved":false,"is_disabled":false,"rental_uris":{"android":"levelo://app?vid=0bf40f02-a305-40e9-8f74-4d58baf152f5","ios":"levelo://app?vid=0bf40f02-a305-40e9-8f74-4d58baf152f5"},"vehicle_type_id":"4","last_reported":1750604942,"current_range_meters":18800,"station_id":"ce4bhmp2rcd13ifvqgog","pricing_plan_id":"cebpf4jnsgd1na2vs0mg"},{"bike_id":"e3c98ea9-5ede-4f57-8f11-2e25041a9538","system_id":"levelo_inurba_marseille","lat":43.299,"lon":5.43677,"is_reserved":false,"is_disabled":false,"rental_uris":{"android":"levelo://app?vid=e3c98ea9-5ede-4f57-8f11-2e25041a9538","ios":"levelo://app?vid=e3c98ea9-5ede-4f57-8f11-2e25041a9538"},"vehicle_type_id":"4","last_reported":1750604942,"current_range_meters":18800,"station_id":"ce4bhpp2rcd13ifvqhfg","pricing_plan_id":"cebpf4jnsgd1na2vs0mg"},{"bike_id":"573714aa-8459-4097-bd28-287de04d58fa","system_id":"levelo_inurba_marseille","lat":43.33607,"lon":5.41043,"is_reserved":false,"is_disabled":false,"rental_uris":{"android":"levelo://app?vid=573714aa-8459-4097-bd28-287de04d58fa","ios":"levelo://app?vid=573714aa-8459-4097-bd28-287de04d58fa"},"vehicle_type_id":"4","last_reported":1750604942,"current_range_meters":18800,"station_id":"ce4bhqh2rcd13ifvqhmg","pricing_plan_id":"cebpf4jnsgd1na2vs0mg"},{"bike_id":"5817c670-80c2-4844-a196-1386c955daa4","system_id":"levelo_inurba_marseille","lat":43.25503,"lon":5.3765,"is_reserved":false,"is_disabled":false,"rental_uris":{"android":"levelo://app?vid=5817c670-80c2-4844-a196-1386c955daa4","ios":"levelo://app?vid=5817c670-80c2-4844-a196-1386c955daa4"},"vehicle_type_id":"4","last_reported":1750604942,"current_range_meters":19200,"station_id":"ce4bhh12rcd13ifvqff0","pricing_plan_id":"cebpf4jnsgd1na2vs0mg"},{"bike_id":"3f5feefb-afac-4fae-bf96-2312f50939a4","system_id":"levelo_inurba_marseille","lat":43.21181,"lon":5.35078,"is_reserved":false,"is_disabled":false,"rental_uris":{"android":"levelo://app?vid=3f5feefb-afac-4fae-bf96-2312f50939a4","ios":"levelo://app?vid=3f5feefb-afac-4fae-bf96-2312f50939a4"},"vehicle_type_id":"4","last_reported":1750604942,"current_range_meters":19600,"station_id":"st_cvj6sg6p6f1abm77japg","pricing_plan_id":"cebpf4jnsgd1na2vs0mg"},{"bike_id":"7f4d8d3b-910a-46cb-a6ed-9f849e4e085d","system_id":"levelo_inurba_marseille","lat":43.33016,"lon":5.38013,"is_reserved":false,"is_disabled":false,"rental_uris":{"android":"levelo://app?vid=7f4d8d3b-910a-46cb-a6ed-9f849e4e085d","ios":"levelo://app?vid=7f4d8d3b-910a-46cb-a6ed-9f849e4e085d"},"vehicle_type_id":"4","last_reported":1750604942,"current_range_meters":20000,"station_id":"","pricing_plan_id":"cebpf4jnsgd1na2vs0mg"},{"bike_id":"1c1b4882-46fa-4ae8-bce2-61fede882a56","system_id":"levelo_inurba_marseille","lat":43.27173,"lon":5.40989,"is_reserved":false,"is_disabled":false,"rental_uris":{"android":"levelo://app?vid=1c1b4882-46fa-4ae8-bce2-61fede882a56","ios":"levelo://app?vid=1c1b4882-46fa-4ae8-bce2-61fede882a56"},"vehicle_type_id":"4","last_reported":1750604942,"current_range_meters":20000,"station_id":"ce4bhl12rcd13ifvqgf0","pricing_plan_id":"cebpf4jnsgd1na2vs0mg"},{"bike_id":"d87fcc73-963a-479e-8a55-b8bb71baf2fe","system_id":"levelo_inurba_marseille","lat":43.30793,"lon":5.43529,"is_reserved":false,"is_disabled":false,"rental_uris":{"android":"levelo://app?vid=d87fcc73-963a-479e-8a55-b8bb71baf2fe","ios":"levelo://app?vid=d87fcc73-963a-479e-8a55-b8bb71baf2fe"},"vehicle_type_id":"4","last_reported":1750604942,"current_range_meters":20000,"station_id":"ce4bhph2rcd13ifvqheg","pricing_plan_id":"cebpf4jnsgd1na2vs0mg"},{"bike_id":"d3b4acd1-475d-43e1-bb04-3b5b22c96457","system_id":"levelo_inurba_marseille","lat":43.29887,"lon":5.43681,"is_reserved":false,"is_disabled":false,"rental_uris":{"android":"levelo://app?vid=d3b4acd1-475d-43e1-bb04-3b5b22c96457","ios":"levelo://app?vid=d3b4acd1-475d-43e1-bb04-3b5b22c96457"},"vehicle_type_id":"4","last_reported":1750604942,"current_range_meters":20000,"station_id":"ce4bhpp2rcd13ifvqhfg","pricing_plan_id":"cebpf4jnsgd1na2vs0mg"},{"bike_id":"c3b67a3c-755c-43da-b7f2-a4d8a045bf9d","system_id":"levelo_inurba_marseille","lat":43.21187,"lon":5.35077,"is_reserved":false,"is_disabled":false,"rental_uris":{"android":"levelo://app?vid=c3b67a3c-755c-43da-b7f2-a4d8a045bf9d","ios":"levelo://app?vid=c3b67a3c-755c-43da-b7f2-a4d8a045bf9d"},"vehicle_type_id":"4","last_reported":1750604942,"current_range_meters":20000,"station_id":"st_cvj6sg6p6f1abm77japg","pricing_plan_id":"cebpf4jnsgd1na2vs0mg"},{"bike_id":"4f93454d-d7de-45bb-a8ff-e1efc822483f","system_id":"levelo_inurba_marseille","lat":43.212036,"lon":5.350729,"is_reserved":false,"is_disabled":false,"rental_uris":{"android":"levelo://app?vid=4f93454d-d7de-45bb-a8ff-e1efc822483f","ios":"levelo://app?vid=4f93454d-d7de-45bb-a8ff-e1efc822483f"},"vehicle_type_id":"4","last_reported":1750604942,"current_range_meters":20000,"station_id":"st_cvj6sg6p6f1abm77japg","pricing_plan_id":"cebpf4jnsgd1na2vs0mg"},{"bike_id":"ff359b06-e82b-4518-b602-f9c62162a27d","system_id":"levelo_inurba_marseille","lat":43.2119,"lon":5.3508,"is_reserved":false,"is_disabled":false,"rental_uris":{"android":"levelo://app?vid=ff359b06-e82b-4518-b602-f9c62162a27d","ios":"levelo://app?vid=ff359b06-e82b-4518-b602-f9c62162a27d"},"vehicle_type_id":"4","last_reported":1750604942,"current_range_meters":20400,"station_id":"st_cvj6sg6p6f1abm77japg","pricing_plan_id":"cebpf4jnsgd1na2vs0mg"},{"bike_id":"0783249e-9f70-464a-b769-adb77239d765","system_id":"levelo_inurba_marseille","lat":43.211979,"lon":5.350718,"is_reserved":false,"is_disabled":false,"rental_uris":{"android":"levelo://app?vid=0783249e-9f70-464a-b769-adb77239d765","ios":"levelo://app?vid=0783249e-9f70-464a-b769-adb77239d765"},"vehicle_type_id":"4","last_reported":1750604942,"current_range_meters":20400,"station_id":"st_cvj6sg6p6f1abm77japg","pricing_plan_id":"cebpf4jnsgd1na2vs0mg"},{"bike_id":"466aaf4a-97a6-4dae-bbbd-87b95e43ec8b","system_id":"levelo_inurba_marseille","lat":43.31756,"lon":5.39017,"is_reserved":false,"is_disabled":false,"rental_uris":{"android":"levelo://app?vid=466aaf4a-97a6-4dae-bbbd-87b95e43ec8b","ios":"levelo://app?vid=466aaf4a-97a6-4dae-bbbd-87b95e43ec8b"},"vehicle_type_id":"4","last_reported":1750604942,"current_range_meters":20800,"station_id":"ce4bhqp2rcd13ifvqhng","pricing_plan_id":"cebpf4jnsgd1na2vs0mg"},{"bike_id":"801c2515-e061-4ec1-b305-97c3a566a070","system_id":"levelo_inurba_marseille","lat":43.21176,"lon":5.3507,"is_reserved":false,"is_disabled":false,"rental_uris":{"android":"levelo://app?vid=801c2515-e061-4ec1-b305-97c3a566a070","ios":"levelo://app?vid=801c2515-e061-4ec1-b305-97c3a566a070"},"vehicle_type_id":"4","last_reported":1750604942,"current_range_meters":20800,"station_id":"st_cvj6sg6p6f1abm77japg","pricing_plan_id":"cebpf4jnsgd1na2vs0mg"},{"bike_id":"66fe660e-bbbe-4cd1-b5fb-9344c71cb66e","system_id":"levelo_inurba_marseille","lat":43.212,"lon":5.35066,"is_reserved":false,"is_disabled":false,"rental_uris":{"android":"levelo://app?vid=66fe660e-bbbe-4cd1-b5fb-9344c71cb66e","ios":"levelo://app?vid=66fe660e-bbbe-4cd1-b5fb-9344c71cb66e"},"vehicle_type_id":"4","last_reported":1750604942,"current_range_meters":20800,"station_id":"st_cvj6sg6p6f1abm77japg","pricing_plan_id":"cebpf4jnsgd1na2vs0mg"},{"bike_id":"7bd7ab6e-0284-4340-acb8-397b5bd3427c","system_id":"levelo_inurba_marseille","lat":43.32013,"lon":5.36822,"is_reserved":false,"is_disabled":false,"rental_uris":{"android":"levelo://app?vid=7bd7ab6e-0284-4340-acb8-397b5bd3427c","ios":"levelo://app?vid=7bd7ab6e-0284-4340-acb8-397b5bd3427c"},"vehicle_type_id":"4","last_reported":1750604942,"current_range_meters":21600,"station_id":"","pricing_plan_id":"cebpf4jnsgd1na2vs0mg"},{"bike_id":"b7fe0a2c-ca60-4475-828d-18b7f068db4c","system_id":"levelo_inurba_marseille","lat":43.25492,"lon":5.37649,"is_reserved":false,"is_disabled":false,"rental_uris":{"android":"levelo://app?vid=b7fe0a2c-ca60-4475-828d-18b7f068db4c","ios":"levelo://app?vid=b7fe0a2c-ca60-4475-828d-18b7f068db4c"},"vehicle_type_id":"4","last_reported":1750604942,"current_range_meters":21600,"station_id":"ce4bhh12rcd13ifvqff0","pricing_plan_id":"cebpf4jnsgd1na2vs0mg"},{"bike_id":"ea8c9aa3-8e41-4117-afe5-ea4b2d9a4a9a","system_id":"levelo_inurba_marseille","lat":43.25869,"lon":5.39898,"is_reserved":false,"is_disabled":false,"rental_uris":{"android":"levelo://app?vid=ea8c9aa3-8e41-4117-afe5-ea4b2d9a4a9a","ios":"levelo://app?vid=ea8c9aa3-8e41-4117-afe5-ea4b2d9a4a9a"},"vehicle_type_id":"4","last_reported":1750604942,"current_range_meters":21600,"station_id":"ce4bhl92rcd13ifvqghg","pricing_plan_id":"cebpf4jnsgd1na2vs0mg"},{"bike_id":"dfee5ca5-321b-406a-a1cb-a60e250adc61","system_id":"levelo_inurba_marseille","lat":43.21767,"lon":5.34602,"is_reserved":false,"is_disabled":false,"rental_uris":{"android":"levelo://app?vid=dfee5ca5-321b-406a-a1cb-a60e250adc61","ios":"levelo://app?vid=dfee5ca5-321b-406a-a1cb-a60e250adc61"},"vehicle_type_id":"4","last_reported":1750604942,"current_range_meters":21600,"station_id":"st_cvj6r9ubvosntc0bgbag","pricing_plan_id":"cebpf4jnsgd1na2vs0mg"},{"bike_id":"dd01bfd3-5386-47c6-a056-d8045d1cbf81","system_id":"levelo_inurba_marseille","lat":43.29441,"lon":5.39753,"is_reserved":false,"is_disabled":false,"rental_uris":{"android":"levelo://app?vid=dd01bfd3-5386-47c6-a056-d8045d1cbf81","ios":"levelo://app?vid=dd01bfd3-5386-47c6-a056-d8045d1cbf81"},"vehicle_type_id":"4","last_reported":1750604942,"current_range_meters":22000,"station_id":"ce4bh3h2rcd13ifvqdo0","pricing_plan_id":"cebpf4jnsgd1na2vs0mg"},{"bike_id":"27c86d9b-734a-49b6-9db2-86a853571c96","system_id":"levelo_inurba_marseille","lat":43.21751,"lon":5.34612,"is_reserved":false,"is_disabled":false,"rental_uris":{"android":"levelo://app?vid=27c86d9b-734a-49b6-9db2-86a853571c96","ios":"levelo://app?vid=27c86d9b-734a-49b6-9db2-86a853571c96"},"vehicle_type_id":"4","last_reported":1750604942,"current_range_meters":22000,"station_id":"st_cvj6r9ubvosntc0bgbag","pricing_plan_id":"cebpf4jnsgd1na2vs0mg"},{"bike_id":"bc2bbcf6-575a-4cff-8766-9adb20ceca31","system_id":"levelo_inurba_marseille","lat":43.32077,"lon":5.41517,"is_reserved":false,"is_disabled":false,"rental_uris":{"android":"levelo://app?vid=bc2bbcf6-575a-4cff-8766-9adb20ceca31","ios":"levelo://app?vid=bc2bbcf6-575a-4cff-8766-9adb20ceca31"},"vehicle_type_id":"4","last_reported":1750604942,"current_range_meters":22400,"station_id":"ce4bhq92rcd13ifvqhkg","pricing_plan_id":"cebpf4jnsgd1na2vs0mg"},{"bike_id":"48a45d67-615d-4313-afae-c1c8c1dd1118","system_id":"levelo_inurba_marseille","lat":43.32281,"lon":5.38295,"is_reserved":false,"is_disabled":false,"rental_uris":{"android":"levelo://app?vid=48a45d67-615d-4313-afae-c1c8c1dd1118","ios":"levelo://app?vid=48a45d67-615d-4313-afae-c1c8c1dd1118"},"vehicle_type_id":"4","last_reported":1750604942,"current_range_meters":22400,"station_id":"ce4bhr12rcd13ifvqhqg","pricing_plan_id":"cebpf4jnsgd1na2vs0mg"},{"bike_id":"232ca7d5-c471-4cc6-b1ee-941125969ee7","system_id":"levelo_inurba_marseille","lat":43.21756,"lon":5.34599,"is_reserved":false,"is_disabled":false,"rental_uris":{"android":"levelo://app?vid=232ca7d5-c471-4cc6-b1ee-941125969ee7","ios":"levelo://app?vid=232ca7d5-c471-4cc6-b1ee-941125969ee7"},"vehicle_type_id":"4","last_reported":1750604942,"current_range_meters":22400,"station_id":"st_cvj6r9ubvosntc0bgbag","pricing_plan_id":"cebpf4jnsgd1na2vs0mg"},{"bike_id":"50bacf2f-19bd-405a-94c6-7e89639b1ca5","system_id":"levelo_inurba_marseille","lat":43.299147,"lon":5.436879,"is_reserved":false,"is_disabled":false,"rental_uris":{"android":"levelo://app?vid=50bacf2f-19bd-405a-94c6-7e89639b1ca5","ios":"levelo://app?vid=50bacf2f-19bd-405a-94c6-7e89639b1ca5"},"vehicle_type_id":"4","last_reported":1750604942,"current_range_meters":22800,"station_id":"","pricing_plan_id":"cebpf4jnsgd1na2vs0mg"},{"bike_id":"5fa736a7-401a-4291-971e-10293fa2ffb4","system_id":"levelo_inurba_marseille","lat":43.23956,"lon":5.36633,"is_reserved":false,"is_disabled":false,"rental_uris":{"android":"levelo://app?vid=5fa736a7-401a-4291-971e-10293fa2ffb4","ios":"levelo://app?vid=5fa736a7-401a-4291-971e-10293fa2ffb4"},"vehicle_type_id":"4","last_reported":1750604942,"current_range_meters":22800,"station_id":"ce4bhi12rcd13ifvqfp0","pricing_plan_id":"cebpf4jnsgd1na2vs0mg"},{"bike_id":"4e58eb78-702f-4bc1-b58a-0069c5782265","system_id":"levelo_inurba_marseille","lat":43.23971,"lon":5.366347,"is_reserved":false,"is_disabled":false,"rental_uris":{"android":"levelo://app?vid=4e58eb78-702f-4bc1-b58a-0069c5782265","ios":"levelo://app?vid=4e58eb78-702f-4bc1-b58a-0069c5782265"},"vehicle_type_id":"4","last_reported":1750604942,"current_range_meters":22800,"station_id":"ce4bhi12rcd13ifvqfp0","pricing_plan_id":"cebpf4jnsgd1na2vs0mg"},{"bike_id":"77729ccb-f9b7-49de-aa3f-c1f6cac6c9de","system_id":"levelo_inurba_marseille","lat":43.23192,"lon":5.355616,"is_reserved":false,"is_disabled":false,"rental_uris":{"android":"levelo://app?vid=77729ccb-f9b7-49de-aa3f-c1f6cac6c9de","ios":"levelo://app?vid=77729ccb-f9b7-49de-aa3f-c1f6cac6c9de"},"vehicle_type_id":"4","last_reported":1750604942,"current_range_meters":22800,"station_id":"ce4bhu92rcd13ifvqi70","pricing_plan_id":"cebpf4jnsgd1na2vs0mg"},{"bike_id":"0549df17-3226-494c-a658-3597e6e5034f","system_id":"levelo_inurba_marseille","lat":43.21745,"lon":5.34596,"is_reserved":false,"is_disabled":false,"rental_uris":{"android":"levelo://app?vid=0549df17-3226-494c-a658-3597e6e5034f","ios":"levelo://app?vid=0549df17-3226-494c-a658-3597e6e5034f"},"vehicle_type_id":"4","last_reported":1750604942,"current_range_meters":22800,"station_id":"st_cvj6r9ubvosntc0bgbag","pricing_plan_id":"cebpf4jnsgd1na2vs0mg"},{"bike_id":"7f645385-71ee-4fab-9b34-7befb56d29a6","system_id":"levelo_inurba_marseille","lat":43.21186,"lon":5.35072,"is_reserved":false,"is_disabled":false,"rental_uris":{"android":"levelo://app?vid=7f645385-71ee-4fab-9b34-7befb56d29a6","ios":"levelo://app?vid=7f645385-71ee-4fab-9b34-7befb56d29a6"},"vehicle_type_id":"4","last_reported":1750604942,"current_range_meters":22800,"station_id":"st_cvj6sg6p6f1abm77japg","pricing_plan_id":"cebpf4jnsgd1na2vs0mg"},{"bike_id":"854144b2-066c-44ae-ad97-6bccc321bed3","system_id":"levelo_inurba_marseille","lat":43.21742,"lon":5.34604,"is_reserved":false,"is_disabled":false,"rental_uris":{"android":"levelo://app?vid=854144b2-066c-44ae-ad97-6bccc321bed3","ios":"levelo://app?vid=854144b2-066c-44ae-ad97-6bccc321bed3"},"vehicle_type_id":"4","last_reported":1750604942,"current_range_meters":23200,"station_id":"","pricing_plan_id":"cebpf4jnsgd1na2vs0mg"},{"bike_id":"e938a1b4-e5a3-4b01-91d4-2b93da5beb7f","system_id":"levelo_inurba_marseille","lat":43.229338,"lon":5.353796,"is_reserved":false,"is_disabled":false,"rental_uris":{"android":"levelo://app?vid=e938a1b4-e5a3-4b01-91d4-2b93da5beb7f","ios":"levelo://app?vid=e938a1b4-e5a3-4b01-91d4-2b93da5beb7f"},"vehicle_type_id":"4","last_reported":1750604942,"current_range_meters":23200,"station_id":"cpo3532slgdg3j2ikp40","pricing_plan_id":"cebpf4jnsgd1na2vs0mg"},{"bike_id":"6cee847f-159f-45ce-b91d-8b69d37ae043","system_id":"levelo_inurba_marseille","lat":43.337444,"lon":5.374475,"is_reserved":false,"is_disabled":false,"rental_uris":{"android":"levelo://app?vid=6cee847f-159f-45ce-b91d-8b69d37ae043","ios":"levelo://app?vid=6cee847f-159f-45ce-b91d-8b69d37ae043"},"vehicle_type_id":"4","last_reported":1750604942,"current_range_meters":24000,"station_id":"","pricing_plan_id":"cebpf4jnsgd1na2vs0mg"},{"bike_id":"6ba80795-26da-43fa-ab60-6831760385ff","system_id":"levelo_inurba_marseille","lat":43.32634,"lon":5.41964,"is_reserved":false,"is_disabled":false,"rental_uris":{"android":"levelo://app?vid=6ba80795-26da-43fa-ab60-6831760385ff","ios":"levelo://app?vid=6ba80795-26da-43fa-ab60-6831760385ff"},"vehicle_type_id":"4","last_reported":1750604942,"current_range_meters":24000,"station_id":"","pricing_plan_id":"cebpf4jnsgd1na2vs0mg"},{"bike_id":"f8168b53-6c2f-4fd8-94bf-1d94f40b725b","system_id":"levelo_inurba_marseille","lat":43.26556,"lon":5.37285,"is_reserved":false,"is_disabled":false,"rental_uris":{"android":"levelo://app?vid=f8168b53-6c2f-4fd8-94bf-1d94f40b725b","ios":"levelo://app?vid=f8168b53-6c2f-4fd8-94bf-1d94f40b725b"},"vehicle_type_id":"4","last_reported":1750604942,"current_range_meters":24000,"station_id":"ce4bhg12rcd13ifvqf70","pricing_plan_id":"cebpf4jnsgd1na2vs0mg"},{"bike_id":"8ca334f3-be11-4aa9-8386-60c4e9594b94","system_id":"levelo_inurba_marseille","lat":43.24167,"lon":5.36399,"is_reserved":false,"is_disabled":false,"rental_uris":{"android":"levelo://app?vid=8ca334f3-be11-4aa9-8386-60c4e9594b94","ios":"levelo://app?vid=8ca334f3-be11-4aa9-8386-60c4e9594b94"},"vehicle_type_id":"4","last_reported":1750604942,"current_range_meters":24000,"station_id":"cpo36qri1sfpv3e86is0","pricing_plan_id":"cebpf4jnsgd1na2vs0mg"},{"bike_id":"00b5ccfe-1324-42cc-9cb4-a6169832b34e","system_id":"levelo_inurba_marseille","lat":43.31083,"lon":5.42436,"is_reserved":false,"is_disabled":false,"rental_uris":{"android":"levelo://app?vid=00b5ccfe-1324-42cc-9cb4-a6169832b34e","ios":"levelo://app?vid=00b5ccfe-1324-42cc-9cb4-a6169832b34e"},"vehicle_type_id":"4","last_reported":1750604942,"current_range_meters":24400,"station_id":"ce4bhp92rcd13ifvqhag","pricing_plan_id":"cebpf4jnsgd1na2vs0mg"},{"bike_id":"2afa67f9-e704-44d2-aa9d-76c6d64ac048","system_id":"levelo_inurba_marseille","lat":43.2417,"lon":5.36399,"is_reserved":false,"is_disabled":false,"rental_uris":{"android":"levelo://app?vid=2afa67f9-e704-44d2-aa9d-76c6d64ac048","ios":"levelo://app?vid=2afa67f9-e704-44d2-aa9d-76c6d64ac048"},"vehicle_type_id":"4","last_reported":1750604942,"current_range_meters":24400,"station_id":"cpo36qri1sfpv3e86is0","pricing_plan_id":"cebpf4jnsgd1na2vs0mg"},{"bike_id":"ae07a547-1fe1-4dc8-aeba-9171efcbe43b","system_id":"levelo_inurba_marseille","lat":43.21748,"lon":5.34606,"is_reserved":false,"is_disabled":false,"rental_uris":{"android":"levelo://app?vid=ae07a547-1fe1-4dc8-aeba-9171efcbe43b","ios":"levelo://app?vid=ae07a547-1fe1-4dc8-aeba-9171efcbe43b"},"vehicle_type_id":"4","last_reported":1750604942,"current_range_meters":24400,"station_id":"st_cvj6r9ubvosntc0bgbag","pricing_plan_id":"cebpf4jnsgd1na2vs0mg"},{"bike_id":"f2c5dd66-152f-4d51-abfa-9f421b160dff","system_id":"levelo_inurba_marseille","lat":43.21746,"lon":5.34589,"is_reserved":false,"is_disabled":false,"rental_uris":{"android":"levelo://app?vid=f2c5dd66-152f-4d51-abfa-9f421b160dff","ios":"levelo://app?vid=f2c5dd66-152f-4d51-abfa-9f421b160dff"},"vehicle_type_id":"4","last_reported":1750604942,"current_range_meters":24800,"station_id":"st_cvj6r9ubvosntc0bgbag","pricing_plan_id":"cebpf4jnsgd1na2vs0mg"},{"bike_id":"e19b35d8-62ab-49e5-992b-ff074ed8ed8c","system_id":"levelo_inurba_marseille","lat":43.31686,"lon":5.40476,"is_reserved":false,"is_disabled":false,"rental_uris":{"android":"levelo://app?vid=e19b35d8-62ab-49e5-992b-ff074ed8ed8c","ios":"levelo://app?vid=e19b35d8-62ab-49e5-992b-ff074ed8ed8c"},