{"last_updated":1708366172,"ttl":30,"version":"2.2","data":{"bikes":[{"bike_id":"c8f4694f-39f5-4e17-8c3f-2e8bc92a51a2","system_id":"levelo_inurba_marseille","lat":43.312282,"lon":5.36862,"is_reserved":false,"is_disabled":false,"rental_uris":{"android":"levelo://app?vid=c8f4694f-39f5-4e17-8c3f-2e8bc92a51a2","ios":"levelo://app?vid=c8f4694f-39f5-4e17-8c3f-2e8bc92a51a2"},"vehicle_type_id":"4","last_reported":1708366172,"current_range_meters":0,"station_id":"ce4bgl92rcd13ifvqbq0","pricing_plan_id":"cebpf4jnsgd1na2vs0mg"},{"bike_id":"a2f6aba7-88bc-4a4f-9a4e-4abea56a002e","system_id":"levelo_inurba_marseille","lat":43.305712,"lon":5.365641,"is_reserved":false,"is_disabled":false,"rental_uris":{"android":"levelo://app?vid=a2f6aba7-88bc-4a4f-9a4e-4abea56a002e","ios":"levelo://app?vid=a2f6aba7-88bc-4a4f-9a4e-4abea56a002e"},"vehicle_type_id":"4","last_reported":1708366172,"current_range_meters":10800,"station_id":"ce4bgs12rcd13ifvqcag","pricing_plan_id":"cebpf4jnsgd1na2vs0mg"},{"bike_id":"0208c589-fc9b-440f-b68b-5a3589ae3f3f","system_id":"levelo_inurba_marseille","lat":43.311131,"lon":5.377651,"is_reserved":false,"is_disabled":false,"rental_uris":{"android":"levelo://app?vid=0208c589-fc9b-440f-b68b-5a3589ae3f3f","ios":"levelo://app?vid=0208c589-fc9b-440f-b68b-5a3589ae3f3f"},"vehicle_type_id":"4","last_reported":1708366172,"current_range_meters":0,"station_id":"ce4bgt92rcd13ifvqcg0","pricing_plan_id":"cebpf4jnsgd1na2vs0mg"},{"bike_id":"72abd43c-56db-4605-b8c4-157ab0f63cb5","system_id":"levelo_inurba_marseille","lat":43.311131,"lon":5.377651,"is_reserved":false,"is_disabled":false,"rental_uris":{"android":"levelo://app?vid=72abd43c-56db-4605-b8c4-157ab0f63cb5","ios":"levelo://app?vid=72abd43c-56db-4605-b8c4-157ab0f63cb5"},"vehicle_type_id":"4","last_reported":1708366172,"current_range_meters":17600,"station_id":"ce4bgt92rcd13ifvqcg0","pricing_plan_id":"cebpf4jnsgd1na2vs0mg"},{"bike_id":"970d1f0a-229a-4854-9ec8-8e7be0db654b","system_id":"levelo_inurba_marseille","lat":43.307945,"lon":5.376487,"is_reserved":false,"is_disabled":false,"rental_uris":{"android":"levelo://app?vid=970d1f0a-229a-4854-9ec8-8e7be0db654b","ios":"levelo://app?vid=970d1f0a-229a-4854-9ec8-8e7be0db654b"},"vehicle_type_id":"4","last_reported":1708366172,"current_range_meters":13600,"station_id":"ce4bgv92rcd13ifvqcq0","pricing_plan_id":"cebpf4jnsgd1na2vs0mg"},{"bike_id":"c75db5a8-d006-4c31-b5f4-02072de3b192","system_id":"levelo_inurba_marseille","lat":43.307945,"lon":5.376487,"is_reserved":false,"is_disabled":false,"rental_uris":{"android":"levelo://app?vid=c75db5a8-d006-4c31-b5f4-02072de3b192","ios":"levelo://app?vid=c75db5a8-d006-4c31-b5f4-02072de3b192"},"vehicle_type_id":"4","last_reported":1708366172,"current_range_meters":12000,"station_id":"ce4bgv92rcd13ifvqcq0","pricing_plan_id":"cebpf4jnsgd1na2vs0mg"},{"bike_id":"f032918f-df29-4280-8371-4a6349bac197","system_id":"levelo_inurba_marseille","lat":43.307945,"lon":5.376487,"is_reserved":false,"is_disabled":false,"rental_uris":{"android":"levelo://app?vid=f032918f-df29-4280-8371-4a6349bac197","ios":"levelo://app?vid=f032918f-df29-4280-8371-4a6349bac197"},"vehicle_type_id":"4","last_reported":1708366172,"current_range_meters":28400,"station_id":"ce4bgv92rcd13ifvqcq0","pricing_plan_id":"cebpf4jnsgd1na2vs0mg"},{"bike_id":"e0c5de87-e106-4edf-aff2-07cf566329ed","system_id":"levelo_inurba_marseille","lat":43.307945,"lon":5.376487,"is_reserved":false,"is_disabled":false,"rental_uris":{"android":"levelo://app?vid=e0c5de87-e106-4edf-aff2-07cf566329ed","ios":"levelo://app?vid=e0c5de87-e106-4edf-aff2-07cf566329ed"},"vehicle_type_id":"4","last_reported":1708366172,"current_range_meters":11200,"station_id":"ce4bgv92rcd13ifvqcq0","pricing_plan_id":"cebpf4jnsgd1na2vs0mg"},{"bike_id":"77c6e6d2-9c76-4b22-8e9a-837061c2dd1d","system_id":"levelo_inurba_marseille","lat":43.307945,"lon":5.376487,"is_reserved":false,"is_disabled":false,"rental_uris":{"android":"levelo://app?vid=77c6e6d2-9c76-4b22-8e9a-837061c2dd1d","ios":"levelo://app?vid=77c6e6d2-9c76-4b22-8e9a-837061c2dd1d"},"vehicle_type_id":"4","last_reported":1708366172,"current_range_meters":13200,"station_id":"ce4bgv92rcd13ifvqcq0","pricing_plan_id":"cebpf4jnsgd1na2vs0mg"},{"bike_id":"e93332c8-71cb-4a70-a2cb-8dae89f30527","system_id":"levelo_inurba_marseille","lat":43.317075,"lon":5.377367,"is_reserved":false,"is_disabled":false,"rental_uris":{"android":"levelo://app?vid=e93332c8-71cb-4a70-a2cb-8dae89f30527","ios":"levelo://app?vid=e93332c8-71cb-4a70-a2cb-8dae89f30527"},"vehicle_type_id":"4","last_reported":1708366172,"current_range_meters":22400,"station_id":"ce4bgth2rcd13ifvqch0","pricing_plan_id":"cebpf4jnsgd1na2vs0mg"},{"bike_id":"ec6897b8-4570-47ab-8304-5ee71ff4da72","system_id":"levelo_inurba_marseille","lat":43.317013,"lon":5.377505,"is_reserved":false,"is_disabled":false,"rental_uris":{"android":"levelo://app?vid=ec6897b8-4570-47ab-8304-5ee71ff4da72","ios":"levelo://app?vid=ec6897b8-4570-47ab-8304-5ee71ff4da72"},"vehicle_type_id":"4","last_reported":1708366172,"current_range_meters":8400,"station_id":"ce4bgth2rcd13ifvqch0","pricing_plan_id":"cebpf4jnsgd1na2vs0mg"},{"bike_id":"14623ca0-3e69-483e-9a41-7be7b88db399","system_id":"levelo_inurba_marseille","lat":43.315293,"lon":5.380349,"is_reserved":false,"is_disabled":false,"rental_uris":{"android":"levelo://app?vid=14623ca0-3e69-483e-9a41-7be7b88db399","ios":"levelo://app?vid=14623ca0-3e69-483e-9a41-7be7b88db399"},"vehicle_type_id":"4","last_reported":1708366172,"current_range_meters":27200,"station_id":"ce4bhsp2rcd13ifvqi50","pricing_plan_id":"cebpf4jnsgd1na2vs0mg"},{"bike_id":"ba7abea4-7e24-46bb-9b73-93d8ca3e3719","system_id":"levelo_inurba_marseille","lat":43.315293,"lon":5.380349,"is_reserved":false,"is_disabled":false,"rental_uris":{"android":"levelo://app?vid=ba7abea4-7e24-46bb-9b73-93d8ca3e3719","ios":"levelo://app?vid=ba7abea4-7e24-46bb-9b73-93d8ca3e3719"},"vehicle_type_id":"4","last_reported":1708366172,"current_range_meters":30000,"station_id":"ce4bhsp2rcd13ifvqi50","pricing_plan_id":"cebpf4jnsgd1na2vs0mg"},{"bike_id":"851bb78f-5bb9-4747-b47e-fbb6a43efdfb","system_id":"levelo_inurba_marseille","lat":43.315293,"lon":5.380349,"is_reserved":false,"is_disabled":false,"rental_uris":{"android":"levelo://app?vid=851bb78f-5bb9-4747-b47e-fbb6a43efdfb","ios":"levelo://app?vid=851bb78f-5bb9-4747-b47e-fbb6a43efdfb"},"vehicle_type_id":"4","last_reported":1708366172,"current_range_meters":24800,"station_id":"ce4bhsp2rcd13ifvqi50","pricing_plan_id":"cebpf4jnsgd1na2vs0mg"},{"bike_id":"1752714d-a8e4-439f-9657-976b96ac9f06","system_id":"levelo_inurba_marseille","lat":43.301939,"lon":5.366286,"is_reserved":false,"is_disabled":false,"rental_uris":{"android":"levelo://app?vid=1752714d-a8e4-439f-9657-976b96ac9f06","ios":"levelo://app?vid=1752714d-a8e4-439f-9657-976b96ac9f06"},"vehicle_type_id":"4","last_reported":1708366172,"current_range_meters":25600,"station_id":"ce4bgrh2rcd13ifvqc8g","pricing_plan_id":"cebpf4jnsgd1na2vs0mg"},{"bike_id":"40225413-87db-47b8-b9ee-47580c05157a","system_id":"levelo_inurba_marseille","lat":43.301939,"lon":5.366286,"is_reserved":false,"is_disabled":false,"rental_uris":{"android":"levelo://app?vid=40225413-87db-47b8-b9ee-47580c05157a","ios":"levelo://app?vid=40225413-87db-47b8-b9ee-47580c05157a"},"vehicle_type_id":"4","last_reported":1708366172,"current_range_meters":18800,"station_id":"ce4bgrh2rcd13ifvqc8g","pricing_plan_id":"cebpf4jnsgd1na2vs0mg"},{"bike_id":"3ca05d92-9bc2-44d8-a1d0-af5e14339531","system_id":"levelo_inurba_marseille","lat":43.308012,"lon":5.381511,"is_reserved":false,"is_disabled":false,"rental_uris":{"android":"levelo://app?vid=3ca05d92-9bc2-44d8-a1d0-af5e14339531","ios":"levelo://app?vid=3ca05d92-9bc2-44d8-a1d0-af5e14339531"},"vehicle_type_id":"4","last_reported":1708366172,"current_range_meters":12400,"station_id":"ce4bgt12rcd13ifvqce0","pricing_plan_id":"cebpf4jnsgd1na2vs0mg"},{"bike_id":"52096506-a65f-4f1e-bb8b-ef076beac60e","system_id":"levelo_inurba_marseille","lat":43.308012,"lon":5.381511,"is_reserved":false,"is_disabled":false,"rental_uris":{"android":"levelo://app?vid=52096506-a65f-4f1e-bb8b-ef076beac60e","ios":"levelo://app?vid=52096506-a65f-4f1e-bb8b-ef076beac60e"},"vehicle_type_id":"4","last_reported":1708366172,"current_range_meters":22400,"station_id":"ce4bgt12rcd13ifvqce0","pricing_plan_id":"cebpf4jnsgd1na2vs0mg"},{"bike_id":"bafbe007-e508-468a-9c35-93793d85230b","system_id":"levelo_inurba_marseille","lat":43.308012,"lon":5.381511,"is_reserved":false,"is_disabled":false,"rental_uris":{"android":"levelo://app?vid=bafbe007-e508-468a-9c35-93793d85230b","ios":"levelo://app?vid=bafbe007-e508-468a-9c35-93793d85230b"},"vehicle_type_id":"4","last_reported":1708366172,"current_range_meters":0,"station_id":"ce4bgt12rcd13ifvqce0","pricing_plan_id":"cebpf4jnsgd1na2vs0mg"},{"bike_id":"87490b2c-029b-4193-ae31-78151813a181","system_id":"levelo_inurba_marseille","lat":43.308012,"lon":5.381511,"is_reserved":false,"is_disabled":false,"rental_uris":{"android":"levelo://app?vid=87490b2c-029b-4193-ae31-78151813a181","ios":"levelo://app?vid=87490b2c-029b-4193-ae31-78151813a181"},"vehicle_type_id":"4","last_reported":1708366172,"current_range_meters":20400,"station_id":"ce4bgt12rcd13ifvqce0","pricing_plan_id":"cebpf4jnsgd1na2vs0mg"},{"bike_id":"30e0860e-6d58-46b5-9143-018726a8880a","system_id":"levelo_inurba_marseille","lat":43.308012,"lon":5.381511,"is_reserved":false,"is_disabled":false,"rental_uris":{"android":"levelo://app?vid=30e0860e-6d58-46b5-9143-018726a8880a","ios":"levelo://app?vid=30e0860e-6d58-46b5-9143-018726a8880a"},"vehicle_type_id":"4","last_reported":1708366172,"current_range_meters":22800,"station_id":"ce4bgt12rcd13ifvqce0","pricing_plan_id":"cebpf4jnsgd1na2vs0mg"},{"bike_id":"828567cd-2334-4b47-8d99-988d7e4acf51","system_id":"levelo_inurba_marseille","lat":43.308,"lon":5.38158,"is_reserved":false,"is_disabled":false,"rental_uris":{"android":"levelo://app?vid=828567cd-2334-4b47-8d99-988d7e4acf51","ios":"levelo://app?vid=828567cd-2334-4b47-8d99-988d7e4acf51"},"vehicle_type_id":"4","last_reported":1708366172,"current_range_meters":800,"station_id":"ce4bgt12rcd13ifvqce0","pricing_plan_id":"cebpf4jnsgd1na2vs0mg"},{"bike_id":"26bc61fc-347f-4ca8-ba4d-ebe20fc30d58","system_id":"levelo_inurba_marseille","lat":43.30443,"lon":5.378822,"is_reserved":false,"is_disabled":false,"rental_uris":{"android":"levelo://app?vid=26bc61fc-347f-4ca8-ba4d-ebe20fc30d58","ios":"levelo://app?vid=26bc61fc-347f-4ca8-ba4d-ebe20fc30d58"},"vehicle_type_id":"4","last_reported":1708366172,"current_range_meters":2800,"station_id":"ce4bgup2rcd13ifvqcn0","pricing_plan_id":"cebpf4jnsgd1na2vs0mg"},{"bike_id":"13ed5772-d318-40c2-a1ab-114038408622","system_id":"levelo_inurba_marseille","lat":43.324771,"lon":5.36557,"is_reserved":false,"is_disabled":false,"rental_uris":{"android":"levelo://app?vid=13ed5772-d318-40c2-a1ab-114038408622","ios":"levelo://app?vid=13ed5772-d318-40c2-a1ab-114038408622"},"vehicle_type_id":"4","last_reported":1708366172,"current_range_meters":30000,"station_id":"ce4bhs12rcd13ifvqhvg","pricing_plan_id":"cebpf4jnsgd1na2vs0mg"},{"bike_id":"2c6c36c9-7e02-4a23-ad99-472b535677b4","system_id":"levelo_inurba_marseille","lat":43.324771,"lon":5.36557,"is_reserved":false,"is_disabled":false,"rental_uris":{"android":"levelo://app?vid=2c6c36c9-7e02-4a23-ad99-472b535677b4","ios":"levelo://app?vid=2c6c36c9-7e02-4a23-ad99-472b535677b4"},"vehicle_type_id":"4","last_reported":1708366172,"current_range_meters":8400,"station_id":"ce4bhs12rcd13ifvqhvg","pricing_plan_id":"cebpf4jnsgd1na2vs0mg"},{"bike_id":"7c66a11a-bea8-4a2a-98be-7794b214389b","system_id":"levelo_inurba_marseille","lat":43.324771,"lon":5.36557,"is_reserved":false,"is_disabled":false,"rental_uris":{"android":"levelo://app?vid=7c66a11a-bea8-4a2a-98be-7794b214389b","ios":"levelo://app?vid=7c66a11a-bea8-4a2a-98be-7794b214389b"},"vehicle_type_id":"4","last_reported":1708366172,"current_range_meters":0,"station_id":"ce4bhs12rcd13ifvqhvg","pricing_plan_id":"cebpf4jnsgd1na2vs0mg"},{"bike_id":"4cd60cd3-101b-4a05-9703-76840434a255","system_id":"levelo_inurba_marseille","lat":43.324771,"lon":5.36557,"is_reserved":false,"is_disabled":false,"rental_uris":{"android":"levelo://app?vid=4cd60cd3-101b-4a05-9703-76840434a255","ios":"levelo://app?vid=4cd60cd3-101b-4a05-9703-76840434a255"},"vehicle_type_id":"4","last_reported":1708366172,"current_range_meters":29200,"station_id":"ce4bhs12rcd13ifvqhvg","pricing_plan_id":"cebpf4jnsgd1na2vs0mg"},{"bike_id":"12b36bd4-2176-4c7e-b0b3-fc74f7095c6a","system_id":"levelo_inurba_marseille","lat":43.32481,"lon":5.36565,"is_reserved":false,"is_disabled":false,"rental_uris":{"android":"levelo://app?vid=12b36bd4-2176-4c7e-b0b3-fc74f7095c6a","ios":"levelo://app?vid=12b36bd4-2176-4c7e-b0b3-fc74f7095c6a"},"vehicle_type_id":"4","last_reported":1708366172,"current_range_meters":0,"station_id":"ce4bhs12rcd13ifvqhvg","pricing_plan_id":"cebpf4jnsgd1na2vs0mg"},{"bike_id":"ab60f61e-1754-4bab-9316-cbca6ab0249d","system_id":"levelo_inurba_marseille","lat":43.324832,"lon":5.365724,"is_reserved":false,"is_disabled":false,"rental_uris":{"android":"levelo://app?vid=ab60f61e-1754-4bab-9316-cbca6ab0249d","ios":"levelo://app?vid=ab60f61e-1754-4bab-9316-cbca6ab0249d"},"vehicle_type_id":"4","last_reported":1708366172,"current_range_meters":16000,"station_id":"ce4bhs12rcd13ifvqhvg","pricing_plan_id":"cebpf4jnsgd1na2vs0mg"},{"bike_id":"a1411f93-559d-4c55-b53d-718f28f579af","system_id":"levelo_inurba_marseille","lat":43.324831,"lon":5.365633,"is_reserved":false,"is_disabled":false,"rental_uris":{"android":"levelo://app?vid=a1411f93-559d-4c55-b53d-718f28f579af","ios":"levelo://app?vid=a1411f93-559d-4c55-b53d-718f28f579af"},"vehicle_type_id":"4","last_reported":1708366172,"current_range_meters":2800,"station_id":"ce4bhs12rcd13ifvqhvg","pricing_plan_id":"cebpf4jnsgd1na2vs0mg"},{"bike_id":"787b97fd-3045-418a-93db-948f0d624107","system_id":"levelo_inurba_marseille","lat":43.324848,"lon":5.365537,"is_reserved":false,"is_disabled":false,"rental_uris":{"android":"levelo://app?vid=787b97fd-3045-418a-93db-948f0d624107","ios":"levelo://app?vid=787b97fd-3045-418a-93db-948f0d624107"},"vehicle_type_id":"4","last_reported":1708366172,"current_range_meters":22000,"station_id":"ce4bhs12rcd13ifvqhvg","pricing_plan_id":"cebpf4jnsgd1na2vs0mg"},{"bike_id":"a8859442-2990-4d4b-af61-72232f79801d","system_id":"levelo_inurba_marseille","lat":43.310804,"lon":5.38359,"is_reserved":false,"is_disabled":false,"rental_uris":{"android":"levelo://app?vid=a8859442-2990-4d4b-af61-72232f79801d","ios":"levelo://app?vid=a8859442-2990-4d4b-af61-72232f79801d"},"vehicle_type_id":"4","last_reported":1708366172,"current_range_meters":1200,"station_id":"ce4bgv92rcd13ifvqcr0","pricing_plan_id":"cebpf4jnsgd1na2vs0mg"},{"bike_id":"5f3727da-be6d-4245-8b7a-5c108328736b","system_id":"levelo_inurba_marseille","lat":43.324771,"lon":5.36557,"is_reserved":false,"is_disabled":false,"rental_uris":{"android":"levelo://app?vid=5f3727da-be6d-4245-8b7a-5c108328736b","ios":"levelo://app?vid=5f3727da-be6d-4245-8b7a-5c108328736b"},"vehicle_type_id":"4","last_reported":1708366172,"current_range_meters":4400,"station_id":"ce4bhs12rcd13ifvqhvg","pricing_plan_id":"cebpf4jnsgd1na2vs0mg"},{"bike_id":"ce870373-b4eb-43e8-a28d-b6968172dfaa","system_id":"levelo_inurba_marseille","lat":43.310804,"lon":5.38359,"is_reserved":false,"is_disabled":false,"rental_uris":{"android":"levelo://app?vid=ce870373-b4eb-43e8-a28d-b6968172dfaa","ios":"levelo://app?vid=ce870373-b4eb-43e8-a28d-b6968172dfaa"},"vehicle_type_id":"4","last_reported":1708366172,"current_range_meters":27600,"station_id":"ce4bgv92rcd13ifvqcr0","pricing_plan_id":"cebpf4jnsgd1na2vs0mg"},{"bike_id":"46c96a5f-10fe-4dee-b5a9-1e1ea83cbf6d","system_id":"levelo_inurba_marseille","lat":43.302784,"lon":5.377158,"is_reserved":false,"is_disabled":false,"rental_uris":{"android":"levelo://app?vid=46c96a5f-10fe-4dee-b5a9-1e1ea83cbf6d","ios":"levelo://app?vid=46c96a5f-10fe-4dee-b5a9-1e1ea83cbf6d"},"vehicle_type_id":"4","last_reported":1708366172,"current_range_meters":5200,"station_id":"ce4bguh2rcd13ifvqcj0","pricing_plan_id":"cebpf4jnsgd1na2vs0mg"},{"bike_id":"2d97ba72-a2b6-4623-9a8a-535f28fc5ec3","system_id":"levelo_inurba_marseille","lat":43.319935,"lon":5.381699,"is_reserved":false,"is_disabled":false,"rental_uris":{"android":"levelo://app?vid=2d97ba72-a2b6-4623-9a8a-535f28fc5ec3","ios":"levelo://app?vid=2d97ba72-a2b6-4623-9a8a-535f28fc5ec3"},"vehicle_type_id":"4","last_reported":1708366172,"current_range_meters":10400,"station_id":"ce4bhr12rcd13ifvqhpg","pricing_plan_id":"cebpf4jnsgd1na2vs0mg"},{"bike_id":"0d56b5bc-de74-438a-9c9e-77037c74bccd","system_id":"levelo_inurba_marseille","lat":43.313647,"lon":5.384887,"is_reserved":false,"is_disabled":false,"rental_uris":{"android":"levelo://app?vid=0d56b5bc-de74-438a-9c9e-77037c74bccd","ios":"levelo://app?vid=0d56b5bc-de74-438a-9c9e-77037c74bccd"},"vehicle_type_id":"4","last_reported":1708366172,"current_range_meters":0,"station_id":"ce4bgt92rcd13ifvqcf0","pricing_plan_id":"cebpf4jnsgd1na2vs0mg"},{"bike_id":"7dc94315-b741-4abe-8a2b-c3a531ed40e2","system_id":"levelo_inurba_marseille","lat":43.313571,"lon":5.384829,"is_reserved":false,"is_disabled":false,"rental_uris":{"android":"levelo://app?vid=7dc94315-b741-4abe-8a2b-c3a531ed40e2","ios":"levelo://app?vid=7dc94315-b741-4abe-8a2b-c3a531ed40e2"},"vehicle_type_id":"4","last_reported":1708366172,"current_range_meters":4800,"station_id":"ce4bgt92rcd13ifvqcf0","pricing_plan_id":"cebpf4jnsgd1na2vs0mg"},{"bike_id":"1905feff-740f-4acf-b945-649dbf3c5c7b","system_id":"levelo_inurba_marseille","lat":43.313571,"lon":5.384829,"is_reserved":false,"is_disabled":false,"rental_uris":{"android":"levelo://app?vid=1905feff-740f-4acf-b945-649dbf3c5c7b","ios":"levelo://app?vid=1905feff-740f-4acf-b945-649dbf3c5c7b"},"vehicle_type_id":"4","last_reported":1708366172,"current_range_meters":2000,"station_id":"ce4bgt92rcd13ifvqcf0","pricing_plan_id":"cebpf4jnsgd1na2vs0mg"},{"bike_id":"33b5e4d6-61ae-4008-b91d-e5f9c5dce45f","system_id":"levelo_inurba_marseille","lat":43.313571,"lon":5.384829,"is_reserved":false,"is_disabled":false,"rental_uris":{"android":"levelo://app?vid=33b5e4d6-61ae-4008-b91d-e5f9c5dce45f","ios":"levelo://app?vid=33b5e4d6-61ae-4008-b91d-e5f9c5dce45f"},"vehicle_type_id":"4","last_reported":1708366172,"current_range_meters":26000,"station_id":"ce4bgt92rcd13ifvqcf0","pricing_plan_id":"cebpf4jnsgd1na2vs0mg"},{"bike_id":"04bf62c4-6547-4405-9474-bb0760741159","system_id":"levelo_inurba_marseille","lat":43.313556,"lon":5.384995,"is_reserved":false,"is_disabled":false,"rental_uris":{"android":"levelo://app?vid=04bf62c4-6547-4405-9474-bb0760741159","ios":"levelo://app?vid=04bf62c4-6547-4405-9474-bb0760741159"},"vehicle_type_id":"4","last_reported":1708366172,"current_range_meters":400,"station_id":"ce4bgt92rcd13ifvqcf0","pricing_plan_id":"cebpf4jnsgd1na2vs0mg"},{"bike_id":"63838351-a6a1-494f-80d2-d6c73201e40e","system_id":"levelo_inurba_marseille","lat":43.31359,"lon":5.38502,"is_reserved":false,"is_disabled":false,"rental_uris":{"android":"levelo://app?vid=63838351-a6a1-494f-80d2-d6c73201e40e","ios":"levelo://app?vid=63838351-a6a1-494f-80d2-d6c73201e40e"},"vehicle_type_id":"4","last_reported":1708366172,"current_range_meters":30000,"station_id":"ce4bgt92rcd13ifvqcf0","pricing_plan_id":"cebpf4jnsgd1na2vs0mg"},{"bike_id":"0256e02c-9bd1-4bc2-8316-e151c18c4971","system_id":"levelo_inurba_marseille","lat":43.313564,"lon":5.38505,"is_reserved":false,"is_disabled":false,"rental_uris":{"android":"levelo://app?vid=0256e02c-9bd1-4bc2-8316-e151c18c4971","ios":"levelo://app?vid=0256e02c-9bd1-4bc2-8316-e151c18c4971"},"vehicle_type_id":"4","last_reported":1708366172,"current_range_meters":23600,"station_id":"ce4bgt92rcd13ifvqcf0","pricing_plan_id":"cebpf4jnsgd1na2vs0mg"},{"bike_id":"4cebb46b-1631-4ee4-a757-33b5b47ed246","system_id":"levelo_inurba_marseille","lat":43.29982,"lon":5.372,"is_reserved":false,"is_disabled":false,"rental_uris":{"android":"levelo://app?vid=4cebb46b-1631-4ee4-a757-33b5b47ed246","ios":"levelo://app?vid=4cebb46b-1631-4ee4-a757-33b5b47ed246"},"vehicle_type_id":"4","last_reported":1708366172,"current_range_meters":0,"station_id":"","pricing_plan_id":"cebpf4jnsgd1na2vs0mg"},{"bike_id":"5c055e44-27f2-4ae6-97ad-32319b8bedc3","system_id":"levelo_inurba_marseille","lat":43.299724,"lon":5.371829,"is_reserved":false,"is_disabled":false,"rental_uris":{"android":"levelo://app?vid=5c055e44-27f2-4ae6-97ad-32319b8bedc3","ios":"levelo://app?vid=5c055e44-27f2-4ae6-97ad-32319b8bedc3"},"vehicle_type_id":"4","last_reported":1708366172,"current_range_meters":28400,"station_id":"ce4bgr92rcd13ifvqc7g","pricing_plan_id":"cebpf4jnsgd1na2vs0mg"},{"bike_id":"cfca795c-3397-4828-8ff4-e8807935a37c","system_id":"levelo_inurba_marseille","lat":43.29974,"lon":5.37181,"is_reserved":false,"is_disabled":false,"rental_uris":{"android":"levelo://app?vid=cfca795c-3397-4828-8ff4-e8807935a37c","ios":"levelo://app?vid=cfca795c-3397-4828-8ff4-e8807935a37c"},"vehicle_type_id":"4","last_reported":1708366172,"current_range_meters":0,"station_id":"ce4bgr92rcd13ifvqc7g","pricing_plan_id":"cebpf4jnsgd1na2vs0mg"},{"bike_id":"5accecd1-5f69-49b6-9ce4-dc0a2d2984fc","system_id":"levelo_inurba_marseille","lat":43.313571,"lon":5.384829,"is_reserved":false,"is_disabled":false,"rental_uris":{"android":"levelo://app?vid=5accecd1-5f69-49b6-9ce4-dc0a2d2984fc","ios":"levelo://app?vid=5accecd1-5f69-49b6-9ce4-dc0a2d2984fc"},"vehicle_type_id":"4","last_reported":1708366172,"current_range_meters":24000,"station_id":"ce4bgt92rcd13ifvqcf0","pricing_plan_id":"cebpf4jnsgd1na2vs0mg"},{"bike_id":"1984c2dc-a1e8-4788-9687-89c4aa96a24c","system_id":"levelo_inurba_marseille","lat":43.29851,"lon":5.36284,"is_reserved":false,"is_disabled":false,"rental_uris":{"android":"levelo://app?vid=1984c2dc-a1e8-4788-9687-89c4aa96a24c","ios":"levelo://app?vid=1984c2dc-a1e8-4788-9687-89c4aa96a24c"},"vehicle_type_id":"4","last_reported":1708366172,"current_range_meters":6800,"station_id":"ce4bgpp2rcd13ifvqc3g","pricing_plan_id":"cebpf4jnsgd1na2vs0mg"},{"bike_id":"632efcec-f0cf-4338-a09f-0de4518ed615","system_id":"levelo_inurba_marseille","lat":43.305364,"lon":5.384119,"is_reserved":false,"is_disabled":false,"rental_uris":{"android":"levelo://app?vid=632efcec-f0cf-4338-a09f-0de4518ed615","ios":"levelo://app?vid=632efcec-f0cf-4338-a09f-0de4518ed615"},"vehicle_type_id":"4","last_reported":1708366172,"current_range_meters":10000,"station_id":"ce4bgg92rcd13ifvqb30","pricing_plan_id":"cebpf4jnsgd1na2vs0mg"},{"bike_id":"a977bfa8-71ac-4964-a23c-a8ab6e24079a","system_id":"levelo_inurba_marseille","lat":43.29849,"lon":5.36287,"is_reserved":false,"is_disabled":false,"rental_uris":{"android":"levelo://app?vid=a977bfa8-71ac-4964-a23c-a8ab6e24079a","ios":"levelo://app?vid=a977bfa8-71ac-4964-a23c-a8ab6e24079a"},"vehicle_type_id":"4","last_reported":1708366172,"current_range_meters":24000,"station_id":"ce4bgpp2rcd13ifvqc3g","pricing_plan_id":"cebpf4jnsgd1na2vs0mg"},{"bike_id":"f23889e2-b424-49bd-939d-636a486be76b","system_id":"levelo_inurba_marseille","lat":43.298433,"lon":5.362774,"is_reserved":false,"is_disabled":false,"rental_uris":{"android":"levelo://app?vid=f23889e2-b424-49bd-939d-636a486be76b","ios":"levelo://app?vid=f23889e2-b424-49bd-939d-636a486be76b"},"vehicle_type_id":"4","last_reported":1708366172,"current_range_meters":18400,"station_id":"ce4bgpp2rcd13ifvqc3g","pricing_plan_id":"cebpf4jnsgd1na2vs0mg"},{"bike_id":"13870e53-d38d-4604-8458-6b2fc0dc61d3","system_id":"levelo_inurba_marseille","lat":43.29846,"lon":5.36284,"is_reserved":false,"is_disabled":false,"rental_uris":{"android":"levelo://app?vid=13870e53-d38d-4604-8458-6b2fc0dc61d3","ios":"levelo://app?vid=13870e53-d38d-4604-8458-6b2fc0dc61d3"},"vehicle_type_id":"4","last_reported":1708366172,"current_range_meters":26000,"station_id":"ce4bgpp2rcd13ifvqc3g","pricing_plan_id":"cebpf4jnsgd1na2vs0mg"},{"bike_id":"afc80820-1c6b-40dd-851d-ec3c427bd9d0","system_id":"levelo_inurba_marseille","lat":43.29846,"lon":5.362825,"is_reserved":false,"is_disabled":false,"rental_uris":{"android":"levelo://app?vid=afc80820-1c6b-40dd-851d-ec3c427bd9d0","ios":"levelo://app?vid=afc80820-1c6b-40dd-851d-ec3c427bd9d0"},"vehicle_type_id":"4","last_reported":1708366172,"current_range_meters":24400,"station_id":"ce4bgpp2rcd13ifvqc3g","pricing_plan_id":"cebpf4jnsgd1na2vs0mg"},{"bike_id":"ebf6c4f0-bd2a-48e2-9229-3ce660774bc4","system_id":"levelo_inurba_marseille","lat":43.298433,"lon":5.362774,"is_reserved":false,"is_disabled":false,"rental_uris":{"android":"levelo://app?vid=ebf6c4f0-bd2a-48e2-9229-3ce660774bc4","ios":"levelo://app?vid=ebf6c4f0-bd2a-48e2-9229-3ce660774bc4"},"vehicle_type_id":"4","last_reported":1708366172,"current_range_meters":24800,"station_id":"ce4bgpp2rcd13ifvqc3g","pricing_plan_id":"cebpf4jnsgd1na2vs0mg"},{"bike_id":"881ed0d4-3051-4972-a914-dfd5422e8bcd","system_id":"levelo_inurba_marseille","lat":43.298433,"lon":5.362774,"is_reserved":false,"is_disabled":false,"rental_uris":{"android":"levelo://app?vid=881ed0d4-3051-4972-a914-dfd5422e8bcd","ios":"levelo://app?vid=881ed0d4-3051-4972-a914-dfd5422e8bcd"},"vehicle_type_id":"4","last_reported":1708366172,"current_range_meters":23200,"station_id":"ce4bgpp2rcd13ifvqc3g","pricing_plan_id":"cebpf4jnsgd1na2vs0mg"},{"bike_id":"c95097af-f56e-4374-b8d4-46ea44cebe25","system_id":"levelo_inurba_marseille","lat":43.298433,"lon":5.362774,"is_reserved":false,"is_disabled":false,"rental_uris":{"android":"levelo://app?vid=c95097af-f56e-4374-b8d4-46ea44cebe25","ios":"levelo://app?vid=c95097af-f56e-4374-b8d4-46ea44cebe25"},"vehicle_type_id":"4","last_reported":1708366172,"current_range_meters":30800,"station_id":"ce4bgpp2rcd13ifvqc3g","pricing_plan_id":"cebpf4jnsgd1na2vs0mg"},{"bike_id":"934e3875-1f37-46e4-93d5-15164e1247d7","system_id":"levelo_inurba_marseille","lat":43.298433,"lon":5.362774,"is_reserved":false,"is_disabled":false,"rental_uris":{"android":"levelo://app?vid=934e3875-1f37-46e4-93d5-15164e1247d7","ios":"levelo://app?vid=934e3875-1f37-46e4-93d5-15164e1247d7"},"vehicle_type_id":"4","last_reported":1708366172,"current_range_meters":15200,"station_id":"ce4bgpp2rcd13ifvqc3g","pricing_plan_id":"cebpf4jnsgd1na2vs0mg"},{"bike_id":"d9d9847d-34d2-4af9-b571-e49aeda8b9c7","system_id":"levelo_inurba_marseille","lat":43.299243,"lon":5.374807,"is_reserved":false,"is_disabled":false,"rental_uris":{"android":"levelo://app?vid=d9d9847d-34d2-4af9-b571-e49aeda8b9c7","ios":"levelo://app?vid=d9d9847d-34d2-4af9-b571-e49aeda8b9c7"},"vehicle_type_id":"4","last_reported":1708366172,"current_range_meters":12400,"station_id":"ce4bgjh2rcd13ifvqbg0","pricing_plan_id":"cebpf4jnsgd1na2vs0mg"},{"bike_id":"4c45f99c-e431-4bf4-b5d9-74c5149901b6","system_id":"levelo_inurba_marseille","lat":43.298433,"lon":5.362774,"is_reserved":false,"is_disabled":false,"rental_uris":{"android":"levelo://app?vid=4c45f99c-e431-4bf4-b5d9-74c5149901b6","ios":"levelo://app?vid=4c45f99c-e431-4bf4-b5d9-74c5149901b6"},"vehicle_type_id":"4","last_reported":1708366172,"current_range_meters":18000,"station_id":"ce4bgpp2rcd13ifvqc3g","pricing_plan_id":"cebpf4jnsgd1na2vs0mg"},{"bike_id":"3bcf2503-34e5-4850-8c55-b0df6d5a2c60","system_id":"levelo_inurba_marseille","lat":43.298433,"lon":5.362774,"is_reserved":false,"is_disabled":false,"rental_uris":{"android":"levelo://app?vid=3bcf2503-34e5-4850-8c55-b0df6d5a2c60","ios":"levelo://app?vid=3bcf2503-34e5-4850-8c55-b0df6d5a2c60"},"vehicle_type_id":"4","last_reported":1708366172,"current_range_meters":21600,"station_id":"ce4bgpp2rcd13ifvqc3g","pricing_plan_id":"cebpf4jnsgd1na2vs0mg"},{"bike_id":"ef5c7914-8e3f-45f1-9827-e955746d5cb8","system_id":"levelo_inurba_marseille","lat":43.29804,"lon":5.36506,"is_reserved":false,"is_disabled":false,"rental_uris":{"android":"levelo://app?vid=ef5c7914-8e3f-45f1-9827-e955746d5cb8","ios":"levelo://app?vid=ef5c7914-8e3f-45f1-9827-e955746d5cb8"},"vehicle_type_id":"4","last_reported":1708366172,"current_range_meters":13600,"station_id":"","pricing_plan_id":"cebpf4jnsgd1na2vs0mg"},{"bike_id":"961533b1-6d6d-4809-a8ff-e8da351d8bd5","system_id":"levelo_inurba_marseille","lat":43.298433,"lon":5.362774,"is_reserved":false,"is_disabled":false,"rental_uris":{"android":"levelo://app?vid=961533b1-6d6d-4809-a8ff-e8da351d8bd5","ios":"levelo://app?vid=961533b1-6d6d-4809-a8ff-e8da351d8bd5"},"vehicle_type_id":"4","last_reported":1708366172,"current_range_meters":0,"station_id":"ce4bgpp2rcd13ifvqc3g","pricing_plan_id":"cebpf4jnsgd1na2vs0mg"},{"bike_id":"a1a91ece-21f6-414a-b3f7-434ae1c5df15","system_id":"levelo_inurba_marseille","lat":43.298433,"lon":5.362774,"is_reserved":false,"is_disabled":false,"rental_uris":{"android":"levelo://app?vid=a1a91ece-21f6-414a-b3f7-434ae1c5df15","ios":"levelo://app?vid=a1a91ece-21f6-414a-b3f7-434ae1c5df15"},"vehicle_type_id":"4","last_reported":1708366172,"current_range_meters":6800,"station_id":"ce4bgpp2rcd13ifvqc3g","pricing_plan_id":"cebpf4jnsgd1na2vs0mg"},{"bike_id":"96e61e83-8944-4a46-b635-7d40ffb86e4f","system_id":"levelo_inurba_marseille","lat":43.298982,"lon":5.375496,"is_reserved":false,"is_disabled":false,"rental_uris":{"android":"levelo://app?vid=96e61e83-8944-4a46-b635-7d40ffb86e4f","ios":"levelo://app?vid=96e61e83-8944-4a46-b635-7d40ffb86e4f"},"vehicle_type_id":"4","last_reported":1708366172,"current_range_meters":0,"station_id":"ce4bgjh2rcd13ifvqbg0","pricing_plan_id":"cebpf4jnsgd1na2vs0mg"},{"bike_id":"e2c30438-2983-4ef4-9134-35c114c604e6","system_id":"levelo_inurba_marseille","lat":43.297794,"lon":5.370888,"is_reserved":false,"is_disabled":false,"rental_uris":{"android":"levelo://app?vid=e2c30438-2983-4ef4-9134-35c114c604e6","ios":"levelo://app?vid=e2c30438-2983-4ef4-9134-35c114c604e6"},"vehicle_type_id":"4","last_reported":1708366172,"current_range_meters":28400,"station_id":"ce4bgop2rcd13ifvqc1g","pricing_plan_id":"cebpf4jnsgd1na2vs0mg"},{"bike_id":"91ab4edd-d149-4ede-888b-4d27f7f91f34","system_id":"levelo_inurba_marseille","lat":43.322872,"lon":5.382756,"is_reserved":false,"is_disabled":false,"rental_uris":{"android":"levelo://app?vid=91ab4edd-d149-4ede-888b-4d27f7f91f34","ios":"levelo://app?vid=91ab4edd-d149-4ede-888b-4d27f7f91f34"},"vehicle_type_id":"4","last_reported":1708366172,"current_range_meters":2000,"station_id":"ce4bhr12rcd13ifvqhqg","pricing_plan_id":"cebpf4jnsgd1na2vs0mg"},{"bike_id":"d026edbc-abfe-4769-8eb1-e1acc923139d","system_id":"levelo_inurba_marseille","lat":43.322872,"lon":5.382756,"is_reserved":false,"is_disabled":false,"rental_uris":{"android":"levelo://app?vid=d026edbc-abfe-4769-8eb1-e1acc923139d","ios":"levelo://app?vid=d026edbc-abfe-4769-8eb1-e1acc923139d"},"vehicle_type_id":"4","last_reported":1708366172,"current_range_meters":22800,"station_id":"ce4bhr12rcd13ifvqhqg","pricing_plan_id":"cebpf4jnsgd1na2vs0mg"},{"bike_id":"9edfbbac-3647-4389-a484-42c4a248ae6c","system_id":"levelo_inurba_marseille","lat":43.322872,"lon":5.382756,"is_reserved":false,"is_disabled":false,"rental_uris":{"android":"levelo://app?vid=9edfbbac-3647-4389-a484-42c4a248ae6c","ios":"levelo://app?vid=9edfbbac-3647-4389-a484-42c4a248ae6c"},"vehicle_type_id":"4","last_reported":1708366172,"current_range_meters":15200,"station_id":"ce4bhr12rcd13ifvqhqg","pricing_plan_id":"cebpf4jnsgd1na2vs0mg"},{"bike_id":"9729317b-16fc-4866-90dd-a757a6b6fbcf","system_id":"levelo_inurba_marseille","lat":43.29529,"lon":5.385581,"is_reserved":false,"is_disabled":false,"rental_uris":{"android":"levelo://app?vid=9729317b-16fc-4866-90dd-a757a6b6fbcf","ios":"levelo://app?vid=9729317b-16fc-4866-90dd-a757a6b6fbcf"},"vehicle_type_id":"4","last_reported":1708366172,"current_range_meters":29200,"station_id":"ce4bgih2rcd13ifvqba0","pricing_plan_id":"cebpf4jnsgd1na2vs0mg"},{"bike_id":"add7985a-15aa-4ecf-aefb-9183c2c5c61d","system_id":"levelo_inurba_marseille","lat":43.29953,"lon":5.379117,"is_reserved":false,"is_disabled":false,"rental_uris":{"android":"levelo://app?vid=add7985a-15aa-4ecf-aefb-9183c2c5c61d","ios":"levelo://app?vid=add7985a-15aa-4ecf-aefb-9183c2c5c61d"},"vehicle_type_id":"4","last_reported":1708366172,"current_range_meters":12000,"station_id":"","pricing_plan_id":"cebpf4jnsgd1na2vs0mg"},{"bike_id":"f02a0f6f-66a6-462e-9e55-3dfdd8fe01d9","system_id":"levelo_inurba_marseille","lat":43.32906,"lon":5.36716,"is_reserved":false,"is_disabled":false,"rental_uris":{"android":"levelo://app?vid=f02a0f6f-66a6-462e-9e55-3dfdd8fe01d9","ios":"levelo://app?vid=f02a0f6f-66a6-462e-9e55-3dfdd8fe01d9"},"vehicle_type_id":"4","last_reported":1708366172,"current_range_meters":2400,"station_id":"","pricing_plan_id":"cebpf4jnsgd1na2vs0mg"},{"bike_id":"694a5248-60bb-45d7-9c14-42153edbda11","system_id":"levelo_inurba_marseille","lat":43.295748,"lon":5.37522,"is_reserved":false,"is_disabled":false,"rental_uris":{"android":"levelo://app?vid=694a5248-60bb-45d7-9c14-42153edbda11","ios":"levelo://app?vid=694a5248-60bb-45d7-9c14-42153edbda11"},"vehicle_type_id":"4","last_reported":1708366172,"current_range_meters":800,"station_id":"ce4bgh92rcd13ifvqb50","pricing_plan_id":"cebpf4jnsgd1na2vs0mg"},{"bike_id":"ed48df6d-91c2-461d-b917-f099937a7a5b","system_id":"levelo_inurba_marseille","lat":43.2968,"lon":5.37291,"is_reserved":false,"is_disabled":false,"rental_uris":{"android":"levelo://app?vid=ed48df6d-91c2-461d-b917-f099937a7a5b","ios":"levelo://app?vid=ed48df6d-91c2-461d-b917-f099937a7a5b"},"vehicle_type_id":"4","last_reported":1708366172,"current_range_meters":7600,"station_id":"ce4bgk12rcd13ifvqbj0","pricing_plan_id":"cebpf4jnsgd1na2vs0mg"},{"bike_id":"6288b525-46ae-45a4-99da-97dc9e3fa0e1","system_id":"levelo_inurba_marseille","lat":43.296098,"lon":5.36811,"is_reserved":false,"is_disabled":false,"rental_uris":{"android":"levelo://app?vid=6288b525-46ae-45a4-99da-97dc9e3fa0e1","ios":"levelo://app?vid=6288b525-46ae-45a4-99da-97dc9e3fa0e1"},"vehicle_type_id":"4","last_reported":1708366172,"current_range_meters":25200,"station_id":"ce4bgph2rcd13ifvqc2g","pricing_plan_id":"cebpf4jnsgd1na2vs0mg"},{"bike_id":"f0d6b3d2-7132-4d68-91de-3412aae2af2d","system_id":"levelo_inurba_marseille","lat":43.296131,"lon":5.370791,"is_reserved":false,"is_disabled":false,"rental_uris":{"android":"levelo://app?vid=f0d6b3d2-7132-4d68-91de-3412aae2af2d","ios":"levelo://app?vid=f0d6b3d2-7132-4d68-91de-3412aae2af2d"},"vehicle_type_id":"4","last_reported":1708366172,"current_range_meters":4800,"station_id":"ce4bgnh2rcd13ifvqc0g","pricing_plan_id":"cebpf4jnsgd1na2vs0mg"},{"bike_id":"93f14e79-d37c-42ed-9ba2-a6abc8e72862","system_id":"levelo_inurba_marseille","lat":43.296131,"lon":5.370773,"is_reserved":false,"is_disabled":false,"rental_uris":{"android":"levelo://app?vid=93f14e79-d37c-42ed-9ba2-a6abc8e72862","ios":"levelo://app?vid=93f14e79-d37c-42ed-9ba2-a6abc8e72862"},"vehicle_type_id":"4","last_reported":1708366172,"current_range_meters":1600,"station_id":"ce4bgnh2rcd13ifvqc0g","pricing_plan_id":"cebpf4jnsgd1na2vs0mg"},{"bike_id":"37fcc3d8-3cb8-4bad-9020-ade9cc3132f1","system_id":"levelo_inurba_marseille","lat":43.296129,"lon":5.370777,"is_reserved":false,"is_disabled":false,"rental_uris":{"android":"levelo://app?vid=37fcc3d8-3cb8-4bad-9020-ade9cc3132f1","ios":"levelo://app?vid=37fcc3d8-3cb8-4bad-9020-ade9cc3132f1"},"vehicle_type_id":"4","last_reported":1708366172,"current_range_meters":4800,"station_id":"ce4bgnh2rcd13ifvqc0g","pricing_plan_id":"cebpf4jnsgd1na2vs0mg"},{"bike_id":"0c97b2e1-92dd-495b-aac7-39d1dbeaa255","system_id":"levelo_inurba_marseille","lat":43.296131,"lon":5.370791,"is_reserved":false,"is_disabled":false,"rental_uris":{"android":"levelo://app?vid=0c97b2e1-92dd-495b-aac7-39d1dbeaa255","ios":"levelo://app?vid=0c97b2e1-92dd-495b-aac7-39d1dbeaa255"},"vehicle_type_id":"4","last_reported":1708366172,"current_range_meters":16400,"station_id":"ce4bgnh2rcd13ifvqc0g","pricing_plan_id":"cebpf4jnsgd1na2vs0mg"},{"bike_id":"cae78cfa-d8dc-43ec-a833-ebfe70a9c319","system_id":"levelo_inurba_marseille","lat":43.299028,"lon":5.381509,"is_reserved":false,"is_disabled":false,"rental_uris":{"android":"levelo://app?vid=cae78cfa-d8dc-43ec-a833-ebfe70a9c319","ios":"levelo://app?vid=cae78cfa-d8dc-43ec-a833-ebfe70a9c319"},"vehicle_type_id":"4","last_reported":1708366172,"current_range_meters":0,"station_id":"ce4bgj12rcd13ifvqbc0","pricing_plan_id":"cebpf4jnsgd1na2vs0mg"},{"bike_id":"537b3d4b-3413-471f-b529-1f5b1c3c3943","system_id":"levelo_inurba_marseille","lat":43.28856,"lon":5.358371,"is_reserved":false,"is_disabled":false,"rental_uris":{"android":"levelo://app?vid=537b3d4b-3413-471f-b529-1f5b1c3c3943","ios":"levelo://app?vid=537b3d4b-3413-471f-b529-1f5b1c3c3943"},"vehicle_type_id":"4","last_reported":1708366172,"current_range_meters":16000,"station_id":"ce4bhb12rcd13ifvqem0","pricing_plan_id":"cebpf4jnsgd1na2vs0mg"},{"bike_id":"ceb62985-d451-47e1-9791-158488095132","system_id":"levelo_inurba_marseille","lat":43.30942,"lon":5.39042,"is_reserved":false,"is_disabled":false,"rental_uris":{"android":"levelo://app?vid=ceb62985-d451-47e1-9791-158488095132","ios":"levelo://app?vid=ceb62985-d451-47e1-9791-158488095132"},"vehicle_type_id":"4","last_reported":1708366172,"current_range_meters":13600,"station_id":"ce4bgup2rcd13ifvqco0","pricing_plan_id":"cebpf4jnsgd1na2vs0mg"},{"bike_id":"7b4e11f5-f977-4468-a90b-115932ed5225","system_id":"levelo_inurba_marseille","lat":43.309462,"lon":5.390442,"is_reserved":false,"is_disabled":false,"rental_uris":{"android":"levelo://app?vid=7b4e11f5-f977-4468-a90b-115932ed5225","ios":"levelo://app?vid=7b4e11f5-f977-4468-a90b-115932ed5225"},"vehicle_type_id":"4","last_reported":1708366172,"current_range_meters":19600,"station_id":"ce4bgup2rcd13ifvqco0","pricing_plan_id":"cebpf4jnsgd1na2vs0mg"},{"bike_id":"9006dcf1-17d3-4031-81c2-9e818b61b918","system_id":"levelo_inurba_marseille","lat":43.317557,"lon":5.390173,"is_reserved":false,"is_disabled":false,"rental_uris":{"android":"levelo://app?vid=9006dcf1-17d3-4031-81c2-9e818b61b918","ios":"levelo://app?vid=9006dcf1-17d3-4031-81c2-9e818b61b918"},"vehicle_type_id":"4","last_reported":1708366172,"current_range_meters":19600,"station_id":"ce4bhqp2rcd13ifvqhng","pricing_plan_id":"cebpf4jnsgd1na2vs0mg"},{"bike_id":"f2666d97-f098-4e8d-948b-6ca5cf2b5347","system_id":"levelo_inurba_marseille","lat":43.317557,"lon":5.390173,"is_reserved":false,"is_disabled":false,"rental_uris":{"android":"levelo://app?vid=f2666d97-f098-4e8d-948b-6ca5cf2b5347","ios":"levelo://app?vid=f2666d97-f098-4e8d-948b-6ca5cf2b5347"},"vehicle_type_id":"4","last_reported":1708366172,"current_range_meters":10800,"station_id":"ce4bhqp2rcd13ifvqhng","pricing_plan_id":"cebpf4jnsgd1na2vs0mg"},{"bike_id":"01d234d0-e8e0-45f8-b8bb-c81cf3e028da","system_id":"levelo_inurba_marseille","lat":43.317557,"lon":5.390173,"is_reserved":false,"is_disabled":false,"rental_uris":{"android":"levelo://app?vid=01d234d0-e8e0-45f8-b8bb-c81cf3e028da","ios":"levelo://app?vid=01d234d0-e8e0-45f8-b8bb-c81cf3e028da"},"vehicle_type_id":"4","last_reported":1708366172,"current_range_meters":30800,"station_id":"ce4bhqp2rcd13ifvqhng","pricing_plan_id":"cebpf4jnsgd1na2vs0mg"},{"bike_id":"a058b8c9-ce73-4233-9ec0-7d21bd3e485a","system_id":"levelo_inurba_marseille","lat":43.317557,"lon":5.390173,"is_reserved":false,"is_disabled":false,"rental_uris":{"android":"levelo://app?vid=a058b8c9-ce73-4233-9ec0-7d21bd3e485a","ios":"levelo://app?vid=a058b8c9-ce73-4233-9ec0-7d21bd3e485a"},"vehicle_type_id":"4","last_reported":1708366172,"current_range_meters":11600,"station_id":"ce4bhqp2rcd13ifvqhng","pricing_plan_id":"cebpf4jnsgd1na2vs0mg"},{"bike_id":"100abef7-d402-49cb-bf2d-c6da49e625ae","system_id":"levelo_inurba_marseille","lat":43.31758,"lon":5.39021,"is_reserved":false,"is_disabled":false,"rental_uris":{"android":"levelo://app?vid=100abef7-d402-49cb-bf2d-c6da49e625ae","ios":"levelo://app?vid=100abef7-d402-49cb-bf2d-c6da49e625ae"},"vehicle_type_id":"4","last_reported":1708366172,"current_range_meters":4800,"station_id":"ce4bhqp2rcd13ifvqhng","pricing_plan_id":"cebpf4jnsgd1na2vs0mg"},{"bike_id":"e3d6a117-f1c2-4286-b6fc-026747e43e8e","system_id":"levelo_inurba_marseille","lat":43.317557,"lon":5.390173,"is_reserved":false,"is_disabled":false,"rental_uris":{"android":"levelo://app?vid=e3d6a117-f1c2-4286-b6fc-026747e43e8e","ios":"levelo://app?vid=e3d6a117-f1c2-4286-b6fc-026747e43e8e"},"vehicle_type_id":"4","last_reported":1708366172,"current_range_meters":17600,"station_id":"ce4bhqp2rcd13ifvqhng","pricing_plan_id":"cebpf4jnsgd1na2vs0mg"},{"bike_id":"396e6eb6-2048-4741-a330-bc77b79958f9","system_id":"levelo_inurba_marseille","lat":43.295748,"lon":5.37522,"is_reserved":false,"is_disabled":false,"rental_uris":{"android":"levelo://app?vid=396e6eb6-2048-4741-a330-bc77b79958f9","ios":"levelo://app?vid=396e6eb6-2048-4741-a330-bc77b79958f9"},"vehicle_type_id":"4","last_reported":1708366172,"current_range_meters":28400,"station_id":"ce4bgh92rcd13ifvqb50","pricing_plan_id":"cebpf4jnsgd1na2vs0mg"},{"bike_id":"87b1588a-b80f-4d18-814c-babf03b9db5c","system_id":"levelo_inurba_marseille","lat":43.304274,"lon":5.388873,"is_reserved":false,"is_disabled":false,"rental_uris":{"android":"levelo://app?vid=87b1588a-b80f-4d18-814c-babf03b9db5c","ios":"levelo://app?vid=87b1588a-b80f-4d18-814c-babf03b9db5c"},"vehicle_type_id":"4","last_reported":1708366172,"current_range_meters":2400,"station_id":"ce4bgk12rcd13ifvqbi0","pricing_plan_id":"cebpf4jnsgd1na2vs0mg"},{"bike_id":"b8ec8921-91ac-40ae-baa1-fa4cbe0685df","system_id":"levelo_inurba_marseille","lat":43.295677,"lon":5.375256,"is_reserved":false,"is_disabled":false,"rental_uris":{"android":"levelo://app?vid=b8ec8921-91ac-40ae-baa1-fa4cbe0685df","ios":"levelo://app?vid=b8ec8921-91ac-40ae-baa1-fa4cbe0685df"},"vehicle_type_id":"4","last_reported":1708366172,"current_range_meters":0,"station_id":"ce4bgh92rcd13ifvqb50","pricing_plan_id":"cebpf4jnsgd1na2vs0mg"},{"bike_id":"f657a811-b645-4123-8a0f-b8d3a9f88696","system_id":"levelo_inurba_marseille","lat":43.290336,"lon":5.386425,"is_reserved":false,"is_disabled":false,"rental_uris":{"android":"levelo://app?vid=f657a811-b645-4123-8a0f-b8d3a9f88696","ios":"levelo://app?vid=f657a811-b645-4123-8a0f-b8d3a9f88696"},"vehicle_type_id":"4","last_reported":1708366172,"current_range_meters":8000,"station_id":"ce4bh4p2rcd13ifvqe0g","pricing_plan_id":"cebpf4jnsgd1na2vs0mg"},{"bike_id":"b76c8541-d24f-46b8-bc64-229287445beb","system_id":"levelo_inurba_marseille","lat":43.299717,"lon":5.384845,"is_reserved":false,"is_disabled":false,"rental_uris":{"android":"levelo://app?vid=b76c8541-d24f-46b8-bc64-229287445beb","ios":"levelo://app?vid=b76c8541-d24f-46b8-bc64-229287445beb"},"vehicle_type_id":"4","last_reported":1708366172,"current_range_meters":15200,"station_id":"ce4bgj92rcd13ifvqbd0","pricing_plan_id":"cebpf4jnsgd1na2vs0mg"},{"bike_id":"d7b57002-cd45-4d57-9e47-e73503f1a4f5","system_id":"levelo_inurba_marseille","lat":43.295279,"lon":5.375012,"is_reserved":false,"is_disabled":false,"rental_uris":{"android":"levelo://app?vid=d7b57002-cd45-4d57-9e47-e73503f1a4f5","ios":"levelo://app?vid=d7b57002-cd45-4d57-9e47-e73503f1a4f5"},"vehicle_type_id":"4","last_reported":1708366172,"current_range_meters":21200,"station_id":"ce4bgkp2rcd13ifvqbmg","pricing_plan_id":"cebpf4jnsgd1na2vs0mg"},{"bike_id":"fbbb1b30-80db-41cf-93b7-9fff62a30271","system_id":"levelo_inurba_marseille","lat":43.299707,"lon":5.384859,"is_reserved":false,"is_disabled":false,"rental_uris":{"android":"levelo://app?vid=fbbb1b30-80db-41cf-93b7-9fff62a30271","ios":"levelo://app?vid=fbbb1b30-80db-41cf-93b7-9fff62a30271"},"vehicle_type_id":"4","last_reported":1708366172,"current_range_meters":0,"station_id":"ce4bgj92rcd13ifvqbd0","pricing_plan_id":"cebpf4jnsgd1na2vs0mg"},{"bike_id":"cb6b27af-08ce-4109-a071-540cbeac9fc6","system_id":"levelo_inurba_marseille","lat":43.299724,"lon":5.384848,"is_reserved":false,"is_disabled":false,"rental_uris":{"android":"levelo://app?vid=cb6b27af-08ce-4109-a071-540cbeac9fc6","ios":"levelo://app?vid=cb6b27af-08ce-4109-a071-540cbeac9fc6"},"vehicle_type_id":"4","last_reported":1708366172,"current_range_meters":6400,"station_id":"ce4bgj92rcd13ifvqbd0","pricing_plan_id":"cebpf4jnsgd1na2vs0mg"},{"bike_id":"44ef87dc-a179-401d-950c-ccae2d2d6329","system_id":"levelo_inurba_marseille","lat":43.304274,"lon":5.388873,"is_reserved":false,"is_disabled":false,"rental_uris":{"android":"levelo://app?vid=44ef87dc-a179-401d-950c-ccae2d2d6329","ios":"levelo://app?vid=44ef87dc-a179-401d-950c-ccae2d2d6329"},"vehicle_type_id":"4","last_reported":1708366172,"current_range_meters":18800,"station_id":"ce4bgk12rcd13ifvqbi0","pricing_plan_id":"cebpf4jnsgd1na2vs0mg"},{"bike_id":"dcfe02ea-9958-43a2-92a8-76ad100669f3","system_id":"levelo_inurba_marseille","lat":43.299724,"lon":5.384848,"is_reserved":false,"is_disabled":false,"rental_uris":{"android":"levelo://app?vid=dcfe02ea-9958-43a2-92a8-76ad100669f3","ios":"levelo://app?vid=dcfe02ea-9958-43a2-92a8-76ad100669f3"},"vehicle_type_id":"4","last_reported":1708366172,"current_range_meters":23200,"station_id":"ce4bgj92rcd13ifvqbd0","pricing_plan_id":"cebpf4jnsgd1na2vs0mg"},{"bike_id":"c5492411-7aee-4227-9b3c-293b15ac4e5c","system_id":"levelo_inurba_marseille","lat":43.299724,"lon":5.384848,"is_reserved":false,"is_disabled":false,"rental_uris":{"android":"levelo://app?vid=c5492411-7aee-4227-9b3c-293b15ac4e5c","ios":"levelo://app?vid=c5492411-7aee-4227-9b3c-293b15ac4e5c"},"vehicle_type_id":"4","last_reported":1708366172,"current_range_meters":8800,"station_id":"ce4bgj92rcd13ifvqbd0","pricing_plan_id":"cebpf4jnsgd1na2vs0mg"},{"bike_id":"b71cbf7e-1ab2-4e25-8694-5716c758701a","system_id":"levelo_inurba_marseille","lat":43.299717,"lon":5.384845,"is_reserved":false,"is_disabled":false,"rental_uris":{"android":"levelo://app?vid=b71cbf7e-1ab2-4e25-8694-5716c758701a","ios":"levelo://app?vid=b71cbf7e-1ab2-4e25-8694-5716c758701a"},"vehicle_type_id":"4","last_reported":1708366172,"current_range_meters":17200,"station_id":"ce4bgj92rcd13ifvqbd0","pricing_plan_id":"cebpf4jnsgd1na2vs0mg"},{"bike_id":"1138bc17-6e0c-43b9-8f9b-dd7abb76c4fd","system_id":"levelo_inurba_marseille","lat":43.299717,"lon":5.384845,"is_reserved":false,"is_disabled":false,"rental_uris":{"android":"levelo://app?vid=1138bc17-6e0c-43b9-8f9b-dd7abb76c4fd","ios":"levelo://app?vid=1138bc17-6e0c-43b9-8f9b-dd7abb76c4fd"},"vehicle_type_id":"4","last_reported":1708366172,"current_range_meters":0,"station_id":"ce4bgj92rcd13ifvqbd0","pricing_plan_id":"cebpf4jnsgd1na2vs0mg"},{"bike_id":"9a639c97-dd72-4cb1-b825-4a59444b5383","system_id":"levelo_inurba_marseille","lat":43.298433,"lon":5.362774,"is_reserved":false,"is_disabled":false,"rental_uris":{"android":"levelo://app?vid=9a639c97-dd72-4cb1-b825-4a59444b5383","ios":"levelo://app?vid=9a639c97-dd72-4cb1-b825-4a59444b5383"},"vehicle_type_id":"4","last_reported":1708366172,"current_range_meters":800,"station_id":"ce4bgpp2rcd13ifvqc3g","pricing_plan_id":"cebpf4jnsgd1na2vs0mg"},{"bike_id":"394cbb56-9b06-4da0-8990-0c121bd25dc1","system_id":"levelo_inurba_marseille","lat":43.32367,"lon":5.388836,"is_reserved":false,"is_disabled":false,"rental_uris":{"android":"levelo://app?vid=394cbb56-9b06-4da0-8990-0c121bd25dc1","ios":"levelo://app?vid=394cbb56-9b06-4da0-8990-0c121bd25dc1"},"vehicle_type_id":"4","last_reported":1708366172,"current_range_meters":5600,"station_id":"ce4bhqp2rcd13ifvqhog","pricing_plan_id":"cebpf4jnsgd1na2vs0mg"},{"bike_id":"14b2adbd-de5e-493a-919f-cb01d90fdaa2","system_id":"levelo_inurba_marseille","lat":43.32368,"lon":5.38887,"is_reserved":false,"is_disabled":false,"rental_uris":{"android":"levelo://app?vid=14b2adbd-de5e-493a-919f-cb01d90fdaa2","ios":"levelo://app?vid=14b2adbd-de5e-493a-919f-cb01d90fdaa2"},"vehicle_type_id":"4","last_reported":1708366172,"current_range_meters":12800,"station_id":"ce4bhqp2rcd13ifvqhog","pricing_plan_id":"cebpf4jnsgd1na2vs0mg"},{"bike_id":"976c4250-cb72-4538-ab28-c09a796c9a8b","system_id":"levelo_inurba_marseille","lat":43.29635,"lon":5.38135,"is_reserved":false,"is_disabled":false,"rental_uris":{"android":"levelo://app?vid=976c4250-cb72-4538-ab28-c09a796c9a8b","ios":"levelo://app?vid=976c4250-cb72-4538-ab28-c09a796c9a8b"},"vehicle_type_id":"4","last_reported":1708366172,"current_range_meters":9200,"station_id":"ce4bgl12rcd13ifvqbo0","pricing_plan_id":"cebpf4jnsgd1na2vs0mg"},{"bike_id":"738165c3-c7a3-41fc-b8e2-4f3ca962e8e2","system_id":"levelo_inurba_marseille","lat":43.293249,"lon":5.371578,"is_reserved":false,"is_disabled":false,"rental_uris":{"android":"levelo://app?vid=738165c3-c7a3-41fc-b8e2-4f3ca962e8e2","ios":"levelo://app?vid=738165c3-c7a3-41fc-b8e2-4f3ca962e8e2"},"vehicle_type_id":"4","last_reported":1708366172,"current_range_meters":22800,"station_id":"ce4bgh92rcd13ifvqb40","pricing_plan_id":"cebpf4jnsgd1na2vs0mg"},{"bike_id":"0d5ad65d-8c73-41a2-9b74-ad2b8c3f24d6","system_id":"levelo_inurba_marseille","lat":43.293249,"lon":5.371578,"is_reserved":false,"is_disabled":false,"rental_uris":{"android":"levelo://app?vid=0d5ad65d-8c73-41a2-9b74-ad2b8c3f24d6","ios":"levelo://app?vid=0d5ad65d-8c73-41a2-9b74-ad2b8c3f24d6"},"vehicle_type_id":"4","last_reported":1708366172,"current_range_meters":3200,"station_id":"ce4bgh92rcd13ifvqb40","pricing_plan_id":"cebpf4jnsgd1na2vs0mg"},{"bike_id":"05473435-ad65-4900-8f56-1f03d887f9de","system_id":"levelo_inurba_marseille","lat":43.292749,"lon":5.368402,"is_reserved":false,"is_disabled":false,"rental_uris":{"android":"levelo://app?vid=05473435-ad65-4900-8f56-1f03d887f9de","ios":"levelo://app?vid=05473435-ad65-4900-8f56-1f03d887f9de"},"vehicle_type_id":"4","last_reported":1708366172,"current_range_meters":15200,"station_id":"ce4bhbp2rcd13ifvqesg","pricing_plan_id":"cebpf4jnsgd1na2vs0mg"},{"bike_id":"39874c9c-e271-4588-a67e-047443b8a6bf","system_id":"levelo_inurba_marseille","lat":43.292749,"lon":5.368402,"is_reserved":false,"is_disabled":false,"rental_uris":{"android":"levelo://app?vid=39874c9c-e271-4588-a67e-047443b8a6bf","ios":"levelo://app?vid=39874c9c-e271-4588-a67e-047443b8a6bf"},"vehicle_type_id":"4","last_reported":1708366172,"current_range_meters":12400,"station_id":"ce4bhbp2rcd13ifvqesg","pricing_plan_id":"cebpf4jnsgd1na2vs0mg"},{"bike_id":"cd28783c-f1fd-4672-8a78-31d8cb8326e7","system_id":"levelo_inurba_marseille","lat":43.292749,"lon":5.368402,"is_reserved":false,"is_disabled":false,"rental_uris":{"android":"levelo://app?vid=cd28783c-f1fd-4672-8a78-31d8cb8326e7","ios":"levelo://app?vid=cd28783c-f1fd-4672-8a78-31d8cb8326e7"},"vehicle_type_id":"4","last_reported":1708366172,"current_range_meters":16800,"station_id":"ce4bhbp2rcd13ifvqesg","pricing_plan_id":"cebpf4jnsgd1na2vs0mg"},{"bike_id":"eafd243c-44da-4d34-8da5-1a7c3cba0781","system_id":"levelo_inurba_marseille","lat":43.293259,"lon":5.371586,"is_reserved":false,"is_disabled":false,"rental_uris":{"android":"levelo://app?vid=eafd243c-44da-4d34-8da5-1a7c3cba0781","ios":"levelo://app?vid=eafd243c-44da-4d34-8da5-1a7c3cba0781"},"vehicle_type_id":"4","last_reported":1708366172,"current_range_meters":8800,"station_id":"ce4bgh92rcd13ifvqb40","pricing_plan_id":"cebpf4jnsgd1na2vs0mg"},{"bike_id":"5700f29d-ec6c-45a4-9d25-f0d3d7fbe099","system_id":"levelo_inurba_marseille","lat":43.293259,"lon":5.371586,"is_reserved":false,"is_disabled":false,"rental_uris":{"android":"levelo://app?vid=5700f29d-ec6c-45a4-9d25-f0d3d7fbe099","ios":"levelo://app?vid=5700f29d-ec6c-45a4-9d25-f0d3d7fbe099"},"vehicle_type_id":"4","last_reported":1708366172,"current_range_meters":23600,"station_id":"ce4bgh92rcd13ifvqb40","pricing_plan_id":"cebpf4jnsgd1na2vs0mg"},{"bike_id":"b9bb1226-e8e6-448d-97a4-edd293c4266d","system_id":"levelo_inurba_marseille","lat":43.292749,"lon":5.368402,"is_reserved":false,"is_disabled":false,"rental_uris":{"android":"levelo://app?vid=b9bb1226-e8e6-448d-97a4-edd293c4266d","ios":"levelo://app?vid=b9bb1226-e8e6-448d-97a4-edd293c4266d"},"vehicle_type_id":"4","last_reported":1708366172,"current_range_meters":17200,"station_id":"ce4bhbp2rcd13ifvqesg","pricing_plan_id":"cebpf4jnsgd1na2vs0mg"},{"bike_id":"cecd75e9-92d1-41df-9a74-5a6e34876066","system_id":"levelo_inurba_marseille","lat":43.292749,"lon":5.368402,"is_reserved":false,"is_disabled":false,"rental_uris":{"android":"levelo://app?vid=cecd75e9-92d1-41df-9a74-5a6e34876066","ios":"levelo://app?vid=cecd75e9-92d1-41df-9a74-5a6e34876066"},"vehicle_type_id":"4","last_reported":1708366172,"current_range_meters":26400,"station_id":"ce4bhbp2rcd13ifvqesg","pricing_plan_id":"cebpf4jnsgd1na2vs0mg"},{"bike_id":"81cb31c9-64a2-4ed6-ab24-b0b6968e25f8","system_id":"levelo_inurba_marseille","lat":43.292749,"lon":5.368402,"is_reserved":false,"is_disabled":false,"rental_uris":{"android":"levelo://app?vid=81cb31c9-64a2-4ed6-ab24-b0b6968e25f8","ios":"levelo://app?vid=81cb31c9-64a2-4ed6-ab24-b0b6968e25f8"},"vehicle_type_id":"4","last_reported":1708366172,"current_range_meters":6400,"station_id":"ce4bhbp2rcd13ifvqesg","pricing_plan_id":"cebpf4jnsgd1na2vs0mg"},{"bike_id":"abe7d0a2-2080-4dab-84e2-41db18473abb","system_id":"levelo_inurba_marseille","lat":43.292749,"lon":5.368402,"is_reserved":false,"is_disabled":false,"rental_uris":{"android":"levelo://app?vid=abe7d0a2-2080-4dab-84e2-41db18473abb","ios":"levelo://app?vid=abe7d0a2-2080-4dab-84e2-41db18473abb"},"vehicle_type_id":"4","last_reported":1708366172,"current_range_meters":1600,"station_id":"ce4bhbp2rcd13ifvqesg","pricing_plan_id":"cebpf4jnsgd1na2vs0mg"},{"bike_id":"2cefa430-0071-4b80-9a72-3bbc0b92fb78","system_id":"levelo_inurba_marseille","lat":43.292749,"lon":5.368402,"is_reserved":false,"is_disabled":false,"rental_uris":{"android":"levelo://app?vid=2cefa430-0071-4b80-9a72-3bbc0b92fb78","ios":"levelo://app?vid=2cefa430-0071-4b80-9a72-3bbc0b92fb78"},"vehicle_type_id":"4","last_reported":1708366172,"current_range_meters":0,"station_id":"ce4bhbp2rcd13ifvqesg","pricing_plan_id":"cebpf4jnsgd1na2vs0mg"},{"bike_id":"a356a71d-8723-493e-8dd7-0d2f4f5a935a","system_id":"levelo_inurba_marseille","lat":43.31255,"lon":5.39482,"is_reserved":false,"is_disabled":false,"rental_uris":{"android":"levelo://app?vid=a356a71d-8723-493e-8dd7-0d2f4f5a935a","ios":"levelo://app?vid=a356a71d-8723-493e-8dd7-0d2f4f5a935a"},"vehicle_type_id":"4","last_reported":1708366172,"current_range_meters":17600,"station_id":"","pricing_plan_id":"cebpf4jnsgd1na2vs0mg"},{"bike_id":"38704a79-4b6a-451b-8909-592c1ab67122","system_id":"levelo_inurba_marseille","lat":43.29295,"lon":5.37452,"is_reserved":false,"is_disabled":false,"rental_uris":{"android":"levelo://app?vid=38704a79-4b6a-451b-8909-592c1ab67122","ios":"levelo://app?vid=38704a79-4b6a-451b-8909-592c1ab67122"},"vehicle_type_id":"4","last_reported":1708366172,"current_range_meters":23200,"station_id":"ce4bgi12rcd13ifvqb70","pricing_plan_id":"cebpf4jnsgd1na2vs0mg"},{"bike_id":"1449629c-8b8d-4ba2-baa0-04dcc5438063","system_id":"levelo_inurba_marseille","lat":43.305994,"lon":5.393687,"is_reserved":false,"is_disabled":false,"rental_uris":{"android":"levelo://app?vid=1449629c-8b8d-4ba2-baa0-04dcc5438063","ios":"levelo://app?vid=1449629c-8b8d-4ba2-baa0-04dcc5438063"},"vehicle_type_id":"4","last_reported":1708366172,"current_range_meters":19200,"station_id":"ce4bh0p2rcd13ifvqd80","pricing_plan_id":"cebpf4jnsgd1na2vs0mg"},{"bike_id":"7e7d6921-5709-417f-a729-c1cc1f0e3e00","system_id":"levelo_inurba_marseille","lat":43.293009,"lon":5.374584,"is_reserved":false,"is_disabled":false,"rental_uris":{"android":"levelo://app?vid=7e7d6921-5709-417f-a729-c1cc1f0e3e00","ios":"levelo://app?vid=7e7d6921-5709-417f-a729-c1cc1f0e3e00"},"vehicle_type_id":"4","last_reported":1708366172,"current_range_meters":5200,"station_id":"ce4bgi12rcd13ifvqb70","pricing_plan_id":"cebpf4jnsgd1na2vs0mg"},{"bike_id":"38b80f91-9308-4a8c-94e6-f331eb9007e6","system_id":"levelo_inurba_marseille","lat":43.300852,"lon":5.390859,"is_reserved":false,"is_disabled":false,"rental_uris":{"android":"levelo://app?vid=38b80f91-9308-4a8c-94e6-f331eb9007e6","ios":"levelo://app?vid=38b80f91-9308-4a8c-94e6-f331eb9007e6"},"vehicle_type_id":"4","last_reported":1708366172,"current_range_meters":8400,"station_id":"ce4bh192rcd13ifvqdb0","pricing_plan_id":"cebpf4jnsgd1na2vs0mg"},{"bike_id":"6a874ee3-1bee-4588-9433-d9ab2af9fc37","system_id":"levelo_inurba_marseille","lat":43.30085,"lon":5.390856,"is_reserved":false,"is_disabled":false,"rental_uris":{"android":"levelo://app?vid=6a874ee3-1bee-4588-9433-d9ab2af9fc37","ios":"levelo://app?vid=6a874ee3-1bee-4588-9433-d9ab2af9fc37"},"vehicle_type_id":"4","last_reported":1708366172,"current_range_meters":0,"station_id":"ce4bh192rcd13ifvqdb0","pricing_plan_id":"cebpf4jnsgd1na2vs0mg"},{"bike_id":"6bf44859-f99c-4224-89be-0a480416bea9","system_id":"levelo_inurba_marseille","lat":43.302992,"lon":5.392136,"is_reserved":false,"is_disabled":false,"rental_uris":{"android":"levelo://app?vid=6bf44859-f99c-4224-89be-0a480416bea9","ios":"levelo://app?vid=6bf44859-f99c-4224-89be-0a480416bea9"},"vehicle_type_id":"4","last_reported":1708366172,"current_range_meters":18800,"station_id":"ce4bgkh2rcd13ifvqbk0","pricing_plan_id":"cebpf4jnsgd1na2vs0mg"},{"bike_id":"560d74aa-fe4c-4351-ab13-26ab9838e4e9","system_id":"levelo_inurba_marseille","lat":43.293009,"lon":5.374584,"is_reserved":false,"is_disabled":false,"rental_uris":{"android":"levelo://app?vid=560d74aa-fe4c-4351-ab13-26ab9838e4e9","ios":"levelo://app?vid=560d74aa-fe4c-4351-ab13-26ab9838e4e9"},"vehicle_type_id":"4","last_reported":1708366172,"current_range_meters":31200,"station_id":"ce4bgi12rcd13ifvqb70","pricing_plan_id":"cebpf4jnsgd1na2vs0mg"},{"bike_id":"41ad962e-360c-478f-80e7-beb50152db3d","system_id":"levelo_inurba_marseille","lat":43.292311,"lon":5.360731,"is_reserved":false,"is_disabled":false,"rental_uris":{"android":"levelo://app?vid=41ad962e-360c-478f-80e7-beb50152db3d","ios":"levelo://app?vid=41ad962e-360c-478f-80e7-beb50152db3d"},"vehicle_type_id":"4","last_reported":1708366172,"current_range_meters":27600,"station_id":"ce4bhbh2rcd13ifvqeqg","pricing_plan_id":"cebpf4jnsgd1na2vs0mg"},{"bike_id":"a3c8c032-32b5-4ef7-b6c1-9b4b642234dc","system_id":"levelo_inurba_marseille","lat":43.30085,"lon":5.390856,"is_reserved":false,"is_disabled":false,"rental_uris":{"android":"levelo://app?vid=a3c8c032-32b5-4ef7-b6c1-9b4b642234dc","ios":"levelo://app?vid=a3c8c032-32b5-4ef7-b6c1-9b4b642234dc"},"vehicle_type_id":"4","last_reported":1708366172,"current_range_meters":26800,"station_id":"ce4bh192rcd13ifvqdb0","pricing_plan_id":"cebpf4jnsgd1na2vs0mg"},{"bike_id":"f7a81959-4415-435d-a520-d41cd22ed438","system_id":"levelo_inurba_marseille","lat":43.292311,"lon":5.360731,"is_reserved":false,"is_disabled":false,"rental_uris":{"android":"levelo://app?vid=f7a81959-4415-435d-a520-d41cd22ed438","ios":"levelo://app?vid=f7a81959-4415-435d-a520-d41cd22ed438"},"vehicle_type_id":"4","last_reported":1708366172,"current_range_meters":22400,"station_id":"ce4bhbh2rcd13ifvqeqg","pricing_plan_id":"cebpf4jnsgd1na2vs0mg"},{"bike_id":"31e50d26-7e9b-4bdc-886c-6fe65b9c6f68","system_id":"levelo_inurba_marseille","lat":43.292311,"lon":5.360731,"is_reserved":false,"is_disabled":false,"rental_uris":{"android":"levelo://app?vid=31e50d26-7e9b-4bdc-886c-6fe65b9c6f68","ios":"levelo://app?vid=31e50d26-7e9b-4bdc-886c-6fe65b9c6f68"},"vehicle_type_id":"4","last_reported":1708366172,"current_range_meters":400,"station_id":"ce4bhbh2rcd13ifvqeqg","pricing_plan_id":"cebpf4jnsgd1na2vs0mg"},{"bike_id":"7f4d1554-7035-4dbb-a3b5-6508097fdee8","system_id":"levelo_inurba_marseille","lat":43.292311,"lon":5.360731,"is_reserved":false,"is_disabled":false,"rental_uris":{"android":"levelo://app?vid=7f4d1554-7035-4dbb-a3b5-6508097fdee8","ios":"levelo://app?vid=7f4d1554-7035-4dbb-a3b5-6508097fdee8"},"vehicle_type_id":"4","last_reported":1708366172,"current_range_meters":10800,"station_id":"ce4bhbh2rcd13ifvqeqg","pricing_plan_id":"cebpf4jnsgd1na2vs0mg"},{"bike_id":"a8e5c5a6-4950-415d-ac72-f4ce8cacd3a0","system_id":"levelo_inurba_marseille","lat":43.300852,"lon":5.390859,"is_reserved":false,"is_disabled":false,"rental_uris":{"android":"levelo://app?vid=a8e5c5a6-4950-415d-ac72-f4ce8cacd3a0","ios":"levelo://app?vid=a8e5c5a6-4950-415d-ac72-f4ce8cacd3a0"},"vehicle_type_id":"4","last_reported":1708366172,"current_range_meters":6400,"station_id":"ce4bh192rcd13ifvqdb0","pricing_plan_id":"cebpf4jnsgd1na2vs0mg"},{"bike_id":"38e678fc-a604-4448-95f0-758be9a976a8","system_id":"levelo_inurba_marseille","lat":43.292311,"lon":5.360731,"is_reserved":false,"is_disabled":false,"rental_uris":{"android":"levelo://app?vid=38e678fc-a604-4448-95f0-758be9a976a8","ios":"levelo://app?vid=38e678fc-a604-4448-95f0-758be9a976a8"},"vehicle_type_id":"4","last_reported":1708366172,"current_range_meters":10400,"station_id":"ce4bhbh2rcd13ifvqeqg","pricing_plan_id":"cebpf4jnsgd1na2vs0mg"},{"bike_id":"4b27d897-22ea-4e3c-b737-f75584568374","system_id":"levelo_inurba_marseille","lat":43.292311,"lon":5.360731,"is_reserved":false,"is_disabled":false,"rental_uris":{"android":"levelo://app?vid=4b27d897-22ea-4e3c-b737-f75584568374","ios":"levelo://app?vid=4b27d897-22ea-4e3c-b737-f75584568374"},"vehicle_type_id":"4","last_reported":1708366172,"current_range_meters":21600,"station_id":"ce4bhbh2rcd13ifvqeqg","pricing_plan_id":"cebpf4jnsgd1na2vs0mg"},{"bike_id":"8ac9a789-ac66-4bfc-937c-cf8bf287d8d7","system_id":"levelo_inurba_marseille","lat":43.292311,"lon":5.360731,"is_reserved":false,"is_disabled":false,"rental_uris":{"android":"levelo://app?vid=8ac9a789-ac66-4bfc-937c-cf8bf287d8d7","ios":"levelo://app?vid=8ac9a789-ac66-4bfc-937c-cf8bf287d8d7"},"vehicle_type_id":"4","last_reported":1708366172,"current_range_meters":24000,"station_id":"ce4bhbh2rcd13ifvqeqg","pricing_plan_id":"cebpf4jnsgd1na2vs0mg"},{"bike_id":"86ec6f0c-3bd6-4fd5-9085-23171a09d9e5","system_id":"levelo_inurba_marseille","lat":43.292311,"lon":5.360731,"is_reserved":false,"is_disabled":false,"rental_uris":{"android":"levelo://app?vid=86ec6f0c-3bd6-4fd5-9085-23171a09d9e5","ios":"levelo://app?vid=86ec6f0c-3bd6-4fd5-9085-23171a09d9e5"},"vehicle_type_id":"4","last_reported":1708366172,"current_range_meters":17200,"station_id":"ce4bhbh2rcd13ifvqeqg","pricing_plan_id":"cebpf4jnsgd1na2vs0mg"},{"bike_id":"0c11dde7-9001-400d-9357-1bc988a3611c","system_id":"levelo_inurba_marseille","lat":43.300852,"lon":5.390859,"is_reserved":false,"is_disabled":false,"rental_uris":{"android":"levelo://app?vid=0c11dde7-9001-400d-9357-1bc988a3611c","ios":"levelo://app?vid=0c11dde7-9001-400d-9357-1bc988a3611c"},"vehicle_type_id":"4","last_reported":1708366172,"current_range_meters":16400,"station_id":"ce4bh192rcd13ifvqdb0","pricing_plan_id":"cebpf4jnsgd1na2vs0mg"},{"bike_id":"b11e31a0-145b-45fe-9efc-d9cf34db5b3b","system_id":"levelo_inurba_marseille","lat":43.300852,"lon":5.390859,"is_reserved":false,"is_disabled":false,"rental_uris":{"android":"levelo://app?vid=b11e31a0-145b-45fe-9efc-d9cf34db5b3b","ios":"levelo://app?vid=b11e31a0-145b-45fe-9efc-d9cf34db5b3b"},"vehicle_type_id":"4","last_reported":1708366172,"current_range_meters":5600,"station_id":"ce4bh192rcd13ifvqdb0","pricing_plan_id":"cebpf4jnsgd1na2vs0mg"},{"bike_id":"ee2323db-b18a-4104-943d-633166f1819f","system_id":"levelo_inurba_marseille","lat":43.300852,"lon":5.390859,"is_reserved":false,"is_disabled":false,"rental_uris":{"android":"levelo://app?vid=ee2323db-b18a-4104-943d-633166f1819f","ios":"levelo://app?vid=ee2323db-b18a-4104-943d-633166f1819f"},"vehicle_type_id":"4","last_reported":1708366172,"current_range_meters":13600,"station_id":"ce4bh192rcd13ifvqdb0","pricing_plan_id":"cebpf4jnsgd1na2vs0mg"},{"bike_id":"034b85d8-a82d-40b7-8e87-b771fd155419","system_id":"levelo_inurba_marseille","lat":43.298764,"lon":5.388973,"is_reserved":false,"is_disabled":false,"rental_uris":{"android":"levelo://app?vid=034b85d8-a82d-40b7-8e87-b771fd155419","ios":"levelo://app?vid=034b85d8-a82d-40b7-8e87-b771fd155419"},"vehicle_type_id":"4","last_reported":1708366172,"current_range_meters":23200,"station_id":"ce4bh392rcd13ifvqdl0","pricing_plan_id":"cebpf4jnsgd1na2vs0mg"},{"bike_id":"26d3482c-9b5a-4fa7-b294-025c42e5839a","system_id":"levelo_inurba_marseille","lat":43.298764,"lon":5.388973,"is_reserved":false,"is_disabled":false,"rental_uris":{"android":"levelo://app?vid=26d3482c-9b5a-4fa7-b294-025c42e5839a","ios":"levelo://app?vid=26d3482c-9b5a-4fa7-b294-025c42e5839a"},"vehicle_type_id":"4","last_reported":1708366172,"current_range_meters":2000,"station_id":"ce4bh392rcd13ifvqdl0","pricing_plan_id":"cebpf4jnsgd1na2vs0mg"},{"bike_id":"aac08445-40cf-4197-880d-7f0184a0c926","system_id":"levelo_inurba_marseille","lat":43.312362,"lon":5.396693,"is_reserved":false,"is_disabled":false,"rental_uris":{"android":"levelo://app?vid=aac08445-40cf-4197-880d-7f0184a0c926","ios":"levelo://app?vid=aac08445-40cf-4197-880d-7f0184a0c926"},"vehicle_type_id":"4","last_reported":1708366172,"current_range_meters":2800,"station_id":"ce4bgvp2rcd13ifvqcu0","pricing_plan_id":"cebpf4jnsgd1na2vs0mg"},{"bike_id":"022ad871-0efc-4ba3-b813-6250f276730c","system_id":"levelo_inurba_marseille","lat":43.291994,"lon":5.357886,"is_reserved":false,"is_disabled":false,"rental_uris":{"android":"levelo://app?vid=022ad871-0efc-4ba3-b813-6250f276730c","ios":"levelo://app?vid=022ad871-0efc-4ba3-b813-6250f276730c"},"vehicle_type_id":"4","last_reported":1708366172,"current_range_meters":17200,"station_id":"ce4bhb12rcd13ifvqel0","pricing_plan_id":"cebpf4jnsgd1na2vs0mg"},{"bike_id":"b8a24971-25ad-4674-ae1a-8fdff4dab901","system_id":"levelo_inurba_marseille","lat":43.291994,"lon":5.357886,"is_reserved":false,"is_disabled":false,"rental_uris":{"android":"levelo://app?vid=b8a24971-25ad-4674-ae1a-8fdff4dab901","ios":"levelo://app?vid=b8a24971-25ad-4674-ae1a-8fdff4dab901"},"vehicle_type_id":"4","last_reported":1708366172,"current_range_meters":3200,"station_id":"ce4bhb12rcd13ifvqel0","pricing_plan_id":"cebpf4jnsgd1na2vs0mg"},{"bike_id":"fea17a2d-531e-4b42-8e9e-ba3902ccba2f","system_id":"levelo_inurba_marseille","lat":43.291994,"lon":5.357886,"is_reserved":false,"is_disabled":false,"rental_uris":{"android":"levelo://app?vid=fea17a2d-531e-4b42-8e9e-ba3902ccba2f","ios":"levelo://app?vid=fea17a2d-531e-4b42-8e9e-ba3902ccba2f"},"vehicle_type_id":"4","last_reported":1708366172,"current_range_meters":8800,"station_id":"ce4bhb12rcd13ifvqel0","pricing_plan_id":"cebpf4jnsgd1na2vs0mg"},{"bike_id":"5a746ba5-1037-400c-baf4-279448ced871","system_id":"levelo_inurba_marseille","lat":43.290779,"lon":5.371482,"is_reserved":false,"is_disabled":false,"rental_uris":{"android":"levelo://app?vid=5a746ba5-1037-400c-baf4-279448ced871","ios":"levelo://app?vid=5a746ba5-1037-400c-baf4-279448ced871"},"vehicle_type_id":"4","last_reported":1708366172,"current_range_meters":6800,"station_id":"ce4bh5p2rcd13ifvqe4g","pricing_plan_id":"cebpf4jnsgd1na2vs0mg"},{"bike_id":"6c4f712b-8037-4932-99eb-53873955d2e5","system_id":"levelo_inurba_marseille","lat":43.291994,"lon":5.357886,"is_reserved":false,"is_disabled":false,"rental_uris":{"android":"levelo://app?vid=6c4f712b-8037-4932-99eb-53873955d2e5","ios":"levelo://app?vid=6c4f712b-8037-4932-99eb-53873955d2e5"},"vehicle_type_id":"4","last_reported":1708366172,"current_range_meters":2800,"station_id":"ce4bhb12rcd13ifvqel0","pricing_plan_id":"cebpf4jnsgd1na2vs0mg"},{"bike_id":"5045cbe0-c968-4e65-bf2c-fd47c1b38fb9","system_id":"levelo_inurba_marseille","lat":43.31328,"lon":5.39689,"is_reserved":false,"is_disabled":false,"rental_uris":{"android":"levelo://app?vid=5045cbe0-c968-4e65-bf2c-fd47c1b38fb9","ios":"levelo://app?vid=5045cbe0-c968-4e65-bf2c-fd47c1b38fb9"},"vehicle_type_id":"4","last_reported":1708366172,"current_range_meters":4400,"station_id":"ce4bgvp2rcd13ifvqcu0","pricing_plan_id":"cebpf4jnsgd1na2vs0mg"},{"bike_id":"f5712f20-3902-4b2c-96ae-087211c8adcf","system_id":"levelo_inurba_marseille","lat":43.291994,"lon":5.357886,"is_reserved":false,"is_disabled":false,"rental_uris":{"android":"levelo://app?vid=f5712f20-3902-4b2c-96ae-087211c8adcf","ios":"levelo://app?vid=f5712f20-3902-4b2c-96ae-087211c8adcf"},"vehicle_type_id":"4","last_reported":1708366172,"current_range_meters":30000,"station_id":"ce4bhb12rcd13ifvqel0","pricing_plan_id":"cebpf4jnsgd1na2vs0mg"},{"bike_id":"acb42a84-7486-4757-8066-ce3dfa6a0738","system_id":"levelo_inurba_marseille","lat":43.313291,"lon":5.396838,"is_reserved":false,"is_disabled":false,"rental_uris":{"android":"levelo://app?vid=acb42a84-7486-4757-8066-ce3dfa6a0738","ios":"levelo://app?vid=acb42a84-7486-4757-8066-ce3dfa6a0738"},"vehicle_type_id":"4","last_reported":1708366172,"current_range_meters":20400,"station_id":"ce4bgvp2rcd13ifvqcu0","pricing_plan_id":"cebpf4jnsgd1na2vs0mg"},{"bike_id":"107ab6d0-b409-4d99-a674-1dda637f46ec","system_id":"levelo_inurba_marseille","lat":43.313291,"lon":5.396838,"is_reserved":false,"is_disabled":false,"rental_uris":{"android":"levelo://app?vid=107ab6d0-b409-4d99-a674-1dda637f46ec","ios":"levelo://app?vid=107ab6d0-b409-4d99-a674-1dda637f46ec"},"vehicle_type_id":"4","last_reported":1708366172,"current_range_meters":400,"station_id":"ce4bgvp2rcd13ifvqcu0","pricing_plan_id":"cebpf4jnsgd1na2vs0mg"},{"bike_id":"dd94c0c2-085b-42f2-a994-63ce02b53054","system_id":"levelo_inurba_marseille","lat":43.291994,"lon":5.357886,"is_reserved":false,"is_disabled":false,"rental_uris":{"android":"levelo://app?vid=dd94c0c2-085b-42f2-a994-63ce02b53054","ios":"levelo://app?vid=dd94c0c2-085b-42f2-a994-63ce02b53054"},"vehicle_type_id":"4","last_reported":1708366172,"current_range_meters":400,"station_id":"ce4bhb12rcd13ifvqel0","pricing_plan_id":"cebpf4jnsgd1na2vs0mg"},{"bike_id":"df49b6d1-086a-49e7-abf7-8b2877a4ebc3","system_id":"levelo_inurba_marseille","lat":43.313291,"lon":5.396838,"is_reserved":false,"is_disabled":false,"rental_uris":{"android":"levelo://app?vid=df49b6d1-086a-49e7-abf7-8b2877a4ebc3","ios":"levelo://app?vid=df49b6d1-086a-49e7-abf7-8b2877a4ebc3"},"vehicle_type_id":"4","last_reported":1708366172,"current_range_meters":19600,"station_id":"ce4bgvp2rcd13ifvqcu0","pricing_plan_id":"cebpf4jnsgd1na2vs0mg"},{"bike_id":"3cd5ba5c-ab88-4937-935c-89f0e00fff91","system_id":"levelo_inurba_marseille","lat":43.313291,"lon":5.396838,"is_reserved":false,"is_disabled":false,"rental_uris":{"android":"levelo://app?vid=3cd5ba5c-ab88-4937-935c-89f0e00fff91","ios":"levelo://app?vid=3cd5ba5c-ab88-4937-935c-89f0e00fff91"},"vehicle_type_id":"4","last_reported":1708366172,"current_range_meters":0,"station_id":"ce4bgvp2rcd13ifvqcu0","pricing_plan_id":"cebpf4jnsgd1na2vs0mg"},{"bike_id":"f9a8ff24-b1e6-4c23-a2e7-a7aab27ac037","system_id":"levelo_inurba_marseille","lat":43.291994,"lon":5.357886,"is_reserved":false,"is_disabled":false,"rental_uris":{"android":"levelo://app?vid=f9a8ff24-b1e6-4c23-a2e7-a7aab27ac037","ios":"levelo://app?vid=f9a8ff24-b1e6-4c23-a2e7-a7aab27ac037"},"vehicle_type_id":"4","last_reported":1708366172,"current_range_meters":6400,"station_id":"ce4bhb12rcd13ifvqel0","pricing_plan_id":"cebpf4jnsgd1na2vs0mg"},{"bike_id":"5e49f2b5-c04c-4fda-8270-475f5479acc1","system_id":"levelo_inurba_marseille","lat":43.29529,"lon":5.385581,"is_reserved":false,"is_disabled":false,"rental_uris":{"android":"levelo://app?vid=5e49f2b5-c04c-4fda-8270-475f5479acc1","ios":"levelo://app?vid=5e49f2b5-c04c-4fda-8270-475f5479acc1"},"vehicle_type_id":"4","last_reported":1708366172,"current_range_meters":12800,"station_id":"ce4bgih2rcd13ifvqba0","pricing_plan_id":"cebpf4jnsgd1na2vs0mg"},{"bike_id":"776dce58-70e1-4f53-a1e2-5a4274e168b1","system_id":"levelo_inurba_marseille","lat":43.29529,"lon":5.385581,"is_reserved":false,"is_disabled":false,"rental_uris":{"android":"levelo://app?vid=776dce58-70e1-4f53-a1e2-5a4274e168b1","ios":"levelo://app?vid=776dce58-70e1-4f53-a1e2-5a4274e168b1"},"vehicle_type_id":"4","last_reported":1708366172,"current_range_meters":12400,"station_id":"ce4bgih2rcd13ifvqba0","pricing_plan_id":"cebpf4jnsgd1na2vs0mg"},{"bike_id":"5c1cdc24-d58f-45b4-92fa-1a2294c44ce9","system_id":"levelo_inurba_marseille","lat":43.29529,"lon":5.385581,"is_reserved":false,"is_disabled":false,"rental_uris":{"android":"levelo://app?vid=5c1cdc24-d58f-45b4-92fa-1a2294c44ce9","ios":"levelo://app?vid=5c1cdc24-d58f-45b4-92fa-1a2294c44ce9"},"vehicle_type_id":"4","last_reported":1708366172,"current_range_meters":15600,"station_id":"ce4bgih2rcd13ifvqba0","pricing_plan_id":"cebpf4jnsgd1na2vs0mg"},{"bike_id":"17e158b7-2751-44ef-86c4-16c26c34dad4","system_id":"levelo_inurba_marseille","lat":43.29529,"lon":5.385581,"is_reserved":false,"is_disabled":false,"rental_uris":{"android":"levelo://app?vid=17e158b7-2751-44ef-86c4-16c26c34dad4","ios":"levelo://app?vid=17e158b7-2751-44ef-86c4-16c26c34dad4"},"vehicle_type_id":"4","last_reported":1708366172,"current_range_meters":13200,"station_id":"ce4bgih2rcd13ifvqba0","pricing_plan_id":"cebpf4jnsgd1na2vs0mg"},{"bike_id":"020fe2e3-ef37-4b7f-a244-c06a5669ade5","system_id":"levelo_inurba_marseille","lat":43.29529,"lon":5.385581,"is_reserved":false,"is_disabled":false,"rental_uris":{"android":"levelo://app?vid=020fe2e3-ef37-4b7f-a244-c06a5669ade5","ios":"levelo://app?vid=020fe2e3-ef37-4b7f-a244-c06a5669ade5"},"vehicle_type_id":"4","last_reported":1708366172,"current_range_meters":29200,"station_id":"ce4bgih2rcd13ifvqba0","pricing_plan_id":"cebpf4jnsgd1na2vs0mg"},{"bike_id":"9d2db724-1f21-4814-bcf9-39a620e670d0","system_id":"levelo_inurba_marseille","lat":43.290779,"lon":5.371482,"is_reserved":false,"is_disabled":false,"rental_uris":{"android":"levelo://app?vid=9d2db724-1f21-4814-bcf9-39a620e670d0","ios":"levelo://app?vid=9d2db724-1f21-4814-bcf9-39a620e670d0"},"vehicle_type_id":"4","last_reported":1708366172,"current_range_meters":30000,"station_id":"ce4bh5p2rcd13ifvqe4g","pricing_plan_id":"cebpf4jnsgd1na2vs0mg"},{"bike_id":"25c075e9-01f9-47cb-a9cd-c4709c91e32c","system_id":"levelo_inurba_marseille","lat":43.290779,"lon":5.371482,"is_reserved":false,"is_disabled":false,"rental_uris":{"android":"levelo://app?vid=25c075e9-01f9-47cb-a9cd-c4709c91e32c","ios":"levelo://app?vid=25c075e9-01f9-47cb-a9cd-c4709c91e32c"},"vehicle_type_id":"4","last_reported":1708366172,"current_range_meters":6000,"station_id":"ce4bh5p2rcd13ifvqe4g","pricing_plan_id":"cebpf4jnsgd1na2vs0mg"},{"bike_id":"a7c6ac1b-ebbf-400c-973b-c0dd82a9922e","system_id":"levelo_inurba_marseille","lat":43.302008,"lon":5.394694,"is_reserved":false,"is_disabled":false,"rental_uris":{"android":"levelo://app?vid=a7c6ac1b-ebbf-400c-973b-c0dd82a9922e","ios":"levelo://app?vid=a7c6ac1b-ebbf-400c-973b-c0dd82a9922e"},"vehicle_type_id":"4","last_reported":1708366172,"current_range_meters":2000,"station_id":"ce4bh0p2rcd13ifvqd70","pricing_plan_id":"cebpf4jnsgd1na2vs0mg"},{"bike_id":"a9f22d26-1906-4235-8b62-e4eb27ed8a85","system_id":"levelo_inurba_marseille","lat":43.302008,"lon":5.394694,"is_reserved":false,"is_disabled":false,"rental_uris":{"android":"levelo://app?vid=a9f22d26-1906-4235-8b62-e4eb27ed8a85","ios":"levelo://app?vid=a9f22d26-1906-4235-8b62-e4eb27ed8a85"},"vehicle_type_id":"4","last_reported":1708366172,"current_range_meters":18000,"station_id":"ce4bh0p2rcd13ifvqd70","pricing_plan_id":"cebpf4jnsgd1na2vs0mg"},{"bike_id":"1a5925eb-b513-44e9-bdb4-da13b640e4e0","system_id":"levelo_inurba_marseille","lat":43.302008,"lon":5.394694,"is_reserved":false,"is_disabled":false,"rental_uris":{"android":"levelo://app?vid=1a5925eb-b513-44e9-bdb4-da13b640e4e0","ios":"levelo://app?vid=1a5925eb-b513-44e9-bdb4-da13b640e4e0"},"vehicle_type_id":"4","last_reported":1708366172,"current_range_meters":15200,"station_id":"ce4bh0p2rcd13ifvqd70","pricing_plan_id":"cebpf4jnsgd1na2vs0mg"},{"bike_id":"a3cfdc13-1a35-4ac4-aded-11ed65e8659a","system_id":"levelo_inurba_marseille","lat":43.290624,"lon":5.359245,"is_reserved":false,"is_disabled":false,"rental_uris":{"android":"levelo://app?vid=a3cfdc13-1a35-4ac4-aded-11ed65e8659a","ios":"levelo://app?vid=a3cfdc13-1a35-4ac4-aded-11ed65e8659a"},"vehicle_type_id":"4","last_reported":1708366172,"current_range_meters":15200,"station_id":"ce4bha92rcd13ifvqeg0","pricing_plan_id":"cebpf4jnsgd1na2vs0mg"},{"bike_id":"721f879f-fd4a-43bc-ace8-d43ee7049433","system_id":"levelo_inurba_marseille","lat":43.290631,"lon":5.359244,"is_reserved":false,"is_disabled":false,"rental_uris":{"android":"levelo://app?vid=721f879f-fd4a-43bc-ace8-d43ee7049433","ios":"levelo://app?vid=721f879f-fd4a-43bc-ace8-d43ee7049433"},"vehicle_type_id":"4","last_reported":1708366172,"current_range_meters":6800,"station_id":"ce4bha92rcd13ifvqeg0","pricing_plan_id":"cebpf4jnsgd1na2vs0mg"},{"bike_id":"113b5df0-06f8-432e-9644-6329de3156dc","system_id":"levelo_inurba_marseille","lat":43.302008,"lon":5.394694,"is_reserved":false,"is_disabled":false,"rental_uris":{"android":"levelo://app?vid=113b5df0-06f8-432e-9644-6329de3156dc","ios":"levelo://app?vid=113b5df0-06f8-432e-9644-6329de3156dc"},"vehicle_type_id":"4","last_reported":1708366172,"current_range_meters":9600,"station_id":"ce4bh0p2rcd13ifvqd70","pricing_plan_id":"cebpf4jnsgd1na2vs0mg"},{"bike_id":"3b763e75-f756-4507-a004-8c4f1908ccc9","system_id":"levelo_inurba_marseille","lat":43.290624,"lon":5.359245,"is_reserved":false,"is_disabled":false,"rental_uris":{"android":"levelo://app?vid=3b763e75-f756-4507-a004-8c4f1908ccc9","ios":"levelo://app?vid=3b763e75-f756-4507-a004-8c4f1908ccc9"},"vehicle_type_id":"4","last_reported":1708366172,"current_range_meters":10400,"station_id":"ce4bha92rcd13ifvqeg0","pricing_plan_id":"cebpf4jnsgd1na2vs0mg"},{"bike_id":"01d2ed8d-2c0c-437c-9819-14786ef69e9a","system_id":"levelo_inurba_marseille","lat":43.290624,"lon":5.359245,"is_reserved":false,"is_disabled":false,"rental_uris":{"android":"levelo://app?vid=01d2ed8d-2c0c-437c-9819-14786ef69e9a","ios":"levelo://app?vid=01d2ed8d-2c0c-437c-9819-14786ef69e9a"},"vehicle_type_id":"4","last_reported":1708366172,"current_range_meters":3600,"station_id":"ce4bha92rcd13ifvqeg0","pricing_plan_id":"cebpf4jnsgd1na2vs0mg"},{"bike_id":"f3621e31-2802-4d00-9575-e569e4cadbd9","system_id":"levelo_inurba_marseille","lat":43.290624,"lon":5.359245,"is_reserved":false,"is_disabled":false,"rental_uris":{"android":"levelo://app?vid=f3621e31-2802-4d00-9575-e569e4cadbd9","ios":"levelo://app?vid=f3621e31-2802-4d00-9575-e569e4cadbd9"},"vehicle_type_id":"4","last_reported":1708366172,"current_range_meters":30800,"station_id":"ce4bha92rcd13ifvqeg0","pricing_plan_id":"cebpf4jnsgd1na2vs0mg"},{"bike_id":"4401f28e-a935-4462-8266-9979b22a62c7","system_id":"levelo_inurba_marseille","lat":43.294153,"lon":5.386305,"is_reserved":false,"is_disabled":false,"rental_uris":{"android":"levelo://app?vid=4401f28e-a935-4462-8266-9979b22a62c7","ios":"levelo://app?vid=4401f28e-a935-4462-8266-9979b22a62c7"},"vehicle_type_id":"4","last_reported":1708366172,"current_range_meters":13200,"station_id":"ce4bh2h2rcd13ifvqdh0","pricing_plan_id":"cebpf4jnsgd1na2vs0mg"},{"bike_id":"037458bc-bc19-4003-9bed-e8db714bfb75","system_id":"levelo_inurba_marseille","lat":43.294153,"lon":5.386305,"is_reserved":false,"is_disabled":false,"rental_uris":{"android":"levelo://app?vid=037458bc-bc19-4003-9bed-e8db714bfb75","ios":"levelo://app?vid=037458bc-bc19-4003-9bed-e8db714bfb75"},"vehicle_type_id":"4","last_reported":1708366172,"current_range_meters":18400,"station_id":"ce4bh2h2rcd13ifvqdh0","pricing_plan_id":"cebpf4jnsgd1na2vs0mg"},{"bike_id":"5a4a1382-2b44-4a91-b8a2-06baa3c7d9c8","system_id":"levelo_inurba_marseille","lat":43.290327,"lon":5.375711,"is_reserved":false,"is_disabled":false,"rental_uris":{"android":"levelo://app?vid=5a4a1382-2b44-4a91-b8a2-06baa3c7d9c8","ios":"levelo://app?vid=5a4a1382-2b44-4a91-b8a2-06baa3c7d9c8"},"vehicle_type_id":"4","last_reported":1708366172,"current_range_meters":0,"station_id":"ce4bh692rcd13ifvqe90","pricing_plan_id":"cebpf4jnsgd1na2vs0mg"},{"bike_id":"04240faa-e51d-47be-b19a-4aca3e7a19e8","system_id":"levelo_inurba_marseille","lat":43.29419,"lon":5.38619,"is_reserved":false,"is_disabled":false,"rental_uris":{"android":"levelo://app?vid=04240faa-e51d-47be-b19a-4aca3e7a19e8","ios":"levelo://app?vid=04240faa-e51d-47be-b19a-4aca3e7a19e8"},"vehicle_type_id":"4","last_reported":1708366172,"current_range_meters":0,"station_id":"ce4bh2h2rcd13ifvqdh0","pricing_plan_id":"cebpf4jnsgd1na2vs0mg"},{"bike_id":"4a3f62fa-d70f-403e-a9d1-bc5e66de800e","system_id":"levelo_inurba_marseille","lat":43.294153,"lon":5.386305,"is_reserved":false,"is_disabled":false,"rental_uris":{"android":"levelo://app?vid=4a3f62fa-d70f-403e-a9d1-bc5e66de800e","ios":"levelo://app?vid=4a3f62fa-d70f-403e-a9d1-bc5e66de800e"},"vehicle_type_id":"4","last_reported":1708366172,"current_range_meters":0,"station_id":"ce4bh2h2rcd13ifvqdh0","pricing_plan_id":"cebpf4jnsgd1na2vs0mg"},{"bike_id":"137d93c9-58b9-46bb-a6b6-4e3dc6f35d99","system_id":"levelo_inurba_marseille","lat":43.289184,"lon":5.366408,"is_reserved":false,"is_disabled":false,"rental_uris":{"android":"levelo://app?vid=137d93c9-58b9-46bb-a6b6-4e3dc6f35d99","ios":"levelo://app?vid=137d93c9-58b9-46bb-a6b6-4e3dc6f35d99"},"vehicle_type_id":"4","last_reported":1708366172,"current_range_meters":24000,"station_id":"ce4bhap2rcd13ifvqek0","pricing_plan_id":"cebpf4jnsgd1na2vs0mg"},{"bike_id":"66c3f8a6-67ff-488c-9ed4-f6103bfebea1","system_id":"levelo_inurba_marseille","lat":43.294162,"lon":5.386292,"is_reserved":false,"is_disabled":false,"rental_uris":{"android":"levelo://app?vid=66c3f8a6-67ff-488c-9ed4-f6103bfebea1","ios":"levelo://app?vid=66c3f8a6-67ff-488c-9ed4-f6103bfebea1"},"vehicle_type_id":"4","last_reported":1708366172,"current_range_meters":8000,"station_id":"ce4bh2h2rcd13ifvqdh0","pricing_plan_id":"cebpf4jnsgd1na2vs0mg"},{"bike_id":"f21b13a1-3fd9-460a-8d56-795c7ff241c7","system_id":"levelo_inurba_marseille","lat":43.294153,"lon":5.386305,"is_reserved":false,"is_disabled":false,"rental_uris":{"android":"levelo://app?vid=f21b13a1-3fd9-460a-8d56-795c7ff241c7","ios":"levelo://app?vid=f21b13a1-3fd9-460a-8d56-795c7ff241c7"},"vehicle_type_id":"4","last_reported":1708366172,"current_range_meters":0,"station_id":"ce4bh2h2rcd13ifvqdh0","pricing_plan_id":"cebpf4jnsgd1na2vs0mg"},{"bike_id":"86a0ff1f-c242-4a43-a130-6d0e1ff35719","system_id":"levelo_inurba_marseille","lat":43.294153,"lon":5.386305,"is_reserved":false,"is_disabled":false,"rental_uris":{"android":"levelo://app?vid=86a0ff1f-c242-4a43-a130-6d0e1ff35719","ios":"levelo://app?vid=86a0ff1f-c242-4a43-a130-6d0e1ff35719"},"vehicle_type_id":"4","last_reported":1708366172,"current_range_meters":12800,"station_id":"ce4bh2h2rcd13ifvqdh0","pricing_plan_id":"cebpf4jnsgd1na2vs0mg"},{"bike_id":"905b6888-a922-40d3-b2ef-349918a2bf42","system_id":"levelo_inurba_marseille","lat":43.294153,"lon":5.386305,"is_reserved":false,"is_disabled":false,"rental_uris":{"android":"levelo://app?vid=905b6888-a922-40d3-b2ef-349918a2bf42","ios":"levelo://app?vid=905b6888-a922-40d3-b2ef-349918a2bf42"},"vehicle_type_id":"4","last_reported":1708366172,"current_range_meters":24400,"station_id":"ce4bh2h2rcd13ifvqdh0","pricing_plan_id":"cebpf4jnsgd1na2vs0mg"},{"bike_id":"bbc0973e-ae59-49bd-9187-d1a0011af4ee","system_id":"levelo_inurba_marseille","lat":43.289184,"lon":5.366408,"is_reserved":false,"is_disabled":false,"rental_uris":{"android":"levelo://app?vid=bbc0973e-ae59-49bd-9187-d1a0011af4ee","ios":"levelo://app?vid=bbc0973e-ae59-49bd-9187-d1a0011af4ee"},"vehicle_type_id":"4","last_reported":1708366172,"current_range_meters":16800,"station_id":"ce4bhap2rcd13ifvqek0","pricing_plan_id":"cebpf4jnsgd1na2vs0mg"},{"bike_id":"432661e7-96fd-4027-8311-a20c94a0b10d","system_id":"levelo_inurba_marseille","lat":43.289184,"lon":5.366408,"is_reserved":false,"is_disabled":false,"rental_uris":{"android":"levelo://app?vid=432661e7-96fd-4027-8311-a20c94a0b10d","ios":"levelo://app?vid=432661e7-96fd-4027-8311-a20c94a0b10d"},"vehicle_type_id":"4","last_reported":1708366172,"current_range_meters":0,"station_id":"ce4bhap2rcd13ifvqek0","pricing_plan_id":"cebpf4jnsgd1na2vs0mg"},{"bike_id":"a0adad83-c911-4527-9595-004dd160d60c","system_id":"levelo_inurba_marseille","lat":43.289184,"lon":5.366408,"is_reserved":false,"is_disabled":false,"rental_uris":{"android":"levelo://app?vid=a0adad83-c911-4527-9595-004dd160d60c","ios":"levelo://app?vid=a0adad83-c911-4527-9595-004dd160d60c"},"vehicle_type_id":"4","last_reported":1708366172,"current_range_meters":400,"station_id":"ce4bhap2rcd13ifvqek0","pricing_plan_id":"cebpf4jnsgd1na2vs0mg"},{"bike_id":"5ecdddfd-b0ec-422e-b2e0-2b508a4c4140","system_id":"levelo_inurba_marseille","lat":43.289468,"lon":5.363719,"is_reserved":false,"is_disabled":false,"rental_uris":{"android":"levelo://app?vid=5ecdddfd-b0ec-422e-b2e0-2b508a4c4140","ios":"levelo://app?vid=5ecdddfd-b0ec-422e-b2e0-2b508a4c4140"},"vehicle_type_id":"4","last_reported":1708366172,"current_range_meters":24800,"station_id":"ce4bhc92rcd13ifvqetg","pricing_plan_id":"cebpf4jnsgd1na2vs0mg"},{"bike_id":"704b0cbb-4f72-494b-9f65-1a87da17aebb","system_id":"levelo_inurba_marseille","lat":43.294153,"lon":5.386305,"is_reserved":false,"is_disabled":false,"rental_uris":{"android":"levelo://app?vid=704b0cbb-4f72-494b-9f65-1a87da17aebb","ios":"levelo://app?vid=704b0cbb-4f72-494b-9f65-1a87da17aebb"},"vehicle_type_id":"4","last_reported":1708366172,"current_range_meters":19200,"station_id":"ce4bh2h2rcd13ifvqdh0","pricing_plan_id":"cebpf4jnsgd1na2vs0mg"},{"bike_id":"619a423c-1e57-4b2b-b34e-0ea4299a8254","system_id":"levelo_inurba_marseille","lat":43.292644,"lon":5.384257,"is_reserved":false,"is_disabled":false,"rental_uris":{"android":"levelo://app?vid=619a423c-1e57-4b2b-b34e-0ea4299a8254","ios":"levelo://app?vid=619a423c-1e57-4b2b-b34e-0ea4299a8254"},"vehicle_type_id":"4","last_reported":1708366172,"current_range_meters":18400,"station_id":"ce4bh692rcd13ifvqea0","pricing_plan_id":"cebpf4jnsgd1na2vs0mg"},{"bike_id":"b1e492b9-3ff1-4ca7-90e6-8240352dd7d7","system_id":"levelo_inurba_marseille","lat":43.290104,"lon":5.356111,"is_reserved":false,"is_disabled":false,"rental_uris":{"android":"levelo://app?vid=b1e492b9-3ff1-4ca7-90e6-8240352dd7d7","ios":"levelo://app?vid=b1e492b9-3ff1-4ca7-90e6-8240352dd7d7"},"vehicle_type_id":"4","last_reported":1708366172,"current_range_meters":20000,"station_id":"ce4bhb92rcd13ifvqen0","pricing_plan_id":"cebpf4jnsgd1na2vs0mg"},{"bike_id":"903d868b-9f2e-42a0-8251-56c58e0fe53b","system_id":"levelo_inurba_marseille","lat":43.292644,"lon":5.384257,"is_reserved":false,"is_disabled":false,"rental_uris":{"android":"levelo://app?vid=903d868b-9f2e-42a0-8251-56c58e0fe53b","ios":"levelo://app?vid=903d868b-9f2e-42a0-8251-56c58e0fe53b"},"vehicle_type_id":"4","last_reported":1708366172,"current_range_meters":30000,"station_id":"ce4bh692rcd13ifvqea0","pricing_plan_id":"cebpf4jnsgd1na2vs0mg"},{"bike_id":"0b46b3cb-7135-426a-acd1-7f7f2c2be5ab","system_id":"levelo_inurba_marseille","lat":43.292644,"lon":5.384257,"is_reserved":false,"is_disabled":false,"rental_uris":{"android":"levelo://app?vid=0b46b3cb-7135-426a-acd1-7f7f2c2be5ab","ios":"levelo://app?vid=0b46b3cb-7135-426a-acd1-7f7f2c2be5ab"},"vehicle_type_id":"4","last_reported":1708366172,"current_range_meters":6000,"station_id":"ce4bh692rcd13ifvqea0","pricing_plan_id":"cebpf4jnsgd1na2vs0mg"},{"bike_id":"985a50d9-1da2-473c-b4f4-3093637608f9","system_id":"levelo_inurba_marseille","lat":43.292642,"lon":5.384254,"is_reserved":false,"is_disabled":false,"rental_uris":{"android":"levelo://app?vid=985a50d9-1da2-473c-b4f4-3093637608f9","ios":"levelo://app?vid=985a50d9-1da2-473c-b4f4-3093637608f9"},"vehicle_type_id":"4","last_reported":1708366172,"current_range_meters":11600,"station_id":"ce4bh692rcd13ifvqea0","pricing_plan_id":"cebpf4jnsgd1na2vs0mg"},{"bike_id":"ac6466e8-f179-4058-9018-31d53a062b75","system_id":"levelo_inurba_marseille","lat":43.292644,"lon":5.384257,"is_reserved":false,"is_disabled":false,"rental_uris":{"android":"levelo://app?vid=ac6466e8-f179-4058-9018-31d53a062b75","ios":"levelo://app?vid=ac6466e8-f179-4058-9018-31d53a062b75"},"vehicle_type_id":"4","last_reported":1708366172,"current_range_meters":12000,"station_id":"ce4bh692rcd13ifvqea0","pricing_plan_id":"cebpf4jnsgd1na2vs0mg"},{"bike_id":"a7014aee-d7d0-48ba-8ddd-2338bd8c8f76","system_id":"levelo_inurba_marseille","lat":43.292644,"lon":5.384257,"is_reserved":false,"is_disabled":false,"rental_uris":{"android":"levelo://app?vid=a7014aee-d7d0-48ba-8ddd-2338bd8c8f76","ios":"levelo://app?vid=a7014aee-d7d0-48ba-8ddd-2338bd8c8f76"},"vehicle_type_id":"4","last_reported":1708366172,"current_range_meters":0,"station_id":"ce4bh692rcd13ifvqea0","pricing_plan_id":"cebpf4jnsgd1na2vs0mg"},{"bike_id":"786335b1-fa82-48d2-a0f9-055256a5a34e","system_id":"levelo_inurba_marseille","lat":43.292642,"lon":5.384254,"is_reserved":false,"is_disabled":false,"rental_uris":{"android":"levelo://app?vid=786335b1-fa82-48d2-a0f9-055256a5a34e","ios":"levelo://app?vid=786335b1-fa82-48d2-a0f9-055256a5a34e"},"vehicle_type_id":"4","last_reported":1708366172,"current_range_meters":31200,"station_id":"ce4bh692rcd13ifvqea0","pricing_plan_id":"cebpf4jnsgd1na2vs0mg"},{"bike_id":"5d37c5ee-0208-4e5e-bfa3-a123adfeb43c","system_id":"levelo_inurba_marseille","lat":43.292642,"lon":5.384254,"is_reserved":false,"is_disabled":false,"rental_uris":{"android":"levelo://app?vid=5d37c5ee-0208-4e5e-bfa3-a123adfeb43c","ios":"levelo://app?vid=5d37c5ee-0208-4e5e-bfa3-a123adfeb43c"},"vehicle_type_id":"4","last_reported":1708366172,"current_range_meters":13600,"station_id":"ce4bh692rcd13ifvqea0","pricing_plan_id":"cebpf4jnsgd1na2vs0mg"},{"bike_id":"975cc2b2-3542-4214-ab35-1812a17e4292","system_id":"levelo_inurba_marseille","lat":43.292642,"lon":5.384254,"is_reserved":false,"is_disabled":false,"rental_uris":{"android":"levelo://app?vid=975cc2b2-3542-4214-ab35-1812a17e4292","ios":"levelo://app?vid=975cc2b2-3542-4214-ab35-1812a17e4292"},"vehicle_type_id":"4","last_reported":1708366172,"current_range_meters":23200,"station_id":"ce4bh692rcd13ifvqea0","pricing_plan_id":"cebpf4jnsgd1na2vs0mg"},{"bike_id":"4ed05fdb-a1ee-4ed2-8095-b1153eb9bc7c","system_id":"levelo_inurba_marseille","lat":43.292642,"lon":5.384254,"is_reserved":false,"is_disabled":false,"rental_uris":{"android":"levelo://app?vid=4ed05fdb-a1ee-4ed2-8095-b1153eb9bc7c","ios":"levelo://app?vid=4ed05fdb-a1ee-4ed2-8095-b1153eb9bc7c"},"vehicle_type_id":"4","last_reported":1708366172,"current_range_meters":12000,"station_id":"ce4bh692rcd13ifvqea0","pricing_plan_id":"cebpf4jnsgd1na2vs0mg"},{"bike_id":"35a288ec-b2f5-44e8-8671-b9c2af9fa303","system_id":"levelo_inurba_marseille","lat":43.292642,"lon":5.384254,"is_reserved":false,"is_disabled":false,"rental_uris":{"android":"levelo://app?vid=35a288ec-b2f5-44e8-8671-b9c2af9fa303","ios":"levelo://app?vid=35a288ec-b2f5-44e8-8671-b9c2af9fa303"},"vehicle_type_id":"4","last_reported":1708366172,"current_range_meters":4400,"station_id":"ce4bh692rcd13ifvqea0","pricing_plan_id":"cebpf4jnsgd1na2vs0mg"},{"bike_id":"b2744b67-de9f-47d9-a3b0-d0d1eedb5f4d","system_id":"levelo_inurba_marseille","lat":43.29014,"lon":5.35613,"is_reserved":false,"is_disabled":false,"rental_uris":{"android":"levelo://app?vid=b2744b67-de9f-47d9-a3b0-d0d1eedb5f4d","ios":"levelo://app?vid=b2744b67-de9f-47d9-a3b0-d0d1eedb5f4d"},"vehicle_type_id":"4","last_reported":1708366172,"current_range_meters":13200,"station_id":"ce4bhb92rcd13ifvqen0","pricing_plan_id":"cebpf4jnsgd1na2vs0mg"},{"bike_id":"976b7a6f-6946-4cc2-ac45-ef015536dc22","system_id":"levelo_inurba_marseille","lat":43.2901,"lon":5.35625,"is_reserved":false,"is_disabled":false,"rental_uris":{"android":"levelo://app?vid=976b7a6f-6946-4cc2-ac45-ef015536dc22","ios":"levelo://app?vid=976b7a6f-6946-4cc2-ac45-ef015536dc22"},"vehicle_type_id":"4","last_reported":1708366172,"current_range_meters":28400,"station_id":"ce4bhb92rcd13ifvqen0","pricing_plan_id":"cebpf4jnsgd1na2vs0mg"},{"bike_id":"185b6940-d54e-4ee0-ba12-2d8a662e124b","system_id":"levelo_inurba_marseille","lat":43.290053,"lon":5.356388,"is_reserved":false,"is_disabled":false,"rental_uris":{"android":"levelo://app?vid=185b6940-d54e-4ee0-ba12-2d8a662e124b","ios":"levelo://app?vid=185b6940-d54e-4ee0-ba12-2d8a662e124b"},"vehicle_type_id":"4","last_reported":1708366172,"current_range_meters":13200,"station_id":"ce4bh0h2rcd13ifvqd50","pricing_plan_id":"cebpf4jnsgd1na2vs0mg"},{"bike_id":"90f91894-9839-4218-bc79-f2b9adbf29f5","system_id":"levelo_inurba_marseille","lat":43.290103,"lon":5.356114,"is_reserved":false,"is_disabled":false,"rental_uris":{"android":"levelo://app?vid=90f91894-9839-4218-bc79-f2b9adbf29f5","ios":"levelo://app?vid=90f91894-9839-4218-bc79-f2b9adbf29f5"},"vehicle_type_id":"4","last_reported":1708366172,"current_range_meters":15600,"station_id":"ce4bhb92rcd13ifvqen0","pricing_plan_id":"cebpf4jnsgd1na2vs0mg"},{"bike_id":"64c8a977-e817-4529-bbbf-d54830de4873","system_id":"levelo_inurba_marseille","lat":43.29103,"lon":5.38085,"is_reserved":false,"is_disabled":false,"rental_uris":{"android":"levelo://app?vid=64c8a977-e817-4529-bbbf-d54830de4873","ios":"levelo://app?vid=64c8a977-e817-4529-bbbf-d54830de4873"},"vehicle_type_id":"4","last_reported":1708366172,"current_range_meters":16000,"station_id":"","pricing_plan_id":"cebpf4jnsgd1na2vs0mg"},{"bike_id":"2c132b9e-2493-4c35-b795-1d1f1c5658c0","system_id":"levelo_inurba_marseille","lat":43.290097,"lon":5.356123,"is_reserved":false,"is_disabled":false,"rental_uris":{"android":"levelo://app?vid=2c132b9e-2493-4c35-b795-1d1f1c5658c0","ios":"levelo://app?vid=2c132b9e-2493-4c35-b795-1d1f1c5658c0"},"vehicle_type_id":"4","last_reported":1708366172,"current_range_meters":17200,"station_id":"ce4bhb92rcd13ifvqen0","pricing_plan_id":"cebpf4jnsgd1na2vs0mg"},{"bike_id":"4e1c869c-37a3-40e1-b2da-e575043abfaf","system_id":"levelo_inurba_marseille","lat":43.29008,"lon":5.35612,"is_reserved":false,"is_disabled":false,"rental_uris":{"android":"levelo://app?vid=4e1c869c-37a3-40e1-b2da-e575043abfaf","ios":"levelo://app?vid=4e1c869c-37a3-40e1-b2da-e575043abfaf"},"vehicle_type_id":"4","last_reported":1708366172,"current_range_meters":26800,"station_id":"ce4bhb92rcd13ifvqen0","pricing_plan_id":"cebpf4jnsgd1na2vs0mg"},{"bike_id":"f419e435-9e98-4b3d-a74f-8c4b8faf887e","system_id":"levelo_inurba_marseille","lat":43.29006,"lon":5.35616,"is_reserved":false,"is_disabled":false,"rental_uris":{"android":"levelo://app?vid=f419e435-9e98-4b3d-a74f-8c4b8faf887e","ios":"levelo://app?vid=f419e435-9e98-4b3d-a74f-8c4b8faf887e"},"vehicle_type_id":"4","last_reported":1708366172,"current_range_meters":18800,"station_id":"ce4bhb92rcd13ifvqen0","pricing_plan_id":"cebpf4jnsgd1na2vs0mg"},{"bike_id":"9a9240be-325a-4969-a362-4e84aed35f49","system_id":"levelo_inurba_marseille","lat":43.290104,"lon":5.356111,"is_reserved":false,"is_disabled":false,"rental_uris":{"android":"levelo://app?vid=9a9240be-325a-4969-a362-4e84aed35f49","ios":"levelo://app?vid=9a9240be-325a-4969-a362-4e84aed35f49"},"vehicle_type_id":"4","last_reported":1708366172,"current_range_meters":18000,"station_id":"ce4bhb92rcd13ifvqen0","pricing_plan_id":"cebpf4jnsgd1na2vs0mg"},{"bike_id":"1df3f504-5781-4d50-bc6c-d04624e9c380","system_id":"levelo_inurba_marseille","lat":43.29005,"lon":5.35612,"is_reserved":false,"is_disabled":false,"rental_uris":{"android":"levelo://app?vid=1df3f504-5781-4d50-bc6c-d04624e9c380","ios":"levelo://app?vid=1df3f504-5781-4d50-bc6c-d04624e9c380"},"vehicle_type_id":"4","last_reported":1708366172,"current_range_meters":20400,"station_id":"ce4bhb92rcd13ifvqen0","pricing_plan_id":"cebpf4jnsgd1na2vs0mg"},{"bike_id":"9cd85bef-c61e-41bc-9000-677ee48c989c","system_id":"levelo_inurba_marseille","lat":43.29004,"lon":5.35615,"is_reserved":false,"is_disabled":false,"rental_uris":{"android":"levelo://app?vid=9cd85bef-c61e-41bc-9000-677ee48c989c","ios":"levelo://app?vid=9cd85bef-c61e-41bc-9000-677ee48c989c"},"vehicle_type_id":"4","last_reported":1708366172,"current_range_meters":10000,"station_id":"ce4bhb92rcd13ifvqen0","pricing_plan_id":"cebpf4jnsgd1na2vs0mg"},{"bike_id":"c95ad3f9-ba14-4d47-9a17-91e5a028ceff","system_id":"levelo_inurba_marseille","lat":43.29004,"lon":5.35613,"is_reserved":false,"is_disabled":false,"rental_uris":{"android":"levelo://app?vid=c95ad3f9-ba14-4d47-9a17-91e5a028ceff","ios":"levelo://app?vid=c95ad3f9-ba14-4d47-9a17-91e5a028ceff"},"vehicle_type_id":"4","last_reported":1708366172,"current_range_meters":25600,"station_id":"","pricing_plan_id":"cebpf4jnsgd1na2vs0mg"},{"bike_id":"a376388f-8e38-4a45-86d6-1a65433d6918","system_id":"levelo_inurba_marseille","lat":43.29004,"lon":5.35613,"is_reserved":false,"is_disabled":false,"rental_uris":{"android":"levelo://app?vid=a376388f-8e38-4a45-86d6-1a65433d6918","ios":"levelo://app?vid=a376388f-8e38-4a45-86d6-1a65433d6918"},"vehicle_type_id":"4","last_reported":1708366172,"current_range_meters":15600,"station_id":"ce4bhb92rcd13ifvqen0","pricing_plan_id":"cebpf4jnsgd1na2vs0mg"},{"bike_id":"a28d0f7d-ff3d-458a-916a-a0efc1611ef6","system_id":"levelo_inurba_marseille","lat":43.290103,"lon":5.356114,"is_reserved":false,"is_disabled":false,"rental_uris":{"android":"levelo://app?vid=a28d0f7d-ff3d-458a-916a-a0efc1611ef6","ios":"levelo://app?vid=a28d0f7d-ff3d-458a-916a-a0efc1611ef6"},"vehicle_type_id":"4","last_reported":1708366172,"current_range_meters":25200,"station_id":"ce4bhb92rcd13ifvqen0","pricing_plan_id":"cebpf4jnsgd1na2vs0mg"},{"bike_id":"6ff16ab2-61d1-4c5d-9cc6-1f9c4599538b","system_id":"levelo_inurba_marseille","lat":43.290104,"lon":5.356111,"is_reserved":false,"is_disabled":false,"rental_uris":{"android":"levelo://app?vid=6ff16ab2-61d1-4c5d-9cc6-1f9c4599538b","ios":"levelo://app?vid=6ff16ab2-61d1-4c5d-9cc6-1f9c4599538b"},"vehicle_type_id":"4","last_reported":1708366172,"current_range_meters":2800,"station_id":"ce4bhb92rcd13ifvqen0","pricing_plan_id":"cebpf4jnsgd1na2vs0mg"},{"bike_id":"818a66fe-ecce-4c67-9ff0-30fa7a9b9e8e","system_id":"levelo_inurba_marseille","lat":43.290103,"lon":5.356114,"is_reserved":false,"is_disabled":false,"rental_uris":{"android":"levelo://app?vid=818a66fe-ecce-4c67-9ff0-30fa7a9b9e8e","ios":"levelo://app?vid=818a66fe-ecce-4c67-9ff0-30fa7a9b9e8e"},"vehicle_type_id":"4","last_reported":1708366172,"current_range_meters":400,"station_id":"ce4bhb92rcd13ifvqen0","pricing_plan_id":"cebpf4jnsgd1na2vs0mg"},{"bike_id":"c99665f8-a7e4-43be-af3f-5ad7ea54612e","system_id":"levelo_inurba_marseille","lat":43.29002,"lon":5.35613,"is_reserved":false,"is_disabled":false,"rental_uris":{"android":"levelo://app?vid=c99665f8-a7e4-43be-af3f-5ad7ea54612e","ios":"levelo://app?vid=c99665f8-a7e4-43be-af3f-5ad7ea54612e"},"vehicle_type_id":"4","last_reported":1708366172,"current_range_meters":10800,"station_id":"ce4bhb92rcd13ifvqen0","pricing_plan_id":"cebpf4jnsgd1na2vs0mg"},{"bike_id":"e2fde6be-2cb6-4572-b699-27121c055eea","system_id":"levelo_inurba_marseille","lat":43.29001,"lon":5.35612,"is_reserved":false,"is_disabled":false,"rental_uris":{"android":"levelo://app?vid=e2fde6be-2cb6-4572-b699-27121c055eea","ios":"levelo://app?vid=e2fde6be-2cb6-4572-b699-27121c055eea"},"vehicle_type_id":"4","last_reported":1708366172,"current_range_meters":31200,"station_id":"ce4bhb92rcd13ifvqen0","pricing_plan_id":"cebpf4jnsgd1na2vs0mg"},{"bike_id":"92112f1b-4fcd-42d3-9872-1e0583d0a648","system_id":"levelo_inurba_marseille","lat":43.30962,"lon":5.39971,"is_reserved":false,"is_disabled":false,"rental_uris":{"android":"levelo://app?vid=92112f1b-4fcd-42d3-9872-1e0583d0a648","ios":"levelo://app?vid=92112f1b-4fcd-42d3-9872-1e0583d0a648"},"vehicle_type_id":"4","last_reported":1708366172,"current_range_meters":8000,"station_id":"ce4bh092rcd13ifvqd30","pricing_plan_id":"cebpf4jnsgd1na2vs0mg"},{"bike_id":"0639e455-8936-4644-922f-aaa7a6220f7e","system_id":"levelo_inurba_marseille","lat":43.304296,"lon":5.397513,"is_reserved":false,"is_disabled":false,"rental_uris":{"android":"levelo://app?vid=0639e455-8936-4644-922f-aaa7a6220f7e","ios":"levelo://app?vid=0639e455-8936-4644-922f-aaa7a6220f7e"},"vehicle_type_id":"4","last_reported":1708366172,"current_range_meters":16800,"station_id":"ce4bh092rcd13ifvqd20","pricing_plan_id":"cebpf4jnsgd1na2vs0mg"},{"bike_id":"d4465f52-4302-4360-a1b1-3df3d4d6b1f4","system_id":"levelo_inurba_marseille","lat":43.295169,"lon":5.390426,"is_reserved":false,"is_disabled":false,"rental_uris":{"android":"levelo://app?vid=d4465f52-4302-4360-a1b1-3df3d4d6b1f4","ios":"levelo://app?vid=d4465f52-4302-4360-a1b1-3df3d4d6b1f4"},"vehicle_type_id":"4","last_reported":1708366172,"current_range_meters":4000,"station_id":"ce4bh3p2rcd13ifvqdp0","pricing_plan_id":"cebpf4jnsgd1na2vs0mg"},