{"last_updated":1698584809,"ttl":30,"version":"2.2","data":{"bikes":[{"bike_id":"b1cb48cb-22d4-4cd4-97b0-038c1cf723b7","system_id":"levelo_inurba_marseille","lat":43.315186,"lon":5.371432,"is_reserved":false,"is_disabled":false,"rental_uris":{"android":"levelo://app?vid=b1cb48cb-22d4-4cd4-97b0-038c1cf723b7","ios":"levelo://app?vid=b1cb48cb-22d4-4cd4-97b0-038c1cf723b7"},"vehicle_type_id":"4","last_reported":1698584809,"current_range_meters":15200,"station_id":"","pricing_plan_id":"free"},{"bike_id":"ab5a0bbc-71f7-455b-a3ff-28c5e249f832","system_id":"levelo_inurba_marseille","lat":43.3053,"lon":5.3672,"is_reserved":false,"is_disabled":false,"rental_uris":{"android":"levelo://app?vid=ab5a0bbc-71f7-455b-a3ff-28c5e249f832","ios":"levelo://app?vid=ab5a0bbc-71f7-455b-a3ff-28c5e249f832"},"vehicle_type_id":"4","last_reported":1698584809,"current_range_meters":0,"station_id":"ce4bgrp2rcd13ifvqc9g","pricing_plan_id":"free"},{"bike_id":"f252b071-dddd-4e5f-ad07-506846af6d1a","system_id":"levelo_inurba_marseille","lat":43.30534,"lon":5.36527,"is_reserved":false,"is_disabled":false,"rental_uris":{"android":"levelo://app?vid=f252b071-dddd-4e5f-ad07-506846af6d1a","ios":"levelo://app?vid=f252b071-dddd-4e5f-ad07-506846af6d1a"},"vehicle_type_id":"4","last_reported":1698584809,"current_range_meters":14800,"station_id":"ce4bgs12rcd13ifvqcag","pricing_plan_id":"free"},{"bike_id":"bff765c5-cab7-4857-a85b-3c9af9613064","system_id":"levelo_inurba_marseille","lat":43.317075,"lon":5.377367,"is_reserved":false,"is_disabled":false,"rental_uris":{"android":"levelo://app?vid=bff765c5-cab7-4857-a85b-3c9af9613064","ios":"levelo://app?vid=bff765c5-cab7-4857-a85b-3c9af9613064"},"vehicle_type_id":"4","last_reported":1698584809,"current_range_meters":23600,"station_id":"ce4bgth2rcd13ifvqch0","pricing_plan_id":"free"},{"bike_id":"fc6fc194-f20a-4d71-90fd-0f83a1b1d458","system_id":"levelo_inurba_marseille","lat":43.30304,"lon":5.368987,"is_reserved":false,"is_disabled":false,"rental_uris":{"android":"levelo://app?vid=fc6fc194-f20a-4d71-90fd-0f83a1b1d458","ios":"levelo://app?vid=fc6fc194-f20a-4d71-90fd-0f83a1b1d458"},"vehicle_type_id":"4","last_reported":1698584809,"current_range_meters":0,"station_id":"ce4bgqh2rcd13ifvqc5g","pricing_plan_id":"free"},{"bike_id":"c8743d09-6f28-4aac-91cc-2f9facaa9f44","system_id":"levelo_inurba_marseille","lat":43.315376,"lon":5.380329,"is_reserved":false,"is_disabled":false,"rental_uris":{"android":"levelo://app?vid=c8743d09-6f28-4aac-91cc-2f9facaa9f44","ios":"levelo://app?vid=c8743d09-6f28-4aac-91cc-2f9facaa9f44"},"vehicle_type_id":"4","last_reported":1698584809,"current_range_meters":0,"station_id":"ce4bhsp2rcd13ifvqi50","pricing_plan_id":"free"},{"bike_id":"76ccd7e9-5a84-4823-97ba-75798160fcd4","system_id":"levelo_inurba_marseille","lat":43.31537,"lon":5.38035,"is_reserved":false,"is_disabled":false,"rental_uris":{"android":"levelo://app?vid=76ccd7e9-5a84-4823-97ba-75798160fcd4","ios":"levelo://app?vid=76ccd7e9-5a84-4823-97ba-75798160fcd4"},"vehicle_type_id":"4","last_reported":1698584809,"current_range_meters":22000,"station_id":"ce4bhsp2rcd13ifvqi50","pricing_plan_id":"free"},{"bike_id":"be97d1b9-3c0f-4ea5-b7ed-778c91faef35","system_id":"levelo_inurba_marseille","lat":43.308012,"lon":5.381511,"is_reserved":false,"is_disabled":false,"rental_uris":{"android":"levelo://app?vid=be97d1b9-3c0f-4ea5-b7ed-778c91faef35","ios":"levelo://app?vid=be97d1b9-3c0f-4ea5-b7ed-778c91faef35"},"vehicle_type_id":"4","last_reported":1698584809,"current_range_meters":31200,"station_id":"ce4bgt12rcd13ifvqce0","pricing_plan_id":"free"},{"bike_id":"50df6ef1-54eb-4261-9276-83be9e26a850","system_id":"levelo_inurba_marseille","lat":43.308,"lon":5.38151,"is_reserved":false,"is_disabled":false,"rental_uris":{"android":"levelo://app?vid=50df6ef1-54eb-4261-9276-83be9e26a850","ios":"levelo://app?vid=50df6ef1-54eb-4261-9276-83be9e26a850"},"vehicle_type_id":"4","last_reported":1698584809,"current_range_meters":31200,"station_id":"ce4bgt12rcd13ifvqce0","pricing_plan_id":"free"},{"bike_id":"e3f253a1-9788-4492-938f-39b642fbd881","system_id":"levelo_inurba_marseille","lat":43.3245,"lon":5.36788,"is_reserved":false,"is_disabled":false,"rental_uris":{"android":"levelo://app?vid=e3f253a1-9788-4492-938f-39b642fbd881","ios":"levelo://app?vid=e3f253a1-9788-4492-938f-39b642fbd881"},"vehicle_type_id":"4","last_reported":1698584809,"current_range_meters":6000,"station_id":"","pricing_plan_id":"free"},{"bike_id":"d797f1e6-f3ca-4ad7-8b56-5ed6191da53c","system_id":"levelo_inurba_marseille","lat":43.304606,"lon":5.379026,"is_reserved":false,"is_disabled":false,"rental_uris":{"android":"levelo://app?vid=d797f1e6-f3ca-4ad7-8b56-5ed6191da53c","ios":"levelo://app?vid=d797f1e6-f3ca-4ad7-8b56-5ed6191da53c"},"vehicle_type_id":"4","last_reported":1698584809,"current_range_meters":26400,"station_id":"ce4bgup2rcd13ifvqcn0","pricing_plan_id":"free"},{"bike_id":"1f1b0f55-a04a-4348-9a91-5676d9261468","system_id":"levelo_inurba_marseille","lat":43.3248,"lon":5.36559,"is_reserved":false,"is_disabled":false,"rental_uris":{"android":"levelo://app?vid=1f1b0f55-a04a-4348-9a91-5676d9261468","ios":"levelo://app?vid=1f1b0f55-a04a-4348-9a91-5676d9261468"},"vehicle_type_id":"4","last_reported":1698584809,"current_range_meters":10800,"station_id":"","pricing_plan_id":"free"},{"bike_id":"ffc72f24-fc0b-4121-af5e-eb9d2e581b0e","system_id":"levelo_inurba_marseille","lat":43.30143,"lon":5.37413,"is_reserved":false,"is_disabled":false,"rental_uris":{"android":"levelo://app?vid=ffc72f24-fc0b-4121-af5e-eb9d2e581b0e","ios":"levelo://app?vid=ffc72f24-fc0b-4121-af5e-eb9d2e581b0e"},"vehicle_type_id":"4","last_reported":1698584809,"current_range_meters":21600,"station_id":"ce4bgs92rcd13ifvqcc0","pricing_plan_id":"free"},{"bike_id":"5ba66772-20b6-408d-a6c3-0df1cd4bb678","system_id":"levelo_inurba_marseille","lat":43.3264,"lon":5.367334,"is_reserved":false,"is_disabled":false,"rental_uris":{"android":"levelo://app?vid=5ba66772-20b6-408d-a6c3-0df1cd4bb678","ios":"levelo://app?vid=5ba66772-20b6-408d-a6c3-0df1cd4bb678"},"vehicle_type_id":"4","last_reported":1698584809,"current_range_meters":14000,"station_id":"","pricing_plan_id":"free"},{"bike_id":"d6dedac1-a548-4cae-9f87-242968c6cdd4","system_id":"levelo_inurba_marseille","lat":43.305364,"lon":5.384119,"is_reserved":false,"is_disabled":false,"rental_uris":{"android":"levelo://app?vid=d6dedac1-a548-4cae-9f87-242968c6cdd4","ios":"levelo://app?vid=d6dedac1-a548-4cae-9f87-242968c6cdd4"},"vehicle_type_id":"4","last_reported":1698584809,"current_range_meters":24800,"station_id":"ce4bgg92rcd13ifvqb30","pricing_plan_id":"free"},{"bike_id":"ac5590eb-5cb2-4bc3-b23b-b175d85b6f76","system_id":"levelo_inurba_marseille","lat":43.305364,"lon":5.384119,"is_reserved":false,"is_disabled":false,"rental_uris":{"android":"levelo://app?vid=ac5590eb-5cb2-4bc3-b23b-b175d85b6f76","ios":"levelo://app?vid=ac5590eb-5cb2-4bc3-b23b-b175d85b6f76"},"vehicle_type_id":"4","last_reported":1698584809,"current_range_meters":400,"station_id":"ce4bgg92rcd13ifvqb30","pricing_plan_id":"free"},{"bike_id":"532ca815-6b7f-49e5-baee-589726bf06a0","system_id":"levelo_inurba_marseille","lat":43.305364,"lon":5.384119,"is_reserved":false,"is_disabled":false,"rental_uris":{"android":"levelo://app?vid=532ca815-6b7f-49e5-baee-589726bf06a0","ios":"levelo://app?vid=532ca815-6b7f-49e5-baee-589726bf06a0"},"vehicle_type_id":"4","last_reported":1698584809,"current_range_meters":13200,"station_id":"ce4bgg92rcd13ifvqb30","pricing_plan_id":"free"},{"bike_id":"268c44fa-a87e-4c45-aa64-0ed0936b0460","system_id":"levelo_inurba_marseille","lat":43.305364,"lon":5.384119,"is_reserved":false,"is_disabled":false,"rental_uris":{"android":"levelo://app?vid=268c44fa-a87e-4c45-aa64-0ed0936b0460","ios":"levelo://app?vid=268c44fa-a87e-4c45-aa64-0ed0936b0460"},"vehicle_type_id":"4","last_reported":1698584809,"current_range_meters":11200,"station_id":"ce4bgg92rcd13ifvqb30","pricing_plan_id":"free"},{"bike_id":"b7741fc6-4184-4b83-a784-f85aca703483","system_id":"levelo_inurba_marseille","lat":43.311722,"lon":5.387247,"is_reserved":false,"is_disabled":false,"rental_uris":{"android":"levelo://app?vid=b7741fc6-4184-4b83-a784-f85aca703483","ios":"levelo://app?vid=b7741fc6-4184-4b83-a784-f85aca703483"},"vehicle_type_id":"4","last_reported":1698584809,"current_range_meters":28800,"station_id":"ce4bgv12rcd13ifvqcp0","pricing_plan_id":"free"},{"bike_id":"f0a83082-b96a-4128-b9ba-804afd1bb2f0","system_id":"levelo_inurba_marseille","lat":43.298433,"lon":5.362774,"is_reserved":false,"is_disabled":false,"rental_uris":{"android":"levelo://app?vid=f0a83082-b96a-4128-b9ba-804afd1bb2f0","ios":"levelo://app?vid=f0a83082-b96a-4128-b9ba-804afd1bb2f0"},"vehicle_type_id":"4","last_reported":1698584809,"current_range_meters":7200,"station_id":"ce4bgpp2rcd13ifvqc3g","pricing_plan_id":"free"},{"bike_id":"23ef33b7-5f15-4880-b52e-080bc32e58c9","system_id":"levelo_inurba_marseille","lat":43.322872,"lon":5.382756,"is_reserved":false,"is_disabled":false,"rental_uris":{"android":"levelo://app?vid=23ef33b7-5f15-4880-b52e-080bc32e58c9","ios":"levelo://app?vid=23ef33b7-5f15-4880-b52e-080bc32e58c9"},"vehicle_type_id":"4","last_reported":1698584809,"current_range_meters":16800,"station_id":"ce4bhr12rcd13ifvqhqg","pricing_plan_id":"free"},{"bike_id":"de3c62df-30bd-453f-beb1-667898b8adcf","system_id":"levelo_inurba_marseille","lat":43.322872,"lon":5.382756,"is_reserved":false,"is_disabled":false,"rental_uris":{"android":"levelo://app?vid=de3c62df-30bd-453f-beb1-667898b8adcf","ios":"levelo://app?vid=de3c62df-30bd-453f-beb1-667898b8adcf"},"vehicle_type_id":"4","last_reported":1698584809,"current_range_meters":23600,"station_id":"ce4bhr12rcd13ifvqhqg","pricing_plan_id":"free"},{"bike_id":"2bf09692-7151-4aba-9fa7-8ce1d6106004","system_id":"levelo_inurba_marseille","lat":43.328303,"lon":5.366873,"is_reserved":false,"is_disabled":false,"rental_uris":{"android":"levelo://app?vid=2bf09692-7151-4aba-9fa7-8ce1d6106004","ios":"levelo://app?vid=2bf09692-7151-4aba-9fa7-8ce1d6106004"},"vehicle_type_id":"4","last_reported":1698584809,"current_range_meters":9200,"station_id":"","pricing_plan_id":"free"},{"bike_id":"d7197a87-95ba-4b24-ba88-10c6ae102454","system_id":"levelo_inurba_marseille","lat":43.328371,"lon":5.366909,"is_reserved":false,"is_disabled":false,"rental_uris":{"android":"levelo://app?vid=d7197a87-95ba-4b24-ba88-10c6ae102454","ios":"levelo://app?vid=d7197a87-95ba-4b24-ba88-10c6ae102454"},"vehicle_type_id":"4","last_reported":1698584809,"current_range_meters":0,"station_id":"ce4bhs92rcd13ifvqi0g","pricing_plan_id":"free"},{"bike_id":"9e186f55-d906-4b54-9553-eed70e222375","system_id":"levelo_inurba_marseille","lat":43.323159,"lon":5.382863,"is_reserved":false,"is_disabled":false,"rental_uris":{"android":"levelo://app?vid=9e186f55-d906-4b54-9553-eed70e222375","ios":"levelo://app?vid=9e186f55-d906-4b54-9553-eed70e222375"},"vehicle_type_id":"4","last_reported":1698584809,"current_range_meters":23200,"station_id":"ce4bhr12rcd13ifvqhqg","pricing_plan_id":"free"},{"bike_id":"0e8233d2-0d57-470f-8c07-e9f753046a4f","system_id":"levelo_inurba_marseille","lat":43.323172,"lon":5.382921,"is_reserved":false,"is_disabled":false,"rental_uris":{"android":"levelo://app?vid=0e8233d2-0d57-470f-8c07-e9f753046a4f","ios":"levelo://app?vid=0e8233d2-0d57-470f-8c07-e9f753046a4f"},"vehicle_type_id":"4","last_reported":1698584809,"current_range_meters":27200,"station_id":"ce4bhr12rcd13ifvqhqg","pricing_plan_id":"free"},{"bike_id":"b820748d-c81c-4c8a-acb5-24ea055c0282","system_id":"levelo_inurba_marseille","lat":43.29573,"lon":5.367355,"is_reserved":false,"is_disabled":false,"rental_uris":{"android":"levelo://app?vid=b820748d-c81c-4c8a-acb5-24ea055c0282","ios":"levelo://app?vid=b820748d-c81c-4c8a-acb5-24ea055c0282"},"vehicle_type_id":"4","last_reported":1698584809,"current_range_meters":13200,"station_id":"ce4bgph2rcd13ifvqc2g","pricing_plan_id":"free"},{"bike_id":"d23f3784-e68e-4e92-b534-9c5c66428c7a","system_id":"levelo_inurba_marseille","lat":43.29573,"lon":5.367355,"is_reserved":false,"is_disabled":false,"rental_uris":{"android":"levelo://app?vid=d23f3784-e68e-4e92-b534-9c5c66428c7a","ios":"levelo://app?vid=d23f3784-e68e-4e92-b534-9c5c66428c7a"},"vehicle_type_id":"4","last_reported":1698584809,"current_range_meters":31200,"station_id":"ce4bgph2rcd13ifvqc2g","pricing_plan_id":"free"},{"bike_id":"4720f7cb-943f-485a-9a94-f6c36f90df5f","system_id":"levelo_inurba_marseille","lat":43.296131,"lon":5.370773,"is_reserved":false,"is_disabled":false,"rental_uris":{"android":"levelo://app?vid=4720f7cb-943f-485a-9a94-f6c36f90df5f","ios":"levelo://app?vid=4720f7cb-943f-485a-9a94-f6c36f90df5f"},"vehicle_type_id":"4","last_reported":1698584809,"current_range_meters":19200,"station_id":"ce4bgnh2rcd13ifvqc0g","pricing_plan_id":"free"},{"bike_id":"9b8b400d-e367-461b-87b0-bbec378036e2","system_id":"levelo_inurba_marseille","lat":43.296131,"lon":5.370773,"is_reserved":false,"is_disabled":false,"rental_uris":{"android":"levelo://app?vid=9b8b400d-e367-461b-87b0-bbec378036e2","ios":"levelo://app?vid=9b8b400d-e367-461b-87b0-bbec378036e2"},"vehicle_type_id":"4","last_reported":1698584809,"current_range_meters":22800,"station_id":"ce4bgnh2rcd13ifvqc0g","pricing_plan_id":"free"},{"bike_id":"ac556d6b-c942-4e7d-b681-3977605a755d","system_id":"levelo_inurba_marseille","lat":43.296129,"lon":5.370777,"is_reserved":false,"is_disabled":false,"rental_uris":{"android":"levelo://app?vid=ac556d6b-c942-4e7d-b681-3977605a755d","ios":"levelo://app?vid=ac556d6b-c942-4e7d-b681-3977605a755d"},"vehicle_type_id":"4","last_reported":1698584809,"current_range_meters":0,"station_id":"ce4bgnh2rcd13ifvqc0g","pricing_plan_id":"free"},{"bike_id":"d84c61fc-7097-4d45-b419-07152ddc714d","system_id":"levelo_inurba_marseille","lat":43.29586,"lon":5.36751,"is_reserved":false,"is_disabled":false,"rental_uris":{"android":"levelo://app?vid=d84c61fc-7097-4d45-b419-07152ddc714d","ios":"levelo://app?vid=d84c61fc-7097-4d45-b419-07152ddc714d"},"vehicle_type_id":"4","last_reported":1698584809,"current_range_meters":4400,"station_id":"ce4bgph2rcd13ifvqc2g","pricing_plan_id":"free"},{"bike_id":"3fa84dce-f2a9-4b4b-b039-163a54db5875","system_id":"levelo_inurba_marseille","lat":43.295846,"lon":5.367408,"is_reserved":false,"is_disabled":false,"rental_uris":{"android":"levelo://app?vid=3fa84dce-f2a9-4b4b-b039-163a54db5875","ios":"levelo://app?vid=3fa84dce-f2a9-4b4b-b039-163a54db5875"},"vehicle_type_id":"4","last_reported":1698584809,"current_range_meters":22400,"station_id":"ce4bgph2rcd13ifvqc2g","pricing_plan_id":"free"},{"bike_id":"0e36044a-87f6-4e45-a410-cde9bbdebfce","system_id":"levelo_inurba_marseille","lat":43.298433,"lon":5.362774,"is_reserved":false,"is_disabled":false,"rental_uris":{"android":"levelo://app?vid=0e36044a-87f6-4e45-a410-cde9bbdebfce","ios":"levelo://app?vid=0e36044a-87f6-4e45-a410-cde9bbdebfce"},"vehicle_type_id":"4","last_reported":1698584809,"current_range_meters":24400,"station_id":"ce4bgpp2rcd13ifvqc3g","pricing_plan_id":"free"},{"bike_id":"c0f0d5e9-e584-45b0-a6b7-e87b10daee49","system_id":"levelo_inurba_marseille","lat":43.29573,"lon":5.367355,"is_reserved":false,"is_disabled":false,"rental_uris":{"android":"levelo://app?vid=c0f0d5e9-e584-45b0-a6b7-e87b10daee49","ios":"levelo://app?vid=c0f0d5e9-e584-45b0-a6b7-e87b10daee49"},"vehicle_type_id":"4","last_reported":1698584809,"current_range_meters":28800,"station_id":"ce4bgph2rcd13ifvqc2g","pricing_plan_id":"free"},{"bike_id":"5da5c749-5874-4f42-9916-b7c72b2e9d8c","system_id":"levelo_inurba_marseille","lat":43.29573,"lon":5.367355,"is_reserved":false,"is_disabled":false,"rental_uris":{"android":"levelo://app?vid=5da5c749-5874-4f42-9916-b7c72b2e9d8c","ios":"levelo://app?vid=5da5c749-5874-4f42-9916-b7c72b2e9d8c"},"vehicle_type_id":"4","last_reported":1698584809,"current_range_meters":26000,"station_id":"ce4bgph2rcd13ifvqc2g","pricing_plan_id":"free"},{"bike_id":"1015bae6-9525-427c-ba6d-c0f923f2b093","system_id":"levelo_inurba_marseille","lat":43.29583,"lon":5.3674,"is_reserved":false,"is_disabled":false,"rental_uris":{"android":"levelo://app?vid=1015bae6-9525-427c-ba6d-c0f923f2b093","ios":"levelo://app?vid=1015bae6-9525-427c-ba6d-c0f923f2b093"},"vehicle_type_id":"4","last_reported":1698584809,"current_range_meters":20800,"station_id":"ce4bgph2rcd13ifvqc2g","pricing_plan_id":"free"},{"bike_id":"eb229402-418c-4091-8ee3-17abf395ed5a","system_id":"levelo_inurba_marseille","lat":43.29582,"lon":5.36744,"is_reserved":false,"is_disabled":false,"rental_uris":{"android":"levelo://app?vid=eb229402-418c-4091-8ee3-17abf395ed5a","ios":"levelo://app?vid=eb229402-418c-4091-8ee3-17abf395ed5a"},"vehicle_type_id":"4","last_reported":1698584809,"current_range_meters":24800,"station_id":"ce4bgph2rcd13ifvqc2g","pricing_plan_id":"free"},{"bike_id":"b05c2506-26df-4f8f-88b1-be874dce894d","system_id":"levelo_inurba_marseille","lat":43.295803,"lon":5.367405,"is_reserved":false,"is_disabled":false,"rental_uris":{"android":"levelo://app?vid=b05c2506-26df-4f8f-88b1-be874dce894d","ios":"levelo://app?vid=b05c2506-26df-4f8f-88b1-be874dce894d"},"vehicle_type_id":"4","last_reported":1698584809,"current_range_meters":25200,"station_id":"ce4bgph2rcd13ifvqc2g","pricing_plan_id":"free"},{"bike_id":"f3d0381f-7a2d-409e-a12f-bd3d9095653d","system_id":"levelo_inurba_marseille","lat":43.329673,"lon":5.365468,"is_reserved":false,"is_disabled":false,"rental_uris":{"android":"levelo://app?vid=f3d0381f-7a2d-409e-a12f-bd3d9095653d","ios":"levelo://app?vid=f3d0381f-7a2d-409e-a12f-bd3d9095653d"},"vehicle_type_id":"4","last_reported":1698584809,"current_range_meters":1200,"station_id":"","pricing_plan_id":"free"},{"bike_id":"21c7d586-a251-45c6-b4c4-9a49607eb34d","system_id":"levelo_inurba_marseille","lat":43.29573,"lon":5.367355,"is_reserved":false,"is_disabled":false,"rental_uris":{"android":"levelo://app?vid=21c7d586-a251-45c6-b4c4-9a49607eb34d","ios":"levelo://app?vid=21c7d586-a251-45c6-b4c4-9a49607eb34d"},"vehicle_type_id":"4","last_reported":1698584809,"current_range_meters":31200,"station_id":"ce4bgph2rcd13ifvqc2g","pricing_plan_id":"free"},{"bike_id":"414b7895-6377-47cd-bec7-456d362befcc","system_id":"levelo_inurba_marseille","lat":43.29721,"lon":5.37687,"is_reserved":false,"is_disabled":false,"rental_uris":{"android":"levelo://app?vid=414b7895-6377-47cd-bec7-456d362befcc","ios":"levelo://app?vid=414b7895-6377-47cd-bec7-456d362befcc"},"vehicle_type_id":"4","last_reported":1698584809,"current_range_meters":31200,"station_id":"ce4bgkh2rcd13ifvqbl0","pricing_plan_id":"free"},{"bike_id":"fb72309d-f8b4-4a4c-b832-5d26bca6ea95","system_id":"levelo_inurba_marseille","lat":43.299028,"lon":5.381509,"is_reserved":false,"is_disabled":false,"rental_uris":{"android":"levelo://app?vid=fb72309d-f8b4-4a4c-b832-5d26bca6ea95","ios":"levelo://app?vid=fb72309d-f8b4-4a4c-b832-5d26bca6ea95"},"vehicle_type_id":"4","last_reported":1698584809,"current_range_meters":31200,"station_id":"ce4bgj12rcd13ifvqbc0","pricing_plan_id":"free"},{"bike_id":"6ebee662-ea64-4200-99d4-6347adfd39e9","system_id":"levelo_inurba_marseille","lat":43.309589,"lon":5.390258,"is_reserved":false,"is_disabled":false,"rental_uris":{"android":"levelo://app?vid=6ebee662-ea64-4200-99d4-6347adfd39e9","ios":"levelo://app?vid=6ebee662-ea64-4200-99d4-6347adfd39e9"},"vehicle_type_id":"4","last_reported":1698584809,"current_range_meters":14800,"station_id":"ce4bgup2rcd13ifvqco0","pricing_plan_id":"free"},{"bike_id":"dbf1072e-955d-4a17-888b-f363b6f7d560","system_id":"levelo_inurba_marseille","lat":43.309589,"lon":5.390258,"is_reserved":false,"is_disabled":false,"rental_uris":{"android":"levelo://app?vid=dbf1072e-955d-4a17-888b-f363b6f7d560","ios":"levelo://app?vid=dbf1072e-955d-4a17-888b-f363b6f7d560"},"vehicle_type_id":"4","last_reported":1698584809,"current_range_meters":31200,"station_id":"ce4bgup2rcd13ifvqco0","pricing_plan_id":"free"},{"bike_id":"49d77ff6-84b1-41b0-807c-a16836351519","system_id":"levelo_inurba_marseille","lat":43.309589,"lon":5.390258,"is_reserved":false,"is_disabled":false,"rental_uris":{"android":"levelo://app?vid=49d77ff6-84b1-41b0-807c-a16836351519","ios":"levelo://app?vid=49d77ff6-84b1-41b0-807c-a16836351519"},"vehicle_type_id":"4","last_reported":1698584809,"current_range_meters":14400,"station_id":"ce4bgup2rcd13ifvqco0","pricing_plan_id":"free"},{"bike_id":"5ee94102-8ba9-4a11-ba4b-1bf58068733e","system_id":"levelo_inurba_marseille","lat":43.309589,"lon":5.390258,"is_reserved":false,"is_disabled":false,"rental_uris":{"android":"levelo://app?vid=5ee94102-8ba9-4a11-ba4b-1bf58068733e","ios":"levelo://app?vid=5ee94102-8ba9-4a11-ba4b-1bf58068733e"},"vehicle_type_id":"4","last_reported":1698584809,"current_range_meters":0,"station_id":"ce4bgup2rcd13ifvqco0","pricing_plan_id":"free"},{"bike_id":"41d83fb9-2885-4686-8a9e-4246e9d0cfbb","system_id":"levelo_inurba_marseille","lat":43.309589,"lon":5.390258,"is_reserved":false,"is_disabled":false,"rental_uris":{"android":"levelo://app?vid=41d83fb9-2885-4686-8a9e-4246e9d0cfbb","ios":"levelo://app?vid=41d83fb9-2885-4686-8a9e-4246e9d0cfbb"},"vehicle_type_id":"4","last_reported":1698584809,"current_range_meters":31200,"station_id":"ce4bgup2rcd13ifvqco0","pricing_plan_id":"free"},{"bike_id":"7b801bb3-a4dd-418c-92dd-54d6c594dfec","system_id":"levelo_inurba_marseille","lat":43.31758,"lon":5.39021,"is_reserved":false,"is_disabled":false,"rental_uris":{"android":"levelo://app?vid=7b801bb3-a4dd-418c-92dd-54d6c594dfec","ios":"levelo://app?vid=7b801bb3-a4dd-418c-92dd-54d6c594dfec"},"vehicle_type_id":"4","last_reported":1698584809,"current_range_meters":28000,"station_id":"ce4bhqp2rcd13ifvqhng","pricing_plan_id":"free"},{"bike_id":"3b586e0c-9729-410d-a37d-bad94eb9d842","system_id":"levelo_inurba_marseille","lat":43.298037,"lon":5.381066,"is_reserved":false,"is_disabled":false,"rental_uris":{"android":"levelo://app?vid=3b586e0c-9729-410d-a37d-bad94eb9d842","ios":"levelo://app?vid=3b586e0c-9729-410d-a37d-bad94eb9d842"},"vehicle_type_id":"4","last_reported":1698584809,"current_range_meters":31600,"station_id":"ce4bgip2rcd13ifvqbb0","pricing_plan_id":"free"},{"bike_id":"823272f9-65ba-4d2f-b2f3-51c89cbed46f","system_id":"levelo_inurba_marseille","lat":43.298037,"lon":5.381066,"is_reserved":false,"is_disabled":false,"rental_uris":{"android":"levelo://app?vid=823272f9-65ba-4d2f-b2f3-51c89cbed46f","ios":"levelo://app?vid=823272f9-65ba-4d2f-b2f3-51c89cbed46f"},"vehicle_type_id":"4","last_reported":1698584809,"current_range_meters":30800,"station_id":"ce4bgip2rcd13ifvqbb0","pricing_plan_id":"free"},{"bike_id":"7ea4fcc5-0e77-4309-b96c-fed4f51200f2","system_id":"levelo_inurba_marseille","lat":43.298037,"lon":5.381066,"is_reserved":false,"is_disabled":false,"rental_uris":{"android":"levelo://app?vid=7ea4fcc5-0e77-4309-b96c-fed4f51200f2","ios":"levelo://app?vid=7ea4fcc5-0e77-4309-b96c-fed4f51200f2"},"vehicle_type_id":"4","last_reported":1698584809,"current_range_meters":25600,"station_id":"ce4bgip2rcd13ifvqbb0","pricing_plan_id":"free"},{"bike_id":"9cd68160-28f1-4598-808e-208ca8646910","system_id":"levelo_inurba_marseille","lat":43.298037,"lon":5.381066,"is_reserved":false,"is_disabled":false,"rental_uris":{"android":"levelo://app?vid=9cd68160-28f1-4598-808e-208ca8646910","ios":"levelo://app?vid=9cd68160-28f1-4598-808e-208ca8646910"},"vehicle_type_id":"4","last_reported":1698584809,"current_range_meters":16000,"station_id":"ce4bgip2rcd13ifvqbb0","pricing_plan_id":"free"},{"bike_id":"0805ba41-551a-474c-b7b6-7f7941dc7f66","system_id":"levelo_inurba_marseille","lat":43.298037,"lon":5.381066,"is_reserved":false,"is_disabled":false,"rental_uris":{"android":"levelo://app?vid=0805ba41-551a-474c-b7b6-7f7941dc7f66","ios":"levelo://app?vid=0805ba41-551a-474c-b7b6-7f7941dc7f66"},"vehicle_type_id":"4","last_reported":1698584809,"current_range_meters":15200,"station_id":"ce4bgip2rcd13ifvqbb0","pricing_plan_id":"free"},{"bike_id":"4ed4b23c-4561-4f21-a563-e8d307094dba","system_id":"levelo_inurba_marseille","lat":43.298037,"lon":5.381066,"is_reserved":false,"is_disabled":false,"rental_uris":{"android":"levelo://app?vid=4ed4b23c-4561-4f21-a563-e8d307094dba","ios":"levelo://app?vid=4ed4b23c-4561-4f21-a563-e8d307094dba"},"vehicle_type_id":"4","last_reported":1698584809,"current_range_meters":21600,"station_id":"ce4bgip2rcd13ifvqbb0","pricing_plan_id":"free"},{"bike_id":"81406a52-e0a8-42a3-a24e-7146a28cea52","system_id":"levelo_inurba_marseille","lat":43.304274,"lon":5.388873,"is_reserved":false,"is_disabled":false,"rental_uris":{"android":"levelo://app?vid=81406a52-e0a8-42a3-a24e-7146a28cea52","ios":"levelo://app?vid=81406a52-e0a8-42a3-a24e-7146a28cea52"},"vehicle_type_id":"4","last_reported":1698584809,"current_range_meters":28400,"station_id":"ce4bgk12rcd13ifvqbi0","pricing_plan_id":"free"},{"bike_id":"68fe0070-36d3-4397-8256-e57fcc027f3c","system_id":"levelo_inurba_marseille","lat":43.299707,"lon":5.384859,"is_reserved":false,"is_disabled":false,"rental_uris":{"android":"levelo://app?vid=68fe0070-36d3-4397-8256-e57fcc027f3c","ios":"levelo://app?vid=68fe0070-36d3-4397-8256-e57fcc027f3c"},"vehicle_type_id":"4","last_reported":1698584809,"current_range_meters":24400,"station_id":"ce4bgj92rcd13ifvqbd0","pricing_plan_id":"free"},{"bike_id":"14862cd4-1e4a-4e64-9277-061017b14943","system_id":"levelo_inurba_marseille","lat":43.29969,"lon":5.385,"is_reserved":false,"is_disabled":false,"rental_uris":{"android":"levelo://app?vid=14862cd4-1e4a-4e64-9277-061017b14943","ios":"levelo://app?vid=14862cd4-1e4a-4e64-9277-061017b14943"},"vehicle_type_id":"4","last_reported":1698584809,"current_range_meters":12800,"station_id":"ce4bgj92rcd13ifvqbd0","pricing_plan_id":"free"},{"bike_id":"1618c45c-064c-41b3-9198-fdd4d9e323f6","system_id":"levelo_inurba_marseille","lat":43.299724,"lon":5.384848,"is_reserved":false,"is_disabled":false,"rental_uris":{"android":"levelo://app?vid=1618c45c-064c-41b3-9198-fdd4d9e323f6","ios":"levelo://app?vid=1618c45c-064c-41b3-9198-fdd4d9e323f6"},"vehicle_type_id":"4","last_reported":1698584809,"current_range_meters":11200,"station_id":"ce4bgj92rcd13ifvqbd0","pricing_plan_id":"free"},{"bike_id":"d882f9be-ebc3-4922-a78d-7fbfe879cf24","system_id":"levelo_inurba_marseille","lat":43.299717,"lon":5.384845,"is_reserved":false,"is_disabled":false,"rental_uris":{"android":"levelo://app?vid=d882f9be-ebc3-4922-a78d-7fbfe879cf24","ios":"levelo://app?vid=d882f9be-ebc3-4922-a78d-7fbfe879cf24"},"vehicle_type_id":"4","last_reported":1698584809,"current_range_meters":14000,"station_id":"ce4bgj92rcd13ifvqbd0","pricing_plan_id":"free"},{"bike_id":"ae172f0d-1175-41fc-b6bd-c3c7c264591a","system_id":"levelo_inurba_marseille","lat":43.299717,"lon":5.384845,"is_reserved":false,"is_disabled":false,"rental_uris":{"android":"levelo://app?vid=ae172f0d-1175-41fc-b6bd-c3c7c264591a","ios":"levelo://app?vid=ae172f0d-1175-41fc-b6bd-c3c7c264591a"},"vehicle_type_id":"4","last_reported":1698584809,"current_range_meters":31200,"station_id":"ce4bgj92rcd13ifvqbd0","pricing_plan_id":"free"},{"bike_id":"f7b83623-a7ae-41fb-8561-6e4c7ce9555b","system_id":"levelo_inurba_marseille","lat":43.29602,"lon":5.381084,"is_reserved":false,"is_disabled":false,"rental_uris":{"android":"levelo://app?vid=f7b83623-a7ae-41fb-8561-6e4c7ce9555b","ios":"levelo://app?vid=f7b83623-a7ae-41fb-8561-6e4c7ce9555b"},"vehicle_type_id":"4","last_reported":1698584809,"current_range_meters":2000,"station_id":"ce4bgl12rcd13ifvqbo0","pricing_plan_id":"free"},{"bike_id":"e6641710-857e-486f-a69f-ac869594bf9c","system_id":"levelo_inurba_marseille","lat":43.29601,"lon":5.38092,"is_reserved":false,"is_disabled":false,"rental_uris":{"android":"levelo://app?vid=e6641710-857e-486f-a69f-ac869594bf9c","ios":"levelo://app?vid=e6641710-857e-486f-a69f-ac869594bf9c"},"vehicle_type_id":"4","last_reported":1698584809,"current_range_meters":0,"station_id":"ce4bgl12rcd13ifvqbo0","pricing_plan_id":"free"},{"bike_id":"099b2ecc-715b-4ffc-b81a-4aa9183835f8","system_id":"levelo_inurba_marseille","lat":43.29602,"lon":5.381084,"is_reserved":false,"is_disabled":false,"rental_uris":{"android":"levelo://app?vid=099b2ecc-715b-4ffc-b81a-4aa9183835f8","ios":"levelo://app?vid=099b2ecc-715b-4ffc-b81a-4aa9183835f8"},"vehicle_type_id":"4","last_reported":1698584809,"current_range_meters":7200,"station_id":"ce4bgl12rcd13ifvqbo0","pricing_plan_id":"free"},{"bike_id":"56d6b89b-2b2c-4f93-8d29-26800e91e68e","system_id":"levelo_inurba_marseille","lat":43.29609,"lon":5.38113,"is_reserved":false,"is_disabled":false,"rental_uris":{"android":"levelo://app?vid=56d6b89b-2b2c-4f93-8d29-26800e91e68e","ios":"levelo://app?vid=56d6b89b-2b2c-4f93-8d29-26800e91e68e"},"vehicle_type_id":"4","last_reported":1698584809,"current_range_meters":30000,"station_id":"ce4bgl12rcd13ifvqbo0","pricing_plan_id":"free"},{"bike_id":"93297ed2-2ae8-46ec-bb59-64894c6f31e5","system_id":"levelo_inurba_marseille","lat":43.284219,"lon":5.3497,"is_reserved":false,"is_disabled":false,"rental_uris":{"android":"levelo://app?vid=93297ed2-2ae8-46ec-bb59-64894c6f31e5","ios":"levelo://app?vid=93297ed2-2ae8-46ec-bb59-64894c6f31e5"},"vehicle_type_id":"4","last_reported":1698584809,"current_range_meters":22000,"station_id":"ce4bhbh2rcd13ifvqepg","pricing_plan_id":"free"},{"bike_id":"2fba540e-b75f-4a68-83b5-72a725449f8c","system_id":"levelo_inurba_marseille","lat":43.293259,"lon":5.371586,"is_reserved":false,"is_disabled":false,"rental_uris":{"android":"levelo://app?vid=2fba540e-b75f-4a68-83b5-72a725449f8c","ios":"levelo://app?vid=2fba540e-b75f-4a68-83b5-72a725449f8c"},"vehicle_type_id":"4","last_reported":1698584809,"current_range_meters":31200,"station_id":"ce4bgh92rcd13ifvqb40","pricing_plan_id":"free"},{"bike_id":"7b0e76ce-566c-4fa9-8527-f1c9d6f92ec7","system_id":"levelo_inurba_marseille","lat":43.29282,"lon":5.36844,"is_reserved":false,"is_disabled":false,"rental_uris":{"android":"levelo://app?vid=7b0e76ce-566c-4fa9-8527-f1c9d6f92ec7","ios":"levelo://app?vid=7b0e76ce-566c-4fa9-8527-f1c9d6f92ec7"},"vehicle_type_id":"4","last_reported":1698584809,"current_range_meters":14000,"station_id":"ce4bhbp2rcd13ifvqesg","pricing_plan_id":"free"},{"bike_id":"68a2b8e1-ae63-482f-a5a6-807dd96226bb","system_id":"levelo_inurba_marseille","lat":43.29281,"lon":5.3683,"is_reserved":false,"is_disabled":false,"rental_uris":{"android":"levelo://app?vid=68a2b8e1-ae63-482f-a5a6-807dd96226bb","ios":"levelo://app?vid=68a2b8e1-ae63-482f-a5a6-807dd96226bb"},"vehicle_type_id":"4","last_reported":1698584809,"current_range_meters":4800,"station_id":"ce4bhbp2rcd13ifvqesg","pricing_plan_id":"free"},{"bike_id":"84bfa6da-335e-403d-8b9e-7da9edfd32d0","system_id":"levelo_inurba_marseille","lat":43.29281,"lon":5.36845,"is_reserved":false,"is_disabled":false,"rental_uris":{"android":"levelo://app?vid=84bfa6da-335e-403d-8b9e-7da9edfd32d0","ios":"levelo://app?vid=84bfa6da-335e-403d-8b9e-7da9edfd32d0"},"vehicle_type_id":"4","last_reported":1698584809,"current_range_meters":29200,"station_id":"ce4bhbp2rcd13ifvqesg","pricing_plan_id":"free"},{"bike_id":"835daa3e-09fa-4f29-88f6-bd85f6655bcd","system_id":"levelo_inurba_marseille","lat":43.292786,"lon":5.368419,"is_reserved":false,"is_disabled":false,"rental_uris":{"android":"levelo://app?vid=835daa3e-09fa-4f29-88f6-bd85f6655bcd","ios":"levelo://app?vid=835daa3e-09fa-4f29-88f6-bd85f6655bcd"},"vehicle_type_id":"4","last_reported":1698584809,"current_range_meters":26400,"station_id":"ce4bhbp2rcd13ifvqesg","pricing_plan_id":"free"},{"bike_id":"f209edb5-fde1-439e-8268-aca3b445d25f","system_id":"levelo_inurba_marseille","lat":43.293259,"lon":5.371586,"is_reserved":false,"is_disabled":false,"rental_uris":{"android":"levelo://app?vid=f209edb5-fde1-439e-8268-aca3b445d25f","ios":"levelo://app?vid=f209edb5-fde1-439e-8268-aca3b445d25f"},"vehicle_type_id":"4","last_reported":1698584809,"current_range_meters":21600,"station_id":"ce4bgh92rcd13ifvqb40","pricing_plan_id":"free"},{"bike_id":"bf812456-6183-4bcc-a5aa-cb6f7c7878bb","system_id":"levelo_inurba_marseille","lat":43.29275,"lon":5.36847,"is_reserved":false,"is_disabled":false,"rental_uris":{"android":"levelo://app?vid=bf812456-6183-4bcc-a5aa-cb6f7c7878bb","ios":"levelo://app?vid=bf812456-6183-4bcc-a5aa-cb6f7c7878bb"},"vehicle_type_id":"4","last_reported":1698584809,"current_range_meters":25600,"station_id":"ce4bhbp2rcd13ifvqesg","pricing_plan_id":"free"},{"bike_id":"13541381-a278-43e0-8612-8f2f0ca7951f","system_id":"levelo_inurba_marseille","lat":43.293032,"lon":5.374496,"is_reserved":false,"is_disabled":false,"rental_uris":{"android":"levelo://app?vid=13541381-a278-43e0-8612-8f2f0ca7951f","ios":"levelo://app?vid=13541381-a278-43e0-8612-8f2f0ca7951f"},"vehicle_type_id":"4","last_reported":1698584809,"current_range_meters":0,"station_id":"ce4bgi12rcd13ifvqb70","pricing_plan_id":"free"},{"bike_id":"5ff0bd92-eb43-4c5e-823a-c0319f14fbf2","system_id":"levelo_inurba_marseille","lat":43.305994,"lon":5.393687,"is_reserved":false,"is_disabled":false,"rental_uris":{"android":"levelo://app?vid=5ff0bd92-eb43-4c5e-823a-c0319f14fbf2","ios":"levelo://app?vid=5ff0bd92-eb43-4c5e-823a-c0319f14fbf2"},"vehicle_type_id":"4","last_reported":1698584809,"current_range_meters":3200,"station_id":"ce4bh0p2rcd13ifvqd80","pricing_plan_id":"free"},{"bike_id":"2a859f23-9118-4ef1-ae6f-aa013199a312","system_id":"levelo_inurba_marseille","lat":43.293009,"lon":5.374584,"is_reserved":false,"is_disabled":false,"rental_uris":{"android":"levelo://app?vid=2a859f23-9118-4ef1-ae6f-aa013199a312","ios":"levelo://app?vid=2a859f23-9118-4ef1-ae6f-aa013199a312"},"vehicle_type_id":"4","last_reported":1698584809,"current_range_meters":20800,"station_id":"ce4bgi12rcd13ifvqb70","pricing_plan_id":"free"},{"bike_id":"7f8ce693-1060-4207-9bbd-52c18c39baa6","system_id":"levelo_inurba_marseille","lat":43.293009,"lon":5.374584,"is_reserved":false,"is_disabled":false,"rental_uris":{"android":"levelo://app?vid=7f8ce693-1060-4207-9bbd-52c18c39baa6","ios":"levelo://app?vid=7f8ce693-1060-4207-9bbd-52c18c39baa6"},"vehicle_type_id":"4","last_reported":1698584809,"current_range_meters":31200,"station_id":"ce4bgi12rcd13ifvqb70","pricing_plan_id":"free"},{"bike_id":"aa23c0d4-672a-4b72-8e25-91156d5560bf","system_id":"levelo_inurba_marseille","lat":43.303002,"lon":5.392142,"is_reserved":false,"is_disabled":false,"rental_uris":{"android":"levelo://app?vid=aa23c0d4-672a-4b72-8e25-91156d5560bf","ios":"levelo://app?vid=aa23c0d4-672a-4b72-8e25-91156d5560bf"},"vehicle_type_id":"4","last_reported":1698584809,"current_range_meters":10000,"station_id":"ce4bgkh2rcd13ifvqbk0","pricing_plan_id":"free"},{"bike_id":"2427a93d-41a9-4803-8163-381886815242","system_id":"levelo_inurba_marseille","lat":43.2936,"lon":5.37835,"is_reserved":false,"is_disabled":false,"rental_uris":{"android":"levelo://app?vid=2427a93d-41a9-4803-8163-381886815242","ios":"levelo://app?vid=2427a93d-41a9-4803-8163-381886815242"},"vehicle_type_id":"4","last_reported":1698584809,"current_range_meters":17200,"station_id":"ce4bgjh2rcd13ifvqbf0","pricing_plan_id":"free"},{"bike_id":"b2edd265-aa87-47d0-acf5-ce5437795b60","system_id":"levelo_inurba_marseille","lat":43.2936,"lon":5.37835,"is_reserved":false,"is_disabled":false,"rental_uris":{"android":"levelo://app?vid=b2edd265-aa87-47d0-acf5-ce5437795b60","ios":"levelo://app?vid=b2edd265-aa87-47d0-acf5-ce5437795b60"},"vehicle_type_id":"4","last_reported":1698584809,"current_range_meters":23600,"station_id":"ce4bgjh2rcd13ifvqbf0","pricing_plan_id":"free"},{"bike_id":"55bbc365-abe6-4d73-beef-cf950d830d2c","system_id":"levelo_inurba_marseille","lat":43.30085,"lon":5.390856,"is_reserved":false,"is_disabled":false,"rental_uris":{"android":"levelo://app?vid=55bbc365-abe6-4d73-beef-cf950d830d2c","ios":"levelo://app?vid=55bbc365-abe6-4d73-beef-cf950d830d2c"},"vehicle_type_id":"4","last_reported":1698584809,"current_range_meters":4400,"station_id":"ce4bh192rcd13ifvqdb0","pricing_plan_id":"free"},{"bike_id":"294bf9d4-bd7e-4112-934c-7667dcba0378","system_id":"levelo_inurba_marseille","lat":43.300852,"lon":5.390859,"is_reserved":false,"is_disabled":false,"rental_uris":{"android":"levelo://app?vid=294bf9d4-bd7e-4112-934c-7667dcba0378","ios":"levelo://app?vid=294bf9d4-bd7e-4112-934c-7667dcba0378"},"vehicle_type_id":"4","last_reported":1698584809,"current_range_meters":7200,"station_id":"ce4bh192rcd13ifvqdb0","pricing_plan_id":"free"},{"bike_id":"f1ac2fb5-71b4-40ac-9cd8-853bab9d064c","system_id":"levelo_inurba_marseille","lat":43.292663,"lon":5.376389,"is_reserved":false,"is_disabled":false,"rental_uris":{"android":"levelo://app?vid=f1ac2fb5-71b4-40ac-9cd8-853bab9d064c","ios":"levelo://app?vid=f1ac2fb5-71b4-40ac-9cd8-853bab9d064c"},"vehicle_type_id":"4","last_reported":1698584809,"current_range_meters":25200,"station_id":"ce4bgi12rcd13ifvqb80","pricing_plan_id":"free"},{"bike_id":"383f9f58-bf6d-4b04-8d52-d042d34c50ad","system_id":"levelo_inurba_marseille","lat":43.291671,"lon":5.371575,"is_reserved":false,"is_disabled":false,"rental_uris":{"android":"levelo://app?vid=383f9f58-bf6d-4b04-8d52-d042d34c50ad","ios":"levelo://app?vid=383f9f58-bf6d-4b04-8d52-d042d34c50ad"},"vehicle_type_id":"4","last_reported":1698584809,"current_range_meters":29600,"station_id":"ce4bha92rcd13ifvqeh0","pricing_plan_id":"free"},{"bike_id":"10d66d48-8d37-4a73-9c35-6f8013801ef5","system_id":"levelo_inurba_marseille","lat":43.291671,"lon":5.371575,"is_reserved":false,"is_disabled":false,"rental_uris":{"android":"levelo://app?vid=10d66d48-8d37-4a73-9c35-6f8013801ef5","ios":"levelo://app?vid=10d66d48-8d37-4a73-9c35-6f8013801ef5"},"vehicle_type_id":"4","last_reported":1698584809,"current_range_meters":22000,"station_id":"ce4bha92rcd13ifvqeh0","pricing_plan_id":"free"},{"bike_id":"e9a8ad1d-3efd-48b4-9519-ef7e4bc0f838","system_id":"levelo_inurba_marseille","lat":43.291675,"lon":5.371583,"is_reserved":false,"is_disabled":false,"rental_uris":{"android":"levelo://app?vid=e9a8ad1d-3efd-48b4-9519-ef7e4bc0f838","ios":"levelo://app?vid=e9a8ad1d-3efd-48b4-9519-ef7e4bc0f838"},"vehicle_type_id":"4","last_reported":1698584809,"current_range_meters":8000,"station_id":"ce4bha92rcd13ifvqeh0","pricing_plan_id":"free"},{"bike_id":"68a5ed3e-f5fb-4533-8f74-aa09568a31eb","system_id":"levelo_inurba_marseille","lat":43.291675,"lon":5.371583,"is_reserved":false,"is_disabled":false,"rental_uris":{"android":"levelo://app?vid=68a5ed3e-f5fb-4533-8f74-aa09568a31eb","ios":"levelo://app?vid=68a5ed3e-f5fb-4533-8f74-aa09568a31eb"},"vehicle_type_id":"4","last_reported":1698584809,"current_range_meters":30400,"station_id":"ce4bha92rcd13ifvqeh0","pricing_plan_id":"free"},{"bike_id":"f63f9d59-0b06-41fb-9101-0391fadd5477","system_id":"levelo_inurba_marseille","lat":43.29198,"lon":5.35861,"is_reserved":false,"is_disabled":false,"rental_uris":{"android":"levelo://app?vid=f63f9d59-0b06-41fb-9101-0391fadd5477","ios":"levelo://app?vid=f63f9d59-0b06-41fb-9101-0391fadd5477"},"vehicle_type_id":"4","last_reported":1698584809,"current_range_meters":3200,"station_id":"","pricing_plan_id":"free"},{"bike_id":"ff6f09f3-fe12-4e06-85df-c37623c4a944","system_id":"levelo_inurba_marseille","lat":43.29195,"lon":5.358,"is_reserved":false,"is_disabled":false,"rental_uris":{"android":"levelo://app?vid=ff6f09f3-fe12-4e06-85df-c37623c4a944","ios":"levelo://app?vid=ff6f09f3-fe12-4e06-85df-c37623c4a944"},"vehicle_type_id":"4","last_reported":1698584809,"current_range_meters":25200,"station_id":"ce4bhb12rcd13ifvqel0","pricing_plan_id":"free"},{"bike_id":"cd3faad1-3eea-45ef-8e0a-ecf8541d1a0a","system_id":"levelo_inurba_marseille","lat":43.29192,"lon":5.35797,"is_reserved":false,"is_disabled":false,"rental_uris":{"android":"levelo://app?vid=cd3faad1-3eea-45ef-8e0a-ecf8541d1a0a","ios":"levelo://app?vid=cd3faad1-3eea-45ef-8e0a-ecf8541d1a0a"},"vehicle_type_id":"4","last_reported":1698584809,"current_range_meters":30800,"station_id":"ce4bhb12rcd13ifvqel0","pricing_plan_id":"free"},{"bike_id":"966e5db3-cb3d-44d8-a331-ae6d8ac5344b","system_id":"levelo_inurba_marseille","lat":43.29191,"lon":5.35799,"is_reserved":false,"is_disabled":false,"rental_uris":{"android":"levelo://app?vid=966e5db3-cb3d-44d8-a331-ae6d8ac5344b","ios":"levelo://app?vid=966e5db3-cb3d-44d8-a331-ae6d8ac5344b"},"vehicle_type_id":"4","last_reported":1698584809,"current_range_meters":22400,"station_id":"ce4bhb12rcd13ifvqel0","pricing_plan_id":"free"},{"bike_id":"cbe0bb8e-231b-42ff-9b9e-fa5da7492e1b","system_id":"levelo_inurba_marseille","lat":43.309038,"lon":5.396546,"is_reserved":false,"is_disabled":false,"rental_uris":{"android":"levelo://app?vid=cbe0bb8e-231b-42ff-9b9e-fa5da7492e1b","ios":"levelo://app?vid=cbe0bb8e-231b-42ff-9b9e-fa5da7492e1b"},"vehicle_type_id":"4","last_reported":1698584809,"current_range_meters":31200,"station_id":"ce4bh012rcd13ifvqcv0","pricing_plan_id":"free"},{"bike_id":"42e51078-5e5c-4b95-8b9f-80ce8157948e","system_id":"levelo_inurba_marseille","lat":43.309047,"lon":5.396551,"is_reserved":false,"is_disabled":false,"rental_uris":{"android":"levelo://app?vid=42e51078-5e5c-4b95-8b9f-80ce8157948e","ios":"levelo://app?vid=42e51078-5e5c-4b95-8b9f-80ce8157948e"},"vehicle_type_id":"4","last_reported":1698584809,"current_range_meters":31200,"station_id":"ce4bh012rcd13ifvqcv0","pricing_plan_id":"free"},{"bike_id":"4e27e13d-b167-446f-950d-86ca3d5cc4ae","system_id":"levelo_inurba_marseille","lat":43.309038,"lon":5.396546,"is_reserved":false,"is_disabled":false,"rental_uris":{"android":"levelo://app?vid=4e27e13d-b167-446f-950d-86ca3d5cc4ae","ios":"levelo://app?vid=4e27e13d-b167-446f-950d-86ca3d5cc4ae"},"vehicle_type_id":"4","last_reported":1698584809,"current_range_meters":31200,"station_id":"ce4bh012rcd13ifvqcv0","pricing_plan_id":"free"},{"bike_id":"608c88f9-1ecf-4e75-9254-b19341b41cde","system_id":"levelo_inurba_marseille","lat":43.3088,"lon":5.39651,"is_reserved":false,"is_disabled":false,"rental_uris":{"android":"levelo://app?vid=608c88f9-1ecf-4e75-9254-b19341b41cde","ios":"levelo://app?vid=608c88f9-1ecf-4e75-9254-b19341b41cde"},"vehicle_type_id":"4","last_reported":1698584809,"current_range_meters":31200,"station_id":"ce4bh012rcd13ifvqcv0","pricing_plan_id":"free"},{"bike_id":"bb5a0209-1acb-44a9-a188-2cb2c8822540","system_id":"levelo_inurba_marseille","lat":43.29529,"lon":5.385581,"is_reserved":false,"is_disabled":false,"rental_uris":{"android":"levelo://app?vid=bb5a0209-1acb-44a9-a188-2cb2c8822540","ios":"levelo://app?vid=bb5a0209-1acb-44a9-a188-2cb2c8822540"},"vehicle_type_id":"4","last_reported":1698584809,"current_range_meters":16800,"station_id":"ce4bgih2rcd13ifvqba0","pricing_plan_id":"free"},{"bike_id":"f6cd3f39-6909-475b-ade3-58299a5dbf27","system_id":"levelo_inurba_marseille","lat":43.290692,"lon":5.371637,"is_reserved":false,"is_disabled":false,"rental_uris":{"android":"levelo://app?vid=f6cd3f39-6909-475b-ade3-58299a5dbf27","ios":"levelo://app?vid=f6cd3f39-6909-475b-ade3-58299a5dbf27"},"vehicle_type_id":"4","last_reported":1698584809,"current_range_meters":30800,"station_id":"ce4bh5p2rcd13ifvqe4g","pricing_plan_id":"free"},{"bike_id":"a2ab41ef-7a60-4235-8e39-f7e3238b0a40","system_id":"levelo_inurba_marseille","lat":43.290693,"lon":5.371678,"is_reserved":false,"is_disabled":false,"rental_uris":{"android":"levelo://app?vid=a2ab41ef-7a60-4235-8e39-f7e3238b0a40","ios":"levelo://app?vid=a2ab41ef-7a60-4235-8e39-f7e3238b0a40"},"vehicle_type_id":"4","last_reported":1698584809,"current_range_meters":12400,"station_id":"ce4bh5p2rcd13ifvqe4g","pricing_plan_id":"free"},{"bike_id":"67667fd5-4fca-4f08-901d-7a18d0aad2ac","system_id":"levelo_inurba_marseille","lat":43.29065,"lon":5.37167,"is_reserved":false,"is_disabled":false,"rental_uris":{"android":"levelo://app?vid=67667fd5-4fca-4f08-901d-7a18d0aad2ac","ios":"levelo://app?vid=67667fd5-4fca-4f08-901d-7a18d0aad2ac"},"vehicle_type_id":"4","last_reported":1698584809,"current_range_meters":27200,"station_id":"ce4bh5p2rcd13ifvqe4g","pricing_plan_id":"free"},{"bike_id":"2445cc87-0ebb-458a-8b40-a2b9c40999d4","system_id":"levelo_inurba_marseille","lat":43.290633,"lon":5.371753,"is_reserved":false,"is_disabled":false,"rental_uris":{"android":"levelo://app?vid=2445cc87-0ebb-458a-8b40-a2b9c40999d4","ios":"levelo://app?vid=2445cc87-0ebb-458a-8b40-a2b9c40999d4"},"vehicle_type_id":"4","last_reported":1698584809,"current_range_meters":8400,"station_id":"ce4bh5p2rcd13ifvqe4g","pricing_plan_id":"free"},{"bike_id":"27b72424-4452-430b-8332-465ad6cac8b5","system_id":"levelo_inurba_marseille","lat":43.290631,"lon":5.359244,"is_reserved":false,"is_disabled":false,"rental_uris":{"android":"levelo://app?vid=27b72424-4452-430b-8332-465ad6cac8b5","ios":"levelo://app?vid=27b72424-4452-430b-8332-465ad6cac8b5"},"vehicle_type_id":"4","last_reported":1698584809,"current_range_meters":21600,"station_id":"ce4bha92rcd13ifvqeg0","pricing_plan_id":"free"},{"bike_id":"2c925a3e-7ac5-46e3-92a5-51c3669ee4c3","system_id":"levelo_inurba_marseille","lat":43.29414,"lon":5.38627,"is_reserved":false,"is_disabled":false,"rental_uris":{"android":"levelo://app?vid=2c925a3e-7ac5-46e3-92a5-51c3669ee4c3","ios":"levelo://app?vid=2c925a3e-7ac5-46e3-92a5-51c3669ee4c3"},"vehicle_type_id":"4","last_reported":1698584809,"current_range_meters":0,"station_id":"ce4bh2h2rcd13ifvqdh0","pricing_plan_id":"free"},{"bike_id":"19fd020e-428b-4370-966c-71f0c03c3517","system_id":"levelo_inurba_marseille","lat":43.289184,"lon":5.366408,"is_reserved":false,"is_disabled":false,"rental_uris":{"android":"levelo://app?vid=19fd020e-428b-4370-966c-71f0c03c3517","ios":"levelo://app?vid=19fd020e-428b-4370-966c-71f0c03c3517"},"vehicle_type_id":"4","last_reported":1698584809,"current_range_meters":31200,"station_id":"ce4bhap2rcd13ifvqek0","pricing_plan_id":"free"},{"bike_id":"74311f70-b652-45e0-9c52-86e3a1a709e9","system_id":"levelo_inurba_marseille","lat":43.289184,"lon":5.366408,"is_reserved":false,"is_disabled":false,"rental_uris":{"android":"levelo://app?vid=74311f70-b652-45e0-9c52-86e3a1a709e9","ios":"levelo://app?vid=74311f70-b652-45e0-9c52-86e3a1a709e9"},"vehicle_type_id":"4","last_reported":1698584809,"current_range_meters":30000,"station_id":"ce4bhap2rcd13ifvqek0","pricing_plan_id":"free"},{"bike_id":"5c6e0f49-4812-4e97-8b3b-844d2e918fbb","system_id":"levelo_inurba_marseille","lat":43.289184,"lon":5.366408,"is_reserved":false,"is_disabled":false,"rental_uris":{"android":"levelo://app?vid=5c6e0f49-4812-4e97-8b3b-844d2e918fbb","ios":"levelo://app?vid=5c6e0f49-4812-4e97-8b3b-844d2e918fbb"},"vehicle_type_id":"4","last_reported":1698584809,"current_range_meters":26000,"station_id":"ce4bhap2rcd13ifvqek0","pricing_plan_id":"free"},{"bike_id":"38518f9c-c981-4074-9378-2c3be65149db","system_id":"levelo_inurba_marseille","lat":43.289184,"lon":5.366408,"is_reserved":false,"is_disabled":false,"rental_uris":{"android":"levelo://app?vid=38518f9c-c981-4074-9378-2c3be65149db","ios":"levelo://app?vid=38518f9c-c981-4074-9378-2c3be65149db"},"vehicle_type_id":"4","last_reported":1698584809,"current_range_meters":31200,"station_id":"ce4bhap2rcd13ifvqek0","pricing_plan_id":"free"},{"bike_id":"748a04e2-a13d-4e86-85b6-f8c628662226","system_id":"levelo_inurba_marseille","lat":43.289356,"lon":5.363807,"is_reserved":false,"is_disabled":false,"rental_uris":{"android":"levelo://app?vid=748a04e2-a13d-4e86-85b6-f8c628662226","ios":"levelo://app?vid=748a04e2-a13d-4e86-85b6-f8c628662226"},"vehicle_type_id":"4","last_reported":1698584809,"current_range_meters":0,"station_id":"ce4bhb92rcd13ifvqen0","pricing_plan_id":"free"},{"bike_id":"0b693f93-330c-456a-baf5-0f2c1ac8eec1","system_id":"levelo_inurba_marseille","lat":43.304296,"lon":5.397513,"is_reserved":false,"is_disabled":false,"rental_uris":{"android":"levelo://app?vid=0b693f93-330c-456a-baf5-0f2c1ac8eec1","ios":"levelo://app?vid=0b693f93-330c-456a-baf5-0f2c1ac8eec1"},"vehicle_type_id":"4","last_reported":1698584809,"current_range_meters":16800,"station_id":"ce4bh092rcd13ifvqd20","pricing_plan_id":"free"},{"bike_id":"e1a83b92-af27-4c23-9b22-c5b0221f31e6","system_id":"levelo_inurba_marseille","lat":43.33043,"lon":5.3892,"is_reserved":false,"is_disabled":false,"rental_uris":{"android":"levelo://app?vid=e1a83b92-af27-4c23-9b22-c5b0221f31e6","ios":"levelo://app?vid=e1a83b92-af27-4c23-9b22-c5b0221f31e6"},"vehicle_type_id":"4","last_reported":1698584809,"current_range_meters":20800,"station_id":"ce4bhr92rcd13ifvqhrg","pricing_plan_id":"free"},{"bike_id":"66d7c266-0958-4bf8-9459-5e9cc910af17","system_id":"levelo_inurba_marseille","lat":43.290104,"lon":5.356111,"is_reserved":false,"is_disabled":false,"rental_uris":{"android":"levelo://app?vid=66d7c266-0958-4bf8-9459-5e9cc910af17","ios":"levelo://app?vid=66d7c266-0958-4bf8-9459-5e9cc910af17"},"vehicle_type_id":"4","last_reported":1698584809,"current_range_meters":19200,"station_id":"ce4bhb92rcd13ifvqen0","pricing_plan_id":"free"},{"bike_id":"e0d713cd-ec81-44ec-8ba4-571dd76a2b05","system_id":"levelo_inurba_marseille","lat":43.295169,"lon":5.390426,"is_reserved":false,"is_disabled":false,"rental_uris":{"android":"levelo://app?vid=e0d713cd-ec81-44ec-8ba4-571dd76a2b05","ios":"levelo://app?vid=e0d713cd-ec81-44ec-8ba4-571dd76a2b05"},"vehicle_type_id":"4","last_reported":1698584809,"current_range_meters":24400,"station_id":"ce4bh3p2rcd13ifvqdp0","pricing_plan_id":"free"},{"bike_id":"af286a6d-d49b-4114-a047-9052cd19f331","system_id":"levelo_inurba_marseille","lat":43.297936,"lon":5.393531,"is_reserved":false,"is_disabled":false,"rental_uris":{"android":"levelo://app?vid=af286a6d-d49b-4114-a047-9052cd19f331","ios":"levelo://app?vid=af286a6d-d49b-4114-a047-9052cd19f331"},"vehicle_type_id":"4","last_reported":1698584809,"current_range_meters":0,"station_id":"chh1huq6cuj3fo74tm60","pricing_plan_id":"free"},{"bike_id":"4e618b15-b9b1-4404-8d8d-86b47355475f","system_id":"levelo_inurba_marseille","lat":43.290242,"lon":5.381303,"is_reserved":false,"is_disabled":false,"rental_uris":{"android":"levelo://app?vid=4e618b15-b9b1-4404-8d8d-86b47355475f","ios":"levelo://app?vid=4e618b15-b9b1-4404-8d8d-86b47355475f"},"vehicle_type_id":"4","last_reported":1698584809,"current_range_meters":3600,"station_id":"ce4bh4p2rcd13ifvqe1g","pricing_plan_id":"free"},{"bike_id":"e09ff1d9-3b59-40e5-b61f-dd2b8293f7c7","system_id":"levelo_inurba_marseille","lat":43.290094,"lon":5.381264,"is_reserved":false,"is_disabled":false,"rental_uris":{"android":"levelo://app?vid=e09ff1d9-3b59-40e5-b61f-dd2b8293f7c7","ios":"levelo://app?vid=e09ff1d9-3b59-40e5-b61f-dd2b8293f7c7"},"vehicle_type_id":"4","last_reported":1698584809,"current_range_meters":26400,"station_id":"ce4bh4p2rcd13ifvqe1g","pricing_plan_id":"free"},{"bike_id":"08942d01-cd09-4fad-94e4-a3c9ea60dccf","system_id":"levelo_inurba_marseille","lat":43.290197,"lon":5.381372,"is_reserved":false,"is_disabled":false,"rental_uris":{"android":"levelo://app?vid=08942d01-cd09-4fad-94e4-a3c9ea60dccf","ios":"levelo://app?vid=08942d01-cd09-4fad-94e4-a3c9ea60dccf"},"vehicle_type_id":"4","last_reported":1698584809,"current_range_meters":22400,"station_id":"ce4bh4p2rcd13ifvqe1g","pricing_plan_id":"free"},{"bike_id":"4063bd88-bb05-47bf-832f-90d6d968cfbe","system_id":"levelo_inurba_marseille","lat":43.288507,"lon":5.358577,"is_reserved":false,"is_disabled":false,"rental_uris":{"android":"levelo://app?vid=4063bd88-bb05-47bf-832f-90d6d968cfbe","ios":"levelo://app?vid=4063bd88-bb05-47bf-832f-90d6d968cfbe"},"vehicle_type_id":"4","last_reported":1698584809,"current_range_meters":0,"station_id":"ce4bhb12rcd13ifvqem0","pricing_plan_id":"free"},{"bike_id":"d7cc61f1-ee07-4155-a03d-c3e29398dc64","system_id":"levelo_inurba_marseille","lat":43.312684,"lon":5.401624,"is_reserved":false,"is_disabled":false,"rental_uris":{"android":"levelo://app?vid=d7cc61f1-ee07-4155-a03d-c3e29398dc64","ios":"levelo://app?vid=d7cc61f1-ee07-4155-a03d-c3e29398dc64"},"vehicle_type_id":"4","last_reported":1698584809,"current_range_meters":30400,"station_id":"ce4bh092rcd13ifvqd30","pricing_plan_id":"free"},{"bike_id":"b5ab3b26-c787-4a78-94af-ea9e5c4da4a4","system_id":"levelo_inurba_marseille","lat":43.312705,"lon":5.401649,"is_reserved":false,"is_disabled":false,"rental_uris":{"android":"levelo://app?vid=b5ab3b26-c787-4a78-94af-ea9e5c4da4a4","ios":"levelo://app?vid=b5ab3b26-c787-4a78-94af-ea9e5c4da4a4"},"vehicle_type_id":"4","last_reported":1698584809,"current_range_meters":28400,"station_id":"ce4bh092rcd13ifvqd30","pricing_plan_id":"free"},{"bike_id":"05a8532a-d630-4b47-82fa-08c61e155ba8","system_id":"levelo_inurba_marseille","lat":43.312771,"lon":5.401707,"is_reserved":false,"is_disabled":false,"rental_uris":{"android":"levelo://app?vid=05a8532a-d630-4b47-82fa-08c61e155ba8","ios":"levelo://app?vid=05a8532a-d630-4b47-82fa-08c61e155ba8"},"vehicle_type_id":"4","last_reported":1698584809,"current_range_meters":27600,"station_id":"ce4bh092rcd13ifvqd30","pricing_plan_id":"free"},{"bike_id":"ef4d72fc-847d-41c5-91dd-cd31c53984f4","system_id":"levelo_inurba_marseille","lat":43.31276,"lon":5.40174,"is_reserved":false,"is_disabled":false,"rental_uris":{"android":"levelo://app?vid=ef4d72fc-847d-41c5-91dd-cd31c53984f4","ios":"levelo://app?vid=ef4d72fc-847d-41c5-91dd-cd31c53984f4"},"vehicle_type_id":"4","last_reported":1698584809,"current_range_meters":30000,"station_id":"ce4bh092rcd13ifvqd30","pricing_plan_id":"free"},{"bike_id":"cea80227-f531-4975-8ee7-b08414d0de0d","system_id":"levelo_inurba_marseille","lat":43.306412,"lon":5.401035,"is_reserved":false,"is_disabled":false,"rental_uris":{"android":"levelo://app?vid=cea80227-f531-4975-8ee7-b08414d0de0d","ios":"levelo://app?vid=cea80227-f531-4975-8ee7-b08414d0de0d"},"vehicle_type_id":"4","last_reported":1698584809,"current_range_meters":2400,"station_id":"ce4bh112rcd13ifvqda0","pricing_plan_id":"free"},{"bike_id":"dcccc62a-90ba-48e9-989c-14f2f8d52ac3","system_id":"levelo_inurba_marseille","lat":43.301117,"lon":5.398795,"is_reserved":false,"is_disabled":false,"rental_uris":{"android":"levelo://app?vid=dcccc62a-90ba-48e9-989c-14f2f8d52ac3","ios":"levelo://app?vid=dcccc62a-90ba-48e9-989c-14f2f8d52ac3"},"vehicle_type_id":"4","last_reported":1698584809,"current_range_meters":10800,"station_id":"ce4bh0h2rcd13ifvqd40","pricing_plan_id":"free"},{"bike_id":"eb4f2b42-df2a-4815-97f2-159e092bb12f","system_id":"levelo_inurba_marseille","lat":43.298681,"lon":5.397225,"is_reserved":false,"is_disabled":false,"rental_uris":{"android":"levelo://app?vid=eb4f2b42-df2a-4815-97f2-159e092bb12f","ios":"levelo://app?vid=eb4f2b42-df2a-4815-97f2-159e092bb12f"},"vehicle_type_id":"4","last_reported":1698584809,"current_range_meters":27600,"station_id":"ce4bh0h2rcd13ifvqd50","pricing_plan_id":"free"},{"bike_id":"fe8f8858-9ec9-4184-b03b-959b5188e245","system_id":"levelo_inurba_marseille","lat":43.286593,"lon":5.363346,"is_reserved":false,"is_disabled":false,"rental_uris":{"android":"levelo://app?vid=fe8f8858-9ec9-4184-b03b-959b5188e245","ios":"levelo://app?vid=fe8f8858-9ec9-4184-b03b-959b5188e245"},"vehicle_type_id":"4","last_reported":1698584809,"current_range_meters":21600,"station_id":"ce4bhah2rcd13ifvqej0","pricing_plan_id":"free"},{"bike_id":"aac4e34e-a09c-4baa-92d3-ca7a14df0f9a","system_id":"levelo_inurba_marseille","lat":43.2987,"lon":5.39727,"is_reserved":false,"is_disabled":false,"rental_uris":{"android":"levelo://app?vid=aac4e34e-a09c-4baa-92d3-ca7a14df0f9a","ios":"levelo://app?vid=aac4e34e-a09c-4baa-92d3-ca7a14df0f9a"},"vehicle_type_id":"4","last_reported":1698584809,"current_range_meters":23200,"station_id":"ce4bh0h2rcd13ifvqd50","pricing_plan_id":"free"},{"bike_id":"29402ad4-8458-41f2-b909-48f1a045f32d","system_id":"levelo_inurba_marseille","lat":43.286591,"lon":5.363346,"is_reserved":false,"is_disabled":false,"rental_uris":{"android":"levelo://app?vid=29402ad4-8458-41f2-b909-48f1a045f32d","ios":"levelo://app?vid=29402ad4-8458-41f2-b909-48f1a045f32d"},"vehicle_type_id":"4","last_reported":1698584809,"current_range_meters":15600,"station_id":"ce4bhah2rcd13ifvqej0","pricing_plan_id":"free"},{"bike_id":"bf0989e1-b833-4e30-9758-b3b11ba5f765","system_id":"levelo_inurba_marseille","lat":43.286593,"lon":5.363346,"is_reserved":false,"is_disabled":false,"rental_uris":{"android":"levelo://app?vid=bf0989e1-b833-4e30-9758-b3b11ba5f765","ios":"levelo://app?vid=bf0989e1-b833-4e30-9758-b3b11ba5f765"},"vehicle_type_id":"4","last_reported":1698584809,"current_range_meters":20800,"station_id":"ce4bhah2rcd13ifvqej0","pricing_plan_id":"free"},{"bike_id":"96840e5e-ea70-49f5-97d3-d2cbb2af2581","system_id":"levelo_inurba_marseille","lat":43.295194,"lon":5.39397,"is_reserved":false,"is_disabled":false,"rental_uris":{"android":"levelo://app?vid=96840e5e-ea70-49f5-97d3-d2cbb2af2581","ios":"levelo://app?vid=96840e5e-ea70-49f5-97d3-d2cbb2af2581"},"vehicle_type_id":"4","last_reported":1698584809,"current_range_meters":18000,"station_id":"ce4bh292rcd13ifvqdf0","pricing_plan_id":"free"},{"bike_id":"53311aad-70e9-47dd-a3b3-f35db90aafb2","system_id":"levelo_inurba_marseille","lat":43.29031,"lon":5.386384,"is_reserved":false,"is_disabled":false,"rental_uris":{"android":"levelo://app?vid=53311aad-70e9-47dd-a3b3-f35db90aafb2","ios":"levelo://app?vid=53311aad-70e9-47dd-a3b3-f35db90aafb2"},"vehicle_type_id":"4","last_reported":1698584809,"current_range_meters":0,"station_id":"","pricing_plan_id":"free"},{"bike_id":"cb771f81-fed6-4ef9-9896-cc564e9728e1","system_id":"levelo_inurba_marseille","lat":43.30239,"lon":5.40059,"is_reserved":false,"is_disabled":false,"rental_uris":{"android":"levelo://app?vid=cb771f81-fed6-4ef9-9896-cc564e9728e1","ios":"levelo://app?vid=cb771f81-fed6-4ef9-9896-cc564e9728e1"},"vehicle_type_id":"4","last_reported":1698584809,"current_range_meters":30000,"station_id":"ce4bgvh2rcd13ifvqcs0","pricing_plan_id":"free"},{"bike_id":"9193e161-d271-4c9a-9704-feea0daa0b6d","system_id":"levelo_inurba_marseille","lat":43.302759,"lon":5.400793,"is_reserved":false,"is_disabled":false,"rental_uris":{"android":"levelo://app?vid=9193e161-d271-4c9a-9704-feea0daa0b6d","ios":"levelo://app?vid=9193e161-d271-4c9a-9704-feea0daa0b6d"},"vehicle_type_id":"4","last_reported":1698584809,"current_range_meters":31200,"station_id":"ce4bgvh2rcd13ifvqcs0","pricing_plan_id":"free"},{"bike_id":"5cf09e4e-8933-44ed-ab4b-644be4c244c9","system_id":"levelo_inurba_marseille","lat":43.302759,"lon":5.400793,"is_reserved":false,"is_disabled":false,"rental_uris":{"android":"levelo://app?vid=5cf09e4e-8933-44ed-ab4b-644be4c244c9","ios":"levelo://app?vid=5cf09e4e-8933-44ed-ab4b-644be4c244c9"},"vehicle_type_id":"4","last_reported":1698584809,"current_range_meters":5200,"station_id":"ce4bgvh2rcd13ifvqcs0","pricing_plan_id":"free"},{"bike_id":"8e80d87d-8554-431b-b75b-a745f24ab169","system_id":"levelo_inurba_marseille","lat":43.28913,"lon":5.38399,"is_reserved":false,"is_disabled":false,"rental_uris":{"android":"levelo://app?vid=8e80d87d-8554-431b-b75b-a745f24ab169","ios":"levelo://app?vid=8e80d87d-8554-431b-b75b-a745f24ab169"},"vehicle_type_id":"4","last_reported":1698584809,"current_range_meters":800,"station_id":"ce4bh612rcd13ifvqe6g","pricing_plan_id":"free"},{"bike_id":"a26db2e7-4c2a-44d1-9acf-6925fa49264d","system_id":"levelo_inurba_marseille","lat":43.302507,"lon":5.400788,"is_reserved":false,"is_disabled":false,"rental_uris":{"android":"levelo://app?vid=a26db2e7-4c2a-44d1-9acf-6925fa49264d","ios":"levelo://app?vid=a26db2e7-4c2a-44d1-9acf-6925fa49264d"},"vehicle_type_id":"4","last_reported":1698584809,"current_range_meters":28400,"station_id":"ce4bgvh2rcd13ifvqcs0","pricing_plan_id":"free"},{"bike_id":"faef47ac-f379-456e-955d-1bff7b87b84b","system_id":"levelo_inurba_marseille","lat":43.286039,"lon":5.370681,"is_reserved":false,"is_disabled":false,"rental_uris":{"android":"levelo://app?vid=faef47ac-f379-456e-955d-1bff7b87b84b","ios":"levelo://app?vid=faef47ac-f379-456e-955d-1bff7b87b84b"},"vehicle_type_id":"4","last_reported":1698584809,"current_range_meters":30000,"station_id":"ce4bht12rcd13ifvqi60","pricing_plan_id":"free"},{"bike_id":"f4685fa5-7e5c-41af-acb4-0588d42cfec2","system_id":"levelo_inurba_marseille","lat":43.31653,"lon":5.40445,"is_reserved":false,"is_disabled":false,"rental_uris":{"android":"levelo://app?vid=f4685fa5-7e5c-41af-acb4-0588d42cfec2","ios":"levelo://app?vid=f4685fa5-7e5c-41af-acb4-0588d42cfec2"},"vehicle_type_id":"4","last_reported":1698584809,"current_range_meters":19600,"station_id":"ce4bh012rcd13ifvqd00","pricing_plan_id":"free"},{"bike_id":"edadd3a0-41b1-40e6-8a7d-abea94c6edb4","system_id":"levelo_inurba_marseille","lat":43.284534,"lon":5.358662,"is_reserved":false,"is_disabled":false,"rental_uris":{"android":"levelo://app?vid=edadd3a0-41b1-40e6-8a7d-abea94c6edb4","ios":"levelo://app?vid=edadd3a0-41b1-40e6-8a7d-abea94c6edb4"},"vehicle_type_id":"4","last_reported":1698584809,"current_range_meters":12400,"station_id":"ce4bhah2rcd13ifvqei0","pricing_plan_id":"free"},{"bike_id":"c3a7544e-04db-47c4-bacd-988e74ae8370","system_id":"levelo_inurba_marseille","lat":43.2846,"lon":5.35888,"is_reserved":false,"is_disabled":false,"rental_uris":{"android":"levelo://app?vid=c3a7544e-04db-47c4-bacd-988e74ae8370","ios":"levelo://app?vid=c3a7544e-04db-47c4-bacd-988e74ae8370"},"vehicle_type_id":"4","last_reported":1698584809,"current_range_meters":12800,"station_id":"ce4bhah2rcd13ifvqei0","pricing_plan_id":"free"},{"bike_id":"64a0057f-0a33-4df7-9551-7b56059a8f73","system_id":"levelo_inurba_marseille","lat":43.284534,"lon":5.358662,"is_reserved":false,"is_disabled":false,"rental_uris":{"android":"levelo://app?vid=64a0057f-0a33-4df7-9551-7b56059a8f73","ios":"levelo://app?vid=64a0057f-0a33-4df7-9551-7b56059a8f73"},"vehicle_type_id":"4","last_reported":1698584809,"current_range_meters":25600,"station_id":"ce4bhah2rcd13ifvqei0","pricing_plan_id":"free"},{"bike_id":"cfc80431-78c7-428c-918c-e7536732257a","system_id":"levelo_inurba_marseille","lat":43.285856,"lon":5.350771,"is_reserved":false,"is_disabled":false,"rental_uris":{"android":"levelo://app?vid=cfc80431-78c7-428c-918c-e7536732257a","ios":"levelo://app?vid=cfc80431-78c7-428c-918c-e7536732257a"},"vehicle_type_id":"4","last_reported":1698584809,"current_range_meters":24400,"station_id":"ce4bhch2rcd13ifvqeug","pricing_plan_id":"free"},{"bike_id":"4149d037-f5b4-4163-bb5f-d5e997b15fb6","system_id":"levelo_inurba_marseille","lat":43.285856,"lon":5.350771,"is_reserved":false,"is_disabled":false,"rental_uris":{"android":"levelo://app?vid=4149d037-f5b4-4163-bb5f-d5e997b15fb6","ios":"levelo://app?vid=4149d037-f5b4-4163-bb5f-d5e997b15fb6"},"vehicle_type_id":"4","last_reported":1698584809,"current_range_meters":31200,"station_id":"ce4bhch2rcd13ifvqeug","pricing_plan_id":"free"},{"bike_id":"fb9988b0-271b-44ee-9139-e6089efe867a","system_id":"levelo_inurba_marseille","lat":43.28615,"lon":5.35102,"is_reserved":false,"is_disabled":false,"rental_uris":{"android":"levelo://app?vid=fb9988b0-271b-44ee-9139-e6089efe867a","ios":"levelo://app?vid=fb9988b0-271b-44ee-9139-e6089efe867a"},"vehicle_type_id":"4","last_reported":1698584809,"current_range_meters":30400,"station_id":"ce4bhch2rcd13ifvqeug","pricing_plan_id":"free"},{"bike_id":"667d1f8d-9381-4d12-8d3a-139c502ffcb9","system_id":"levelo_inurba_marseille","lat":43.28614,"lon":5.35105,"is_reserved":false,"is_disabled":false,"rental_uris":{"android":"levelo://app?vid=667d1f8d-9381-4d12-8d3a-139c502ffcb9","ios":"levelo://app?vid=667d1f8d-9381-4d12-8d3a-139c502ffcb9"},"vehicle_type_id":"4","last_reported":1698584809,"current_range_meters":2400,"station_id":"ce4bhch2rcd13ifvqeug","pricing_plan_id":"free"},{"bike_id":"5e28b89b-ac0a-4b53-972c-7dc54551c095","system_id":"levelo_inurba_marseille","lat":43.28614,"lon":5.35102,"is_reserved":false,"is_disabled":false,"rental_uris":{"android":"levelo://app?vid=5e28b89b-ac0a-4b53-972c-7dc54551c095","ios":"levelo://app?vid=5e28b89b-ac0a-4b53-972c-7dc54551c095"},"vehicle_type_id":"4","last_reported":1698584809,"current_range_meters":24800,"station_id":"ce4bhch2rcd13ifvqeug","pricing_plan_id":"free"},{"bike_id":"2cd4749e-1008-49ef-b9c9-fd559b8362ea","system_id":"levelo_inurba_marseille","lat":43.286122,"lon":5.351053,"is_reserved":false,"is_disabled":false,"rental_uris":{"android":"levelo://app?vid=2cd4749e-1008-49ef-b9c9-fd559b8362ea","ios":"levelo://app?vid=2cd4749e-1008-49ef-b9c9-fd559b8362ea"},"vehicle_type_id":"4","last_reported":1698584809,"current_range_meters":6000,"station_id":"ce4bhch2rcd13ifvqeug","pricing_plan_id":"free"},{"bike_id":"59bb1dd8-0114-4046-937c-bc60f22b9f64","system_id":"levelo_inurba_marseille","lat":43.295279,"lon":5.375048,"is_reserved":false,"is_disabled":false,"rental_uris":{"android":"levelo://app?vid=59bb1dd8-0114-4046-937c-bc60f22b9f64","ios":"levelo://app?vid=59bb1dd8-0114-4046-937c-bc60f22b9f64"},"vehicle_type_id":"4","last_reported":1698584809,"current_range_meters":20800,"station_id":"ce4bgkp2rcd13ifvqbmg","pricing_plan_id":"free"},{"bike_id":"221223a7-d328-4e18-a83a-462ac224d99f","system_id":"levelo_inurba_marseille","lat":43.284308,"lon":5.35801,"is_reserved":false,"is_disabled":false,"rental_uris":{"android":"levelo://app?vid=221223a7-d328-4e18-a83a-462ac224d99f","ios":"levelo://app?vid=221223a7-d328-4e18-a83a-462ac224d99f"},"vehicle_type_id":"4","last_reported":1698584809,"current_range_meters":2800,"station_id":"","pricing_plan_id":"free"},{"bike_id":"851bb45b-b6dd-4655-8b09-84f0e9094739","system_id":"levelo_inurba_marseille","lat":43.283998,"lon":5.375062,"is_reserved":false,"is_disabled":false,"rental_uris":{"android":"levelo://app?vid=851bb45b-b6dd-4655-8b09-84f0e9094739","ios":"levelo://app?vid=851bb45b-b6dd-4655-8b09-84f0e9094739"},"vehicle_type_id":"4","last_reported":1698584809,"current_range_meters":0,"station_id":"ce4bh412rcd13ifvqds0","pricing_plan_id":"free"},{"bike_id":"ee6d214b-bab1-4684-a0d7-d91c8a0b95fb","system_id":"levelo_inurba_marseille","lat":43.286595,"lon":5.386795,"is_reserved":false,"is_disabled":false,"rental_uris":{"android":"levelo://app?vid=ee6d214b-bab1-4684-a0d7-d91c8a0b95fb","ios":"levelo://app?vid=ee6d214b-bab1-4684-a0d7-d91c8a0b95fb"},"vehicle_type_id":"4","last_reported":1698584809,"current_range_meters":29600,"station_id":"ce4bh492rcd13ifvqdug","pricing_plan_id":"free"},{"bike_id":"15bdef24-340e-4fcc-8b69-a97001c44759","system_id":"levelo_inurba_marseille","lat":43.33717,"lon":5.391857,"is_reserved":false,"is_disabled":false,"rental_uris":{"android":"levelo://app?vid=15bdef24-340e-4fcc-8b69-a97001c44759","ios":"levelo://app?vid=15bdef24-340e-4fcc-8b69-a97001c44759"},"vehicle_type_id":"4","last_reported":1698584809,"current_range_meters":31200,"station_id":"ce4bhr92rcd13ifvqhsg","pricing_plan_id":"free"},{"bike_id":"d4f9308c-ffb3-425d-be6c-cee63f6237af","system_id":"levelo_inurba_marseille","lat":43.323464,"lon":5.406297,"is_reserved":false,"is_disabled":false,"rental_uris":{"android":"levelo://app?vid=d4f9308c-ffb3-425d-be6c-cee63f6237af","ios":"levelo://app?vid=d4f9308c-ffb3-425d-be6c-cee63f6237af"},"vehicle_type_id":"4","last_reported":1698584809,"current_range_meters":15200,"station_id":"ce4bhq92rcd13ifvqhjg","pricing_plan_id":"free"},{"bike_id":"16730739-5886-4c4d-ab68-fa3e156494f9","system_id":"levelo_inurba_marseille","lat":43.284793,"lon":5.384119,"is_reserved":false,"is_disabled":false,"rental_uris":{"android":"levelo://app?vid=16730739-5886-4c4d-ab68-fa3e156494f9","ios":"levelo://app?vid=16730739-5886-4c4d-ab68-fa3e156494f9"},"vehicle_type_id":"4","last_reported":1698584809,"current_range_meters":27200,"station_id":"ce4bh512rcd13ifvqe3g","pricing_plan_id":"free"},{"bike_id":"2f666bbb-190f-4291-ade2-95e2c0cfd815","system_id":"levelo_inurba_marseille","lat":43.325281,"lon":5.405683,"is_reserved":false,"is_disabled":false,"rental_uris":{"android":"levelo://app?vid=2f666bbb-190f-4291-ade2-95e2c0cfd815","ios":"levelo://app?vid=2f666bbb-190f-4291-ade2-95e2c0cfd815"},"vehicle_type_id":"4","last_reported":1698584809,"current_range_meters":14000,"station_id":"","pricing_plan_id":"free"},{"bike_id":"9a1d8c67-7f67-49a7-9109-351c8ae9a71b","system_id":"levelo_inurba_marseille","lat":43.284219,"lon":5.3497,"is_reserved":false,"is_disabled":false,"rental_uris":{"android":"levelo://app?vid=9a1d8c67-7f67-49a7-9109-351c8ae9a71b","ios":"levelo://app?vid=9a1d8c67-7f67-49a7-9109-351c8ae9a71b"},"vehicle_type_id":"4","last_reported":1698584809,"current_range_meters":30000,"station_id":"ce4bhbh2rcd13ifvqepg","pricing_plan_id":"free"},{"bike_id":"632f203d-8b85-423e-9ff8-31eb396eb911","system_id":"levelo_inurba_marseille","lat":43.284219,"lon":5.3497,"is_reserved":false,"is_disabled":false,"rental_uris":{"android":"levelo://app?vid=632f203d-8b85-423e-9ff8-31eb396eb911","ios":"levelo://app?vid=632f203d-8b85-423e-9ff8-31eb396eb911"},"vehicle_type_id":"4","last_reported":1698584809,"current_range_meters":26000,"station_id":"ce4bhbh2rcd13ifvqepg","pricing_plan_id":"free"},{"bike_id":"7125ff38-097a-48c9-9884-9ee81d1fc5ef","system_id":"levelo_inurba_marseille","lat":43.284219,"lon":5.3497,"is_reserved":false,"is_disabled":false,"rental_uris":{"android":"levelo://app?vid=7125ff38-097a-48c9-9884-9ee81d1fc5ef","ios":"levelo://app?vid=7125ff38-097a-48c9-9884-9ee81d1fc5ef"},"vehicle_type_id":"4","last_reported":1698584809,"current_range_meters":23200,"station_id":"ce4bhbh2rcd13ifvqepg","pricing_plan_id":"free"},{"bike_id":"008f059c-2ff1-40e8-a5af-4a7cc9436f17","system_id":"levelo_inurba_marseille","lat":43.284219,"lon":5.3497,"is_reserved":false,"is_disabled":false,"rental_uris":{"android":"levelo://app?vid=008f059c-2ff1-40e8-a5af-4a7cc9436f17","ios":"levelo://app?vid=008f059c-2ff1-40e8-a5af-4a7cc9436f17"},"vehicle_type_id":"4","last_reported":1698584809,"current_range_meters":28800,"station_id":"ce4bhbh2rcd13ifvqepg","pricing_plan_id":"free"},{"bike_id":"9cb99c48-1479-476f-8c30-b1620e382345","system_id":"levelo_inurba_marseille","lat":43.292724,"lon":5.401131,"is_reserved":false,"is_disabled":false,"rental_uris":{"android":"levelo://app?vid=9cb99c48-1479-476f-8c30-b1620e382345","ios":"levelo://app?vid=9cb99c48-1479-476f-8c30-b1620e382345"},"vehicle_type_id":"4","last_reported":1698584809,"current_range_meters":19200,"station_id":"ce4bh312rcd13ifvqdk0","pricing_plan_id":"free"},{"bike_id":"fa4a1f7b-60be-426a-9925-a7e654e2675b","system_id":"levelo_inurba_marseille","lat":43.282754,"lon":5.350519,"is_reserved":false,"is_disabled":false,"rental_uris":{"android":"levelo://app?vid=fa4a1f7b-60be-426a-9925-a7e654e2675b","ios":"levelo://app?vid=fa4a1f7b-60be-426a-9925-a7e654e2675b"},"vehicle_type_id":"4","last_reported":1698584809,"current_range_meters":28800,"station_id":"ce4bhbp2rcd13ifvqerg","pricing_plan_id":"free"},{"bike_id":"d1ac5bef-8264-4e16-94f7-c617235f264a","system_id":"levelo_inurba_marseille","lat":43.282744,"lon":5.350533,"is_reserved":false,"is_disabled":false,"rental_uris":{"android":"levelo://app?vid=d1ac5bef-8264-4e16-94f7-c617235f264a","ios":"levelo://app?vid=d1ac5bef-8264-4e16-94f7-c617235f264a"},"vehicle_type_id":"4","last_reported":1698584809,"current_range_meters":18800,"station_id":"ce4bhbp2rcd13ifvqerg","pricing_plan_id":"free"},{"bike_id":"59d7899e-0445-466c-ae9b-1a13eba66dfb","system_id":"levelo_inurba_marseille","lat":43.282754,"lon":5.350519,"is_reserved":false,"is_disabled":false,"rental_uris":{"android":"levelo://app?vid=59d7899e-0445-466c-ae9b-1a13eba66dfb","ios":"levelo://app?vid=59d7899e-0445-466c-ae9b-1a13eba66dfb"},"vehicle_type_id":"4","last_reported":1698584809,"current_range_meters":0,"station_id":"ce4bhbp2rcd13ifvqerg","pricing_plan_id":"free"},{"bike_id":"1ca242fe-6084-4f9b-8b54-35d465872844","system_id":"levelo_inurba_marseille","lat":43.29041,"lon":5.399634,"is_reserved":false,"is_disabled":false,"rental_uris":{"android":"levelo://app?vid=1ca242fe-6084-4f9b-8b54-35d465872844","ios":"levelo://app?vid=1ca242fe-6084-4f9b-8b54-35d465872844"},"vehicle_type_id":"4","last_reported":1698584809,"current_range_meters":21200,"station_id":"ce4bh392rcd13ifvqdm0","pricing_plan_id":"free"},{"bike_id":"d445e7dc-8f39-4198-8d15-1838ad42556e","system_id":"levelo_inurba_marseille","lat":43.296263,"lon":5.40601,"is_reserved":false,"is_disabled":false,"rental_uris":{"android":"levelo://app?vid=d445e7dc-8f39-4198-8d15-1838ad42556e","ios":"levelo://app?vid=d445e7dc-8f39-4198-8d15-1838ad42556e"},"vehicle_type_id":"4","last_reported":1698584809,"current_range_meters":20400,"station_id":"ce4bh0h2rcd13ifvqd60","pricing_plan_id":"free"},{"bike_id":"2ff4290a-953b-40dc-9c7e-2436150f81c2","system_id":"levelo_inurba_marseille","lat":43.281461,"lon":5.383456,"is_reserved":false,"is_disabled":false,"rental_uris":{"android":"levelo://app?vid=2ff4290a-953b-40dc-9c7e-2436150f81c2","ios":"levelo://app?vid=2ff4290a-953b-40dc-9c7e-2436150f81c2"},"vehicle_type_id":"4","last_reported":1698584809,"current_range_meters":4400,"station_id":"","pricing_plan_id":"free"},{"bike_id":"aeceaa79-aeeb-4c71-a64b-cd50a9b34241","system_id":"levelo_inurba_marseille","lat":43.284462,"lon":5.392121,"is_reserved":false,"is_disabled":false,"rental_uris":{"android":"levelo://app?vid=aeceaa79-aeeb-4c71-a64b-cd50a9b34241","ios":"levelo://app?vid=aeceaa79-aeeb-4c71-a64b-cd50a9b34241"},"vehicle_type_id":"4","last_reported":1698584809,"current_range_meters":29600,"station_id":"ce4bhoh2rcd13ifvqh5g","pricing_plan_id":"free"},{"bike_id":"ad9df0b1-648b-442f-a1d4-94cd8cc2d7cd","system_id":"levelo_inurba_marseille","lat":43.284462,"lon":5.392121,"is_reserved":false,"is_disabled":false,"rental_uris":{"android":"levelo://app?vid=ad9df0b1-648b-442f-a1d4-94cd8cc2d7cd","ios":"levelo://app?vid=ad9df0b1-648b-442f-a1d4-94cd8cc2d7cd"},"vehicle_type_id":"4","last_reported":1698584809,"current_range_meters":11600,"station_id":"ce4bhoh2rcd13ifvqh5g","pricing_plan_id":"free"},{"bike_id":"b992903f-0b47-4967-bc94-6e937c332861","system_id":"levelo_inurba_marseille","lat":43.326605,"lon":5.409903,"is_reserved":false,"is_disabled":false,"rental_uris":{"android":"levelo://app?vid=b992903f-0b47-4967-bc94-6e937c332861","ios":"levelo://app?vid=b992903f-0b47-4967-bc94-6e937c332861"},"vehicle_type_id":"4","last_reported":1698584809,"current_range_meters":8000,"station_id":"ce4bhpp2rcd13ifvqhgg","pricing_plan_id":"free"},{"bike_id":"9c3d6cb4-ff9e-4690-8c6e-8837e2258e55","system_id":"levelo_inurba_marseille","lat":43.304188,"lon":5.412904,"is_reserved":false,"is_disabled":false,"rental_uris":{"android":"levelo://app?vid=9c3d6cb4-ff9e-4690-8c6e-8837e2258e55","ios":"levelo://app?vid=9c3d6cb4-ff9e-4690-8c6e-8837e2258e55"},"vehicle_type_id":"4","last_reported":1698584809,"current_range_meters":25600,"station_id":"ce4bhop2rcd13ifvqh8g","pricing_plan_id":"free"},{"bike_id":"28c0fbb2-1d22-4605-bec3-c0641c691004","system_id":"levelo_inurba_marseille","lat":43.279087,"lon":5.380114,"is_reserved":false,"is_disabled":false,"rental_uris":{"android":"levelo://app?vid=28c0fbb2-1d22-4605-bec3-c0641c691004","ios":"levelo://app?vid=28c0fbb2-1d22-4605-bec3-c0641c691004"},"vehicle_type_id":"4","last_reported":1698584809,"current_range_meters":23200,"station_id":"ce4bhf92rcd13ifvqf50","pricing_plan_id":"free"},{"bike_id":"d142e3bf-e3dc-4c11-a5b6-3e698dbca7e0","system_id":"levelo_inurba_marseille","lat":43.320045,"lon":5.415046,"is_reserved":false,"is_disabled":false,"rental_uris":{"android":"levelo://app?vid=d142e3bf-e3dc-4c11-a5b6-3e698dbca7e0","ios":"levelo://app?vid=d142e3bf-e3dc-4c11-a5b6-3e698dbca7e0"},"vehicle_type_id":"4","last_reported":1698584809,"current_range_meters":31200,"station_id":"ce4bhq92rcd13ifvqhkg","pricing_plan_id":"free"},{"bike_id":"4684ad78-e64f-48c1-9158-4f0627dddf6f","system_id":"levelo_inurba_marseille","lat":43.320045,"lon":5.415046,"is_reserved":false,"is_disabled":false,"rental_uris":{"android":"levelo://app?vid=4684ad78-e64f-48c1-9158-4f0627dddf6f","ios":"levelo://app?vid=4684ad78-e64f-48c1-9158-4f0627dddf6f"},"vehicle_type_id":"4","last_reported":1698584809,"current_range_meters":28400,"station_id":"ce4bhq92rcd13ifvqhkg","pricing_plan_id":"free"},{"bike_id":"e3d2c9cc-c6f9-4236-b083-c2c335dc163e","system_id":"levelo_inurba_marseille","lat":43.299579,"lon":5.413255,"is_reserved":false,"is_disabled":false,"rental_uris":{"android":"levelo://app?vid=e3d2c9cc-c6f9-4236-b083-c2c335dc163e","ios":"levelo://app?vid=e3d2c9cc-c6f9-4236-b083-c2c335dc163e"},"vehicle_type_id":"4","last_reported":1698584809,"current_range_meters":19600,"station_id":"ce4bhp12rcd13ifvqh9g","pricing_plan_id":"free"},{"bike_id":"2b593cc5-e746-4f33-84cc-d52269863f57","system_id":"levelo_inurba_marseille","lat":43.279742,"lon":5.38744,"is_reserved":false,"is_disabled":false,"rental_uris":{"android":"levelo://app?vid=2b593cc5-e746-4f33-84cc-d52269863f57","ios":"levelo://app?vid=2b593cc5-e746-4f33-84cc-d52269863f57"},"vehicle_type_id":"4","last_reported":1698584809,"current_range_meters":4000,"station_id":"ce4bhg12rcd13ifvqf80","pricing_plan_id":"free"},{"bike_id":"827ec881-dda3-4244-bf59-0a69d8902f59","system_id":"levelo_inurba_marseille","lat":43.320045,"lon":5.415046,"is_reserved":false,"is_disabled":false,"rental_uris":{"android":"levelo://app?vid=827ec881-dda3-4244-bf59-0a69d8902f59","ios":"levelo://app?vid=827ec881-dda3-4244-bf59-0a69d8902f59"},"vehicle_type_id":"4","last_reported":1698584809,"current_range_meters":26800,"station_id":"ce4bhq92rcd13ifvqhkg","pricing_plan_id":"free"},{"bike_id":"063aab5d-df81-449d-aacd-9053f0eb8bd4","system_id":"levelo_inurba_marseille","lat":43.32033,"lon":5.4157,"is_reserved":false,"is_disabled":false,"rental_uris":{"android":"levelo://app?vid=063aab5d-df81-449d-aacd-9053f0eb8bd4","ios":"levelo://app?vid=063aab5d-df81-449d-aacd-9053f0eb8bd4"},"vehicle_type_id":"4","last_reported":1698584809,"current_range_meters":18000,"station_id":"ce4bhq92rcd13ifvqhkg","pricing_plan_id":"free"},{"bike_id":"ab441268-3e03-4104-94cc-7705d60c6788","system_id":"levelo_inurba_marseille","lat":43.347892,"lon":5.348552,"is_reserved":false,"is_disabled":false,"rental_uris":{"android":"levelo://app?vid=ab441268-3e03-4104-94cc-7705d60c6788","ios":"levelo://app?vid=ab441268-3e03-4104-94cc-7705d60c6788"},"vehicle_type_id":"4","last_reported":1698584809,"current_range_meters":15600,"station_id":"","pricing_plan_id":"free"},{"bike_id":"effde79e-e5f7-4565-a113-daa8e552a83e","system_id":"levelo_inurba_marseille","lat":43.303837,"lon":5.418724,"is_reserved":false,"is_disabled":false,"rental_uris":{"android":"levelo://app?vid=effde79e-e5f7-4565-a113-daa8e552a83e","ios":"levelo://app?vid=effde79e-e5f7-4565-a113-daa8e552a83e"},"vehicle_type_id":"4","last_reported":1698584809,"current_range_meters":30400,"station_id":"ce4bhop2rcd13ifvqh7g","pricing_plan_id":"free"},{"bike_id":"808c2ddb-768b-419b-8dad-bf086e396b0b","system_id":"levelo_inurba_marseille","lat":43.2738,"lon":5.36252,"is_reserved":false,"is_disabled":false,"rental_uris":{"android":"levelo://app?vid=808c2ddb-768b-419b-8dad-bf086e396b0b","ios":"levelo://app?vid=808c2ddb-768b-419b-8dad-bf086e396b0b"},"vehicle_type_id":"4","last_reported":1698584809,"current_range_meters":20800,"station_id":"ce4bhbh2rcd13ifvqeo0","pricing_plan_id":"free"},{"bike_id":"c152fca7-ae91-46ef-b5d8-b8f2d831ec9c","system_id":"levelo_inurba_marseille","lat":43.27379,"lon":5.36245,"is_reserved":false,"is_disabled":false,"rental_uris":{"android":"levelo://app?vid=c152fca7-ae91-46ef-b5d8-b8f2d831ec9c","ios":"levelo://app?vid=c152fca7-ae91-46ef-b5d8-b8f2d831ec9c"},"vehicle_type_id":"4","last_reported":1698584809,"current_range_meters":31200,"station_id":"ce4bhbh2rcd13ifvqeo0","pricing_plan_id":"free"},{"bike_id":"3a1a0e80-ca41-4673-8326-26552cfa2130","system_id":"levelo_inurba_marseille","lat":43.273613,"lon":5.362705,"is_reserved":false,"is_disabled":false,"rental_uris":{"android":"levelo://app?vid=3a1a0e80-ca41-4673-8326-26552cfa2130","ios":"levelo://app?vid=3a1a0e80-ca41-4673-8326-26552cfa2130"},"vehicle_type_id":"4","last_reported":1698584809,"current_range_meters":31200,"station_id":"ce4bhbh2rcd13ifvqeo0","pricing_plan_id":"free"},{"bike_id":"01b14aaf-b7fc-41e8-b11c-f5f9ba41824f","system_id":"levelo_inurba_marseille","lat":43.275306,"lon":5.385799,"is_reserved":false,"is_disabled":false,"rental_uris":{"android":"levelo://app?vid=01b14aaf-b7fc-41e8-b11c-f5f9ba41824f","ios":"levelo://app?vid=01b14aaf-b7fc-41e8-b11c-f5f9ba41824f"},"vehicle_type_id":"4","last_reported":1698584809,"current_range_meters":6000,"station_id":"","pricing_plan_id":"free"},{"bike_id":"82047b19-780e-4f24-a5c7-850b68a0b058","system_id":"levelo_inurba_marseille","lat":43.279952,"lon":5.400085,"is_reserved":false,"is_disabled":false,"rental_uris":{"android":"levelo://app?vid=82047b19-780e-4f24-a5c7-850b68a0b058","ios":"levelo://app?vid=82047b19-780e-4f24-a5c7-850b68a0b058"},"vehicle_type_id":"4","last_reported":1698584809,"current_range_meters":11200,"station_id":"ce4bho92rcd13ifvqh4g","pricing_plan_id":"free"},{"bike_id":"b551e140-c728-4830-8633-76944f446eec","system_id":"levelo_inurba_marseille","lat":43.27998,"lon":5.40013,"is_reserved":false,"is_disabled":false,"rental_uris":{"android":"levelo://app?vid=b551e140-c728-4830-8633-76944f446eec","ios":"levelo://app?vid=b551e140-c728-4830-8633-76944f446eec"},"vehicle_type_id":"4","last_reported":1698584809,"current_range_meters":800,"station_id":"ce4bho92rcd13ifvqh4g","pricing_plan_id":"free"},{"bike_id":"e64ec2c4-5126-435b-ac80-9840575e2e21","system_id":"levelo_inurba_marseille","lat":43.279952,"lon":5.400085,"is_reserved":false,"is_disabled":false,"rental_uris":{"android":"levelo://app?vid=e64ec2c4-5126-435b-ac80-9840575e2e21","ios":"levelo://app?vid=e64ec2c4-5126-435b-ac80-9840575e2e21"},"vehicle_type_id":"4","last_reported":1698584809,"current_range_meters":2000,"station_id":"ce4bho92rcd13ifvqh4g","pricing_plan_id":"free"},{"bike_id":"69af5f81-4e43-4e05-8090-98f54655cd52","system_id":"levelo_inurba_marseille","lat":43.310785,"lon":5.424305,"is_reserved":false,"is_disabled":false,"rental_uris":{"android":"levelo://app?vid=69af5f81-4e43-4e05-8090-98f54655cd52","ios":"levelo://app?vid=69af5f81-4e43-4e05-8090-98f54655cd52"},"vehicle_type_id":"4","last_reported":1698584809,"current_range_meters":31200,"station_id":"ce4bhp92rcd13ifvqhag","pricing_plan_id":"free"},{"bike_id":"8a2b96c9-70db-40c5-8ffe-c8ce325e8c8f","system_id":"levelo_inurba_marseille","lat":43.310785,"lon":5.424305,"is_reserved":false,"is_disabled":false,"rental_uris":{"android":"levelo://app?vid=8a2b96c9-70db-40c5-8ffe-c8ce325e8c8f","ios":"levelo://app?vid=8a2b96c9-70db-40c5-8ffe-c8ce325e8c8f"},"vehicle_type_id":"4","last_reported":1698584809,"current_range_meters":30000,"station_id":"ce4bhp92rcd13ifvqhag","pricing_plan_id":"free"},{"bike_id":"c5547a94-5c4c-4dba-8cdf-afe6b163ecda","system_id":"levelo_inurba_marseille","lat":43.310785,"lon":5.424305,"is_reserved":false,"is_disabled":false,"rental_uris":{"android":"levelo://app?vid=c5547a94-5c4c-4dba-8cdf-afe6b163ecda","ios":"levelo://app?vid=c5547a94-5c4c-4dba-8cdf-afe6b163ecda"},"vehicle_type_id":"4","last_reported":1698584809,"current_range_meters":16400,"station_id":"ce4bhp92rcd13ifvqhag","pricing_plan_id":"free"},{"bike_id":"d58dc1b0-a920-45a9-b8ae-bc43ae7fdaaf","system_id":"levelo_inurba_marseille","lat":43.31078,"lon":5.42434,"is_reserved":false,"is_disabled":false,"rental_uris":{"android":"levelo://app?vid=d58dc1b0-a920-45a9-b8ae-bc43ae7fdaaf","ios":"levelo://app?vid=d58dc1b0-a920-45a9-b8ae-bc43ae7fdaaf"},"vehicle_type_id":"4","last_reported":1698584809,"current_range_meters":14000,"station_id":"ce4bhp92rcd13ifvqhag","pricing_plan_id":"free"},{"bike_id":"10771e27-9dfa-483f-a879-18ff14f74247","system_id":"levelo_inurba_marseille","lat":43.310021,"lon":5.425067,"is_reserved":false,"is_disabled":false,"rental_uris":{"android":"levelo://app?vid=10771e27-9dfa-483f-a879-18ff14f74247","ios":"levelo://app?vid=10771e27-9dfa-483f-a879-18ff14f74247"},"vehicle_type_id":"4","last_reported":1698584809,"current_range_meters":0,"station_id":"","pricing_plan_id":"free"},{"bike_id":"6fc050bb-363a-45ee-9367-d33015de8c0d","system_id":"levelo_inurba_marseille","lat":43.27325,"lon":5.390915,"is_reserved":false,"is_disabled":false,"rental_uris":{"android":"levelo://app?vid=6fc050bb-363a-45ee-9367-d33015de8c0d","ios":"levelo://app?vid=6fc050bb-363a-45ee-9367-d33015de8c0d"},"vehicle_type_id":"4","last_reported":1698584809,"current_range_meters":7600,"station_id":"","pricing_plan_id":"free"},{"bike_id":"17469883-1d0f-49c7-b9fa-878bd4964871","system_id":"levelo_inurba_marseille","lat":43.304096,"lon":5.425385,"is_reserved":false,"is_disabled":false,"rental_uris":{"android":"levelo://app?vid=17469883-1d0f-49c7-b9fa-878bd4964871","ios":"levelo://app?vid=17469883-1d0f-49c7-b9fa-878bd4964871"},"vehicle_type_id":"4","last_reported":1698584809,"current_range_meters":22400,"station_id":"ce4bhoh2rcd13ifvqh6g","pricing_plan_id":"free"},{"bike_id":"291a32c9-e8fe-4c60-819c-bf8d640a2016","system_id":"levelo_inurba_marseille","lat":43.2936,"lon":5.37835,"is_reserved":false,"is_disabled":false,"rental_uris":{"android":"levelo://app?vid=291a32c9-e8fe-4c60-819c-bf8d640a2016","ios":"levelo://app?vid=291a32c9-e8fe-4c60-819c-bf8d640a2016"},"vehicle_type_id":"4","last_reported":1698584809,"current_range_meters":19200,"station_id":"ce4bgjh2rcd13ifvqbf0","pricing_plan_id":"free"},{"bike_id":"b4089e34-c2d4-41cc-9d82-32af2b37902d","system_id":"levelo_inurba_marseille","lat":43.278128,"lon":5.407195,"is_reserved":false,"is_disabled":false,"rental_uris":{"android":"levelo://app?vid=b4089e34-c2d4-41cc-9d82-32af2b37902d","ios":"levelo://app?vid=b4089e34-c2d4-41cc-9d82-32af2b37902d"},"vehicle_type_id":"4","last_reported":1698584809,"current_range_meters":21600,"station_id":"ce4bhnh2rcd13ifvqgtg","pricing_plan_id":"free"},{"bike_id":"78d6fad6-b4de-4475-815d-f0e6e945c3da","system_id":"levelo_inurba_marseille","lat":43.27813,"lon":5.40715,"is_reserved":false,"is_disabled":false,"rental_uris":{"android":"levelo://app?vid=78d6fad6-b4de-4475-815d-f0e6e945c3da","ios":"levelo://app?vid=78d6fad6-b4de-4475-815d-f0e6e945c3da"},"vehicle_type_id":"4","last_reported":1698584809,"current_range_meters":8400,"station_id":"ce4bhnh2rcd13ifvqgtg","pricing_plan_id":"free"},{"bike_id":"a9b6c90f-9e89-4d81-b73f-dc53995dd165","system_id":"levelo_inurba_marseille","lat":43.278128,"lon":5.407195,"is_reserved":false,"is_disabled":false,"rental_uris":{"android":"levelo://app?vid=a9b6c90f-9e89-4d81-b73f-dc53995dd165","ios":"levelo://app?vid=a9b6c90f-9e89-4d81-b73f-dc53995dd165"},"vehicle_type_id":"4","last_reported":1698584809,"current_range_meters":12800,"station_id":"ce4bhnh2rcd13ifvqgtg","pricing_plan_id":"free"},{"bike_id":"891e1734-0f2b-4304-8bd4-989a6a3bbdb4","system_id":"levelo_inurba_marseille","lat":43.279417,"lon":5.410406,"is_reserved":false,"is_disabled":false,"rental_uris":{"android":"levelo://app?vid=891e1734-0f2b-4304-8bd4-989a6a3bbdb4","ios":"levelo://app?vid=891e1734-0f2b-4304-8bd4-989a6a3bbdb4"},"vehicle_type_id":"4","last_reported":1698584809,"current_range_meters":22400,"station_id":"ce4bhnp2rcd13ifvqh0g","pricing_plan_id":"free"},{"bike_id":"7635d9f5-c31a-40aa-b741-4951cad65bc6","system_id":"levelo_inurba_marseille","lat":43.2794,"lon":5.41049,"is_reserved":false,"is_disabled":false,"rental_uris":{"android":"levelo://app?vid=7635d9f5-c31a-40aa-b741-4951cad65bc6","ios":"levelo://app?vid=7635d9f5-c31a-40aa-b741-4951cad65bc6"},"vehicle_type_id":"4","last_reported":1698584809,"current_range_meters":10800,"station_id":"ce4bhnp2rcd13ifvqh0g","pricing_plan_id":"free"},{"bike_id":"9d69e8ac-f2c1-4923-9b1f-884e2594e7b5","system_id":"levelo_inurba_marseille","lat":43.269319,"lon":5.389397,"is_reserved":false,"is_disabled":false,"rental_uris":{"android":"levelo://app?vid=9d69e8ac-f2c1-4923-9b1f-884e2594e7b5","ios":"levelo://app?vid=9d69e8ac-f2c1-4923-9b1f-884e2594e7b5"},"vehicle_type_id":"4","last_reported":1698584809,"current_range_meters":0,"station_id":"ce4bhhh2rcd13ifvqfl0","pricing_plan_id":"free"},{"bike_id":"4fad8984-bf29-4ebf-a83e-c701a38bab13","system_id":"levelo_inurba_marseille","lat":43.269319,"lon":5.389397,"is_reserved":false,"is_disabled":false,"rental_uris":{"android":"levelo://app?vid=4fad8984-bf29-4ebf-a83e-c701a38bab13","ios":"levelo://app?vid=4fad8984-bf29-4ebf-a83e-c701a38bab13"},"vehicle_type_id":"4","last_reported":1698584809,"current_range_meters":29600,"station_id":"ce4bhhh2rcd13ifvqfl0","pricing_plan_id":"free"},{"bike_id":"66a46cce-2509-423f-8e36-ccbf8c1330ab","system_id":"levelo_inurba_marseille","lat":43.269319,"lon":5.389397,"is_reserved":false,"is_disabled":false,"rental_uris":{"android":"levelo://app?vid=66a46cce-2509-423f-8e36-ccbf8c1330ab","ios":"levelo://app?vid=66a46cce-2509-423f-8e36-ccbf8c1330ab"},"vehicle_type_id":"4","last_reported":1698584809,"current_range_meters":21600,"station_id":"ce4bhhh2rcd13ifvqfl0","pricing_plan_id":"free"},{"bike_id":"24e2efad-db49-49dc-8e22-696563ad08f5","system_id":"levelo_inurba_marseille","lat":43.26681,"lon":5.382694,"is_reserved":false,"is_disabled":false,"rental_uris":{"android":"levelo://app?vid=24e2efad-db49-49dc-8e22-696563ad08f5","ios":"levelo://app?vid=24e2efad-db49-49dc-8e22-696563ad08f5"},"vehicle_type_id":"4","last_reported":1698584809,"current_range_meters":22000,"station_id":"ce4bhg92rcd13ifvqf90","pricing_plan_id":"free"},{"bike_id":"36fcecc4-66c8-4f07-b677-5eada29f671b","system_id":"levelo_inurba_marseille","lat":43.26681,"lon":5.382694,"is_reserved":false,"is_disabled":false,"rental_uris":{"android":"levelo://app?vid=36fcecc4-66c8-4f07-b677-5eada29f671b","ios":"levelo://app?vid=36fcecc4-66c8-4f07-b677-5eada29f671b"},"vehicle_type_id":"4","last_reported":1698584809,"current_range_meters":26800,"station_id":"ce4bhg92rcd13ifvqf90","pricing_plan_id":"free"},{"bike_id":"7f885b45-daca-43e7-bf58-7257ab1d1d41","system_id":"levelo_inurba_marseille","lat":43.26681,"lon":5.382694,"is_reserved":false,"is_disabled":false,"rental_uris":{"android":"levelo://app?vid=7f885b45-daca-43e7-bf58-7257ab1d1d41","ios":"levelo://app?vid=7f885b45-daca-43e7-bf58-7257ab1d1d41"},"vehicle_type_id":"4","last_reported":1698584809,"current_range_meters":31600,"station_id":"ce4bhg92rcd13ifvqf90","pricing_plan_id":"free"},{"bike_id":"111a157a-86c9-41ab-8be1-a0fae5350fc4","system_id":"levelo_inurba_marseille","lat":43.26561,"lon":5.37282,"is_reserved":false,"is_disabled":false,"rental_uris":{"android":"levelo://app?vid=111a157a-86c9-41ab-8be1-a0fae5350fc4","ios":"levelo://app?vid=111a157a-86c9-41ab-8be1-a0fae5350fc4"},"vehicle_type_id":"4","last_reported":1698584809,"current_range_meters":30800,"station_id":"ce4bhg12rcd13ifvqf70","pricing_plan_id":"free"},{"bike_id":"e54972c2-bd7c-46ac-baf1-a0a3e1d42d8a","system_id":"levelo_inurba_marseille","lat":43.26558,"lon":5.37283,"is_reserved":false,"is_disabled":false,"rental_uris":{"android":"levelo://app?vid=e54972c2-bd7c-46ac-baf1-a0a3e1d42d8a","ios":"levelo://app?vid=e54972c2-bd7c-46ac-baf1-a0a3e1d42d8a"},"vehicle_type_id":"4","last_reported":1698584809,"current_range_meters":14000,"station_id":"ce4bhg12rcd13ifvqf70","pricing_plan_id":"free"},{"bike_id":"54e8fba7-4a18-46ac-a0ea-265111899c76","system_id":"levelo_inurba_marseille","lat":43.26556,"lon":5.37281,"is_reserved":false,"is_disabled":false,"rental_uris":{"android":"levelo://app?vid=54e8fba7-4a18-46ac-a0ea-265111899c76","ios":"levelo://app?vid=54e8fba7-4a18-46ac-a0ea-265111899c76"},"vehicle_type_id":"4","last_reported":1698584809,"current_range_meters":22800,"station_id":"ce4bhg12rcd13ifvqf70","pricing_plan_id":"free"},{"bike_id":"487fde94-1f24-4fb3-825b-166e517e5a19","system_id":"levelo_inurba_marseille","lat":43.26556,"lon":5.37282,"is_reserved":false,"is_disabled":false,"rental_uris":{"android":"levelo://app?vid=487fde94-1f24-4fb3-825b-166e517e5a19","ios":"levelo://app?vid=487fde94-1f24-4fb3-825b-166e517e5a19"},"vehicle_type_id":"4","last_reported":1698584809,"current_range_meters":16400,"station_id":"ce4bhg12rcd13ifvqf70","pricing_plan_id":"free"},{"bike_id":"d33fabde-c8c1-419b-b64c-9ef81841f56c","system_id":"levelo_inurba_marseille","lat":43.26554,"lon":5.3728,"is_reserved":false,"is_disabled":false,"rental_uris":{"android":"levelo://app?vid=d33fabde-c8c1-419b-b64c-9ef81841f56c","ios":"levelo://app?vid=d33fabde-c8c1-419b-b64c-9ef81841f56c"},"vehicle_type_id":"4","last_reported":1698584809,"current_range_meters":13600,"station_id":"ce4bhg12rcd13ifvqf70","pricing_plan_id":"free"},{"bike_id":"88dc4f6c-0d90-491b-9e22-f3c5a6ad0674","system_id":"levelo_inurba_marseille","lat":43.265714,"lon":5.372891,"is_reserved":false,"is_disabled":false,"rental_uris":{"android":"levelo://app?vid=88dc4f6c-0d90-491b-9e22-f3c5a6ad0674","ios":"levelo://app?vid=88dc4f6c-0d90-491b-9e22-f3c5a6ad0674"},"vehicle_type_id":"4","last_reported":1698584809,"current_range_meters":31200,"station_id":"ce4bhg12rcd13ifvqf70","pricing_plan_id":"free"},{"bike_id":"07b7734e-5f2a-4f5c-95f1-19ad8a5c215e","system_id":"levelo_inurba_marseille","lat":43.26552,"lon":5.37283,"is_reserved":false,"is_disabled":false,"rental_uris":{"android":"levelo://app?vid=07b7734e-5f2a-4f5c-95f1-19ad8a5c215e","ios":"levelo://app?vid=07b7734e-5f2a-4f5c-95f1-19ad8a5c215e"},"vehicle_type_id":"4","last_reported":1698584809,"current_range_meters":31600,"station_id":"ce4bhg12rcd13ifvqf70","pricing_plan_id":"free"},{"bike_id":"1234a1b4-d89c-4ae2-8a41-9c22dafa1c18","system_id":"levelo_inurba_marseille","lat":43.26552,"lon":5.372851,"is_reserved":false,"is_disabled":false,"rental_uris":{"android":"levelo://app?vid=1234a1b4-d89c-4ae2-8a41-9c22dafa1c18","ios":"levelo://app?vid=1234a1b4-d89c-4ae2-8a41-9c22dafa1c18"},"vehicle_type_id":"4","last_reported":1698584809,"current_range_meters":22800,"station_id":"ce4bhg12rcd13ifvqf70","pricing_plan_id":"free"},{"bike_id":"c21fbae4-1138-46dc-9862-3a9fd300cba0","system_id":"levelo_inurba_marseille","lat":43.26551,"lon":5.37291,"is_reserved":false,"is_disabled":false,"rental_uris":{"android":"levelo://app?vid=c21fbae4-1138-46dc-9862-3a9fd300cba0","ios":"levelo://app?vid=c21fbae4-1138-46dc-9862-3a9fd300cba0"},"vehicle_type_id":"4","last_reported":1698584809,"current_range_meters":31200,"station_id":"ce4bhg12rcd13ifvqf70","pricing_plan_id":"free"},{"bike_id":"58e78625-d733-4b83-a4b5-6e92b8e8bc34","system_id":"levelo_inurba_marseille","lat":43.26549,"lon":5.37286,"is_reserved":false,"is_disabled":false,"rental_uris":{"android":"levelo://app?vid=58e78625-d733-4b83-a4b5-6e92b8e8bc34","ios":"levelo://app?vid=58e78625-d733-4b83-a4b5-6e92b8e8bc34"},"vehicle_type_id":"4","last_reported":1698584809,"current_range_meters":17600,"station_id":"ce4bhg12rcd13ifvqf70","pricing_plan_id":"free"},{"bike_id":"d76c4b2d-800f-4d30-a8a7-a189376a95c3","system_id":"levelo_inurba_marseille","lat":43.27996,"lon":5.416624,"is_reserved":false,"is_disabled":false,"rental_uris":{"android":"levelo://app?vid=d76c4b2d-800f-4d30-a8a7-a189376a95c3","ios":"levelo://app?vid=d76c4b2d-800f-4d30-a8a7-a189376a95c3"},"vehicle_type_id":"4","last_reported":1698584809,"current_range_meters":28800,"station_id":"ce4bho12rcd13ifvqh1g","pricing_plan_id":"free"},{"bike_id":"e610933f-f657-4bb4-a514-3746cfe6b8b3","system_id":"levelo_inurba_marseille","lat":43.279927,"lon":5.416559,"is_reserved":false,"is_disabled":false,"rental_uris":{"android":"levelo://app?vid=e610933f-f657-4bb4-a514-3746cfe6b8b3","ios":"levelo://app?vid=e610933f-f657-4bb4-a514-3746cfe6b8b3"},"vehicle_type_id":"4","last_reported":1698584809,"current_range_meters":26400,"station_id":"ce4bho12rcd13ifvqh1g","pricing_plan_id":"free"},{"bike_id":"aa61373d-dac9-4a79-abc4-d00d02a45848","system_id":"levelo_inurba_marseille","lat":43.279945,"lon":5.416589,"is_reserved":false,"is_disabled":false,"rental_uris":{"android":"levelo://app?vid=aa61373d-dac9-4a79-abc4-d00d02a45848","ios":"levelo://app?vid=aa61373d-dac9-4a79-abc4-d00d02a45848"},"vehicle_type_id":"4","last_reported":1698584809,"current_range_meters":30000,"station_id":"ce4bho12rcd13ifvqh1g","pricing_plan_id":"free"},{"bike_id":"a627ab3d-3d6d-4b31-a48c-e9678c0e9d3f","system_id":"levelo_inurba_marseille","lat":43.279938,"lon":5.416582,"is_reserved":false,"is_disabled":false,"rental_uris":{"android":"levelo://app?vid=a627ab3d-3d6d-4b31-a48c-e9678c0e9d3f","ios":"levelo://app?vid=a627ab3d-3d6d-4b31-a48c-e9678c0e9d3f"},"vehicle_type_id":"4","last_reported":1698584809,"current_range_meters":27200,"station_id":"ce4bho12rcd13ifvqh1g","pricing_plan_id":"free"},{"bike_id":"554259c7-86b2-48d7-8047-1aba716418a8","system_id":"levelo_inurba_marseille","lat":43.279931,"lon":5.416608,"is_reserved":false,"is_disabled":false,"rental_uris":{"android":"levelo://app?vid=554259c7-86b2-48d7-8047-1aba716418a8","ios":"levelo://app?vid=554259c7-86b2-48d7-8047-1aba716418a8"},"vehicle_type_id":"4","last_reported":1698584809,"current_range_meters":29200,"station_id":"ce4bho12rcd13ifvqh1g","pricing_plan_id":"free"},{"bike_id":"02c3d2a3-96a1-40bf-931b-41d3bec661f0","system_id":"levelo_inurba_marseille","lat":43.279916,"lon":5.416618,"is_reserved":false,"is_disabled":false,"rental_uris":{"android":"levelo://app?vid=02c3d2a3-96a1-40bf-931b-41d3bec661f0","ios":"levelo://app?vid=02c3d2a3-96a1-40bf-931b-41d3bec661f0"},"vehicle_type_id":"4","last_reported":1698584809,"current_range_meters":30400,"station_id":"ce4bho12rcd13ifvqh1g","pricing_plan_id":"free"},{"bike_id":"2687313b-4537-4b0d-956b-7965a5770ee1","system_id":"levelo_inurba_marseille","lat":43.328212,"lon":5.431596,"is_reserved":false,"is_disabled":false,"rental_uris":{"android":"levelo://app?vid=2687313b-4537-4b0d-956b-7965a5770ee1","ios":"levelo://app?vid=2687313b-4537-4b0d-956b-7965a5770ee1"},"vehicle_type_id":"4","last_reported":1698584809,"current_range_meters":15600,"station_id":"","pricing_plan_id":"free"},{"bike_id":"1cb3f577-fb04-4e28-a15d-87951d1577d9","system_id":"levelo_inurba_marseille","lat":43.308051,"lon":5.43527,"is_reserved":false,"is_disabled":false,"rental_uris":{"android":"levelo://app?vid=1cb3f577-fb04-4e28-a15d-87951d1577d9","ios":"levelo://app?vid=1cb3f577-fb04-4e28-a15d-87951d1577d9"},"vehicle_type_id":"4","last_reported":1698584809,"current_range_meters":27200,"station_id":"ce4bhph2rcd13ifvqheg","pricing_plan_id":"free"},{"bike_id":"2d46cc0c-65c6-4834-956d-7090ad78794e","system_id":"levelo_inurba_marseille","lat":43.265431,"lon":5.389961,"is_reserved":false,"is_disabled":false,"rental_uris":{"android":"levelo://app?vid=2d46cc0c-65c6-4834-956d-7090ad78794e","ios":"levelo://app?vid=2d46cc0c-65c6-4834-956d-7090ad78794e"},"vehicle_type_id":"4","last_reported":1698584809,"current_range_meters":6000,"station_id":"ce4bhe12rcd13ifvqf30","pricing_plan_id":"free"},{"bike_id":"ec6afd31-9e09-427d-9510-e1e5dd939561","system_id":"levelo_inurba_marseille","lat":43.26948,"lon":5.40241,"is_reserved":false,"is_disabled":false,"rental_uris":{"android":"levelo://app?vid=ec6afd31-9e09-427d-9510-e1e5dd939561","ios":"levelo://app?vid=ec6afd31-9e09-427d-9510-e1e5dd939561"},"vehicle_type_id":"4","last_reported":1698584809,"current_range_meters":23200,"station_id":"cjm6bp8fraef2m0cb0m0","pricing_plan_id":"free"},{"bike_id":"16396061-5efa-44ce-aeec-e4badff357d9","system_id":"levelo_inurba_marseille","lat":43.26942,"lon":5.4025,"is_reserved":false,"is_disabled":false,"rental_uris":{"android":"levelo://app?vid=16396061-5efa-44ce-aeec-e4badff357d9","ios":"levelo://app?vid=16396061-5efa-44ce-aeec-e4badff357d9"},"vehicle_type_id":"4","last_reported":1698584809,"current_range_meters":17200,"station_id":"cjm6bp8fraef2m0cb0m0","pricing_plan_id":"free"},{"bike_id":"45ef9769-e3c1-4f9e-b204-2e6a0ab904cc","system_id":"levelo_inurba_marseille","lat":43.26942,"lon":5.40251,"is_reserved":false,"is_disabled":false,"rental_uris":{"android":"levelo://app?vid=45ef9769-e3c1-4f9e-b204-2e6a0ab904cc","ios":"levelo://app?vid=45ef9769-e3c1-4f9e-b204-2e6a0ab904cc"},"vehicle_type_id":"4","last_reported":1698584809,"current_range_meters":28000,"station_id":"cjm6bp8fraef2m0cb0m0","pricing_plan_id":"free"},{"bike_id":"5d148bff-4d10-4664-a2a5-da1a66e8c4b5","system_id":"levelo_inurba_marseille","lat":43.26944,"lon":5.40258,"is_reserved":false,"is_disabled":false,"rental_uris":{"android":"levelo://app?vid=5d148bff-4d10-4664-a2a5-da1a66e8c4b5","ios":"levelo://app?vid=5d148bff-4d10-4664-a2a5-da1a66e8c4b5"},"vehicle_type_id":"4","last_reported":1698584809,"current_range_meters":8800,"station_id":"cjm6bp8fraef2m0cb0m0","pricing_plan_id":"free"},{"bike_id":"fe7c9467-e84f-4fc5-8638-8e924548878e","system_id":"levelo_inurba_marseille","lat":43.269419,"lon":5.402536,"is_reserved":false,"is_disabled":false,"rental_uris":{"android":"levelo://app?vid=fe7c9467-e84f-4fc5-8638-8e924548878e","ios":"levelo://app?vid=fe7c9467-e84f-4fc5-8638-8e924548878e"},