{"last_updated":1751731918,"ttl":60,"version":"2.2","data":{"bikes":[{"bike_id":"3da29fb8-fc97-44c6-b9ac-31dd456b2fd4","system_id":"levelo_inurba_marseille","lat":43.33771,"lon":5.37424,"is_reserved":false,"is_disabled":true,"rental_uris":{"android":"levelo://app?vid=3da29fb8-fc97-44c6-b9ac-31dd456b2fd4","ios":"levelo://app?vid=3da29fb8-fc97-44c6-b9ac-31dd456b2fd4"},"vehicle_type_id":"4","last_reported":1751731918,"current_range_meters":0,"station_id":"","pricing_plan_id":"cebpf4jnsgd1na2vs0mg"},{"bike_id":"01861ad8-a8d7-4be6-816e-651927c87584","system_id":"levelo_inurba_marseille","lat":43.33751,"lon":5.37456,"is_reserved":false,"is_disabled":true,"rental_uris":{"android":"levelo://app?vid=01861ad8-a8d7-4be6-816e-651927c87584","ios":"levelo://app?vid=01861ad8-a8d7-4be6-816e-651927c87584"},"vehicle_type_id":"4","last_reported":1751731918,"current_range_meters":0,"station_id":"","pricing_plan_id":"cebpf4jnsgd1na2vs0mg"},{"bike_id":"374dc5fc-aac8-4da9-98b1-98e70c32d600","system_id":"levelo_inurba_marseille","lat":43.28195,"lon":5.34899,"is_reserved":false,"is_disabled":true,"rental_uris":{"android":"levelo://app?vid=374dc5fc-aac8-4da9-98b1-98e70c32d600","ios":"levelo://app?vid=374dc5fc-aac8-4da9-98b1-98e70c32d600"},"vehicle_type_id":"4","last_reported":1751731918,"current_range_meters":0,"station_id":"","pricing_plan_id":"cebpf4jnsgd1na2vs0mg"},{"bike_id":"709a7443-10a8-420a-866d-68d5e9fb61b3","system_id":"levelo_inurba_marseille","lat":43.231949,"lon":5.355535,"is_reserved":false,"is_disabled":true,"rental_uris":{"android":"levelo://app?vid=709a7443-10a8-420a-866d-68d5e9fb61b3","ios":"levelo://app?vid=709a7443-10a8-420a-866d-68d5e9fb61b3"},"vehicle_type_id":"4","last_reported":1751731918,"current_range_meters":0,"station_id":"","pricing_plan_id":"cebpf4jnsgd1na2vs0mg"},{"bike_id":"f70f4eac-3f58-4e34-b450-f4227420bc3d","system_id":"levelo_inurba_marseille","lat":43.30527,"lon":5.39168,"is_reserved":false,"is_disabled":true,"rental_uris":{"android":"levelo://app?vid=f70f4eac-3f58-4e34-b450-f4227420bc3d","ios":"levelo://app?vid=f70f4eac-3f58-4e34-b450-f4227420bc3d"},"vehicle_type_id":"4","last_reported":1751731918,"current_range_meters":0,"station_id":"","pricing_plan_id":"cebpf4jnsgd1na2vs0mg"},{"bike_id":"c8885025-0b30-48c0-846f-ea87c2948681","system_id":"levelo_inurba_marseille","lat":43.30162,"lon":5.37705,"is_reserved":false,"is_disabled":true,"rental_uris":{"android":"levelo://app?vid=c8885025-0b30-48c0-846f-ea87c2948681","ios":"levelo://app?vid=c8885025-0b30-48c0-846f-ea87c2948681"},"vehicle_type_id":"4","last_reported":1751731918,"current_range_meters":0,"station_id":"","pricing_plan_id":"cebpf4jnsgd1na2vs0mg"},{"bike_id":"1cad8455-0e19-4c8f-8c15-74d30fc23380","system_id":"levelo_inurba_marseille","lat":43.29882,"lon":5.36349,"is_reserved":false,"is_disabled":true,"rental_uris":{"android":"levelo://app?vid=1cad8455-0e19-4c8f-8c15-74d30fc23380","ios":"levelo://app?vid=1cad8455-0e19-4c8f-8c15-74d30fc23380"},"vehicle_type_id":"4","last_reported":1751731918,"current_range_meters":0,"station_id":"","pricing_plan_id":"cebpf4jnsgd1na2vs0mg"},{"bike_id":"76581a69-74b9-4e35-b9a7-1a5d651549bd","system_id":"levelo_inurba_marseille","lat":43.30147,"lon":5.38763,"is_reserved":false,"is_disabled":true,"rental_uris":{"android":"levelo://app?vid=76581a69-74b9-4e35-b9a7-1a5d651549bd","ios":"levelo://app?vid=76581a69-74b9-4e35-b9a7-1a5d651549bd"},"vehicle_type_id":"4","last_reported":1751731918,"current_range_meters":0,"station_id":"ce4bghh2rcd13ifvqb60","pricing_plan_id":"cebpf4jnsgd1na2vs0mg"},{"bike_id":"d9c90620-26c1-4d3c-8a03-7cc318565518","system_id":"levelo_inurba_marseille","lat":43.301453,"lon":5.38085,"is_reserved":false,"is_disabled":true,"rental_uris":{"android":"levelo://app?vid=d9c90620-26c1-4d3c-8a03-7cc318565518","ios":"levelo://app?vid=d9c90620-26c1-4d3c-8a03-7cc318565518"},"vehicle_type_id":"4","last_reported":1751731918,"current_range_meters":0,"station_id":"ce4bgjp2rcd13ifvqbh0","pricing_plan_id":"cebpf4jnsgd1na2vs0mg"},{"bike_id":"d780c1fb-4413-403c-b14c-001c5150c9c6","system_id":"levelo_inurba_marseille","lat":43.29598,"lon":5.38107,"is_reserved":false,"is_disabled":true,"rental_uris":{"android":"levelo://app?vid=d780c1fb-4413-403c-b14c-001c5150c9c6","ios":"levelo://app?vid=d780c1fb-4413-403c-b14c-001c5150c9c6"},"vehicle_type_id":"4","last_reported":1751731918,"current_range_meters":0,"station_id":"ce4bgl12rcd13ifvqbo0","pricing_plan_id":"cebpf4jnsgd1na2vs0mg"},{"bike_id":"7e800602-847e-4189-b76b-ccb248f3488b","system_id":"levelo_inurba_marseille","lat":43.30553,"lon":5.36553,"is_reserved":false,"is_disabled":true,"rental_uris":{"android":"levelo://app?vid=7e800602-847e-4189-b76b-ccb248f3488b","ios":"levelo://app?vid=7e800602-847e-4189-b76b-ccb248f3488b"},"vehicle_type_id":"4","last_reported":1751731918,"current_range_meters":0,"station_id":"ce4bgs12rcd13ifvqcag","pricing_plan_id":"cebpf4jnsgd1na2vs0mg"},{"bike_id":"bac1ace4-7e65-40cb-894d-3f7e70fca8e3","system_id":"levelo_inurba_marseille","lat":43.30211,"lon":5.39461,"is_reserved":false,"is_disabled":true,"rental_uris":{"android":"levelo://app?vid=bac1ace4-7e65-40cb-894d-3f7e70fca8e3","ios":"levelo://app?vid=bac1ace4-7e65-40cb-894d-3f7e70fca8e3"},"vehicle_type_id":"4","last_reported":1751731918,"current_range_meters":0,"station_id":"ce4bh0p2rcd13ifvqd70","pricing_plan_id":"cebpf4jnsgd1na2vs0mg"},{"bike_id":"f83bd47a-61a9-469b-86f0-a832e73205ec","system_id":"levelo_inurba_marseille","lat":43.2885,"lon":5.35864,"is_reserved":false,"is_disabled":true,"rental_uris":{"android":"levelo://app?vid=f83bd47a-61a9-469b-86f0-a832e73205ec","ios":"levelo://app?vid=f83bd47a-61a9-469b-86f0-a832e73205ec"},"vehicle_type_id":"4","last_reported":1751731918,"current_range_meters":0,"station_id":"ce4bhb12rcd13ifvqem0","pricing_plan_id":"cebpf4jnsgd1na2vs0mg"},{"bike_id":"45e9f1ce-ae1c-47b2-8b36-d291e87fe5d4","system_id":"levelo_inurba_marseille","lat":43.28612,"lon":5.35102,"is_reserved":false,"is_disabled":true,"rental_uris":{"android":"levelo://app?vid=45e9f1ce-ae1c-47b2-8b36-d291e87fe5d4","ios":"levelo://app?vid=45e9f1ce-ae1c-47b2-8b36-d291e87fe5d4"},"vehicle_type_id":"4","last_reported":1751731918,"current_range_meters":0,"station_id":"ce4bhch2rcd13ifvqeug","pricing_plan_id":"cebpf4jnsgd1na2vs0mg"},{"bike_id":"5b9baff2-aae3-461a-8ed9-dfa486163125","system_id":"levelo_inurba_marseille","lat":43.27942,"lon":5.41042,"is_reserved":false,"is_disabled":true,"rental_uris":{"android":"levelo://app?vid=5b9baff2-aae3-461a-8ed9-dfa486163125","ios":"levelo://app?vid=5b9baff2-aae3-461a-8ed9-dfa486163125"},"vehicle_type_id":"4","last_reported":1751731918,"current_range_meters":0,"station_id":"ce4bhnp2rcd13ifvqh0g","pricing_plan_id":"cebpf4jnsgd1na2vs0mg"},{"bike_id":"8afa7640-ebe8-4025-983a-c83f3912a2dd","system_id":"levelo_inurba_marseille","lat":43.21188,"lon":5.35069,"is_reserved":false,"is_disabled":true,"rental_uris":{"android":"levelo://app?vid=8afa7640-ebe8-4025-983a-c83f3912a2dd","ios":"levelo://app?vid=8afa7640-ebe8-4025-983a-c83f3912a2dd"},"vehicle_type_id":"4","last_reported":1751731918,"current_range_meters":0,"station_id":"st_cvj6sg6p6f1abm77japg","pricing_plan_id":"cebpf4jnsgd1na2vs0mg"},{"bike_id":"f5a47db5-6fb2-46bd-a2de-efa4ad13bf60","system_id":"levelo_inurba_marseille","lat":43.21194,"lon":5.35067,"is_reserved":false,"is_disabled":true,"rental_uris":{"android":"levelo://app?vid=f5a47db5-6fb2-46bd-a2de-efa4ad13bf60","ios":"levelo://app?vid=f5a47db5-6fb2-46bd-a2de-efa4ad13bf60"},"vehicle_type_id":"4","last_reported":1751731918,"current_range_meters":0,"station_id":"st_cvj6sg6p6f1abm77japg","pricing_plan_id":"cebpf4jnsgd1na2vs0mg"},{"bike_id":"d958cea0-f075-4b17-b995-2dd8ad0ad562","system_id":"levelo_inurba_marseille","lat":43.29797,"lon":5.40402,"is_reserved":false,"is_disabled":true,"rental_uris":{"android":"levelo://app?vid=d958cea0-f075-4b17-b995-2dd8ad0ad562","ios":"levelo://app?vid=d958cea0-f075-4b17-b995-2dd8ad0ad562"},"vehicle_type_id":"4","last_reported":1751731918,"current_range_meters":400,"station_id":"ce4bh112rcd13ifvqd90","pricing_plan_id":"cebpf4jnsgd1na2vs0mg"},{"bike_id":"d34caacb-b6a0-4e89-b381-412e324a9b21","system_id":"levelo_inurba_marseille","lat":43.24169,"lon":5.36397,"is_reserved":false,"is_disabled":true,"rental_uris":{"android":"levelo://app?vid=d34caacb-b6a0-4e89-b381-412e324a9b21","ios":"levelo://app?vid=d34caacb-b6a0-4e89-b381-412e324a9b21"},"vehicle_type_id":"4","last_reported":1751731918,"current_range_meters":400,"station_id":"cpo36qri1sfpv3e86is0","pricing_plan_id":"cebpf4jnsgd1na2vs0mg"},{"bike_id":"0c49a7d6-f9db-4a6c-978f-71d3ca86d4a3","system_id":"levelo_inurba_marseille","lat":43.22507,"lon":5.34801,"is_reserved":false,"is_disabled":true,"rental_uris":{"android":"levelo://app?vid=0c49a7d6-f9db-4a6c-978f-71d3ca86d4a3","ios":"levelo://app?vid=0c49a7d6-f9db-4a6c-978f-71d3ca86d4a3"},"vehicle_type_id":"4","last_reported":1751731918,"current_range_meters":400,"station_id":"st_cvj5dfep6f1abm77gieg","pricing_plan_id":"cebpf4jnsgd1na2vs0mg"},{"bike_id":"e098ac15-9fd2-4463-a4c6-b23968be2f1c","system_id":"levelo_inurba_marseille","lat":43.298073,"lon":5.380927,"is_reserved":false,"is_disabled":true,"rental_uris":{"android":"levelo://app?vid=e098ac15-9fd2-4463-a4c6-b23968be2f1c","ios":"levelo://app?vid=e098ac15-9fd2-4463-a4c6-b23968be2f1c"},"vehicle_type_id":"4","last_reported":1751731918,"current_range_meters":800,"station_id":"ce4bgip2rcd13ifvqbb0","pricing_plan_id":"cebpf4jnsgd1na2vs0mg"},{"bike_id":"ccd6ba95-ced5-4dfd-abdf-b1c6f3b079ea","system_id":"levelo_inurba_marseille","lat":43.28458,"lon":5.35889,"is_reserved":false,"is_disabled":true,"rental_uris":{"android":"levelo://app?vid=ccd6ba95-ced5-4dfd-abdf-b1c6f3b079ea","ios":"levelo://app?vid=ccd6ba95-ced5-4dfd-abdf-b1c6f3b079ea"},"vehicle_type_id":"4","last_reported":1751731918,"current_range_meters":800,"station_id":"ce4bhah2rcd13ifvqei0","pricing_plan_id":"cebpf4jnsgd1na2vs0mg"},{"bike_id":"5489b5bf-d34e-4f79-ab3f-5d179d52cbcd","system_id":"levelo_inurba_marseille","lat":43.27374,"lon":5.36258,"is_reserved":false,"is_disabled":true,"rental_uris":{"android":"levelo://app?vid=5489b5bf-d34e-4f79-ab3f-5d179d52cbcd","ios":"levelo://app?vid=5489b5bf-d34e-4f79-ab3f-5d179d52cbcd"},"vehicle_type_id":"4","last_reported":1751731918,"current_range_meters":800,"station_id":"ce4bhbh2rcd13ifvqeo0","pricing_plan_id":"cebpf4jnsgd1na2vs0mg"},{"bike_id":"b1edafd2-768c-455c-8699-7a16f0bef4c6","system_id":"levelo_inurba_marseille","lat":43.28445,"lon":5.34999,"is_reserved":false,"is_disabled":true,"rental_uris":{"android":"levelo://app?vid=b1edafd2-768c-455c-8699-7a16f0bef4c6","ios":"levelo://app?vid=b1edafd2-768c-455c-8699-7a16f0bef4c6"},"vehicle_type_id":"4","last_reported":1751731918,"current_range_meters":800,"station_id":"ce4bhbh2rcd13ifvqepg","pricing_plan_id":"cebpf4jnsgd1na2vs0mg"},{"bike_id":"7d700fe5-59ec-4d47-b8c2-c85d7cc322a5","system_id":"levelo_inurba_marseille","lat":43.28563,"lon":5.37764,"is_reserved":false,"is_disabled":true,"rental_uris":{"android":"levelo://app?vid=7d700fe5-59ec-4d47-b8c2-c85d7cc322a5","ios":"levelo://app?vid=7d700fe5-59ec-4d47-b8c2-c85d7cc322a5"},"vehicle_type_id":"4","last_reported":1751731918,"current_range_meters":1200,"station_id":"","pricing_plan_id":"cebpf4jnsgd1na2vs0mg"},{"bike_id":"e26ba497-efc7-4420-b8c5-9fa5e27f2ce4","system_id":"levelo_inurba_marseille","lat":43.3135,"lon":5.37077,"is_reserved":false,"is_disabled":true,"rental_uris":{"android":"levelo://app?vid=e26ba497-efc7-4420-b8c5-9fa5e27f2ce4","ios":"levelo://app?vid=e26ba497-efc7-4420-b8c5-9fa5e27f2ce4"},"vehicle_type_id":"4","last_reported":1751731918,"current_range_meters":1200,"station_id":"","pricing_plan_id":"cebpf4jnsgd1na2vs0mg"},{"bike_id":"71fe043b-a0ed-4cc6-b207-52bf33a6ae9a","system_id":"levelo_inurba_marseille","lat":43.3106,"lon":5.36849,"is_reserved":false,"is_disabled":true,"rental_uris":{"android":"levelo://app?vid=71fe043b-a0ed-4cc6-b207-52bf33a6ae9a","ios":"levelo://app?vid=71fe043b-a0ed-4cc6-b207-52bf33a6ae9a"},"vehicle_type_id":"4","last_reported":1751731918,"current_range_meters":1200,"station_id":"ce4bgn92rcd13ifvqbvg","pricing_plan_id":"cebpf4jnsgd1na2vs0mg"},{"bike_id":"8380f630-45c7-4cdf-9576-f907a486cab1","system_id":"levelo_inurba_marseille","lat":43.31463,"lon":5.37321,"is_reserved":false,"is_disabled":true,"rental_uris":{"android":"levelo://app?vid=8380f630-45c7-4cdf-9576-f907a486cab1","ios":"levelo://app?vid=8380f630-45c7-4cdf-9576-f907a486cab1"},"vehicle_type_id":"4","last_reported":1751731918,"current_range_meters":1200,"station_id":"ce4bgt12rcd13ifvqcd0","pricing_plan_id":"cebpf4jnsgd1na2vs0mg"},{"bike_id":"4c0ea338-6f45-4ff2-89bf-9f5f01d1f3f3","system_id":"levelo_inurba_marseille","lat":43.283691,"lon":5.386346,"is_reserved":false,"is_disabled":true,"rental_uris":{"android":"levelo://app?vid=4c0ea338-6f45-4ff2-89bf-9f5f01d1f3f3","ios":"levelo://app?vid=4c0ea338-6f45-4ff2-89bf-9f5f01d1f3f3"},"vehicle_type_id":"4","last_reported":1751731918,"current_range_meters":1200,"station_id":"ce4bh492rcd13ifvqdvg","pricing_plan_id":"cebpf4jnsgd1na2vs0mg"},{"bike_id":"9976e2bd-b99a-4b80-8870-3944a61b72eb","system_id":"levelo_inurba_marseille","lat":43.28471,"lon":5.38407,"is_reserved":false,"is_disabled":true,"rental_uris":{"android":"levelo://app?vid=9976e2bd-b99a-4b80-8870-3944a61b72eb","ios":"levelo://app?vid=9976e2bd-b99a-4b80-8870-3944a61b72eb"},"vehicle_type_id":"4","last_reported":1751731918,"current_range_meters":1200,"station_id":"ce4bh512rcd13ifvqe3g","pricing_plan_id":"cebpf4jnsgd1na2vs0mg"},{"bike_id":"309bbb61-506c-44dd-9244-7ebe0eb16884","system_id":"levelo_inurba_marseille","lat":43.28273,"lon":5.3506,"is_reserved":false,"is_disabled":true,"rental_uris":{"android":"levelo://app?vid=309bbb61-506c-44dd-9244-7ebe0eb16884","ios":"levelo://app?vid=309bbb61-506c-44dd-9244-7ebe0eb16884"},"vehicle_type_id":"4","last_reported":1751731918,"current_range_meters":1200,"station_id":"ce4bhbp2rcd13ifvqerg","pricing_plan_id":"cebpf4jnsgd1na2vs0mg"},{"bike_id":"e08a1640-ccde-47e5-8bff-2c1e457c92ae","system_id":"levelo_inurba_marseille","lat":43.28942,"lon":5.36637,"is_reserved":false,"is_disabled":true,"rental_uris":{"android":"levelo://app?vid=e08a1640-ccde-47e5-8bff-2c1e457c92ae","ios":"levelo://app?vid=e08a1640-ccde-47e5-8bff-2c1e457c92ae"},"vehicle_type_id":"4","last_reported":1751731918,"current_range_meters":1600,"station_id":"ce4bhap2rcd13ifvqek0","pricing_plan_id":"cebpf4jnsgd1na2vs0mg"},{"bike_id":"4f5c0918-2c95-470a-bc48-4dcef95a3837","system_id":"levelo_inurba_marseille","lat":43.280191,"lon":5.412378,"is_reserved":false,"is_disabled":true,"rental_uris":{"android":"levelo://app?vid=4f5c0918-2c95-470a-bc48-4dcef95a3837","ios":"levelo://app?vid=4f5c0918-2c95-470a-bc48-4dcef95a3837"},"vehicle_type_id":"4","last_reported":1751731918,"current_range_meters":1600,"station_id":"ce4bhk92rcd13ifvqgb0","pricing_plan_id":"cebpf4jnsgd1na2vs0mg"},{"bike_id":"9bfc7d3d-4e60-4f8a-9c32-ef3d0e77ec5b","system_id":"levelo_inurba_marseille","lat":43.211886,"lon":5.350891,"is_reserved":false,"is_disabled":true,"rental_uris":{"android":"levelo://app?vid=9bfc7d3d-4e60-4f8a-9c32-ef3d0e77ec5b","ios":"levelo://app?vid=9bfc7d3d-4e60-4f8a-9c32-ef3d0e77ec5b"},"vehicle_type_id":"4","last_reported":1751731918,"current_range_meters":1600,"station_id":"st_cvj6sg6p6f1abm77japg","pricing_plan_id":"cebpf4jnsgd1na2vs0mg"},{"bike_id":"e6e3ebe5-5d8f-437c-8f99-f6bd243ac5b2","system_id":"levelo_inurba_marseille","lat":43.3048,"lon":5.36984,"is_reserved":false,"is_disabled":false,"rental_uris":{"android":"levelo://app?vid=e6e3ebe5-5d8f-437c-8f99-f6bd243ac5b2","ios":"levelo://app?vid=e6e3ebe5-5d8f-437c-8f99-f6bd243ac5b2"},"vehicle_type_id":"4","last_reported":1751731918,"current_range_meters":2800,"station_id":"","pricing_plan_id":"cebpf4jnsgd1na2vs0mg"},{"bike_id":"a259f318-af36-4a88-951f-73666d7bcda6","system_id":"levelo_inurba_marseille","lat":43.28707,"lon":5.37392,"is_reserved":false,"is_disabled":false,"rental_uris":{"android":"levelo://app?vid=a259f318-af36-4a88-951f-73666d7bcda6","ios":"levelo://app?vid=a259f318-af36-4a88-951f-73666d7bcda6"},"vehicle_type_id":"4","last_reported":1751731918,"current_range_meters":2800,"station_id":"ce4bh3p2rcd13ifvqdq0","pricing_plan_id":"cebpf4jnsgd1na2vs0mg"},{"bike_id":"30301b53-d220-4470-aae9-a97d835acb69","system_id":"levelo_inurba_marseille","lat":43.29227,"lon":5.36073,"is_reserved":false,"is_disabled":false,"rental_uris":{"android":"levelo://app?vid=30301b53-d220-4470-aae9-a97d835acb69","ios":"levelo://app?vid=30301b53-d220-4470-aae9-a97d835acb69"},"vehicle_type_id":"4","last_reported":1751731918,"current_range_meters":2800,"station_id":"ce4bhbh2rcd13ifvqeqg","pricing_plan_id":"cebpf4jnsgd1na2vs0mg"},{"bike_id":"1f9d1d0c-aa98-42b1-b15e-5fb6ae580043","system_id":"levelo_inurba_marseille","lat":43.2817,"lon":5.42632,"is_reserved":false,"is_disabled":false,"rental_uris":{"android":"levelo://app?vid=1f9d1d0c-aa98-42b1-b15e-5fb6ae580043","ios":"levelo://app?vid=1f9d1d0c-aa98-42b1-b15e-5fb6ae580043"},"vehicle_type_id":"4","last_reported":1751731918,"current_range_meters":3200,"station_id":"ce4bhnh2rcd13ifvqgug","pricing_plan_id":"cebpf4jnsgd1na2vs0mg"},{"bike_id":"bf952d86-f85f-47e1-8807-4cb810517e41","system_id":"levelo_inurba_marseille","lat":43.29507,"lon":5.37515,"is_reserved":false,"is_disabled":false,"rental_uris":{"android":"levelo://app?vid=bf952d86-f85f-47e1-8807-4cb810517e41","ios":"levelo://app?vid=bf952d86-f85f-47e1-8807-4cb810517e41"},"vehicle_type_id":"4","last_reported":1751731918,"current_range_meters":3600,"station_id":"ce4bgkp2rcd13ifvqbmg","pricing_plan_id":"cebpf4jnsgd1na2vs0mg"},{"bike_id":"97204f05-8f06-48a0-b254-56dbb2802896","system_id":"levelo_inurba_marseille","lat":43.28464,"lon":5.38418,"is_reserved":false,"is_disabled":false,"rental_uris":{"android":"levelo://app?vid=97204f05-8f06-48a0-b254-56dbb2802896","ios":"levelo://app?vid=97204f05-8f06-48a0-b254-56dbb2802896"},"vehicle_type_id":"4","last_reported":1751731918,"current_range_meters":3600,"station_id":"ce4bh512rcd13ifvqe3g","pricing_plan_id":"cebpf4jnsgd1na2vs0mg"},{"bike_id":"f6ac2ca1-a3ac-4f58-b1a1-b74be8a76990","system_id":"levelo_inurba_marseille","lat":43.29912,"lon":5.43663,"is_reserved":false,"is_disabled":false,"rental_uris":{"android":"levelo://app?vid=f6ac2ca1-a3ac-4f58-b1a1-b74be8a76990","ios":"levelo://app?vid=f6ac2ca1-a3ac-4f58-b1a1-b74be8a76990"},"vehicle_type_id":"4","last_reported":1751731918,"current_range_meters":3600,"station_id":"ce4bhpp2rcd13ifvqhfg","pricing_plan_id":"cebpf4jnsgd1na2vs0mg"},{"bike_id":"d1444e94-489f-4fa9-9e06-4bdf6ba47149","system_id":"levelo_inurba_marseille","lat":43.22516,"lon":5.34785,"is_reserved":false,"is_disabled":false,"rental_uris":{"android":"levelo://app?vid=d1444e94-489f-4fa9-9e06-4bdf6ba47149","ios":"levelo://app?vid=d1444e94-489f-4fa9-9e06-4bdf6ba47149"},"vehicle_type_id":"4","last_reported":1751731918,"current_range_meters":3600,"station_id":"st_cvj5dfep6f1abm77gieg","pricing_plan_id":"cebpf4jnsgd1na2vs0mg"},{"bike_id":"be4e2ba2-f83c-4be6-923a-932d435bb5ce","system_id":"levelo_inurba_marseille","lat":43.28233,"lon":5.40458,"is_reserved":false,"is_disabled":false,"rental_uris":{"android":"levelo://app?vid=be4e2ba2-f83c-4be6-923a-932d435bb5ce","ios":"levelo://app?vid=be4e2ba2-f83c-4be6-923a-932d435bb5ce"},"vehicle_type_id":"4","last_reported":1751731918,"current_range_meters":4000,"station_id":"","pricing_plan_id":"cebpf4jnsgd1na2vs0mg"},{"bike_id":"254b06bd-2177-439d-a911-69fa42b192a7","system_id":"levelo_inurba_marseille","lat":43.3096,"lon":5.39016,"is_reserved":false,"is_disabled":false,"rental_uris":{"android":"levelo://app?vid=254b06bd-2177-439d-a911-69fa42b192a7","ios":"levelo://app?vid=254b06bd-2177-439d-a911-69fa42b192a7"},"vehicle_type_id":"4","last_reported":1751731918,"current_range_meters":4000,"station_id":"ce4bgup2rcd13ifvqco0","pricing_plan_id":"cebpf4jnsgd1na2vs0mg"},{"bike_id":"ff062204-3b3d-4d4d-b822-7870b685d0b5","system_id":"levelo_inurba_marseille","lat":43.28489,"lon":5.38416,"is_reserved":false,"is_disabled":false,"rental_uris":{"android":"levelo://app?vid=ff062204-3b3d-4d4d-b822-7870b685d0b5","ios":"levelo://app?vid=ff062204-3b3d-4d4d-b822-7870b685d0b5"},"vehicle_type_id":"4","last_reported":1751731918,"current_range_meters":4400,"station_id":"ce4bh512rcd13ifvqe3g","pricing_plan_id":"cebpf4jnsgd1na2vs0mg"},{"bike_id":"33d63bdf-de3b-4638-b96e-2f67317f8dbf","system_id":"levelo_inurba_marseille","lat":43.21195,"lon":5.35061,"is_reserved":false,"is_disabled":false,"rental_uris":{"android":"levelo://app?vid=33d63bdf-de3b-4638-b96e-2f67317f8dbf","ios":"levelo://app?vid=33d63bdf-de3b-4638-b96e-2f67317f8dbf"},"vehicle_type_id":"4","last_reported":1751731918,"current_range_meters":4400,"station_id":"st_cvj6sg6p6f1abm77japg","pricing_plan_id":"cebpf4jnsgd1na2vs0mg"},{"bike_id":"b9e8108b-3eb3-4064-ac01-28e21cd3a378","system_id":"levelo_inurba_marseille","lat":43.248055,"lon":5.374599,"is_reserved":false,"is_disabled":false,"rental_uris":{"android":"levelo://app?vid=b9e8108b-3eb3-4064-ac01-28e21cd3a378","ios":"levelo://app?vid=b9e8108b-3eb3-4064-ac01-28e21cd3a378"},"vehicle_type_id":"4","last_reported":1751731918,"current_range_meters":4800,"station_id":"ce4bhgh2rcd13ifvqfb0","pricing_plan_id":"cebpf4jnsgd1na2vs0mg"},{"bike_id":"ab469843-23a8-4d94-8c5a-0776c1f2bcb8","system_id":"levelo_inurba_marseille","lat":43.21188,"lon":5.3507,"is_reserved":false,"is_disabled":false,"rental_uris":{"android":"levelo://app?vid=ab469843-23a8-4d94-8c5a-0776c1f2bcb8","ios":"levelo://app?vid=ab469843-23a8-4d94-8c5a-0776c1f2bcb8"},"vehicle_type_id":"4","last_reported":1751731918,"current_range_meters":4800,"station_id":"st_cvj6sg6p6f1abm77japg","pricing_plan_id":"cebpf4jnsgd1na2vs0mg"},{"bike_id":"3e286da6-237d-4062-ae55-1cb4fe78ef3d","system_id":"levelo_inurba_marseille","lat":43.30136,"lon":5.38784,"is_reserved":false,"is_disabled":false,"rental_uris":{"android":"levelo://app?vid=3e286da6-237d-4062-ae55-1cb4fe78ef3d","ios":"levelo://app?vid=3e286da6-237d-4062-ae55-1cb4fe78ef3d"},"vehicle_type_id":"4","last_reported":1751731918,"current_range_meters":5600,"station_id":"ce4bghh2rcd13ifvqb60","pricing_plan_id":"cebpf4jnsgd1na2vs0mg"},{"bike_id":"e4faa593-6eec-4d5d-aa44-59200bfaad8d","system_id":"levelo_inurba_marseille","lat":43.28271,"lon":5.35056,"is_reserved":false,"is_disabled":false,"rental_uris":{"android":"levelo://app?vid=e4faa593-6eec-4d5d-aa44-59200bfaad8d","ios":"levelo://app?vid=e4faa593-6eec-4d5d-aa44-59200bfaad8d"},"vehicle_type_id":"4","last_reported":1751731918,"current_range_meters":5600,"station_id":"ce4bhbp2rcd13ifvqerg","pricing_plan_id":"cebpf4jnsgd1na2vs0mg"},{"bike_id":"ba154a12-11bd-42a5-958a-5992f5d043d1","system_id":"levelo_inurba_marseille","lat":43.30488,"lon":5.37,"is_reserved":false,"is_disabled":false,"rental_uris":{"android":"levelo://app?vid=ba154a12-11bd-42a5-958a-5992f5d043d1","ios":"levelo://app?vid=ba154a12-11bd-42a5-958a-5992f5d043d1"},"vehicle_type_id":"4","last_reported":1751731918,"current_range_meters":6800,"station_id":"","pricing_plan_id":"cebpf4jnsgd1na2vs0mg"},{"bike_id":"0c4b7fdb-b39e-49b3-a2b0-ae3d0f43e89d","system_id":"levelo_inurba_marseille","lat":43.32931,"lon":5.40578,"is_reserved":false,"is_disabled":false,"rental_uris":{"android":"levelo://app?vid=0c4b7fdb-b39e-49b3-a2b0-ae3d0f43e89d","ios":"levelo://app?vid=0c4b7fdb-b39e-49b3-a2b0-ae3d0f43e89d"},"vehicle_type_id":"4","last_reported":1751731918,"current_range_meters":6800,"station_id":"","pricing_plan_id":"cebpf4jnsgd1na2vs0mg"},{"bike_id":"d4013ccb-e13a-41b9-b604-6d73db932ef1","system_id":"levelo_inurba_marseille","lat":43.29577,"lon":5.3752,"is_reserved":false,"is_disabled":false,"rental_uris":{"android":"levelo://app?vid=d4013ccb-e13a-41b9-b604-6d73db932ef1","ios":"levelo://app?vid=d4013ccb-e13a-41b9-b604-6d73db932ef1"},"vehicle_type_id":"4","last_reported":1751731918,"current_range_meters":6800,"station_id":"ce4bgh92rcd13ifvqb50","pricing_plan_id":"cebpf4jnsgd1na2vs0mg"},{"bike_id":"a7fd63cc-8c0c-46fa-b46a-425d98218908","system_id":"levelo_inurba_marseille","lat":43.30302,"lon":5.39235,"is_reserved":false,"is_disabled":false,"rental_uris":{"android":"levelo://app?vid=a7fd63cc-8c0c-46fa-b46a-425d98218908","ios":"levelo://app?vid=a7fd63cc-8c0c-46fa-b46a-425d98218908"},"vehicle_type_id":"4","last_reported":1751731918,"current_range_meters":6800,"station_id":"ce4bgkh2rcd13ifvqbk0","pricing_plan_id":"cebpf4jnsgd1na2vs0mg"},{"bike_id":"c4ac1bb7-95b9-444d-944d-ad497cf4b7e9","system_id":"levelo_inurba_marseille","lat":43.32292,"lon":5.38258,"is_reserved":false,"is_disabled":false,"rental_uris":{"android":"levelo://app?vid=c4ac1bb7-95b9-444d-944d-ad497cf4b7e9","ios":"levelo://app?vid=c4ac1bb7-95b9-444d-944d-ad497cf4b7e9"},"vehicle_type_id":"4","last_reported":1751731918,"current_range_meters":6800,"station_id":"ce4bhr12rcd13ifvqhqg","pricing_plan_id":"cebpf4jnsgd1na2vs0mg"},{"bike_id":"188a05ff-21b4-473e-b10f-67e0c5ee512c","system_id":"levelo_inurba_marseille","lat":43.23182,"lon":5.35561,"is_reserved":false,"is_disabled":false,"rental_uris":{"android":"levelo://app?vid=188a05ff-21b4-473e-b10f-67e0c5ee512c","ios":"levelo://app?vid=188a05ff-21b4-473e-b10f-67e0c5ee512c"},"vehicle_type_id":"4","last_reported":1751731918,"current_range_meters":6800,"station_id":"ce4bhu92rcd13ifvqi70","pricing_plan_id":"cebpf4jnsgd1na2vs0mg"},{"bike_id":"e2b0d2c5-1d65-4198-841e-3e8e170e3072","system_id":"levelo_inurba_marseille","lat":43.29622,"lon":5.37723,"is_reserved":false,"is_disabled":false,"rental_uris":{"android":"levelo://app?vid=e2b0d2c5-1d65-4198-841e-3e8e170e3072","ios":"levelo://app?vid=e2b0d2c5-1d65-4198-841e-3e8e170e3072"},"vehicle_type_id":"4","last_reported":1751731918,"current_range_meters":7200,"station_id":"ce4bgi92rcd13ifvqb90","pricing_plan_id":"cebpf4jnsgd1na2vs0mg"},{"bike_id":"7b30a72a-a704-4565-b800-d83ca2770739","system_id":"levelo_inurba_marseille","lat":43.28446,"lon":5.34969,"is_reserved":false,"is_disabled":false,"rental_uris":{"android":"levelo://app?vid=7b30a72a-a704-4565-b800-d83ca2770739","ios":"levelo://app?vid=7b30a72a-a704-4565-b800-d83ca2770739"},"vehicle_type_id":"4","last_reported":1751731918,"current_range_meters":7200,"station_id":"ce4bhbh2rcd13ifvqepg","pricing_plan_id":"cebpf4jnsgd1na2vs0mg"},{"bike_id":"2ff6c2c2-d093-4025-9845-5efa4d40fb2b","system_id":"levelo_inurba_marseille","lat":43.24803,"lon":5.37457,"is_reserved":false,"is_disabled":false,"rental_uris":{"android":"levelo://app?vid=2ff6c2c2-d093-4025-9845-5efa4d40fb2b","ios":"levelo://app?vid=2ff6c2c2-d093-4025-9845-5efa4d40fb2b"},"vehicle_type_id":"4","last_reported":1751731918,"current_range_meters":7200,"station_id":"ce4bhgh2rcd13ifvqfb0","pricing_plan_id":"cebpf4jnsgd1na2vs0mg"},{"bike_id":"62f04794-7bee-4ad0-be71-48b4b08b85a0","system_id":"levelo_inurba_marseille","lat":43.30142,"lon":5.38777,"is_reserved":false,"is_disabled":false,"rental_uris":{"android":"levelo://app?vid=62f04794-7bee-4ad0-be71-48b4b08b85a0","ios":"levelo://app?vid=62f04794-7bee-4ad0-be71-48b4b08b85a0"},"vehicle_type_id":"4","last_reported":1751731918,"current_range_meters":8000,"station_id":"ce4bghh2rcd13ifvqb60","pricing_plan_id":"cebpf4jnsgd1na2vs0mg"},{"bike_id":"da9068bf-ef82-49f6-b1e3-0c2009335d64","system_id":"levelo_inurba_marseille","lat":43.29964,"lon":5.38499,"is_reserved":false,"is_disabled":false,"rental_uris":{"android":"levelo://app?vid=da9068bf-ef82-49f6-b1e3-0c2009335d64","ios":"levelo://app?vid=da9068bf-ef82-49f6-b1e3-0c2009335d64"},"vehicle_type_id":"4","last_reported":1751731918,"current_range_meters":8000,"station_id":"ce4bgj92rcd13ifvqbd0","pricing_plan_id":"cebpf4jnsgd1na2vs0mg"},{"bike_id":"2ffeba7a-8316-4052-8019-91454da58cbe","system_id":"levelo_inurba_marseille","lat":43.269841,"lon":5.42007,"is_reserved":false,"is_disabled":false,"rental_uris":{"android":"levelo://app?vid=2ffeba7a-8316-4052-8019-91454da58cbe","ios":"levelo://app?vid=2ffeba7a-8316-4052-8019-91454da58cbe"},"vehicle_type_id":"4","last_reported":1751731918,"current_range_meters":8400,"station_id":"","pricing_plan_id":"cebpf4jnsgd1na2vs0mg"},{"bike_id":"6917bed5-c21f-48c3-870d-5408dab99803","system_id":"levelo_inurba_marseille","lat":43.29694,"lon":5.36872,"is_reserved":false,"is_disabled":false,"rental_uris":{"android":"levelo://app?vid=6917bed5-c21f-48c3-870d-5408dab99803","ios":"levelo://app?vid=6917bed5-c21f-48c3-870d-5408dab99803"},"vehicle_type_id":"4","last_reported":1751731918,"current_range_meters":8400,"station_id":"","pricing_plan_id":"cebpf4jnsgd1na2vs0mg"},{"bike_id":"2f03f3de-913c-4ee3-be57-3b241ea104c2","system_id":"levelo_inurba_marseille","lat":43.29805,"lon":5.38079,"is_reserved":false,"is_disabled":false,"rental_uris":{"android":"levelo://app?vid=2f03f3de-913c-4ee3-be57-3b241ea104c2","ios":"levelo://app?vid=2f03f3de-913c-4ee3-be57-3b241ea104c2"},"vehicle_type_id":"4","last_reported":1751731918,"current_range_meters":8400,"station_id":"ce4bgip2rcd13ifvqbb0","pricing_plan_id":"cebpf4jnsgd1na2vs0mg"},{"bike_id":"4ca9c588-b8a8-4d3d-bbef-8a12a8cef5d6","system_id":"levelo_inurba_marseille","lat":43.30437,"lon":5.38893,"is_reserved":false,"is_disabled":false,"rental_uris":{"android":"levelo://app?vid=4ca9c588-b8a8-4d3d-bbef-8a12a8cef5d6","ios":"levelo://app?vid=4ca9c588-b8a8-4d3d-bbef-8a12a8cef5d6"},"vehicle_type_id":"4","last_reported":1751731918,"current_range_meters":8400,"station_id":"ce4bgk12rcd13ifvqbi0","pricing_plan_id":"cebpf4jnsgd1na2vs0mg"},{"bike_id":"9bf56a0f-d1c4-4d7e-a128-8b6b2bc4f767","system_id":"levelo_inurba_marseille","lat":43.27061,"lon":5.40268,"is_reserved":false,"is_disabled":false,"rental_uris":{"android":"levelo://app?vid=9bf56a0f-d1c4-4d7e-a128-8b6b2bc4f767","ios":"levelo://app?vid=9bf56a0f-d1c4-4d7e-a128-8b6b2bc4f767"},"vehicle_type_id":"4","last_reported":1751731918,"current_range_meters":8400,"station_id":"ce4bhk92rcd13ifvqgc0","pricing_plan_id":"cebpf4jnsgd1na2vs0mg"},{"bike_id":"d7f4805c-3664-47a3-86fe-38fa0e4844da","system_id":"levelo_inurba_marseille","lat":43.30131,"lon":5.387925,"is_reserved":false,"is_disabled":false,"rental_uris":{"android":"levelo://app?vid=d7f4805c-3664-47a3-86fe-38fa0e4844da","ios":"levelo://app?vid=d7f4805c-3664-47a3-86fe-38fa0e4844da"},"vehicle_type_id":"4","last_reported":1751731918,"current_range_meters":8800,"station_id":"ce4bghh2rcd13ifvqb60","pricing_plan_id":"cebpf4jnsgd1na2vs0mg"},{"bike_id":"6a93131a-a5dc-433f-9e9a-5eb6921dd7f4","system_id":"levelo_inurba_marseille","lat":43.2979,"lon":5.38101,"is_reserved":false,"is_disabled":false,"rental_uris":{"android":"levelo://app?vid=6a93131a-a5dc-433f-9e9a-5eb6921dd7f4","ios":"levelo://app?vid=6a93131a-a5dc-433f-9e9a-5eb6921dd7f4"},"vehicle_type_id":"4","last_reported":1751731918,"current_range_meters":8800,"station_id":"ce4bgip2rcd13ifvqbb0","pricing_plan_id":"cebpf4jnsgd1na2vs0mg"},{"bike_id":"63025628-e62c-4ea1-abbf-489daa15b0e0","system_id":"levelo_inurba_marseille","lat":43.29712,"lon":5.37689,"is_reserved":false,"is_disabled":false,"rental_uris":{"android":"levelo://app?vid=63025628-e62c-4ea1-abbf-489daa15b0e0","ios":"levelo://app?vid=63025628-e62c-4ea1-abbf-489daa15b0e0"},"vehicle_type_id":"4","last_reported":1751731918,"current_range_meters":8800,"station_id":"ce4bgkh2rcd13ifvqbl0","pricing_plan_id":"cebpf4jnsgd1na2vs0mg"},{"bike_id":"0f640d46-a2b5-4d98-b259-647b90dcae18","system_id":"levelo_inurba_marseille","lat":43.30042,"lon":5.4017,"is_reserved":false,"is_disabled":false,"rental_uris":{"android":"levelo://app?vid=0f640d46-a2b5-4d98-b259-647b90dcae18","ios":"levelo://app?vid=0f640d46-a2b5-4d98-b259-647b90dcae18"},"vehicle_type_id":"4","last_reported":1751731918,"current_range_meters":9200,"station_id":"","pricing_plan_id":"cebpf4jnsgd1na2vs0mg"},{"bike_id":"6b0a1fd8-d9c6-42b7-8aee-05d9231cf95a","system_id":"levelo_inurba_marseille","lat":43.29231,"lon":5.40037,"is_reserved":false,"is_disabled":false,"rental_uris":{"android":"levelo://app?vid=6b0a1fd8-d9c6-42b7-8aee-05d9231cf95a","ios":"levelo://app?vid=6b0a1fd8-d9c6-42b7-8aee-05d9231cf95a"},"vehicle_type_id":"4","last_reported":1751731918,"current_range_meters":9200,"station_id":"","pricing_plan_id":"cebpf4jnsgd1na2vs0mg"},{"bike_id":"c5745936-7ff9-4c93-b673-f89f3418b5ee","system_id":"levelo_inurba_marseille","lat":43.31235,"lon":5.36881,"is_reserved":false,"is_disabled":false,"rental_uris":{"android":"levelo://app?vid=c5745936-7ff9-4c93-b673-f89f3418b5ee","ios":"levelo://app?vid=c5745936-7ff9-4c93-b673-f89f3418b5ee"},"vehicle_type_id":"4","last_reported":1751731918,"current_range_meters":9200,"station_id":"ce4bgl92rcd13ifvqbq0","pricing_plan_id":"cebpf4jnsgd1na2vs0mg"},{"bike_id":"90789bc4-6447-4844-aba7-c14a21a08b65","system_id":"levelo_inurba_marseille","lat":43.3021,"lon":5.39462,"is_reserved":false,"is_disabled":false,"rental_uris":{"android":"levelo://app?vid=90789bc4-6447-4844-aba7-c14a21a08b65","ios":"levelo://app?vid=90789bc4-6447-4844-aba7-c14a21a08b65"},"vehicle_type_id":"4","last_reported":1751731918,"current_range_meters":9200,"station_id":"ce4bh0p2rcd13ifvqd70","pricing_plan_id":"cebpf4jnsgd1na2vs0mg"},{"bike_id":"690eb04a-c756-4252-a603-41092472159d","system_id":"levelo_inurba_marseille","lat":43.28933,"lon":5.36641,"is_reserved":false,"is_disabled":false,"rental_uris":{"android":"levelo://app?vid=690eb04a-c756-4252-a603-41092472159d","ios":"levelo://app?vid=690eb04a-c756-4252-a603-41092472159d"},"vehicle_type_id":"4","last_reported":1751731918,"current_range_meters":9200,"station_id":"ce4bhap2rcd13ifvqek0","pricing_plan_id":"cebpf4jnsgd1na2vs0mg"},{"bike_id":"4c04bb74-2680-4af6-a1dd-d1299519b3fe","system_id":"levelo_inurba_marseille","lat":43.28153,"lon":5.42639,"is_reserved":false,"is_disabled":false,"rental_uris":{"android":"levelo://app?vid=4c04bb74-2680-4af6-a1dd-d1299519b3fe","ios":"levelo://app?vid=4c04bb74-2680-4af6-a1dd-d1299519b3fe"},"vehicle_type_id":"4","last_reported":1751731918,"current_range_meters":9200,"station_id":"ce4bhnh2rcd13ifvqgug","pricing_plan_id":"cebpf4jnsgd1na2vs0mg"},{"bike_id":"1c8ab180-05fd-405f-9922-b2b2c2d5142f","system_id":"levelo_inurba_marseille","lat":43.33776,"lon":5.38115,"is_reserved":false,"is_disabled":false,"rental_uris":{"android":"levelo://app?vid=1c8ab180-05fd-405f-9922-b2b2c2d5142f","ios":"levelo://app?vid=1c8ab180-05fd-405f-9922-b2b2c2d5142f"},"vehicle_type_id":"4","last_reported":1751731918,"current_range_meters":9600,"station_id":"","pricing_plan_id":"cebpf4jnsgd1na2vs0mg"},{"bike_id":"b26fae72-751e-4090-a9c4-76ff5de1ad66","system_id":"levelo_inurba_marseille","lat":43.33255,"lon":5.38038,"is_reserved":false,"is_disabled":false,"rental_uris":{"android":"levelo://app?vid=b26fae72-751e-4090-a9c4-76ff5de1ad66","ios":"levelo://app?vid=b26fae72-751e-4090-a9c4-76ff5de1ad66"},"vehicle_type_id":"4","last_reported":1751731918,"current_range_meters":9600,"station_id":"","pricing_plan_id":"cebpf4jnsgd1na2vs0mg"},{"bike_id":"459bc021-2d00-4773-b556-8bec9e1c1a28","system_id":"levelo_inurba_marseille","lat":43.248066,"lon":5.374619,"is_reserved":false,"is_disabled":false,"rental_uris":{"android":"levelo://app?vid=459bc021-2d00-4773-b556-8bec9e1c1a28","ios":"levelo://app?vid=459bc021-2d00-4773-b556-8bec9e1c1a28"},"vehicle_type_id":"4","last_reported":1751731918,"current_range_meters":9600,"station_id":"ce4bhgh2rcd13ifvqfb0","pricing_plan_id":"cebpf4jnsgd1na2vs0mg"},{"bike_id":"08b0623d-a0d2-4aef-8b19-700ea0757b41","system_id":"levelo_inurba_marseille","lat":43.27814,"lon":5.40703,"is_reserved":false,"is_disabled":false,"rental_uris":{"android":"levelo://app?vid=08b0623d-a0d2-4aef-8b19-700ea0757b41","ios":"levelo://app?vid=08b0623d-a0d2-4aef-8b19-700ea0757b41"},"vehicle_type_id":"4","last_reported":1751731918,"current_range_meters":9600,"station_id":"ce4bhnh2rcd13ifvqgtg","pricing_plan_id":"cebpf4jnsgd1na2vs0mg"},{"bike_id":"2748a116-9137-4231-b8a4-dde2e58541de","system_id":"levelo_inurba_marseille","lat":43.29795,"lon":5.38091,"is_reserved":false,"is_disabled":false,"rental_uris":{"android":"levelo://app?vid=2748a116-9137-4231-b8a4-dde2e58541de","ios":"levelo://app?vid=2748a116-9137-4231-b8a4-dde2e58541de"},"vehicle_type_id":"4","last_reported":1751731918,"current_range_meters":10000,"station_id":"ce4bgip2rcd13ifvqbb0","pricing_plan_id":"cebpf4jnsgd1na2vs0mg"},{"bike_id":"6f321db4-b03b-413f-abef-8f2faa65a54a","system_id":"levelo_inurba_marseille","lat":43.30204,"lon":5.3947,"is_reserved":false,"is_disabled":false,"rental_uris":{"android":"levelo://app?vid=6f321db4-b03b-413f-abef-8f2faa65a54a","ios":"levelo://app?vid=6f321db4-b03b-413f-abef-8f2faa65a54a"},"vehicle_type_id":"4","last_reported":1751731918,"current_range_meters":10000,"station_id":"ce4bh0p2rcd13ifvqd70","pricing_plan_id":"cebpf4jnsgd1na2vs0mg"},{"bike_id":"d8c93050-8f4a-45d2-9269-93687a24b3cc","system_id":"levelo_inurba_marseille","lat":43.31714,"lon":5.43712,"is_reserved":false,"is_disabled":false,"rental_uris":{"android":"levelo://app?vid=d8c93050-8f4a-45d2-9269-93687a24b3cc","ios":"levelo://app?vid=d8c93050-8f4a-45d2-9269-93687a24b3cc"},"vehicle_type_id":"4","last_reported":1751731918,"current_range_meters":10000,"station_id":"ce4bhp92rcd13ifvqhcg","pricing_plan_id":"cebpf4jnsgd1na2vs0mg"},{"bike_id":"4b8da722-ee9e-48a4-a5e5-3a8a10364708","system_id":"levelo_inurba_marseille","lat":43.31233,"lon":5.37802,"is_reserved":false,"is_disabled":false,"rental_uris":{"android":"levelo://app?vid=4b8da722-ee9e-48a4-a5e5-3a8a10364708","ios":"levelo://app?vid=4b8da722-ee9e-48a4-a5e5-3a8a10364708"},"vehicle_type_id":"4","last_reported":1751731918,"current_range_meters":10800,"station_id":"","pricing_plan_id":"cebpf4jnsgd1na2vs0mg"},{"bike_id":"69c2280d-9883-47db-99f2-c073a6babae6","system_id":"levelo_inurba_marseille","lat":43.30866,"lon":5.37037,"is_reserved":false,"is_disabled":false,"rental_uris":{"android":"levelo://app?vid=69c2280d-9883-47db-99f2-c073a6babae6","ios":"levelo://app?vid=69c2280d-9883-47db-99f2-c073a6babae6"},"vehicle_type_id":"4","last_reported":1751731918,"current_range_meters":10800,"station_id":"","pricing_plan_id":"cebpf4jnsgd1na2vs0mg"},{"bike_id":"1e04b9e2-27c6-4b30-b902-6c81e18716e2","system_id":"levelo_inurba_marseille","lat":43.3117,"lon":5.37751,"is_reserved":false,"is_disabled":false,"rental_uris":{"android":"levelo://app?vid=1e04b9e2-27c6-4b30-b902-6c81e18716e2","ios":"levelo://app?vid=1e04b9e2-27c6-4b30-b902-6c81e18716e2"},"vehicle_type_id":"4","last_reported":1751731918,"current_range_meters":10800,"station_id":"","pricing_plan_id":"cebpf4jnsgd1na2vs0mg"},{"bike_id":"178c0d12-489e-48a0-998a-73079e0b992b","system_id":"levelo_inurba_marseille","lat":43.29511,"lon":5.37519,"is_reserved":false,"is_disabled":false,"rental_uris":{"android":"levelo://app?vid=178c0d12-489e-48a0-998a-73079e0b992b","ios":"levelo://app?vid=178c0d12-489e-48a0-998a-73079e0b992b"},"vehicle_type_id":"4","last_reported":1751731918,"current_range_meters":10800,"station_id":"ce4bgkp2rcd13ifvqbmg","pricing_plan_id":"cebpf4jnsgd1na2vs0mg"},{"bike_id":"e862a410-5d41-4e07-95aa-19f7dc5d6c84","system_id":"levelo_inurba_marseille","lat":43.29003,"lon":5.35607,"is_reserved":false,"is_disabled":false,"rental_uris":{"android":"levelo://app?vid=e862a410-5d41-4e07-95aa-19f7dc5d6c84","ios":"levelo://app?vid=e862a410-5d41-4e07-95aa-19f7dc5d6c84"},"vehicle_type_id":"4","last_reported":1751731918,"current_range_meters":10800,"station_id":"ce4bhb92rcd13ifvqen0","pricing_plan_id":"cebpf4jnsgd1na2vs0mg"},{"bike_id":"7ffa8ea4-68a3-479b-8467-d9cbfa847e01","system_id":"levelo_inurba_marseille","lat":43.2827,"lon":5.35068,"is_reserved":false,"is_disabled":false,"rental_uris":{"android":"levelo://app?vid=7ffa8ea4-68a3-479b-8467-d9cbfa847e01","ios":"levelo://app?vid=7ffa8ea4-68a3-479b-8467-d9cbfa847e01"},"vehicle_type_id":"4","last_reported":1751731918,"current_range_meters":10800,"station_id":"ce4bhbp2rcd13ifvqerg","pricing_plan_id":"cebpf4jnsgd1na2vs0mg"},{"bike_id":"a4510cb9-9b6f-403a-bd60-c5cc900b9c77","system_id":"levelo_inurba_marseille","lat":43.2549,"lon":5.37656,"is_reserved":false,"is_disabled":false,"rental_uris":{"android":"levelo://app?vid=a4510cb9-9b6f-403a-bd60-c5cc900b9c77","ios":"levelo://app?vid=a4510cb9-9b6f-403a-bd60-c5cc900b9c77"},"vehicle_type_id":"4","last_reported":1751731918,"current_range_meters":10800,"station_id":"ce4bhh12rcd13ifvqff0","pricing_plan_id":"cebpf4jnsgd1na2vs0mg"},{"bike_id":"728fec1e-7919-4848-8697-424a277b4395","system_id":"levelo_inurba_marseille","lat":43.250652,"lon":5.397319,"is_reserved":false,"is_disabled":false,"rental_uris":{"android":"levelo://app?vid=728fec1e-7919-4848-8697-424a277b4395","ios":"levelo://app?vid=728fec1e-7919-4848-8697-424a277b4395"},"vehicle_type_id":"4","last_reported":1751731918,"current_range_meters":10800,"station_id":"ce4bhm12rcd13ifvqgkg","pricing_plan_id":"cebpf4jnsgd1na2vs0mg"},{"bike_id":"4db45513-e520-4598-82fa-5809d80d4f3d","system_id":"levelo_inurba_marseille","lat":43.28109,"lon":5.35474,"is_reserved":false,"is_disabled":false,"rental_uris":{"android":"levelo://app?vid=4db45513-e520-4598-82fa-5809d80d4f3d","ios":"levelo://app?vid=4db45513-e520-4598-82fa-5809d80d4f3d"},"vehicle_type_id":"4","last_reported":1751731918,"current_range_meters":11200,"station_id":"","pricing_plan_id":"cebpf4jnsgd1na2vs0mg"},{"bike_id":"254573af-7d24-43e5-8a3c-17382d555fa2","system_id":"levelo_inurba_marseille","lat":43.2843,"lon":5.34969,"is_reserved":false,"is_disabled":false,"rental_uris":{"android":"levelo://app?vid=254573af-7d24-43e5-8a3c-17382d555fa2","ios":"levelo://app?vid=254573af-7d24-43e5-8a3c-17382d555fa2"},"vehicle_type_id":"4","last_reported":1751731918,"current_range_meters":11200,"station_id":"ce4bhbh2rcd13ifvqepg","pricing_plan_id":"cebpf4jnsgd1na2vs0mg"},{"bike_id":"d10fe41a-b947-4f62-91bb-5650cb92e5b8","system_id":"levelo_inurba_marseille","lat":43.27571,"lon":5.38428,"is_reserved":false,"is_disabled":false,"rental_uris":{"android":"levelo://app?vid=d10fe41a-b947-4f62-91bb-5650cb92e5b8","ios":"levelo://app?vid=d10fe41a-b947-4f62-91bb-5650cb92e5b8"},"vehicle_type_id":"4","last_reported":1751731918,"current_range_meters":11200,"station_id":"ce4bhh92rcd13ifvqfi0","pricing_plan_id":"cebpf4jnsgd1na2vs0mg"},{"bike_id":"f69a5fb8-4b43-4c92-b9a1-575ca9077199","system_id":"levelo_inurba_marseille","lat":43.262217,"lon":5.404419,"is_reserved":false,"is_disabled":false,"rental_uris":{"android":"levelo://app?vid=f69a5fb8-4b43-4c92-b9a1-575ca9077199","ios":"levelo://app?vid=f69a5fb8-4b43-4c92-b9a1-575ca9077199"},"vehicle_type_id":"4","last_reported":1751731918,"current_range_meters":11200,"station_id":"ce4bhmh2rcd13ifvqgmg","pricing_plan_id":"cebpf4jnsgd1na2vs0mg"},{"bike_id":"29b19e99-4845-4ee3-b1ee-35721cd36dc7","system_id":"levelo_inurba_marseille","lat":43.23239,"lon":5.35571,"is_reserved":false,"is_disabled":false,"rental_uris":{"android":"levelo://app?vid=29b19e99-4845-4ee3-b1ee-35721cd36dc7","ios":"levelo://app?vid=29b19e99-4845-4ee3-b1ee-35721cd36dc7"},"vehicle_type_id":"4","last_reported":1751731918,"current_range_meters":11600,"station_id":"","pricing_plan_id":"cebpf4jnsgd1na2vs0mg"},{"bike_id":"8b8ca67b-fabe-4cb4-b230-eae69713d02a","system_id":"levelo_inurba_marseille","lat":43.29055,"lon":5.35932,"is_reserved":false,"is_disabled":false,"rental_uris":{"android":"levelo://app?vid=8b8ca67b-fabe-4cb4-b230-eae69713d02a","ios":"levelo://app?vid=8b8ca67b-fabe-4cb4-b230-eae69713d02a"},"vehicle_type_id":"4","last_reported":1751731918,"current_range_meters":11600,"station_id":"ce4bha92rcd13ifvqeg0","pricing_plan_id":"cebpf4jnsgd1na2vs0mg"},{"bike_id":"80906c92-fb35-4b5e-a01d-5031ba008412","system_id":"levelo_inurba_marseille","lat":43.248,"lon":5.37459,"is_reserved":false,"is_disabled":false,"rental_uris":{"android":"levelo://app?vid=80906c92-fb35-4b5e-a01d-5031ba008412","ios":"levelo://app?vid=80906c92-fb35-4b5e-a01d-5031ba008412"},"vehicle_type_id":"4","last_reported":1751731918,"current_range_meters":11600,"station_id":"ce4bhgh2rcd13ifvqfb0","pricing_plan_id":"cebpf4jnsgd1na2vs0mg"},{"bike_id":"c8170d88-5f5f-4fd2-8346-f753a43f1e0a","system_id":"levelo_inurba_marseille","lat":43.291815,"lon":5.393047,"is_reserved":false,"is_disabled":false,"rental_uris":{"android":"levelo://app?vid=c8170d88-5f5f-4fd2-8346-f753a43f1e0a","ios":"levelo://app?vid=c8170d88-5f5f-4fd2-8346-f753a43f1e0a"},"vehicle_type_id":"4","last_reported":1751731918,"current_range_meters":12000,"station_id":"ce4bh192rcd13ifvqdd0","pricing_plan_id":"cebpf4jnsgd1na2vs0mg"},{"bike_id":"88333509-3e7f-4e56-a972-ef5a2b5b6871","system_id":"levelo_inurba_marseille","lat":43.28271,"lon":5.35062,"is_reserved":false,"is_disabled":false,"rental_uris":{"android":"levelo://app?vid=88333509-3e7f-4e56-a972-ef5a2b5b6871","ios":"levelo://app?vid=88333509-3e7f-4e56-a972-ef5a2b5b6871"},"vehicle_type_id":"4","last_reported":1751731918,"current_range_meters":12000,"station_id":"ce4bhbp2rcd13ifvqerg","pricing_plan_id":"cebpf4jnsgd1na2vs0mg"},{"bike_id":"daeee1e5-3b93-44da-8e47-7b24df6d544e","system_id":"levelo_inurba_marseille","lat":43.300064,"lon":5.373749,"is_reserved":false,"is_disabled":false,"rental_uris":{"android":"levelo://app?vid=daeee1e5-3b93-44da-8e47-7b24df6d544e","ios":"levelo://app?vid=daeee1e5-3b93-44da-8e47-7b24df6d544e"},"vehicle_type_id":"4","last_reported":1751731918,"current_range_meters":12400,"station_id":"","pricing_plan_id":"cebpf4jnsgd1na2vs0mg"},{"bike_id":"9f072024-96cf-4f3d-ac83-0d4367df9987","system_id":"levelo_inurba_marseille","lat":43.337444,"lon":5.374475,"is_reserved":false,"is_disabled":false,"rental_uris":{"android":"levelo://app?vid=9f072024-96cf-4f3d-ac83-0d4367df9987","ios":"levelo://app?vid=9f072024-96cf-4f3d-ac83-0d4367df9987"},"vehicle_type_id":"4","last_reported":1751731918,"current_range_meters":12400,"station_id":"ce4bgl92rcd13ifvqbq0","pricing_plan_id":"cebpf4jnsgd1na2vs0mg"},{"bike_id":"f1284ee2-078d-4dbd-9580-2dc23345a810","system_id":"levelo_inurba_marseille","lat":43.2655,"lon":5.3731,"is_reserved":false,"is_disabled":false,"rental_uris":{"android":"levelo://app?vid=f1284ee2-078d-4dbd-9580-2dc23345a810","ios":"levelo://app?vid=f1284ee2-078d-4dbd-9580-2dc23345a810"},"vehicle_type_id":"4","last_reported":1751731918,"current_range_meters":12400,"station_id":"ce4bhg12rcd13ifvqf70","pricing_plan_id":"cebpf4jnsgd1na2vs0mg"},{"bike_id":"f41b39f1-247a-490a-bf2c-8c88336143d9","system_id":"levelo_inurba_marseille","lat":43.25581,"lon":5.38232,"is_reserved":false,"is_disabled":false,"rental_uris":{"android":"levelo://app?vid=f41b39f1-247a-490a-bf2c-8c88336143d9","ios":"levelo://app?vid=f41b39f1-247a-490a-bf2c-8c88336143d9"},"vehicle_type_id":"4","last_reported":1751731918,"current_range_meters":12400,"station_id":"ce4bhih2rcd13ifvqfs0","pricing_plan_id":"cebpf4jnsgd1na2vs0mg"},{"bike_id":"5e811c86-824d-4978-918d-a61aa3a543ea","system_id":"levelo_inurba_marseille","lat":43.30433,"lon":5.41308,"is_reserved":false,"is_disabled":false,"rental_uris":{"android":"levelo://app?vid=5e811c86-824d-4978-918d-a61aa3a543ea","ios":"levelo://app?vid=5e811c86-824d-4978-918d-a61aa3a543ea"},"vehicle_type_id":"4","last_reported":1751731918,"current_range_meters":12400,"station_id":"ce4bhop2rcd13ifvqh8g","pricing_plan_id":"cebpf4jnsgd1na2vs0mg"},{"bike_id":"1d254eed-6657-47dc-b0a5-c17bb04803b3","system_id":"levelo_inurba_marseille","lat":43.30252,"lon":5.40087,"is_reserved":false,"is_disabled":false,"rental_uris":{"android":"levelo://app?vid=1d254eed-6657-47dc-b0a5-c17bb04803b3","ios":"levelo://app?vid=1d254eed-6657-47dc-b0a5-c17bb04803b3"},"vehicle_type_id":"4","last_reported":1751731918,"current_range_meters":12800,"station_id":"ce4bgvh2rcd13ifvqcs0","pricing_plan_id":"cebpf4jnsgd1na2vs0mg"},{"bike_id":"6f330ad9-8aef-4fdd-a011-d1115069af19","system_id":"levelo_inurba_marseille","lat":43.26679,"lon":5.3827,"is_reserved":false,"is_disabled":false,"rental_uris":{"android":"levelo://app?vid=6f330ad9-8aef-4fdd-a011-d1115069af19","ios":"levelo://app?vid=6f330ad9-8aef-4fdd-a011-d1115069af19"},"vehicle_type_id":"4","last_reported":1751731918,"current_range_meters":12800,"station_id":"ce4bhg92rcd13ifvqf90","pricing_plan_id":"cebpf4jnsgd1na2vs0mg"},{"bike_id":"c176f145-0eed-4d3e-8655-55f5a7e5ce80","system_id":"levelo_inurba_marseille","lat":43.26195,"lon":5.37454,"is_reserved":false,"is_disabled":false,"rental_uris":{"android":"levelo://app?vid=c176f145-0eed-4d3e-8655-55f5a7e5ce80","ios":"levelo://app?vid=c176f145-0eed-4d3e-8655-55f5a7e5ce80"},"vehicle_type_id":"4","last_reported":1751731918,"current_range_meters":12800,"station_id":"ce4bhgp2rcd13ifvqfc0","pricing_plan_id":"cebpf4jnsgd1na2vs0mg"},{"bike_id":"7e44ec5b-3878-4690-a015-41ac2b94e2b1","system_id":"levelo_inurba_marseille","lat":43.27059,"lon":5.4026,"is_reserved":false,"is_disabled":false,"rental_uris":{"android":"levelo://app?vid=7e44ec5b-3878-4690-a015-41ac2b94e2b1","ios":"levelo://app?vid=7e44ec5b-3878-4690-a015-41ac2b94e2b1"},"vehicle_type_id":"4","last_reported":1751731918,"current_range_meters":12800,"station_id":"ce4bhk92rcd13ifvqgc0","pricing_plan_id":"cebpf4jnsgd1na2vs0mg"},{"bike_id":"89c4c171-fa34-44ee-8818-b4f1de745083","system_id":"levelo_inurba_marseille","lat":43.231976,"lon":5.355489,"is_reserved":false,"is_disabled":false,"rental_uris":{"android":"levelo://app?vid=89c4c171-fa34-44ee-8818-b4f1de745083","ios":"levelo://app?vid=89c4c171-fa34-44ee-8818-b4f1de745083"},"vehicle_type_id":"4","last_reported":1751731918,"current_range_meters":12800,"station_id":"ce4bhu92rcd13ifvqi70","pricing_plan_id":"cebpf4jnsgd1na2vs0mg"},{"bike_id":"b1d40197-e49c-4962-8cd8-0babe05d31a6","system_id":"levelo_inurba_marseille","lat":43.21254,"lon":5.35277,"is_reserved":false,"is_disabled":false,"rental_uris":{"android":"levelo://app?vid=b1d40197-e49c-4962-8cd8-0babe05d31a6","ios":"levelo://app?vid=b1d40197-e49c-4962-8cd8-0babe05d31a6"},"vehicle_type_id":"4","last_reported":1751731918,"current_range_meters":13600,"station_id":"","pricing_plan_id":"cebpf4jnsgd1na2vs0mg"},{"bike_id":"38d8e249-348c-4e8b-9a55-f56fa45e4d15","system_id":"levelo_inurba_marseille","lat":43.24636,"lon":5.43583,"is_reserved":false,"is_disabled":false,"rental_uris":{"android":"levelo://app?vid=38d8e249-348c-4e8b-9a55-f56fa45e4d15","ios":"levelo://app?vid=38d8e249-348c-4e8b-9a55-f56fa45e4d15"},"vehicle_type_id":"4","last_reported":1751731918,"current_range_meters":13600,"station_id":"","pricing_plan_id":"cebpf4jnsgd1na2vs0mg"},{"bike_id":"56417557-aa49-4373-ba96-45795db661d6","system_id":"levelo_inurba_marseille","lat":43.28417,"lon":5.34985,"is_reserved":false,"is_disabled":false,"rental_uris":{"android":"levelo://app?vid=56417557-aa49-4373-ba96-45795db661d6","ios":"levelo://app?vid=56417557-aa49-4373-ba96-45795db661d6"},"vehicle_type_id":"4","last_reported":1751731918,"current_range_meters":13600,"station_id":"ce4bhbh2rcd13ifvqepg","pricing_plan_id":"cebpf4jnsgd1na2vs0mg"},{"bike_id":"669717ba-be0c-460d-b9da-a7a55d1d47b1","system_id":"levelo_inurba_marseille","lat":43.2827,"lon":5.35063,"is_reserved":false,"is_disabled":false,"rental_uris":{"android":"levelo://app?vid=669717ba-be0c-460d-b9da-a7a55d1d47b1","ios":"levelo://app?vid=669717ba-be0c-460d-b9da-a7a55d1d47b1"},"vehicle_type_id":"4","last_reported":1751731918,"current_range_meters":13600,"station_id":"ce4bhbp2rcd13ifvqerg","pricing_plan_id":"cebpf4jnsgd1na2vs0mg"},{"bike_id":"77bde8bf-068b-4583-87d6-ec3b6c990d7d","system_id":"levelo_inurba_marseille","lat":43.23961,"lon":5.36639,"is_reserved":false,"is_disabled":false,"rental_uris":{"android":"levelo://app?vid=77bde8bf-068b-4583-87d6-ec3b6c990d7d","ios":"levelo://app?vid=77bde8bf-068b-4583-87d6-ec3b6c990d7d"},"vehicle_type_id":"4","last_reported":1751731918,"current_range_meters":13600,"station_id":"ce4bhi12rcd13ifvqfp0","pricing_plan_id":"cebpf4jnsgd1na2vs0mg"},{"bike_id":"d008f2d7-a6e8-4370-83cd-46244114c79c","system_id":"levelo_inurba_marseille","lat":43.23186,"lon":5.35541,"is_reserved":false,"is_disabled":false,"rental_uris":{"android":"levelo://app?vid=d008f2d7-a6e8-4370-83cd-46244114c79c","ios":"levelo://app?vid=d008f2d7-a6e8-4370-83cd-46244114c79c"},"vehicle_type_id":"4","last_reported":1751731918,"current_range_meters":13600,"station_id":"ce4bhu92rcd13ifvqi70","pricing_plan_id":"cebpf4jnsgd1na2vs0mg"},{"bike_id":"85e59ae2-b351-4789-8c40-11e04c4e6808","system_id":"levelo_inurba_marseille","lat":43.232,"lon":5.35548,"is_reserved":false,"is_disabled":false,"rental_uris":{"android":"levelo://app?vid=85e59ae2-b351-4789-8c40-11e04c4e6808","ios":"levelo://app?vid=85e59ae2-b351-4789-8c40-11e04c4e6808"},"vehicle_type_id":"4","last_reported":1751731918,"current_range_meters":13600,"station_id":"ce4bhu92rcd13ifvqi70","pricing_plan_id":"cebpf4jnsgd1na2vs0mg"},{"bike_id":"775f6ec7-7184-423b-a458-4f29cb442540","system_id":"levelo_inurba_marseille","lat":43.239254,"lon":5.365899,"is_reserved":false,"is_disabled":false,"rental_uris":{"android":"levelo://app?vid=775f6ec7-7184-423b-a458-4f29cb442540","ios":"levelo://app?vid=775f6ec7-7184-423b-a458-4f29cb442540"},"vehicle_type_id":"4","last_reported":1751731918,"current_range_meters":14000,"station_id":"","pricing_plan_id":"cebpf4jnsgd1na2vs0mg"},{"bike_id":"3b94207c-4139-4abc-9bb5-5a1e38510ecd","system_id":"levelo_inurba_marseille","lat":43.2621,"lon":5.40453,"is_reserved":false,"is_disabled":false,"rental_uris":{"android":"levelo://app?vid=3b94207c-4139-4abc-9bb5-5a1e38510ecd","ios":"levelo://app?vid=3b94207c-4139-4abc-9bb5-5a1e38510ecd"},"vehicle_type_id":"4","last_reported":1751731918,"current_range_meters":14000,"station_id":"ce4bhmh2rcd13ifvqgmg","pricing_plan_id":"cebpf4jnsgd1na2vs0mg"},{"bike_id":"96bee655-62f8-4906-b63b-cc98a8cb85c7","system_id":"levelo_inurba_marseille","lat":43.23198,"lon":5.35546,"is_reserved":false,"is_disabled":false,"rental_uris":{"android":"levelo://app?vid=96bee655-62f8-4906-b63b-cc98a8cb85c7","ios":"levelo://app?vid=96bee655-62f8-4906-b63b-cc98a8cb85c7"},"vehicle_type_id":"4","last_reported":1751731918,"current_range_meters":14000,"station_id":"ce4bhu92rcd13ifvqi70","pricing_plan_id":"cebpf4jnsgd1na2vs0mg"},{"bike_id":"ce2d4e23-adff-4874-a653-573d7fca049e","system_id":"levelo_inurba_marseille","lat":43.30591,"lon":5.3935,"is_reserved":false,"is_disabled":false,"rental_uris":{"android":"levelo://app?vid=ce2d4e23-adff-4874-a653-573d7fca049e","ios":"levelo://app?vid=ce2d4e23-adff-4874-a653-573d7fca049e"},"vehicle_type_id":"4","last_reported":1751731918,"current_range_meters":14400,"station_id":"ce4bh0p2rcd13ifvqd80","pricing_plan_id":"cebpf4jnsgd1na2vs0mg"},{"bike_id":"8b01cf32-54e2-4fd2-a618-94fbfc8c3130","system_id":"levelo_inurba_marseille","lat":43.23186,"lon":5.35584,"is_reserved":false,"is_disabled":false,"rental_uris":{"android":"levelo://app?vid=8b01cf32-54e2-4fd2-a618-94fbfc8c3130","ios":"levelo://app?vid=8b01cf32-54e2-4fd2-a618-94fbfc8c3130"},"vehicle_type_id":"4","last_reported":1751731918,"current_range_meters":14400,"station_id":"ce4bhu92rcd13ifvqi70","pricing_plan_id":"cebpf4jnsgd1na2vs0mg"},{"bike_id":"8501c7f1-4540-433a-9226-9677bd87b71a","system_id":"levelo_inurba_marseille","lat":43.21192,"lon":5.35065,"is_reserved":false,"is_disabled":false,"rental_uris":{"android":"levelo://app?vid=8501c7f1-4540-433a-9226-9677bd87b71a","ios":"levelo://app?vid=8501c7f1-4540-433a-9226-9677bd87b71a"},"vehicle_type_id":"4","last_reported":1751731918,"current_range_meters":14400,"station_id":"st_cvj6sg6p6f1abm77japg","pricing_plan_id":"cebpf4jnsgd1na2vs0mg"},{"bike_id":"adf1d38d-1f03-40cf-9b57-0a8f15f62b2d","system_id":"levelo_inurba_marseille","lat":43.32969,"lon":5.36409,"is_reserved":false,"is_disabled":false,"rental_uris":{"android":"levelo://app?vid=adf1d38d-1f03-40cf-9b57-0a8f15f62b2d","ios":"levelo://app?vid=adf1d38d-1f03-40cf-9b57-0a8f15f62b2d"},"vehicle_type_id":"4","last_reported":1751731918,"current_range_meters":14800,"station_id":"","pricing_plan_id":"cebpf4jnsgd1na2vs0mg"},{"bike_id":"36cfaf5e-2d89-47a7-a15d-9f16625b2ff4","system_id":"levelo_inurba_marseille","lat":43.302105,"lon":5.394625,"is_reserved":false,"is_disabled":false,"rental_uris":{"android":"levelo://app?vid=36cfaf5e-2d89-47a7-a15d-9f16625b2ff4","ios":"levelo://app?vid=36cfaf5e-2d89-47a7-a15d-9f16625b2ff4"},"vehicle_type_id":"4","last_reported":1751731918,"current_range_meters":14800,"station_id":"ce4bh0p2rcd13ifvqd70","pricing_plan_id":"cebpf4jnsgd1na2vs0mg"},{"bike_id":"cca681f4-cce5-4fb7-9918-cb13c2d9cbe6","system_id":"levelo_inurba_marseille","lat":43.2573,"lon":5.41107,"is_reserved":false,"is_disabled":false,"rental_uris":{"android":"levelo://app?vid=cca681f4-cce5-4fb7-9918-cb13c2d9cbe6","ios":"levelo://app?vid=cca681f4-cce5-4fb7-9918-cb13c2d9cbe6"},"vehicle_type_id":"4","last_reported":1751731918,"current_range_meters":15200,"station_id":"","pricing_plan_id":"cebpf4jnsgd1na2vs0mg"},{"bike_id":"ba8e5270-5a7f-4191-a91d-7cf85eea91c2","system_id":"levelo_inurba_marseille","lat":43.282,"lon":5.34956,"is_reserved":false,"is_disabled":false,"rental_uris":{"android":"levelo://app?vid=ba8e5270-5a7f-4191-a91d-7cf85eea91c2","ios":"levelo://app?vid=ba8e5270-5a7f-4191-a91d-7cf85eea91c2"},"vehicle_type_id":"4","last_reported":1751731918,"current_range_meters":15200,"station_id":"","pricing_plan_id":"cebpf4jnsgd1na2vs0mg"},{"bike_id":"e71bcd81-9ad3-4c70-8aed-a8c086e789ac","system_id":"levelo_inurba_marseille","lat":43.259327,"lon":5.409063,"is_reserved":false,"is_disabled":false,"rental_uris":{"android":"levelo://app?vid=e71bcd81-9ad3-4c70-8aed-a8c086e789ac","ios":"levelo://app?vid=e71bcd81-9ad3-4c70-8aed-a8c086e789ac"},"vehicle_type_id":"4","last_reported":1751731918,"current_range_meters":15200,"station_id":"ce4bhm92rcd13ifvqglg","pricing_plan_id":"cebpf4jnsgd1na2vs0mg"},{"bike_id":"833408cb-a12e-4564-8e9e-fae9e0fef46e","system_id":"levelo_inurba_marseille","lat":43.28777,"lon":5.35598,"is_reserved":false,"is_disabled":false,"rental_uris":{"android":"levelo://app?vid=833408cb-a12e-4564-8e9e-fae9e0fef46e","ios":"levelo://app?vid=833408cb-a12e-4564-8e9e-fae9e0fef46e"},"vehicle_type_id":"4","last_reported":1751731918,"current_range_meters":16000,"station_id":"","pricing_plan_id":"cebpf4jnsgd1na2vs0mg"},{"bike_id":"856c776b-976c-4e7f-97c1-3dc27b8380dd","system_id":"levelo_inurba_marseille","lat":43.31634,"lon":5.383257,"is_reserved":false,"is_disabled":false,"rental_uris":{"android":"levelo://app?vid=856c776b-976c-4e7f-97c1-3dc27b8380dd","ios":"levelo://app?vid=856c776b-976c-4e7f-97c1-3dc27b8380dd"},"vehicle_type_id":"4","last_reported":1751731918,"current_range_meters":16000,"station_id":"","pricing_plan_id":"cebpf4jnsgd1na2vs0mg"},{"bike_id":"fe8ee84c-fdfc-40aa-a1c2-6e36409c0740","system_id":"levelo_inurba_marseille","lat":43.26782,"lon":5.39086,"is_reserved":false,"is_disabled":false,"rental_uris":{"android":"levelo://app?vid=fe8ee84c-fdfc-40aa-a1c2-6e36409c0740","ios":"levelo://app?vid=fe8ee84c-fdfc-40aa-a1c2-6e36409c0740"},"vehicle_type_id":"4","last_reported":1751731918,"current_range_meters":16000,"station_id":"","pricing_plan_id":"cebpf4jnsgd1na2vs0mg"},{"bike_id":"3cd262d7-b57b-4402-ac96-b780180be55a","system_id":"levelo_inurba_marseille","lat":43.31268,"lon":5.40167,"is_reserved":false,"is_disabled":false,"rental_uris":{"android":"levelo://app?vid=3cd262d7-b57b-4402-ac96-b780180be55a","ios":"levelo://app?vid=3cd262d7-b57b-4402-ac96-b780180be55a"},"vehicle_type_id":"4","last_reported":1751731918,"current_range_meters":16000,"station_id":"ce4bh092rcd13ifvqd30","pricing_plan_id":"cebpf4jnsgd1na2vs0mg"},{"bike_id":"d8b3a6cc-bd3d-468e-835f-b9a4d65050f0","system_id":"levelo_inurba_marseille","lat":43.28411,"lon":5.37522,"is_reserved":false,"is_disabled":false,"rental_uris":{"android":"levelo://app?vid=d8b3a6cc-bd3d-468e-835f-b9a4d65050f0","ios":"levelo://app?vid=d8b3a6cc-bd3d-468e-835f-b9a4d65050f0"},"vehicle_type_id":"4","last_reported":1751731918,"current_range_meters":16000,"station_id":"ce4bh412rcd13ifvqds0","pricing_plan_id":"cebpf4jnsgd1na2vs0mg"},{"bike_id":"16371782-24e4-423e-8528-b3378980588b","system_id":"levelo_inurba_marseille","lat":43.28421,"lon":5.34995,"is_reserved":false,"is_disabled":false,"rental_uris":{"android":"levelo://app?vid=16371782-24e4-423e-8528-b3378980588b","ios":"levelo://app?vid=16371782-24e4-423e-8528-b3378980588b"},"vehicle_type_id":"4","last_reported":1751731918,"current_range_meters":16000,"station_id":"ce4bhbh2rcd13ifvqepg","pricing_plan_id":"cebpf4jnsgd1na2vs0mg"},{"bike_id":"32883bb5-17a5-41a5-a279-4d119c078ea2","system_id":"levelo_inurba_marseille","lat":43.26193,"lon":5.37451,"is_reserved":false,"is_disabled":false,"rental_uris":{"android":"levelo://app?vid=32883bb5-17a5-41a5-a279-4d119c078ea2","ios":"levelo://app?vid=32883bb5-17a5-41a5-a279-4d119c078ea2"},"vehicle_type_id":"4","last_reported":1751731918,"current_range_meters":16000,"station_id":"ce4bhgp2rcd13ifvqfc0","pricing_plan_id":"cebpf4jnsgd1na2vs0mg"},{"bike_id":"1133fa96-960d-45e6-9328-aa458deeee07","system_id":"levelo_inurba_marseille","lat":43.26223,"lon":5.40456,"is_reserved":false,"is_disabled":false,"rental_uris":{"android":"levelo://app?vid=1133fa96-960d-45e6-9328-aa458deeee07","ios":"levelo://app?vid=1133fa96-960d-45e6-9328-aa458deeee07"},"vehicle_type_id":"4","last_reported":1751731918,"current_range_meters":16000,"station_id":"ce4bhmh2rcd13ifvqgmg","pricing_plan_id":"cebpf4jnsgd1na2vs0mg"},{"bike_id":"18e903c3-bd69-4cad-bc4b-fefd2f289489","system_id":"levelo_inurba_marseille","lat":43.26235,"lon":5.40463,"is_reserved":false,"is_disabled":false,"rental_uris":{"android":"levelo://app?vid=18e903c3-bd69-4cad-bc4b-fefd2f289489","ios":"levelo://app?vid=18e903c3-bd69-4cad-bc4b-fefd2f289489"},"vehicle_type_id":"4","last_reported":1751731918,"current_range_meters":16000,"station_id":"ce4bhmh2rcd13ifvqgmg","pricing_plan_id":"cebpf4jnsgd1na2vs0mg"},{"bike_id":"84303959-8cba-4981-9cd0-d7bbd107feff","system_id":"levelo_inurba_marseille","lat":43.30418,"lon":5.41278,"is_reserved":false,"is_disabled":false,"rental_uris":{"android":"levelo://app?vid=84303959-8cba-4981-9cd0-d7bbd107feff","ios":"levelo://app?vid=84303959-8cba-4981-9cd0-d7bbd107feff"},"vehicle_type_id":"4","last_reported":1751731918,"current_range_meters":16000,"station_id":"ce4bhop2rcd13ifvqh8g","pricing_plan_id":"cebpf4jnsgd1na2vs0mg"},{"bike_id":"7d7ca329-d013-418c-84c4-2b0666103eeb","system_id":"levelo_inurba_marseille","lat":43.29904,"lon":5.43667,"is_reserved":false,"is_disabled":false,"rental_uris":{"android":"levelo://app?vid=7d7ca329-d013-418c-84c4-2b0666103eeb","ios":"levelo://app?vid=7d7ca329-d013-418c-84c4-2b0666103eeb"},"vehicle_type_id":"4","last_reported":1751731918,"current_range_meters":16000,"station_id":"ce4bhpp2rcd13ifvqhfg","pricing_plan_id":"cebpf4jnsgd1na2vs0mg"},{"bike_id":"bf24b26e-7f51-4120-9a48-54c87edaa2f7","system_id":"levelo_inurba_marseille","lat":43.21192,"lon":5.35073,"is_reserved":false,"is_disabled":false,"rental_uris":{"android":"levelo://app?vid=bf24b26e-7f51-4120-9a48-54c87edaa2f7","ios":"levelo://app?vid=bf24b26e-7f51-4120-9a48-54c87edaa2f7"},"vehicle_type_id":"4","last_reported":1751731918,"current_range_meters":16000,"station_id":"st_cvj6sg6p6f1abm77japg","pricing_plan_id":"cebpf4jnsgd1na2vs0mg"},{"bike_id":"8a42812b-a6a1-406d-afe6-f3a1f04badd8","system_id":"levelo_inurba_marseille","lat":43.30846,"lon":5.37003,"is_reserved":false,"is_disabled":false,"rental_uris":{"android":"levelo://app?vid=8a42812b-a6a1-406d-afe6-f3a1f04badd8","ios":"levelo://app?vid=8a42812b-a6a1-406d-afe6-f3a1f04badd8"},"vehicle_type_id":"4","last_reported":1751731918,"current_range_meters":16400,"station_id":"","pricing_plan_id":"cebpf4jnsgd1na2vs0mg"},{"bike_id":"7f0c1e3c-145d-459e-b135-55934e2c45cf","system_id":"levelo_inurba_marseille","lat":43.28255,"lon":5.42807,"is_reserved":false,"is_disabled":false,"rental_uris":{"android":"levelo://app?vid=7f0c1e3c-145d-459e-b135-55934e2c45cf","ios":"levelo://app?vid=7f0c1e3c-145d-459e-b135-55934e2c45cf"},"vehicle_type_id":"4","last_reported":1751731918,"current_range_meters":16400,"station_id":"","pricing_plan_id":"cebpf4jnsgd1na2vs0mg"},{"bike_id":"38f7fbb9-ddf9-4adc-90d7-9ce9e9c6f27c","system_id":"levelo_inurba_marseille","lat":43.28221,"lon":5.38567,"is_reserved":false,"is_disabled":false,"rental_uris":{"android":"levelo://app?vid=38f7fbb9-ddf9-4adc-90d7-9ce9e9c6f27c","ios":"levelo://app?vid=38f7fbb9-ddf9-4adc-90d7-9ce9e9c6f27c"},"vehicle_type_id":"4","last_reported":1751731918,"current_range_meters":16400,"station_id":"","pricing_plan_id":"cebpf4jnsgd1na2vs0mg"},{"bike_id":"5e85e414-22bb-48a9-adaa-37a07d9ff65f","system_id":"levelo_inurba_marseille","lat":43.29797,"lon":5.38096,"is_reserved":false,"is_disabled":false,"rental_uris":{"android":"levelo://app?vid=5e85e414-22bb-48a9-adaa-37a07d9ff65f","ios":"levelo://app?vid=5e85e414-22bb-48a9-adaa-37a07d9ff65f"},"vehicle_type_id":"4","last_reported":1751731918,"current_range_meters":16400,"station_id":"ce4bgip2rcd13ifvqbb0","pricing_plan_id":"cebpf4jnsgd1na2vs0mg"},{"bike_id":"e6e0182f-ce11-427d-a6fa-2b053784f246","system_id":"levelo_inurba_marseille","lat":43.31168,"lon":5.38721,"is_reserved":false,"is_disabled":false,"rental_uris":{"android":"levelo://app?vid=e6e0182f-ce11-427d-a6fa-2b053784f246","ios":"levelo://app?vid=e6e0182f-ce11-427d-a6fa-2b053784f246"},"vehicle_type_id":"4","last_reported":1751731918,"current_range_meters":16400,"station_id":"ce4bgv12rcd13ifvqcp0","pricing_plan_id":"cebpf4jnsgd1na2vs0mg"},{"bike_id":"17b4c14c-5d6c-4bd5-a6e3-a55541b73927","system_id":"levelo_inurba_marseille","lat":43.29799,"lon":5.40391,"is_reserved":false,"is_disabled":false,"rental_uris":{"android":"levelo://app?vid=17b4c14c-5d6c-4bd5-a6e3-a55541b73927","ios":"levelo://app?vid=17b4c14c-5d6c-4bd5-a6e3-a55541b73927"},"vehicle_type_id":"4","last_reported":1751731918,"current_range_meters":16400,"station_id":"ce4bh112rcd13ifvqd90","pricing_plan_id":"cebpf4jnsgd1na2vs0mg"},{"bike_id":"96abe247-1c4d-4fac-96aa-cf0887b850ea","system_id":"levelo_inurba_marseille","lat":43.28473,"lon":5.38415,"is_reserved":false,"is_disabled":false,"rental_uris":{"android":"levelo://app?vid=96abe247-1c4d-4fac-96aa-cf0887b850ea","ios":"levelo://app?vid=96abe247-1c4d-4fac-96aa-cf0887b850ea"},"vehicle_type_id":"4","last_reported":1751731918,"current_range_meters":16400,"station_id":"ce4bh512rcd13ifvqe3g","pricing_plan_id":"cebpf4jnsgd1na2vs0mg"},{"bike_id":"5e4669bd-8536-4919-8da2-15409e182044","system_id":"levelo_inurba_marseille","lat":43.23135,"lon":5.43721,"is_reserved":false,"is_disabled":false,"rental_uris":{"android":"levelo://app?vid=5e4669bd-8536-4919-8da2-15409e182044","ios":"levelo://app?vid=5e4669bd-8536-4919-8da2-15409e182044"},"vehicle_type_id":"4","last_reported":1751731918,"current_range_meters":16400,"station_id":"ce4bhmp2rcd13ifvqgog","pricing_plan_id":"cebpf4jnsgd1na2vs0mg"},{"bike_id":"38855c64-4a55-4d3a-8da1-44a2b313158b","system_id":"levelo_inurba_marseille","lat":43.32372,"lon":5.36761,"is_reserved":false,"is_disabled":false,"rental_uris":{"android":"levelo://app?vid=38855c64-4a55-4d3a-8da1-44a2b313158b","ios":"levelo://app?vid=38855c64-4a55-4d3a-8da1-44a2b313158b"},"vehicle_type_id":"4","last_reported":1751731918,"current_range_meters":16400,"station_id":"ce4bhsh2rcd13ifvqi2g","pricing_plan_id":"cebpf4jnsgd1na2vs0mg"},{"bike_id":"e9f184b7-4c52-47df-adfb-be4fdc9c8ed3","system_id":"levelo_inurba_marseille","lat":43.23189,"lon":5.355539,"is_reserved":false,"is_disabled":false,"rental_uris":{"android":"levelo://app?vid=e9f184b7-4c52-47df-adfb-be4fdc9c8ed3","ios":"levelo://app?vid=e9f184b7-4c52-47df-adfb-be4fdc9c8ed3"},"vehicle_type_id":"4","last_reported":1751731918,"current_range_meters":16400,"station_id":"ce4bhu92rcd13ifvqi70","pricing_plan_id":"cebpf4jnsgd1na2vs0mg"},{"bike_id":"e449aa29-cae1-4432-9aec-dedc13360b20","system_id":"levelo_inurba_marseille","lat":43.21194,"lon":5.35068,"is_reserved":false,"is_disabled":false,"rental_uris":{"android":"levelo://app?vid=e449aa29-cae1-4432-9aec-dedc13360b20","ios":"levelo://app?vid=e449aa29-cae1-4432-9aec-dedc13360b20"},"vehicle_type_id":"4","last_reported":1751731918,"current_range_meters":16400,"station_id":"st_cvj6sg6p6f1abm77japg","pricing_plan_id":"cebpf4jnsgd1na2vs0mg"},{"bike_id":"cd6f91d4-bdaf-4e38-b4f5-14f6e83055e8","system_id":"levelo_inurba_marseille","lat":43.21184,"lon":5.35075,"is_reserved":false,"is_disabled":false,"rental_uris":{"android":"levelo://app?vid=cd6f91d4-bdaf-4e38-b4f5-14f6e83055e8","ios":"levelo://app?vid=cd6f91d4-bdaf-4e38-b4f5-14f6e83055e8"},"vehicle_type_id":"4","last_reported":1751731918,"current_range_meters":16400,"station_id":"st_cvj6sg6p6f1abm77japg","pricing_plan_id":"cebpf4jnsgd1na2vs0mg"},{"bike_id":"7cc428f6-3fa0-416a-8dc1-e73e4ac833f6","system_id":"levelo_inurba_marseille","lat":43.28814,"lon":5.39354,"is_reserved":false,"is_disabled":false,"rental_uris":{"android":"levelo://app?vid=7cc428f6-3fa0-416a-8dc1-e73e4ac833f6","ios":"levelo://app?vid=7cc428f6-3fa0-416a-8dc1-e73e4ac833f6"},"vehicle_type_id":"4","last_reported":1751731918,"current_range_meters":16800,"station_id":"","pricing_plan_id":"cebpf4jnsgd1na2vs0mg"},{"bike_id":"f723a0eb-cd28-4af0-894a-2e413db6e4bf","system_id":"levelo_inurba_marseille","lat":43.28032,"lon":5.36951,"is_reserved":false,"is_disabled":false,"rental_uris":{"android":"levelo://app?vid=f723a0eb-cd28-4af0-894a-2e413db6e4bf","ios":"levelo://app?vid=f723a0eb-cd28-4af0-894a-2e413db6e4bf"},"vehicle_type_id":"4","last_reported":1751731918,"current_range_meters":16800,"station_id":"ce4bha12rcd13ifvqef0","pricing_plan_id":"cebpf4jnsgd1na2vs0mg"},{"bike_id":"b6e48e5f-e234-4c93-b6af-0c488e78d7fd","system_id":"levelo_inurba_marseille","lat":43.28421,"lon":5.34992,"is_reserved":false,"is_disabled":false,"rental_uris":{"android":"levelo://app?vid=b6e48e5f-e234-4c93-b6af-0c488e78d7fd","ios":"levelo://app?vid=b6e48e5f-e234-4c93-b6af-0c488e78d7fd"},"vehicle_type_id":"4","last_reported":1751731918,"current_range_meters":16800,"station_id":"ce4bhbh2rcd13ifvqepg","pricing_plan_id":"cebpf4jnsgd1na2vs0mg"},{"bike_id":"33e8eeb4-8b00-46df-b16c-eec4d3a4e4a9","system_id":"levelo_inurba_marseille","lat":43.28616,"lon":5.35106,"is_reserved":false,"is_disabled":false,"rental_uris":{"android":"levelo://app?vid=33e8eeb4-8b00-46df-b16c-eec4d3a4e4a9","ios":"levelo://app?vid=33e8eeb4-8b00-46df-b16c-eec4d3a4e4a9"},"vehicle_type_id":"4","last_reported":1751731918,"current_range_meters":16800,"station_id":"ce4bhch2rcd13ifvqeug","pricing_plan_id":"cebpf4jnsgd1na2vs0mg"},{"bike_id":"4a5ea6cf-0080-4542-aae9-f545715c1050","system_id":"levelo_inurba_marseille","lat":43.244,"lon":5.37067,"is_reserved":false,"is_disabled":false,"rental_uris":{"android":"levelo://app?vid=4a5ea6cf-0080-4542-aae9-f545715c1050","ios":"levelo://app?vid=4a5ea6cf-0080-4542-aae9-f545715c1050"},"vehicle_type_id":"4","last_reported":1751731918,"current_range_meters":16800,"station_id":"ce4bhhh2rcd13ifvqfk0","pricing_plan_id":"cebpf4jnsgd1na2vs0mg"},{"bike_id":"cfedde4d-29e4-48a6-bc2a-67d1ad344395","system_id":"levelo_inurba_marseille","lat":43.23203,"lon":5.35544,"is_reserved":false,"is_disabled":false,"rental_uris":{"android":"levelo://app?vid=cfedde4d-29e4-48a6-bc2a-67d1ad344395","ios":"levelo://app?vid=cfedde4d-29e4-48a6-bc2a-67d1ad344395"},"vehicle_type_id":"4","last_reported":1751731918,"current_range_meters":16800,"station_id":"ce4bhu92rcd13ifvqi70","pricing_plan_id":"cebpf4jnsgd1na2vs0mg"},{"bike_id":"8b885149-cf7a-4df4-824d-7d686b7d76d4","system_id":"levelo_inurba_marseille","lat":43.280323,"lon":5.408798,"is_reserved":false,"is_disabled":false,"rental_uris":{"android":"levelo://app?vid=8b885149-cf7a-4df4-824d-7d686b7d76d4","ios":"levelo://app?vid=8b885149-cf7a-4df4-824d-7d686b7d76d4"},"vehicle_type_id":"4","last_reported":1751731918,"current_range_meters":17200,"station_id":"","pricing_plan_id":"cebpf4jnsgd1na2vs0mg"},{"bike_id":"3ea7a273-24c9-4a26-8cc5-ae83c99551e5","system_id":"levelo_inurba_marseille","lat":43.31231,"lon":5.36873,"is_reserved":false,"is_disabled":false,"rental_uris":{"android":"levelo://app?vid=3ea7a273-24c9-4a26-8cc5-ae83c99551e5","ios":"levelo://app?vid=3ea7a273-24c9-4a26-8cc5-ae83c99551e5"},"vehicle_type_id":"4","last_reported":1751731918,"current_range_meters":17200,"station_id":"ce4bgl92rcd13ifvqbq0","pricing_plan_id":"cebpf4jnsgd1na2vs0mg"},{"bike_id":"544b7ec9-80f1-4b1b-bfb3-a7c4e3178006","system_id":"levelo_inurba_marseille","lat":43.26225,"lon":5.40443,"is_reserved":false,"is_disabled":false,"rental_uris":{"android":"levelo://app?vid=544b7ec9-80f1-4b1b-bfb3-a7c4e3178006","ios":"levelo://app?vid=544b7ec9-80f1-4b1b-bfb3-a7c4e3178006"},"vehicle_type_id":"4","last_reported":1751731918,"current_range_meters":17200,"station_id":"ce4bhmh2rcd13ifvqgmg","pricing_plan_id":"cebpf4jnsgd1na2vs0mg"},{"bike_id":"452e8211-4f44-45d0-814a-3e9e25b8c44e","system_id":"levelo_inurba_marseille","lat":43.2119,"lon":5.35074,"is_reserved":false,"is_disabled":false,"rental_uris":{"android":"levelo://app?vid=452e8211-4f44-45d0-814a-3e9e25b8c44e","ios":"levelo://app?vid=452e8211-4f44-45d0-814a-3e9e25b8c44e"},"vehicle_type_id":"4","last_reported":1751731918,"current_range_meters":17200,"station_id":"st_cvj6sg6p6f1abm77japg","pricing_plan_id":"cebpf4jnsgd1na2vs0mg"},{"bike_id":"cf8a40c8-9df1-4854-af6f-e45e8fd42ff9","system_id":"levelo_inurba_marseille","lat":43.28344,"lon":5.38109,"is_reserved":false,"is_disabled":false,"rental_uris":{"android":"levelo://app?vid=cf8a40c8-9df1-4854-af6f-e45e8fd42ff9","ios":"levelo://app?vid=cf8a40c8-9df1-4854-af6f-e45e8fd42ff9"},"vehicle_type_id":"4","last_reported":1751731918,"current_range_meters":17600,"station_id":"ce4bh412rcd13ifvqdr0","pricing_plan_id":"cebpf4jnsgd1na2vs0mg"},{"bike_id":"a7d009f5-46f9-4bf7-b3fa-162fac40ffe6","system_id":"levelo_inurba_marseille","lat":43.248043,"lon":5.374553,"is_reserved":false,"is_disabled":false,"rental_uris":{"android":"levelo://app?vid=a7d009f5-46f9-4bf7-b3fa-162fac40ffe6","ios":"levelo://app?vid=a7d009f5-46f9-4bf7-b3fa-162fac40ffe6"},"vehicle_type_id":"4","last_reported":1751731918,"current_range_meters":17600,"station_id":"ce4bhgh2rcd13ifvqfb0","pricing_plan_id":"cebpf4jnsgd1na2vs0mg"},{"bike_id":"69dbb145-6eaa-484c-b902-b8bfc66a676a","system_id":"levelo_inurba_marseille","lat":43.24387,"lon":5.37062,"is_reserved":false,"is_disabled":false,"rental_uris":{"android":"levelo://app?vid=69dbb145-6eaa-484c-b902-b8bfc66a676a","ios":"levelo://app?vid=69dbb145-6eaa-484c-b902-b8bfc66a676a"},"vehicle_type_id":"4","last_reported":1751731918,"current_range_meters":17600,"station_id":"ce4bhhh2rcd13ifvqfk0","pricing_plan_id":"cebpf4jnsgd1na2vs0mg"},{"bike_id":"5f2a17b2-a4fd-4e1d-8a26-5fa5f4a1efba","system_id":"levelo_inurba_marseille","lat":43.24659,"lon":5.38162,"is_reserved":false,"is_disabled":false,"rental_uris":{"android":"levelo://app?vid=5f2a17b2-a4fd-4e1d-8a26-5fa5f4a1efba","ios":"levelo://app?vid=5f2a17b2-a4fd-4e1d-8a26-5fa5f4a1efba"},"vehicle_type_id":"4","last_reported":1751731918,"current_range_meters":17600,"station_id":"ce4bhih2rcd13ifvqfr0","pricing_plan_id":"cebpf4jnsgd1na2vs0mg"},{"bike_id":"d2ebe918-c811-436c-9386-a45e99a74823","system_id":"levelo_inurba_marseille","lat":43.25579,"lon":5.3823,"is_reserved":false,"is_disabled":false,"rental_uris":{"android":"levelo://app?vid=d2ebe918-c811-436c-9386-a45e99a74823","ios":"levelo://app?vid=d2ebe918-c811-436c-9386-a45e99a74823"},"vehicle_type_id":"4","last_reported":1751731918,"current_range_meters":17600,"station_id":"ce4bhih2rcd13ifvqfs0","pricing_plan_id":"cebpf4jnsgd1na2vs0mg"},{"bike_id":"38556a8c-bc16-440b-aba1-9df44c77db93","system_id":"levelo_inurba_marseille","lat":43.2623,"lon":5.40435,"is_reserved":false,"is_disabled":false,"rental_uris":{"android":"levelo://app?vid=38556a8c-bc16-440b-aba1-9df44c77db93","ios":"levelo://app?vid=38556a8c-bc16-440b-aba1-9df44c77db93"},"vehicle_type_id":"4","last_reported":1751731918,"current_range_meters":17600,"station_id":"ce4bhmh2rcd13ifvqgmg","pricing_plan_id":"cebpf4jnsgd1na2vs0mg"},{"bike_id":"d5060112-f101-4caa-8643-b43d45874060","system_id":"levelo_inurba_marseille","lat":43.24157,"lon":5.36401,"is_reserved":false,"is_disabled":false,"rental_uris":{"android":"levelo://app?vid=d5060112-f101-4caa-8643-b43d45874060","ios":"levelo://app?vid=d5060112-f101-4caa-8643-b43d45874060"},"vehicle_type_id":"4","last_reported":1751731918,"current_range_meters":17600,"station_id":"cpo36qri1sfpv3e86is0","pricing_plan_id":"cebpf4jnsgd1na2vs0mg"},{"bike_id":"d858b784-4fd9-41d7-8169-6d2f7e176251","system_id":"levelo_inurba_marseille","lat":43.30012,"lon":5.37801,"is_reserved":false,"is_disabled":false,"rental_uris":{"android":"levelo://app?vid=d858b784-4fd9-41d7-8169-6d2f7e176251","ios":"levelo://app?vid=d858b784-4fd9-41d7-8169-6d2f7e176251"},"vehicle_type_id":"4","last_reported":1751731918,"current_range_meters":18000,"station_id":"","pricing_plan_id":"cebpf4jnsgd1na2vs0mg"},{"bike_id":"6e955a9f-ab26-4b7a-8836-10859dcb00cb","system_id":"levelo_inurba_marseille","lat":43.29797,"lon":5.38102,"is_reserved":false,"is_disabled":false,"rental_uris":{"android":"levelo://app?vid=6e955a9f-ab26-4b7a-8836-10859dcb00cb","ios":"levelo://app?vid=6e955a9f-ab26-4b7a-8836-10859dcb00cb"},"vehicle_type_id":"4","last_reported":1751731918,"current_range_meters":18000,"station_id":"ce4bgip2rcd13ifvqbb0","pricing_plan_id":"cebpf4jnsgd1na2vs0mg"},{"bike_id":"d4dee475-978a-4d3c-926c-cfd11eea1ce7","system_id":"levelo_inurba_marseille","lat":43.307887,"lon":5.376458,"is_reserved":false,"is_disabled":false,"rental_uris":{"android":"levelo://app?vid=d4dee475-978a-4d3c-926c-cfd11eea1ce7","ios":"levelo://app?vid=d4dee475-978a-4d3c-926c-cfd11eea1ce7"},"vehicle_type_id":"4","last_reported":1751731918,"current_range_meters":18000,"station_id":"ce4bgv92rcd13ifvqcq0","pricing_plan_id":"cebpf4jnsgd1na2vs0mg"},{"bike_id":"d3bcf873-8dc1-4277-8837-e627ef20a994","system_id":"levelo_inurba_marseille","lat":43.30647,"lon":5.40095,"is_reserved":false,"is_disabled":false,"rental_uris":{"android":"levelo://app?vid=d3bcf873-8dc1-4277-8837-e627ef20a994","ios":"levelo://app?vid=d3bcf873-8dc1-4277-8837-e627ef20a994"},"vehicle_type_id":"4","last_reported":1751731918,"current_range_meters":18000,"station_id":"ce4bh112rcd13ifvqda0","pricing_plan_id":"cebpf4jnsgd1na2vs0mg"},{"bike_id":"06a3d7da-1adc-4c90-9c99-371487e9d5a5","system_id":"levelo_inurba_marseille","lat":43.28698,"lon":5.37381,"is_reserved":false,"is_disabled":false,"rental_uris":{"android":"levelo://app?vid=06a3d7da-1adc-4c90-9c99-371487e9d5a5","ios":"levelo://app?vid=06a3d7da-1adc-4c90-9c99-371487e9d5a5"},"vehicle_type_id":"4","last_reported":1751731918,"current_range_meters":18000,"station_id":"ce4bh3p2rcd13ifvqdq0","pricing_plan_id":"cebpf4jnsgd1na2vs0mg"},{"bike_id":"a2938245-1ba3-4237-9781-f3abc243bff6","system_id":"levelo_inurba_marseille","lat":43.291949,"lon":5.357966,"is_reserved":false,"is_disabled":false,"rental_uris":{"android":"levelo://app?vid=a2938245-1ba3-4237-9781-f3abc243bff6","ios":"levelo://app?vid=a2938245-1ba3-4237-9781-f3abc243bff6"},"vehicle_type_id":"4","last_reported":1751731918,"current_range_meters":18000,"station_id":"ce4bhb12rcd13ifvqel0","pricing_plan_id":"cebpf4jnsgd1na2vs0mg"},{"bike_id":"56ddfdfc-35d6-4c06-945b-74d41eaaa35c","system_id":"levelo_inurba_marseille","lat":43.27372,"lon":5.36267,"is_reserved":false,"is_disabled":false,"rental_uris":{"android":"levelo://app?vid=56ddfdfc-35d6-4c06-945b-74d41eaaa35c","ios":"levelo://app?vid=56ddfdfc-35d6-4c06-945b-74d41eaaa35c"},"vehicle_type_id":"4","last_reported":1751731918,"current_range_meters":18000,"station_id":"ce4bhbh2rcd13ifvqeo0","pricing_plan_id":"cebpf4jnsgd1na2vs0mg"},{"bike_id":"d52a9a48-4490-4800-9ea5-d3658c9759f8","system_id":"levelo_inurba_marseille","lat":43.27377,"lon":5.3626,"is_reserved":false,"is_disabled":false,"rental_uris":{"android":"levelo://app?vid=d52a9a48-4490-4800-9ea5-d3658c9759f8","ios":"levelo://app?vid=d52a9a48-4490-4800-9ea5-d3658c9759f8"},"vehicle_type_id":"4","last_reported":1751731918,"current_range_meters":18000,"station_id":"ce4bhbh2rcd13ifvqeo0","pricing_plan_id":"cebpf4jnsgd1na2vs0mg"},{"bike_id":"7b99e899-409c-4f93-8ba2-72f1529e7cca","system_id":"levelo_inurba_marseille","lat":43.26203,"lon":5.37448,"is_reserved":false,"is_disabled":false,"rental_uris":{"android":"levelo://app?vid=7b99e899-409c-4f93-8ba2-72f1529e7cca","ios":"levelo://app?vid=7b99e899-409c-4f93-8ba2-72f1529e7cca"},"vehicle_type_id":"4","last_reported":1751731918,"current_range_meters":18000,"station_id":"ce4bhgp2rcd13ifvqfc0","pricing_plan_id":"cebpf4jnsgd1na2vs0mg"},{"bike_id":"de6d036d-e90f-4579-9af9-7b07b2f36082","system_id":"levelo_inurba_marseille","lat":43.23966,"lon":5.36632,"is_reserved":false,"is_disabled":false,"rental_uris":{"android":"levelo://app?vid=de6d036d-e90f-4579-9af9-7b07b2f36082","ios":"levelo://app?vid=de6d036d-e90f-4579-9af9-7b07b2f36082"},"vehicle_type_id":"4","last_reported":1751731918,"current_range_meters":18000,"station_id":"ce4bhi12rcd13ifvqfp0","pricing_plan_id":"cebpf4jnsgd1na2vs0mg"},{"bike_id":"bf203b3d-54d7-49df-9a3c-40a478352510","system_id":"levelo_inurba_marseille","lat":43.27056,"lon":5.40256,"is_reserved":false,"is_disabled":false,"rental_uris":{"android":"levelo://app?vid=bf203b3d-54d7-49df-9a3c-40a478352510","ios":"levelo://app?vid=bf203b3d-54d7-49df-9a3c-40a478352510"},"vehicle_type_id":"4","last_reported":1751731918,"current_range_meters":18000,"station_id":"ce4bhk92rcd13ifvqgc0","pricing_plan_id":"cebpf4jnsgd1na2vs0mg"},{"bike_id":"30daf87a-5e7d-42b3-ac97-c9dfd23296b5","system_id":"levelo_inurba_marseille","lat":43.324713,"lon":5.36566,"is_reserved":false,"is_disabled":false,"rental_uris":{"android":"levelo://app?vid=30daf87a-5e7d-42b3-ac97-c9dfd23296b5","ios":"levelo://app?vid=30daf87a-5e7d-42b3-ac97-c9dfd23296b5"},"vehicle_type_id":"4","last_reported":1751731918,"current_range_meters":18000,"station_id":"ce4bhs12rcd13ifvqhvg","pricing_plan_id":"cebpf4jnsgd1na2vs0mg"},{"bike_id":"aca47642-4ceb-4a40-bae0-66b7f0d6dee2","system_id":"levelo_inurba_marseille","lat":43.225074,"lon":5.347868,"is_reserved":false,"is_disabled":false,"rental_uris":{"android":"levelo://app?vid=aca47642-4ceb-4a40-bae0-66b7f0d6dee2","ios":"levelo://app?vid=aca47642-4ceb-4a40-bae0-66b7f0d6dee2"},"vehicle_type_id":"4","last_reported":1751731918,"current_range_meters":18000,"station_id":"st_cvj5dfep6f1abm77gieg","pricing_plan_id":"cebpf4jnsgd1na2vs0mg"},{"bike_id":"d5ef770d-9759-47e3-b3a5-7d2785ef76db","system_id":"levelo_inurba_marseille","lat":43.32746,"lon":5.39197,"is_reserved":false,"is_disabled":false,"rental_uris":{"android":"levelo://app?vid=d5ef770d-9759-47e3-b3a5-7d2785ef76db","ios":"levelo://app?vid=d5ef770d-9759-47e3-b3a5-7d2785ef76db"},"vehicle_type_id":"4","last_reported":1751731918,"current_range_meters":18800,"station_id":"","pricing_plan_id":"cebpf4jnsgd1na2vs0mg"},{"bike_id":"c43eae3b-dccb-4509-aa37-b59577141f6c","system_id":"levelo_inurba_marseille","lat":43.23243,"lon":5.35651,"is_reserved":false,"is_disabled":false,"rental_uris":{"android":"levelo://app?vid=c43eae3b-dccb-4509-aa37-b59577141f6c","ios":"levelo://app?vid=c43eae3b-dccb-4509-aa37-b59577141f6c"},"vehicle_type_id":"4","last_reported":1751731918,"current_range_meters":18800,"station_id":"","pricing_plan_id":"cebpf4jnsgd1na2vs0mg"},{"bike_id":"079da5a7-c760-4ac6-b0fd-9922efb55a09","system_id":"levelo_inurba_marseille","lat":43.2955,"lon":5.38307,"is_reserved":false,"is_disabled":false,"rental_uris":{"android":"levelo://app?vid=079da5a7-c760-4ac6-b0fd-9922efb55a09","ios":"levelo://app?vid=079da5a7-c760-4ac6-b0fd-9922efb55a09"},"vehicle_type_id":"4","last_reported":1751731918,"current_range_meters":18800,"station_id":"","pricing_plan_id":"cebpf4jnsgd1na2vs0mg"},{"bike_id":"d7d3dcd2-ad3b-47eb-9ac8-5e975e5f2c50","system_id":"levelo_inurba_marseille","lat":43.30309,"lon":5.39211,"is_reserved":false,"is_disabled":false,"rental_uris":{"android":"levelo://app?vid=d7d3dcd2-ad3b-47eb-9ac8-5e975e5f2c50","ios":"levelo://app?vid=d7d3dcd2-ad3b-47eb-9ac8-5e975e5f2c50"},"vehicle_type_id":"4","last_reported":1751731918,"current_range_meters":18800,"station_id":"ce4bgkh2rcd13ifvqbk0","pricing_plan_id":"cebpf4jnsgd1na2vs0mg"},{"bike_id":"c256b702-dffe-46f5-911e-7dd7d1590e34","system_id":"levelo_inurba_marseille","lat":43.29021,"lon":5.38132,"is_reserved":false,"is_disabled":false,"rental_uris":{"android":"levelo://app?vid=c256b702-dffe-46f5-911e-7dd7d1590e34","ios":"levelo://app?vid=c256b702-dffe-46f5-911e-7dd7d1590e34"},"vehicle_type_id":"4","last_reported":1751731918,"current_range_meters":18800,"station_id":"ce4bh4p2rcd13ifvqe1g","pricing_plan_id":"cebpf4jnsgd1na2vs0mg"},{"bike_id":"e8305582-3968-45f4-bc54-4f12dea04efc","system_id":"levelo_inurba_marseille","lat":43.28469,"lon":5.3842,"is_reserved":false,"is_disabled":false,"rental_uris":{"android":"levelo://app?vid=e8305582-3968-45f4-bc54-4f12dea04efc","ios":"levelo://app?vid=e8305582-3968-45f4-bc54-4f12dea04efc"},"vehicle_type_id":"4","last_reported":1751731918,"current_range_meters":18800,"station_id":"ce4bh512rcd13ifvqe3g","pricing_plan_id":"cebpf4jnsgd1na2vs0mg"},{"bike_id":"195b8e6e-cdd1-40fc-828b-701de5614533","system_id":"levelo_inurba_marseille","lat":43.29267,"lon":5.38448,"is_reserved":false,"is_disabled":false,"rental_uris":{"android":"levelo://app?vid=195b8e6e-cdd1-40fc-828b-701de5614533","ios":"levelo://app?vid=195b8e6e-cdd1-40fc-828b-701de5614533"},"vehicle_type_id":"4","last_reported":1751731918,"current_range_meters":18800,"station_id":"ce4bh692rcd13ifvqea0","pricing_plan_id":"cebpf4jnsgd1na2vs0mg"},{"bike_id":"2e9ecc0a-afc7-4316-ac0c-3ab173435e83","system_id":"levelo_inurba_marseille","lat":43.23192,"lon":5.35559,"is_reserved":false,"is_disabled":false,"rental_uris":{"android":"levelo://app?vid=2e9ecc0a-afc7-4316-ac0c-3ab173435e83","ios":"levelo://app?vid=2e9ecc0a-afc7-4316-ac0c-3ab173435e83"},"vehicle_type_id":"4","last_reported":1751731918,"current_range_meters":18800,"station_id":"ce4bhu92rcd13ifvqi70","pricing_plan_id":"cebpf4jnsgd1na2vs0mg"},{"bike_id":"5bcbafba-4422-4814-8e0c-0b0bc2eb521f","system_id":"levelo_inurba_marseille","lat":43.29582,"lon":5.37497,"is_reserved":false,"is_disabled":false,"rental_uris":{"android":"levelo://app?vid=5bcbafba-4422-4814-8e0c-0b0bc2eb521f","ios":"levelo://app?vid=5bcbafba-4422-4814-8e0c-0b0bc2eb521f"},"vehicle_type_id":"4","last_reported":1751731918,"current_range_meters":19200,"station_id":"ce4bgh92rcd13ifvqb50","pricing_plan_id":"cebpf4jnsgd1na2vs0mg"},{"bike_id":"7bdc309b-8e0b-4c8f-b490-82cae8968b2a","system_id":"levelo_inurba_marseille","lat":43.29597,"lon":5.38102,"is_reserved":false,"is_disabled":false,"rental_uris":{"android":"levelo://app?vid=7bdc309b-8e0b-4c8f-b490-82cae8968b2a","ios":"levelo://app?vid=7bdc309b-8e0b-4c8f-b490-82cae8968b2a"},"vehicle_type_id":"4","last_reported":1751731918,"current_range_meters":19200,"station_id":"ce4bgl12rcd13ifvqbo0","pricing_plan_id":"cebpf4jnsgd1na2vs0mg"},{"bike_id":"62da0446-5da7-4538-a0dd-ba04179e2d51","system_id":"levelo_inurba_marseille","lat":43.29278,"lon":5.36841,"is_reserved":false,"is_disabled":false,"rental_uris":{"android":"levelo://app?vid=62da0446-5da7-4538-a0dd-ba04179e2d51","ios":"levelo://app?vid=62da0446-5da7-4538-a0dd-ba04179e2d51"},"vehicle_type_id":"4","last_reported":1751731918,"current_range_meters":19200,"station_id":"ce4bhbp2rcd13ifvqesg","pricing_plan_id":"cebpf4jnsgd1na2vs0mg"},{"bike_id":"ad6d14a3-a18e-4ff2-a25a-43d4111f6646","system_id":"levelo_inurba_marseille","lat":43.24803,"lon":5.37454,"is_reserved":false,"is_disabled":false,"rental_uris":{"android":"levelo://app?vid=ad6d14a3-a18e-4ff2-a25a-43d4111f6646","ios":"levelo://app?vid=ad6d14a3-a18e-4ff2-a25a-43d4111f6646"},"vehicle_type_id":"4","last_reported":1751731918,"current_range_meters":19200,"station_id":"ce4bhgh2rcd13ifvqfb0","pricing_plan_id":"cebpf4jnsgd1na2vs0mg"},{"bike_id":"f6dafa74-90a8-44c1-8b1c-c347bbe706ea","system_id":"levelo_inurba_marseille","lat":43.27068,"lon":5.42281,"is_reserved":false,"is_disabled":false,"rental_uris":{"android":"levelo://app?vid=f6dafa74-90a8-44c1-8b1c-c347bbe706ea","ios":"levelo://app?vid=f6dafa74-90a8-44c1-8b1c-c347bbe706ea"},"vehicle_type_id":"4","last_reported":1751731918,"current_range_meters":19200,"station_id":"ce4bhk92rcd13ifvqgb0","pricing_plan_id":"cebpf4jnsgd1na2vs0mg"},{"bike_id":"4e5d2ccc-3fb6-498d-aa39-fd27c722ff47","system_id":"levelo_inurba_marseille","lat":43.27074,"lon":5.42276,"is_reserved":false,"is_disabled":false,"rental_uris":{"android":"levelo://app?vid=4e5d2ccc-3fb6-498d-aa39-fd27c722ff47","ios":"levelo://app?vid=4e5d2ccc-3fb6-498d-aa39-fd27c722ff47"},"vehicle_type_id":"4","last_reported":1751731918,"current_range_meters":19200,"station_id":"ce4bhk92rcd13ifvqgb0","pricing_plan_id":"cebpf4jnsgd1na2vs0mg"},{"bike_id":"13122657-0940-40fb-8145-d6c8ee78fd84","system_id":"levelo_inurba_marseille","lat":43.32002,"lon":5.3816,"is_reserved":false,"is_disabled":false,"rental_uris":{"android":"levelo://app?vid=13122657-0940-40fb-8145-d6c8ee78fd84","ios":"levelo://app?vid=13122657-0940-40fb-8145-d6c8ee78fd84"},"vehicle_type_id":"4","last_reported":1751731918,"current_range_meters":19200,"station_id":"ce4bhr12rcd13ifvqhpg","pricing_plan_id":"cebpf4jnsgd1na2vs0mg"},{"bike_id":"47fa39f2-1093-4b51-b193-a9060c2870c2","system_id":"levelo_inurba_marseille","lat":43.32286,"lon":5.38259,"is_reserved":false,"is_disabled":false,"rental_uris":{"android":"levelo://app?vid=47fa39f2-1093-4b51-b193-a9060c2870c2","ios":"levelo://app?vid=47fa39f2-1093-4b51-b193-a9060c2870c2"},"vehicle_type_id":"4","last_reported":1751731918,"current_range_meters":19200,"station_id":"ce4bhr12rcd13ifvqhqg","pricing_plan_id":"cebpf4jnsgd1na2vs0mg"},{"bike_id":"ac66367e-0173-4c1a-9bd6-cd5a02dda59d","system_id":"levelo_inurba_marseille","lat":43.306,"lon":5.39343,"is_reserved":false,"is_disabled":false,"rental_uris":{"android":"levelo://app?vid=ac66367e-0173-4c1a-9bd6-cd5a02dda59d","ios":"levelo://app?vid=ac66367e-0173-4c1a-9bd6-cd5a02dda59d"},"vehicle_type_id":"4","last_reported":1751731918,"current_range_meters":19600,"station_id":"ce4bh0p2rcd13ifvqd80","pricing_plan_id":"cebpf4jnsgd1na2vs0mg"},{"bike_id":"10ebf052-8d0f-4f37-913b-86f254e2ca17","system_id":"levelo_inurba_marseille","lat":43.27375,"lon":5.36259,"is_reserved":false,"is_disabled":false,"rental_uris":{"android":"levelo://app?vid=10ebf052-8d0f-4f37-913b-86f254e2ca17","ios":"levelo://app?vid=10ebf052-8d0f-4f37-913b-86f254e2ca17"},"vehicle_type_id":"4","last_reported":1751731918,"current_range_meters":19600,"station_id":"ce4bhbh2rcd13ifvqeo0","pricing_plan_id":"cebpf4jnsgd1na2vs0mg"},{"bike_id":"9abd6f77-4e53-434c-beb9-a6104827143a","system_id":"levelo_inurba_marseille","lat":43.244,"lon":5.3707,"is_reserved":false,"is_disabled":false,"rental_uris":{"android":"levelo://app?vid=9abd6f77-4e53-434c-beb9-a6104827143a","ios":"levelo://app?vid=9abd6f77-4e53-434c-beb9-a6104827143a"},"vehicle_type_id":"4","last_reported":1751731918,"current_range_meters":19600,"station_id":"ce4bhhh2rcd13ifvqfk0","pricing_plan_id":"cebpf4jnsgd1na2vs0mg"},{"bike_id":"74c2201a-0943-4161-bdd8-ea4fd51148eb","system_id":"levelo_inurba_marseille","lat":43.281557,"lon":5.426452,"is_reserved":false,"is_disabled":false,"rental_uris":{"android":"levelo://app?vid=74c2201a-0943-4161-bdd8-ea4fd51148eb","ios":"levelo://app?vid=74c2201a-0943-4161-bdd8-ea4fd51148eb"},"vehicle_type_id":"4","last_reported":1751731918,"current_range_meters":19600,"station_id":"ce4bhnh2rcd13ifvqgug","pricing_plan_id":"cebpf4jnsgd1na2vs0mg"},{"bike_id":"d1f9d37d-b429-4583-912e-805cf3889e65","system_id":"levelo_inurba_marseille","lat":43.232,"lon":5.35559,"is_reserved":false,"is_disabled":false,"rental_uris":{"android":"levelo://app?vid=d1f9d37d-b429-4583-912e-805cf3889e65","ios":"levelo://app?vid=d1f9d37d-b429-4583-912e-805cf3889e65"},"vehicle_type_id":"4","last_reported":1751731918,"current_range_meters":19600,"station_id":"ce4bhu92rcd13ifvqi70","pricing_plan_id":"cebpf4jnsgd1na2vs0mg"},{"bike_id":"7384a57e-d95e-4016-b410-33edfad0bf75","system_id":"levelo_inurba_marseille","lat":43.24168,"lon":5.36401,"is_reserved":false,"is_disabled":false,"rental_uris":{"android":"levelo://app?vid=7384a57e-d95e-4016-b410-33edfad0bf75","ios":"levelo://app?vid=7384a57e-d95e-4016-b410-33edfad0bf75"},"vehicle_type_id":"4","last_reported":1751731918,"current_range_meters":19600,"station_id":"cpo36qri1sfpv3e86is0","pricing_plan_id":"cebpf4jnsgd1na2vs0mg"},{"bike_id":"69642295-98e8-42b2-b780-533016775486","system_id":"levelo_inurba_marseille","lat":43.241627,"lon":5.363999,"is_reserved":false,"is_disabled":false,"rental_uris":{"android":"levelo://app?vid=69642295-98e8-42b2-b780-533016775486","ios":"levelo://app?vid=69642295-98e8-42b2-b780-533016775486"},"vehicle_type_id":"4","last_reported":1751731918,"current_range_meters":19600,"station_id":"cpo36qri1sfpv3e86is0","pricing_plan_id":"cebpf4jnsgd1na2vs0mg"},{"bike_id":"5281f3dd-41c9-424a-9b20-d2f7f47bac39","system_id":"levelo_inurba_marseille","lat":43.297599,"lon":5.38089,"is_reserved":false,"is_disabled":false,"rental_uris":{"android":"levelo://app?vid=5281f3dd-41c9-424a-9b20-d2f7f47bac39","ios":"levelo://app?vid=5281f3dd-41c9-424a-9b20-d2f7f47bac39"},"vehicle_type_id":"4","last_reported":1751731918,"current_range_meters":20000,"station_id":"","pricing_plan_id":"cebpf4jnsgd1na2vs0mg"},{"bike_id":"80955d0f-8669-4c02-b90f-c6fe20790c37","system_id":"levelo_inurba_marseille","lat":43.23184,"lon":5.35057,"is_reserved":false,"is_disabled":false,"rental_uris":{"android":"levelo://app?vid=80955d0f-8669-4c02-b90f-c6fe20790c37","ios":"levelo://app?vid=80955d0f-8669-4c02-b90f-c6fe20790c37"},"vehicle_type_id":"4","last_reported":1751731918,"current_range_meters":20000,"station_id":"","pricing_plan_id":"cebpf4jnsgd1na2vs0mg"},{"bike_id":"3b22f952-d0bc-4c00-8fd3-7e27b88aea23","system_id":"levelo_inurba_marseille","lat":43.29659,"lon":5.36245,"is_reserved":false,"is_disabled":false,"rental_uris":{"android":"levelo://app?vid=3b22f952-d0bc-4c00-8fd3-7e27b88aea23","ios":"levelo://app?vid=3b22f952-d0bc-4c00-8fd3-7e27b88aea23"},"vehicle_type_id":"4","last_reported":1751731918,"current_range_meters":20000,"station_id":"","pricing_plan_id":"cebpf4jnsgd1na2vs0mg"},{"bike_id":"a779df23-8493-43a3-9d25-bfcff9b577f3","system_id":"levelo_inurba_marseille","lat":43.31225,"lon":5.36855,"is_reserved":false,"is_disabled":false,"rental_uris":{"android":"levelo://app?vid=a779df23-8493-43a3-9d25-bfcff9b577f3","ios":"levelo://app?vid=a779df23-8493-43a3-9d25-bfcff9b577f3"},"vehicle_type_id":"4","last_reported":1751731918,"current_range_meters":20000,"station_id":"ce4bgl92rcd13ifvqbq0","pricing_plan_id":"cebpf4jnsgd1na2vs0mg"},{"bike_id":"a6db5fc2-e5d0-430e-aa71-36b96c5b42ff","system_id":"levelo_inurba_marseille","lat":43.26216,"lon":5.37447,"is_reserved":false,"is_disabled":false,"rental_uris":{"android":"levelo://app?vid=a6db5fc2-e5d0-430e-aa71-36b96c5b42ff","ios":"levelo://app?vid=a6db5fc2-e5d0-430e-aa71-36b96c5b42ff"},"vehicle_type_id":"4","last_reported":1751731918,"current_range_meters":20000,"station_id":"ce4bhgp2rcd13ifvqfc0","pricing_plan_id":"cebpf4jnsgd1na2vs0mg"},{"bike_id":"5b0bbcb4-6399-4435-bd14-8d987d196909","system_id":"levelo_inurba_marseille","lat":43.23184,"lon":5.3998,"is_reserved":false,"is_disabled":false,"rental_uris":{"android":"levelo://app?vid=5b0bbcb4-6399-4435-bd14-8d987d196909","ios":"levelo://app?vid=5b0bbcb4-6399-4435-bd14-8d987d196909"},"vehicle_type_id":"4","last_reported":1751731918,"current_range_meters":20000,"station_id":"ce4bhn12rcd13ifvqgqg","pricing_plan_id":"cebpf4jnsgd1na2vs0mg"},{"bike_id":"e9904884-9c49-4cb4-b986-92ad878b624f","system_id":"levelo_inurba_marseille","lat":43.2956,"lon":5.42285,"is_reserved":false,"is_disabled":false,"rental_uris":{"android":"levelo://app?vid=e9904884-9c49-4cb4-b986-92ad878b624f","ios":"levelo://app?vid=e9904884-9c49-4cb4-b986-92ad878b624f"},"vehicle_type_id":"4","last_reported":1751731918,"current_range_meters":20000,"station_id":"ce4bhph2rcd13ifvqhdg","pricing_plan_id":"cebpf4jnsgd1na2vs0mg"},{"bike_id":"1651de4a-86a7-438f-ac73-c8aa63351922","system_id":"levelo_inurba_marseille","lat":43.330271,"lon":5.390398,"is_reserved":false,"is_disabled":false,"rental_uris":{"android":"levelo://app?vid=1651de4a-86a7-438f-ac73-c8aa63351922","ios":"levelo://app?vid=1651de4a-86a7-438f-ac73-c8aa63351922"},"vehicle_type_id":"4","last_reported":1751731918,"current_range_meters":20000,"station_id":"ce4bhr92rcd13ifvqhrg","pricing_plan_id":"cebpf4jnsgd1na2vs0mg"},{"bike_id":"2dfd661e-73d5-47cb-ad63-0bad0a16eb09","system_id":"levelo_inurba_marseille","lat":43.28851,"lon":5.35856,"is_reserved":false,"is_disabled":false,"rental_uris":{"android":"levelo://app?vid=2dfd661e-73d5-47cb-ad63-0bad0a16eb09","ios":"levelo://app?vid=2dfd661e-73d5-47cb-ad63-0bad0a16eb09"},"vehicle_type_id":"4","last_reported":1751731918,"current_range_meters":20400,"station_id":"ce4bhb12rcd13ifvqem0","pricing_plan_id":"cebpf4jnsgd1na2vs0mg"},{"bike_id":"74533c9e-3638-4682-9867-ad97cde09d6a","system_id":"levelo_inurba_marseille","lat":43.27679,"lon":5.38861,"is_reserved":false,"is_disabled":false,"rental_uris":{"android":"levelo://app?vid=74533c9e-3638-4682-9867-ad97cde09d6a","ios":"levelo://app?vid=74533c9e-3638-4682-9867-ad97cde09d6a"},"vehicle_type_id":"4","last_reported":1751731918,"current_range_meters":20400,"station_id":"ce4bhi12rcd13ifvqfo0","pricing_plan_id":"cebpf4jnsgd1na2vs0mg"},{"bike_id":"ac77698d-484e-413d-8696-832890c0e8d1","system_id":"levelo_inurba_marseille","lat":43.23155,"lon":5.43714,"is_reserved":false,"is_disabled":false,"rental_uris":{"android":"levelo://app?vid=ac77698d-484e-413d-8696-832890c0e8d1","ios":"levelo://app?vid=ac77698d-484e-413d-8696-832890c0e8d1"},"vehicle_type_id":"4","last_reported":1751731918,"current_range_meters":20400,"station_id":"ce4bhmp2rcd13ifvqgog","pricing_plan_id":"cebpf4jnsgd1na2vs0mg"},{"bike_id":"e113175a-26c2-4709-bd2e-8b90ec8dd3ee","system_id":"levelo_inurba_marseille","lat":43.274898,"lon":5.424591,"is_reserved":false,"is_disabled":false,"rental_uris":{"android":"levelo://app?vid=e113175a-26c2-4709-bd2e-8b90ec8dd3ee","ios":"levelo://app?vid=e113175a-26c2-4709-bd2e-8b90ec8dd3ee"},"vehicle_type_id":"4","last_reported":1751731918,"current_range_meters":20400,"station_id":"ce4bhn92rcd13ifvqgrg","pricing_plan_id":"cebpf4jnsgd1na2vs0mg"},{"bike_id":"d0e04904-9db2-4424-bdc3-c864c216422c","system_id":"levelo_inurba_marseille","lat":43.23189,"lon":5.3556,"is_reserved":false,"is_disabled":false,"rental_uris":{"android":"levelo://app?vid=d0e04904-9db2-4424-bdc3-c864c216422c","ios":"levelo://app?vid=d0e04904-9db2-4424-bdc3-c864c216422c"},"vehicle_type_id":"4","last_reported":1751731918,"current_range_meters":20400,"station_id":"ce4bhu92rcd13ifvqi70","pricing_plan_id":"cebpf4jnsgd1na2vs0mg"},{"bike_id":"e8d7fcf5-14a0-430b-a247-ddceafd06b95","system_id":"levelo_inurba_marseille","lat":43.22555,"lon":5.34798,"is_reserved":false,"is_disabled":false,"rental_uris":{"android":"levelo://app?vid=e8d7fcf5-14a0-430b-a247-ddceafd06b95","ios":"levelo://app?vid=e8d7fcf5-14a0-430b-a247-ddceafd06b95"},"vehicle_type_id":"4","last_reported":1751731918,"current_range_meters":20400,"station_id":"st_cvj5dfep6f1abm77gieg","pricing_plan_id":"cebpf4jnsgd1na2vs0mg"},{"bike_id":"d0f90c24-dd03-411b-9731-55305f76b7c8","system_id":"levelo_inurba_marseille","lat":43.2119,"lon":5.35109,"is_reserved":false,"is_disabled":false,"rental_uris":{"android":"levelo://app?vid=d0f90c24-dd03-411b-9731-55305f76b7c8","ios":"levelo://app?vid=d0f90c24-dd03-411b-9731-55305f76b7c8"},"vehicle_type_id":"4","last_reported":1751731918,"current_range_meters":20400,"station_id":"st_cvj6sg6p6f1abm77japg","pricing_plan_id":"cebpf4jnsgd1na2vs0mg"},{"bike_id":"37f2becd-23f9-4f13-a711-38b8024eeec7","system_id":"levelo_inurba_marseille","lat":43.33768,"lon":5.37516,"is_reserved":false,"is_disabled":false,"rental_uris":{"android":"levelo://app?vid=37f2becd-23f9-4f13-a711-38b8024eeec7","ios":"levelo://app?vid=37f2becd-23f9-4f13-a711-38b8024eeec7"},"vehicle_type_id":"4","last_reported":1751731918,"current_range_meters":20800,"station_id":"","pricing_plan_id":"cebpf4jnsgd1na2vs0mg"},{"bike_id":"de303e06-685d-460f-8265-b0311a2793d2","system_id":"levelo_inurba_marseille","lat":43.28462,"lon":5.35888,"is_reserved":false,"is_disabled":false,"rental_uris":{"android":"levelo://app?vid=de303e06-685d-460f-8265-b0311a2793d2","ios":"levelo://app?vid=de303e06-685d-460f-8265-b0311a2793d2"},