{"last_updated":1737457626,"ttl":60,"version":"2.2","data":{"bikes":[{"bike_id":"b74b855a-0a8e-44e1-aa63-99dc34613857","system_id":"levelo_inurba_marseille","lat":43.29886,"lon":5.4367,"is_reserved":false,"is_disabled":false,"rental_uris":{"android":"levelo://app?vid=b74b855a-0a8e-44e1-aa63-99dc34613857","ios":"levelo://app?vid=b74b855a-0a8e-44e1-aa63-99dc34613857"},"vehicle_type_id":"4","last_reported":1737457626,"current_range_meters":28800,"station_id":"ce4bhpp2rcd13ifvqhfg","pricing_plan_id":"cebpf4jnsgd1na2vs0mg"},{"bike_id":"689dda7a-7032-4dcd-8149-6c95173bb231","system_id":"levelo_inurba_marseille","lat":43.30519,"lon":5.36561,"is_reserved":false,"is_disabled":false,"rental_uris":{"android":"levelo://app?vid=689dda7a-7032-4dcd-8149-6c95173bb231","ios":"levelo://app?vid=689dda7a-7032-4dcd-8149-6c95173bb231"},"vehicle_type_id":"4","last_reported":1737457626,"current_range_meters":36000,"station_id":"ce4bgs12rcd13ifvqcag","pricing_plan_id":"cebpf4jnsgd1na2vs0mg"},{"bike_id":"09321f67-cf27-418c-af77-a7bb9615c767","system_id":"levelo_inurba_marseille","lat":43.29597,"lon":5.38125,"is_reserved":false,"is_disabled":true,"rental_uris":{"android":"levelo://app?vid=09321f67-cf27-418c-af77-a7bb9615c767","ios":"levelo://app?vid=09321f67-cf27-418c-af77-a7bb9615c767"},"vehicle_type_id":"4","last_reported":1737457626,"current_range_meters":2000,"station_id":"ce4bgl12rcd13ifvqbo0","pricing_plan_id":"cebpf4jnsgd1na2vs0mg"},{"bike_id":"ee54dd73-88d3-4977-82f9-07d55050b7b1","system_id":"levelo_inurba_marseille","lat":43.29611,"lon":5.37713,"is_reserved":false,"is_disabled":false,"rental_uris":{"android":"levelo://app?vid=ee54dd73-88d3-4977-82f9-07d55050b7b1","ios":"levelo://app?vid=ee54dd73-88d3-4977-82f9-07d55050b7b1"},"vehicle_type_id":"4","last_reported":1737457626,"current_range_meters":39200,"station_id":"ce4bgi92rcd13ifvqb90","pricing_plan_id":"cebpf4jnsgd1na2vs0mg"},{"bike_id":"19ab77b4-671c-4d05-aa42-ad5f7c338f06","system_id":"levelo_inurba_marseille","lat":43.28268,"lon":5.3507,"is_reserved":false,"is_disabled":false,"rental_uris":{"android":"levelo://app?vid=19ab77b4-671c-4d05-aa42-ad5f7c338f06","ios":"levelo://app?vid=19ab77b4-671c-4d05-aa42-ad5f7c338f06"},"vehicle_type_id":"4","last_reported":1737457626,"current_range_meters":38800,"station_id":"ce4bhbp2rcd13ifvqerg","pricing_plan_id":"cebpf4jnsgd1na2vs0mg"},{"bike_id":"b3441528-b46d-47b6-b76c-3fd84aa20027","system_id":"levelo_inurba_marseille","lat":43.30435,"lon":5.38917,"is_reserved":false,"is_disabled":false,"rental_uris":{"android":"levelo://app?vid=b3441528-b46d-47b6-b76c-3fd84aa20027","ios":"levelo://app?vid=b3441528-b46d-47b6-b76c-3fd84aa20027"},"vehicle_type_id":"4","last_reported":1737457626,"current_range_meters":38800,"station_id":"ce4bgk12rcd13ifvqbi0","pricing_plan_id":"cebpf4jnsgd1na2vs0mg"},{"bike_id":"dbfc6bbb-0554-4b09-9ba3-6a0d99a97020","system_id":"levelo_inurba_marseille","lat":43.3054,"lon":5.38414,"is_reserved":false,"is_disabled":false,"rental_uris":{"android":"levelo://app?vid=dbfc6bbb-0554-4b09-9ba3-6a0d99a97020","ios":"levelo://app?vid=dbfc6bbb-0554-4b09-9ba3-6a0d99a97020"},"vehicle_type_id":"4","last_reported":1737457626,"current_range_meters":35200,"station_id":"ce4bgg92rcd13ifvqb30","pricing_plan_id":"cebpf4jnsgd1na2vs0mg"},{"bike_id":"a0117086-9419-4256-a304-3d4e93d47a4e","system_id":"levelo_inurba_marseille","lat":43.33625,"lon":5.41002,"is_reserved":false,"is_disabled":false,"rental_uris":{"android":"levelo://app?vid=a0117086-9419-4256-a304-3d4e93d47a4e","ios":"levelo://app?vid=a0117086-9419-4256-a304-3d4e93d47a4e"},"vehicle_type_id":"4","last_reported":1737457626,"current_range_meters":32800,"station_id":"ce4bhqh2rcd13ifvqhmg","pricing_plan_id":"cebpf4jnsgd1na2vs0mg"},{"bike_id":"0efcb19d-a5d5-4cbb-a0ba-146fb16ac38e","system_id":"levelo_inurba_marseille","lat":43.3055,"lon":5.36541,"is_reserved":false,"is_disabled":false,"rental_uris":{"android":"levelo://app?vid=0efcb19d-a5d5-4cbb-a0ba-146fb16ac38e","ios":"levelo://app?vid=0efcb19d-a5d5-4cbb-a0ba-146fb16ac38e"},"vehicle_type_id":"4","last_reported":1737457626,"current_range_meters":39200,"station_id":"ce4bgs12rcd13ifvqcag","pricing_plan_id":"cebpf4jnsgd1na2vs0mg"},{"bike_id":"e65f406c-7f67-45a7-aa82-f802c824546f","system_id":"levelo_inurba_marseille","lat":43.24076,"lon":5.37759,"is_reserved":false,"is_disabled":false,"rental_uris":{"android":"levelo://app?vid=e65f406c-7f67-45a7-aa82-f802c824546f","ios":"levelo://app?vid=e65f406c-7f67-45a7-aa82-f802c824546f"},"vehicle_type_id":"4","last_reported":1737457626,"current_range_meters":17600,"station_id":"ce4bhnp2rcd13ifvqgvg","pricing_plan_id":"cebpf4jnsgd1na2vs0mg"},{"bike_id":"b23b3532-b0af-4c9d-9c50-5a844e2a5f9c","system_id":"levelo_inurba_marseille","lat":43.3116,"lon":5.38722,"is_reserved":false,"is_disabled":false,"rental_uris":{"android":"levelo://app?vid=b23b3532-b0af-4c9d-9c50-5a844e2a5f9c","ios":"levelo://app?vid=b23b3532-b0af-4c9d-9c50-5a844e2a5f9c"},"vehicle_type_id":"4","last_reported":1737457626,"current_range_meters":32800,"station_id":"ce4bgv12rcd13ifvqcp0","pricing_plan_id":"cebpf4jnsgd1na2vs0mg"},{"bike_id":"45501033-6dca-4eef-a510-3131a1deae19","system_id":"levelo_inurba_marseille","lat":43.30274,"lon":5.37713,"is_reserved":false,"is_disabled":false,"rental_uris":{"android":"levelo://app?vid=45501033-6dca-4eef-a510-3131a1deae19","ios":"levelo://app?vid=45501033-6dca-4eef-a510-3131a1deae19"},"vehicle_type_id":"4","last_reported":1737457626,"current_range_meters":38800,"station_id":"ce4bguh2rcd13ifvqcj0","pricing_plan_id":"cebpf4jnsgd1na2vs0mg"},{"bike_id":"48a4db89-2f72-4ee8-b0ea-b0bc6e5aab84","system_id":"levelo_inurba_marseille","lat":43.26047,"lon":5.39406,"is_reserved":false,"is_disabled":false,"rental_uris":{"android":"levelo://app?vid=48a4db89-2f72-4ee8-b0ea-b0bc6e5aab84","ios":"levelo://app?vid=48a4db89-2f72-4ee8-b0ea-b0bc6e5aab84"},"vehicle_type_id":"4","last_reported":1737457626,"current_range_meters":38800,"station_id":"ce4bhh92rcd13ifvqfj0","pricing_plan_id":"cebpf4jnsgd1na2vs0mg"},{"bike_id":"06cfd958-c471-4dfe-8613-29275f91d3d2","system_id":"levelo_inurba_marseille","lat":43.29068,"lon":5.3716,"is_reserved":false,"is_disabled":false,"rental_uris":{"android":"levelo://app?vid=06cfd958-c471-4dfe-8613-29275f91d3d2","ios":"levelo://app?vid=06cfd958-c471-4dfe-8613-29275f91d3d2"},"vehicle_type_id":"4","last_reported":1737457626,"current_range_meters":6000,"station_id":"ce4bh5p2rcd13ifvqe4g","pricing_plan_id":"cebpf4jnsgd1na2vs0mg"},{"bike_id":"54e47bbf-d358-4fc6-9623-23d2eb6b92a9","system_id":"levelo_inurba_marseille","lat":43.276747,"lon":5.388474,"is_reserved":false,"is_disabled":true,"rental_uris":{"android":"levelo://app?vid=54e47bbf-d358-4fc6-9623-23d2eb6b92a9","ios":"levelo://app?vid=54e47bbf-d358-4fc6-9623-23d2eb6b92a9"},"vehicle_type_id":"4","last_reported":1737457626,"current_range_meters":12800,"station_id":"","pricing_plan_id":"cebpf4jnsgd1na2vs0mg"},{"bike_id":"a2771881-b956-4a9a-9bc9-a89642d437c9","system_id":"levelo_inurba_marseille","lat":43.23199,"lon":5.35557,"is_reserved":false,"is_disabled":false,"rental_uris":{"android":"levelo://app?vid=a2771881-b956-4a9a-9bc9-a89642d437c9","ios":"levelo://app?vid=a2771881-b956-4a9a-9bc9-a89642d437c9"},"vehicle_type_id":"4","last_reported":1737457626,"current_range_meters":38800,"station_id":"ce4bhu92rcd13ifvqi70","pricing_plan_id":"cebpf4jnsgd1na2vs0mg"},{"bike_id":"3b26ab37-3b51-49df-bcb5-b23c8b5b2a76","system_id":"levelo_inurba_marseille","lat":43.32129,"lon":5.36855,"is_reserved":false,"is_disabled":false,"rental_uris":{"android":"levelo://app?vid=3b26ab37-3b51-49df-bcb5-b23c8b5b2a76","ios":"levelo://app?vid=3b26ab37-3b51-49df-bcb5-b23c8b5b2a76"},"vehicle_type_id":"4","last_reported":1737457626,"current_range_meters":13600,"station_id":"","pricing_plan_id":"cebpf4jnsgd1na2vs0mg"},{"bike_id":"8ffb40bd-a254-4409-ba5e-1ced97043db7","system_id":"levelo_inurba_marseille","lat":43.30895,"lon":5.37194,"is_reserved":false,"is_disabled":false,"rental_uris":{"android":"levelo://app?vid=8ffb40bd-a254-4409-ba5e-1ced97043db7","ios":"levelo://app?vid=8ffb40bd-a254-4409-ba5e-1ced97043db7"},"vehicle_type_id":"4","last_reported":1737457626,"current_range_meters":14800,"station_id":"ce4bguh2rcd13ifvqckg","pricing_plan_id":"cebpf4jnsgd1na2vs0mg"},{"bike_id":"15f7d8dc-3899-4f1b-96c2-8405621d2315","system_id":"levelo_inurba_marseille","lat":43.26801,"lon":5.40265,"is_reserved":false,"is_disabled":false,"rental_uris":{"android":"levelo://app?vid=15f7d8dc-3899-4f1b-96c2-8405621d2315","ios":"levelo://app?vid=15f7d8dc-3899-4f1b-96c2-8405621d2315"},"vehicle_type_id":"4","last_reported":1737457626,"current_range_meters":16000,"station_id":"ce501612rcd8frsf0b60","pricing_plan_id":"cebpf4jnsgd1na2vs0mg"},{"bike_id":"ab285cb6-7ad5-4aca-a7ea-3b8b23d331e6","system_id":"levelo_inurba_marseille","lat":43.29023,"lon":5.3865,"is_reserved":false,"is_disabled":false,"rental_uris":{"android":"levelo://app?vid=ab285cb6-7ad5-4aca-a7ea-3b8b23d331e6","ios":"levelo://app?vid=ab285cb6-7ad5-4aca-a7ea-3b8b23d331e6"},"vehicle_type_id":"4","last_reported":1737457626,"current_range_meters":30000,"station_id":"ce4bh4p2rcd13ifvqe0g","pricing_plan_id":"cebpf4jnsgd1na2vs0mg"},{"bike_id":"2e466d53-3427-4222-b411-93a736cb9de6","system_id":"levelo_inurba_marseille","lat":43.314948,"lon":5.373146,"is_reserved":false,"is_disabled":false,"rental_uris":{"android":"levelo://app?vid=2e466d53-3427-4222-b411-93a736cb9de6","ios":"levelo://app?vid=2e466d53-3427-4222-b411-93a736cb9de6"},"vehicle_type_id":"4","last_reported":1737457626,"current_range_meters":35600,"station_id":"ce4bgt12rcd13ifvqcd0","pricing_plan_id":"cebpf4jnsgd1na2vs0mg"},{"bike_id":"79246c68-7de1-4555-9cf4-39bd1625183d","system_id":"levelo_inurba_marseille","lat":43.25486,"lon":5.37678,"is_reserved":false,"is_disabled":false,"rental_uris":{"android":"levelo://app?vid=79246c68-7de1-4555-9cf4-39bd1625183d","ios":"levelo://app?vid=79246c68-7de1-4555-9cf4-39bd1625183d"},"vehicle_type_id":"4","last_reported":1737457626,"current_range_meters":8800,"station_id":"ce4bhh12rcd13ifvqff0","pricing_plan_id":"cebpf4jnsgd1na2vs0mg"},{"bike_id":"d557cfaa-1e2f-4172-9d9e-e3e16b735c64","system_id":"levelo_inurba_marseille","lat":43.29291,"lon":5.37432,"is_reserved":false,"is_disabled":false,"rental_uris":{"android":"levelo://app?vid=d557cfaa-1e2f-4172-9d9e-e3e16b735c64","ios":"levelo://app?vid=d557cfaa-1e2f-4172-9d9e-e3e16b735c64"},"vehicle_type_id":"4","last_reported":1737457626,"current_range_meters":13600,"station_id":"ce4bgi12rcd13ifvqb70","pricing_plan_id":"cebpf4jnsgd1na2vs0mg"},{"bike_id":"9f0e3f9b-2729-470b-985a-e68b6092701a","system_id":"levelo_inurba_marseille","lat":43.33603,"lon":5.41036,"is_reserved":false,"is_disabled":false,"rental_uris":{"android":"levelo://app?vid=9f0e3f9b-2729-470b-985a-e68b6092701a","ios":"levelo://app?vid=9f0e3f9b-2729-470b-985a-e68b6092701a"},"vehicle_type_id":"4","last_reported":1737457626,"current_range_meters":10000,"station_id":"ce4bhqh2rcd13ifvqhmg","pricing_plan_id":"cebpf4jnsgd1na2vs0mg"},{"bike_id":"ab7b1d7a-8ae0-4c4a-9611-7e663b41825a","system_id":"levelo_inurba_marseille","lat":43.32341,"lon":5.38201,"is_reserved":false,"is_disabled":false,"rental_uris":{"android":"levelo://app?vid=ab7b1d7a-8ae0-4c4a-9611-7e663b41825a","ios":"levelo://app?vid=ab7b1d7a-8ae0-4c4a-9611-7e663b41825a"},"vehicle_type_id":"4","last_reported":1737457626,"current_range_meters":38800,"station_id":"ce4bhr12rcd13ifvqhqg","pricing_plan_id":"cebpf4jnsgd1na2vs0mg"},{"bike_id":"d4a18e16-6eb1-455f-9f8d-52c212244e83","system_id":"levelo_inurba_marseille","lat":43.27807,"lon":5.40502,"is_reserved":false,"is_disabled":true,"rental_uris":{"android":"levelo://app?vid=d4a18e16-6eb1-455f-9f8d-52c212244e83","ios":"levelo://app?vid=d4a18e16-6eb1-455f-9f8d-52c212244e83"},"vehicle_type_id":"4","last_reported":1737457626,"current_range_meters":0,"station_id":"","pricing_plan_id":"cebpf4jnsgd1na2vs0mg"},{"bike_id":"9a46fc70-7cd3-48e2-808e-3b382fbb61cd","system_id":"levelo_inurba_marseille","lat":43.23152,"lon":5.43699,"is_reserved":false,"is_disabled":false,"rental_uris":{"android":"levelo://app?vid=9a46fc70-7cd3-48e2-808e-3b382fbb61cd","ios":"levelo://app?vid=9a46fc70-7cd3-48e2-808e-3b382fbb61cd"},"vehicle_type_id":"4","last_reported":1737457626,"current_range_meters":14800,"station_id":"ce4bhmp2rcd13ifvqgog","pricing_plan_id":"cebpf4jnsgd1na2vs0mg"},{"bike_id":"4a31d953-a351-4e4b-a04e-ac11058ef623","system_id":"levelo_inurba_marseille","lat":43.27818,"lon":5.40717,"is_reserved":false,"is_disabled":false,"rental_uris":{"android":"levelo://app?vid=4a31d953-a351-4e4b-a04e-ac11058ef623","ios":"levelo://app?vid=4a31d953-a351-4e4b-a04e-ac11058ef623"},"vehicle_type_id":"4","last_reported":1737457626,"current_range_meters":27200,"station_id":"ce4bhnh2rcd13ifvqgtg","pricing_plan_id":"cebpf4jnsgd1na2vs0mg"},{"bike_id":"d91be513-c350-4df2-80c9-9eac41eaf470","system_id":"levelo_inurba_marseille","lat":43.2797,"lon":5.38716,"is_reserved":false,"is_disabled":true,"rental_uris":{"android":"levelo://app?vid=d91be513-c350-4df2-80c9-9eac41eaf470","ios":"levelo://app?vid=d91be513-c350-4df2-80c9-9eac41eaf470"},"vehicle_type_id":"4","last_reported":1737457626,"current_range_meters":0,"station_id":"ce4bhg12rcd13ifvqf80","pricing_plan_id":"cebpf4jnsgd1na2vs0mg"},{"bike_id":"11463baa-2fa0-42b8-9919-6b1045a603e0","system_id":"levelo_inurba_marseille","lat":43.28933,"lon":5.36644,"is_reserved":false,"is_disabled":false,"rental_uris":{"android":"levelo://app?vid=11463baa-2fa0-42b8-9919-6b1045a603e0","ios":"levelo://app?vid=11463baa-2fa0-42b8-9919-6b1045a603e0"},"vehicle_type_id":"4","last_reported":1737457626,"current_range_meters":34000,"station_id":"ce4bhap2rcd13ifvqek0","pricing_plan_id":"cebpf4jnsgd1na2vs0mg"},{"bike_id":"f136b27f-bb5a-4799-93a2-56b6e8cbd221","system_id":"levelo_inurba_marseille","lat":43.30323,"lon":5.40453,"is_reserved":false,"is_disabled":false,"rental_uris":{"android":"levelo://app?vid=f136b27f-bb5a-4799-93a2-56b6e8cbd221","ios":"levelo://app?vid=f136b27f-bb5a-4799-93a2-56b6e8cbd221"},"vehicle_type_id":"4","last_reported":1737457626,"current_range_meters":33600,"station_id":"ce4bh012rcd13ifvqd10","pricing_plan_id":"cebpf4jnsgd1na2vs0mg"},{"bike_id":"7c981f3d-d8ae-413a-bc44-55e9cce45c22","system_id":"levelo_inurba_marseille","lat":43.30935,"lon":5.36861,"is_reserved":false,"is_disabled":false,"rental_uris":{"android":"levelo://app?vid=7c981f3d-d8ae-413a-bc44-55e9cce45c22","ios":"levelo://app?vid=7c981f3d-d8ae-413a-bc44-55e9cce45c22"},"vehicle_type_id":"4","last_reported":1737457626,"current_range_meters":34000,"station_id":"ce4bgn92rcd13ifvqbvg","pricing_plan_id":"cebpf4jnsgd1na2vs0mg"},{"bike_id":"aede0d6e-6d04-4009-ab60-286c7c24530c","system_id":"levelo_inurba_marseille","lat":43.30161,"lon":5.38086,"is_reserved":false,"is_disabled":false,"rental_uris":{"android":"levelo://app?vid=aede0d6e-6d04-4009-ab60-286c7c24530c","ios":"levelo://app?vid=aede0d6e-6d04-4009-ab60-286c7c24530c"},"vehicle_type_id":"4","last_reported":1737457626,"current_range_meters":30400,"station_id":"ce4bgjp2rcd13ifvqbh0","pricing_plan_id":"cebpf4jnsgd1na2vs0mg"},{"bike_id":"c35f2a56-0945-408c-ab7b-059d91aadb6e","system_id":"levelo_inurba_marseille","lat":43.25905,"lon":5.40904,"is_reserved":false,"is_disabled":false,"rental_uris":{"android":"levelo://app?vid=c35f2a56-0945-408c-ab7b-059d91aadb6e","ios":"levelo://app?vid=c35f2a56-0945-408c-ab7b-059d91aadb6e"},"vehicle_type_id":"4","last_reported":1737457626,"current_range_meters":22400,"station_id":"ce4bhm92rcd13ifvqglg","pricing_plan_id":"cebpf4jnsgd1na2vs0mg"},{"bike_id":"55d64530-e534-4319-9cf6-c96b62f8df41","system_id":"levelo_inurba_marseille","lat":43.30535,"lon":5.38427,"is_reserved":false,"is_disabled":true,"rental_uris":{"android":"levelo://app?vid=55d64530-e534-4319-9cf6-c96b62f8df41","ios":"levelo://app?vid=55d64530-e534-4319-9cf6-c96b62f8df41"},"vehicle_type_id":"4","last_reported":1737457626,"current_range_meters":1200,"station_id":"ce4bgg92rcd13ifvqb30","pricing_plan_id":"cebpf4jnsgd1na2vs0mg"},{"bike_id":"53e56092-bf59-4d37-8073-3e35714bc05d","system_id":"levelo_inurba_marseille","lat":43.23137,"lon":5.43719,"is_reserved":false,"is_disabled":false,"rental_uris":{"android":"levelo://app?vid=53e56092-bf59-4d37-8073-3e35714bc05d","ios":"levelo://app?vid=53e56092-bf59-4d37-8073-3e35714bc05d"},"vehicle_type_id":"4","last_reported":1737457626,"current_range_meters":18000,"station_id":"ce4bhmp2rcd13ifvqgog","pricing_plan_id":"cebpf4jnsgd1na2vs0mg"},{"bike_id":"89e5d999-b64a-4894-b233-fbd2ca840386","system_id":"levelo_inurba_marseille","lat":43.30928,"lon":5.36874,"is_reserved":false,"is_disabled":false,"rental_uris":{"android":"levelo://app?vid=89e5d999-b64a-4894-b233-fbd2ca840386","ios":"levelo://app?vid=89e5d999-b64a-4894-b233-fbd2ca840386"},"vehicle_type_id":"4","last_reported":1737457626,"current_range_meters":32000,"station_id":"ce4bgn92rcd13ifvqbvg","pricing_plan_id":"cebpf4jnsgd1na2vs0mg"},{"bike_id":"7f865fb1-a21b-4393-a12d-712b54b8725b","system_id":"levelo_inurba_marseille","lat":43.26687,"lon":5.38272,"is_reserved":false,"is_disabled":false,"rental_uris":{"android":"levelo://app?vid=7f865fb1-a21b-4393-a12d-712b54b8725b","ios":"levelo://app?vid=7f865fb1-a21b-4393-a12d-712b54b8725b"},"vehicle_type_id":"4","last_reported":1737457626,"current_range_meters":32800,"station_id":"ce4bhg92rcd13ifvqf90","pricing_plan_id":"cebpf4jnsgd1na2vs0mg"},{"bike_id":"af6bcfd1-3b19-4008-8265-bf18e02e30ae","system_id":"levelo_inurba_marseille","lat":43.31331,"lon":5.39698,"is_reserved":false,"is_disabled":false,"rental_uris":{"android":"levelo://app?vid=af6bcfd1-3b19-4008-8265-bf18e02e30ae","ios":"levelo://app?vid=af6bcfd1-3b19-4008-8265-bf18e02e30ae"},"vehicle_type_id":"4","last_reported":1737457626,"current_range_meters":38800,"station_id":"ce4bgvp2rcd13ifvqcu0","pricing_plan_id":"cebpf4jnsgd1na2vs0mg"},{"bike_id":"80f6dc3a-c3ca-4687-bf99-15113c504e75","system_id":"levelo_inurba_marseille","lat":43.30415,"lon":5.41285,"is_reserved":false,"is_disabled":false,"rental_uris":{"android":"levelo://app?vid=80f6dc3a-c3ca-4687-bf99-15113c504e75","ios":"levelo://app?vid=80f6dc3a-c3ca-4687-bf99-15113c504e75"},"vehicle_type_id":"4","last_reported":1737457626,"current_range_meters":38000,"station_id":"ce4bhop2rcd13ifvqh8g","pricing_plan_id":"cebpf4jnsgd1na2vs0mg"},{"bike_id":"a14619f7-ad8e-4e6d-a444-e12e193b23eb","system_id":"levelo_inurba_marseille","lat":43.27935,"lon":5.41047,"is_reserved":false,"is_disabled":false,"rental_uris":{"android":"levelo://app?vid=a14619f7-ad8e-4e6d-a444-e12e193b23eb","ios":"levelo://app?vid=a14619f7-ad8e-4e6d-a444-e12e193b23eb"},"vehicle_type_id":"4","last_reported":1737457626,"current_range_meters":30000,"station_id":"ce4bhnp2rcd13ifvqh0g","pricing_plan_id":"cebpf4jnsgd1na2vs0mg"},{"bike_id":"4a95da1b-b6c5-4a4e-9930-21a2e0b47b1d","system_id":"levelo_inurba_marseille","lat":43.27969,"lon":5.41669,"is_reserved":false,"is_disabled":false,"rental_uris":{"android":"levelo://app?vid=4a95da1b-b6c5-4a4e-9930-21a2e0b47b1d","ios":"levelo://app?vid=4a95da1b-b6c5-4a4e-9930-21a2e0b47b1d"},"vehicle_type_id":"4","last_reported":1737457626,"current_range_meters":38800,"station_id":"ce4bho12rcd13ifvqh1g","pricing_plan_id":"cebpf4jnsgd1na2vs0mg"},{"bike_id":"c6aec08a-95b2-468e-b6ba-3552b798296e","system_id":"levelo_inurba_marseille","lat":43.33617,"lon":5.40988,"is_reserved":false,"is_disabled":false,"rental_uris":{"android":"levelo://app?vid=c6aec08a-95b2-468e-b6ba-3552b798296e","ios":"levelo://app?vid=c6aec08a-95b2-468e-b6ba-3552b798296e"},"vehicle_type_id":"4","last_reported":1737457626,"current_range_meters":28400,"station_id":"ce4bhqh2rcd13ifvqhmg","pricing_plan_id":"cebpf4jnsgd1na2vs0mg"},{"bike_id":"57089681-4dfb-4ed4-9d3a-5124dafb4159","system_id":"levelo_inurba_marseille","lat":43.270678,"lon":5.422818,"is_reserved":false,"is_disabled":false,"rental_uris":{"android":"levelo://app?vid=57089681-4dfb-4ed4-9d3a-5124dafb4159","ios":"levelo://app?vid=57089681-4dfb-4ed4-9d3a-5124dafb4159"},"vehicle_type_id":"4","last_reported":1737457626,"current_range_meters":35600,"station_id":"ce4bhk92rcd13ifvqgb0","pricing_plan_id":"cebpf4jnsgd1na2vs0mg"},{"bike_id":"34c6455e-606a-417a-b7ac-febb3b252d03","system_id":"levelo_inurba_marseille","lat":43.30352,"lon":5.41886,"is_reserved":false,"is_disabled":false,"rental_uris":{"android":"levelo://app?vid=34c6455e-606a-417a-b7ac-febb3b252d03","ios":"levelo://app?vid=34c6455e-606a-417a-b7ac-febb3b252d03"},"vehicle_type_id":"4","last_reported":1737457626,"current_range_meters":18800,"station_id":"ce4bhop2rcd13ifvqh7g","pricing_plan_id":"cebpf4jnsgd1na2vs0mg"},{"bike_id":"580fd682-a63d-4470-bd40-a527c3d7e682","system_id":"levelo_inurba_marseille","lat":43.250041,"lon":5.389264,"is_reserved":false,"is_disabled":false,"rental_uris":{"android":"levelo://app?vid=580fd682-a63d-4470-bd40-a527c3d7e682","ios":"levelo://app?vid=580fd682-a63d-4470-bd40-a527c3d7e682"},"vehicle_type_id":"4","last_reported":1737457626,"current_range_meters":38800,"station_id":"ce4bhgp2rcd13ifvqfd0","pricing_plan_id":"cebpf4jnsgd1na2vs0mg"},{"bike_id":"845f61d5-df34-4df2-90eb-7138fc4094b7","system_id":"levelo_inurba_marseille","lat":43.31361,"lon":5.3851,"is_reserved":false,"is_disabled":false,"rental_uris":{"android":"levelo://app?vid=845f61d5-df34-4df2-90eb-7138fc4094b7","ios":"levelo://app?vid=845f61d5-df34-4df2-90eb-7138fc4094b7"},"vehicle_type_id":"4","last_reported":1737457626,"current_range_meters":27600,"station_id":"ce4bgt92rcd13ifvqcf0","pricing_plan_id":"cebpf4jnsgd1na2vs0mg"},{"bike_id":"78ead62c-8e6d-4caa-b268-759e0d7ac090","system_id":"levelo_inurba_marseille","lat":43.27485,"lon":5.42473,"is_reserved":false,"is_disabled":false,"rental_uris":{"android":"levelo://app?vid=78ead62c-8e6d-4caa-b268-759e0d7ac090","ios":"levelo://app?vid=78ead62c-8e6d-4caa-b268-759e0d7ac090"},"vehicle_type_id":"4","last_reported":1737457626,"current_range_meters":22800,"station_id":"ce4bhn92rcd13ifvqgrg","pricing_plan_id":"cebpf4jnsgd1na2vs0mg"},{"bike_id":"cc958890-0ed5-44c2-a0d9-92928b491c54","system_id":"levelo_inurba_marseille","lat":43.27205,"lon":5.39145,"is_reserved":false,"is_disabled":false,"rental_uris":{"android":"levelo://app?vid=cc958890-0ed5-44c2-a0d9-92928b491c54","ios":"levelo://app?vid=cc958890-0ed5-44c2-a0d9-92928b491c54"},"vehicle_type_id":"4","last_reported":1737457626,"current_range_meters":38800,"station_id":"ce4bhhp2rcd13ifvqfm0","pricing_plan_id":"cebpf4jnsgd1na2vs0mg"},{"bike_id":"2102d0f0-fab3-4e33-a186-fdfb2121315b","system_id":"levelo_inurba_marseille","lat":43.29574,"lon":5.3998,"is_reserved":false,"is_disabled":false,"rental_uris":{"android":"levelo://app?vid=2102d0f0-fab3-4e33-a186-fdfb2121315b","ios":"levelo://app?vid=2102d0f0-fab3-4e33-a186-fdfb2121315b"},"vehicle_type_id":"4","last_reported":1737457626,"current_range_meters":35600,"station_id":"ce4bh312rcd13ifvqdj0","pricing_plan_id":"cebpf4jnsgd1na2vs0mg"},{"bike_id":"89246613-701f-4c68-9d92-02bfec38ebf0","system_id":"levelo_inurba_marseille","lat":43.26793,"lon":5.40267,"is_reserved":false,"is_disabled":false,"rental_uris":{"android":"levelo://app?vid=89246613-701f-4c68-9d92-02bfec38ebf0","ios":"levelo://app?vid=89246613-701f-4c68-9d92-02bfec38ebf0"},"vehicle_type_id":"4","last_reported":1737457626,"current_range_meters":39200,"station_id":"ce501612rcd8frsf0b60","pricing_plan_id":"cebpf4jnsgd1na2vs0mg"},{"bike_id":"ea4936bb-a020-48d0-ad34-8742c0d8a98c","system_id":"levelo_inurba_marseille","lat":43.30915,"lon":5.36842,"is_reserved":false,"is_disabled":false,"rental_uris":{"android":"levelo://app?vid=ea4936bb-a020-48d0-ad34-8742c0d8a98c","ios":"levelo://app?vid=ea4936bb-a020-48d0-ad34-8742c0d8a98c"},"vehicle_type_id":"4","last_reported":1737457626,"current_range_meters":31200,"station_id":"ce4bgn92rcd13ifvqbvg","pricing_plan_id":"cebpf4jnsgd1na2vs0mg"},{"bike_id":"31257c94-14b2-42e2-9664-77ef70ea51d9","system_id":"levelo_inurba_marseille","lat":43.324809,"lon":5.365715,"is_reserved":false,"is_disabled":false,"rental_uris":{"android":"levelo://app?vid=31257c94-14b2-42e2-9664-77ef70ea51d9","ios":"levelo://app?vid=31257c94-14b2-42e2-9664-77ef70ea51d9"},"vehicle_type_id":"4","last_reported":1737457626,"current_range_meters":38800,"station_id":"ce4bhs12rcd13ifvqhvg","pricing_plan_id":"cebpf4jnsgd1na2vs0mg"},{"bike_id":"bc44b838-5e20-4546-8ae8-e1fd2cf0cd3c","system_id":"levelo_inurba_marseille","lat":43.27541,"lon":5.38449,"is_reserved":false,"is_disabled":false,"rental_uris":{"android":"levelo://app?vid=bc44b838-5e20-4546-8ae8-e1fd2cf0cd3c","ios":"levelo://app?vid=bc44b838-5e20-4546-8ae8-e1fd2cf0cd3c"},"vehicle_type_id":"4","last_reported":1737457626,"current_range_meters":38800,"station_id":"ce4bhh92rcd13ifvqfi0","pricing_plan_id":"cebpf4jnsgd1na2vs0mg"},{"bike_id":"d6da2584-b3dd-457b-8a6a-58d03381838a","system_id":"levelo_inurba_marseille","lat":43.30139,"lon":5.37427,"is_reserved":false,"is_disabled":false,"rental_uris":{"android":"levelo://app?vid=d6da2584-b3dd-457b-8a6a-58d03381838a","ios":"levelo://app?vid=d6da2584-b3dd-457b-8a6a-58d03381838a"},"vehicle_type_id":"4","last_reported":1737457626,"current_range_meters":39200,"station_id":"ce4bgs92rcd13ifvqcc0","pricing_plan_id":"cebpf4jnsgd1na2vs0mg"},{"bike_id":"a3f90777-1b74-4cb6-afca-03f80d642831","system_id":"levelo_inurba_marseille","lat":43.26959,"lon":5.38637,"is_reserved":false,"is_disabled":false,"rental_uris":{"android":"levelo://app?vid=a3f90777-1b74-4cb6-afca-03f80d642831","ios":"levelo://app?vid=a3f90777-1b74-4cb6-afca-03f80d642831"},"vehicle_type_id":"4","last_reported":1737457626,"current_range_meters":38800,"station_id":"ce4bhh92rcd13ifvqfh0","pricing_plan_id":"cebpf4jnsgd1na2vs0mg"},{"bike_id":"b6cc31be-151e-4d56-8839-e71a9cd45b18","system_id":"levelo_inurba_marseille","lat":43.23202,"lon":5.3555,"is_reserved":false,"is_disabled":false,"rental_uris":{"android":"levelo://app?vid=b6cc31be-151e-4d56-8839-e71a9cd45b18","ios":"levelo://app?vid=b6cc31be-151e-4d56-8839-e71a9cd45b18"},"vehicle_type_id":"4","last_reported":1737457626,"current_range_meters":37600,"station_id":"ce4bhu92rcd13ifvqi70","pricing_plan_id":"cebpf4jnsgd1na2vs0mg"},{"bike_id":"1a0a2514-1dbf-4be6-9e23-d2b90daf2f22","system_id":"levelo_inurba_marseille","lat":43.2315,"lon":5.43711,"is_reserved":false,"is_disabled":false,"rental_uris":{"android":"levelo://app?vid=1a0a2514-1dbf-4be6-9e23-d2b90daf2f22","ios":"levelo://app?vid=1a0a2514-1dbf-4be6-9e23-d2b90daf2f22"},"vehicle_type_id":"4","last_reported":1737457626,"current_range_meters":9600,"station_id":"ce4bhmp2rcd13ifvqgog","pricing_plan_id":"cebpf4jnsgd1na2vs0mg"},{"bike_id":"28201ba4-e578-471a-844b-6e5aba6eabab","system_id":"levelo_inurba_marseille","lat":43.31168,"lon":5.38708,"is_reserved":false,"is_disabled":false,"rental_uris":{"android":"levelo://app?vid=28201ba4-e578-471a-844b-6e5aba6eabab","ios":"levelo://app?vid=28201ba4-e578-471a-844b-6e5aba6eabab"},"vehicle_type_id":"4","last_reported":1737457626,"current_range_meters":38800,"station_id":"ce4bgv12rcd13ifvqcp0","pricing_plan_id":"cebpf4jnsgd1na2vs0mg"},{"bike_id":"51ef1423-7a3e-4cca-ae71-2b6e28f69bdf","system_id":"levelo_inurba_marseille","lat":43.3045,"lon":5.37914,"is_reserved":false,"is_disabled":false,"rental_uris":{"android":"levelo://app?vid=51ef1423-7a3e-4cca-ae71-2b6e28f69bdf","ios":"levelo://app?vid=51ef1423-7a3e-4cca-ae71-2b6e28f69bdf"},"vehicle_type_id":"4","last_reported":1737457626,"current_range_meters":39200,"station_id":"ce4bgup2rcd13ifvqcn0","pricing_plan_id":"cebpf4jnsgd1na2vs0mg"},{"bike_id":"e769477c-b503-4bb8-b7d3-b7f7ff9ddf2d","system_id":"levelo_inurba_marseille","lat":43.29197,"lon":5.36927,"is_reserved":false,"is_disabled":false,"rental_uris":{"android":"levelo://app?vid=e769477c-b503-4bb8-b7d3-b7f7ff9ddf2d","ios":"levelo://app?vid=e769477c-b503-4bb8-b7d3-b7f7ff9ddf2d"},"vehicle_type_id":"4","last_reported":1737457626,"current_range_meters":10000,"station_id":"","pricing_plan_id":"cebpf4jnsgd1na2vs0mg"},{"bike_id":"28ef1c1e-dd89-43e8-817b-9b489831397b","system_id":"levelo_inurba_marseille","lat":43.27097,"lon":5.39618,"is_reserved":false,"is_disabled":true,"rental_uris":{"android":"levelo://app?vid=28ef1c1e-dd89-43e8-817b-9b489831397b","ios":"levelo://app?vid=28ef1c1e-dd89-43e8-817b-9b489831397b"},"vehicle_type_id":"4","last_reported":1737457626,"current_range_meters":0,"station_id":"","pricing_plan_id":"cebpf4jnsgd1na2vs0mg"},{"bike_id":"bf04cb94-1bb7-4539-a87b-98c1f139ab50","system_id":"levelo_inurba_marseille","lat":43.2992,"lon":5.37493,"is_reserved":false,"is_disabled":false,"rental_uris":{"android":"levelo://app?vid=bf04cb94-1bb7-4539-a87b-98c1f139ab50","ios":"levelo://app?vid=bf04cb94-1bb7-4539-a87b-98c1f139ab50"},"vehicle_type_id":"4","last_reported":1737457626,"current_range_meters":24800,"station_id":"ce4bgjh2rcd13ifvqbg0","pricing_plan_id":"cebpf4jnsgd1na2vs0mg"},{"bike_id":"973357c8-dead-42ca-92e9-500225bc994c","system_id":"levelo_inurba_marseille","lat":43.33011,"lon":5.39068,"is_reserved":false,"is_disabled":false,"rental_uris":{"android":"levelo://app?vid=973357c8-dead-42ca-92e9-500225bc994c","ios":"levelo://app?vid=973357c8-dead-42ca-92e9-500225bc994c"},"vehicle_type_id":"4","last_reported":1737457626,"current_range_meters":39200,"station_id":"ce4bhr92rcd13ifvqhrg","pricing_plan_id":"cebpf4jnsgd1na2vs0mg"},{"bike_id":"73041659-a0a0-4fb2-838c-fe2aba037612","system_id":"levelo_inurba_marseille","lat":43.29557,"lon":5.375154,"is_reserved":false,"is_disabled":false,"rental_uris":{"android":"levelo://app?vid=73041659-a0a0-4fb2-838c-fe2aba037612","ios":"levelo://app?vid=73041659-a0a0-4fb2-838c-fe2aba037612"},"vehicle_type_id":"4","last_reported":1737457626,"current_range_meters":7200,"station_id":"ce4bgh92rcd13ifvqb50","pricing_plan_id":"cebpf4jnsgd1na2vs0mg"},{"bike_id":"9147097d-da43-46f3-8949-6317a1ac1f83","system_id":"levelo_inurba_marseille","lat":43.26194,"lon":5.37926,"is_reserved":false,"is_disabled":false,"rental_uris":{"android":"levelo://app?vid=9147097d-da43-46f3-8949-6317a1ac1f83","ios":"levelo://app?vid=9147097d-da43-46f3-8949-6317a1ac1f83"},"vehicle_type_id":"4","last_reported":1737457626,"current_range_meters":32000,"station_id":"ce4bhjp2rcd13ifvqg90","pricing_plan_id":"cebpf4jnsgd1na2vs0mg"},{"bike_id":"526c1d72-da5c-48b1-b724-d5230cfe22b0","system_id":"levelo_inurba_marseille","lat":43.27213,"lon":5.39203,"is_reserved":false,"is_disabled":false,"rental_uris":{"android":"levelo://app?vid=526c1d72-da5c-48b1-b724-d5230cfe22b0","ios":"levelo://app?vid=526c1d72-da5c-48b1-b724-d5230cfe22b0"},"vehicle_type_id":"4","last_reported":1737457626,"current_range_meters":33200,"station_id":"ce4bhhp2rcd13ifvqfm0","pricing_plan_id":"cebpf4jnsgd1na2vs0mg"},{"bike_id":"584a2a6a-e927-4176-a83e-1ee67ef5c40a","system_id":"levelo_inurba_marseille","lat":43.30184,"lon":5.38054,"is_reserved":false,"is_disabled":false,"rental_uris":{"android":"levelo://app?vid=584a2a6a-e927-4176-a83e-1ee67ef5c40a","ios":"levelo://app?vid=584a2a6a-e927-4176-a83e-1ee67ef5c40a"},"vehicle_type_id":"4","last_reported":1737457626,"current_range_meters":24000,"station_id":"ce4bgjp2rcd13ifvqbh0","pricing_plan_id":"cebpf4jnsgd1na2vs0mg"},{"bike_id":"c7cba809-a1a4-4fc3-822b-5d1e04e1a174","system_id":"levelo_inurba_marseille","lat":43.29033,"lon":5.37569,"is_reserved":false,"is_disabled":false,"rental_uris":{"android":"levelo://app?vid=c7cba809-a1a4-4fc3-822b-5d1e04e1a174","ios":"levelo://app?vid=c7cba809-a1a4-4fc3-822b-5d1e04e1a174"},"vehicle_type_id":"4","last_reported":1737457626,"current_range_meters":18000,"station_id":"ce4bh692rcd13ifvqe90","pricing_plan_id":"cebpf4jnsgd1na2vs0mg"},{"bike_id":"7b946c49-2d4c-4d19-a199-afcaf4b5bb30","system_id":"levelo_inurba_marseille","lat":43.30951,"lon":5.3903,"is_reserved":false,"is_disabled":false,"rental_uris":{"android":"levelo://app?vid=7b946c49-2d4c-4d19-a199-afcaf4b5bb30","ios":"levelo://app?vid=7b946c49-2d4c-4d19-a199-afcaf4b5bb30"},"vehicle_type_id":"4","last_reported":1737457626,"current_range_meters":33600,"station_id":"ce4bgup2rcd13ifvqco0","pricing_plan_id":"cebpf4jnsgd1na2vs0mg"},{"bike_id":"6d170c43-ed25-40d3-b88a-cefadd58002d","system_id":"levelo_inurba_marseille","lat":43.33596,"lon":5.41049,"is_reserved":false,"is_disabled":false,"rental_uris":{"android":"levelo://app?vid=6d170c43-ed25-40d3-b88a-cefadd58002d","ios":"levelo://app?vid=6d170c43-ed25-40d3-b88a-cefadd58002d"},"vehicle_type_id":"4","last_reported":1737457626,"current_range_meters":25200,"station_id":"ce4bhqh2rcd13ifvqhmg","pricing_plan_id":"cebpf4jnsgd1na2vs0mg"},{"bike_id":"1bc4f972-1eb6-4a1e-8920-bbde83f7ed86","system_id":"levelo_inurba_marseille","lat":43.309096,"lon":5.368606,"is_reserved":false,"is_disabled":false,"rental_uris":{"android":"levelo://app?vid=1bc4f972-1eb6-4a1e-8920-bbde83f7ed86","ios":"levelo://app?vid=1bc4f972-1eb6-4a1e-8920-bbde83f7ed86"},"vehicle_type_id":"4","last_reported":1737457626,"current_range_meters":38800,"station_id":"ce4bgn92rcd13ifvqbvg","pricing_plan_id":"cebpf4jnsgd1na2vs0mg"},{"bike_id":"1f5cb474-798b-4357-9d76-fbb42e648fb5","system_id":"levelo_inurba_marseille","lat":43.28614,"lon":5.35104,"is_reserved":false,"is_disabled":false,"rental_uris":{"android":"levelo://app?vid=1f5cb474-798b-4357-9d76-fbb42e648fb5","ios":"levelo://app?vid=1f5cb474-798b-4357-9d76-fbb42e648fb5"},"vehicle_type_id":"4","last_reported":1737457626,"current_range_meters":16000,"station_id":"ce4bhch2rcd13ifvqeug","pricing_plan_id":"cebpf4jnsgd1na2vs0mg"},{"bike_id":"bf0e78c0-c20e-40ed-934e-824b52be1280","system_id":"levelo_inurba_marseille","lat":43.293551,"lon":5.365986,"is_reserved":false,"is_disabled":false,"rental_uris":{"android":"levelo://app?vid=bf0e78c0-c20e-40ed-934e-824b52be1280","ios":"levelo://app?vid=bf0e78c0-c20e-40ed-934e-824b52be1280"},"vehicle_type_id":"4","last_reported":1737457626,"current_range_meters":37600,"station_id":"ce4bgph2rcd13ifvqc2g","pricing_plan_id":"cebpf4jnsgd1na2vs0mg"},{"bike_id":"b9a085cb-bb5b-4cc1-84ad-d76baa6c959d","system_id":"levelo_inurba_marseille","lat":43.30138,"lon":5.38101,"is_reserved":false,"is_disabled":true,"rental_uris":{"android":"levelo://app?vid=b9a085cb-bb5b-4cc1-84ad-d76baa6c959d","ios":"levelo://app?vid=b9a085cb-bb5b-4cc1-84ad-d76baa6c959d"},"vehicle_type_id":"4","last_reported":1737457626,"current_range_meters":36000,"station_id":"ce4bgjp2rcd13ifvqbh0","pricing_plan_id":"cebpf4jnsgd1na2vs0mg"},{"bike_id":"11c7c02c-d0f3-4744-ae00-776b2f00515e","system_id":"levelo_inurba_marseille","lat":43.26804,"lon":5.40266,"is_reserved":false,"is_disabled":false,"rental_uris":{"android":"levelo://app?vid=11c7c02c-d0f3-4744-ae00-776b2f00515e","ios":"levelo://app?vid=11c7c02c-d0f3-4744-ae00-776b2f00515e"},"vehicle_type_id":"4","last_reported":1737457626,"current_range_meters":38400,"station_id":"ce501612rcd8frsf0b60","pricing_plan_id":"cebpf4jnsgd1na2vs0mg"},{"bike_id":"b1e7c0e3-f276-47c4-8832-08cec6a6eeae","system_id":"levelo_inurba_marseille","lat":43.30536,"lon":5.36715,"is_reserved":false,"is_disabled":false,"rental_uris":{"android":"levelo://app?vid=b1e7c0e3-f276-47c4-8832-08cec6a6eeae","ios":"levelo://app?vid=b1e7c0e3-f276-47c4-8832-08cec6a6eeae"},"vehicle_type_id":"4","last_reported":1737457626,"current_range_meters":38400,"station_id":"ce4bgrp2rcd13ifvqc9g","pricing_plan_id":"cebpf4jnsgd1na2vs0mg"},{"bike_id":"69c5f992-b640-46d6-bd55-6c4390105b36","system_id":"levelo_inurba_marseille","lat":43.29841,"lon":5.36273,"is_reserved":false,"is_disabled":false,"rental_uris":{"android":"levelo://app?vid=69c5f992-b640-46d6-bd55-6c4390105b36","ios":"levelo://app?vid=69c5f992-b640-46d6-bd55-6c4390105b36"},"vehicle_type_id":"4","last_reported":1737457626,"current_range_meters":24400,"station_id":"ce4bgpp2rcd13ifvqc3g","pricing_plan_id":"cebpf4jnsgd1na2vs0mg"},{"bike_id":"9eeea684-ccf3-4470-aa22-ea4b08f9b444","system_id":"levelo_inurba_marseille","lat":43.3043,"lon":5.38894,"is_reserved":false,"is_disabled":false,"rental_uris":{"android":"levelo://app?vid=9eeea684-ccf3-4470-aa22-ea4b08f9b444","ios":"levelo://app?vid=9eeea684-ccf3-4470-aa22-ea4b08f9b444"},"vehicle_type_id":"4","last_reported":1737457626,"current_range_meters":38400,"station_id":"ce4bgk12rcd13ifvqbi0","pricing_plan_id":"cebpf4jnsgd1na2vs0mg"},{"bike_id":"64b66824-f064-4903-8358-094ea3275fbf","system_id":"levelo_inurba_marseille","lat":43.302854,"lon":5.377112,"is_reserved":false,"is_disabled":false,"rental_uris":{"android":"levelo://app?vid=64b66824-f064-4903-8358-094ea3275fbf","ios":"levelo://app?vid=64b66824-f064-4903-8358-094ea3275fbf"},"vehicle_type_id":"4","last_reported":1737457626,"current_range_meters":38800,"station_id":"ce4bguh2rcd13ifvqcj0","pricing_plan_id":"cebpf4jnsgd1na2vs0mg"},{"bike_id":"f49b82ce-fafb-478c-8aa9-8d33496ba257","system_id":"levelo_inurba_marseille","lat":43.25073,"lon":5.40367,"is_reserved":false,"is_disabled":false,"rental_uris":{"android":"levelo://app?vid=f49b82ce-fafb-478c-8aa9-8d33496ba257","ios":"levelo://app?vid=f49b82ce-fafb-478c-8aa9-8d33496ba257"},"vehicle_type_id":"4","last_reported":1737457626,"current_range_meters":20800,"station_id":"ce4bhlh2rcd13ifvqgig","pricing_plan_id":"cebpf4jnsgd1na2vs0mg"},{"bike_id":"1b1acf8d-54ac-4efe-96ff-66c901f3aba1","system_id":"levelo_inurba_marseille","lat":43.305273,"lon":5.365403,"is_reserved":false,"is_disabled":false,"rental_uris":{"android":"levelo://app?vid=1b1acf8d-54ac-4efe-96ff-66c901f3aba1","ios":"levelo://app?vid=1b1acf8d-54ac-4efe-96ff-66c901f3aba1"},"vehicle_type_id":"4","last_reported":1737457626,"current_range_meters":38800,"station_id":"ce4bgs12rcd13ifvqcag","pricing_plan_id":"cebpf4jnsgd1na2vs0mg"},{"bike_id":"d1c0ae1b-2227-4d30-b950-063d288cef29","system_id":"levelo_inurba_marseille","lat":43.24072,"lon":5.37765,"is_reserved":false,"is_disabled":false,"rental_uris":{"android":"levelo://app?vid=d1c0ae1b-2227-4d30-b950-063d288cef29","ios":"levelo://app?vid=d1c0ae1b-2227-4d30-b950-063d288cef29"},"vehicle_type_id":"4","last_reported":1737457626,"current_range_meters":38800,"station_id":"ce4bhnp2rcd13ifvqgvg","pricing_plan_id":"cebpf4jnsgd1na2vs0mg"},{"bike_id":"28cb4c2d-387a-41d3-ab8b-b351efbd2d00","system_id":"levelo_inurba_marseille","lat":43.2934,"lon":5.37855,"is_reserved":false,"is_disabled":false,"rental_uris":{"android":"levelo://app?vid=28cb4c2d-387a-41d3-ab8b-b351efbd2d00","ios":"levelo://app?vid=28cb4c2d-387a-41d3-ab8b-b351efbd2d00"},"vehicle_type_id":"4","last_reported":1737457626,"current_range_meters":30000,"station_id":"ce4bgjh2rcd13ifvqbf0","pricing_plan_id":"cebpf4jnsgd1na2vs0mg"},{"bike_id":"a2c00364-7a28-4f8d-a181-db3ffbb6afde","system_id":"levelo_inurba_marseille","lat":43.29178,"lon":5.35806,"is_reserved":false,"is_disabled":false,"rental_uris":{"android":"levelo://app?vid=a2c00364-7a28-4f8d-a181-db3ffbb6afde","ios":"levelo://app?vid=a2c00364-7a28-4f8d-a181-db3ffbb6afde"},"vehicle_type_id":"4","last_reported":1737457626,"current_range_meters":38800,"station_id":"ce4bhb12rcd13ifvqel0","pricing_plan_id":"cebpf4jnsgd1na2vs0mg"},{"bike_id":"2089036c-5db7-48b8-83e7-b7fbc7dff2e5","system_id":"levelo_inurba_marseille","lat":43.2668,"lon":5.38249,"is_reserved":false,"is_disabled":false,"rental_uris":{"android":"levelo://app?vid=2089036c-5db7-48b8-83e7-b7fbc7dff2e5","ios":"levelo://app?vid=2089036c-5db7-48b8-83e7-b7fbc7dff2e5"},"vehicle_type_id":"4","last_reported":1737457626,"current_range_meters":38000,"station_id":"ce4bhg92rcd13ifvqf90","pricing_plan_id":"cebpf4jnsgd1na2vs0mg"},{"bike_id":"a28f19b5-d5b3-4099-825a-f05b050fc798","system_id":"levelo_inurba_marseille","lat":43.26278,"lon":5.37433,"is_reserved":false,"is_disabled":false,"rental_uris":{"android":"levelo://app?vid=a28f19b5-d5b3-4099-825a-f05b050fc798","ios":"levelo://app?vid=a28f19b5-d5b3-4099-825a-f05b050fc798"},"vehicle_type_id":"4","last_reported":1737457626,"current_range_meters":22400,"station_id":"ce4bhah2rcd13ifvqei0","pricing_plan_id":"cebpf4jnsgd1na2vs0mg"},{"bike_id":"e94df975-f4f3-441c-8885-9aa8f0e19aac","system_id":"levelo_inurba_marseille","lat":43.28448,"lon":5.35901,"is_reserved":false,"is_disabled":false,"rental_uris":{"android":"levelo://app?vid=e94df975-f4f3-441c-8885-9aa8f0e19aac","ios":"levelo://app?vid=e94df975-f4f3-441c-8885-9aa8f0e19aac"},"vehicle_type_id":"4","last_reported":1737457626,"current_range_meters":12400,"station_id":"ce4bhah2rcd13ifvqei0","pricing_plan_id":"cebpf4jnsgd1na2vs0mg"},{"bike_id":"80bcc3e7-77de-44a5-8965-f19acb6d7452","system_id":"levelo_inurba_marseille","lat":43.32991,"lon":5.39069,"is_reserved":false,"is_disabled":false,"rental_uris":{"android":"levelo://app?vid=80bcc3e7-77de-44a5-8965-f19acb6d7452","ios":"levelo://app?vid=80bcc3e7-77de-44a5-8965-f19acb6d7452"},"vehicle_type_id":"4","last_reported":1737457626,"current_range_meters":39200,"station_id":"ce4bhr92rcd13ifvqhrg","pricing_plan_id":"cebpf4jnsgd1na2vs0mg"},{"bike_id":"b8e67c99-6b85-48bc-9187-dec9ed848b5c","system_id":"levelo_inurba_marseille","lat":43.261964,"lon":5.379276,"is_reserved":false,"is_disabled":false,"rental_uris":{"android":"levelo://app?vid=b8e67c99-6b85-48bc-9187-dec9ed848b5c","ios":"levelo://app?vid=b8e67c99-6b85-48bc-9187-dec9ed848b5c"},"vehicle_type_id":"4","last_reported":1737457626,"current_range_meters":26000,"station_id":"ce4bhjp2rcd13ifvqg90","pricing_plan_id":"cebpf4jnsgd1na2vs0mg"},{"bike_id":"9ca4de9a-cfca-4937-bf4d-f360d7c8f7f5","system_id":"levelo_inurba_marseille","lat":43.30538,"lon":5.36506,"is_reserved":false,"is_disabled":false,"rental_uris":{"android":"levelo://app?vid=9ca4de9a-cfca-4937-bf4d-f360d7c8f7f5","ios":"levelo://app?vid=9ca4de9a-cfca-4937-bf4d-f360d7c8f7f5"},"vehicle_type_id":"4","last_reported":1737457626,"current_range_meters":37600,"station_id":"ce4bgs12rcd13ifvqcag","pricing_plan_id":"cebpf4jnsgd1na2vs0mg"},{"bike_id":"72907924-f2de-43d9-88d7-314cf1d8cd1e","system_id":"levelo_inurba_marseille","lat":43.30312,"lon":5.3688,"is_reserved":false,"is_disabled":false,"rental_uris":{"android":"levelo://app?vid=72907924-f2de-43d9-88d7-314cf1d8cd1e","ios":"levelo://app?vid=72907924-f2de-43d9-88d7-314cf1d8cd1e"},"vehicle_type_id":"4","last_reported":1737457626,"current_range_meters":16800,"station_id":"ce4bgqh2rcd13ifvqc5g","pricing_plan_id":"cebpf4jnsgd1na2vs0mg"},{"bike_id":"ee9f75ff-30d6-4da3-8595-6156f69d6dcb","system_id":"levelo_inurba_marseille","lat":43.29224,"lon":5.38459,"is_reserved":false,"is_disabled":false,"rental_uris":{"android":"levelo://app?vid=ee9f75ff-30d6-4da3-8595-6156f69d6dcb","ios":"levelo://app?vid=ee9f75ff-30d6-4da3-8595-6156f69d6dcb"},"vehicle_type_id":"4","last_reported":1737457626,"current_range_meters":14800,"station_id":"ce4bh692rcd13ifvqea0","pricing_plan_id":"cebpf4jnsgd1na2vs0mg"},{"bike_id":"2b1e95cc-4743-4250-8e1f-97ad00416d93","system_id":"levelo_inurba_marseille","lat":43.292796,"lon":5.368455,"is_reserved":false,"is_disabled":false,"rental_uris":{"android":"levelo://app?vid=2b1e95cc-4743-4250-8e1f-97ad00416d93","ios":"levelo://app?vid=2b1e95cc-4743-4250-8e1f-97ad00416d93"},"vehicle_type_id":"4","last_reported":1737457626,"current_range_meters":14000,"station_id":"ce4bhbp2rcd13ifvqesg","pricing_plan_id":"cebpf4jnsgd1na2vs0mg"},{"bike_id":"ca5ebe5c-d696-4d10-94b0-99fa9093db2a","system_id":"levelo_inurba_marseille","lat":43.32481,"lon":5.36565,"is_reserved":false,"is_disabled":false,"rental_uris":{"android":"levelo://app?vid=ca5ebe5c-d696-4d10-94b0-99fa9093db2a","ios":"levelo://app?vid=ca5ebe5c-d696-4d10-94b0-99fa9093db2a"},"vehicle_type_id":"4","last_reported":1737457626,"current_range_meters":26000,"station_id":"ce4bhs12rcd13ifvqhvg","pricing_plan_id":"cebpf4jnsgd1na2vs0mg"},{"bike_id":"c90ffd17-4082-43c2-8c46-021b3cdedd99","system_id":"levelo_inurba_marseille","lat":43.26039,"lon":5.3945,"is_reserved":false,"is_disabled":false,"rental_uris":{"android":"levelo://app?vid=c90ffd17-4082-43c2-8c46-021b3cdedd99","ios":"levelo://app?vid=c90ffd17-4082-43c2-8c46-021b3cdedd99"},"vehicle_type_id":"4","last_reported":1737457626,"current_range_meters":38400,"station_id":"ce4bhh92rcd13ifvqfj0","pricing_plan_id":"cebpf4jnsgd1na2vs0mg"},{"bike_id":"751968b9-3f67-45de-aadc-83a067946788","system_id":"levelo_inurba_marseille","lat":43.33627,"lon":5.40987,"is_reserved":false,"is_disabled":false,"rental_uris":{"android":"levelo://app?vid=751968b9-3f67-45de-aadc-83a067946788","ios":"levelo://app?vid=751968b9-3f67-45de-aadc-83a067946788"},"vehicle_type_id":"4","last_reported":1737457626,"current_range_meters":30800,"station_id":"ce4bhqh2rcd13ifvqhmg","pricing_plan_id":"cebpf4jnsgd1na2vs0mg"},{"bike_id":"6ecb5dac-3eb2-457c-bca6-dc15e3821e9a","system_id":"levelo_inurba_marseille","lat":43.3053,"lon":5.38432,"is_reserved":false,"is_disabled":false,"rental_uris":{"android":"levelo://app?vid=6ecb5dac-3eb2-457c-bca6-dc15e3821e9a","ios":"levelo://app?vid=6ecb5dac-3eb2-457c-bca6-dc15e3821e9a"},"vehicle_type_id":"4","last_reported":1737457626,"current_range_meters":14800,"station_id":"ce4bgg92rcd13ifvqb30","pricing_plan_id":"cebpf4jnsgd1na2vs0mg"},{"bike_id":"db9233a0-541f-470e-96f3-96db6f81cf0f","system_id":"levelo_inurba_marseille","lat":43.27825,"lon":5.40729,"is_reserved":false,"is_disabled":false,"rental_uris":{"android":"levelo://app?vid=db9233a0-541f-470e-96f3-96db6f81cf0f","ios":"levelo://app?vid=db9233a0-541f-470e-96f3-96db6f81cf0f"},"vehicle_type_id":"4","last_reported":1737457626,"current_range_meters":22000,"station_id":"ce4bhnh2rcd13ifvqgtg","pricing_plan_id":"cebpf4jnsgd1na2vs0mg"},{"bike_id":"1c55422b-da70-439b-bce1-830182dc761c","system_id":"levelo_inurba_marseille","lat":43.28932,"lon":5.36643,"is_reserved":false,"is_disabled":false,"rental_uris":{"android":"levelo://app?vid=1c55422b-da70-439b-bce1-830182dc761c","ios":"levelo://app?vid=1c55422b-da70-439b-bce1-830182dc761c"},"vehicle_type_id":"4","last_reported":1737457626,"current_range_meters":32000,"station_id":"ce4bhap2rcd13ifvqek0","pricing_plan_id":"cebpf4jnsgd1na2vs0mg"},{"bike_id":"64932641-bbab-4533-af1e-ae9aade25efc","system_id":"levelo_inurba_marseille","lat":43.33704,"lon":5.3922,"is_reserved":false,"is_disabled":false,"rental_uris":{"android":"levelo://app?vid=64932641-bbab-4533-af1e-ae9aade25efc","ios":"levelo://app?vid=64932641-bbab-4533-af1e-ae9aade25efc"},"vehicle_type_id":"4","last_reported":1737457626,"current_range_meters":24400,"station_id":"ce4bhr92rcd13ifvqhsg","pricing_plan_id":"cebpf4jnsgd1na2vs0mg"},{"bike_id":"80f8c7e1-7147-432a-aa78-c963441bc66d","system_id":"levelo_inurba_marseille","lat":43.29794,"lon":5.37097,"is_reserved":false,"is_disabled":false,"rental_uris":{"android":"levelo://app?vid=80f8c7e1-7147-432a-aa78-c963441bc66d","ios":"levelo://app?vid=80f8c7e1-7147-432a-aa78-c963441bc66d"},"vehicle_type_id":"4","last_reported":1737457626,"current_range_meters":38800,"station_id":"ce4bgop2rcd13ifvqc1g","pricing_plan_id":"cebpf4jnsgd1na2vs0mg"},{"bike_id":"8e37d5a1-5a26-42a5-8fbe-c99733a808dd","system_id":"levelo_inurba_marseille","lat":43.260656,"lon":5.393922,"is_reserved":false,"is_disabled":false,"rental_uris":{"android":"levelo://app?vid=8e37d5a1-5a26-42a5-8fbe-c99733a808dd","ios":"levelo://app?vid=8e37d5a1-5a26-42a5-8fbe-c99733a808dd"},"vehicle_type_id":"4","last_reported":1737457626,"current_range_meters":38800,"station_id":"ce4bhh92rcd13ifvqfj0","pricing_plan_id":"cebpf4jnsgd1na2vs0mg"},{"bike_id":"24358710-b706-4f56-ac4f-fcfcba51d2d9","system_id":"levelo_inurba_marseille","lat":43.29003,"lon":5.35615,"is_reserved":false,"is_disabled":false,"rental_uris":{"android":"levelo://app?vid=24358710-b706-4f56-ac4f-fcfcba51d2d9","ios":"levelo://app?vid=24358710-b706-4f56-ac4f-fcfcba51d2d9"},"vehicle_type_id":"4","last_reported":1737457626,"current_range_meters":38000,"station_id":"ce4bhb92rcd13ifvqen0","pricing_plan_id":"cebpf4jnsgd1na2vs0mg"},{"bike_id":"cf6a53d5-d075-4b1a-a642-721558323073","system_id":"levelo_inurba_marseille","lat":43.31327,"lon":5.39684,"is_reserved":false,"is_disabled":false,"rental_uris":{"android":"levelo://app?vid=cf6a53d5-d075-4b1a-a642-721558323073","ios":"levelo://app?vid=cf6a53d5-d075-4b1a-a642-721558323073"},"vehicle_type_id":"4","last_reported":1737457626,"current_range_meters":38800,"station_id":"ce4bgvp2rcd13ifvqcu0","pricing_plan_id":"cebpf4jnsgd1na2vs0mg"},{"bike_id":"22c3b3f3-6835-405e-9c28-a86f29f70685","system_id":"levelo_inurba_marseille","lat":43.25007,"lon":5.38934,"is_reserved":false,"is_disabled":false,"rental_uris":{"android":"levelo://app?vid=22c3b3f3-6835-405e-9c28-a86f29f70685","ios":"levelo://app?vid=22c3b3f3-6835-405e-9c28-a86f29f70685"},"vehicle_type_id":"4","last_reported":1737457626,"current_range_meters":22800,"station_id":"ce4bhgp2rcd13ifvqfd0","pricing_plan_id":"cebpf4jnsgd1na2vs0mg"},{"bike_id":"64dd059b-ecf7-48ee-8d07-a03165f684e7","system_id":"levelo_inurba_marseille","lat":43.299101,"lon":5.37469,"is_reserved":false,"is_disabled":false,"rental_uris":{"android":"levelo://app?vid=64dd059b-ecf7-48ee-8d07-a03165f684e7","ios":"levelo://app?vid=64dd059b-ecf7-48ee-8d07-a03165f684e7"},"vehicle_type_id":"4","last_reported":1737457626,"current_range_meters":39200,"station_id":"ce4bgjh2rcd13ifvqbg0","pricing_plan_id":"cebpf4jnsgd1na2vs0mg"},{"bike_id":"2614593e-8537-44d3-bec5-673a7dba0684","system_id":"levelo_inurba_marseille","lat":43.29262,"lon":5.40901,"is_reserved":false,"is_disabled":false,"rental_uris":{"android":"levelo://app?vid=2614593e-8537-44d3-bec5-673a7dba0684","ios":"levelo://app?vid=2614593e-8537-44d3-bec5-673a7dba0684"},"vehicle_type_id":"4","last_reported":1737457626,"current_range_meters":24400,"station_id":"ce4bh192rcd13ifvqdc0","pricing_plan_id":"cebpf4jnsgd1na2vs0mg"},{"bike_id":"9504b7e0-2f20-49ea-814e-e380f0d8ec79","system_id":"levelo_inurba_marseille","lat":43.32092,"lon":5.36813,"is_reserved":false,"is_disabled":false,"rental_uris":{"android":"levelo://app?vid=9504b7e0-2f20-49ea-814e-e380f0d8ec79","ios":"levelo://app?vid=9504b7e0-2f20-49ea-814e-e380f0d8ec79"},"vehicle_type_id":"4","last_reported":1737457626,"current_range_meters":38000,"station_id":"ce4bhrh2rcd13ifvqhug","pricing_plan_id":"cebpf4jnsgd1na2vs0mg"},{"bike_id":"01212cd9-4449-4b95-9afd-015c81171978","system_id":"levelo_inurba_marseille","lat":43.24178,"lon":5.39737,"is_reserved":false,"is_disabled":false,"rental_uris":{"android":"levelo://app?vid=01212cd9-4449-4b95-9afd-015c81171978","ios":"levelo://app?vid=01212cd9-4449-4b95-9afd-015c81171978"},"vehicle_type_id":"4","last_reported":1737457626,"current_range_meters":36000,"station_id":"ce4bhn12rcd13ifvqgpg","pricing_plan_id":"cebpf4jnsgd1na2vs0mg"},{"bike_id":"20658269-5f94-4591-bd39-a50ee722fbbb","system_id":"levelo_inurba_marseille","lat":43.30922,"lon":5.3685,"is_reserved":false,"is_disabled":false,"rental_uris":{"android":"levelo://app?vid=20658269-5f94-4591-bd39-a50ee722fbbb","ios":"levelo://app?vid=20658269-5f94-4591-bd39-a50ee722fbbb"},"vehicle_type_id":"4","last_reported":1737457626,"current_range_meters":33200,"station_id":"ce4bgn92rcd13ifvqbvg","pricing_plan_id":"cebpf4jnsgd1na2vs0mg"},{"bike_id":"2e391245-990a-489f-b7cc-387a1c7f1479","system_id":"levelo_inurba_marseille","lat":43.30524,"lon":5.36735,"is_reserved":false,"is_disabled":false,"rental_uris":{"android":"levelo://app?vid=2e391245-990a-489f-b7cc-387a1c7f1479","ios":"levelo://app?vid=2e391245-990a-489f-b7cc-387a1c7f1479"},"vehicle_type_id":"4","last_reported":1737457626,"current_range_meters":26800,"station_id":"ce4bgrp2rcd13ifvqc9g","pricing_plan_id":"cebpf4jnsgd1na2vs0mg"},{"bike_id":"d386e37d-07aa-482c-9d90-eeaa95a1df94","system_id":"levelo_inurba_marseille","lat":43.28477,"lon":5.38542,"is_reserved":false,"is_disabled":false,"rental_uris":{"android":"levelo://app?vid=d386e37d-07aa-482c-9d90-eeaa95a1df94","ios":"levelo://app?vid=d386e37d-07aa-482c-9d90-eeaa95a1df94"},"vehicle_type_id":"4","last_reported":1737457626,"current_range_meters":25200,"station_id":"ce4bh8p2rcd13ifvqeb0","pricing_plan_id":"cebpf4jnsgd1na2vs0mg"},{"bike_id":"da3a7eb9-5fa6-49b3-9e5b-6452969eedf1","system_id":"levelo_inurba_marseille","lat":43.24406,"lon":5.37055,"is_reserved":false,"is_disabled":false,"rental_uris":{"android":"levelo://app?vid=da3a7eb9-5fa6-49b3-9e5b-6452969eedf1","ios":"levelo://app?vid=da3a7eb9-5fa6-49b3-9e5b-6452969eedf1"},"vehicle_type_id":"4","last_reported":1737457626,"current_range_meters":35600,"station_id":"ce4bhhh2rcd13ifvqfk0","pricing_plan_id":"cebpf4jnsgd1na2vs0mg"},{"bike_id":"13eb1080-0165-43df-ba68-3da74a387126","system_id":"levelo_inurba_marseille","lat":43.3124,"lon":5.36862,"is_reserved":false,"is_disabled":false,"rental_uris":{"android":"levelo://app?vid=13eb1080-0165-43df-ba68-3da74a387126","ios":"levelo://app?vid=13eb1080-0165-43df-ba68-3da74a387126"},"vehicle_type_id":"4","last_reported":1737457626,"current_range_meters":38800,"station_id":"ce4bgl92rcd13ifvqbq0","pricing_plan_id":"cebpf4jnsgd1na2vs0mg"},{"bike_id":"06f9398d-e006-4557-bd03-71cc21447599","system_id":"levelo_inurba_marseille","lat":43.29247,"lon":5.38454,"is_reserved":false,"is_disabled":false,"rental_uris":{"android":"levelo://app?vid=06f9398d-e006-4557-bd03-71cc21447599","ios":"levelo://app?vid=06f9398d-e006-4557-bd03-71cc21447599"},"vehicle_type_id":"4","last_reported":1737457626,"current_range_meters":30400,"station_id":"ce4bh692rcd13ifvqea0","pricing_plan_id":"cebpf4jnsgd1na2vs0mg"},{"bike_id":"026c5cbe-081d-480e-8260-80cc91166677","system_id":"levelo_inurba_marseille","lat":43.28722,"lon":5.39999,"is_reserved":false,"is_disabled":true,"rental_uris":{"android":"levelo://app?vid=026c5cbe-081d-480e-8260-80cc91166677","ios":"levelo://app?vid=026c5cbe-081d-480e-8260-80cc91166677"},"vehicle_type_id":"4","last_reported":1737457626,"current_range_meters":0,"station_id":"ce4bho92rcd13ifvqh3g","pricing_plan_id":"cebpf4jnsgd1na2vs0mg"},{"bike_id":"55e9e33f-65d7-4114-a3b6-94916cdab4b2","system_id":"levelo_inurba_marseille","lat":43.26492,"lon":5.3958,"is_reserved":false,"is_disabled":false,"rental_uris":{"android":"levelo://app?vid=55e9e33f-65d7-4114-a3b6-94916cdab4b2","ios":"levelo://app?vid=55e9e33f-65d7-4114-a3b6-94916cdab4b2"},"vehicle_type_id":"4","last_reported":1737457626,"current_range_meters":16800,"station_id":"ce4bhi12rcd13ifvqfq0","pricing_plan_id":"cebpf4jnsgd1na2vs0mg"},{"bike_id":"9aacc925-5aae-4f21-9b83-0ff47619fe48","system_id":"levelo_inurba_marseille","lat":43.25727,"lon":5.41106,"is_reserved":false,"is_disabled":false,"rental_uris":{"android":"levelo://app?vid=9aacc925-5aae-4f21-9b83-0ff47619fe48","ios":"levelo://app?vid=9aacc925-5aae-4f21-9b83-0ff47619fe48"},"vehicle_type_id":"4","last_reported":1737457626,"current_range_meters":35600,"station_id":"ce4bhkp2rcd13ifvqgd0","pricing_plan_id":"cebpf4jnsgd1na2vs0mg"},{"bike_id":"bf490cf1-258d-45fd-a3f2-5b3fa99b3db9","system_id":"levelo_inurba_marseille","lat":43.24168,"lon":5.36398,"is_reserved":false,"is_disabled":false,"rental_uris":{"android":"levelo://app?vid=bf490cf1-258d-45fd-a3f2-5b3fa99b3db9","ios":"levelo://app?vid=bf490cf1-258d-45fd-a3f2-5b3fa99b3db9"},"vehicle_type_id":"4","last_reported":1737457626,"current_range_meters":17600,"station_id":"cpo36qri1sfpv3e86is0","pricing_plan_id":"cebpf4jnsgd1na2vs0mg"},{"bike_id":"7aa9710a-b7e3-4890-81ca-654444a2204c","system_id":"levelo_inurba_marseille","lat":43.25936,"lon":5.4089,"is_reserved":false,"is_disabled":false,"rental_uris":{"android":"levelo://app?vid=7aa9710a-b7e3-4890-81ca-654444a2204c","ios":"levelo://app?vid=7aa9710a-b7e3-4890-81ca-654444a2204c"},"vehicle_type_id":"4","last_reported":1737457626,"current_range_meters":17200,"station_id":"ce4bhm92rcd13ifvqglg","pricing_plan_id":"cebpf4jnsgd1na2vs0mg"},{"bike_id":"dcbda3ac-9a03-46eb-8014-9b6709d696ba","system_id":"levelo_inurba_marseille","lat":43.29278,"lon":5.40123,"is_reserved":false,"is_disabled":false,"rental_uris":{"android":"levelo://app?vid=dcbda3ac-9a03-46eb-8014-9b6709d696ba","ios":"levelo://app?vid=dcbda3ac-9a03-46eb-8014-9b6709d696ba"},"vehicle_type_id":"4","last_reported":1737457626,"current_range_meters":8000,"station_id":"ce4bh312rcd13ifvqdk0","pricing_plan_id":"cebpf4jnsgd1na2vs0mg"},{"bike_id":"14bf62af-c950-435b-82dd-0bca67231add","system_id":"levelo_inurba_marseille","lat":43.25706,"lon":5.41121,"is_reserved":false,"is_disabled":false,"rental_uris":{"android":"levelo://app?vid=14bf62af-c950-435b-82dd-0bca67231add","ios":"levelo://app?vid=14bf62af-c950-435b-82dd-0bca67231add"},"vehicle_type_id":"4","last_reported":1737457626,"current_range_meters":36800,"station_id":"ce4bhkp2rcd13ifvqgd0","pricing_plan_id":"cebpf4jnsgd1na2vs0mg"},{"bike_id":"79f90c45-da9c-46ff-945c-b589f96e5138","system_id":"levelo_inurba_marseille","lat":43.27675,"lon":5.38909,"is_reserved":false,"is_disabled":false,"rental_uris":{"android":"levelo://app?vid=79f90c45-da9c-46ff-945c-b589f96e5138","ios":"levelo://app?vid=79f90c45-da9c-46ff-945c-b589f96e5138"},"vehicle_type_id":"4","last_reported":1737457626,"current_range_meters":24400,"station_id":"ce4bhi12rcd13ifvqfo0","pricing_plan_id":"cebpf4jnsgd1na2vs0mg"},{"bike_id":"bb2aa27c-d314-433f-a134-98756fdc47bc","system_id":"levelo_inurba_marseille","lat":43.31345,"lon":5.36744,"is_reserved":false,"is_disabled":false,"rental_uris":{"android":"levelo://app?vid=bb2aa27c-d314-433f-a134-98756fdc47bc","ios":"levelo://app?vid=bb2aa27c-d314-433f-a134-98756fdc47bc"},"vehicle_type_id":"4","last_reported":1737457626,"current_range_meters":35200,"station_id":"ce4bgr92rcd13ifvqc6g","pricing_plan_id":"cebpf4jnsgd1na2vs0mg"},{"bike_id":"9fe6bcab-c4c1-4976-a0b6-afaaee80efe0","system_id":"levelo_inurba_marseille","lat":43.29523,"lon":5.38547,"is_reserved":false,"is_disabled":false,"rental_uris":{"android":"levelo://app?vid=9fe6bcab-c4c1-4976-a0b6-afaaee80efe0","ios":"levelo://app?vid=9fe6bcab-c4c1-4976-a0b6-afaaee80efe0"},"vehicle_type_id":"4","last_reported":1737457626,"current_range_meters":19200,"station_id":"ce4bgih2rcd13ifvqba0","pricing_plan_id":"cebpf4jnsgd1na2vs0mg"},{"bike_id":"7c4b9d70-e01e-49f4-bcc2-da404f462a85","system_id":"levelo_inurba_marseille","lat":43.29306,"lon":5.37176,"is_reserved":false,"is_disabled":false,"rental_uris":{"android":"levelo://app?vid=7c4b9d70-e01e-49f4-bcc2-da404f462a85","ios":"levelo://app?vid=7c4b9d70-e01e-49f4-bcc2-da404f462a85"},"vehicle_type_id":"4","last_reported":1737457626,"current_range_meters":39200,"station_id":"ce4bgh92rcd13ifvqb40","pricing_plan_id":"cebpf4jnsgd1na2vs0mg"},{"bike_id":"8c071b1b-846e-4de8-b971-0bda4c6b8fdc","system_id":"levelo_inurba_marseille","lat":43.3361,"lon":5.40978,"is_reserved":false,"is_disabled":false,"rental_uris":{"android":"levelo://app?vid=8c071b1b-846e-4de8-b971-0bda4c6b8fdc","ios":"levelo://app?vid=8c071b1b-846e-4de8-b971-0bda4c6b8fdc"},"vehicle_type_id":"4","last_reported":1737457626,"current_range_meters":14400,"station_id":"ce4bhqh2rcd13ifvqhmg","pricing_plan_id":"cebpf4jnsgd1na2vs0mg"},{"bike_id":"1a3b29b3-17e8-4775-8d86-74e3b8c314ae","system_id":"levelo_inurba_marseille","lat":43.30534,"lon":5.36703,"is_reserved":false,"is_disabled":false,"rental_uris":{"android":"levelo://app?vid=1a3b29b3-17e8-4775-8d86-74e3b8c314ae","ios":"levelo://app?vid=1a3b29b3-17e8-4775-8d86-74e3b8c314ae"},"vehicle_type_id":"4","last_reported":1737457626,"current_range_meters":38800,"station_id":"ce4bgrp2rcd13ifvqc9g","pricing_plan_id":"cebpf4jnsgd1na2vs0mg"},{"bike_id":"ca74e526-580c-493e-b181-17fe0bc8eae8","system_id":"levelo_inurba_marseille","lat":43.259354,"lon":5.4091,"is_reserved":false,"is_disabled":false,"rental_uris":{"android":"levelo://app?vid=ca74e526-580c-493e-b181-17fe0bc8eae8","ios":"levelo://app?vid=ca74e526-580c-493e-b181-17fe0bc8eae8"},"vehicle_type_id":"4","last_reported":1737457626,"current_range_meters":38800,"station_id":"ce4bhm92rcd13ifvqglg","pricing_plan_id":"cebpf4jnsgd1na2vs0mg"},{"bike_id":"ce348ecb-e6da-4256-ae38-a3cca0ccf065","system_id":"levelo_inurba_marseille","lat":43.30526,"lon":5.36714,"is_reserved":false,"is_disabled":false,"rental_uris":{"android":"levelo://app?vid=ce348ecb-e6da-4256-ae38-a3cca0ccf065","ios":"levelo://app?vid=ce348ecb-e6da-4256-ae38-a3cca0ccf065"},"vehicle_type_id":"4","last_reported":1737457626,"current_range_meters":38800,"station_id":"ce4bgrp2rcd13ifvqc9g","pricing_plan_id":"cebpf4jnsgd1na2vs0mg"},{"bike_id":"5fada185-2d10-4b37-89d9-9d4e74b0d688","system_id":"levelo_inurba_marseille","lat":43.2721,"lon":5.39182,"is_reserved":false,"is_disabled":false,"rental_uris":{"android":"levelo://app?vid=5fada185-2d10-4b37-89d9-9d4e74b0d688","ios":"levelo://app?vid=5fada185-2d10-4b37-89d9-9d4e74b0d688"},"vehicle_type_id":"4","last_reported":1737457626,"current_range_meters":38400,"station_id":"ce4bhhp2rcd13ifvqfm0","pricing_plan_id":"cebpf4jnsgd1na2vs0mg"},{"bike_id":"2e5c9121-ef11-488f-aeec-7b63c5a7c2cc","system_id":"levelo_inurba_marseille","lat":43.30541,"lon":5.36543,"is_reserved":false,"is_disabled":false,"rental_uris":{"android":"levelo://app?vid=2e5c9121-ef11-488f-aeec-7b63c5a7c2cc","ios":"levelo://app?vid=2e5c9121-ef11-488f-aeec-7b63c5a7c2cc"},"vehicle_type_id":"4","last_reported":1737457626,"current_range_meters":36400,"station_id":"ce4bgs12rcd13ifvqcag","pricing_plan_id":"cebpf4jnsgd1na2vs0mg"},{"bike_id":"54f17643-86bb-494f-8b67-4a9bf8a4e466","system_id":"levelo_inurba_marseille","lat":43.26678,"lon":5.38267,"is_reserved":false,"is_disabled":false,"rental_uris":{"android":"levelo://app?vid=54f17643-86bb-494f-8b67-4a9bf8a4e466","ios":"levelo://app?vid=54f17643-86bb-494f-8b67-4a9bf8a4e466"},"vehicle_type_id":"4","last_reported":1737457626,"current_range_meters":27600,"station_id":"ce4bhg92rcd13ifvqf90","pricing_plan_id":"cebpf4jnsgd1na2vs0mg"},{"bike_id":"a8e4cb5f-3ed5-498b-a0e8-f42bdaaf1da5","system_id":"levelo_inurba_marseille","lat":43.28458,"lon":5.35892,"is_reserved":false,"is_disabled":false,"rental_uris":{"android":"levelo://app?vid=a8e4cb5f-3ed5-498b-a0e8-f42bdaaf1da5","ios":"levelo://app?vid=a8e4cb5f-3ed5-498b-a0e8-f42bdaaf1da5"},"vehicle_type_id":"4","last_reported":1737457626,"current_range_meters":20800,"station_id":"ce4bhah2rcd13ifvqei0","pricing_plan_id":"cebpf4jnsgd1na2vs0mg"},{"bike_id":"a56e0fa5-4dbd-4d31-9b8b-b6a5e3552cfa","system_id":"levelo_inurba_marseille","lat":43.30106,"lon":5.39077,"is_reserved":false,"is_disabled":false,"rental_uris":{"android":"levelo://app?vid=a56e0fa5-4dbd-4d31-9b8b-b6a5e3552cfa","ios":"levelo://app?vid=a56e0fa5-4dbd-4d31-9b8b-b6a5e3552cfa"},"vehicle_type_id":"4","last_reported":1737457626,"current_range_meters":8000,"station_id":"ce4bh192rcd13ifvqdb0","pricing_plan_id":"cebpf4jnsgd1na2vs0mg"},{"bike_id":"40e5a64d-65b5-4754-b8f6-3564af0d8c58","system_id":"levelo_inurba_marseille","lat":43.23135,"lon":5.43723,"is_reserved":false,"is_disabled":false,"rental_uris":{"android":"levelo://app?vid=40e5a64d-65b5-4754-b8f6-3564af0d8c58","ios":"levelo://app?vid=40e5a64d-65b5-4754-b8f6-3564af0d8c58"},"vehicle_type_id":"4","last_reported":1737457626,"current_range_meters":6000,"station_id":"ce4bhmp2rcd13ifvqgog","pricing_plan_id":"cebpf4jnsgd1na2vs0mg"},{"bike_id":"2eeb9544-f50a-4f44-8eaa-63b01b7ac06e","system_id":"levelo_inurba_marseille","lat":43.272,"lon":5.39183,"is_reserved":false,"is_disabled":false,"rental_uris":{"android":"levelo://app?vid=2eeb9544-f50a-4f44-8eaa-63b01b7ac06e","ios":"levelo://app?vid=2eeb9544-f50a-4f44-8eaa-63b01b7ac06e"},"vehicle_type_id":"4","last_reported":1737457626,"current_range_meters":38400,"station_id":"ce4bhhp2rcd13ifvqfm0","pricing_plan_id":"cebpf4jnsgd1na2vs0mg"},{"bike_id":"23379a95-72b4-449c-abbd-5871cdaaa4bd","system_id":"levelo_inurba_marseille","lat":43.30546,"lon":5.36704,"is_reserved":false,"is_disabled":false,"rental_uris":{"android":"levelo://app?vid=23379a95-72b4-449c-abbd-5871cdaaa4bd","ios":"levelo://app?vid=23379a95-72b4-449c-abbd-5871cdaaa4bd"},"vehicle_type_id":"4","last_reported":1737457626,"current_range_meters":37600,"station_id":"ce4bgrp2rcd13ifvqc9g","pricing_plan_id":"cebpf4jnsgd1na2vs0mg"},{"bike_id":"74afa9c3-0e60-4b24-9af3-9534678ecdb0","system_id":"levelo_inurba_marseille","lat":43.27209,"lon":5.39187,"is_reserved":false,"is_disabled":false,"rental_uris":{"android":"levelo://app?vid=74afa9c3-0e60-4b24-9af3-9534678ecdb0","ios":"levelo://app?vid=74afa9c3-0e60-4b24-9af3-9534678ecdb0"},"vehicle_type_id":"4","last_reported":1737457626,"current_range_meters":39200,"station_id":"ce4bhhp2rcd13ifvqfm0","pricing_plan_id":"cebpf4jnsgd1na2vs0mg"},{"bike_id":"4c19f5db-46af-4096-bd53-182d61e91e08","system_id":"levelo_inurba_marseille","lat":43.28941,"lon":5.36636,"is_reserved":false,"is_disabled":false,"rental_uris":{"android":"levelo://app?vid=4c19f5db-46af-4096-bd53-182d61e91e08","ios":"levelo://app?vid=4c19f5db-46af-4096-bd53-182d61e91e08"},"vehicle_type_id":"4","last_reported":1737457626,"current_range_meters":11200,"station_id":"ce4bhap2rcd13ifvqek0","pricing_plan_id":"cebpf4jnsgd1na2vs0mg"},{"bike_id":"009e4e21-eaff-4df3-a6cd-96d6c5c81fda","system_id":"levelo_inurba_marseille","lat":43.30536,"lon":5.36535,"is_reserved":false,"is_disabled":false,"rental_uris":{"android":"levelo://app?vid=009e4e21-eaff-4df3-a6cd-96d6c5c81fda","ios":"levelo://app?vid=009e4e21-eaff-4df3-a6cd-96d6c5c81fda"},"vehicle_type_id":"4","last_reported":1737457626,"current_range_meters":24000,"station_id":"ce4bgs12rcd13ifvqcag","pricing_plan_id":"cebpf4jnsgd1na2vs0mg"},{"bike_id":"9ea35a92-1564-493c-991c-f92a347b776b","system_id":"levelo_inurba_marseille","lat":43.30524,"lon":5.36565,"is_reserved":false,"is_disabled":false,"rental_uris":{"android":"levelo://app?vid=9ea35a92-1564-493c-991c-f92a347b776b","ios":"levelo://app?vid=9ea35a92-1564-493c-991c-f92a347b776b"},"vehicle_type_id":"4","last_reported":1737457626,"current_range_meters":25200,"station_id":"ce4bgs12rcd13ifvqcag","pricing_plan_id":"cebpf4jnsgd1na2vs0mg"},{"bike_id":"b98d1ee6-d9b6-4436-8256-e6796817c6db","system_id":"levelo_inurba_marseille","lat":43.27227,"lon":5.392,"is_reserved":false,"is_disabled":false,"rental_uris":{"android":"levelo://app?vid=b98d1ee6-d9b6-4436-8256-e6796817c6db","ios":"levelo://app?vid=b98d1ee6-d9b6-4436-8256-e6796817c6db"},"vehicle_type_id":"4","last_reported":1737457626,"current_range_meters":20000,"station_id":"ce4bhhp2rcd13ifvqfm0","pricing_plan_id":"cebpf4jnsgd1na2vs0mg"},{"bike_id":"48b85aa0-1b02-45d4-a3c8-27a3074005f6","system_id":"levelo_inurba_marseille","lat":43.23961,"lon":5.36639,"is_reserved":false,"is_disabled":true,"rental_uris":{"android":"levelo://app?vid=48b85aa0-1b02-45d4-a3c8-27a3074005f6","ios":"levelo://app?vid=48b85aa0-1b02-45d4-a3c8-27a3074005f6"},"vehicle_type_id":"4","last_reported":1737457626,"current_range_meters":400,"station_id":"ce4bhi12rcd13ifvqfp0","pricing_plan_id":"cebpf4jnsgd1na2vs0mg"},{"bike_id":"10d27098-69e9-48b1-9d26-115b0af1cc68","system_id":"levelo_inurba_marseille","lat":43.3059,"lon":5.36498,"is_reserved":false,"is_disabled":false,"rental_uris":{"android":"levelo://app?vid=10d27098-69e9-48b1-9d26-115b0af1cc68","ios":"levelo://app?vid=10d27098-69e9-48b1-9d26-115b0af1cc68"},"vehicle_type_id":"4","last_reported":1737457626,"current_range_meters":32000,"station_id":"","pricing_plan_id":"cebpf4jnsgd1na2vs0mg"},{"bike_id":"65a3a3d4-65ab-4db8-b160-6531a6b5bb61","system_id":"levelo_inurba_marseille","lat":43.30097,"lon":5.39079,"is_reserved":false,"is_disabled":false,"rental_uris":{"android":"levelo://app?vid=65a3a3d4-65ab-4db8-b160-6531a6b5bb61","ios":"levelo://app?vid=65a3a3d4-65ab-4db8-b160-6531a6b5bb61"},"vehicle_type_id":"4","last_reported":1737457626,"current_range_meters":38800,"station_id":"ce4bh192rcd13ifvqdb0","pricing_plan_id":"cebpf4jnsgd1na2vs0mg"},{"bike_id":"4e36db74-06bf-477a-bee9-51805eb8c5d1","system_id":"levelo_inurba_marseille","lat":43.27691,"lon":5.38918,"is_reserved":false,"is_disabled":false,"rental_uris":{"android":"levelo://app?vid=4e36db74-06bf-477a-bee9-51805eb8c5d1","ios":"levelo://app?vid=4e36db74-06bf-477a-bee9-51805eb8c5d1"},"vehicle_type_id":"4","last_reported":1737457626,"current_range_meters":28800,"station_id":"ce4bhi12rcd13ifvqfo0","pricing_plan_id":"cebpf4jnsgd1na2vs0mg"},{"bike_id":"4fe1a448-aa85-45a5-ac89-f450111d13f7","system_id":"levelo_inurba_marseille","lat":43.29559,"lon":5.39984,"is_reserved":false,"is_disabled":false,"rental_uris":{"android":"levelo://app?vid=4fe1a448-aa85-45a5-ac89-f450111d13f7","ios":"levelo://app?vid=4fe1a448-aa85-45a5-ac89-f450111d13f7"},"vehicle_type_id":"4","last_reported":1737457626,"current_range_meters":35600,"station_id":"ce4bh312rcd13ifvqdj0","pricing_plan_id":"cebpf4jnsgd1na2vs0mg"},{"bike_id":"650901e5-ff0d-42be-8b6b-4fbedbd3d6e3","system_id":"levelo_inurba_marseille","lat":43.29527,"lon":5.42422,"is_reserved":false,"is_disabled":false,"rental_uris":{"android":"levelo://app?vid=650901e5-ff0d-42be-8b6b-4fbedbd3d6e3","ios":"levelo://app?vid=650901e5-ff0d-42be-8b6b-4fbedbd3d6e3"},"vehicle_type_id":"4","last_reported":1737457626,"current_range_meters":32000,"station_id":"","pricing_plan_id":"cebpf4jnsgd1na2vs0mg"},{"bike_id":"8f3494cc-1037-449a-aadf-ff0fbda75c36","system_id":"levelo_inurba_marseille","lat":43.29265,"lon":5.38436,"is_reserved":false,"is_disabled":false,"rental_uris":{"android":"levelo://app?vid=8f3494cc-1037-449a-aadf-ff0fbda75c36","ios":"levelo://app?vid=8f3494cc-1037-449a-aadf-ff0fbda75c36"},"vehicle_type_id":"4","last_reported":1737457626,"current_range_meters":26800,"station_id":"ce4bh692rcd13ifvqea0","pricing_plan_id":"cebpf4jnsgd1na2vs0mg"},{"bike_id":"57ef9968-bdf1-4569-bd76-1d351fcbf959","system_id":"levelo_inurba_marseille","lat":43.279678,"lon":5.38697,"is_reserved":false,"is_disabled":false,"rental_uris":{"android":"levelo://app?vid=57ef9968-bdf1-4569-bd76-1d351fcbf959","ios":"levelo://app?vid=57ef9968-bdf1-4569-bd76-1d351fcbf959"},"vehicle_type_id":"4","last_reported":1737457626,"current_range_meters":22400,"station_id":"ce4bgr92rcd13ifvqc7g","pricing_plan_id":"cebpf4jnsgd1na2vs0mg"},{"bike_id":"da946590-272f-4dac-9dda-abf88aee8ffb","system_id":"levelo_inurba_marseille","lat":43.31327,"lon":5.3969,"is_reserved":false,"is_disabled":false,"rental_uris":{"android":"levelo://app?vid=da946590-272f-4dac-9dda-abf88aee8ffb","ios":"levelo://app?vid=da946590-272f-4dac-9dda-abf88aee8ffb"},"vehicle_type_id":"4","last_reported":1737457626,"current_range_meters":38000,"station_id":"ce4bgvp2rcd13ifvqcu0","pricing_plan_id":"cebpf4jnsgd1na2vs0mg"},{"bike_id":"aeccc9d2-e2b6-481a-bb5d-16e623633f7e","system_id":"levelo_inurba_marseille","lat":43.30157,"lon":5.37408,"is_reserved":false,"is_disabled":false,"rental_uris":{"android":"levelo://app?vid=aeccc9d2-e2b6-481a-bb5d-16e623633f7e","ios":"levelo://app?vid=aeccc9d2-e2b6-481a-bb5d-16e623633f7e"},"vehicle_type_id":"4","last_reported":1737457626,"current_range_meters":37600,"station_id":"ce4bgs92rcd13ifvqcc0","pricing_plan_id":"cebpf4jnsgd1na2vs0mg"},{"bike_id":"686a45c4-240c-42ac-8f87-187e1593f8b7","system_id":"levelo_inurba_marseille","lat":43.32086,"lon":5.36797,"is_reserved":false,"is_disabled":false,"rental_uris":{"android":"levelo://app?vid=686a45c4-240c-42ac-8f87-187e1593f8b7","ios":"levelo://app?vid=686a45c4-240c-42ac-8f87-187e1593f8b7"},"vehicle_type_id":"4","last_reported":1737457626,"current_range_meters":28000,"station_id":"ce4bhrh2rcd13ifvqhug","pricing_plan_id":"cebpf4jnsgd1na2vs0mg"},{"bike_id":"477448eb-f60c-4a0c-8e7d-6fa92b99483b","system_id":"levelo_inurba_marseille","lat":43.30954,"lon":5.3909,"is_reserved":false,"is_disabled":false,"rental_uris":{"android":"levelo://app?vid=477448eb-f60c-4a0c-8e7d-6fa92b99483b","ios":"levelo://app?vid=477448eb-f60c-4a0c-8e7d-6fa92b99483b"},"vehicle_type_id":"4","last_reported":1737457626,"current_range_meters":38800,"station_id":"ce4bgup2rcd13ifvqco0","pricing_plan_id":"cebpf4jnsgd1na2vs0mg"},{"bike_id":"2c97c10e-493e-4a18-a19d-8c3882b944f6","system_id":"levelo_inurba_marseille","lat":43.28848,"lon":5.35854,"is_reserved":false,"is_disabled":false,"rental_uris":{"android":"levelo://app?vid=2c97c10e-493e-4a18-a19d-8c3882b944f6","ios":"levelo://app?vid=2c97c10e-493e-4a18-a19d-8c3882b944f6"},"vehicle_type_id":"4","last_reported":1737457626,"current_range_meters":33200,"station_id":"ce4bhb12rcd13ifvqem0","pricing_plan_id":"cebpf4jnsgd1na2vs0mg"},{"bike_id":"e7108e7c-a8c7-40ef-b807-f248f382429c","system_id":"levelo_inurba_marseille","lat":43.28849,"lon":5.39315,"is_reserved":false,"is_disabled":false,"rental_uris":{"android":"levelo://app?vid=e7108e7c-a8c7-40ef-b807-f248f382429c","ios":"levelo://app?vid=e7108e7c-a8c7-40ef-b807-f248f382429c"},"vehicle_type_id":"4","last_reported":1737457626,"current_range_meters":32400,"station_id":"ce4bh2p2rcd13ifvqdi0","pricing_plan_id":"cebpf4jnsgd1na2vs0mg"},{"bike_id":"861542ca-c7ee-4fc2-a43a-bc6ca8a760e8","system_id":"levelo_inurba_marseille","lat":43.28934,"lon":5.36639,"is_reserved":false,"is_disabled":false,"rental_uris":{"android":"levelo://app?vid=861542ca-c7ee-4fc2-a43a-bc6ca8a760e8","ios":"levelo://app?vid=861542ca-c7ee-4fc2-a43a-bc6ca8a760e8"},"vehicle_type_id":"4","last_reported":1737457626,"current_range_meters":25200,"station_id":"ce4bhap2rcd13ifvqek0","pricing_plan_id":"cebpf4jnsgd1na2vs0mg"},{"bike_id":"b33d58fc-65e3-4024-a4f5-05e041772ea1","system_id":"levelo_inurba_marseille","lat":43.2732,"lon":5.39085,"is_reserved":false,"is_disabled":false,"rental_uris":{"android":"levelo://app?vid=b33d58fc-65e3-4024-a4f5-05e041772ea1","ios":"levelo://app?vid=b33d58fc-65e3-4024-a4f5-05e041772ea1"},"vehicle_type_id":"4","last_reported":1737457626,"current_range_meters":38400,"station_id":"ce4bhgp2rcd13ifvqfe0","pricing_plan_id":"cebpf4jnsgd1na2vs0mg"},{"bike_id":"0dea0605-752a-42c5-aa7b-7477bf128e2b","system_id":"levelo_inurba_marseille","lat":43.32544,"lon":5.4142,"is_reserved":false,"is_disabled":false,"rental_uris":{"android":"levelo://app?vid=0dea0605-752a-42c5-aa7b-7477bf128e2b","ios":"levelo://app?vid=0dea0605-752a-42c5-aa7b-7477bf128e2b"},"vehicle_type_id":"4","last_reported":1737457626,"current_range_meters":16400,"station_id":"ce4bhq12rcd13ifvqhhg","pricing_plan_id":"cebpf4jnsgd1na2vs0mg"},{"bike_id":"d9782ef7-106b-4699-8e47-7d87c40c1507","system_id":"levelo_inurba_marseille","lat":43.30883,"lon":5.39641,"is_reserved":false,"is_disabled":false,"rental_uris":{"android":"levelo://app?vid=d9782ef7-106b-4699-8e47-7d87c40c1507","ios":"levelo://app?vid=d9782ef7-106b-4699-8e47-7d87c40c1507"},"vehicle_type_id":"4","last_reported":1737457626,"current_range_meters":36400,"station_id":"ce4bh012rcd13ifvqcv0","pricing_plan_id":"cebpf4jnsgd1na2vs0mg"},{"bike_id":"64d112ec-fdb2-47e3-86a4-be520817b834","system_id":"levelo_inurba_marseille","lat":43.29261,"lon":5.3844,"is_reserved":false,"is_disabled":false,"rental_uris":{"android":"levelo://app?vid=64d112ec-fdb2-47e3-86a4-be520817b834","ios":"levelo://app?vid=64d112ec-fdb2-47e3-86a4-be520817b834"},"vehicle_type_id":"4","last_reported":1737457626,"current_range_meters":38400,"station_id":"ce4bh692rcd13ifvqea0","pricing_plan_id":"cebpf4jnsgd1na2vs0mg"},{"bike_id":"f29197b7-892b-4656-99c5-484d8091a1b7","system_id":"levelo_inurba_marseille","lat":43.30539,"lon":5.36715,"is_reserved":false,"is_disabled":false,"rental_uris":{"android":"levelo://app?vid=f29197b7-892b-4656-99c5-484d8091a1b7","ios":"levelo://app?vid=f29197b7-892b-4656-99c5-484d8091a1b7"},"vehicle_type_id":"4","last_reported":1737457626,"current_range_meters":39200,"station_id":"ce4bgrp2rcd13ifvqc9g","pricing_plan_id":"cebpf4jnsgd1na2vs0mg"},{"bike_id":"ba834d37-a138-4e00-bc01-7355fbf3fb3d","system_id":"levelo_inurba_marseille","lat":43.24647,"lon":5.38165,"is_reserved":false,"is_disabled":false,"rental_uris":{"android":"levelo://app?vid=ba834d37-a138-4e00-bc01-7355fbf3fb3d","ios":"levelo://app?vid=ba834d37-a138-4e00-bc01-7355fbf3fb3d"},"vehicle_type_id":"4","last_reported":1737457626,"current_range_meters":20800,"station_id":"ce4bhih2rcd13ifvqfr0","pricing_plan_id":"cebpf4jnsgd1na2vs0mg"},{"bike_id":"5434439c-80a7-45ef-8e7d-a897cb833684","system_id":"levelo_inurba_marseille","lat":43.3242,"lon":5.3675,"is_reserved":false,"is_disabled":false,"rental_uris":{"android":"levelo://app?vid=5434439c-80a7-45ef-8e7d-a897cb833684","ios":"levelo://app?vid=5434439c-80a7-45ef-8e7d-a897cb833684"},"vehicle_type_id":"4","last_reported":1737457626,"current_range_meters":38800,"station_id":"","pricing_plan_id":"cebpf4jnsgd1na2vs0mg"},{"bike_id":"ebf3a559-bca1-434f-8958-0e15342dbca6","system_id":"levelo_inurba_marseille","lat":43.29294,"lon":5.37446,"is_reserved":false,"is_disabled":false,"rental_uris":{"android":"levelo://app?vid=ebf3a559-bca1-434f-8958-0e15342dbca6","ios":"levelo://app?vid=ebf3a559-bca1-434f-8958-0e15342dbca6"},"vehicle_type_id":"4","last_reported":1737457626,"current_range_meters":38800,"station_id":"ce4bgi12rcd13ifvqb70","pricing_plan_id":"cebpf4jnsgd1na2vs0mg"},{"bike_id":"64899030-1386-4f33-8aa8-3daa0b76ca1f","system_id":"levelo_inurba_marseille","lat":43.3361,"lon":5.40993,"is_reserved":false,"is_disabled":false,"rental_uris":{"android":"levelo://app?vid=64899030-1386-4f33-8aa8-3daa0b76ca1f","ios":"levelo://app?vid=64899030-1386-4f33-8aa8-3daa0b76ca1f"},"vehicle_type_id":"4","last_reported":1737457626,"current_range_meters":11200,"station_id":"ce4bhqh2rcd13ifvqhmg","pricing_plan_id":"cebpf4jnsgd1na2vs0mg"},{"bike_id":"eee68cca-66ce-4db8-9bee-0b5f8a69b9a8","system_id":"levelo_inurba_marseille","lat":43.33724,"lon":5.39216,"is_reserved":false,"is_disabled":false,"rental_uris":{"android":"levelo://app?vid=eee68cca-66ce-4db8-9bee-0b5f8a69b9a8","ios":"levelo://app?vid=eee68cca-66ce-4db8-9bee-0b5f8a69b9a8"},"vehicle_type_id":"4","last_reported":1737457626,"current_range_meters":38800,"station_id":"ce4bhr92rcd13ifvqhsg","pricing_plan_id":"cebpf4jnsgd1na2vs0mg"},{"bike_id":"711a71f9-8716-4a33-a7e0-0130a384c68e","system_id":"levelo_inurba_marseille","lat":43.29216,"lon":5.36074,"is_reserved":false,"is_disabled":false,"rental_uris":{"android":"levelo://app?vid=711a71f9-8716-4a33-a7e0-0130a384c68e","ios":"levelo://app?vid=711a71f9-8716-4a33-a7e0-0130a384c68e"},"vehicle_type_id":"4","last_reported":1737457626,"current_range_meters":29600,"station_id":"ce4bhbh2rcd13ifvqeqg","pricing_plan_id":"cebpf4jnsgd1na2vs0mg"},{"bike_id":"50267a36-8428-4ee1-ac27-ac6a771a71af","system_id":"levelo_inurba_marseille","lat":43.33713,"lon":5.35542,"is_reserved":false,"is_disabled":true,"rental_uris":{"android":"levelo://app?vid=50267a36-8428-4ee1-ac27-ac6a771a71af","ios":"levelo://app?vid=50267a36-8428-4ee1-ac27-ac6a771a71af"},"vehicle_type_id":"4","last_reported":1737457626,"current_range_meters":0,"station_id":"","pricing_plan_id":"cebpf4jnsgd1na2vs0mg"},{"bike_id":"3fe92b36-aeff-45d5-ac72-cb1c4dcba61d","system_id":"levelo_inurba_marseille","lat":43.2976,"lon":5.39356,"is_reserved":false,"is_disabled":false,"rental_uris":{"android":"levelo://app?vid=3fe92b36-aeff-45d5-ac72-cb1c4dcba61d","ios":"levelo://app?vid=3fe92b36-aeff-45d5-ac72-cb1c4dcba61d"},"vehicle_type_id":"4","last_reported":1737457626,"current_range_meters":38000,"station_id":"chh1huq6cuj3fo74tm60","pricing_plan_id":"cebpf4jnsgd1na2vs0mg"},{"bike_id":"3dd094e6-7b23-41d2-9e4a-a9cfaaac6a3e","system_id":"levelo_inurba_marseille","lat":43.33616,"lon":5.40991,"is_reserved":false,"is_disabled":false,"rental_uris":{"android":"levelo://app?vid=3dd094e6-7b23-41d2-9e4a-a9cfaaac6a3e","ios":"levelo://app?vid=3dd094e6-7b23-41d2-9e4a-a9cfaaac6a3e"},"vehicle_type_id":"4","last_reported":1737457626,"current_range_meters":38000,"station_id":"ce4bhqh2rcd13ifvqhmg","pricing_plan_id":"cebpf4jnsgd1na2vs0mg"},{"bike_id":"d9c21922-5e17-4fed-949d-6c66576ed02b","system_id":"levelo_inurba_marseille","lat":43.31942,"lon":5.42251,"is_reserved":false,"is_disabled":false,"rental_uris":{"android":"levelo://app?vid=d9c21922-5e17-4fed-949d-6c66576ed02b","ios":"levelo://app?vid=d9c21922-5e17-4fed-949d-6c66576ed02b"},"vehicle_type_id":"4","last_reported":1737457626,"current_range_meters":37600,"station_id":"ce4bh192rcd13ifvqdc0","pricing_plan_id":"cebpf4jnsgd1na2vs0mg"},{"bike_id":"524b093f-b071-41c0-9fe4-f158e085c588","system_id":"levelo_inurba_marseille","lat":43.32481,"lon":5.36567,"is_reserved":false,"is_disabled":false,"rental_uris":{"android":"levelo://app?vid=524b093f-b071-41c0-9fe4-f158e085c588","ios":"levelo://app?vid=524b093f-b071-41c0-9fe4-f158e085c588"},"vehicle_type_id":"4","last_reported":1737457626,"current_range_meters":28800,"station_id":"ce4bhs12rcd13ifvqhvg","pricing_plan_id":"cebpf4jnsgd1na2vs0mg"},{"bike_id":"7e15284e-3aba-4da6-9122-46b9d68738ef","system_id":"levelo_inurba_marseille","lat":43.260613,"lon":5.393983,"is_reserved":false,"is_disabled":false,"rental_uris":{"android":"levelo://app?vid=7e15284e-3aba-4da6-9122-46b9d68738ef","ios":"levelo://app?vid=7e15284e-3aba-4da6-9122-46b9d68738ef"},"vehicle_type_id":"4","last_reported":1737457626,"current_range_meters":38000,"station_id":"ce4bhh92rcd13ifvqfj0","pricing_plan_id":"cebpf4jnsgd1na2vs0mg"},{"bike_id":"d3eabb8f-7db6-4520-8426-5501d37fed92","system_id":"levelo_inurba_marseille","lat":43.29004,"lon":5.35613,"is_reserved":false,"is_disabled":false,"rental_uris":{"android":"levelo://app?vid=d3eabb8f-7db6-4520-8426-5501d37fed92","ios":"levelo://app?vid=d3eabb8f-7db6-4520-8426-5501d37fed92"},"vehicle_type_id":"4","last_reported":1737457626,"current_range_meters":39200,"station_id":"ce4bhb92rcd13ifvqen0","pricing_plan_id":"cebpf4jnsgd1na2vs0mg"},{"bike_id":"de41f79a-bde3-4d61-a315-0dccdc6cda8c","system_id":"levelo_inurba_marseille","lat":43.28665,"lon":5.38654,"is_reserved":false,"is_disabled":false,"rental_uris":{"android":"levelo://app?vid=de41f79a-bde3-4d61-a315-0dccdc6cda8c","ios":"levelo://app?vid=de41f79a-bde3-4d61-a315-0dccdc6cda8c"},"vehicle_type_id":"4","last_reported":1737457626,"current_range_meters":25200,"station_id":"ce4bh492rcd13ifvqdug","pricing_plan_id":"cebpf4jnsgd1na2vs0mg"},{"bike_id":"abb7916e-16e1-4e6b-aa5f-1354530cb996","system_id":"levelo_inurba_marseille","lat":43.29075,"lon":5.37166,"is_reserved":false,"is_disabled":false,"rental_uris":{"android":"levelo://app?vid=abb7916e-16e1-4e6b-aa5f-1354530cb996","ios":"levelo://app?vid=abb7916e-16e1-4e6b-aa5f-1354530cb996"},"vehicle_type_id":"4","last_reported":1737457626,"current_range_meters":38000,"station_id":"ce4bh5p2rcd13ifvqe4g","pricing_plan_id":"cebpf4jnsgd1na2vs0mg"},{"bike_id":"4fe58642-8ec3-4f25-a4fc-eb5dc3dc47a8","system_id":"levelo_inurba_marseille","lat":43.33567,"lon":5.3616,"is_reserved":false,"is_disabled":true,"rental_uris":{"android":"levelo://app?vid=4fe58642-8ec3-4f25-a4fc-eb5dc3dc47a8","ios":"levelo://app?vid=4fe58642-8ec3-4f25-a4fc-eb5dc3dc47a8"},"vehicle_type_id":"4","last_reported":1737457626,"current_range_meters":20800,"station_id":"","pricing_plan_id":"cebpf4jnsgd1na2vs0mg"},{"bike_id":"9cccd2ff-b864-466b-83c6-b52ec2815836","system_id":"levelo_inurba_marseille","lat":43.25718,"lon":5.41109,"is_reserved":false,"is_disabled":false,"rental_uris":{"android":"levelo://app?vid=9cccd2ff-b864-466b-83c6-b52ec2815836","ios":"levelo://app?vid=9cccd2ff-b864-466b-83c6-b52ec2815836"},"vehicle_type_id":"4","last_reported":1737457626,"current_range_meters":39200,"station_id":"ce4bhkp2rcd13ifvqgd0","pricing_plan_id":"cebpf4jnsgd1na2vs0mg"},{"bike_id":"5bc669ac-d025-4cd8-811c-a7c83bdeba88","system_id":"levelo_inurba_marseille","lat":43.30895,"lon":5.36887,"is_reserved":false,"is_disabled":false,"rental_uris":{"android":"levelo://app?vid=5bc669ac-d025-4cd8-811c-a7c83bdeba88","ios":"levelo://app?vid=5bc669ac-d025-4cd8-811c-a7c83bdeba88"},"vehicle_type_id":"4","last_reported":1737457626,"current_range_meters":19200,"station_id":"ce4bgn92rcd13ifvqbvg","pricing_plan_id":"cebpf4jnsgd1na2vs0mg"},{"bike_id":"b5b91842-f1aa-4bba-964f-7a9484225fb0","system_id":"levelo_inurba_marseille","lat":43.25859,"lon":5.39912,"is_reserved":false,"is_disabled":false,"rental_uris":{"android":"levelo://app?vid=b5b91842-f1aa-4bba-964f-7a9484225fb0","ios":"levelo://app?vid=b5b91842-f1aa-4bba-964f-7a9484225fb0"},"vehicle_type_id":"4","last_reported":1737457626,"current_range_meters":38800,"station_id":"ce4bhl92rcd13ifvqghg","pricing_plan_id":"cebpf4jnsgd1na2vs0mg"},{"bike_id":"60b7d049-237a-4dbd-ad0c-436ecde1802f","system_id":"levelo_inurba_marseille","lat":43.23216,"lon":5.35524,"is_reserved":false,"is_disabled":false,"rental_uris":{"android":"levelo://app?vid=60b7d049-237a-4dbd-ad0c-436ecde1802f","ios":"levelo://app?vid=60b7d049-237a-4dbd-ad0c-436ecde1802f"},"vehicle_type_id":"4","last_reported":1737457626,"current_range_meters":21600,"station_id":"ce4bhu92rcd13ifvqi70","pricing_plan_id":"cebpf4jnsgd1na2vs0mg"},{"bike_id":"5e1b513d-ea71-497d-8734-6ed7591f1d8f","system_id":"levelo_inurba_marseille","lat":43.29312,"lon":5.37444,"is_reserved":false,"is_disabled":true,"rental_uris":{"android":"levelo://app?vid=5e1b513d-ea71-497d-8734-6ed7591f1d8f","ios":"levelo://app?vid=5e1b513d-ea71-497d-8734-6ed7591f1d8f"},"vehicle_type_id":"4","last_reported":1737457626,"current_range_meters":800,"station_id":"ce4bgi12rcd13ifvqb70","pricing_plan_id":"cebpf4jnsgd1na2vs0mg"},{"bike_id":"f7a6c901-31c8-4066-b53a-57cec004d404","system_id":"levelo_inurba_marseille","lat":43.258,"lon":5.39453,"is_reserved":false,"is_disabled":false,"rental_uris":{"android":"levelo://app?vid=f7a6c901-31c8-4066-b53a-57cec004d404","ios":"levelo://app?vid=f7a6c901-31c8-4066-b53a-57cec004d404"},"vehicle_type_id":"4","last_reported":1737457626,"current_range_meters":28400,"station_id":"ce4bhip2rcd13ifvqft0","pricing_plan_id":"cebpf4jnsgd1na2vs0mg"},{"bike_id":"7ba2285f-c7e1-4445-9284-3fc57e293d1e","system_id":"levelo_inurba_marseille","lat":43.27985,"lon":5.41664,"is_reserved":false,"is_disabled":false,"rental_uris":{"android":"levelo://app?vid=7ba2285f-c7e1-4445-9284-3fc57e293d1e","ios":"levelo://app?vid=7ba2285f-c7e1-4445-9284-3fc57e293d1e"},"vehicle_type_id":"4","last_reported":1737457626,"current_range_meters":8000,"station_id":"ce4bho12rcd13ifvqh1g","pricing_plan_id":"cebpf4jnsgd1na2vs0mg"},{"bike_id":"86d67274-3f7f-4b7f-936e-b73e7a0da0d3","system_id":"levelo_inurba_marseille","lat":43.30519,"lon":5.36728,"is_reserved":false,"is_disabled":false,"rental_uris":{"android":"levelo://app?vid=86d67274-3f7f-4b7f-936e-b73e7a0da0d3","ios":"levelo://app?vid=86d67274-3f7f-4b7f-936e-b73e7a0da0d3"},"vehicle_type_id":"4","last_reported":1737457626,"current_range_meters":38800,"station_id":"ce4bgrp2rcd13ifvqc9g","pricing_plan_id":"cebpf4jnsgd1na2vs0mg"},{"bike_id":"792370a9-f1f1-4881-b0e4-75ce4c22b313","system_id":"levelo_inurba_marseille","lat":43.29367,"lon":5.37829,"is_reserved":false,"is_disabled":false,"rental_uris":{"android":"levelo://app?vid=792370a9-f1f1-4881-b0e4-75ce4c22b313","ios":"levelo://app?vid=792370a9-f1f1-4881-b0e4-75ce4c22b313"},"vehicle_type_id":"4","last_reported":1737457626,"current_range_meters":29600,"station_id":"ce4bgjh2rcd13ifvqbf0","pricing_plan_id":"cebpf4jnsgd1na2vs0mg"},{"bike_id":"f2b8aeab-8c5b-4c5c-8520-4e486493b3b3","system_id":"levelo_inurba_marseille","lat":43.29634,"lon":5.3718,"is_reserved":false,"is_disabled":false,"rental_uris":{"android":"levelo://app?vid=f2b8aeab-8c5b-4c5c-8520-4e486493b3b3","ios":"levelo://app?vid=f2b8aeab-8c5b-4c5c-8520-4e486493b3b3"},"vehicle_type_id":"4","last_reported":1737457626,"current_range_meters":8800,"station_id":"ce4bgnh2rcd13ifvqc0g","pricing_plan_id":"cebpf4jnsgd1na2vs0mg"},{"bike_id":"5f332c0c-02d1-4eb7-a43a-51173c240f7e","system_id":"levelo_inurba_marseille","lat":43.269506,"lon":5.386333,"is_reserved":false,"is_disabled":false,"rental_uris":{"android":"levelo://app?vid=5f332c0c-02d1-4eb7-a43a-51173c240f7e","ios":"levelo://app?vid=5f332c0c-02d1-4eb7-a43a-51173c240f7e"},"vehicle_type_id":"4","last_reported":1737457626,"current_range_meters":38800,"station_id":"ce4bhh92rcd13ifvqfh0","pricing_plan_id":"cebpf4jnsgd1na2vs0mg"},{"bike_id":"cea541d4-3f8e-4079-91ad-02075f617536","system_id":"levelo_inurba_marseille","lat":43.27375,"lon":5.36257,"is_reserved":false,"is_disabled":false,"rental_uris":{"android":"levelo://app?vid=cea541d4-3f8e-4079-91ad-02075f617536","ios":"levelo://app?vid=cea541d4-3f8e-4079-91ad-02075f617536"},"vehicle_type_id":"4","last_reported":1737457626,"current_range_meters":24000,"station_id":"ce4bhbh2rcd13ifvqeo0","pricing_plan_id":"cebpf4jnsgd1na2vs0mg"},{"bike_id":"95b517d0-9dcf-47f9-8053-773bec6e6a69","system_id":"levelo_inurba_marseille","lat":43.26664,"lon":5.39536,"is_reserved":false,"is_disabled":false,"rental_uris":{"android":"levelo://app?vid=95b517d0-9dcf-47f9-8053-773bec6e6a69","ios":"levelo://app?vid=95b517d0-9dcf-47f9-8053-773bec6e6a69"},"vehicle_type_id":"4","last_reported":1737457626,"current_range_meters":4400,"station_id":"","pricing_plan_id":"cebpf4jnsgd1na2vs0mg"},{"bike_id":"9b2f2c5a-86f7-4b7c-b57c-089df4ebeeb5","system_id":"levelo_inurba_marseille","lat":43.24072,"lon":5.37758,"is_reserved":false,"is_disabled":false,"rental_uris":{"android":"levelo://app?vid=9b2f2c5a-86f7-4b7c-b57c-089df4ebeeb5","ios":"levelo://app?vid=9b2f2c5a-86f7-4b7c-b57c-089df4ebeeb5"},"vehicle_type_id":"4","last_reported":1737457626,"current_range_meters":32800,"station_id":"ce4bhnp2rcd13ifvqgvg","pricing_plan_id":"cebpf4jnsgd1na2vs0mg"},{"bike_id":"4f990209-04d5-4ce5-bcf6-1abc31b5d30d","system_id":"levelo_inurba_marseille","lat":43.305188,"lon":5.365457,"is_reserved":false,"is_disabled":false,"rental_uris":{"android":"levelo://app?vid=4f990209-04d5-4ce5-bcf6-1abc31b5d30d","ios":"levelo://app?vid=4f990209-04d5-4ce5-bcf6-1abc31b5d30d"},"vehicle_type_id":"4","last_reported":1737457626,"current_range_meters":38800,"station_id":"","pricing_plan_id":"cebpf4jnsgd1na2vs0mg"},{"bike_id":"a2665873-ff7d-4ec2-9a56-ebacf8c35007","system_id":"levelo_inurba_marseille","lat":43.29223,"lon":5.36073,"is_reserved":false,"is_disabled":false,"rental_uris":{"android":"levelo://app?vid=a2665873-ff7d-4ec2-9a56-ebacf8c35007","ios":"levelo://app?vid=a2665873-ff7d-4ec2-9a56-ebacf8c35007"},"vehicle_type_id":"4","last_reported":1737457626,"current_range_meters":28400,"station_id":"ce4bhbh2rcd13ifvqeqg","pricing_plan_id":"cebpf4jnsgd1na2vs0mg"},{"bike_id":"786757ae-b10f-40c4-b380-0b2af1144c2a","system_id":"levelo_inurba_marseille","lat":43.24066,"lon":5.37752,"is_reserved":false,"is_disabled":false,"rental_uris":{"android":"levelo://app?vid=786757ae-b10f-40c4-b380-0b2af1144c2a","ios":"levelo://app?vid=786757ae-b10f-40c4-b380-0b2af1144c2a"},"vehicle_type_id":"4","last_reported":1737457626,"current_range_meters":24400,"station_id":"ce4bhnp2rcd13ifvqgvg","pricing_plan_id":"cebpf4jnsgd1na2vs0mg"},{"bike_id":"292f8adc-7623-41ea-a3ea-158a93156577","system_id":"levelo_inurba_marseille","lat":43.30527,"lon":5.38424,"is_reserved":false,"is_disabled":false,"rental_uris":{"android":"levelo://app?vid=292f8adc-7623-41ea-a3ea-158a93156577","ios":"levelo://app?vid=292f8adc-7623-41ea-a3ea-158a93156577"},"vehicle_type_id":"4","last_reported":1737457626,"current_range_meters":29600,"station_id":"ce4bgg92rcd13ifvqb30","pricing_plan_id":"cebpf4jnsgd1na2vs0mg"},{"bike_id":"1b2eceb2-0927-4f49-927f-549ccba4e5d5","system_id":"levelo_inurba_marseille","lat":43.31334,"lon":5.39693,"is_reserved":false,"is_disabled":false,"rental_uris":{"android":"levelo://app?vid=1b2eceb2-0927-4f49-927f-549ccba4e5d5","ios":"levelo://app?vid=1b2eceb2-0927-4f49-927f-549ccba4e5d5"},"vehicle_type_id":"4","last_reported":1737457626,"current_range_meters":38800,"station_id":"ce4bgvp2rcd13ifvqcu0","pricing_plan_id":"cebpf4jnsgd1na2vs0mg"},{"bike_id":"09271c13-bc57-4a1b-ad60-73ddd2d0ee51","system_id":"levelo_inurba_marseille","lat":43.31367,"lon":5.36746,"is_reserved":false,"is_disabled":false,"rental_uris":{"android":"levelo://app?vid=09271c13-bc57-4a1b-ad60-73ddd2d0ee51","ios":"levelo://app?vid=09271c13-bc57-4a1b-ad60-73ddd2d0ee51"},"vehicle_type_id":"4","last_reported":1737457626,"current_range_meters":39200,"station_id":"ce4bgr92rcd13ifvqc6g","pricing_plan_id":"cebpf4jnsgd1na2vs0mg"},{"bike_id":"2ddf8f2a-7b47-442c-b23e-f4d6077f6772","system_id":"levelo_inurba_marseille","lat":43.3238,"lon":5.3885,"is_reserved":false,"is_disabled":false,"rental_uris":{"android":"levelo://app?vid=2ddf8f2a-7b47-442c-b23e-f4d6077f6772","ios":"levelo://app?vid=2ddf8f2a-7b47-442c-b23e-f4d6077f6772"},"vehicle_type_id":"4","last_reported":1737457626,"current_range_meters":35200,"station_id":"ce4bhqp2rcd13ifvqhog","pricing_plan_id":"cebpf4jnsgd1na2vs0mg"},{"bike_id":"ab2947e6-a4a5-49b2-8120-3af82d07ff40","system_id":"levelo_inurba_marseille","lat":43.2417,"lon":5.39726,"is_reserved":false,"is_disabled":false,"rental_uris":{"android":"levelo://app?vid=ab2947e6-a4a5-49b2-8120-3af82d07ff40","ios":"levelo://app?vid=ab2947e6-a4a5-49b2-8120-3af82d07ff40"},"vehicle_type_id":"4","last_reported":1737457626,"current_range_meters":27600,"station_id":"ce4bhn12rcd13ifvqgpg","pricing_plan_id":"cebpf4jnsgd1na2vs0mg"},{"bike_id":"15bc919d-f61d-4a8e-ac60-194ef0657f58","system_id":"levelo_inurba_marseille","lat":43.287484,"lon":5.389225,"is_reserved":false,"is_disabled":false,"rental_uris":{"android":"levelo://app?vid=15bc919d-f61d-4a8e-ac60-194ef0657f58","ios":"levelo://app?vid=15bc919d-f61d-4a8e-ac60-194ef0657f58"},"vehicle_type_id":"4","last_reported":1737457626,"current_range_meters":8000,"station_id":"ce4bgkp2rcd13ifvqbmg","pricing_plan_id":"cebpf4jnsgd1na2vs0mg"},{"bike_id":"8416c2eb-29ef-40ca-bcab-1cbe26f7589e","system_id":"levelo_inurba_marseille","lat":43.28459,"lon":5.35882,"is_reserved":false,"is_disabled":false,"rental_uris":{"android":"levelo://app?vid=8416c2eb-29ef-40ca-bcab-1cbe26f7589e","ios":"levelo://app?vid=8416c2eb-29ef-40ca-bcab-1cbe26f7589e"},"vehicle_type_id":"4","last_reported":1737457626,"current_range_meters":31200,"station_id":"ce4bhah2rcd13ifvqei0","pricing_plan_id":"cebpf4jnsgd1na2vs0mg"},{"bike_id":"0aaedd18-95c7-458b-bb63-6504ef2e11ba","system_id":"levelo_inurba_marseille","lat":43.321048,"lon":5.367764,"is_reserved":false,"is_disabled":false,"rental_uris":{"android":"levelo://app?vid=0aaedd18-95c7-458b-bb63-6504ef2e11ba","ios":"levelo://app?vid=0aaedd18-95c7-458b-bb63-6504ef2e11ba"},"vehicle_type_id":"4","last_reported":1737457626,"current_range_meters":34000,"station_id":"ce4bhrh2rcd13ifvqhug","pricing_plan_id":"cebpf4jnsgd1na2vs0mg"},{"bike_id":"b4b8d306-3fcb-4285-9db5-3958f77c2583","system_id":"levelo_inurba_marseille","lat":43.26061,"lon":5.39388,"is_reserved":false,"is_disabled":false,"rental_uris":{"android":"levelo://app?vid=b4b8d306-3fcb-4285-9db5-3958f77c2583","ios":"levelo://app?vid=b4b8d306-3fcb-4285-9db5-3958f77c2583"},"vehicle_type_id":"4","last_reported":1737457626,"current_range_meters":38800,"station_id":"ce4bhh92rcd13ifvqfj0","pricing_plan_id":"cebpf4jnsgd1na2vs0mg"},{"bike_id":"f4abdf2f-7e08-48a3-91f7-509eeba022a8","system_id":"levelo_inurba_marseille","lat":43.28706,"lon":5.39978,"is_reserved":false,"is_disabled":false,"rental_uris":{"android":"levelo://app?vid=f4abdf2f-7e08-48a3-91f7-509eeba022a8","ios":"levelo://app?vid=f4abdf2f-7e08-48a3-91f7-509eeba022a8"},"vehicle_type_id":"4","last_reported":1737457626,"current_range_meters":24800,"station_id":"ce4bho92rcd13ifvqh3g","pricing_plan_id":"cebpf4jnsgd1na2vs0mg"},{"bike_id":"3b5d5d11-a35c-423c-93d0-a2dcf2f39188","system_id":"levelo_inurba_marseille","lat":43.31223,"lon":5.3686,"is_reserved":false,"is_disabled":false,"rental_uris":{"android":"levelo://app?vid=3b5d5d11-a35c-423c-93d0-a2dcf2f39188","ios":"levelo://app?vid=3b5d5d11-a35c-423c-93d0-a2dcf2f39188"},"vehicle_type_id":"4","last_reported":1737457626,"current_range_meters":19600,"station_id":"ce4bgl92rcd13ifvqbq0","pricing_plan_id":"cebpf4jnsgd1na2vs0mg"},{"bike_id":"a00f9d10-2df3-4a8a-9537-639a60aaa7db","system_id":"levelo_inurba_marseille","lat":43.324736,"lon":5.365714,"is_reserved":false,"is_disabled":false,"rental_uris":{"android":"levelo://app?vid=a00f9d10-2df3-4a8a-9537-639a60aaa7db","ios":"levelo://app?vid=a00f9d10-2df3-4a8a-9537-639a60aaa7db"},"vehicle_type_id":"4","last_reported":1737457626,"current_range_meters":36000,"station_id":"ce4bhs12rcd13ifvqhvg","pricing_plan_id":"cebpf4jnsgd1na2vs0mg"},{"bike_id":"31f12d37-233f-4d11-8582-b418f5aaf7bf","system_id":"levelo_inurba_marseille","lat":43.29071,"lon":5.38017,"is_reserved":false,"is_disabled":false,"rental_uris":{"android":"levelo://app?vid=31f12d37-233f-4d11-8582-b418f5aaf7bf","ios":"levelo://app?vid=31f12d37-233f-4d11-8582-b418f5aaf7bf"},"vehicle_type_id":"4","last_reported":1737457626,"current_range_meters":39200,"station_id":"ce4bh4p2rcd13ifvqe1g","pricing_plan_id":"cebpf4jnsgd1na2vs0mg"},{"bike_id":"e26d020d-1350-48bb-82bc-1b0761eb6af5","system_id":"levelo_inurba_marseille","lat":43.23188,"lon":5.39991,"is_reserved":false,"is_disabled":false,"rental_uris":{"android":"levelo://app?vid=e26d020d-1350-48bb-82bc-1b0761eb6af5","ios":"levelo://app?vid=e26d020d-1350-48bb-82bc-1b0761eb6af5"},"vehicle_type_id":"4","last_reported":1737457626,"current_range_meters":38800,"station_id":"ce4bhn12rcd13ifvqgqg","pricing_plan_id":"cebpf4jnsgd1na2vs0mg"},{"bike_id":"bdd31bc1-7837-4952-aba6-abdb0e3c8119","system_id":"levelo_inurba_marseille","lat":43.29906,"lon":5.3814,"is_reserved":false,"is_disabled":false,"rental_uris":{"android":"levelo://app?vid=bdd31bc1-7837-4952-aba6-abdb0e3c8119","ios":"levelo://app?vid=bdd31bc1-7837-4952-aba6-abdb0e3c8119"},"vehicle_type_id":"4","last_reported":1737457626,"current_range_meters":38000,"station_id":"ce4bgj12rcd13ifvqbc0","pricing_plan_id":"cebpf4jnsgd1na2vs0mg"},{"bike_id":"66478d49-5e38-4abd-af69-5beadd62614f","system_id":"levelo_inurba_marseille","lat":43.29258,"lon":5.3844,"is_reserved":false,"is_disabled":false,"rental_uris":{"android":"levelo://app?vid=66478d49-5e38-4abd-af69-5beadd62614f","ios":"levelo://app?vid=66478d49-5e38-4abd-af69-5beadd62614f"},"vehicle_type_id":"4","last_reported":1737457626,"current_range_meters":17200,"station_id":"ce4bh692rcd13ifvqea0","pricing_plan_id":"cebpf4jnsgd1na2vs0mg"},{"bike_id":"488bfa36-67c5-4f2e-bac5-b8d42b5e605e","system_id":"levelo_inurba_marseille","lat":43.30129,"lon":5.37426,"is_reserved":false,"is_disabled":false,"rental_uris":{"android":"levelo://app?vid=488bfa36-67c5-4f2e-bac5-b8d42b5e605e","ios":"levelo://app?vid=488bfa36-67c5-4f2e-bac5-b8d42b5e605e"},"vehicle_type_id":"4","last_reported":1737457626,"current_range_meters":32800,"station_id":"ce4bgs92rcd13ifvqcc0","pricing_plan_id":"cebpf4jnsgd1na2vs0mg"},{"bike_id":"afa3a9d2-1759-4a26-994b-d08c29272add","system_id":"levelo_inurba_marseille","lat":43.31718,"lon":5.42418,"is_reserved":false,"is_disabled":true,"rental_uris":{"android":"levelo://app?vid=afa3a9d2-1759-4a26-994b-d08c29272add","ios":"levelo://app?vid=afa3a9d2-1759-4a26-994b-d08c29272add"},"vehicle_type_id":"4","last_reported":1737457626,"current_range_meters":17200,"station_id":"ce4bhp92rcd13ifvqhbg","pricing_plan_id":"cebpf4jnsgd1na2vs0mg"},{"bike_id":"586a1c41-11d4-4205-8447-2266a0160e78","system_id":"levelo_inurba_marseille","lat":43.26194,"lon":5.37941,"is_reserved":false,"is_disabled":false,"rental_uris":{"android":"levelo://app?vid=586a1c41-11d4-4205-8447-2266a0160e78","ios":"levelo://app?vid=586a1c41-11d4-4205-8447-2266a0160e78"},"vehicle_type_id":"4","last_reported":1737457626,"current_range_meters":38800,"station_id":"ce4bhjp2rcd13ifvqg90","pricing_plan_id":"cebpf4jnsgd1na2vs0mg"},{"bike_id":"3e9716e6-97de-48aa-93b5-f407193a959f","system_id":"levelo_inurba_marseille","lat":43.30422,"lon":5.38893,"is_reserved":false,"is_disabled":false,"rental_uris":{"android":"levelo://app?vid=3e9716e6-97de-48aa-93b5-f407193a959f","ios":"levelo://app?vid=3e9716e6-97de-48aa-93b5-f407193a959f"},"vehicle_type_id":"4","last_reported":1737457626,"current_range_meters":14400,"station_id":"ce4bgk12rcd13ifvqbi0","pricing_plan_id":"cebpf4jnsgd1na2vs0mg"},{"bike_id":"da00c34d-dbd3-4a0a-b2c5-7ceb62977801","system_id":"levelo_inurba_marseille","lat":43.24077,"lon":5.37744,"is_reserved":false,"is_disabled":false,"rental_uris":{"android":"levelo://app?vid=da00c34d-dbd3-4a0a-b2c5-7ceb62977801","ios":"levelo://app?vid=da00c34d-dbd3-4a0a-b2c5-7ceb62977801"},"vehicle_type_id":"4","last_reported":1737457626,"current_range_meters":38800,"station_id":"ce4bhnp2rcd13ifvqgvg","pricing_plan_id":"cebpf4jnsgd1na2vs0mg"},{"bike_id":"d7e117ca-16bf-4121-a8b8-c81a7896ce47","system_id":"levelo_inurba_marseille","lat":43.28175,"lon":5.42608,"is_reserved":false,"is_disabled":false,"rental_uris":{"android":"levelo://app?vid=d7e117ca-16bf-4121-a8b8-c81a7896ce47","ios":"levelo://app?vid=d7e117ca-16bf-4121-a8b8-c81a7896ce47"},"vehicle_type_id":"4","last_reported":1737457626,"current_range_meters":6000,"station_id":"ce4bhnh2rcd13ifvqgug","pricing_plan_id":"cebpf4jnsgd1na2vs0mg"},