{"last_updated":1758398980,"ttl":60,"version":"2.2","data":{"bikes":[{"bike_id":"14cb5118-5300-4673-84ca-614a9d7d539b","system_id":"levelo_inurba_marseille","lat":43.29526,"lon":5.38549,"is_reserved":false,"is_disabled":false,"rental_uris":{"android":"levelo://app?vid=14cb5118-5300-4673-84ca-614a9d7d539b","ios":"levelo://app?vid=14cb5118-5300-4673-84ca-614a9d7d539b"},"vehicle_type_id":"4","last_reported":1758398980,"current_range_meters":2800,"station_id":"ce4bgih2rcd13ifvqba0","pricing_plan_id":"cebpf4jnsgd1na2vs0mg"},{"bike_id":"5e1549e6-879c-42e0-8ce8-b9675e30105c","system_id":"levelo_inurba_marseille","lat":43.21182,"lon":5.35072,"is_reserved":false,"is_disabled":false,"rental_uris":{"android":"levelo://app?vid=5e1549e6-879c-42e0-8ce8-b9675e30105c","ios":"levelo://app?vid=5e1549e6-879c-42e0-8ce8-b9675e30105c"},"vehicle_type_id":"4","last_reported":1758398980,"current_range_meters":2800,"station_id":"st_cvj6sg6p6f1abm77japg","pricing_plan_id":"cebpf4jnsgd1na2vs0mg"},{"bike_id":"e5dccdbb-0931-4eee-8262-cedecfd231cf","system_id":"levelo_inurba_marseille","lat":43.28445,"lon":5.39196,"is_reserved":false,"is_disabled":false,"rental_uris":{"android":"levelo://app?vid=e5dccdbb-0931-4eee-8262-cedecfd231cf","ios":"levelo://app?vid=e5dccdbb-0931-4eee-8262-cedecfd231cf"},"vehicle_type_id":"4","last_reported":1758398980,"current_range_meters":2800,"station_id":"ce4bhoh2rcd13ifvqh5g","pricing_plan_id":"cebpf4jnsgd1na2vs0mg"},{"bike_id":"ce9b6b4c-8976-4c01-88e2-79eb967dd1ae","system_id":"levelo_inurba_marseille","lat":43.2749,"lon":5.42455,"is_reserved":false,"is_disabled":true,"rental_uris":{"android":"levelo://app?vid=ce9b6b4c-8976-4c01-88e2-79eb967dd1ae","ios":"levelo://app?vid=ce9b6b4c-8976-4c01-88e2-79eb967dd1ae"},"vehicle_type_id":"4","last_reported":1758398980,"current_range_meters":2800,"station_id":"ce4bhn92rcd13ifvqgrg","pricing_plan_id":"cebpf4jnsgd1na2vs0mg"},{"bike_id":"bb677c28-d20a-474b-a24e-e29ce10d833d","system_id":"levelo_inurba_marseille","lat":43.26558,"lon":5.37284,"is_reserved":false,"is_disabled":false,"rental_uris":{"android":"levelo://app?vid=bb677c28-d20a-474b-a24e-e29ce10d833d","ios":"levelo://app?vid=bb677c28-d20a-474b-a24e-e29ce10d833d"},"vehicle_type_id":"4","last_reported":1758398980,"current_range_meters":2800,"station_id":"ce4bhg12rcd13ifvqf70","pricing_plan_id":"cebpf4jnsgd1na2vs0mg"},{"bike_id":"85c8e685-734d-4760-966b-86b771a65d9b","system_id":"levelo_inurba_marseille","lat":43.212,"lon":5.350735,"is_reserved":false,"is_disabled":true,"rental_uris":{"android":"levelo://app?vid=85c8e685-734d-4760-966b-86b771a65d9b","ios":"levelo://app?vid=85c8e685-734d-4760-966b-86b771a65d9b"},"vehicle_type_id":"4","last_reported":1758398980,"current_range_meters":3200,"station_id":"st_cvj6sg6p6f1abm77japg","pricing_plan_id":"cebpf4jnsgd1na2vs0mg"},{"bike_id":"db4286d7-bfe6-4216-aade-ccdf61d587dc","system_id":"levelo_inurba_marseille","lat":43.30148,"lon":5.3879,"is_reserved":false,"is_disabled":true,"rental_uris":{"android":"levelo://app?vid=db4286d7-bfe6-4216-aade-ccdf61d587dc","ios":"levelo://app?vid=db4286d7-bfe6-4216-aade-ccdf61d587dc"},"vehicle_type_id":"4","last_reported":1758398980,"current_range_meters":3200,"station_id":"ce4bghh2rcd13ifvqb60","pricing_plan_id":"cebpf4jnsgd1na2vs0mg"},{"bike_id":"577d0e24-bf90-43b8-a759-bea08b7d7e19","system_id":"levelo_inurba_marseille","lat":43.21733,"lon":5.34601,"is_reserved":false,"is_disabled":true,"rental_uris":{"android":"levelo://app?vid=577d0e24-bf90-43b8-a759-bea08b7d7e19","ios":"levelo://app?vid=577d0e24-bf90-43b8-a759-bea08b7d7e19"},"vehicle_type_id":"4","last_reported":1758398980,"current_range_meters":3200,"station_id":"st_cvj6r9ubvosntc0bgbag","pricing_plan_id":"cebpf4jnsgd1na2vs0mg"},{"bike_id":"e0c4a626-1af0-4122-9c17-888d8c9d1304","system_id":"levelo_inurba_marseille","lat":43.295,"lon":5.38546,"is_reserved":false,"is_disabled":false,"rental_uris":{"android":"levelo://app?vid=e0c4a626-1af0-4122-9c17-888d8c9d1304","ios":"levelo://app?vid=e0c4a626-1af0-4122-9c17-888d8c9d1304"},"vehicle_type_id":"4","last_reported":1758398980,"current_range_meters":3200,"station_id":"ce4bgih2rcd13ifvqba0","pricing_plan_id":"cebpf4jnsgd1na2vs0mg"},{"bike_id":"42323a1a-489c-43cb-90ae-c675b27444d5","system_id":"levelo_inurba_marseille","lat":43.21637,"lon":5.3437,"is_reserved":false,"is_disabled":false,"rental_uris":{"android":"levelo://app?vid=42323a1a-489c-43cb-90ae-c675b27444d5","ios":"levelo://app?vid=42323a1a-489c-43cb-90ae-c675b27444d5"},"vehicle_type_id":"4","last_reported":1758398980,"current_range_meters":3200,"station_id":"","pricing_plan_id":"cebpf4jnsgd1na2vs0mg"},{"bike_id":"b53485c1-8096-4e7c-b661-1826b15f9324","system_id":"levelo_inurba_marseille","lat":43.21738,"lon":5.34606,"is_reserved":false,"is_disabled":false,"rental_uris":{"android":"levelo://app?vid=b53485c1-8096-4e7c-b661-1826b15f9324","ios":"levelo://app?vid=b53485c1-8096-4e7c-b661-1826b15f9324"},"vehicle_type_id":"4","last_reported":1758398980,"current_range_meters":3200,"station_id":"st_cvj6r9ubvosntc0bgbag","pricing_plan_id":"cebpf4jnsgd1na2vs0mg"},{"bike_id":"84696f0c-497e-428b-949a-6d4d80c53e35","system_id":"levelo_inurba_marseille","lat":43.2986,"lon":5.39744,"is_reserved":false,"is_disabled":false,"rental_uris":{"android":"levelo://app?vid=84696f0c-497e-428b-949a-6d4d80c53e35","ios":"levelo://app?vid=84696f0c-497e-428b-949a-6d4d80c53e35"},"vehicle_type_id":"4","last_reported":1758398980,"current_range_meters":3200,"station_id":"ce4bh0h2rcd13ifvqd50","pricing_plan_id":"cebpf4jnsgd1na2vs0mg"},{"bike_id":"e942f984-8fe7-48d1-8f04-3806656b9996","system_id":"levelo_inurba_marseille","lat":43.3363,"lon":5.37929,"is_reserved":false,"is_disabled":false,"rental_uris":{"android":"levelo://app?vid=e942f984-8fe7-48d1-8f04-3806656b9996","ios":"levelo://app?vid=e942f984-8fe7-48d1-8f04-3806656b9996"},"vehicle_type_id":"4","last_reported":1758398980,"current_range_meters":3600,"station_id":"","pricing_plan_id":"cebpf4jnsgd1na2vs0mg"},{"bike_id":"522d2b18-b329-41d2-8091-4f9abc52ef66","system_id":"levelo_inurba_marseille","lat":43.3091,"lon":5.36846,"is_reserved":false,"is_disabled":false,"rental_uris":{"android":"levelo://app?vid=522d2b18-b329-41d2-8091-4f9abc52ef66","ios":"levelo://app?vid=522d2b18-b329-41d2-8091-4f9abc52ef66"},"vehicle_type_id":"4","last_reported":1758398980,"current_range_meters":3600,"station_id":"ce4bgn92rcd13ifvqbvg","pricing_plan_id":"cebpf4jnsgd1na2vs0mg"},{"bike_id":"bf4a70a9-11a1-40f0-9ac4-fe19c24770ca","system_id":"levelo_inurba_marseille","lat":43.30058,"lon":5.375871,"is_reserved":false,"is_disabled":false,"rental_uris":{"android":"levelo://app?vid=bf4a70a9-11a1-40f0-9ac4-fe19c24770ca","ios":"levelo://app?vid=bf4a70a9-11a1-40f0-9ac4-fe19c24770ca"},"vehicle_type_id":"4","last_reported":1758398980,"current_range_meters":3600,"station_id":"","pricing_plan_id":"cebpf4jnsgd1na2vs0mg"},{"bike_id":"2835a716-58c0-4c94-af9e-b4879448a6c6","system_id":"levelo_inurba_marseille","lat":43.25114,"lon":5.40324,"is_reserved":false,"is_disabled":false,"rental_uris":{"android":"levelo://app?vid=2835a716-58c0-4c94-af9e-b4879448a6c6","ios":"levelo://app?vid=2835a716-58c0-4c94-af9e-b4879448a6c6"},"vehicle_type_id":"4","last_reported":1758398980,"current_range_meters":3600,"station_id":"ce4bhlh2rcd13ifvqgig","pricing_plan_id":"cebpf4jnsgd1na2vs0mg"},{"bike_id":"25a2af45-2f36-4dfa-b821-ff4cce3f1bb3","system_id":"levelo_inurba_marseille","lat":43.29971,"lon":5.38482,"is_reserved":false,"is_disabled":false,"rental_uris":{"android":"levelo://app?vid=25a2af45-2f36-4dfa-b821-ff4cce3f1bb3","ios":"levelo://app?vid=25a2af45-2f36-4dfa-b821-ff4cce3f1bb3"},"vehicle_type_id":"4","last_reported":1758398980,"current_range_meters":4000,"station_id":"ce4bgj92rcd13ifvqbd0","pricing_plan_id":"cebpf4jnsgd1na2vs0mg"},{"bike_id":"606336d6-6d90-4335-a928-c76cb004bae9","system_id":"levelo_inurba_marseille","lat":43.25724,"lon":5.41111,"is_reserved":false,"is_disabled":false,"rental_uris":{"android":"levelo://app?vid=606336d6-6d90-4335-a928-c76cb004bae9","ios":"levelo://app?vid=606336d6-6d90-4335-a928-c76cb004bae9"},"vehicle_type_id":"4","last_reported":1758398980,"current_range_meters":3600,"station_id":"ce4bhkp2rcd13ifvqgd0","pricing_plan_id":"cebpf4jnsgd1na2vs0mg"},{"bike_id":"9c99e1ef-43af-4561-89ef-a65b35e3f241","system_id":"levelo_inurba_marseille","lat":43.296052,"lon":5.381035,"is_reserved":false,"is_disabled":false,"rental_uris":{"android":"levelo://app?vid=9c99e1ef-43af-4561-89ef-a65b35e3f241","ios":"levelo://app?vid=9c99e1ef-43af-4561-89ef-a65b35e3f241"},"vehicle_type_id":"4","last_reported":1758398980,"current_range_meters":4000,"station_id":"ce4bgl12rcd13ifvqbo0","pricing_plan_id":"cebpf4jnsgd1na2vs0mg"},{"bike_id":"618d815b-a5a1-4a7e-89ec-653134ae0a4f","system_id":"levelo_inurba_marseille","lat":43.21195,"lon":5.35089,"is_reserved":false,"is_disabled":false,"rental_uris":{"android":"levelo://app?vid=618d815b-a5a1-4a7e-89ec-653134ae0a4f","ios":"levelo://app?vid=618d815b-a5a1-4a7e-89ec-653134ae0a4f"},"vehicle_type_id":"4","last_reported":1758398980,"current_range_meters":4000,"station_id":"st_cvj6sg6p6f1abm77japg","pricing_plan_id":"cebpf4jnsgd1na2vs0mg"},{"bike_id":"13631fe9-17b3-4b2d-9a48-037250c1ce2a","system_id":"levelo_inurba_marseille","lat":43.3115,"lon":5.39471,"is_reserved":false,"is_disabled":false,"rental_uris":{"android":"levelo://app?vid=13631fe9-17b3-4b2d-9a48-037250c1ce2a","ios":"levelo://app?vid=13631fe9-17b3-4b2d-9a48-037250c1ce2a"},"vehicle_type_id":"4","last_reported":1758398980,"current_range_meters":4000,"station_id":"","pricing_plan_id":"cebpf4jnsgd1na2vs0mg"},{"bike_id":"356cbb0e-7aa6-4741-9f5e-dcc7e02f184c","system_id":"levelo_inurba_marseille","lat":43.2318,"lon":5.39984,"is_reserved":false,"is_disabled":false,"rental_uris":{"android":"levelo://app?vid=356cbb0e-7aa6-4741-9f5e-dcc7e02f184c","ios":"levelo://app?vid=356cbb0e-7aa6-4741-9f5e-dcc7e02f184c"},"vehicle_type_id":"4","last_reported":1758398980,"current_range_meters":3600,"station_id":"ce4bhn12rcd13ifvqgqg","pricing_plan_id":"cebpf4jnsgd1na2vs0mg"},{"bike_id":"9b01b188-aede-48af-be37-27d11df0db52","system_id":"levelo_inurba_marseille","lat":43.2924,"lon":5.38441,"is_reserved":false,"is_disabled":false,"rental_uris":{"android":"levelo://app?vid=9b01b188-aede-48af-be37-27d11df0db52","ios":"levelo://app?vid=9b01b188-aede-48af-be37-27d11df0db52"},"vehicle_type_id":"4","last_reported":1758398980,"current_range_meters":4000,"station_id":"ce4bh692rcd13ifvqea0","pricing_plan_id":"cebpf4jnsgd1na2vs0mg"},{"bike_id":"75d8b0cc-bc9d-4ca2-a761-b8a8b50a9d73","system_id":"levelo_inurba_marseille","lat":43.292464,"lon":5.384359,"is_reserved":false,"is_disabled":false,"rental_uris":{"android":"levelo://app?vid=75d8b0cc-bc9d-4ca2-a761-b8a8b50a9d73","ios":"levelo://app?vid=75d8b0cc-bc9d-4ca2-a761-b8a8b50a9d73"},"vehicle_type_id":"4","last_reported":1758398980,"current_range_meters":4000,"station_id":"ce4bh692rcd13ifvqea0","pricing_plan_id":"cebpf4jnsgd1na2vs0mg"},{"bike_id":"1c1fcc81-bb28-4a69-9c78-f711c48fa4fc","system_id":"levelo_inurba_marseille","lat":43.300199,"lon":5.388866,"is_reserved":false,"is_disabled":false,"rental_uris":{"android":"levelo://app?vid=1c1fcc81-bb28-4a69-9c78-f711c48fa4fc","ios":"levelo://app?vid=1c1fcc81-bb28-4a69-9c78-f711c48fa4fc"},"vehicle_type_id":"4","last_reported":1758398980,"current_range_meters":4000,"station_id":"ce4bh192rcd13ifvqdb0","pricing_plan_id":"cebpf4jnsgd1na2vs0mg"},{"bike_id":"dd54508b-cebc-429e-947d-94cace74c022","system_id":"levelo_inurba_marseille","lat":43.23956,"lon":5.36626,"is_reserved":false,"is_disabled":true,"rental_uris":{"android":"levelo://app?vid=dd54508b-cebc-429e-947d-94cace74c022","ios":"levelo://app?vid=dd54508b-cebc-429e-947d-94cace74c022"},"vehicle_type_id":"4","last_reported":1758398980,"current_range_meters":4400,"station_id":"ce4bhi12rcd13ifvqfp0","pricing_plan_id":"cebpf4jnsgd1na2vs0mg"},{"bike_id":"2f0c84be-e020-4960-9408-7685a02d0829","system_id":"levelo_inurba_marseille","lat":43.21757,"lon":5.34607,"is_reserved":false,"is_disabled":true,"rental_uris":{"android":"levelo://app?vid=2f0c84be-e020-4960-9408-7685a02d0829","ios":"levelo://app?vid=2f0c84be-e020-4960-9408-7685a02d0829"},"vehicle_type_id":"4","last_reported":1758398980,"current_range_meters":4400,"station_id":"st_cvj6r9ubvosntc0bgbag","pricing_plan_id":"cebpf4jnsgd1na2vs0mg"},{"bike_id":"96697037-a910-4dc5-bb99-392955d45522","system_id":"levelo_inurba_marseille","lat":43.30621,"lon":5.37228,"is_reserved":false,"is_disabled":false,"rental_uris":{"android":"levelo://app?vid=96697037-a910-4dc5-bb99-392955d45522","ios":"levelo://app?vid=96697037-a910-4dc5-bb99-392955d45522"},"vehicle_type_id":"4","last_reported":1758398980,"current_range_meters":4800,"station_id":"ce4bgqh2rcd13ifvqc4g","pricing_plan_id":"cebpf4jnsgd1na2vs0mg"},{"bike_id":"cad97885-b582-49b2-8b83-0a6c3d079fc6","system_id":"levelo_inurba_marseille","lat":43.297018,"lon":5.365873,"is_reserved":false,"is_disabled":false,"rental_uris":{"android":"levelo://app?vid=cad97885-b582-49b2-8b83-0a6c3d079fc6","ios":"levelo://app?vid=cad97885-b582-49b2-8b83-0a6c3d079fc6"},"vehicle_type_id":"4","last_reported":1758398980,"current_range_meters":4800,"station_id":"ce4bgn12rcd13ifvqbt0","pricing_plan_id":"cebpf4jnsgd1na2vs0mg"},{"bike_id":"c23a0dcb-5871-4d03-9e06-64701c4b857c","system_id":"levelo_inurba_marseille","lat":43.29271,"lon":5.38453,"is_reserved":false,"is_disabled":false,"rental_uris":{"android":"levelo://app?vid=c23a0dcb-5871-4d03-9e06-64701c4b857c","ios":"levelo://app?vid=c23a0dcb-5871-4d03-9e06-64701c4b857c"},"vehicle_type_id":"4","last_reported":1758398980,"current_range_meters":4800,"station_id":"ce4bh692rcd13ifvqea0","pricing_plan_id":"cebpf4jnsgd1na2vs0mg"},{"bike_id":"46386d0a-d9f3-4dcf-a447-ed93bde3868f","system_id":"levelo_inurba_marseille","lat":43.3013,"lon":5.39872,"is_reserved":false,"is_disabled":false,"rental_uris":{"android":"levelo://app?vid=46386d0a-d9f3-4dcf-a447-ed93bde3868f","ios":"levelo://app?vid=46386d0a-d9f3-4dcf-a447-ed93bde3868f"},"vehicle_type_id":"4","last_reported":1758398980,"current_range_meters":4800,"station_id":"ce4bh0h2rcd13ifvqd40","pricing_plan_id":"cebpf4jnsgd1na2vs0mg"},{"bike_id":"9f789077-65e5-41b5-af4f-cb7f267fe79d","system_id":"levelo_inurba_marseille","lat":43.29302,"lon":5.37159,"is_reserved":false,"is_disabled":false,"rental_uris":{"android":"levelo://app?vid=9f789077-65e5-41b5-af4f-cb7f267fe79d","ios":"levelo://app?vid=9f789077-65e5-41b5-af4f-cb7f267fe79d"},"vehicle_type_id":"4","last_reported":1758398980,"current_range_meters":4800,"station_id":"ce4bgh92rcd13ifvqb40","pricing_plan_id":"cebpf4jnsgd1na2vs0mg"},{"bike_id":"cd4dec15-962e-427d-acda-499a4eab50ab","system_id":"levelo_inurba_marseille","lat":43.24677,"lon":5.38148,"is_reserved":false,"is_disabled":false,"rental_uris":{"android":"levelo://app?vid=cd4dec15-962e-427d-acda-499a4eab50ab","ios":"levelo://app?vid=cd4dec15-962e-427d-acda-499a4eab50ab"},"vehicle_type_id":"4","last_reported":1758398980,"current_range_meters":4800,"station_id":"ce4bhih2rcd13ifvqfr0","pricing_plan_id":"cebpf4jnsgd1na2vs0mg"},{"bike_id":"4a42c3a7-350b-4a49-9c56-c4b3d7531c94","system_id":"levelo_inurba_marseille","lat":43.305533,"lon":5.366949,"is_reserved":false,"is_disabled":false,"rental_uris":{"android":"levelo://app?vid=4a42c3a7-350b-4a49-9c56-c4b3d7531c94","ios":"levelo://app?vid=4a42c3a7-350b-4a49-9c56-c4b3d7531c94"},"vehicle_type_id":"4","last_reported":1758398980,"current_range_meters":4800,"station_id":"ce4bgrp2rcd13ifvqc9g","pricing_plan_id":"cebpf4jnsgd1na2vs0mg"},{"bike_id":"e9ae97b3-942f-42cd-8fc8-3207eabeb3eb","system_id":"levelo_inurba_marseille","lat":43.29554,"lon":5.42295,"is_reserved":false,"is_disabled":false,"rental_uris":{"android":"levelo://app?vid=e9ae97b3-942f-42cd-8fc8-3207eabeb3eb","ios":"levelo://app?vid=e9ae97b3-942f-42cd-8fc8-3207eabeb3eb"},"vehicle_type_id":"4","last_reported":1758398980,"current_range_meters":4800,"station_id":"ce4bhph2rcd13ifvqhdg","pricing_plan_id":"cebpf4jnsgd1na2vs0mg"},{"bike_id":"6dc49f8f-31b8-485c-b489-e3fd253e6676","system_id":"levelo_inurba_marseille","lat":43.32662,"lon":5.40984,"is_reserved":false,"is_disabled":true,"rental_uris":{"android":"levelo://app?vid=6dc49f8f-31b8-485c-b489-e3fd253e6676","ios":"levelo://app?vid=6dc49f8f-31b8-485c-b489-e3fd253e6676"},"vehicle_type_id":"4","last_reported":1758398980,"current_range_meters":5600,"station_id":"ce4bhpp2rcd13ifvqhgg","pricing_plan_id":"cebpf4jnsgd1na2vs0mg"},{"bike_id":"04ac4072-76af-404d-8a72-a8ffe8ae8fcc","system_id":"levelo_inurba_marseille","lat":43.32571,"lon":5.39196,"is_reserved":false,"is_disabled":false,"rental_uris":{"android":"levelo://app?vid=04ac4072-76af-404d-8a72-a8ffe8ae8fcc","ios":"levelo://app?vid=04ac4072-76af-404d-8a72-a8ffe8ae8fcc"},"vehicle_type_id":"4","last_reported":1758398980,"current_range_meters":6000,"station_id":"","pricing_plan_id":"cebpf4jnsgd1na2vs0mg"},{"bike_id":"bf9deabc-977b-4273-8e7f-653b2346cb01","system_id":"levelo_inurba_marseille","lat":43.25077,"lon":5.39513,"is_reserved":false,"is_disabled":false,"rental_uris":{"android":"levelo://app?vid=bf9deabc-977b-4273-8e7f-653b2346cb01","ios":"levelo://app?vid=bf9deabc-977b-4273-8e7f-653b2346cb01"},"vehicle_type_id":"4","last_reported":1758398980,"current_range_meters":5600,"station_id":"ce4bhm12rcd13ifvqgkg","pricing_plan_id":"cebpf4jnsgd1na2vs0mg"},{"bike_id":"23e12771-cbc2-47fb-b681-994f3ba7525c","system_id":"levelo_inurba_marseille","lat":43.31996,"lon":5.3816,"is_reserved":false,"is_disabled":false,"rental_uris":{"android":"levelo://app?vid=23e12771-cbc2-47fb-b681-994f3ba7525c","ios":"levelo://app?vid=23e12771-cbc2-47fb-b681-994f3ba7525c"},"vehicle_type_id":"4","last_reported":1758398980,"current_range_meters":6000,"station_id":"ce4bhr12rcd13ifvqhpg","pricing_plan_id":"cebpf4jnsgd1na2vs0mg"},{"bike_id":"7c4371fe-1cc7-4005-9ef6-50a4a071b873","system_id":"levelo_inurba_marseille","lat":43.29244,"lon":5.38448,"is_reserved":false,"is_disabled":false,"rental_uris":{"android":"levelo://app?vid=7c4371fe-1cc7-4005-9ef6-50a4a071b873","ios":"levelo://app?vid=7c4371fe-1cc7-4005-9ef6-50a4a071b873"},"vehicle_type_id":"4","last_reported":1758398980,"current_range_meters":6000,"station_id":"ce4bh692rcd13ifvqea0","pricing_plan_id":"cebpf4jnsgd1na2vs0mg"},{"bike_id":"022bce5a-d2d8-4475-a967-68a5ede439b7","system_id":"levelo_inurba_marseille","lat":43.29165,"lon":5.37165,"is_reserved":false,"is_disabled":false,"rental_uris":{"android":"levelo://app?vid=022bce5a-d2d8-4475-a967-68a5ede439b7","ios":"levelo://app?vid=022bce5a-d2d8-4475-a967-68a5ede439b7"},"vehicle_type_id":"4","last_reported":1758398980,"current_range_meters":6000,"station_id":"ce4bha92rcd13ifvqeh0","pricing_plan_id":"cebpf4jnsgd1na2vs0mg"},{"bike_id":"90e81159-536f-4637-b9ff-65ab81345049","system_id":"levelo_inurba_marseille","lat":43.30953,"lon":5.39047,"is_reserved":false,"is_disabled":false,"rental_uris":{"android":"levelo://app?vid=90e81159-536f-4637-b9ff-65ab81345049","ios":"levelo://app?vid=90e81159-536f-4637-b9ff-65ab81345049"},"vehicle_type_id":"4","last_reported":1758398980,"current_range_meters":6400,"station_id":"ce4bgup2rcd13ifvqco0","pricing_plan_id":"cebpf4jnsgd1na2vs0mg"},{"bike_id":"4577a179-97b8-4c77-9969-11557aed3abb","system_id":"levelo_inurba_marseille","lat":43.29537,"lon":5.38551,"is_reserved":false,"is_disabled":false,"rental_uris":{"android":"levelo://app?vid=4577a179-97b8-4c77-9969-11557aed3abb","ios":"levelo://app?vid=4577a179-97b8-4c77-9969-11557aed3abb"},"vehicle_type_id":"4","last_reported":1758398980,"current_range_meters":6400,"station_id":"ce4bgih2rcd13ifvqba0","pricing_plan_id":"cebpf4jnsgd1na2vs0mg"},{"bike_id":"26d84eee-3090-45bd-a018-e378f71e309b","system_id":"levelo_inurba_marseille","lat":43.29267,"lon":5.38449,"is_reserved":false,"is_disabled":false,"rental_uris":{"android":"levelo://app?vid=26d84eee-3090-45bd-a018-e378f71e309b","ios":"levelo://app?vid=26d84eee-3090-45bd-a018-e378f71e309b"},"vehicle_type_id":"4","last_reported":1758398980,"current_range_meters":6400,"station_id":"ce4bh692rcd13ifvqea0","pricing_plan_id":"cebpf4jnsgd1na2vs0mg"},{"bike_id":"ee1e699e-2b23-48c7-8e44-80855dfeea0a","system_id":"levelo_inurba_marseille","lat":43.29533,"lon":5.38546,"is_reserved":false,"is_disabled":false,"rental_uris":{"android":"levelo://app?vid=ee1e699e-2b23-48c7-8e44-80855dfeea0a","ios":"levelo://app?vid=ee1e699e-2b23-48c7-8e44-80855dfeea0a"},"vehicle_type_id":"4","last_reported":1758398980,"current_range_meters":6400,"station_id":"ce4bgih2rcd13ifvqba0","pricing_plan_id":"cebpf4jnsgd1na2vs0mg"},{"bike_id":"c76712e2-c847-4d5a-a8b9-3ce8a9a98619","system_id":"levelo_inurba_marseille","lat":43.28416,"lon":5.3754,"is_reserved":false,"is_disabled":false,"rental_uris":{"android":"levelo://app?vid=c76712e2-c847-4d5a-a8b9-3ce8a9a98619","ios":"levelo://app?vid=c76712e2-c847-4d5a-a8b9-3ce8a9a98619"},"vehicle_type_id":"4","last_reported":1758398980,"current_range_meters":6400,"station_id":"ce4bh412rcd13ifvqds0","pricing_plan_id":"cebpf4jnsgd1na2vs0mg"},{"bike_id":"67a02c1e-96b4-43a8-93cd-feeb11f028e1","system_id":"levelo_inurba_marseille","lat":43.26211,"lon":5.37443,"is_reserved":false,"is_disabled":false,"rental_uris":{"android":"levelo://app?vid=67a02c1e-96b4-43a8-93cd-feeb11f028e1","ios":"levelo://app?vid=67a02c1e-96b4-43a8-93cd-feeb11f028e1"},"vehicle_type_id":"4","last_reported":1758398980,"current_range_meters":6400,"station_id":"ce4bhgp2rcd13ifvqfc0","pricing_plan_id":"cebpf4jnsgd1na2vs0mg"},{"bike_id":"fce7dc4b-18a8-4897-b834-cb1381356ddf","system_id":"levelo_inurba_marseille","lat":43.28411,"lon":5.37514,"is_reserved":false,"is_disabled":false,"rental_uris":{"android":"levelo://app?vid=fce7dc4b-18a8-4897-b834-cb1381356ddf","ios":"levelo://app?vid=fce7dc4b-18a8-4897-b834-cb1381356ddf"},"vehicle_type_id":"4","last_reported":1758398980,"current_range_meters":6400,"station_id":"ce4bh412rcd13ifvqds0","pricing_plan_id":"cebpf4jnsgd1na2vs0mg"},{"bike_id":"7cfdef11-4ade-487f-b3af-18884056b711","system_id":"levelo_inurba_marseille","lat":43.31991,"lon":5.38165,"is_reserved":false,"is_disabled":false,"rental_uris":{"android":"levelo://app?vid=7cfdef11-4ade-487f-b3af-18884056b711","ios":"levelo://app?vid=7cfdef11-4ade-487f-b3af-18884056b711"},"vehicle_type_id":"4","last_reported":1758398980,"current_range_meters":6400,"station_id":"ce4bhr12rcd13ifvqhpg","pricing_plan_id":"cebpf4jnsgd1na2vs0mg"},{"bike_id":"99dcc336-2280-4be2-972b-ad68d73e7de7","system_id":"levelo_inurba_marseille","lat":43.30461,"lon":5.37908,"is_reserved":false,"is_disabled":false,"rental_uris":{"android":"levelo://app?vid=99dcc336-2280-4be2-972b-ad68d73e7de7","ios":"levelo://app?vid=99dcc336-2280-4be2-972b-ad68d73e7de7"},"vehicle_type_id":"4","last_reported":1758398980,"current_range_meters":6400,"station_id":"ce4bgup2rcd13ifvqcn0","pricing_plan_id":"cebpf4jnsgd1na2vs0mg"},{"bike_id":"22e57f5f-41af-4b0d-b0f9-23aebb0fccc9","system_id":"levelo_inurba_marseille","lat":43.29968,"lon":5.3851,"is_reserved":false,"is_disabled":false,"rental_uris":{"android":"levelo://app?vid=22e57f5f-41af-4b0d-b0f9-23aebb0fccc9","ios":"levelo://app?vid=22e57f5f-41af-4b0d-b0f9-23aebb0fccc9"},"vehicle_type_id":"4","last_reported":1758398980,"current_range_meters":6800,"station_id":"ce4bgj92rcd13ifvqbd0","pricing_plan_id":"cebpf4jnsgd1na2vs0mg"},{"bike_id":"e1065c32-ac19-477b-812a-39f964d50769","system_id":"levelo_inurba_marseille","lat":43.23201,"lon":5.35541,"is_reserved":false,"is_disabled":true,"rental_uris":{"android":"levelo://app?vid=e1065c32-ac19-477b-812a-39f964d50769","ios":"levelo://app?vid=e1065c32-ac19-477b-812a-39f964d50769"},"vehicle_type_id":"4","last_reported":1758398980,"current_range_meters":6800,"station_id":"ce4bhu92rcd13ifvqi70","pricing_plan_id":"cebpf4jnsgd1na2vs0mg"},{"bike_id":"aefaf22d-6665-47ab-bd15-ba82195759eb","system_id":"levelo_inurba_marseille","lat":43.3013,"lon":5.387949,"is_reserved":false,"is_disabled":false,"rental_uris":{"android":"levelo://app?vid=aefaf22d-6665-47ab-bd15-ba82195759eb","ios":"levelo://app?vid=aefaf22d-6665-47ab-bd15-ba82195759eb"},"vehicle_type_id":"4","last_reported":1758398980,"current_range_meters":6400,"station_id":"ce4bghh2rcd13ifvqb60","pricing_plan_id":"cebpf4jnsgd1na2vs0mg"},{"bike_id":"b5ef4ea7-aa9d-4d0b-809b-fa8a6dad2034","system_id":"levelo_inurba_marseille","lat":43.29544,"lon":5.38537,"is_reserved":false,"is_disabled":false,"rental_uris":{"android":"levelo://app?vid=b5ef4ea7-aa9d-4d0b-809b-fa8a6dad2034","ios":"levelo://app?vid=b5ef4ea7-aa9d-4d0b-809b-fa8a6dad2034"},"vehicle_type_id":"4","last_reported":1758398980,"current_range_meters":6800,"station_id":"ce4bgih2rcd13ifvqba0","pricing_plan_id":"cebpf4jnsgd1na2vs0mg"},{"bike_id":"c5e2fc2b-f415-4dec-83d1-6ce7d98d1f70","system_id":"levelo_inurba_marseille","lat":43.29268,"lon":5.38451,"is_reserved":false,"is_disabled":false,"rental_uris":{"android":"levelo://app?vid=c5e2fc2b-f415-4dec-83d1-6ce7d98d1f70","ios":"levelo://app?vid=c5e2fc2b-f415-4dec-83d1-6ce7d98d1f70"},"vehicle_type_id":"4","last_reported":1758398980,"current_range_meters":6800,"station_id":"ce4bh692rcd13ifvqea0","pricing_plan_id":"cebpf4jnsgd1na2vs0mg"},{"bike_id":"2f125b68-68da-4d1b-b5c3-eebfdc2701be","system_id":"levelo_inurba_marseille","lat":43.29249,"lon":5.38455,"is_reserved":false,"is_disabled":false,"rental_uris":{"android":"levelo://app?vid=2f125b68-68da-4d1b-b5c3-eebfdc2701be","ios":"levelo://app?vid=2f125b68-68da-4d1b-b5c3-eebfdc2701be"},"vehicle_type_id":"4","last_reported":1758398980,"current_range_meters":7200,"station_id":"ce4bh692rcd13ifvqea0","pricing_plan_id":"cebpf4jnsgd1na2vs0mg"},{"bike_id":"27da7f62-4dee-47e6-a326-b31f3d316458","system_id":"levelo_inurba_marseille","lat":43.29261,"lon":5.38453,"is_reserved":false,"is_disabled":false,"rental_uris":{"android":"levelo://app?vid=27da7f62-4dee-47e6-a326-b31f3d316458","ios":"levelo://app?vid=27da7f62-4dee-47e6-a326-b31f3d316458"},"vehicle_type_id":"4","last_reported":1758398980,"current_range_meters":7200,"station_id":"ce4bh692rcd13ifvqea0","pricing_plan_id":"cebpf4jnsgd1na2vs0mg"},{"bike_id":"3c9735e9-fd7e-4079-8199-725760347837","system_id":"levelo_inurba_marseille","lat":43.21195,"lon":5.35075,"is_reserved":false,"is_disabled":false,"rental_uris":{"android":"levelo://app?vid=3c9735e9-fd7e-4079-8199-725760347837","ios":"levelo://app?vid=3c9735e9-fd7e-4079-8199-725760347837"},"vehicle_type_id":"4","last_reported":1758398980,"current_range_meters":7200,"station_id":"st_cvj6sg6p6f1abm77japg","pricing_plan_id":"cebpf4jnsgd1na2vs0mg"},{"bike_id":"224b2084-8e97-4070-a847-1da87a09d549","system_id":"levelo_inurba_marseille","lat":43.28405,"lon":5.37524,"is_reserved":false,"is_disabled":false,"rental_uris":{"android":"levelo://app?vid=224b2084-8e97-4070-a847-1da87a09d549","ios":"levelo://app?vid=224b2084-8e97-4070-a847-1da87a09d549"},"vehicle_type_id":"4","last_reported":1758398980,"current_range_meters":7200,"station_id":"ce4bh412rcd13ifvqds0","pricing_plan_id":"cebpf4jnsgd1na2vs0mg"},{"bike_id":"ebaa16ac-d74d-4e74-90ac-cc413e2569d2","system_id":"levelo_inurba_marseille","lat":43.25093,"lon":5.39522,"is_reserved":false,"is_disabled":false,"rental_uris":{"android":"levelo://app?vid=ebaa16ac-d74d-4e74-90ac-cc413e2569d2","ios":"levelo://app?vid=ebaa16ac-d74d-4e74-90ac-cc413e2569d2"},"vehicle_type_id":"4","last_reported":1758398980,"current_range_meters":7200,"station_id":"ce4bhm12rcd13ifvqgkg","pricing_plan_id":"cebpf4jnsgd1na2vs0mg"},{"bike_id":"5bb42022-0e19-48bc-a5b4-218bb1d7482e","system_id":"levelo_inurba_marseille","lat":43.31264,"lon":5.37736,"is_reserved":false,"is_disabled":false,"rental_uris":{"android":"levelo://app?vid=5bb42022-0e19-48bc-a5b4-218bb1d7482e","ios":"levelo://app?vid=5bb42022-0e19-48bc-a5b4-218bb1d7482e"},"vehicle_type_id":"4","last_reported":1758398980,"current_range_meters":7200,"station_id":"","pricing_plan_id":"cebpf4jnsgd1na2vs0mg"},{"bike_id":"4c2ef298-2add-4a32-a373-6c35d3774690","system_id":"levelo_inurba_marseille","lat":43.25082,"lon":5.3952,"is_reserved":false,"is_disabled":false,"rental_uris":{"android":"levelo://app?vid=4c2ef298-2add-4a32-a373-6c35d3774690","ios":"levelo://app?vid=4c2ef298-2add-4a32-a373-6c35d3774690"},"vehicle_type_id":"4","last_reported":1758398980,"current_range_meters":7200,"station_id":"ce4bhm12rcd13ifvqgkg","pricing_plan_id":"cebpf4jnsgd1na2vs0mg"},{"bike_id":"afbc5224-6bb9-4eeb-b867-b64785a8636b","system_id":"levelo_inurba_marseille","lat":43.323325,"lon":5.40622,"is_reserved":false,"is_disabled":false,"rental_uris":{"android":"levelo://app?vid=afbc5224-6bb9-4eeb-b867-b64785a8636b","ios":"levelo://app?vid=afbc5224-6bb9-4eeb-b867-b64785a8636b"},"vehicle_type_id":"4","last_reported":1758398980,"current_range_meters":7200,"station_id":"ce4bhq92rcd13ifvqhjg","pricing_plan_id":"cebpf4jnsgd1na2vs0mg"},{"bike_id":"bf6e6d27-c09e-4725-9fbc-20073fd5a515","system_id":"levelo_inurba_marseille","lat":43.289376,"lon":5.396214,"is_reserved":false,"is_disabled":false,"rental_uris":{"android":"levelo://app?vid=bf6e6d27-c09e-4725-9fbc-20073fd5a515","ios":"levelo://app?vid=bf6e6d27-c09e-4725-9fbc-20073fd5a515"},"vehicle_type_id":"4","last_reported":1758398980,"current_range_meters":7200,"station_id":"","pricing_plan_id":"cebpf4jnsgd1na2vs0mg"},{"bike_id":"5881d16e-3129-435d-aaa5-4fe92a70843a","system_id":"levelo_inurba_marseille","lat":43.26677,"lon":5.38267,"is_reserved":false,"is_disabled":false,"rental_uris":{"android":"levelo://app?vid=5881d16e-3129-435d-aaa5-4fe92a70843a","ios":"levelo://app?vid=5881d16e-3129-435d-aaa5-4fe92a70843a"},"vehicle_type_id":"4","last_reported":1758398980,"current_range_meters":7200,"station_id":"ce4bhg92rcd13ifvqf90","pricing_plan_id":"cebpf4jnsgd1na2vs0mg"},{"bike_id":"c5d19c8f-1ff5-4b98-970b-85e2b216d30b","system_id":"levelo_inurba_marseille","lat":43.24944,"lon":5.40471,"is_reserved":false,"is_disabled":false,"rental_uris":{"android":"levelo://app?vid=c5d19c8f-1ff5-4b98-970b-85e2b216d30b","ios":"levelo://app?vid=c5d19c8f-1ff5-4b98-970b-85e2b216d30b"},"vehicle_type_id":"4","last_reported":1758398980,"current_range_meters":7200,"station_id":"st_d2ngiaodas8pm72gd1h0","pricing_plan_id":"cebpf4jnsgd1na2vs0mg"},{"bike_id":"0960e3dd-c358-4474-bd10-8223758e1f6b","system_id":"levelo_inurba_marseille","lat":43.296996,"lon":5.376855,"is_reserved":false,"is_disabled":false,"rental_uris":{"android":"levelo://app?vid=0960e3dd-c358-4474-bd10-8223758e1f6b","ios":"levelo://app?vid=0960e3dd-c358-4474-bd10-8223758e1f6b"},"vehicle_type_id":"4","last_reported":1758398980,"current_range_meters":7200,"station_id":"","pricing_plan_id":"cebpf4jnsgd1na2vs0mg"},{"bike_id":"942c7d9e-01c1-4cd1-a600-fb49b71f20cd","system_id":"levelo_inurba_marseille","lat":43.28998,"lon":5.35621,"is_reserved":false,"is_disabled":false,"rental_uris":{"android":"levelo://app?vid=942c7d9e-01c1-4cd1-a600-fb49b71f20cd","ios":"levelo://app?vid=942c7d9e-01c1-4cd1-a600-fb49b71f20cd"},"vehicle_type_id":"4","last_reported":1758398980,"current_range_meters":7200,"station_id":"ce4bhb92rcd13ifvqen0","pricing_plan_id":"cebpf4jnsgd1na2vs0mg"},{"bike_id":"1dbc6ff6-de1e-44f5-9332-c8820f81075d","system_id":"levelo_inurba_marseille","lat":43.211954,"lon":5.350866,"is_reserved":false,"is_disabled":true,"rental_uris":{"android":"levelo://app?vid=1dbc6ff6-de1e-44f5-9332-c8820f81075d","ios":"levelo://app?vid=1dbc6ff6-de1e-44f5-9332-c8820f81075d"},"vehicle_type_id":"4","last_reported":1758398980,"current_range_meters":8000,"station_id":"st_cvj6sg6p6f1abm77japg","pricing_plan_id":"cebpf4jnsgd1na2vs0mg"},{"bike_id":"64c521f3-4f10-4062-9ece-8b527f26b473","system_id":"levelo_inurba_marseille","lat":43.29963,"lon":5.38496,"is_reserved":false,"is_disabled":false,"rental_uris":{"android":"levelo://app?vid=64c521f3-4f10-4062-9ece-8b527f26b473","ios":"levelo://app?vid=64c521f3-4f10-4062-9ece-8b527f26b473"},"vehicle_type_id":"4","last_reported":1758398980,"current_range_meters":8000,"station_id":"ce4bgj92rcd13ifvqbd0","pricing_plan_id":"cebpf4jnsgd1na2vs0mg"},{"bike_id":"2742bf77-6029-49f5-b447-71b4ce5a5534","system_id":"levelo_inurba_marseille","lat":43.29776,"lon":5.38107,"is_reserved":false,"is_disabled":false,"rental_uris":{"android":"levelo://app?vid=2742bf77-6029-49f5-b447-71b4ce5a5534","ios":"levelo://app?vid=2742bf77-6029-49f5-b447-71b4ce5a5534"},"vehicle_type_id":"4","last_reported":1758398980,"current_range_meters":8000,"station_id":"ce4bgip2rcd13ifvqbb0","pricing_plan_id":"cebpf4jnsgd1na2vs0mg"},{"bike_id":"c7a709fa-0baf-4a44-b63d-b0f2ecbfab47","system_id":"levelo_inurba_marseille","lat":43.22932,"lon":5.35385,"is_reserved":false,"is_disabled":false,"rental_uris":{"android":"levelo://app?vid=c7a709fa-0baf-4a44-b63d-b0f2ecbfab47","ios":"levelo://app?vid=c7a709fa-0baf-4a44-b63d-b0f2ecbfab47"},"vehicle_type_id":"4","last_reported":1758398980,"current_range_meters":8000,"station_id":"cpo3532slgdg3j2ikp40","pricing_plan_id":"cebpf4jnsgd1na2vs0mg"},{"bike_id":"f134842a-f909-4246-a93d-785703fa5ec2","system_id":"levelo_inurba_marseille","lat":43.29537,"lon":5.38552,"is_reserved":false,"is_disabled":false,"rental_uris":{"android":"levelo://app?vid=f134842a-f909-4246-a93d-785703fa5ec2","ios":"levelo://app?vid=f134842a-f909-4246-a93d-785703fa5ec2"},"vehicle_type_id":"4","last_reported":1758398980,"current_range_meters":8000,"station_id":"ce4bgih2rcd13ifvqba0","pricing_plan_id":"cebpf4jnsgd1na2vs0mg"},{"bike_id":"d3510a44-47d2-4b51-9044-2b03013220a3","system_id":"levelo_inurba_marseille","lat":43.33601,"lon":5.41032,"is_reserved":false,"is_disabled":false,"rental_uris":{"android":"levelo://app?vid=d3510a44-47d2-4b51-9044-2b03013220a3","ios":"levelo://app?vid=d3510a44-47d2-4b51-9044-2b03013220a3"},"vehicle_type_id":"4","last_reported":1758398980,"current_range_meters":4000,"station_id":"ce4bhqh2rcd13ifvqhmg","pricing_plan_id":"cebpf4jnsgd1na2vs0mg"},{"bike_id":"f3547cbc-6bd6-4c45-8001-d6cbc9d02668","system_id":"levelo_inurba_marseille","lat":43.29037,"lon":5.38146,"is_reserved":false,"is_disabled":false,"rental_uris":{"android":"levelo://app?vid=f3547cbc-6bd6-4c45-8001-d6cbc9d02668","ios":"levelo://app?vid=f3547cbc-6bd6-4c45-8001-d6cbc9d02668"},"vehicle_type_id":"4","last_reported":1758398980,"current_range_meters":8000,"station_id":"ce4bh4p2rcd13ifvqe1g","pricing_plan_id":"cebpf4jnsgd1na2vs0mg"},{"bike_id":"c627b34a-8e81-4438-af3b-4fd0aab1c160","system_id":"levelo_inurba_marseille","lat":43.29682,"lon":5.36022,"is_reserved":false,"is_disabled":false,"rental_uris":{"android":"levelo://app?vid=c627b34a-8e81-4438-af3b-4fd0aab1c160","ios":"levelo://app?vid=c627b34a-8e81-4438-af3b-4fd0aab1c160"},"vehicle_type_id":"4","last_reported":1758398980,"current_range_meters":8000,"station_id":"","pricing_plan_id":"cebpf4jnsgd1na2vs0mg"},{"bike_id":"ab5b9659-77bc-417b-8f8b-7002662fbf28","system_id":"levelo_inurba_marseille","lat":43.29318,"lon":5.411526,"is_reserved":false,"is_disabled":false,"rental_uris":{"android":"levelo://app?vid=ab5b9659-77bc-417b-8f8b-7002662fbf28","ios":"levelo://app?vid=ab5b9659-77bc-417b-8f8b-7002662fbf28"},"vehicle_type_id":"4","last_reported":1758398980,"current_range_meters":8000,"station_id":"","pricing_plan_id":"cebpf4jnsgd1na2vs0mg"},{"bike_id":"0f98e986-93f8-4319-84bf-fc0efe4c4f99","system_id":"levelo_inurba_marseille","lat":43.29543,"lon":5.38549,"is_reserved":false,"is_disabled":false,"rental_uris":{"android":"levelo://app?vid=0f98e986-93f8-4319-84bf-fc0efe4c4f99","ios":"levelo://app?vid=0f98e986-93f8-4319-84bf-fc0efe4c4f99"},"vehicle_type_id":"4","last_reported":1758398980,"current_range_meters":8000,"station_id":"ce4bgih2rcd13ifvqba0","pricing_plan_id":"cebpf4jnsgd1na2vs0mg"},{"bike_id":"7dd65b1b-fb7b-4087-9803-34d477de11ae","system_id":"levelo_inurba_marseille","lat":43.21179,"lon":5.35071,"is_reserved":false,"is_disabled":false,"rental_uris":{"android":"levelo://app?vid=7dd65b1b-fb7b-4087-9803-34d477de11ae","ios":"levelo://app?vid=7dd65b1b-fb7b-4087-9803-34d477de11ae"},"vehicle_type_id":"4","last_reported":1758398980,"current_range_meters":8400,"station_id":"st_cvj6sg6p6f1abm77japg","pricing_plan_id":"cebpf4jnsgd1na2vs0mg"},{"bike_id":"7e977cd1-cd3d-4f43-93d3-fe579cec95d8","system_id":"levelo_inurba_marseille","lat":43.29266,"lon":5.38445,"is_reserved":false,"is_disabled":false,"rental_uris":{"android":"levelo://app?vid=7e977cd1-cd3d-4f43-93d3-fe579cec95d8","ios":"levelo://app?vid=7e977cd1-cd3d-4f43-93d3-fe579cec95d8"},"vehicle_type_id":"4","last_reported":1758398980,"current_range_meters":8400,"station_id":"ce4bh692rcd13ifvqea0","pricing_plan_id":"cebpf4jnsgd1na2vs0mg"},{"bike_id":"3082f593-a5a6-48f9-afa8-383813f7af0b","system_id":"levelo_inurba_marseille","lat":43.217448,"lon":5.34609,"is_reserved":false,"is_disabled":true,"rental_uris":{"android":"levelo://app?vid=3082f593-a5a6-48f9-afa8-383813f7af0b","ios":"levelo://app?vid=3082f593-a5a6-48f9-afa8-383813f7af0b"},"vehicle_type_id":"4","last_reported":1758398980,"current_range_meters":8400,"station_id":"st_cvj6r9ubvosntc0bgbag","pricing_plan_id":"cebpf4jnsgd1na2vs0mg"},{"bike_id":"ba46dcc8-0edf-486f-b634-e449d6e8d641","system_id":"levelo_inurba_marseille","lat":43.29537,"lon":5.38541,"is_reserved":false,"is_disabled":false,"rental_uris":{"android":"levelo://app?vid=ba46dcc8-0edf-486f-b634-e449d6e8d641","ios":"levelo://app?vid=ba46dcc8-0edf-486f-b634-e449d6e8d641"},"vehicle_type_id":"4","last_reported":1758398980,"current_range_meters":8400,"station_id":"ce4bgih2rcd13ifvqba0","pricing_plan_id":"cebpf4jnsgd1na2vs0mg"},{"bike_id":"53264fdb-d3ce-412c-9b54-11908fde133c","system_id":"levelo_inurba_marseille","lat":43.25861,"lon":5.39906,"is_reserved":false,"is_disabled":true,"rental_uris":{"android":"levelo://app?vid=53264fdb-d3ce-412c-9b54-11908fde133c","ios":"levelo://app?vid=53264fdb-d3ce-412c-9b54-11908fde133c"},"vehicle_type_id":"4","last_reported":1758398980,"current_range_meters":8400,"station_id":"ce4bhl92rcd13ifvqghg","pricing_plan_id":"cebpf4jnsgd1na2vs0mg"},{"bike_id":"9e55d5ce-9c7e-4119-8c1a-c43a90776988","system_id":"levelo_inurba_marseille","lat":43.25718,"lon":5.41117,"is_reserved":false,"is_disabled":false,"rental_uris":{"android":"levelo://app?vid=9e55d5ce-9c7e-4119-8c1a-c43a90776988","ios":"levelo://app?vid=9e55d5ce-9c7e-4119-8c1a-c43a90776988"},"vehicle_type_id":"4","last_reported":1758398980,"current_range_meters":8000,"station_id":"ce4bhkp2rcd13ifvqgd0","pricing_plan_id":"cebpf4jnsgd1na2vs0mg"},{"bike_id":"cad87db7-2745-4479-94fb-78454e4ebf10","system_id":"levelo_inurba_marseille","lat":43.29273,"lon":5.3685,"is_reserved":false,"is_disabled":false,"rental_uris":{"android":"levelo://app?vid=cad87db7-2745-4479-94fb-78454e4ebf10","ios":"levelo://app?vid=cad87db7-2745-4479-94fb-78454e4ebf10"},"vehicle_type_id":"4","last_reported":1758398980,"current_range_meters":8400,"station_id":"ce4bhbp2rcd13ifvqesg","pricing_plan_id":"cebpf4jnsgd1na2vs0mg"},{"bike_id":"8d37cca7-557f-4cf2-80b1-58a7901236de","system_id":"levelo_inurba_marseille","lat":43.30906,"lon":5.36843,"is_reserved":false,"is_disabled":false,"rental_uris":{"android":"levelo://app?vid=8d37cca7-557f-4cf2-80b1-58a7901236de","ios":"levelo://app?vid=8d37cca7-557f-4cf2-80b1-58a7901236de"},"vehicle_type_id":"4","last_reported":1758398980,"current_range_meters":8000,"station_id":"ce4bgn92rcd13ifvqbvg","pricing_plan_id":"cebpf4jnsgd1na2vs0mg"},{"bike_id":"53447d53-371e-4d5b-800e-f6b449f98a0d","system_id":"levelo_inurba_marseille","lat":43.29522,"lon":5.39023,"is_reserved":false,"is_disabled":false,"rental_uris":{"android":"levelo://app?vid=53447d53-371e-4d5b-800e-f6b449f98a0d","ios":"levelo://app?vid=53447d53-371e-4d5b-800e-f6b449f98a0d"},"vehicle_type_id":"4","last_reported":1758398980,"current_range_meters":8400,"station_id":"ce4bh3p2rcd13ifvqdp0","pricing_plan_id":"cebpf4jnsgd1na2vs0mg"},{"bike_id":"66650072-091e-4113-8e9d-cbf292bc9046","system_id":"levelo_inurba_marseille","lat":43.292755,"lon":5.38442,"is_reserved":false,"is_disabled":false,"rental_uris":{"android":"levelo://app?vid=66650072-091e-4113-8e9d-cbf292bc9046","ios":"levelo://app?vid=66650072-091e-4113-8e9d-cbf292bc9046"},"vehicle_type_id":"4","last_reported":1758398980,"current_range_meters":8400,"station_id":"ce4bh692rcd13ifvqea0","pricing_plan_id":"cebpf4jnsgd1na2vs0mg"},{"bike_id":"12ed6c49-784d-4e90-9587-47eae4f126ab","system_id":"levelo_inurba_marseille","lat":43.21747,"lon":5.346107,"is_reserved":false,"is_disabled":true,"rental_uris":{"android":"levelo://app?vid=12ed6c49-784d-4e90-9587-47eae4f126ab","ios":"levelo://app?vid=12ed6c49-784d-4e90-9587-47eae4f126ab"},"vehicle_type_id":"4","last_reported":1758398980,"current_range_meters":8400,"station_id":"st_cvj6r9ubvosntc0bgbag","pricing_plan_id":"cebpf4jnsgd1na2vs0mg"},{"bike_id":"ed74d6a6-3059-4701-b44a-b4452a71a1ec","system_id":"levelo_inurba_marseille","lat":43.292011,"lon":5.357939,"is_reserved":false,"is_disabled":false,"rental_uris":{"android":"levelo://app?vid=ed74d6a6-3059-4701-b44a-b4452a71a1ec","ios":"levelo://app?vid=ed74d6a6-3059-4701-b44a-b4452a71a1ec"},"vehicle_type_id":"4","last_reported":1758398980,"current_range_meters":8800,"station_id":"ce4bhb12rcd13ifvqel0","pricing_plan_id":"cebpf4jnsgd1na2vs0mg"},{"bike_id":"1870752f-b716-4da7-9f98-f1a64c3a9448","system_id":"levelo_inurba_marseille","lat":43.29269,"lon":5.3844,"is_reserved":false,"is_disabled":false,"rental_uris":{"android":"levelo://app?vid=1870752f-b716-4da7-9f98-f1a64c3a9448","ios":"levelo://app?vid=1870752f-b716-4da7-9f98-f1a64c3a9448"},"vehicle_type_id":"4","last_reported":1758398980,"current_range_meters":8800,"station_id":"ce4bh692rcd13ifvqea0","pricing_plan_id":"cebpf4jnsgd1na2vs0mg"},{"bike_id":"26321bfa-3ff7-46a4-a91a-755088d62eb5","system_id":"levelo_inurba_marseille","lat":43.27587,"lon":5.38437,"is_reserved":false,"is_disabled":false,"rental_uris":{"android":"levelo://app?vid=26321bfa-3ff7-46a4-a91a-755088d62eb5","ios":"levelo://app?vid=26321bfa-3ff7-46a4-a91a-755088d62eb5"},"vehicle_type_id":"4","last_reported":1758398980,"current_range_meters":8400,"station_id":"ce4bhh92rcd13ifvqfi0","pricing_plan_id":"cebpf4jnsgd1na2vs0mg"},{"bike_id":"486be606-0747-4722-8982-7640d37b3c6c","system_id":"levelo_inurba_marseille","lat":43.30953,"lon":5.39032,"is_reserved":false,"is_disabled":false,"rental_uris":{"android":"levelo://app?vid=486be606-0747-4722-8982-7640d37b3c6c","ios":"levelo://app?vid=486be606-0747-4722-8982-7640d37b3c6c"},"vehicle_type_id":"4","last_reported":1758398980,"current_range_meters":8800,"station_id":"ce4bgup2rcd13ifvqco0","pricing_plan_id":"cebpf4jnsgd1na2vs0mg"},{"bike_id":"2a7a6f23-5e7b-41b6-bf2b-2f3b62afa0ed","system_id":"levelo_inurba_marseille","lat":43.2926,"lon":5.38459,"is_reserved":false,"is_disabled":false,"rental_uris":{"android":"levelo://app?vid=2a7a6f23-5e7b-41b6-bf2b-2f3b62afa0ed","ios":"levelo://app?vid=2a7a6f23-5e7b-41b6-bf2b-2f3b62afa0ed"},"vehicle_type_id":"4","last_reported":1758398980,"current_range_meters":8800,"station_id":"ce4bh692rcd13ifvqea0","pricing_plan_id":"cebpf4jnsgd1na2vs0mg"},{"bike_id":"fcb3f6af-c7d4-4ccc-be82-7f951e8865a2","system_id":"levelo_inurba_marseille","lat":43.21194,"lon":5.35093,"is_reserved":false,"is_disabled":false,"rental_uris":{"android":"levelo://app?vid=fcb3f6af-c7d4-4ccc-be82-7f951e8865a2","ios":"levelo://app?vid=fcb3f6af-c7d4-4ccc-be82-7f951e8865a2"},"vehicle_type_id":"4","last_reported":1758398980,"current_range_meters":9200,"station_id":"st_cvj6sg6p6f1abm77japg","pricing_plan_id":"cebpf4jnsgd1na2vs0mg"},{"bike_id":"aaee9183-2d93-4a5f-86b0-8c8bf3a74a5c","system_id":"levelo_inurba_marseille","lat":43.32709,"lon":5.39246,"is_reserved":false,"is_disabled":false,"rental_uris":{"android":"levelo://app?vid=aaee9183-2d93-4a5f-86b0-8c8bf3a74a5c","ios":"levelo://app?vid=aaee9183-2d93-4a5f-86b0-8c8bf3a74a5c"},"vehicle_type_id":"4","last_reported":1758398980,"current_range_meters":9200,"station_id":"","pricing_plan_id":"cebpf4jnsgd1na2vs0mg"},{"bike_id":"314afb76-e676-48b1-8d67-0c175e015d01","system_id":"levelo_inurba_marseille","lat":43.29602,"lon":5.378,"is_reserved":false,"is_disabled":false,"rental_uris":{"android":"levelo://app?vid=314afb76-e676-48b1-8d67-0c175e015d01","ios":"levelo://app?vid=314afb76-e676-48b1-8d67-0c175e015d01"},"vehicle_type_id":"4","last_reported":1758398980,"current_range_meters":9200,"station_id":"ce4bgi92rcd13ifvqb90","pricing_plan_id":"cebpf4jnsgd1na2vs0mg"},{"bike_id":"83675f61-7fcc-437d-8376-0b0dd28fb1a4","system_id":"levelo_inurba_marseille","lat":43.28458,"lon":5.35893,"is_reserved":false,"is_disabled":false,"rental_uris":{"android":"levelo://app?vid=83675f61-7fcc-437d-8376-0b0dd28fb1a4","ios":"levelo://app?vid=83675f61-7fcc-437d-8376-0b0dd28fb1a4"},"vehicle_type_id":"4","last_reported":1758398980,"current_range_meters":9200,"station_id":"ce4bhah2rcd13ifvqei0","pricing_plan_id":"cebpf4jnsgd1na2vs0mg"},{"bike_id":"73775c7c-283c-4ad1-8a20-b564a09955d5","system_id":"levelo_inurba_marseille","lat":43.28529,"lon":5.35901,"is_reserved":false,"is_disabled":false,"rental_uris":{"android":"levelo://app?vid=73775c7c-283c-4ad1-8a20-b564a09955d5","ios":"levelo://app?vid=73775c7c-283c-4ad1-8a20-b564a09955d5"},"vehicle_type_id":"4","last_reported":1758398980,"current_range_meters":9200,"station_id":"","pricing_plan_id":"cebpf4jnsgd1na2vs0mg"},{"bike_id":"b5083b82-1a2f-4d93-86a4-1ccf2f9da767","system_id":"levelo_inurba_marseille","lat":43.28705,"lon":5.37937,"is_reserved":false,"is_disabled":false,"rental_uris":{"android":"levelo://app?vid=b5083b82-1a2f-4d93-86a4-1ccf2f9da767","ios":"levelo://app?vid=b5083b82-1a2f-4d93-86a4-1ccf2f9da767"},"vehicle_type_id":"4","last_reported":1758398980,"current_range_meters":8800,"station_id":"ce4bh9p2rcd13ifvqec0","pricing_plan_id":"cebpf4jnsgd1na2vs0mg"},{"bike_id":"641b6085-003e-4e7d-ae59-9a46db1775b9","system_id":"levelo_inurba_marseille","lat":43.29525,"lon":5.39041,"is_reserved":false,"is_disabled":false,"rental_uris":{"android":"levelo://app?vid=641b6085-003e-4e7d-ae59-9a46db1775b9","ios":"levelo://app?vid=641b6085-003e-4e7d-ae59-9a46db1775b9"},"vehicle_type_id":"4","last_reported":1758398980,"current_range_meters":9200,"station_id":"ce4bh3p2rcd13ifvqdp0","pricing_plan_id":"cebpf4jnsgd1na2vs0mg"},{"bike_id":"3293e892-04aa-47e5-946e-7302df3bc03e","system_id":"levelo_inurba_marseille","lat":43.24802,"lon":5.37449,"is_reserved":false,"is_disabled":false,"rental_uris":{"android":"levelo://app?vid=3293e892-04aa-47e5-946e-7302df3bc03e","ios":"levelo://app?vid=3293e892-04aa-47e5-946e-7302df3bc03e"},"vehicle_type_id":"4","last_reported":1758398980,"current_range_meters":9200,"station_id":"ce4bhgh2rcd13ifvqfb0","pricing_plan_id":"cebpf4jnsgd1na2vs0mg"},{"bike_id":"0319c100-5c9c-49b7-9f2a-421506d58186","system_id":"levelo_inurba_marseille","lat":43.328951,"lon":5.39108,"is_reserved":false,"is_disabled":false,"rental_uris":{"android":"levelo://app?vid=0319c100-5c9c-49b7-9f2a-421506d58186","ios":"levelo://app?vid=0319c100-5c9c-49b7-9f2a-421506d58186"},"vehicle_type_id":"4","last_reported":1758398980,"current_range_meters":9200,"station_id":"","pricing_plan_id":"cebpf4jnsgd1na2vs0mg"},{"bike_id":"575f379b-682e-45a6-a90b-e2da032a9ae0","system_id":"levelo_inurba_marseille","lat":43.21196,"lon":5.35091,"is_reserved":false,"is_disabled":false,"rental_uris":{"android":"levelo://app?vid=575f379b-682e-45a6-a90b-e2da032a9ae0","ios":"levelo://app?vid=575f379b-682e-45a6-a90b-e2da032a9ae0"},"vehicle_type_id":"4","last_reported":1758398980,"current_range_meters":9200,"station_id":"st_cvj6sg6p6f1abm77japg","pricing_plan_id":"cebpf4jnsgd1na2vs0mg"},{"bike_id":"7e6c2d5c-6103-4a17-bee4-9347cbc823d7","system_id":"levelo_inurba_marseille","lat":43.31708,"lon":5.37756,"is_reserved":false,"is_disabled":false,"rental_uris":{"android":"levelo://app?vid=7e6c2d5c-6103-4a17-bee4-9347cbc823d7","ios":"levelo://app?vid=7e6c2d5c-6103-4a17-bee4-9347cbc823d7"},"vehicle_type_id":"4","last_reported":1758398980,"current_range_meters":8800,"station_id":"ce4bgth2rcd13ifvqch0","pricing_plan_id":"cebpf4jnsgd1na2vs0mg"},{"bike_id":"b2987507-5524-4b39-b0ef-30a5c9d65bab","system_id":"levelo_inurba_marseille","lat":43.28362,"lon":5.38631,"is_reserved":false,"is_disabled":false,"rental_uris":{"android":"levelo://app?vid=b2987507-5524-4b39-b0ef-30a5c9d65bab","ios":"levelo://app?vid=b2987507-5524-4b39-b0ef-30a5c9d65bab"},"vehicle_type_id":"4","last_reported":1758398980,"current_range_meters":9600,"station_id":"ce4bh492rcd13ifvqdvg","pricing_plan_id":"cebpf4jnsgd1na2vs0mg"},{"bike_id":"0064b370-873b-4c46-b3c5-971e521f7c7c","system_id":"levelo_inurba_marseille","lat":43.292906,"lon":5.374648,"is_reserved":false,"is_disabled":false,"rental_uris":{"android":"levelo://app?vid=0064b370-873b-4c46-b3c5-971e521f7c7c","ios":"levelo://app?vid=0064b370-873b-4c46-b3c5-971e521f7c7c"},"vehicle_type_id":"4","last_reported":1758398980,"current_range_meters":9600,"station_id":"","pricing_plan_id":"cebpf4jnsgd1na2vs0mg"},{"bike_id":"5b84af94-a4d6-4b46-a63f-085ff5681f73","system_id":"levelo_inurba_marseille","lat":43.21191,"lon":5.35085,"is_reserved":false,"is_disabled":false,"rental_uris":{"android":"levelo://app?vid=5b84af94-a4d6-4b46-a63f-085ff5681f73","ios":"levelo://app?vid=5b84af94-a4d6-4b46-a63f-085ff5681f73"},"vehicle_type_id":"4","last_reported":1758398980,"current_range_meters":9600,"station_id":"st_cvj6sg6p6f1abm77japg","pricing_plan_id":"cebpf4jnsgd1na2vs0mg"},{"bike_id":"773bdb1d-8d7a-46ff-af2f-8cc17b3cd372","system_id":"levelo_inurba_marseille","lat":43.29261,"lon":5.38458,"is_reserved":false,"is_disabled":false,"rental_uris":{"android":"levelo://app?vid=773bdb1d-8d7a-46ff-af2f-8cc17b3cd372","ios":"levelo://app?vid=773bdb1d-8d7a-46ff-af2f-8cc17b3cd372"},"vehicle_type_id":"4","last_reported":1758398980,"current_range_meters":9600,"station_id":"ce4bh692rcd13ifvqea0","pricing_plan_id":"cebpf4jnsgd1na2vs0mg"},{"bike_id":"e6f59a7f-e88f-4d65-bed3-135ed8be6983","system_id":"levelo_inurba_marseille","lat":43.32551,"lon":5.39103,"is_reserved":false,"is_disabled":false,"rental_uris":{"android":"levelo://app?vid=e6f59a7f-e88f-4d65-bed3-135ed8be6983","ios":"levelo://app?vid=e6f59a7f-e88f-4d65-bed3-135ed8be6983"},"vehicle_type_id":"4","last_reported":1758398980,"current_range_meters":9600,"station_id":"","pricing_plan_id":"cebpf4jnsgd1na2vs0mg"},{"bike_id":"bf573684-97b1-461a-b65b-612a6c5dee73","system_id":"levelo_inurba_marseille","lat":43.31999,"lon":5.38169,"is_reserved":false,"is_disabled":false,"rental_uris":{"android":"levelo://app?vid=bf573684-97b1-461a-b65b-612a6c5dee73","ios":"levelo://app?vid=bf573684-97b1-461a-b65b-612a6c5dee73"},"vehicle_type_id":"4","last_reported":1758398980,"current_range_meters":9600,"station_id":"ce4bhr12rcd13ifvqhpg","pricing_plan_id":"cebpf4jnsgd1na2vs0mg"},{"bike_id":"79fb2ca0-b771-447a-b1b5-b5b9662a0f97","system_id":"levelo_inurba_marseille","lat":43.24386,"lon":5.37066,"is_reserved":false,"is_disabled":false,"rental_uris":{"android":"levelo://app?vid=79fb2ca0-b771-447a-b1b5-b5b9662a0f97","ios":"levelo://app?vid=79fb2ca0-b771-447a-b1b5-b5b9662a0f97"},"vehicle_type_id":"4","last_reported":1758398980,"current_range_meters":9200,"station_id":"ce4bhhh2rcd13ifvqfk0","pricing_plan_id":"cebpf4jnsgd1na2vs0mg"},{"bike_id":"66d4afa6-14b4-41fa-86d4-7c7ac5d1107a","system_id":"levelo_inurba_marseille","lat":43.295294,"lon":5.385386,"is_reserved":false,"is_disabled":false,"rental_uris":{"android":"levelo://app?vid=66d4afa6-14b4-41fa-86d4-7c7ac5d1107a","ios":"levelo://app?vid=66d4afa6-14b4-41fa-86d4-7c7ac5d1107a"},"vehicle_type_id":"4","last_reported":1758398980,"current_range_meters":9600,"station_id":"ce4bgih2rcd13ifvqba0","pricing_plan_id":"cebpf4jnsgd1na2vs0mg"},{"bike_id":"70a6d478-0d8a-4333-90f6-594f999c07dc","system_id":"levelo_inurba_marseille","lat":43.29798,"lon":5.40404,"is_reserved":false,"is_disabled":false,"rental_uris":{"android":"levelo://app?vid=70a6d478-0d8a-4333-90f6-594f999c07dc","ios":"levelo://app?vid=70a6d478-0d8a-4333-90f6-594f999c07dc"},"vehicle_type_id":"4","last_reported":1758398980,"current_range_meters":9200,"station_id":"ce4bh112rcd13ifvqd90","pricing_plan_id":"cebpf4jnsgd1na2vs0mg"},{"bike_id":"617dca4b-4508-4d52-9e62-d583d919ac44","system_id":"levelo_inurba_marseille","lat":43.29743,"lon":5.37105,"is_reserved":false,"is_disabled":false,"rental_uris":{"android":"levelo://app?vid=617dca4b-4508-4d52-9e62-d583d919ac44","ios":"levelo://app?vid=617dca4b-4508-4d52-9e62-d583d919ac44"},"vehicle_type_id":"4","last_reported":1758398980,"current_range_meters":9600,"station_id":"ce4bgop2rcd13ifvqc1g","pricing_plan_id":"cebpf4jnsgd1na2vs0mg"},{"bike_id":"ea33ee9e-ca51-4254-b866-b45bc39b0bba","system_id":"levelo_inurba_marseille","lat":43.31351,"lon":5.385,"is_reserved":false,"is_disabled":false,"rental_uris":{"android":"levelo://app?vid=ea33ee9e-ca51-4254-b866-b45bc39b0bba","ios":"levelo://app?vid=ea33ee9e-ca51-4254-b866-b45bc39b0bba"},"vehicle_type_id":"4","last_reported":1758398980,"current_range_meters":9200,"station_id":"ce4bgt92rcd13ifvqcf0","pricing_plan_id":"cebpf4jnsgd1na2vs0mg"},{"bike_id":"5c681bf9-f90b-4c3d-8c58-9d83f00900ca","system_id":"levelo_inurba_marseille","lat":43.29775,"lon":5.3712,"is_reserved":false,"is_disabled":false,"rental_uris":{"android":"levelo://app?vid=5c681bf9-f90b-4c3d-8c58-9d83f00900ca","ios":"levelo://app?vid=5c681bf9-f90b-4c3d-8c58-9d83f00900ca"},"vehicle_type_id":"4","last_reported":1758398980,"current_range_meters":9600,"station_id":"ce4bgop2rcd13ifvqc1g","pricing_plan_id":"cebpf4jnsgd1na2vs0mg"},{"bike_id":"2f4ba3c4-d560-4d54-af01-9eafbd4f5950","system_id":"levelo_inurba_marseille","lat":43.24389,"lon":5.37068,"is_reserved":false,"is_disabled":true,"rental_uris":{"android":"levelo://app?vid=2f4ba3c4-d560-4d54-af01-9eafbd4f5950","ios":"levelo://app?vid=2f4ba3c4-d560-4d54-af01-9eafbd4f5950"},"vehicle_type_id":"4","last_reported":1758398980,"current_range_meters":10000,"station_id":"ce4bhhh2rcd13ifvqfk0","pricing_plan_id":"cebpf4jnsgd1na2vs0mg"},{"bike_id":"b766d582-d4f0-4f9a-9867-0ae0b8177870","system_id":"levelo_inurba_marseille","lat":43.21185,"lon":5.35073,"is_reserved":false,"is_disabled":false,"rental_uris":{"android":"levelo://app?vid=b766d582-d4f0-4f9a-9867-0ae0b8177870","ios":"levelo://app?vid=b766d582-d4f0-4f9a-9867-0ae0b8177870"},"vehicle_type_id":"4","last_reported":1758398980,"current_range_meters":10000,"station_id":"st_cvj6sg6p6f1abm77japg","pricing_plan_id":"cebpf4jnsgd1na2vs0mg"},{"bike_id":"a608935c-9316-40c1-8ce0-a3d51cb35235","system_id":"levelo_inurba_marseille","lat":43.28153,"lon":5.42648,"is_reserved":false,"is_disabled":false,"rental_uris":{"android":"levelo://app?vid=a608935c-9316-40c1-8ce0-a3d51cb35235","ios":"levelo://app?vid=a608935c-9316-40c1-8ce0-a3d51cb35235"},"vehicle_type_id":"4","last_reported":1758398980,"current_range_meters":10000,"station_id":"ce4bhnh2rcd13ifvqgug","pricing_plan_id":"cebpf4jnsgd1na2vs0mg"},{"bike_id":"41d41162-c451-4e5f-8bcf-1c9a70c5510c","system_id":"levelo_inurba_marseille","lat":43.29596,"lon":5.37745,"is_reserved":false,"is_disabled":true,"rental_uris":{"android":"levelo://app?vid=41d41162-c451-4e5f-8bcf-1c9a70c5510c","ios":"levelo://app?vid=41d41162-c451-4e5f-8bcf-1c9a70c5510c"},"vehicle_type_id":"4","last_reported":1758398980,"current_range_meters":10000,"station_id":"ce4bgi92rcd13ifvqb90","pricing_plan_id":"cebpf4jnsgd1na2vs0mg"},{"bike_id":"d7f55dc2-1d6c-4af1-8837-c8b49e223995","system_id":"levelo_inurba_marseille","lat":43.2955,"lon":5.38542,"is_reserved":false,"is_disabled":false,"rental_uris":{"android":"levelo://app?vid=d7f55dc2-1d6c-4af1-8837-c8b49e223995","ios":"levelo://app?vid=d7f55dc2-1d6c-4af1-8837-c8b49e223995"},"vehicle_type_id":"4","last_reported":1758398980,"current_range_meters":10000,"station_id":"ce4bgih2rcd13ifvqba0","pricing_plan_id":"cebpf4jnsgd1na2vs0mg"},{"bike_id":"3116075e-fa9b-423b-beef-aeee538d6e30","system_id":"levelo_inurba_marseille","lat":43.21744,"lon":5.34609,"is_reserved":false,"is_disabled":true,"rental_uris":{"android":"levelo://app?vid=3116075e-fa9b-423b-beef-aeee538d6e30","ios":"levelo://app?vid=3116075e-fa9b-423b-beef-aeee538d6e30"},"vehicle_type_id":"4","last_reported":1758398980,"current_range_meters":10800,"station_id":"st_cvj6r9ubvosntc0bgbag","pricing_plan_id":"cebpf4jnsgd1na2vs0mg"},{"bike_id":"e154a37b-c257-42e5-b2c6-5d461dc2c8ac","system_id":"levelo_inurba_marseille","lat":43.30947,"lon":5.39038,"is_reserved":false,"is_disabled":false,"rental_uris":{"android":"levelo://app?vid=e154a37b-c257-42e5-b2c6-5d461dc2c8ac","ios":"levelo://app?vid=e154a37b-c257-42e5-b2c6-5d461dc2c8ac"},"vehicle_type_id":"4","last_reported":1758398980,"current_range_meters":10800,"station_id":"ce4bgup2rcd13ifvqco0","pricing_plan_id":"cebpf4jnsgd1na2vs0mg"},{"bike_id":"873ca1be-7143-4928-abdc-c9f329df865e","system_id":"levelo_inurba_marseille","lat":43.31996,"lon":5.38166,"is_reserved":false,"is_disabled":false,"rental_uris":{"android":"levelo://app?vid=873ca1be-7143-4928-abdc-c9f329df865e","ios":"levelo://app?vid=873ca1be-7143-4928-abdc-c9f329df865e"},"vehicle_type_id":"4","last_reported":1758398980,"current_range_meters":10800,"station_id":"ce4bhr12rcd13ifvqhpg","pricing_plan_id":"cebpf4jnsgd1na2vs0mg"},{"bike_id":"c4706891-6ce1-4440-91ff-a3ecf2ff007e","system_id":"levelo_inurba_marseille","lat":43.26374,"lon":5.40075,"is_reserved":false,"is_disabled":false,"rental_uris":{"android":"levelo://app?vid=c4706891-6ce1-4440-91ff-a3ecf2ff007e","ios":"levelo://app?vid=c4706891-6ce1-4440-91ff-a3ecf2ff007e"},"vehicle_type_id":"4","last_reported":1758398980,"current_range_meters":10800,"station_id":"","pricing_plan_id":"cebpf4jnsgd1na2vs0mg"},{"bike_id":"98e8af00-4b83-49fb-a286-0d2396c92bd0","system_id":"levelo_inurba_marseille","lat":43.30891,"lon":5.36859,"is_reserved":false,"is_disabled":true,"rental_uris":{"android":"levelo://app?vid=98e8af00-4b83-49fb-a286-0d2396c92bd0","ios":"levelo://app?vid=98e8af00-4b83-49fb-a286-0d2396c92bd0"},"vehicle_type_id":"4","last_reported":1758398980,"current_range_meters":10800,"station_id":"ce4bgn92rcd13ifvqbvg","pricing_plan_id":"cebpf4jnsgd1na2vs0mg"},{"bike_id":"3194a581-a2a5-4610-b461-9eadcc9c7ea5","system_id":"levelo_inurba_marseille","lat":43.30142,"lon":5.38789,"is_reserved":false,"is_disabled":false,"rental_uris":{"android":"levelo://app?vid=3194a581-a2a5-4610-b461-9eadcc9c7ea5","ios":"levelo://app?vid=3194a581-a2a5-4610-b461-9eadcc9c7ea5"},"vehicle_type_id":"4","last_reported":1758398980,"current_range_meters":10800,"station_id":"ce4bghh2rcd13ifvqb60","pricing_plan_id":"cebpf4jnsgd1na2vs0mg"},{"bike_id":"81d35b51-17e1-4383-833a-6cbe7d2920b5","system_id":"levelo_inurba_marseille","lat":43.309574,"lon":5.390483,"is_reserved":false,"is_disabled":false,"rental_uris":{"android":"levelo://app?vid=81d35b51-17e1-4383-833a-6cbe7d2920b5","ios":"levelo://app?vid=81d35b51-17e1-4383-833a-6cbe7d2920b5"},"vehicle_type_id":"4","last_reported":1758398980,"current_range_meters":10800,"station_id":"ce4bgup2rcd13ifvqco0","pricing_plan_id":"cebpf4jnsgd1na2vs0mg"},{"bike_id":"9cdc9bcc-eaca-49da-a36c-bc2acb4df222","system_id":"levelo_inurba_marseille","lat":43.28673,"lon":5.38657,"is_reserved":false,"is_disabled":false,"rental_uris":{"android":"levelo://app?vid=9cdc9bcc-eaca-49da-a36c-bc2acb4df222","ios":"levelo://app?vid=9cdc9bcc-eaca-49da-a36c-bc2acb4df222"},"vehicle_type_id":"4","last_reported":1758398980,"current_range_meters":10800,"station_id":"ce4bh492rcd13ifvqdug","pricing_plan_id":"cebpf4jnsgd1na2vs0mg"},{"bike_id":"bc77f903-d905-4b1c-b4db-9369bfba8f5d","system_id":"levelo_inurba_marseille","lat":43.29524,"lon":5.39039,"is_reserved":false,"is_disabled":false,"rental_uris":{"android":"levelo://app?vid=bc77f903-d905-4b1c-b4db-9369bfba8f5d","ios":"levelo://app?vid=bc77f903-d905-4b1c-b4db-9369bfba8f5d"},"vehicle_type_id":"4","last_reported":1758398980,"current_range_meters":10800,"station_id":"ce4bh3p2rcd13ifvqdp0","pricing_plan_id":"cebpf4jnsgd1na2vs0mg"},{"bike_id":"98c97462-3089-4bba-9378-b2b4dacfe40c","system_id":"levelo_inurba_marseille","lat":43.29261,"lon":5.38445,"is_reserved":false,"is_disabled":false,"rental_uris":{"android":"levelo://app?vid=98c97462-3089-4bba-9378-b2b4dacfe40c","ios":"levelo://app?vid=98c97462-3089-4bba-9378-b2b4dacfe40c"},"vehicle_type_id":"4","last_reported":1758398980,"current_range_meters":10800,"station_id":"ce4bh692rcd13ifvqea0","pricing_plan_id":"cebpf4jnsgd1na2vs0mg"},{"bike_id":"4d7013df-7113-47f8-88d6-d0d469a07429","system_id":"levelo_inurba_marseille","lat":43.307758,"lon":5.376428,"is_reserved":false,"is_disabled":false,"rental_uris":{"android":"levelo://app?vid=4d7013df-7113-47f8-88d6-d0d469a07429","ios":"levelo://app?vid=4d7013df-7113-47f8-88d6-d0d469a07429"},"vehicle_type_id":"4","last_reported":1758398980,"current_range_meters":10000,"station_id":"ce4bgv92rcd13ifvqcq0","pricing_plan_id":"cebpf4jnsgd1na2vs0mg"},{"bike_id":"576f2039-00ac-4f2c-a68d-0faa97f37880","system_id":"levelo_inurba_marseille","lat":43.3319,"lon":5.39275,"is_reserved":false,"is_disabled":false,"rental_uris":{"android":"levelo://app?vid=576f2039-00ac-4f2c-a68d-0faa97f37880","ios":"levelo://app?vid=576f2039-00ac-4f2c-a68d-0faa97f37880"},"vehicle_type_id":"4","last_reported":1758398980,"current_range_meters":11200,"station_id":"","pricing_plan_id":"cebpf4jnsgd1na2vs0mg"},{"bike_id":"100fc699-7bc2-45de-9e70-967069e79569","system_id":"levelo_inurba_marseille","lat":43.27935,"lon":5.41047,"is_reserved":false,"is_disabled":false,"rental_uris":{"android":"levelo://app?vid=100fc699-7bc2-45de-9e70-967069e79569","ios":"levelo://app?vid=100fc699-7bc2-45de-9e70-967069e79569"},"vehicle_type_id":"4","last_reported":1758398980,"current_range_meters":11200,"station_id":"ce4bhnp2rcd13ifvqh0g","pricing_plan_id":"cebpf4jnsgd1na2vs0mg"},{"bike_id":"11f536f5-f858-4572-b106-c5cc3146e3cd","system_id":"levelo_inurba_marseille","lat":43.25338,"lon":5.4217,"is_reserved":false,"is_disabled":false,"rental_uris":{"android":"levelo://app?vid=11f536f5-f858-4572-b106-c5cc3146e3cd","ios":"levelo://app?vid=11f536f5-f858-4572-b106-c5cc3146e3cd"},"vehicle_type_id":"4","last_reported":1758398980,"current_range_meters":11200,"station_id":"st_d2m65c5bi1j21697t3ng","pricing_plan_id":"cebpf4jnsgd1na2vs0mg"},{"bike_id":"ad2d6f82-57b5-4f46-a5c4-2ff08e47626a","system_id":"levelo_inurba_marseille","lat":43.30948,"lon":5.39031,"is_reserved":false,"is_disabled":false,"rental_uris":{"android":"levelo://app?vid=ad2d6f82-57b5-4f46-a5c4-2ff08e47626a","ios":"levelo://app?vid=ad2d6f82-57b5-4f46-a5c4-2ff08e47626a"},"vehicle_type_id":"4","last_reported":1758398980,"current_range_meters":11200,"station_id":"ce4bgup2rcd13ifvqco0","pricing_plan_id":"cebpf4jnsgd1na2vs0mg"},{"bike_id":"272e9f99-2fc0-46ce-b0f9-4bb9e1f7d356","system_id":"levelo_inurba_marseille","lat":43.29265,"lon":5.38444,"is_reserved":false,"is_disabled":false,"rental_uris":{"android":"levelo://app?vid=272e9f99-2fc0-46ce-b0f9-4bb9e1f7d356","ios":"levelo://app?vid=272e9f99-2fc0-46ce-b0f9-4bb9e1f7d356"},"vehicle_type_id":"4","last_reported":1758398980,"current_range_meters":11600,"station_id":"ce4bh692rcd13ifvqea0","pricing_plan_id":"cebpf4jnsgd1na2vs0mg"},{"bike_id":"a103537c-74cd-4931-afcd-c4b10f50fe64","system_id":"levelo_inurba_marseille","lat":43.30946,"lon":5.39029,"is_reserved":false,"is_disabled":false,"rental_uris":{"android":"levelo://app?vid=a103537c-74cd-4931-afcd-c4b10f50fe64","ios":"levelo://app?vid=a103537c-74cd-4931-afcd-c4b10f50fe64"},"vehicle_type_id":"4","last_reported":1758398980,"current_range_meters":11600,"station_id":"ce4bgup2rcd13ifvqco0","pricing_plan_id":"cebpf4jnsgd1na2vs0mg"},{"bike_id":"5bd6f801-1de3-41d8-b08b-245f71b0e320","system_id":"levelo_inurba_marseille","lat":43.31328,"lon":5.39696,"is_reserved":false,"is_disabled":false,"rental_uris":{"android":"levelo://app?vid=5bd6f801-1de3-41d8-b08b-245f71b0e320","ios":"levelo://app?vid=5bd6f801-1de3-41d8-b08b-245f71b0e320"},"vehicle_type_id":"4","last_reported":1758398980,"current_range_meters":11600,"station_id":"ce4bgvp2rcd13ifvqcu0","pricing_plan_id":"cebpf4jnsgd1na2vs0mg"},{"bike_id":"6ffc4f53-8127-4ed5-b8e9-70878f28a0a1","system_id":"levelo_inurba_marseille","lat":43.31364,"lon":5.38494,"is_reserved":false,"is_disabled":false,"rental_uris":{"android":"levelo://app?vid=6ffc4f53-8127-4ed5-b8e9-70878f28a0a1","ios":"levelo://app?vid=6ffc4f53-8127-4ed5-b8e9-70878f28a0a1"},"vehicle_type_id":"4","last_reported":1758398980,"current_range_meters":11200,"station_id":"ce4bgt92rcd13ifvqcf0","pricing_plan_id":"cebpf4jnsgd1na2vs0mg"},{"bike_id":"656a56c8-2865-480b-9f9d-c45e8cd10c5e","system_id":"levelo_inurba_marseille","lat":43.28349,"lon":5.38098,"is_reserved":false,"is_disabled":false,"rental_uris":{"android":"levelo://app?vid=656a56c8-2865-480b-9f9d-c45e8cd10c5e","ios":"levelo://app?vid=656a56c8-2865-480b-9f9d-c45e8cd10c5e"},"vehicle_type_id":"4","last_reported":1758398980,"current_range_meters":11600,"station_id":"ce4bh412rcd13ifvqdr0","pricing_plan_id":"cebpf4jnsgd1na2vs0mg"},{"bike_id":"ae746bb1-1f32-4e45-adbb-c9330f910640","system_id":"levelo_inurba_marseille","lat":43.29257,"lon":5.38452,"is_reserved":false,"is_disabled":false,"rental_uris":{"android":"levelo://app?vid=ae746bb1-1f32-4e45-adbb-c9330f910640","ios":"levelo://app?vid=ae746bb1-1f32-4e45-adbb-c9330f910640"},"vehicle_type_id":"4","last_reported":1758398980,"current_range_meters":11600,"station_id":"ce4bh692rcd13ifvqea0","pricing_plan_id":"cebpf4jnsgd1na2vs0mg"},{"bike_id":"69711130-d3cd-4c4f-af87-3fd8ccee933b","system_id":"levelo_inurba_marseille","lat":43.29164,"lon":5.37162,"is_reserved":false,"is_disabled":false,"rental_uris":{"android":"levelo://app?vid=69711130-d3cd-4c4f-af87-3fd8ccee933b","ios":"levelo://app?vid=69711130-d3cd-4c4f-af87-3fd8ccee933b"},"vehicle_type_id":"4","last_reported":1758398980,"current_range_meters":11600,"station_id":"ce4bha92rcd13ifvqeh0","pricing_plan_id":"cebpf4jnsgd1na2vs0mg"},{"bike_id":"e0350e70-2592-4f30-a29f-913a6972d66c","system_id":"levelo_inurba_marseille","lat":43.262274,"lon":5.40461,"is_reserved":false,"is_disabled":false,"rental_uris":{"android":"levelo://app?vid=e0350e70-2592-4f30-a29f-913a6972d66c","ios":"levelo://app?vid=e0350e70-2592-4f30-a29f-913a6972d66c"},"vehicle_type_id":"4","last_reported":1758398980,"current_range_meters":11600,"station_id":"ce4bhmh2rcd13ifvqgmg","pricing_plan_id":"cebpf4jnsgd1na2vs0mg"},{"bike_id":"55f7bf54-3e4f-45c6-9fb0-11d5c0687c13","system_id":"levelo_inurba_marseille","lat":43.29524,"lon":5.38537,"is_reserved":false,"is_disabled":false,"rental_uris":{"android":"levelo://app?vid=55f7bf54-3e4f-45c6-9fb0-11d5c0687c13","ios":"levelo://app?vid=55f7bf54-3e4f-45c6-9fb0-11d5c0687c13"},"vehicle_type_id":"4","last_reported":1758398980,"current_range_meters":11600,"station_id":"ce4bgih2rcd13ifvqba0","pricing_plan_id":"cebpf4jnsgd1na2vs0mg"},{"bike_id":"4de5c989-3716-4de7-b7ae-3d4c1934496d","system_id":"levelo_inurba_marseille","lat":43.29524,"lon":5.38553,"is_reserved":false,"is_disabled":false,"rental_uris":{"android":"levelo://app?vid=4de5c989-3716-4de7-b7ae-3d4c1934496d","ios":"levelo://app?vid=4de5c989-3716-4de7-b7ae-3d4c1934496d"},"vehicle_type_id":"4","last_reported":1758398980,"current_range_meters":12000,"station_id":"ce4bgih2rcd13ifvqba0","pricing_plan_id":"cebpf4jnsgd1na2vs0mg"},{"bike_id":"ad8fe1e1-6954-4ec3-8244-6da7edfece72","system_id":"levelo_inurba_marseille","lat":43.29506,"lon":5.3904,"is_reserved":false,"is_disabled":false,"rental_uris":{"android":"levelo://app?vid=ad8fe1e1-6954-4ec3-8244-6da7edfece72","ios":"levelo://app?vid=ad8fe1e1-6954-4ec3-8244-6da7edfece72"},"vehicle_type_id":"4","last_reported":1758398980,"current_range_meters":12400,"station_id":"ce4bh3p2rcd13ifvqdp0","pricing_plan_id":"cebpf4jnsgd1na2vs0mg"},{"bike_id":"0f7caa9f-1d1a-40d7-9b4a-2f8720e63681","system_id":"levelo_inurba_marseille","lat":43.308618,"lon":5.375278,"is_reserved":false,"is_disabled":false,"rental_uris":{"android":"levelo://app?vid=0f7caa9f-1d1a-40d7-9b4a-2f8720e63681","ios":"levelo://app?vid=0f7caa9f-1d1a-40d7-9b4a-2f8720e63681"},"vehicle_type_id":"4","last_reported":1758398980,"current_range_meters":12400,"station_id":"","pricing_plan_id":"cebpf4jnsgd1na2vs0mg"},{"bike_id":"213f818a-2fc2-423a-8734-2921a1895f7c","system_id":"levelo_inurba_marseille","lat":43.21166,"lon":5.35086,"is_reserved":false,"is_disabled":false,"rental_uris":{"android":"levelo://app?vid=213f818a-2fc2-423a-8734-2921a1895f7c","ios":"levelo://app?vid=213f818a-2fc2-423a-8734-2921a1895f7c"},"vehicle_type_id":"4","last_reported":1758398980,"current_range_meters":12400,"station_id":"st_cvj6sg6p6f1abm77japg","pricing_plan_id":"cebpf4jnsgd1na2vs0mg"},{"bike_id":"fa21f22a-2810-4479-aacf-599cfcf8a4a0","system_id":"levelo_inurba_marseille","lat":43.25812,"lon":5.39438,"is_reserved":false,"is_disabled":false,"rental_uris":{"android":"levelo://app?vid=fa21f22a-2810-4479-aacf-599cfcf8a4a0","ios":"levelo://app?vid=fa21f22a-2810-4479-aacf-599cfcf8a4a0"},"vehicle_type_id":"4","last_reported":1758398980,"current_range_meters":12400,"station_id":"ce4bhip2rcd13ifvqft0","pricing_plan_id":"cebpf4jnsgd1na2vs0mg"},{"bike_id":"e3d6d0f2-a717-4cf5-b6d7-8e84c99567c9","system_id":"levelo_inurba_marseille","lat":43.30949,"lon":5.3905,"is_reserved":false,"is_disabled":false,"rental_uris":{"android":"levelo://app?vid=e3d6d0f2-a717-4cf5-b6d7-8e84c99567c9","ios":"levelo://app?vid=e3d6d0f2-a717-4cf5-b6d7-8e84c99567c9"},"vehicle_type_id":"4","last_reported":1758398980,"current_range_meters":12400,"station_id":"ce4bgup2rcd13ifvqco0","pricing_plan_id":"cebpf4jnsgd1na2vs0mg"},{"bike_id":"c1843d42-9f15-4235-8c7f-0c60147cb155","system_id":"levelo_inurba_marseille","lat":43.21194,"lon":5.35083,"is_reserved":false,"is_disabled":false,"rental_uris":{"android":"levelo://app?vid=c1843d42-9f15-4235-8c7f-0c60147cb155","ios":"levelo://app?vid=c1843d42-9f15-4235-8c7f-0c60147cb155"},"vehicle_type_id":"4","last_reported":1758398980,"current_range_meters":12400,"station_id":"st_cvj6sg6p6f1abm77japg","pricing_plan_id":"cebpf4jnsgd1na2vs0mg"},{"bike_id":"ccccdc43-e5aa-4ec3-8f51-225bc0f74ea1","system_id":"levelo_inurba_marseille","lat":43.29277,"lon":5.38454,"is_reserved":false,"is_disabled":false,"rental_uris":{"android":"levelo://app?vid=ccccdc43-e5aa-4ec3-8f51-225bc0f74ea1","ios":"levelo://app?vid=ccccdc43-e5aa-4ec3-8f51-225bc0f74ea1"},"vehicle_type_id":"4","last_reported":1758398980,"current_range_meters":12400,"station_id":"ce4bh692rcd13ifvqea0","pricing_plan_id":"cebpf4jnsgd1na2vs0mg"},{"bike_id":"438ead59-de14-4fa0-a61d-03a70a4122ae","system_id":"levelo_inurba_marseille","lat":43.972695,"lon":4.891465,"is_reserved":false,"is_disabled":true,"rental_uris":{"android":"levelo://app?vid=438ead59-de14-4fa0-a61d-03a70a4122ae","ios":"levelo://app?vid=438ead59-de14-4fa0-a61d-03a70a4122ae"},"vehicle_type_id":"4","last_reported":1758398980,"current_range_meters":12400,"station_id":"","pricing_plan_id":"cebpf4jnsgd1na2vs0mg"},{"bike_id":"cc4930d9-9463-44d8-9311-a96936bd699a","system_id":"levelo_inurba_marseille","lat":43.25818,"lon":5.39436,"is_reserved":false,"is_disabled":false,"rental_uris":{"android":"levelo://app?vid=cc4930d9-9463-44d8-9311-a96936bd699a","ios":"levelo://app?vid=cc4930d9-9463-44d8-9311-a96936bd699a"},"vehicle_type_id":"4","last_reported":1758398980,"current_range_meters":12400,"station_id":"ce4bhip2rcd13ifvqft0","pricing_plan_id":"cebpf4jnsgd1na2vs0mg"},{"bike_id":"dfbf90d7-1bcc-4335-8ec9-59691167fb4a","system_id":"levelo_inurba_marseille","lat":43.27371,"lon":5.36263,"is_reserved":false,"is_disabled":false,"rental_uris":{"android":"levelo://app?vid=dfbf90d7-1bcc-4335-8ec9-59691167fb4a","ios":"levelo://app?vid=dfbf90d7-1bcc-4335-8ec9-59691167fb4a"},"vehicle_type_id":"4","last_reported":1758398980,"current_range_meters":12400,"station_id":"ce4bhbh2rcd13ifvqeo0","pricing_plan_id":"cebpf4jnsgd1na2vs0mg"},{"bike_id":"a7eee26b-7e2a-4d2d-b05d-2eddb204fdb3","system_id":"levelo_inurba_marseille","lat":43.24631,"lon":5.43148,"is_reserved":false,"is_disabled":false,"rental_uris":{"android":"levelo://app?vid=a7eee26b-7e2a-4d2d-b05d-2eddb204fdb3","ios":"levelo://app?vid=a7eee26b-7e2a-4d2d-b05d-2eddb204fdb3"},"vehicle_type_id":"4","last_reported":1758398980,"current_range_meters":12800,"station_id":"st_d2m6c4gdas8pm72e190g","pricing_plan_id":"cebpf4jnsgd1na2vs0mg"},{"bike_id":"6068237a-53c7-4954-ba3c-8bd01b37092a","system_id":"levelo_inurba_marseille","lat":43.29289,"lon":5.3845,"is_reserved":false,"is_disabled":false,"rental_uris":{"android":"levelo://app?vid=6068237a-53c7-4954-ba3c-8bd01b37092a","ios":"levelo://app?vid=6068237a-53c7-4954-ba3c-8bd01b37092a"},"vehicle_type_id":"4","last_reported":1758398980,"current_range_meters":12800,"station_id":"ce4bh692rcd13ifvqea0","pricing_plan_id":"cebpf4jnsgd1na2vs0mg"},{"bike_id":"5bc43869-8de6-4f6a-b467-4050153d11b0","system_id":"levelo_inurba_marseille","lat":43.29253,"lon":5.3845,"is_reserved":false,"is_disabled":false,"rental_uris":{"android":"levelo://app?vid=5bc43869-8de6-4f6a-b467-4050153d11b0","ios":"levelo://app?vid=5bc43869-8de6-4f6a-b467-4050153d11b0"},"vehicle_type_id":"4","last_reported":1758398980,"current_range_meters":12800,"station_id":"ce4bh692rcd13ifvqea0","pricing_plan_id":"cebpf4jnsgd1na2vs0mg"},{"bike_id":"087f5e34-9ae5-4bf6-a3b5-492a1b9d3668","system_id":"levelo_inurba_marseille","lat":43.281523,"lon":5.425898,"is_reserved":false,"is_disabled":false,"rental_uris":{"android":"levelo://app?vid=087f5e34-9ae5-4bf6-a3b5-492a1b9d3668","ios":"levelo://app?vid=087f5e34-9ae5-4bf6-a3b5-492a1b9d3668"},"vehicle_type_id":"4","last_reported":1758398980,"current_range_meters":12400,"station_id":"ce4bhnh2rcd13ifvqgug","pricing_plan_id":"cebpf4jnsgd1na2vs0mg"},{"bike_id":"b28536fb-1a1f-4c02-92d1-a68528fce61d","system_id":"levelo_inurba_marseille","lat":43.29314,"lon":5.37186,"is_reserved":false,"is_disabled":true,"rental_uris":{"android":"levelo://app?vid=b28536fb-1a1f-4c02-92d1-a68528fce61d","ios":"levelo://app?vid=b28536fb-1a1f-4c02-92d1-a68528fce61d"},"vehicle_type_id":"4","last_reported":1758398980,"current_range_meters":12800,"station_id":"ce4bgh92rcd13ifvqb40","pricing_plan_id":"cebpf4jnsgd1na2vs0mg"},{"bike_id":"97893650-9a0c-47e4-baee-ec60bbc1b06d","system_id":"levelo_inurba_marseille","lat":43.25719,"lon":5.4107,"is_reserved":false,"is_disabled":true,"rental_uris":{"android":"levelo://app?vid=97893650-9a0c-47e4-baee-ec60bbc1b06d","ios":"levelo://app?vid=97893650-9a0c-47e4-baee-ec60bbc1b06d"},"vehicle_type_id":"4","last_reported":1758398980,"current_range_meters":12800,"station_id":"ce4bhkp2rcd13ifvqgd0","pricing_plan_id":"cebpf4jnsgd1na2vs0mg"},{"bike_id":"8e6747cf-b8c6-4cd7-bba9-81728939e96e","system_id":"levelo_inurba_marseille","lat":43.27815,"lon":5.40719,"is_reserved":false,"is_disabled":true,"rental_uris":{"android":"levelo://app?vid=8e6747cf-b8c6-4cd7-bba9-81728939e96e","ios":"levelo://app?vid=8e6747cf-b8c6-4cd7-bba9-81728939e96e"},"vehicle_type_id":"4","last_reported":1758398980,"current_range_meters":12800,"station_id":"ce4bhnh2rcd13ifvqgtg","pricing_plan_id":"cebpf4jnsgd1na2vs0mg"},{"bike_id":"fdc5a483-6d03-4d3b-a884-6bf10e526994","system_id":"levelo_inurba_marseille","lat":43.30016,"lon":5.38484,"is_reserved":false,"is_disabled":false,"rental_uris":{"android":"levelo://app?vid=fdc5a483-6d03-4d3b-a884-6bf10e526994","ios":"levelo://app?vid=fdc5a483-6d03-4d3b-a884-6bf10e526994"},"vehicle_type_id":"4","last_reported":1758398980,"current_range_meters":12800,"station_id":"ce4bgj92rcd13ifvqbd0","pricing_plan_id":"cebpf4jnsgd1na2vs0mg"},{"bike_id":"55d1bc08-fd54-4a82-afc7-2adcaa7b1c4e","system_id":"levelo_inurba_marseille","lat":43.29992,"lon":5.3772,"is_reserved":false,"is_disabled":false,"rental_uris":{"android":"levelo://app?vid=55d1bc08-fd54-4a82-afc7-2adcaa7b1c4e","ios":"levelo://app?vid=55d1bc08-fd54-4a82-afc7-2adcaa7b1c4e"},"vehicle_type_id":"4","last_reported":1758398980,"current_range_meters":12800,"station_id":"","pricing_plan_id":"cebpf4jnsgd1na2vs0mg"},{"bike_id":"2d82061a-a240-43d1-93a6-ab71cf777b3c","system_id":"levelo_inurba_marseille","lat":43.2118,"lon":5.35078,"is_reserved":false,"is_disabled":false,"rental_uris":{"android":"levelo://app?vid=2d82061a-a240-43d1-93a6-ab71cf777b3c","ios":"levelo://app?vid=2d82061a-a240-43d1-93a6-ab71cf777b3c"},"vehicle_type_id":"4","last_reported":1758398980,"current_range_meters":12800,"station_id":"st_cvj6sg6p6f1abm77japg","pricing_plan_id":"cebpf4jnsgd1na2vs0mg"},{"bike_id":"12cde005-a0d0-41c8-aedf-50f7e90b7a39","system_id":"levelo_inurba_marseille","lat":43.29308,"lon":5.37187,"is_reserved":false,"is_disabled":false,"rental_uris":{"android":"levelo://app?vid=12cde005-a0d0-41c8-aedf-50f7e90b7a39","ios":"levelo://app?vid=12cde005-a0d0-41c8-aedf-50f7e90b7a39"},"vehicle_type_id":"4","last_reported":1758398980,"current_range_meters":13600,"station_id":"ce4bgh92rcd13ifvqb40","pricing_plan_id":"cebpf4jnsgd1na2vs0mg"},{"bike_id":"567e6bd8-a09f-42ec-928f-5611c7c11b57","system_id":"levelo_inurba_marseille","lat":43.29417,"lon":5.39771,"is_reserved":false,"is_disabled":false,"rental_uris":{"android":"levelo://app?vid=567e6bd8-a09f-42ec-928f-5611c7c11b57","ios":"levelo://app?vid=567e6bd8-a09f-42ec-928f-5611c7c11b57"},"vehicle_type_id":"4","last_reported":1758398980,"current_range_meters":12800,"station_id":"ce4bh3h2rcd13ifvqdo0","pricing_plan_id":"cebpf4jnsgd1na2vs0mg"},{"bike_id":"d701ffb6-d985-42e1-8545-ee350fa0185e","system_id":"levelo_inurba_marseille","lat":43.28607,"lon":5.37076,"is_reserved":false,"is_disabled":true,"rental_uris":{"android":"levelo://app?vid=d701ffb6-d985-42e1-8545-ee350fa0185e","ios":"levelo://app?vid=d701ffb6-d985-42e1-8545-ee350fa0185e"},"vehicle_type_id":"4","last_reported":1758398980,"current_range_meters":13600,"station_id":"ce4bht12rcd13ifvqi60","pricing_plan_id":"cebpf4jnsgd1na2vs0mg"},{"bike_id":"8f90c6e9-c2a0-414b-a280-ed01b517d1e8","system_id":"levelo_inurba_marseille","lat":43.21177,"lon":5.35087,"is_reserved":false,"is_disabled":false,"rental_uris":{"android":"levelo://app?vid=8f90c6e9-c2a0-414b-a280-ed01b517d1e8","ios":"levelo://app?vid=8f90c6e9-c2a0-414b-a280-ed01b517d1e8"},"vehicle_type_id":"4","last_reported":1758398980,"current_range_meters":13600,"station_id":"st_cvj6sg6p6f1abm77japg","pricing_plan_id":"cebpf4jnsgd1na2vs0mg"},{"bike_id":"daaf89e0-b11c-40ea-b8fb-8129ac2df5da","system_id":"levelo_inurba_marseille","lat":43.299,"lon":5.38544,"is_reserved":false,"is_disabled":false,"rental_uris":{"android":"levelo://app?vid=daaf89e0-b11c-40ea-b8fb-8129ac2df5da","ios":"levelo://app?vid=daaf89e0-b11c-40ea-b8fb-8129ac2df5da"},"vehicle_type_id":"4","last_reported":1758398980,"current_range_meters":13600,"station_id":"","pricing_plan_id":"cebpf4jnsgd1na2vs0mg"},{"bike_id":"82049ca9-159a-46d5-8e53-d2f45659ee65","system_id":"levelo_inurba_marseille","lat":43.29532,"lon":5.38541,"is_reserved":false,"is_disabled":false,"rental_uris":{"android":"levelo://app?vid=82049ca9-159a-46d5-8e53-d2f45659ee65","ios":"levelo://app?vid=82049ca9-159a-46d5-8e53-d2f45659ee65"},"vehicle_type_id":"4","last_reported":1758398980,"current_range_meters":13600,"station_id":"ce4bgih2rcd13ifvqba0","pricing_plan_id":"cebpf4jnsgd1na2vs0mg"},{"bike_id":"22c4615f-70c3-42b6-9c5f-dca5ecee3983","system_id":"levelo_inurba_marseille","lat":43.295291,"lon":5.390546,"is_reserved":false,"is_disabled":false,"rental_uris":{"android":"levelo://app?vid=22c4615f-70c3-42b6-9c5f-dca5ecee3983","ios":"levelo://app?vid=22c4615f-70c3-42b6-9c5f-dca5ecee3983"},"vehicle_type_id":"4","last_reported":1758398980,"current_range_meters":13600,"station_id":"ce4bh3p2rcd13ifvqdp0","pricing_plan_id":"cebpf4jnsgd1na2vs0mg"},{"bike_id":"595e1e58-c9ac-4fc1-aa57-c82d557e8683","system_id":"levelo_inurba_marseille","lat":43.29587,"lon":5.38105,"is_reserved":false,"is_disabled":false,"rental_uris":{"android":"levelo://app?vid=595e1e58-c9ac-4fc1-aa57-c82d557e8683","ios":"levelo://app?vid=595e1e58-c9ac-4fc1-aa57-c82d557e8683"},"vehicle_type_id":"4","last_reported":1758398980,"current_range_meters":13600,"station_id":"ce4bgl12rcd13ifvqbo0","pricing_plan_id":"cebpf4jnsgd1na2vs0mg"},{"bike_id":"2015c1f2-c286-408a-b930-50d865ce0bb9","system_id":"levelo_inurba_marseille","lat":43.21189,"lon":5.35079,"is_reserved":false,"is_disabled":false,"rental_uris":{"android":"levelo://app?vid=2015c1f2-c286-408a-b930-50d865ce0bb9","ios":"levelo://app?vid=2015c1f2-c286-408a-b930-50d865ce0bb9"},"vehicle_type_id":"4","last_reported":1758398980,"current_range_meters":13600,"station_id":"st_cvj6sg6p6f1abm77japg","pricing_plan_id":"cebpf4jnsgd1na2vs0mg"},{"bike_id":"a07a513e-e5a9-4481-8592-d991379bc662","system_id":"levelo_inurba_marseille","lat":43.337536,"lon":5.374536,"is_reserved":false,"is_disabled":false,"rental_uris":{"android":"levelo://app?vid=a07a513e-e5a9-4481-8592-d991379bc662","ios":"levelo://app?vid=a07a513e-e5a9-4481-8592-d991379bc662"},"vehicle_type_id":"4","last_reported":1758398980,"current_range_meters":13600,"station_id":"","pricing_plan_id":"cebpf4jnsgd1na2vs0mg"},{"bike_id":"77414249-1f78-4b2e-aa29-789893ea1742","system_id":"levelo_inurba_marseille","lat":43.28107,"lon":5.42623,"is_reserved":false,"is_disabled":true,"rental_uris":{"android":"levelo://app?vid=77414249-1f78-4b2e-aa29-789893ea1742","ios":"levelo://app?vid=77414249-1f78-4b2e-aa29-789893ea1742"},"vehicle_type_id":"4","last_reported":1758398980,"current_range_meters":14400,"station_id":"ce4bhnh2rcd13ifvqgug","pricing_plan_id":"cebpf4jnsgd1na2vs0mg"},{"bike_id":"3b641e6f-5964-47e7-96b7-a18537e549f4","system_id":"levelo_inurba_marseille","lat":43.29259,"lon":5.3845,"is_reserved":false,"is_disabled":false,"rental_uris":{"android":"levelo://app?vid=3b641e6f-5964-47e7-96b7-a18537e549f4","ios":"levelo://app?vid=3b641e6f-5964-47e7-96b7-a18537e549f4"},"vehicle_type_id":"4","last_reported":1758398980,"current_range_meters":14000,"station_id":"ce4bh692rcd13ifvqea0","pricing_plan_id":"cebpf4jnsgd1na2vs0mg"},{"bike_id":"9637c146-59d7-436a-a4f3-e8022fe36949","system_id":"levelo_inurba_marseille","lat":43.211926,"lon":5.350666,"is_reserved":false,"is_disabled":false,"rental_uris":{"android":"levelo://app?vid=9637c146-59d7-436a-a4f3-e8022fe36949","ios":"levelo://app?vid=9637c146-59d7-436a-a4f3-e8022fe36949"},"vehicle_type_id":"4","last_reported":1758398980,"current_range_meters":14000,"station_id":"st_cvj6sg6p6f1abm77japg","pricing_plan_id":"cebpf4jnsgd1na2vs0mg"},{"bike_id":"68adab37-f5ad-4072-b58a-fe6c68285ca6","system_id":"levelo_inurba_marseille","lat":43.30619,"lon":5.37696,"is_reserved":false,"is_disabled":false,"rental_uris":{"android":"levelo://app?vid=68adab37-f5ad-4072-b58a-fe6c68285ca6","ios":"levelo://app?vid=68adab37-f5ad-4072-b58a-fe6c68285ca6"},"vehicle_type_id":"4","last_reported":1758398980,"current_range_meters":14000,"station_id":"","pricing_plan_id":"cebpf4jnsgd1na2vs0mg"},{"bike_id":"062d2b78-f827-4ecc-b098-f48d41c00d86","system_id":"levelo_inurba_marseille","lat":43.29307,"lon":5.3718,"is_reserved":false,"is_disabled":false,"rental_uris":{"android":"levelo://app?vid=062d2b78-f827-4ecc-b098-f48d41c00d86","ios":"levelo://app?vid=062d2b78-f827-4ecc-b098-f48d41c00d86"},"vehicle_type_id":"4","last_reported":1758398980,"current_range_meters":14000,"station_id":"ce4bgh92rcd13ifvqb40","pricing_plan_id":"cebpf4jnsgd1na2vs0mg"},{"bike_id":"e5ed2bf9-0d54-457d-b4a5-05bffe4da8a6","system_id":"levelo_inurba_marseille","lat":43.31524,"lon":5.38038,"is_reserved":false,"is_disabled":false,"rental_uris":{"android":"levelo://app?vid=e5ed2bf9-0d54-457d-b4a5-05bffe4da8a6","ios":"levelo://app?vid=e5ed2bf9-0d54-457d-b4a5-05bffe4da8a6"},"vehicle_type_id":"4","last_reported":1758398980,"current_range_meters":14000,"station_id":"ce4bhsp2rcd13ifvqi50","pricing_plan_id":"cebpf4jnsgd1na2vs0mg"},{"bike_id":"c9602c84-4dde-487c-b994-103cfb4b43a8","system_id":"levelo_inurba_marseille","lat":43.30268,"lon":5.4004,"is_reserved":false,"is_disabled":false,"rental_uris":{"android":"levelo://app?vid=c9602c84-4dde-487c-b994-103cfb4b43a8","ios":"levelo://app?vid=c9602c84-4dde-487c-b994-103cfb4b43a8"},"vehicle_type_id":"4","last_reported":1758398980,"current_range_meters":14000,"station_id":"ce4bgvh2rcd13ifvqcs0","pricing_plan_id":"cebpf4jnsgd1na2vs0mg"},{"bike_id":"a33a7d2b-3a19-4e17-8886-71256af367d3","system_id":"levelo_inurba_marseille","lat":43.28147,"lon":5.42652,"is_reserved":false,"is_disabled":true,"rental_uris":{"android":"levelo://app?vid=a33a7d2b-3a19-4e17-8886-71256af367d3","ios":"levelo://app?vid=a33a7d2b-3a19-4e17-8886-71256af367d3"},"vehicle_type_id":"4","last_reported":1758398980,"current_range_meters":14000,"station_id":"ce4bhnh2rcd13ifvqgug","pricing_plan_id":"cebpf4jnsgd1na2vs0mg"},{"bike_id":"534ff5b4-9e83-493b-9063-104ef0af4212","system_id":"levelo_inurba_marseille","lat":43.2801,"lon":5.4167,"is_reserved":false,"is_disabled":true,"rental_uris":{"android":"levelo://app?vid=534ff5b4-9e83-493b-9063-104ef0af4212","ios":"levelo://app?vid=534ff5b4-9e83-493b-9063-104ef0af4212"},"vehicle_type_id":"4","last_reported":1758398980,"current_range_meters":14000,"station_id":"ce4bho12rcd13ifvqh1g","pricing_plan_id":"cebpf4jnsgd1na2vs0mg"},{"bike_id":"3fc395dd-6831-4dc8-93da-14572273169c","system_id":"levelo_inurba_marseille","lat":43.23173,"lon":5.3999,"is_reserved":false,"is_disabled":false,"rental_uris":{"android":"levelo://app?vid=3fc395dd-6831-4dc8-93da-14572273169c","ios":"levelo://app?vid=3fc395dd-6831-4dc8-93da-14572273169c"},"vehicle_type_id":"4","last_reported":1758398980,"current_range_meters":13600,"station_id":"ce4bhn12rcd13ifvqgqg","pricing_plan_id":"cebpf4jnsgd1na2vs0mg"},{"bike_id":"6a4ecccc-6a63-41cc-b570-2580a1ddbcd8","system_id":"levelo_inurba_marseille","lat":43.28368,"lon":5.38102,"is_reserved":false,"is_disabled":false,"rental_uris":{"android":"levelo://app?vid=6a4ecccc-6a63-41cc-b570-2580a1ddbcd8","ios":"levelo://app?vid=6a4ecccc-6a63-41cc-b570-2580a1ddbcd8"},"vehicle_type_id":"4","last_reported":1758398980,"current_range_meters":14400,"station_id":"ce4bh412rcd13ifvqdr0","pricing_plan_id":"cebpf4jnsgd1na2vs0mg"},{"bike_id":"8188efe9-38e1-4288-a0be-16430cbc8ac6","system_id":"levelo_inurba_marseille","lat":43.32281,"lon":5.38284,"is_reserved":false,"is_disabled":false,"rental_uris":{"android":"levelo://app?vid=8188efe9-38e1-4288-a0be-16430cbc8ac6","ios":"levelo://app?vid=8188efe9-38e1-4288-a0be-16430cbc8ac6"},"vehicle_type_id":"4","last_reported":1758398980,"current_range_meters":14000,"station_id":"ce4bhr12rcd13ifvqhqg","pricing_plan_id":"cebpf4jnsgd1na2vs0mg"},{"bike_id":"5319fae8-be79-4d87-b5d0-b333eba32d6a","system_id":"levelo_inurba_marseille","lat":43.211813,"lon":5.350917,"is_reserved":false,"is_disabled":false,"rental_uris":{"android":"levelo://app?vid=5319fae8-be79-4d87-b5d0-b333eba32d6a","ios":"levelo://app?vid=5319fae8-be79-4d87-b5d0-b333eba32d6a"},"vehicle_type_id":"4","last_reported":1758398980,"current_range_meters":14400,"station_id":"st_cvj6sg6p6f1abm77japg","pricing_plan_id":"cebpf4jnsgd1na2vs0mg"},{"bike_id":"b356c10f-f385-4030-a1f1-8bf8cfc76011","system_id":"levelo_inurba_marseille","lat":43.29971,"lon":5.38499,"is_reserved":false,"is_disabled":false,"rental_uris":{"android":"levelo://app?vid=b356c10f-f385-4030-a1f1-8bf8cfc76011","ios":"levelo://app?vid=b356c10f-f385-4030-a1f1-8bf8cfc76011"},"vehicle_type_id":"4","last_reported":1758398980,"current_range_meters":14400,"station_id":"ce4bgj92rcd13ifvqbd0","pricing_plan_id":"cebpf4jnsgd1na2vs0mg"},{"bike_id":"dc3a8ae2-ac24-4796-9b4f-5b74e767939a","system_id":"levelo_inurba_marseille","lat":43.3014,"lon":5.3879,"is_reserved":false,"is_disabled":false,"rental_uris":{"android":"levelo://app?vid=dc3a8ae2-ac24-4796-9b4f-5b74e767939a","ios":"levelo://app?vid=dc3a8ae2-ac24-4796-9b4f-5b74e767939a"},"vehicle_type_id":"4","last_reported":1758398980,"current_range_meters":14400,"station_id":"ce4bghh2rcd13ifvqb60","pricing_plan_id":"cebpf4jnsgd1na2vs0mg"},{"bike_id":"80fa7554-031c-4b18-94d6-cfb01420c332","system_id":"levelo_inurba_marseille","lat":43.29359,"lon":5.378497,"is_reserved":false,"is_disabled":false,"rental_uris":{"android":"levelo://app?vid=80fa7554-031c-4b18-94d6-cfb01420c332","ios":"levelo://app?vid=80fa7554-031c-4b18-94d6-cfb01420c332"},"vehicle_type_id":"4","last_reported":1758398980,"current_range_meters":14400,"station_id":"ce4bgjh2rcd13ifvqbf0","pricing_plan_id":"cebpf4jnsgd1na2vs0mg"},{"bike_id":"19175528-c7fb-4413-a0ad-5fee61abd18e","system_id":"levelo_inurba_marseille","lat":43.2621,"lon":5.37437,"is_reserved":false,"is_disabled":false,"rental_uris":{"android":"levelo://app?vid=19175528-c7fb-4413-a0ad-5fee61abd18e","ios":"levelo://app?vid=19175528-c7fb-4413-a0ad-5fee61abd18e"},"vehicle_type_id":"4","last_reported":1758398980,"current_range_meters":14400,"station_id":"ce4bhgp2rcd13ifvqfc0","pricing_plan_id":"cebpf4jnsgd1na2vs0mg"},{"bike_id":"b0d4c265-d949-40d6-b179-6f98c4234686","system_id":"levelo_inurba_marseille","lat":43.30427,"lon":5.39752,"is_reserved":false,"is_disabled":false,"rental_uris":{"android":"levelo://app?vid=b0d4c265-d949-40d6-b179-6f98c4234686","ios":"levelo://app?vid=b0d4c265-d949-40d6-b179-6f98c4234686"},"vehicle_type_id":"4","last_reported":1758398980,"current_range_meters":14400,"station_id":"ce4bh092rcd13ifvqd20","pricing_plan_id":"cebpf4jnsgd1na2vs0mg"},{"bike_id":"a9c3415e-62aa-4cdf-970d-2b88cbf83afe","system_id":"levelo_inurba_marseille","lat":43.23971,"lon":5.36633,"is_reserved":false,"is_disabled":true,"rental_uris":{"android":"levelo://app?vid=a9c3415e-62aa-4cdf-970d-2b88cbf83afe","ios":"levelo://app?vid=a9c3415e-62aa-4cdf-970d-2b88cbf83afe"},"vehicle_type_id":"4","last_reported":1758398980,"current_range_meters":14000,"station_id":"ce4bhi12rcd13ifvqfp0","pricing_plan_id":"cebpf4jnsgd1na2vs0mg"},{"bike_id":"26926009-21d9-4892-9163-0b8e9a7e6acd","system_id":"levelo_inurba_marseille","lat":43.286621,"lon":5.386856,"is_reserved":false,"is_disabled":false,"rental_uris":{"android":"levelo://app?vid=26926009-21d9-4892-9163-0b8e9a7e6acd","ios":"levelo://app?vid=26926009-21d9-4892-9163-0b8e9a7e6acd"},"vehicle_type_id":"4","last_reported":1758398980,"current_range_meters":14800,"station_id":"ce4bh492rcd13ifvqdug","pricing_plan_id":"cebpf4jnsgd1na2vs0mg"},{"bike_id":"3284bfeb-86d6-44e4-a66d-cd2579902edf","system_id":"levelo_inurba_marseille","lat":43.29279,"lon":5.38465,"is_reserved":false,"is_disabled":false,"rental_uris":{"android":"levelo://app?vid=3284bfeb-86d6-44e4-a66d-cd2579902edf","ios":"levelo://app?vid=3284bfeb-86d6-44e4-a66d-cd2579902edf"},"vehicle_type_id":"4","last_reported":1758398980,"current_range_meters":14800,"station_id":"ce4bh692rcd13ifvqea0","pricing_plan_id":"cebpf4jnsgd1na2vs0mg"},{"bike_id":"5d633773-c86d-4663-ae55-dfb6f9eda023","system_id":"levelo_inurba_marseille","lat":43.2593,"lon":5.40879,"is_reserved":false,"is_disabled":false,"rental_uris":{"android":"levelo://app?vid=5d633773-c86d-4663-ae55-dfb6f9eda023","ios":"levelo://app?vid=5d633773-c86d-4663-ae55-dfb6f9eda023"},"vehicle_type_id":"4","last_reported":1758398980,"current_range_meters":14800,"station_id":"","pricing_plan_id":"cebpf4jnsgd1na2vs0mg"},{"bike_id":"791b28e4-b539-4374-a455-82f2bd26e971","system_id":"levelo_inurba_marseille","lat":43.29122,"lon":5.38142,"is_reserved":false,"is_disabled":false,"rental_uris":{"android":"levelo://app?vid=791b28e4-b539-4374-a455-82f2bd26e971","ios":"levelo://app?vid=791b28e4-b539-4374-a455-82f2bd26e971"},"vehicle_type_id":"4","last_reported":1758398980,"current_range_meters":14800,"station_id":"ce4bh512rcd13ifvqe2g","pricing_plan_id":"cebpf4jnsgd1na2vs0mg"},{"bike_id":"43d57fd4-047e-4ac8-97e5-ec9b96239472","system_id":"levelo_inurba_marseille","lat":43.33121,"lon":5.39751,"is_reserved":false,"is_disabled":false,"rental_uris":{"android":"levelo://app?vid=43d57fd4-047e-4ac8-97e5-ec9b96239472","ios":"levelo://app?vid=43d57fd4-047e-4ac8-97e5-ec9b96239472"},"vehicle_type_id":"4","last_reported":1758398980,"current_range_meters":14800,"station_id":"","pricing_plan_id":"cebpf4jnsgd1na2vs0mg"},{"bike_id":"d801b961-8b0f-429d-9d3e-817010448aec","system_id":"levelo_inurba_marseille","lat":43.337632,"lon":5.374376,"is_reserved":false,"is_disabled":false,"rental_uris":{"android":"levelo://app?vid=d801b961-8b0f-429d-9d3e-817010448aec","ios":"levelo://app?vid=d801b961-8b0f-429d-9d3e-817010448aec"},"vehicle_type_id":"4","last_reported":1758398980,"current_range_meters":15200,"station_id":"","pricing_plan_id":"cebpf4jnsgd1na2vs0mg"},{"bike_id":"0391e2ff-fca7-4474-a967-d7f28265133b","system_id":"levelo_inurba_marseille","lat":43.29089,"lon":5.38149,"is_reserved":false,"is_disabled":false,"rental_uris":{"android":"levelo://app?vid=0391e2ff-fca7-4474-a967-d7f28265133b","ios":"levelo://app?vid=0391e2ff-fca7-4474-a967-d7f28265133b"},"vehicle_type_id":"4","last_reported":1758398980,"current_range_meters":14800,"station_id":"ce4bh512rcd13ifvqe2g","pricing_plan_id":"cebpf4jnsgd1na2vs0mg"},{"bike_id":"ae5ccd80-2896-4733-9148-6522e9bbfe0c","system_id":"levelo_inurba_marseille","lat":43.22554,"lon":5.41636,"is_reserved":false,"is_disabled":true,"rental_uris":{"android":"levelo://app?vid=ae5ccd80-2896-4733-9148-6522e9bbfe0c","ios":"levelo://app?vid=ae5ccd80-2896-4733-9148-6522e9bbfe0c"},"vehicle_type_id":"4","last_reported":1758398980,"current_range_meters":15200,"station_id":"st_d2o4gvlbi1j2169b742g","pricing_plan_id":"cebpf4jnsgd1na2vs0mg"},{"bike_id":"6ceab86e-b8d9-413d-85c7-57d9317e45ed","system_id":"levelo_inurba_marseille","lat":43.29031,"lon":5.38144,"is_reserved":false,"is_disabled":false,"rental_uris":{"android":"levelo://app?vid=6ceab86e-b8d9-413d-85c7-57d9317e45ed","ios":"levelo://app?vid=6ceab86e-b8d9-413d-85c7-57d9317e45ed"},"vehicle_type_id":"4","last_reported":1758398980,"current_range_meters":15200,"station_id":"ce4bh4p2rcd13ifvqe1g","pricing_plan_id":"cebpf4jnsgd1na2vs0mg"},{"bike_id":"eb103872-17f2-4b2f-a1c9-35607b3611bc","system_id":"levelo_inurba_marseille","lat":43.30146,"lon":5.38113,"is_reserved":false,"is_disabled":false,"rental_uris":{"android":"levelo://app?vid=eb103872-17f2-4b2f-a1c9-35607b3611bc","ios":"levelo://app?vid=eb103872-17f2-4b2f-a1c9-35607b3611bc"},"vehicle_type_id":"4","last_reported":1758398980,"current_range_meters":15200,"station_id":"ce4bgjp2rcd13ifvqbh0","pricing_plan_id":"cebpf4jnsgd1na2vs0mg"},{"bike_id":"cdbd37ba-5608-4370-86a7-e09e2881181e","system_id":"levelo_inurba_marseille","lat":43.292658,"lon":5.384354,"is_reserved":false,"is_disabled":false,"rental_uris":{"android":"levelo://app?vid=cdbd37ba-5608-4370-86a7-e09e2881181e","ios":"levelo://app?vid=cdbd37ba-5608-4370-86a7-e09e2881181e"},"vehicle_type_id":"4","last_reported":1758398980,"current_range_meters":15200,"station_id":"ce4bh692rcd13ifvqea0","pricing_plan_id":"cebpf4jnsgd1na2vs0mg"},{"bike_id":"e75fcb4a-52ce-4ff9-9886-a74bc67c7613","system_id":"levelo_inurba_marseille","lat":43.2958,"lon":5.38113,"is_reserved":false,"is_disabled":false,"rental_uris":{"android":"levelo://app?vid=e75fcb4a-52ce-4ff9-9886-a74bc67c7613","ios":"levelo://app?vid=e75fcb4a-52ce-4ff9-9886-a74bc67c7613"},"vehicle_type_id":"4","last_reported":1758398980,"current_range_meters":16000,"station_id":"ce4bgl12rcd13ifvqbo0","pricing_plan_id":"cebpf4jnsgd1na2vs0mg"},{"bike_id":"118b6d7e-3328-44e2-ae13-d04071b8c00f","system_id":"levelo_inurba_marseille","lat":43.21195,"lon":5.35078,"is_reserved":false,"is_disabled":false,"rental_uris":{"android":"levelo://app?vid=118b6d7e-3328-44e2-ae13-d04071b8c00f","ios":"levelo://app?vid=118b6d7e-3328-44e2-ae13-d04071b8c00f"},"vehicle_type_id":"4","last_reported":1758398980,"current_range_meters":16000,"station_id":"st_cvj6sg6p6f1abm77japg","pricing_plan_id":"cebpf4jnsgd1na2vs0mg"},{"bike_id":"b2b5f845-dd7f-4e8c-90ed-1a28957cff26","system_id":"levelo_inurba_marseille","lat":43.29369,"lon":5.37848,"is_reserved":false,"is_disabled":false,"rental_uris":{"android":"levelo://app?vid=b2b5f845-dd7f-4e8c-90ed-1a28957cff26","ios":"levelo://app?vid=b2b5f845-dd7f-4e8c-90ed-1a28957cff26"},"vehicle_type_id":"4","last_reported":1758398980,"current_range_meters":16000,"station_id":"ce4bgjh2rcd13ifvqbf0","pricing_plan_id":"cebpf4jnsgd1na2vs0mg"},{"bike_id":"b3fe673d-5eb2-48b9-b30d-5bb54294d7e6","system_id":"levelo_inurba_marseille","lat":43.32285,"lon":5.38285,"is_reserved":false,"is_disabled":false,"rental_uris":{"android":"levelo://app?vid=b3fe673d-5eb2-48b9-b30d-5bb54294d7e6","ios":"levelo://app?vid=b3fe673d-5eb2-48b9-b30d-5bb54294d7e6"},"vehicle_type_id":"4","last_reported":1758398980,"current_range_meters":16000,"station_id":"ce4bhr12rcd13ifvqhqg","pricing_plan_id":"cebpf4jnsgd1na2vs0mg"},{"bike_id":"429e11a0-372f-4b0d-bbbc-28bbbc4017f5","system_id":"levelo_inurba_marseille","lat":43.309658,"lon":5.390032,"is_reserved":false,"is_disabled":false,"rental_uris":{"android":"levelo://app?vid=429e11a0-372f-4b0d-bbbc-28bbbc4017f5","ios":"levelo://app?vid=429e11a0-372f-4b0d-bbbc-28bbbc4017f5"},"vehicle_type_id":"4","last_reported":1758398980,"current_range_meters":16000,"station_id":"ce4bgup2rcd13ifvqco0","pricing_plan_id":"cebpf4jnsgd1na2vs0mg"},{"bike_id":"41b7728a-6474-4fc2-8fbe-66ae06ce1d18","system_id":"levelo_inurba_marseille","lat":43.31375,"lon":5.38491,"is_reserved":false,"is_disabled":false,"rental_uris":{"android":"levelo://app?vid=41b7728a-6474-4fc2-8fbe-66ae06ce1d18","ios":"levelo://app?vid=41b7728a-6474-4fc2-8fbe-66ae06ce1d18"},"vehicle_type_id":"4","last_reported":1758398980,"current_range_meters":16000,"station_id":"ce4bgt92rcd13ifvqcf0","pricing_plan_id":"cebpf4jnsgd1na2vs0mg"},{"bike_id":"c3099137-6f2b-4e16-bbc1-c8c272da76cb","system_id":"levelo_inurba_marseille","lat":43.29375,"lon":5.37846,"is_reserved":false,"is_disabled":false,"rental_uris":{"android":"levelo://app?vid=c3099137-6f2b-4e16-bbc1-c8c272da76cb","ios":"levelo://app?vid=c3099137-6f2b-4e16-bbc1-c8c272da76cb"},"vehicle_type_id":"4","last_reported":1758398980,"current_range_meters":16000,"station_id":"ce4bgjh2rcd13ifvqbf0","pricing_plan_id":"cebpf4jnsgd1na2vs0mg"},{"bike_id":"953930ba-10ca-4c4b-9ecc-a505597cb791","system_id":"levelo_inurba_marseille","lat":43.298828,"lon":5.389152,"is_reserved":false,"is_disabled":false,"rental_uris":{"android":"levelo://app?vid=953930ba-10ca-4c4b-9ecc-a505597cb791","ios":"levelo://app?vid=953930ba-10ca-4c4b-9ecc-a505597cb791"},"vehicle_type_id":"4","last_reported":1758398980,"current_range_meters":16000,"station_id":"ce4bh392rcd13ifvqdl0","pricing_plan_id":"cebpf4jnsgd1na2vs0mg"},{"bike_id":"c085af5a-c711-4d81-ade2-7c31d5553d68","system_id":"levelo_inurba_marseille","lat":43.30085,"lon":5.39095,"is_reserved":false,"is_disabled":false,"rental_uris":{"android":"levelo://app?vid=c085af5a-c711-4d81-ade2-7c31d5553d68","ios":"levelo://app?vid=c085af5a-c711-4d81-ade2-7c31d5553d68"},"vehicle_type_id":"4","last_reported":1758398980,"current_range_meters":16000,"station_id":"ce4bh192rcd13ifvqdb0","pricing_plan_id":"cebpf4jnsgd1na2vs0mg"},{"bike_id":"6e9042cf-83d9-4b58-970e-09a2949ba46c","system_id":"levelo_inurba_marseille","lat":43.29592,"lon":5.3811,"is_reserved":false,"is_disabled":false,"rental_uris":{"android":"levelo://app?vid=6e9042cf-83d9-4b58-970e-09a2949ba46c","ios":"levelo://app?vid=6e9042cf-83d9-4b58-970e-09a2949ba46c"},"vehicle_type_id":"4","last_reported":1758398980,"current_range_meters":16000,"station_id":"ce4bgl12rcd13ifvqbo0","pricing_plan_id":"cebpf4jnsgd1na2vs0mg"},{"bike_id":"866d12d7-6711-41b6-a234-3d1af71732f5","system_id":"levelo_inurba_marseille","lat":43.29528,"lon":5.39398,"is_reserved":false,"is_disabled":false,"rental_uris":{"android":"levelo://app?vid=866d12d7-6711-41b6-a234-3d1af71732f5","ios":"levelo://app?vid=866d12d7-6711-41b6-a234-3d1af71732f5"},"vehicle_type_id":"4","last_reported":1758398980,"current_range_meters":15200,"station_id":"ce4bh292rcd13ifvqdf0","pricing_plan_id":"cebpf4jnsgd1na2vs0mg"},{"bike_id":"7d743e62-ba1d-4a24-8292-0e47fda3b7e9","system_id":"levelo_inurba_marseille","lat":43.29035,"lon":5.38653,"is_reserved":false,"is_disabled":false,"rental_uris":{"android":"levelo://app?vid=7d743e62-ba1d-4a24-8292-0e47fda3b7e9","ios":"levelo://app?vid=7d743e62-ba1d-4a24-8292-0e47fda3b7e9"},"vehicle_type_id":"4","last_reported":1758398980,"current_range_meters":16400,"station_id":"ce4bh4p2rcd13ifvqe0g","pricing_plan_id":"cebpf4jnsgd1na2vs0mg"},{"bike_id":"1c2ec2b3-5fa4-4dad-b085-89cc349ccb29","system_id":"levelo_inurba_marseille","lat":43.31716,"lon":5.424,"is_reserved":false,"is_disabled":false,"rental_uris":{"android":"levelo://app?vid=1c2ec2b3-5fa4-4dad-b085-89cc349ccb29","ios":"levelo://app?vid=1c2ec2b3-5fa4-4dad-b085-89cc349ccb29"},