{"last_updated":1707192513,"ttl":30,"version":"2.2","data":{"bikes":[{"bike_id":"291e292c-ff71-460d-baf6-c90095b95912","system_id":"levelo_inurba_marseille","lat":43.312239,"lon":5.368562,"is_reserved":false,"is_disabled":false,"rental_uris":{"android":"levelo://app?vid=291e292c-ff71-460d-baf6-c90095b95912","ios":"levelo://app?vid=291e292c-ff71-460d-baf6-c90095b95912"},"vehicle_type_id":"4","last_reported":1707192513,"current_range_meters":30800,"station_id":"ce4bgl92rcd13ifvqbq0","pricing_plan_id":"free"},{"bike_id":"95f15aa6-b974-4e74-aaa3-1c38e798cfaa","system_id":"levelo_inurba_marseille","lat":43.312239,"lon":5.368562,"is_reserved":false,"is_disabled":false,"rental_uris":{"android":"levelo://app?vid=95f15aa6-b974-4e74-aaa3-1c38e798cfaa","ios":"levelo://app?vid=95f15aa6-b974-4e74-aaa3-1c38e798cfaa"},"vehicle_type_id":"4","last_reported":1707192513,"current_range_meters":31200,"station_id":"ce4bgl92rcd13ifvqbq0","pricing_plan_id":"free"},{"bike_id":"e9f27bf6-bace-4076-9a54-8ae9f98dc93b","system_id":"levelo_inurba_marseille","lat":43.312239,"lon":5.368562,"is_reserved":false,"is_disabled":false,"rental_uris":{"android":"levelo://app?vid=e9f27bf6-bace-4076-9a54-8ae9f98dc93b","ios":"levelo://app?vid=e9f27bf6-bace-4076-9a54-8ae9f98dc93b"},"vehicle_type_id":"4","last_reported":1707192513,"current_range_meters":24800,"station_id":"ce4bgl92rcd13ifvqbq0","pricing_plan_id":"free"},{"bike_id":"5ffb3bc0-491b-4314-bfdc-b60b69925fc1","system_id":"levelo_inurba_marseille","lat":43.314811,"lon":5.373103,"is_reserved":false,"is_disabled":false,"rental_uris":{"android":"levelo://app?vid=5ffb3bc0-491b-4314-bfdc-b60b69925fc1","ios":"levelo://app?vid=5ffb3bc0-491b-4314-bfdc-b60b69925fc1"},"vehicle_type_id":"4","last_reported":1707192513,"current_range_meters":13200,"station_id":"ce4bgt12rcd13ifvqcd0","pricing_plan_id":"free"},{"bike_id":"73dbda8f-0bab-4cad-bdfd-050d2837173a","system_id":"levelo_inurba_marseille","lat":43.314811,"lon":5.373103,"is_reserved":false,"is_disabled":false,"rental_uris":{"android":"levelo://app?vid=73dbda8f-0bab-4cad-bdfd-050d2837173a","ios":"levelo://app?vid=73dbda8f-0bab-4cad-bdfd-050d2837173a"},"vehicle_type_id":"4","last_reported":1707192513,"current_range_meters":2800,"station_id":"ce4bgt12rcd13ifvqcd0","pricing_plan_id":"free"},{"bike_id":"b35e1255-0018-47dd-8f1b-e0dbd0525ca6","system_id":"levelo_inurba_marseille","lat":43.314811,"lon":5.373103,"is_reserved":false,"is_disabled":false,"rental_uris":{"android":"levelo://app?vid=b35e1255-0018-47dd-8f1b-e0dbd0525ca6","ios":"levelo://app?vid=b35e1255-0018-47dd-8f1b-e0dbd0525ca6"},"vehicle_type_id":"4","last_reported":1707192513,"current_range_meters":7600,"station_id":"ce4bgt12rcd13ifvqcd0","pricing_plan_id":"free"},{"bike_id":"3d53c195-1181-4820-b09e-da2d7ad532f0","system_id":"levelo_inurba_marseille","lat":43.314811,"lon":5.373103,"is_reserved":false,"is_disabled":false,"rental_uris":{"android":"levelo://app?vid=3d53c195-1181-4820-b09e-da2d7ad532f0","ios":"levelo://app?vid=3d53c195-1181-4820-b09e-da2d7ad532f0"},"vehicle_type_id":"4","last_reported":1707192513,"current_range_meters":9200,"station_id":"ce4bgt12rcd13ifvqcd0","pricing_plan_id":"free"},{"bike_id":"14efb3d3-9db7-45dd-a8fa-8d346ce77194","system_id":"levelo_inurba_marseille","lat":43.314811,"lon":5.373103,"is_reserved":false,"is_disabled":false,"rental_uris":{"android":"levelo://app?vid=14efb3d3-9db7-45dd-a8fa-8d346ce77194","ios":"levelo://app?vid=14efb3d3-9db7-45dd-a8fa-8d346ce77194"},"vehicle_type_id":"4","last_reported":1707192513,"current_range_meters":27200,"station_id":"ce4bgt12rcd13ifvqcd0","pricing_plan_id":"free"},{"bike_id":"c9314a85-d4f9-4e17-a6bc-6fdc39e98cb3","system_id":"levelo_inurba_marseille","lat":43.314811,"lon":5.373103,"is_reserved":false,"is_disabled":false,"rental_uris":{"android":"levelo://app?vid=c9314a85-d4f9-4e17-a6bc-6fdc39e98cb3","ios":"levelo://app?vid=c9314a85-d4f9-4e17-a6bc-6fdc39e98cb3"},"vehicle_type_id":"4","last_reported":1707192513,"current_range_meters":16400,"station_id":"ce4bgt12rcd13ifvqcd0","pricing_plan_id":"free"},{"bike_id":"3eca6aa3-2486-4d8e-833d-17204746de98","system_id":"levelo_inurba_marseille","lat":43.314955,"lon":5.373058,"is_reserved":false,"is_disabled":false,"rental_uris":{"android":"levelo://app?vid=3eca6aa3-2486-4d8e-833d-17204746de98","ios":"levelo://app?vid=3eca6aa3-2486-4d8e-833d-17204746de98"},"vehicle_type_id":"4","last_reported":1707192513,"current_range_meters":22400,"station_id":"ce4bgt12rcd13ifvqcd0","pricing_plan_id":"free"},{"bike_id":"fb8853f8-b233-4308-ac85-c835fe5087c4","system_id":"levelo_inurba_marseille","lat":43.314811,"lon":5.373103,"is_reserved":false,"is_disabled":false,"rental_uris":{"android":"levelo://app?vid=fb8853f8-b233-4308-ac85-c835fe5087c4","ios":"levelo://app?vid=fb8853f8-b233-4308-ac85-c835fe5087c4"},"vehicle_type_id":"4","last_reported":1707192513,"current_range_meters":29600,"station_id":"ce4bgt12rcd13ifvqcd0","pricing_plan_id":"free"},{"bike_id":"5e2c4ce9-6ec2-4459-b07e-ee3d4902e597","system_id":"levelo_inurba_marseille","lat":43.30633,"lon":5.365649,"is_reserved":false,"is_disabled":false,"rental_uris":{"android":"levelo://app?vid=5e2c4ce9-6ec2-4459-b07e-ee3d4902e597","ios":"levelo://app?vid=5e2c4ce9-6ec2-4459-b07e-ee3d4902e597"},"vehicle_type_id":"4","last_reported":1707192513,"current_range_meters":16000,"station_id":"","pricing_plan_id":"free"},{"bike_id":"3daed976-4331-46e1-b611-9eae76fe761c","system_id":"levelo_inurba_marseille","lat":43.305529,"lon":5.367053,"is_reserved":false,"is_disabled":false,"rental_uris":{"android":"levelo://app?vid=3daed976-4331-46e1-b611-9eae76fe761c","ios":"levelo://app?vid=3daed976-4331-46e1-b611-9eae76fe761c"},"vehicle_type_id":"4","last_reported":1707192513,"current_range_meters":30800,"station_id":"ce4bgrp2rcd13ifvqc9g","pricing_plan_id":"free"},{"bike_id":"9f627477-7ccf-4709-b6be-75724d7504d3","system_id":"levelo_inurba_marseille","lat":43.311256,"lon":5.377631,"is_reserved":false,"is_disabled":false,"rental_uris":{"android":"levelo://app?vid=9f627477-7ccf-4709-b6be-75724d7504d3","ios":"levelo://app?vid=9f627477-7ccf-4709-b6be-75724d7504d3"},"vehicle_type_id":"4","last_reported":1707192513,"current_range_meters":28800,"station_id":"ce4bgt92rcd13ifvqcg0","pricing_plan_id":"free"},{"bike_id":"aa2aa635-b90b-413b-87b0-85e078f804e8","system_id":"levelo_inurba_marseille","lat":43.311125,"lon":5.377624,"is_reserved":false,"is_disabled":false,"rental_uris":{"android":"levelo://app?vid=aa2aa635-b90b-413b-87b0-85e078f804e8","ios":"levelo://app?vid=aa2aa635-b90b-413b-87b0-85e078f804e8"},"vehicle_type_id":"4","last_reported":1707192513,"current_range_meters":22400,"station_id":"ce4bgt92rcd13ifvqcg0","pricing_plan_id":"free"},{"bike_id":"597680cb-ba6d-4ee0-87df-3861ed373faa","system_id":"levelo_inurba_marseille","lat":43.311131,"lon":5.377651,"is_reserved":false,"is_disabled":false,"rental_uris":{"android":"levelo://app?vid=597680cb-ba6d-4ee0-87df-3861ed373faa","ios":"levelo://app?vid=597680cb-ba6d-4ee0-87df-3861ed373faa"},"vehicle_type_id":"4","last_reported":1707192513,"current_range_meters":16000,"station_id":"ce4bgt92rcd13ifvqcg0","pricing_plan_id":"free"},{"bike_id":"1693d5dd-c74a-4048-9a20-78f31ad4c84e","system_id":"levelo_inurba_marseille","lat":43.311125,"lon":5.377624,"is_reserved":false,"is_disabled":false,"rental_uris":{"android":"levelo://app?vid=1693d5dd-c74a-4048-9a20-78f31ad4c84e","ios":"levelo://app?vid=1693d5dd-c74a-4048-9a20-78f31ad4c84e"},"vehicle_type_id":"4","last_reported":1707192513,"current_range_meters":28400,"station_id":"ce4bgt92rcd13ifvqcg0","pricing_plan_id":"free"},{"bike_id":"e975f99a-4b39-48e1-acde-6bc0067c824e","system_id":"levelo_inurba_marseille","lat":43.311131,"lon":5.377651,"is_reserved":false,"is_disabled":false,"rental_uris":{"android":"levelo://app?vid=e975f99a-4b39-48e1-acde-6bc0067c824e","ios":"levelo://app?vid=e975f99a-4b39-48e1-acde-6bc0067c824e"},"vehicle_type_id":"4","last_reported":1707192513,"current_range_meters":18400,"station_id":"ce4bgt92rcd13ifvqcg0","pricing_plan_id":"free"},{"bike_id":"4cef5466-f755-4790-8869-ac4743470f82","system_id":"levelo_inurba_marseille","lat":43.311125,"lon":5.377624,"is_reserved":false,"is_disabled":false,"rental_uris":{"android":"levelo://app?vid=4cef5466-f755-4790-8869-ac4743470f82","ios":"levelo://app?vid=4cef5466-f755-4790-8869-ac4743470f82"},"vehicle_type_id":"4","last_reported":1707192513,"current_range_meters":22800,"station_id":"ce4bgt92rcd13ifvqcg0","pricing_plan_id":"free"},{"bike_id":"1bfe5e15-b2bf-4d44-aba9-3263bd88fa35","system_id":"levelo_inurba_marseille","lat":43.311131,"lon":5.377651,"is_reserved":false,"is_disabled":false,"rental_uris":{"android":"levelo://app?vid=1bfe5e15-b2bf-4d44-aba9-3263bd88fa35","ios":"levelo://app?vid=1bfe5e15-b2bf-4d44-aba9-3263bd88fa35"},"vehicle_type_id":"4","last_reported":1707192513,"current_range_meters":21600,"station_id":"ce4bgt92rcd13ifvqcg0","pricing_plan_id":"free"},{"bike_id":"d869b894-5ea0-4cb5-ade4-07f1016675cc","system_id":"levelo_inurba_marseille","lat":43.311125,"lon":5.377624,"is_reserved":false,"is_disabled":false,"rental_uris":{"android":"levelo://app?vid=d869b894-5ea0-4cb5-ade4-07f1016675cc","ios":"levelo://app?vid=d869b894-5ea0-4cb5-ade4-07f1016675cc"},"vehicle_type_id":"4","last_reported":1707192513,"current_range_meters":3200,"station_id":"ce4bgt92rcd13ifvqcg0","pricing_plan_id":"free"},{"bike_id":"01d5dcf5-c416-4815-884a-8fb92230de22","system_id":"levelo_inurba_marseille","lat":43.307945,"lon":5.376487,"is_reserved":false,"is_disabled":false,"rental_uris":{"android":"levelo://app?vid=01d5dcf5-c416-4815-884a-8fb92230de22","ios":"levelo://app?vid=01d5dcf5-c416-4815-884a-8fb92230de22"},"vehicle_type_id":"4","last_reported":1707192513,"current_range_meters":31200,"station_id":"ce4bgv92rcd13ifvqcq0","pricing_plan_id":"free"},{"bike_id":"e00c74e5-4282-47e4-aa1c-cd7f1b7c0cc9","system_id":"levelo_inurba_marseille","lat":43.307945,"lon":5.376487,"is_reserved":false,"is_disabled":false,"rental_uris":{"android":"levelo://app?vid=e00c74e5-4282-47e4-aa1c-cd7f1b7c0cc9","ios":"levelo://app?vid=e00c74e5-4282-47e4-aa1c-cd7f1b7c0cc9"},"vehicle_type_id":"4","last_reported":1707192513,"current_range_meters":30400,"station_id":"ce4bgv92rcd13ifvqcq0","pricing_plan_id":"free"},{"bike_id":"ea11afb7-fe4c-49d3-b1c0-515f10e3819a","system_id":"levelo_inurba_marseille","lat":43.307945,"lon":5.376487,"is_reserved":false,"is_disabled":false,"rental_uris":{"android":"levelo://app?vid=ea11afb7-fe4c-49d3-b1c0-515f10e3819a","ios":"levelo://app?vid=ea11afb7-fe4c-49d3-b1c0-515f10e3819a"},"vehicle_type_id":"4","last_reported":1707192513,"current_range_meters":16400,"station_id":"ce4bgv92rcd13ifvqcq0","pricing_plan_id":"free"},{"bike_id":"929beef4-557d-4b94-b906-93bdb251d0fc","system_id":"levelo_inurba_marseille","lat":43.307945,"lon":5.376487,"is_reserved":false,"is_disabled":false,"rental_uris":{"android":"levelo://app?vid=929beef4-557d-4b94-b906-93bdb251d0fc","ios":"levelo://app?vid=929beef4-557d-4b94-b906-93bdb251d0fc"},"vehicle_type_id":"4","last_reported":1707192513,"current_range_meters":28800,"station_id":"ce4bgv92rcd13ifvqcq0","pricing_plan_id":"free"},{"bike_id":"c56929c2-ab55-4eeb-a4eb-44b90cf33cf2","system_id":"levelo_inurba_marseille","lat":43.307945,"lon":5.376487,"is_reserved":false,"is_disabled":false,"rental_uris":{"android":"levelo://app?vid=c56929c2-ab55-4eeb-a4eb-44b90cf33cf2","ios":"levelo://app?vid=c56929c2-ab55-4eeb-a4eb-44b90cf33cf2"},"vehicle_type_id":"4","last_reported":1707192513,"current_range_meters":27200,"station_id":"ce4bgv92rcd13ifvqcq0","pricing_plan_id":"free"},{"bike_id":"977ec3eb-3747-4d90-82b7-0db87f4b011f","system_id":"levelo_inurba_marseille","lat":43.317075,"lon":5.377367,"is_reserved":false,"is_disabled":false,"rental_uris":{"android":"levelo://app?vid=977ec3eb-3747-4d90-82b7-0db87f4b011f","ios":"levelo://app?vid=977ec3eb-3747-4d90-82b7-0db87f4b011f"},"vehicle_type_id":"4","last_reported":1707192513,"current_range_meters":17200,"station_id":"ce4bgth2rcd13ifvqch0","pricing_plan_id":"free"},{"bike_id":"720e0343-79e1-4a7f-b67b-a5e9e8907370","system_id":"levelo_inurba_marseille","lat":43.317075,"lon":5.377367,"is_reserved":false,"is_disabled":false,"rental_uris":{"android":"levelo://app?vid=720e0343-79e1-4a7f-b67b-a5e9e8907370","ios":"levelo://app?vid=720e0343-79e1-4a7f-b67b-a5e9e8907370"},"vehicle_type_id":"4","last_reported":1707192513,"current_range_meters":26800,"station_id":"ce4bgth2rcd13ifvqch0","pricing_plan_id":"free"},{"bike_id":"2bb40df5-fde2-4836-b8bb-879c95482674","system_id":"levelo_inurba_marseille","lat":43.303188,"lon":5.36897,"is_reserved":false,"is_disabled":false,"rental_uris":{"android":"levelo://app?vid=2bb40df5-fde2-4836-b8bb-879c95482674","ios":"levelo://app?vid=2bb40df5-fde2-4836-b8bb-879c95482674"},"vehicle_type_id":"4","last_reported":1707192513,"current_range_meters":20800,"station_id":"ce4bgqh2rcd13ifvqc5g","pricing_plan_id":"free"},{"bike_id":"78dd7417-b7ab-4e72-9acb-d02662c0011a","system_id":"levelo_inurba_marseille","lat":43.303092,"lon":5.369108,"is_reserved":false,"is_disabled":false,"rental_uris":{"android":"levelo://app?vid=78dd7417-b7ab-4e72-9acb-d02662c0011a","ios":"levelo://app?vid=78dd7417-b7ab-4e72-9acb-d02662c0011a"},"vehicle_type_id":"4","last_reported":1707192513,"current_range_meters":12800,"station_id":"ce4bgqh2rcd13ifvqc5g","pricing_plan_id":"free"},{"bike_id":"b93f270d-a107-48ad-8b4a-532afb5fe8db","system_id":"levelo_inurba_marseille","lat":43.315293,"lon":5.380349,"is_reserved":false,"is_disabled":false,"rental_uris":{"android":"levelo://app?vid=b93f270d-a107-48ad-8b4a-532afb5fe8db","ios":"levelo://app?vid=b93f270d-a107-48ad-8b4a-532afb5fe8db"},"vehicle_type_id":"4","last_reported":1707192513,"current_range_meters":31200,"station_id":"ce4bhsp2rcd13ifvqi50","pricing_plan_id":"free"},{"bike_id":"af881081-433d-43ab-ab2a-93fb7b5262d7","system_id":"levelo_inurba_marseille","lat":43.315293,"lon":5.380349,"is_reserved":false,"is_disabled":false,"rental_uris":{"android":"levelo://app?vid=af881081-433d-43ab-ab2a-93fb7b5262d7","ios":"levelo://app?vid=af881081-433d-43ab-ab2a-93fb7b5262d7"},"vehicle_type_id":"4","last_reported":1707192513,"current_range_meters":19200,"station_id":"ce4bhsp2rcd13ifvqi50","pricing_plan_id":"free"},{"bike_id":"b42058fa-4edf-4739-ae73-f0ba121eb468","system_id":"levelo_inurba_marseille","lat":43.315293,"lon":5.380349,"is_reserved":false,"is_disabled":false,"rental_uris":{"android":"levelo://app?vid=b42058fa-4edf-4739-ae73-f0ba121eb468","ios":"levelo://app?vid=b42058fa-4edf-4739-ae73-f0ba121eb468"},"vehicle_type_id":"4","last_reported":1707192513,"current_range_meters":8800,"station_id":"ce4bhsp2rcd13ifvqi50","pricing_plan_id":"free"},{"bike_id":"1ff502e3-cf5d-4329-ae16-6dd8511bf8bc","system_id":"levelo_inurba_marseille","lat":43.301939,"lon":5.366286,"is_reserved":false,"is_disabled":false,"rental_uris":{"android":"levelo://app?vid=1ff502e3-cf5d-4329-ae16-6dd8511bf8bc","ios":"levelo://app?vid=1ff502e3-cf5d-4329-ae16-6dd8511bf8bc"},"vehicle_type_id":"4","last_reported":1707192513,"current_range_meters":7200,"station_id":"ce4bgrh2rcd13ifvqc8g","pricing_plan_id":"free"},{"bike_id":"07016c87-34f8-4755-8230-b5bf26994769","system_id":"levelo_inurba_marseille","lat":43.301939,"lon":5.366286,"is_reserved":false,"is_disabled":false,"rental_uris":{"android":"levelo://app?vid=07016c87-34f8-4755-8230-b5bf26994769","ios":"levelo://app?vid=07016c87-34f8-4755-8230-b5bf26994769"},"vehicle_type_id":"4","last_reported":1707192513,"current_range_meters":31200,"station_id":"ce4bgrh2rcd13ifvqc8g","pricing_plan_id":"free"},{"bike_id":"c30dfea8-eda5-48bf-87ce-ffefc9a4ec2e","system_id":"levelo_inurba_marseille","lat":43.301939,"lon":5.366286,"is_reserved":false,"is_disabled":false,"rental_uris":{"android":"levelo://app?vid=c30dfea8-eda5-48bf-87ce-ffefc9a4ec2e","ios":"levelo://app?vid=c30dfea8-eda5-48bf-87ce-ffefc9a4ec2e"},"vehicle_type_id":"4","last_reported":1707192513,"current_range_meters":26400,"station_id":"ce4bgrh2rcd13ifvqc8g","pricing_plan_id":"free"},{"bike_id":"f0dae5ea-f02b-4272-8108-8abb688edb0e","system_id":"levelo_inurba_marseille","lat":43.308012,"lon":5.381511,"is_reserved":false,"is_disabled":false,"rental_uris":{"android":"levelo://app?vid=f0dae5ea-f02b-4272-8108-8abb688edb0e","ios":"levelo://app?vid=f0dae5ea-f02b-4272-8108-8abb688edb0e"},"vehicle_type_id":"4","last_reported":1707192513,"current_range_meters":29200,"station_id":"ce4bgt12rcd13ifvqce0","pricing_plan_id":"free"},{"bike_id":"d0b4ff06-82aa-4d6c-a7bb-410d5f248bde","system_id":"levelo_inurba_marseille","lat":43.308012,"lon":5.381511,"is_reserved":false,"is_disabled":false,"rental_uris":{"android":"levelo://app?vid=d0b4ff06-82aa-4d6c-a7bb-410d5f248bde","ios":"levelo://app?vid=d0b4ff06-82aa-4d6c-a7bb-410d5f248bde"},"vehicle_type_id":"4","last_reported":1707192513,"current_range_meters":30400,"station_id":"ce4bgt12rcd13ifvqce0","pricing_plan_id":"free"},{"bike_id":"06b32349-0ed7-464a-8a54-c251a9fcee9a","system_id":"levelo_inurba_marseille","lat":43.308012,"lon":5.381511,"is_reserved":false,"is_disabled":false,"rental_uris":{"android":"levelo://app?vid=06b32349-0ed7-464a-8a54-c251a9fcee9a","ios":"levelo://app?vid=06b32349-0ed7-464a-8a54-c251a9fcee9a"},"vehicle_type_id":"4","last_reported":1707192513,"current_range_meters":30800,"station_id":"ce4bgt12rcd13ifvqce0","pricing_plan_id":"free"},{"bike_id":"8bd5a7ac-4265-4abe-9cd8-210964f3c885","system_id":"levelo_inurba_marseille","lat":43.304606,"lon":5.379026,"is_reserved":false,"is_disabled":false,"rental_uris":{"android":"levelo://app?vid=8bd5a7ac-4265-4abe-9cd8-210964f3c885","ios":"levelo://app?vid=8bd5a7ac-4265-4abe-9cd8-210964f3c885"},"vehicle_type_id":"4","last_reported":1707192513,"current_range_meters":30400,"station_id":"ce4bgup2rcd13ifvqcn0","pricing_plan_id":"free"},{"bike_id":"0e102f23-e188-4ba7-a585-d5501c7c8060","system_id":"levelo_inurba_marseille","lat":43.304606,"lon":5.379026,"is_reserved":false,"is_disabled":false,"rental_uris":{"android":"levelo://app?vid=0e102f23-e188-4ba7-a585-d5501c7c8060","ios":"levelo://app?vid=0e102f23-e188-4ba7-a585-d5501c7c8060"},"vehicle_type_id":"4","last_reported":1707192513,"current_range_meters":16400,"station_id":"ce4bgup2rcd13ifvqcn0","pricing_plan_id":"free"},{"bike_id":"a1586a74-abc2-4175-b445-dbc43eb87f2a","system_id":"levelo_inurba_marseille","lat":43.304606,"lon":5.379026,"is_reserved":false,"is_disabled":false,"rental_uris":{"android":"levelo://app?vid=a1586a74-abc2-4175-b445-dbc43eb87f2a","ios":"levelo://app?vid=a1586a74-abc2-4175-b445-dbc43eb87f2a"},"vehicle_type_id":"4","last_reported":1707192513,"current_range_meters":2400,"station_id":"ce4bgup2rcd13ifvqcn0","pricing_plan_id":"free"},{"bike_id":"dab176e5-b901-462f-b780-4d4f13205619","system_id":"levelo_inurba_marseille","lat":43.324771,"lon":5.36557,"is_reserved":false,"is_disabled":false,"rental_uris":{"android":"levelo://app?vid=dab176e5-b901-462f-b780-4d4f13205619","ios":"levelo://app?vid=dab176e5-b901-462f-b780-4d4f13205619"},"vehicle_type_id":"4","last_reported":1707192513,"current_range_meters":26400,"station_id":"ce4bhs12rcd13ifvqhvg","pricing_plan_id":"free"},{"bike_id":"af194b2f-e009-4732-aa23-9b2c04ad31e7","system_id":"levelo_inurba_marseille","lat":43.324771,"lon":5.36557,"is_reserved":false,"is_disabled":false,"rental_uris":{"android":"levelo://app?vid=af194b2f-e009-4732-aa23-9b2c04ad31e7","ios":"levelo://app?vid=af194b2f-e009-4732-aa23-9b2c04ad31e7"},"vehicle_type_id":"4","last_reported":1707192513,"current_range_meters":6800,"station_id":"ce4bhs12rcd13ifvqhvg","pricing_plan_id":"free"},{"bike_id":"37ce944a-2f02-4a6f-97b3-1b4a815fe9e6","system_id":"levelo_inurba_marseille","lat":43.310804,"lon":5.38359,"is_reserved":false,"is_disabled":false,"rental_uris":{"android":"levelo://app?vid=37ce944a-2f02-4a6f-97b3-1b4a815fe9e6","ios":"levelo://app?vid=37ce944a-2f02-4a6f-97b3-1b4a815fe9e6"},"vehicle_type_id":"4","last_reported":1707192513,"current_range_meters":18000,"station_id":"ce4bgv92rcd13ifvqcr0","pricing_plan_id":"free"},{"bike_id":"01116000-e724-4563-98cb-fa96552fd80d","system_id":"levelo_inurba_marseille","lat":43.310804,"lon":5.38359,"is_reserved":false,"is_disabled":false,"rental_uris":{"android":"levelo://app?vid=01116000-e724-4563-98cb-fa96552fd80d","ios":"levelo://app?vid=01116000-e724-4563-98cb-fa96552fd80d"},"vehicle_type_id":"4","last_reported":1707192513,"current_range_meters":16800,"station_id":"ce4bgv92rcd13ifvqcr0","pricing_plan_id":"free"},{"bike_id":"5a81d8df-036c-4c7e-866e-6111d4f9eb07","system_id":"levelo_inurba_marseille","lat":43.310804,"lon":5.38359,"is_reserved":false,"is_disabled":false,"rental_uris":{"android":"levelo://app?vid=5a81d8df-036c-4c7e-866e-6111d4f9eb07","ios":"levelo://app?vid=5a81d8df-036c-4c7e-866e-6111d4f9eb07"},"vehicle_type_id":"4","last_reported":1707192513,"current_range_meters":26800,"station_id":"ce4bgv92rcd13ifvqcr0","pricing_plan_id":"free"},{"bike_id":"812ea0e4-d508-4005-bc38-471e19c4a342","system_id":"levelo_inurba_marseille","lat":43.310804,"lon":5.38359,"is_reserved":false,"is_disabled":false,"rental_uris":{"android":"levelo://app?vid=812ea0e4-d508-4005-bc38-471e19c4a342","ios":"levelo://app?vid=812ea0e4-d508-4005-bc38-471e19c4a342"},"vehicle_type_id":"4","last_reported":1707192513,"current_range_meters":15200,"station_id":"ce4bgv92rcd13ifvqcr0","pricing_plan_id":"free"},{"bike_id":"57739690-2253-449c-aaca-dad1392f8389","system_id":"levelo_inurba_marseille","lat":43.310804,"lon":5.38359,"is_reserved":false,"is_disabled":false,"rental_uris":{"android":"levelo://app?vid=57739690-2253-449c-aaca-dad1392f8389","ios":"levelo://app?vid=57739690-2253-449c-aaca-dad1392f8389"},"vehicle_type_id":"4","last_reported":1707192513,"current_range_meters":26400,"station_id":"ce4bgv92rcd13ifvqcr0","pricing_plan_id":"free"},{"bike_id":"740ce307-8737-4056-a68c-1791d8a51fdf","system_id":"levelo_inurba_marseille","lat":43.310804,"lon":5.38359,"is_reserved":false,"is_disabled":false,"rental_uris":{"android":"levelo://app?vid=740ce307-8737-4056-a68c-1791d8a51fdf","ios":"levelo://app?vid=740ce307-8737-4056-a68c-1791d8a51fdf"},"vehicle_type_id":"4","last_reported":1707192513,"current_range_meters":15200,"station_id":"ce4bgv92rcd13ifvqcr0","pricing_plan_id":"free"},{"bike_id":"37b1743d-7737-46bc-8078-2df65a9a21c2","system_id":"levelo_inurba_marseille","lat":43.310804,"lon":5.38359,"is_reserved":false,"is_disabled":false,"rental_uris":{"android":"levelo://app?vid=37b1743d-7737-46bc-8078-2df65a9a21c2","ios":"levelo://app?vid=37b1743d-7737-46bc-8078-2df65a9a21c2"},"vehicle_type_id":"4","last_reported":1707192513,"current_range_meters":20800,"station_id":"ce4bgv92rcd13ifvqcr0","pricing_plan_id":"free"},{"bike_id":"2a2951e9-2fd8-4fe4-91dd-d08909f6b091","system_id":"levelo_inurba_marseille","lat":43.310804,"lon":5.38359,"is_reserved":false,"is_disabled":false,"rental_uris":{"android":"levelo://app?vid=2a2951e9-2fd8-4fe4-91dd-d08909f6b091","ios":"levelo://app?vid=2a2951e9-2fd8-4fe4-91dd-d08909f6b091"},"vehicle_type_id":"4","last_reported":1707192513,"current_range_meters":8000,"station_id":"ce4bgv92rcd13ifvqcr0","pricing_plan_id":"free"},{"bike_id":"bbce9044-ada2-4ca7-9e4f-2e7fff72f1ae","system_id":"levelo_inurba_marseille","lat":43.310804,"lon":5.38359,"is_reserved":false,"is_disabled":false,"rental_uris":{"android":"levelo://app?vid=bbce9044-ada2-4ca7-9e4f-2e7fff72f1ae","ios":"levelo://app?vid=bbce9044-ada2-4ca7-9e4f-2e7fff72f1ae"},"vehicle_type_id":"4","last_reported":1707192513,"current_range_meters":5200,"station_id":"ce4bgv92rcd13ifvqcr0","pricing_plan_id":"free"},{"bike_id":"09b6cb67-8582-4ede-b7cd-e64ab4d18aeb","system_id":"levelo_inurba_marseille","lat":43.302784,"lon":5.377158,"is_reserved":false,"is_disabled":false,"rental_uris":{"android":"levelo://app?vid=09b6cb67-8582-4ede-b7cd-e64ab4d18aeb","ios":"levelo://app?vid=09b6cb67-8582-4ede-b7cd-e64ab4d18aeb"},"vehicle_type_id":"4","last_reported":1707192513,"current_range_meters":14400,"station_id":"ce4bguh2rcd13ifvqcj0","pricing_plan_id":"free"},{"bike_id":"fac556dd-ce96-47b5-9e6d-36dd6deca458","system_id":"levelo_inurba_marseille","lat":43.301429,"lon":5.37413,"is_reserved":false,"is_disabled":false,"rental_uris":{"android":"levelo://app?vid=fac556dd-ce96-47b5-9e6d-36dd6deca458","ios":"levelo://app?vid=fac556dd-ce96-47b5-9e6d-36dd6deca458"},"vehicle_type_id":"4","last_reported":1707192513,"current_range_meters":24000,"station_id":"ce4bgs92rcd13ifvqcc0","pricing_plan_id":"free"},{"bike_id":"8ca7dba3-ddf3-46b1-ba0d-5f962bcf9294","system_id":"levelo_inurba_marseille","lat":43.301429,"lon":5.37413,"is_reserved":false,"is_disabled":false,"rental_uris":{"android":"levelo://app?vid=8ca7dba3-ddf3-46b1-ba0d-5f962bcf9294","ios":"levelo://app?vid=8ca7dba3-ddf3-46b1-ba0d-5f962bcf9294"},"vehicle_type_id":"4","last_reported":1707192513,"current_range_meters":31200,"station_id":"ce4bgs92rcd13ifvqcc0","pricing_plan_id":"free"},{"bike_id":"74665f2d-c376-4530-a805-413cc67e554c","system_id":"levelo_inurba_marseille","lat":43.301429,"lon":5.37413,"is_reserved":false,"is_disabled":false,"rental_uris":{"android":"levelo://app?vid=74665f2d-c376-4530-a805-413cc67e554c","ios":"levelo://app?vid=74665f2d-c376-4530-a805-413cc67e554c"},"vehicle_type_id":"4","last_reported":1707192513,"current_range_meters":29600,"station_id":"ce4bgs92rcd13ifvqcc0","pricing_plan_id":"free"},{"bike_id":"2b9206d7-f3be-4516-95f3-0cd0f4a3318b","system_id":"levelo_inurba_marseille","lat":43.31997,"lon":5.38114,"is_reserved":false,"is_disabled":false,"rental_uris":{"android":"levelo://app?vid=2b9206d7-f3be-4516-95f3-0cd0f4a3318b","ios":"levelo://app?vid=2b9206d7-f3be-4516-95f3-0cd0f4a3318b"},"vehicle_type_id":"4","last_reported":1707192513,"current_range_meters":19200,"station_id":"ce4bhr12rcd13ifvqhpg","pricing_plan_id":"free"},{"bike_id":"d91ddaaf-996a-434e-b562-f2ffb54f2299","system_id":"levelo_inurba_marseille","lat":43.31987,"lon":5.38126,"is_reserved":false,"is_disabled":false,"rental_uris":{"android":"levelo://app?vid=d91ddaaf-996a-434e-b562-f2ffb54f2299","ios":"levelo://app?vid=d91ddaaf-996a-434e-b562-f2ffb54f2299"},"vehicle_type_id":"4","last_reported":1707192513,"current_range_meters":2800,"station_id":"ce4bhr12rcd13ifvqhpg","pricing_plan_id":"free"},{"bike_id":"1cdc8df9-000e-4e0e-a6f3-f37b19fd07b2","system_id":"levelo_inurba_marseille","lat":43.319995,"lon":5.381495,"is_reserved":false,"is_disabled":false,"rental_uris":{"android":"levelo://app?vid=1cdc8df9-000e-4e0e-a6f3-f37b19fd07b2","ios":"levelo://app?vid=1cdc8df9-000e-4e0e-a6f3-f37b19fd07b2"},"vehicle_type_id":"4","last_reported":1707192513,"current_range_meters":0,"station_id":"ce4bhr12rcd13ifvqhpg","pricing_plan_id":"free"},{"bike_id":"12ce1b51-e513-48d4-8826-d38689553faa","system_id":"levelo_inurba_marseille","lat":43.31998,"lon":5.38155,"is_reserved":false,"is_disabled":false,"rental_uris":{"android":"levelo://app?vid=12ce1b51-e513-48d4-8826-d38689553faa","ios":"levelo://app?vid=12ce1b51-e513-48d4-8826-d38689553faa"},"vehicle_type_id":"4","last_reported":1707192513,"current_range_meters":400,"station_id":"ce4bhr12rcd13ifvqhpg","pricing_plan_id":"free"},{"bike_id":"558d8bdf-83d4-4028-81f8-4e9c2899b640","system_id":"levelo_inurba_marseille","lat":43.313571,"lon":5.384829,"is_reserved":false,"is_disabled":false,"rental_uris":{"android":"levelo://app?vid=558d8bdf-83d4-4028-81f8-4e9c2899b640","ios":"levelo://app?vid=558d8bdf-83d4-4028-81f8-4e9c2899b640"},"vehicle_type_id":"4","last_reported":1707192513,"current_range_meters":30800,"station_id":"ce4bgt92rcd13ifvqcf0","pricing_plan_id":"free"},{"bike_id":"56f6dc9b-ee8e-4663-8253-9f395f529ece","system_id":"levelo_inurba_marseille","lat":43.313571,"lon":5.384829,"is_reserved":false,"is_disabled":false,"rental_uris":{"android":"levelo://app?vid=56f6dc9b-ee8e-4663-8253-9f395f529ece","ios":"levelo://app?vid=56f6dc9b-ee8e-4663-8253-9f395f529ece"},"vehicle_type_id":"4","last_reported":1707192513,"current_range_meters":28800,"station_id":"ce4bgt92rcd13ifvqcf0","pricing_plan_id":"free"},{"bike_id":"bc89e135-51b7-4cdd-95e6-79023fc4fece","system_id":"levelo_inurba_marseille","lat":43.313571,"lon":5.384829,"is_reserved":false,"is_disabled":false,"rental_uris":{"android":"levelo://app?vid=bc89e135-51b7-4cdd-95e6-79023fc4fece","ios":"levelo://app?vid=bc89e135-51b7-4cdd-95e6-79023fc4fece"},"vehicle_type_id":"4","last_reported":1707192513,"current_range_meters":6800,"station_id":"ce4bgt92rcd13ifvqcf0","pricing_plan_id":"free"},{"bike_id":"da8afc68-2fa0-4a57-8843-450d68830166","system_id":"levelo_inurba_marseille","lat":43.299222,"lon":5.365554,"is_reserved":false,"is_disabled":false,"rental_uris":{"android":"levelo://app?vid=da8afc68-2fa0-4a57-8843-450d68830166","ios":"levelo://app?vid=da8afc68-2fa0-4a57-8843-450d68830166"},"vehicle_type_id":"4","last_reported":1707192513,"current_range_meters":17200,"station_id":"ce4bgm92rcd13ifvqbr0","pricing_plan_id":"free"},{"bike_id":"5f014fbf-255e-4c09-8a66-4cfc10078351","system_id":"levelo_inurba_marseille","lat":43.299724,"lon":5.371829,"is_reserved":false,"is_disabled":false,"rental_uris":{"android":"levelo://app?vid=5f014fbf-255e-4c09-8a66-4cfc10078351","ios":"levelo://app?vid=5f014fbf-255e-4c09-8a66-4cfc10078351"},"vehicle_type_id":"4","last_reported":1707192513,"current_range_meters":28400,"station_id":"ce4bgr92rcd13ifvqc7g","pricing_plan_id":"free"},{"bike_id":"d73908e2-2bfd-489b-804e-d4e95fac72d2","system_id":"levelo_inurba_marseille","lat":43.326525,"lon":5.36078,"is_reserved":false,"is_disabled":false,"rental_uris":{"android":"levelo://app?vid=d73908e2-2bfd-489b-804e-d4e95fac72d2","ios":"levelo://app?vid=d73908e2-2bfd-489b-804e-d4e95fac72d2"},"vehicle_type_id":"4","last_reported":1707192513,"current_range_meters":16000,"station_id":"","pricing_plan_id":"free"},{"bike_id":"13294f05-5aea-43e7-9a9f-d60e9ec1d051","system_id":"levelo_inurba_marseille","lat":43.29851,"lon":5.3629,"is_reserved":false,"is_disabled":false,"rental_uris":{"android":"levelo://app?vid=13294f05-5aea-43e7-9a9f-d60e9ec1d051","ios":"levelo://app?vid=13294f05-5aea-43e7-9a9f-d60e9ec1d051"},"vehicle_type_id":"4","last_reported":1707192513,"current_range_meters":24400,"station_id":"ce4bgpp2rcd13ifvqc3g","pricing_plan_id":"free"},{"bike_id":"7ad2bb3c-bb25-40c0-b6b0-c48f42104b71","system_id":"levelo_inurba_marseille","lat":43.31174,"lon":5.387066,"is_reserved":false,"is_disabled":false,"rental_uris":{"android":"levelo://app?vid=7ad2bb3c-bb25-40c0-b6b0-c48f42104b71","ios":"levelo://app?vid=7ad2bb3c-bb25-40c0-b6b0-c48f42104b71"},"vehicle_type_id":"4","last_reported":1707192513,"current_range_meters":23600,"station_id":"ce4bgv12rcd13ifvqcp0","pricing_plan_id":"free"},{"bike_id":"64a23d42-750a-4261-a71b-2e0efa217dd6","system_id":"levelo_inurba_marseille","lat":43.311722,"lon":5.387247,"is_reserved":false,"is_disabled":false,"rental_uris":{"android":"levelo://app?vid=64a23d42-750a-4261-a71b-2e0efa217dd6","ios":"levelo://app?vid=64a23d42-750a-4261-a71b-2e0efa217dd6"},"vehicle_type_id":"4","last_reported":1707192513,"current_range_meters":29600,"station_id":"ce4bgv12rcd13ifvqcp0","pricing_plan_id":"free"},{"bike_id":"9e7698a0-a9f5-47e1-abeb-8ab482b928f0","system_id":"levelo_inurba_marseille","lat":43.311731,"lon":5.387123,"is_reserved":false,"is_disabled":false,"rental_uris":{"android":"levelo://app?vid=9e7698a0-a9f5-47e1-abeb-8ab482b928f0","ios":"levelo://app?vid=9e7698a0-a9f5-47e1-abeb-8ab482b928f0"},"vehicle_type_id":"4","last_reported":1707192513,"current_range_meters":27200,"station_id":"ce4bgv12rcd13ifvqcp0","pricing_plan_id":"free"},{"bike_id":"69f55d5a-bc56-4c1f-9f71-69c4115cbdca","system_id":"levelo_inurba_marseille","lat":43.311768,"lon":5.387135,"is_reserved":false,"is_disabled":false,"rental_uris":{"android":"levelo://app?vid=69f55d5a-bc56-4c1f-9f71-69c4115cbdca","ios":"levelo://app?vid=69f55d5a-bc56-4c1f-9f71-69c4115cbdca"},"vehicle_type_id":"4","last_reported":1707192513,"current_range_meters":24400,"station_id":"ce4bgv12rcd13ifvqcp0","pricing_plan_id":"free"},{"bike_id":"6190622c-e3b7-4477-aa2c-98b90c6b0bf2","system_id":"levelo_inurba_marseille","lat":43.311722,"lon":5.387247,"is_reserved":false,"is_disabled":false,"rental_uris":{"android":"levelo://app?vid=6190622c-e3b7-4477-aa2c-98b90c6b0bf2","ios":"levelo://app?vid=6190622c-e3b7-4477-aa2c-98b90c6b0bf2"},"vehicle_type_id":"4","last_reported":1707192513,"current_range_meters":21200,"station_id":"ce4bgv12rcd13ifvqcp0","pricing_plan_id":"free"},{"bike_id":"0210949c-3f39-45fb-9d4d-ff3a27e7b63b","system_id":"levelo_inurba_marseille","lat":43.29784,"lon":5.371083,"is_reserved":false,"is_disabled":false,"rental_uris":{"android":"levelo://app?vid=0210949c-3f39-45fb-9d4d-ff3a27e7b63b","ios":"levelo://app?vid=0210949c-3f39-45fb-9d4d-ff3a27e7b63b"},"vehicle_type_id":"4","last_reported":1707192513,"current_range_meters":27600,"station_id":"ce4bgop2rcd13ifvqc1g","pricing_plan_id":"free"},{"bike_id":"067f66e1-9b81-4458-bb45-5c10a4329356","system_id":"levelo_inurba_marseille","lat":43.322872,"lon":5.382756,"is_reserved":false,"is_disabled":false,"rental_uris":{"android":"levelo://app?vid=067f66e1-9b81-4458-bb45-5c10a4329356","ios":"levelo://app?vid=067f66e1-9b81-4458-bb45-5c10a4329356"},"vehicle_type_id":"4","last_reported":1707192513,"current_range_meters":31200,"station_id":"ce4bhr12rcd13ifvqhqg","pricing_plan_id":"free"},{"bike_id":"acb0b184-9bf5-46e1-94e9-e996216dd8a0","system_id":"levelo_inurba_marseille","lat":43.322872,"lon":5.382756,"is_reserved":false,"is_disabled":false,"rental_uris":{"android":"levelo://app?vid=acb0b184-9bf5-46e1-94e9-e996216dd8a0","ios":"levelo://app?vid=acb0b184-9bf5-46e1-94e9-e996216dd8a0"},"vehicle_type_id":"4","last_reported":1707192513,"current_range_meters":30000,"station_id":"ce4bhr12rcd13ifvqhqg","pricing_plan_id":"free"},{"bike_id":"642b6707-55dc-499a-96df-e1892771c3ea","system_id":"levelo_inurba_marseille","lat":43.322872,"lon":5.382756,"is_reserved":false,"is_disabled":false,"rental_uris":{"android":"levelo://app?vid=642b6707-55dc-499a-96df-e1892771c3ea","ios":"levelo://app?vid=642b6707-55dc-499a-96df-e1892771c3ea"},"vehicle_type_id":"4","last_reported":1707192513,"current_range_meters":30000,"station_id":"ce4bhr12rcd13ifvqhqg","pricing_plan_id":"free"},{"bike_id":"068825c3-0e30-4039-9991-0f25d2c61d15","system_id":"levelo_inurba_marseille","lat":43.328087,"lon":5.366865,"is_reserved":false,"is_disabled":false,"rental_uris":{"android":"levelo://app?vid=068825c3-0e30-4039-9991-0f25d2c61d15","ios":"levelo://app?vid=068825c3-0e30-4039-9991-0f25d2c61d15"},"vehicle_type_id":"4","last_reported":1707192513,"current_range_meters":18800,"station_id":"ce4bhs92rcd13ifvqi0g","pricing_plan_id":"free"},{"bike_id":"2d35649e-5275-4c8a-a083-907f59a3cbfa","system_id":"levelo_inurba_marseille","lat":43.322872,"lon":5.382756,"is_reserved":false,"is_disabled":false,"rental_uris":{"android":"levelo://app?vid=2d35649e-5275-4c8a-a083-907f59a3cbfa","ios":"levelo://app?vid=2d35649e-5275-4c8a-a083-907f59a3cbfa"},"vehicle_type_id":"4","last_reported":1707192513,"current_range_meters":27600,"station_id":"ce4bhr12rcd13ifvqhqg","pricing_plan_id":"free"},{"bike_id":"1900e2ea-9239-49b1-933e-57903fa99707","system_id":"levelo_inurba_marseille","lat":43.32826,"lon":5.36695,"is_reserved":false,"is_disabled":false,"rental_uris":{"android":"levelo://app?vid=1900e2ea-9239-49b1-933e-57903fa99707","ios":"levelo://app?vid=1900e2ea-9239-49b1-933e-57903fa99707"},"vehicle_type_id":"4","last_reported":1707192513,"current_range_meters":4800,"station_id":"ce4bhs92rcd13ifvqi0g","pricing_plan_id":"free"},{"bike_id":"6cd6b889-8d57-4573-b2a2-aa0a2c9636a8","system_id":"levelo_inurba_marseille","lat":43.328371,"lon":5.366909,"is_reserved":false,"is_disabled":false,"rental_uris":{"android":"levelo://app?vid=6cd6b889-8d57-4573-b2a2-aa0a2c9636a8","ios":"levelo://app?vid=6cd6b889-8d57-4573-b2a2-aa0a2c9636a8"},"vehicle_type_id":"4","last_reported":1707192513,"current_range_meters":3600,"station_id":"ce4bhs92rcd13ifvqi0g","pricing_plan_id":"free"},{"bike_id":"36243836-0b62-45d5-b00e-078a5c9e3add","system_id":"levelo_inurba_marseille","lat":43.32831,"lon":5.36667,"is_reserved":false,"is_disabled":false,"rental_uris":{"android":"levelo://app?vid=36243836-0b62-45d5-b00e-078a5c9e3add","ios":"levelo://app?vid=36243836-0b62-45d5-b00e-078a5c9e3add"},"vehicle_type_id":"4","last_reported":1707192513,"current_range_meters":8000,"station_id":"ce4bhs92rcd13ifvqi0g","pricing_plan_id":"free"},{"bike_id":"a7f79efb-1544-4a9c-90b1-63c97e52bce2","system_id":"levelo_inurba_marseille","lat":43.328371,"lon":5.366909,"is_reserved":false,"is_disabled":false,"rental_uris":{"android":"levelo://app?vid=a7f79efb-1544-4a9c-90b1-63c97e52bce2","ios":"levelo://app?vid=a7f79efb-1544-4a9c-90b1-63c97e52bce2"},"vehicle_type_id":"4","last_reported":1707192513,"current_range_meters":13600,"station_id":"ce4bhs92rcd13ifvqi0g","pricing_plan_id":"free"},{"bike_id":"06bce1ca-ce4b-4ab5-8885-d98d4090f0f5","system_id":"levelo_inurba_marseille","lat":43.328323,"lon":5.366738,"is_reserved":false,"is_disabled":false,"rental_uris":{"android":"levelo://app?vid=06bce1ca-ce4b-4ab5-8885-d98d4090f0f5","ios":"levelo://app?vid=06bce1ca-ce4b-4ab5-8885-d98d4090f0f5"},"vehicle_type_id":"4","last_reported":1707192513,"current_range_meters":26400,"station_id":"ce4bhs92rcd13ifvqi0g","pricing_plan_id":"free"},{"bike_id":"57636294-9023-4525-a40b-10231e045ab7","system_id":"levelo_inurba_marseille","lat":43.297163,"lon":5.365866,"is_reserved":false,"is_disabled":false,"rental_uris":{"android":"levelo://app?vid=57636294-9023-4525-a40b-10231e045ab7","ios":"levelo://app?vid=57636294-9023-4525-a40b-10231e045ab7"},"vehicle_type_id":"4","last_reported":1707192513,"current_range_meters":21200,"station_id":"ce4bgn12rcd13ifvqbt0","pricing_plan_id":"free"},{"bike_id":"92ac002f-d2a1-4743-8ed1-acd748dd2cf1","system_id":"levelo_inurba_marseille","lat":43.297163,"lon":5.365866,"is_reserved":false,"is_disabled":false,"rental_uris":{"android":"levelo://app?vid=92ac002f-d2a1-4743-8ed1-acd748dd2cf1","ios":"levelo://app?vid=92ac002f-d2a1-4743-8ed1-acd748dd2cf1"},"vehicle_type_id":"4","last_reported":1707192513,"current_range_meters":30400,"station_id":"ce4bgn12rcd13ifvqbt0","pricing_plan_id":"free"},{"bike_id":"6e3f5a3f-d80d-49de-b227-4c239a1a9df3","system_id":"levelo_inurba_marseille","lat":43.297163,"lon":5.365866,"is_reserved":false,"is_disabled":false,"rental_uris":{"android":"levelo://app?vid=6e3f5a3f-d80d-49de-b227-4c239a1a9df3","ios":"levelo://app?vid=6e3f5a3f-d80d-49de-b227-4c239a1a9df3"},"vehicle_type_id":"4","last_reported":1707192513,"current_range_meters":28800,"station_id":"ce4bgn12rcd13ifvqbt0","pricing_plan_id":"free"},{"bike_id":"62aabb2b-c9f9-48ea-a3a4-e4eb79305b81","system_id":"levelo_inurba_marseille","lat":43.328371,"lon":5.366909,"is_reserved":false,"is_disabled":false,"rental_uris":{"android":"levelo://app?vid=62aabb2b-c9f9-48ea-a3a4-e4eb79305b81","ios":"levelo://app?vid=62aabb2b-c9f9-48ea-a3a4-e4eb79305b81"},"vehicle_type_id":"4","last_reported":1707192513,"current_range_meters":6400,"station_id":"ce4bhs92rcd13ifvqi0g","pricing_plan_id":"free"},{"bike_id":"ce0fc8c3-f207-4afc-bea4-f18c14faf7a6","system_id":"levelo_inurba_marseille","lat":43.328371,"lon":5.366909,"is_reserved":false,"is_disabled":false,"rental_uris":{"android":"levelo://app?vid=ce0fc8c3-f207-4afc-bea4-f18c14faf7a6","ios":"levelo://app?vid=ce0fc8c3-f207-4afc-bea4-f18c14faf7a6"},"vehicle_type_id":"4","last_reported":1707192513,"current_range_meters":6000,"station_id":"ce4bhs92rcd13ifvqi0g","pricing_plan_id":"free"},{"bike_id":"9ce9a188-09f7-43f0-9439-fcd52731acf1","system_id":"levelo_inurba_marseille","lat":43.328371,"lon":5.366909,"is_reserved":false,"is_disabled":false,"rental_uris":{"android":"levelo://app?vid=9ce9a188-09f7-43f0-9439-fcd52731acf1","ios":"levelo://app?vid=9ce9a188-09f7-43f0-9439-fcd52731acf1"},"vehicle_type_id":"4","last_reported":1707192513,"current_range_meters":28800,"station_id":"ce4bhs92rcd13ifvqi0g","pricing_plan_id":"free"},{"bike_id":"98fb478c-2c90-4367-b2fe-e3ba20dfacae","system_id":"levelo_inurba_marseille","lat":43.314915,"lon":5.388916,"is_reserved":false,"is_disabled":false,"rental_uris":{"android":"levelo://app?vid=98fb478c-2c90-4367-b2fe-e3ba20dfacae","ios":"levelo://app?vid=98fb478c-2c90-4367-b2fe-e3ba20dfacae"},"vehicle_type_id":"4","last_reported":1707192513,"current_range_meters":24000,"station_id":"","pricing_plan_id":"free"},{"bike_id":"eefbf4aa-4074-4c6c-bc14-eb4b76dd8d6d","system_id":"levelo_inurba_marseille","lat":43.2968,"lon":5.37291,"is_reserved":false,"is_disabled":false,"rental_uris":{"android":"levelo://app?vid=eefbf4aa-4074-4c6c-bc14-eb4b76dd8d6d","ios":"levelo://app?vid=eefbf4aa-4074-4c6c-bc14-eb4b76dd8d6d"},"vehicle_type_id":"4","last_reported":1707192513,"current_range_meters":10000,"station_id":"ce4bgk12rcd13ifvqbj0","pricing_plan_id":"free"},{"bike_id":"671d4964-bb5c-4981-b113-45b41e3664f0","system_id":"levelo_inurba_marseille","lat":43.299028,"lon":5.381509,"is_reserved":false,"is_disabled":false,"rental_uris":{"android":"levelo://app?vid=671d4964-bb5c-4981-b113-45b41e3664f0","ios":"levelo://app?vid=671d4964-bb5c-4981-b113-45b41e3664f0"},"vehicle_type_id":"4","last_reported":1707192513,"current_range_meters":31200,"station_id":"ce4bgj12rcd13ifvqbc0","pricing_plan_id":"free"},{"bike_id":"2ae0df79-2c92-4e9d-a4cd-1b09866554b1","system_id":"levelo_inurba_marseille","lat":43.317557,"lon":5.390173,"is_reserved":false,"is_disabled":false,"rental_uris":{"android":"levelo://app?vid=2ae0df79-2c92-4e9d-a4cd-1b09866554b1","ios":"levelo://app?vid=2ae0df79-2c92-4e9d-a4cd-1b09866554b1"},"vehicle_type_id":"4","last_reported":1707192513,"current_range_meters":28000,"station_id":"ce4bhqp2rcd13ifvqhng","pricing_plan_id":"free"},{"bike_id":"90e02760-0c46-48ac-8940-38c33e37b113","system_id":"levelo_inurba_marseille","lat":43.309589,"lon":5.390258,"is_reserved":false,"is_disabled":false,"rental_uris":{"android":"levelo://app?vid=90e02760-0c46-48ac-8940-38c33e37b113","ios":"levelo://app?vid=90e02760-0c46-48ac-8940-38c33e37b113"},"vehicle_type_id":"4","last_reported":1707192513,"current_range_meters":30400,"station_id":"ce4bgup2rcd13ifvqco0","pricing_plan_id":"free"},{"bike_id":"e1c31943-c6a1-4069-8257-d9f3674fe881","system_id":"levelo_inurba_marseille","lat":43.309587,"lon":5.390413,"is_reserved":false,"is_disabled":false,"rental_uris":{"android":"levelo://app?vid=e1c31943-c6a1-4069-8257-d9f3674fe881","ios":"levelo://app?vid=e1c31943-c6a1-4069-8257-d9f3674fe881"},"vehicle_type_id":"4","last_reported":1707192513,"current_range_meters":17600,"station_id":"ce4bgup2rcd13ifvqco0","pricing_plan_id":"free"},{"bike_id":"4f752cbf-1ca6-40f6-9f34-64f0e4f4d3c2","system_id":"levelo_inurba_marseille","lat":43.309589,"lon":5.390258,"is_reserved":false,"is_disabled":false,"rental_uris":{"android":"levelo://app?vid=4f752cbf-1ca6-40f6-9f34-64f0e4f4d3c2","ios":"levelo://app?vid=4f752cbf-1ca6-40f6-9f34-64f0e4f4d3c2"},"vehicle_type_id":"4","last_reported":1707192513,"current_range_meters":21600,"station_id":"ce4bgup2rcd13ifvqco0","pricing_plan_id":"free"},{"bike_id":"9ca96cc4-aebd-4989-963a-e0ed8e3a5bd7","system_id":"levelo_inurba_marseille","lat":43.309589,"lon":5.390258,"is_reserved":false,"is_disabled":false,"rental_uris":{"android":"levelo://app?vid=9ca96cc4-aebd-4989-963a-e0ed8e3a5bd7","ios":"levelo://app?vid=9ca96cc4-aebd-4989-963a-e0ed8e3a5bd7"},"vehicle_type_id":"4","last_reported":1707192513,"current_range_meters":30400,"station_id":"ce4bgup2rcd13ifvqco0","pricing_plan_id":"free"},{"bike_id":"2180d5bc-a1ff-4f28-924e-e51b8a619ab4","system_id":"levelo_inurba_marseille","lat":43.317557,"lon":5.390173,"is_reserved":false,"is_disabled":false,"rental_uris":{"android":"levelo://app?vid=2180d5bc-a1ff-4f28-924e-e51b8a619ab4","ios":"levelo://app?vid=2180d5bc-a1ff-4f28-924e-e51b8a619ab4"},"vehicle_type_id":"4","last_reported":1707192513,"current_range_meters":22400,"station_id":"ce4bhqp2rcd13ifvqhng","pricing_plan_id":"free"},{"bike_id":"5f4bbffd-645d-4394-9713-b7d56fa1e800","system_id":"levelo_inurba_marseille","lat":43.317627,"lon":5.390094,"is_reserved":false,"is_disabled":false,"rental_uris":{"android":"levelo://app?vid=5f4bbffd-645d-4394-9713-b7d56fa1e800","ios":"levelo://app?vid=5f4bbffd-645d-4394-9713-b7d56fa1e800"},"vehicle_type_id":"4","last_reported":1707192513,"current_range_meters":8400,"station_id":"ce4bhqp2rcd13ifvqhng","pricing_plan_id":"free"},{"bike_id":"bf5596bb-afb2-46d3-93c4-a5572d7667f8","system_id":"levelo_inurba_marseille","lat":43.31759,"lon":5.39018,"is_reserved":false,"is_disabled":false,"rental_uris":{"android":"levelo://app?vid=bf5596bb-afb2-46d3-93c4-a5572d7667f8","ios":"levelo://app?vid=bf5596bb-afb2-46d3-93c4-a5572d7667f8"},"vehicle_type_id":"4","last_reported":1707192513,"current_range_meters":30000,"station_id":"ce4bhqp2rcd13ifvqhng","pricing_plan_id":"free"},{"bike_id":"11c85865-4ced-4fec-981e-beaf4e0f501b","system_id":"levelo_inurba_marseille","lat":43.317557,"lon":5.390173,"is_reserved":false,"is_disabled":false,"rental_uris":{"android":"levelo://app?vid=11c85865-4ced-4fec-981e-beaf4e0f501b","ios":"levelo://app?vid=11c85865-4ced-4fec-981e-beaf4e0f501b"},"vehicle_type_id":"4","last_reported":1707192513,"current_range_meters":27600,"station_id":"ce4bhqp2rcd13ifvqhng","pricing_plan_id":"free"},{"bike_id":"40a85205-af79-43c2-bdc9-257280312aae","system_id":"levelo_inurba_marseille","lat":43.317552,"lon":5.39023,"is_reserved":false,"is_disabled":false,"rental_uris":{"android":"levelo://app?vid=40a85205-af79-43c2-bdc9-257280312aae","ios":"levelo://app?vid=40a85205-af79-43c2-bdc9-257280312aae"},"vehicle_type_id":"4","last_reported":1707192513,"current_range_meters":22000,"station_id":"ce4bhqp2rcd13ifvqhng","pricing_plan_id":"free"},{"bike_id":"b023b8de-681e-4a4f-921a-3ae0e7b207d6","system_id":"levelo_inurba_marseille","lat":43.317557,"lon":5.390173,"is_reserved":false,"is_disabled":false,"rental_uris":{"android":"levelo://app?vid=b023b8de-681e-4a4f-921a-3ae0e7b207d6","ios":"levelo://app?vid=b023b8de-681e-4a4f-921a-3ae0e7b207d6"},"vehicle_type_id":"4","last_reported":1707192513,"current_range_meters":24800,"station_id":"ce4bhqp2rcd13ifvqhng","pricing_plan_id":"free"},{"bike_id":"1033b78d-f901-4cfa-8cae-54cb1e173be4","system_id":"levelo_inurba_marseille","lat":43.31758,"lon":5.39027,"is_reserved":false,"is_disabled":false,"rental_uris":{"android":"levelo://app?vid=1033b78d-f901-4cfa-8cae-54cb1e173be4","ios":"levelo://app?vid=1033b78d-f901-4cfa-8cae-54cb1e173be4"},"vehicle_type_id":"4","last_reported":1707192513,"current_range_meters":24000,"station_id":"ce4bhqp2rcd13ifvqhng","pricing_plan_id":"free"},{"bike_id":"bb44c58b-c05c-480f-8c27-e2e6bf908e53","system_id":"levelo_inurba_marseille","lat":43.30444,"lon":5.38886,"is_reserved":false,"is_disabled":false,"rental_uris":{"android":"levelo://app?vid=bb44c58b-c05c-480f-8c27-e2e6bf908e53","ios":"levelo://app?vid=bb44c58b-c05c-480f-8c27-e2e6bf908e53"},"vehicle_type_id":"4","last_reported":1707192513,"current_range_meters":22800,"station_id":"ce4bgk12rcd13ifvqbi0","pricing_plan_id":"free"},{"bike_id":"1805feba-fa9d-48b3-8273-91b849c82b90","system_id":"levelo_inurba_marseille","lat":43.304274,"lon":5.388873,"is_reserved":false,"is_disabled":false,"rental_uris":{"android":"levelo://app?vid=1805feba-fa9d-48b3-8273-91b849c82b90","ios":"levelo://app?vid=1805feba-fa9d-48b3-8273-91b849c82b90"},"vehicle_type_id":"4","last_reported":1707192513,"current_range_meters":27600,"station_id":"ce4bgk12rcd13ifvqbi0","pricing_plan_id":"free"},{"bike_id":"158faa6a-c384-478a-baf9-7d129a844858","system_id":"levelo_inurba_marseille","lat":43.30437,"lon":5.38884,"is_reserved":false,"is_disabled":false,"rental_uris":{"android":"levelo://app?vid=158faa6a-c384-478a-baf9-7d129a844858","ios":"levelo://app?vid=158faa6a-c384-478a-baf9-7d129a844858"},"vehicle_type_id":"4","last_reported":1707192513,"current_range_meters":10400,"station_id":"ce4bgk12rcd13ifvqbi0","pricing_plan_id":"free"},{"bike_id":"33cafe7d-6a9a-4de8-9ce8-d77b985be376","system_id":"levelo_inurba_marseille","lat":43.304397,"lon":5.388876,"is_reserved":false,"is_disabled":false,"rental_uris":{"android":"levelo://app?vid=33cafe7d-6a9a-4de8-9ce8-d77b985be376","ios":"levelo://app?vid=33cafe7d-6a9a-4de8-9ce8-d77b985be376"},"vehicle_type_id":"4","last_reported":1707192513,"current_range_meters":31200,"station_id":"ce4bgk12rcd13ifvqbi0","pricing_plan_id":"free"},{"bike_id":"93557e75-511e-4bed-a082-d407a68e9d59","system_id":"levelo_inurba_marseille","lat":43.304351,"lon":5.388863,"is_reserved":false,"is_disabled":false,"rental_uris":{"android":"levelo://app?vid=93557e75-511e-4bed-a082-d407a68e9d59","ios":"levelo://app?vid=93557e75-511e-4bed-a082-d407a68e9d59"},"vehicle_type_id":"4","last_reported":1707192513,"current_range_meters":14400,"station_id":"ce4bgk12rcd13ifvqbi0","pricing_plan_id":"free"},{"bike_id":"6fe77834-24ec-40bf-bd72-2ee8f3678e74","system_id":"levelo_inurba_marseille","lat":43.30437,"lon":5.38888,"is_reserved":false,"is_disabled":false,"rental_uris":{"android":"levelo://app?vid=6fe77834-24ec-40bf-bd72-2ee8f3678e74","ios":"levelo://app?vid=6fe77834-24ec-40bf-bd72-2ee8f3678e74"},"vehicle_type_id":"4","last_reported":1707192513,"current_range_meters":29200,"station_id":"ce4bgk12rcd13ifvqbi0","pricing_plan_id":"free"},{"bike_id":"7b3087af-8be7-4165-b2c6-78561300a075","system_id":"levelo_inurba_marseille","lat":43.30436,"lon":5.3889,"is_reserved":false,"is_disabled":false,"rental_uris":{"android":"levelo://app?vid=7b3087af-8be7-4165-b2c6-78561300a075","ios":"levelo://app?vid=7b3087af-8be7-4165-b2c6-78561300a075"},"vehicle_type_id":"4","last_reported":1707192513,"current_range_meters":23200,"station_id":"ce4bgk12rcd13ifvqbi0","pricing_plan_id":"free"},{"bike_id":"72b6bb8b-c7df-47dd-8b9f-c49ac5c18da3","system_id":"levelo_inurba_marseille","lat":43.304289,"lon":5.388857,"is_reserved":false,"is_disabled":false,"rental_uris":{"android":"levelo://app?vid=72b6bb8b-c7df-47dd-8b9f-c49ac5c18da3","ios":"levelo://app?vid=72b6bb8b-c7df-47dd-8b9f-c49ac5c18da3"},"vehicle_type_id":"4","last_reported":1707192513,"current_range_meters":19600,"station_id":"ce4bgk12rcd13ifvqbi0","pricing_plan_id":"free"},{"bike_id":"2036d8e5-20c5-4d21-922c-61fbcf72be64","system_id":"levelo_inurba_marseille","lat":43.304323,"lon":5.388895,"is_reserved":false,"is_disabled":false,"rental_uris":{"android":"levelo://app?vid=2036d8e5-20c5-4d21-922c-61fbcf72be64","ios":"levelo://app?vid=2036d8e5-20c5-4d21-922c-61fbcf72be64"},"vehicle_type_id":"4","last_reported":1707192513,"current_range_meters":5600,"station_id":"ce4bgk12rcd13ifvqbi0","pricing_plan_id":"free"},{"bike_id":"a34c4a0b-ba08-474f-9956-20e7bb33d586","system_id":"levelo_inurba_marseille","lat":43.304278,"lon":5.388868,"is_reserved":false,"is_disabled":false,"rental_uris":{"android":"levelo://app?vid=a34c4a0b-ba08-474f-9956-20e7bb33d586","ios":"levelo://app?vid=a34c4a0b-ba08-474f-9956-20e7bb33d586"},"vehicle_type_id":"4","last_reported":1707192513,"current_range_meters":28800,"station_id":"ce4bgk12rcd13ifvqbi0","pricing_plan_id":"free"},{"bike_id":"a671ba84-b7e4-4d4f-9ad5-03ba550b9cb2","system_id":"levelo_inurba_marseille","lat":43.32367,"lon":5.388836,"is_reserved":false,"is_disabled":false,"rental_uris":{"android":"levelo://app?vid=a671ba84-b7e4-4d4f-9ad5-03ba550b9cb2","ios":"levelo://app?vid=a671ba84-b7e4-4d4f-9ad5-03ba550b9cb2"},"vehicle_type_id":"4","last_reported":1707192513,"current_range_meters":31200,"station_id":"ce4bhqp2rcd13ifvqhog","pricing_plan_id":"free"},{"bike_id":"8480d9f7-f5a5-4e5f-837e-01e4caae9e45","system_id":"levelo_inurba_marseille","lat":43.32367,"lon":5.388836,"is_reserved":false,"is_disabled":false,"rental_uris":{"android":"levelo://app?vid=8480d9f7-f5a5-4e5f-837e-01e4caae9e45","ios":"levelo://app?vid=8480d9f7-f5a5-4e5f-837e-01e4caae9e45"},"vehicle_type_id":"4","last_reported":1707192513,"current_range_meters":30800,"station_id":"ce4bhqp2rcd13ifvqhog","pricing_plan_id":"free"},{"bike_id":"dcddecd6-5758-46ce-92ae-47071e0dbc69","system_id":"levelo_inurba_marseille","lat":43.32367,"lon":5.388836,"is_reserved":false,"is_disabled":false,"rental_uris":{"android":"levelo://app?vid=dcddecd6-5758-46ce-92ae-47071e0dbc69","ios":"levelo://app?vid=dcddecd6-5758-46ce-92ae-47071e0dbc69"},"vehicle_type_id":"4","last_reported":1707192513,"current_range_meters":28000,"station_id":"ce4bhqp2rcd13ifvqhog","pricing_plan_id":"free"},{"bike_id":"ffbb2138-bb75-4165-a2b5-f3272a2be3e3","system_id":"levelo_inurba_marseille","lat":43.32367,"lon":5.388836,"is_reserved":false,"is_disabled":false,"rental_uris":{"android":"levelo://app?vid=ffbb2138-bb75-4165-a2b5-f3272a2be3e3","ios":"levelo://app?vid=ffbb2138-bb75-4165-a2b5-f3272a2be3e3"},"vehicle_type_id":"4","last_reported":1707192513,"current_range_meters":12000,"station_id":"ce4bhqp2rcd13ifvqhog","pricing_plan_id":"free"},{"bike_id":"20e6aa6d-552c-48cb-b5d2-9bec3a43e4d9","system_id":"levelo_inurba_marseille","lat":43.32367,"lon":5.388836,"is_reserved":false,"is_disabled":false,"rental_uris":{"android":"levelo://app?vid=20e6aa6d-552c-48cb-b5d2-9bec3a43e4d9","ios":"levelo://app?vid=20e6aa6d-552c-48cb-b5d2-9bec3a43e4d9"},"vehicle_type_id":"4","last_reported":1707192513,"current_range_meters":23600,"station_id":"ce4bhqp2rcd13ifvqhog","pricing_plan_id":"free"},{"bike_id":"f73633ed-ebab-411a-8d54-ca75d30a3432","system_id":"levelo_inurba_marseille","lat":43.32367,"lon":5.388836,"is_reserved":false,"is_disabled":false,"rental_uris":{"android":"levelo://app?vid=f73633ed-ebab-411a-8d54-ca75d30a3432","ios":"levelo://app?vid=f73633ed-ebab-411a-8d54-ca75d30a3432"},"vehicle_type_id":"4","last_reported":1707192513,"current_range_meters":18000,"station_id":"ce4bhqp2rcd13ifvqhog","pricing_plan_id":"free"},{"bike_id":"79d27a36-9503-46a4-a302-96652dc26f30","system_id":"levelo_inurba_marseille","lat":43.307186,"lon":5.392421,"is_reserved":false,"is_disabled":false,"rental_uris":{"android":"levelo://app?vid=79d27a36-9503-46a4-a302-96652dc26f30","ios":"levelo://app?vid=79d27a36-9503-46a4-a302-96652dc26f30"},"vehicle_type_id":"4","last_reported":1707192513,"current_range_meters":1200,"station_id":"","pricing_plan_id":"free"},{"bike_id":"cbe82300-49c0-4998-b935-e681e58c7413","system_id":"levelo_inurba_marseille","lat":43.305994,"lon":5.393687,"is_reserved":false,"is_disabled":false,"rental_uris":{"android":"levelo://app?vid=cbe82300-49c0-4998-b935-e681e58c7413","ios":"levelo://app?vid=cbe82300-49c0-4998-b935-e681e58c7413"},"vehicle_type_id":"4","last_reported":1707192513,"current_range_meters":30800,"station_id":"ce4bh0p2rcd13ifvqd80","pricing_plan_id":"free"},{"bike_id":"3e131715-07a3-430a-a5cf-eccf19db0881","system_id":"levelo_inurba_marseille","lat":43.305959,"lon":5.393515,"is_reserved":false,"is_disabled":false,"rental_uris":{"android":"levelo://app?vid=3e131715-07a3-430a-a5cf-eccf19db0881","ios":"levelo://app?vid=3e131715-07a3-430a-a5cf-eccf19db0881"},"vehicle_type_id":"4","last_reported":1707192513,"current_range_meters":16800,"station_id":"ce4bh0p2rcd13ifvqd80","pricing_plan_id":"free"},{"bike_id":"58ce6322-a791-48f0-8bcc-95a1314180fc","system_id":"levelo_inurba_marseille","lat":43.29508,"lon":5.38132,"is_reserved":false,"is_disabled":false,"rental_uris":{"android":"levelo://app?vid=58ce6322-a791-48f0-8bcc-95a1314180fc","ios":"levelo://app?vid=58ce6322-a791-48f0-8bcc-95a1314180fc"},"vehicle_type_id":"4","last_reported":1707192513,"current_range_meters":30400,"station_id":"","pricing_plan_id":"free"},{"bike_id":"1208d0fa-2868-45f5-8132-6d190ef6cdaa","system_id":"levelo_inurba_marseille","lat":43.305994,"lon":5.393687,"is_reserved":false,"is_disabled":false,"rental_uris":{"android":"levelo://app?vid=1208d0fa-2868-45f5-8132-6d190ef6cdaa","ios":"levelo://app?vid=1208d0fa-2868-45f5-8132-6d190ef6cdaa"},"vehicle_type_id":"4","last_reported":1707192513,"current_range_meters":29200,"station_id":"ce4bh0p2rcd13ifvqd80","pricing_plan_id":"free"},{"bike_id":"29623b3a-ac6a-45db-89a6-486d88380fc1","system_id":"levelo_inurba_marseille","lat":43.305994,"lon":5.393687,"is_reserved":false,"is_disabled":false,"rental_uris":{"android":"levelo://app?vid=29623b3a-ac6a-45db-89a6-486d88380fc1","ios":"levelo://app?vid=29623b3a-ac6a-45db-89a6-486d88380fc1"},"vehicle_type_id":"4","last_reported":1707192513,"current_range_meters":27200,"station_id":"ce4bh0p2rcd13ifvqd80","pricing_plan_id":"free"},{"bike_id":"6d66f854-732c-48ac-8f63-b816b527ad32","system_id":"levelo_inurba_marseille","lat":43.303002,"lon":5.392142,"is_reserved":false,"is_disabled":false,"rental_uris":{"android":"levelo://app?vid=6d66f854-732c-48ac-8f63-b816b527ad32","ios":"levelo://app?vid=6d66f854-732c-48ac-8f63-b816b527ad32"},"vehicle_type_id":"4","last_reported":1707192513,"current_range_meters":15200,"station_id":"ce4bgkh2rcd13ifvqbk0","pricing_plan_id":"free"},{"bike_id":"adfdc9f5-7ebd-4d79-b7bc-e8de606f1e98","system_id":"levelo_inurba_marseille","lat":43.303002,"lon":5.392142,"is_reserved":false,"is_disabled":false,"rental_uris":{"android":"levelo://app?vid=adfdc9f5-7ebd-4d79-b7bc-e8de606f1e98","ios":"levelo://app?vid=adfdc9f5-7ebd-4d79-b7bc-e8de606f1e98"},"vehicle_type_id":"4","last_reported":1707192513,"current_range_meters":30000,"station_id":"ce4bgkh2rcd13ifvqbk0","pricing_plan_id":"free"},{"bike_id":"3ca41cfa-809e-41c3-b667-b7cf099388fd","system_id":"levelo_inurba_marseille","lat":43.302992,"lon":5.392136,"is_reserved":false,"is_disabled":false,"rental_uris":{"android":"levelo://app?vid=3ca41cfa-809e-41c3-b667-b7cf099388fd","ios":"levelo://app?vid=3ca41cfa-809e-41c3-b667-b7cf099388fd"},"vehicle_type_id":"4","last_reported":1707192513,"current_range_meters":13600,"station_id":"ce4bgkh2rcd13ifvqbk0","pricing_plan_id":"free"},{"bike_id":"46a9cdab-4c33-47f9-bea2-7afb472dab95","system_id":"levelo_inurba_marseille","lat":43.300852,"lon":5.390859,"is_reserved":false,"is_disabled":false,"rental_uris":{"android":"levelo://app?vid=46a9cdab-4c33-47f9-bea2-7afb472dab95","ios":"levelo://app?vid=46a9cdab-4c33-47f9-bea2-7afb472dab95"},"vehicle_type_id":"4","last_reported":1707192513,"current_range_meters":24800,"station_id":"ce4bh192rcd13ifvqdb0","pricing_plan_id":"free"},{"bike_id":"40a517d7-469f-4747-b27b-f6928157c1be","system_id":"levelo_inurba_marseille","lat":43.292311,"lon":5.360731,"is_reserved":false,"is_disabled":false,"rental_uris":{"android":"levelo://app?vid=40a517d7-469f-4747-b27b-f6928157c1be","ios":"levelo://app?vid=40a517d7-469f-4747-b27b-f6928157c1be"},"vehicle_type_id":"4","last_reported":1707192513,"current_range_meters":27200,"station_id":"ce4bhbh2rcd13ifvqeqg","pricing_plan_id":"free"},{"bike_id":"17b281fe-7103-43d1-a006-1264fb3e11f8","system_id":"levelo_inurba_marseille","lat":43.30085,"lon":5.390856,"is_reserved":false,"is_disabled":false,"rental_uris":{"android":"levelo://app?vid=17b281fe-7103-43d1-a006-1264fb3e11f8","ios":"levelo://app?vid=17b281fe-7103-43d1-a006-1264fb3e11f8"},"vehicle_type_id":"4","last_reported":1707192513,"current_range_meters":23600,"station_id":"ce4bh192rcd13ifvqdb0","pricing_plan_id":"free"},{"bike_id":"f0df9a88-a8da-4911-8abb-4c4ce085def4","system_id":"levelo_inurba_marseille","lat":43.292311,"lon":5.360731,"is_reserved":false,"is_disabled":false,"rental_uris":{"android":"levelo://app?vid=f0df9a88-a8da-4911-8abb-4c4ce085def4","ios":"levelo://app?vid=f0df9a88-a8da-4911-8abb-4c4ce085def4"},"vehicle_type_id":"4","last_reported":1707192513,"current_range_meters":6000,"station_id":"ce4bhbh2rcd13ifvqeqg","pricing_plan_id":"free"},{"bike_id":"36608a53-f32a-4bfa-98ec-c3eb24cc140c","system_id":"levelo_inurba_marseille","lat":43.292216,"lon":5.360494,"is_reserved":false,"is_disabled":false,"rental_uris":{"android":"levelo://app?vid=36608a53-f32a-4bfa-98ec-c3eb24cc140c","ios":"levelo://app?vid=36608a53-f32a-4bfa-98ec-c3eb24cc140c"},"vehicle_type_id":"4","last_reported":1707192513,"current_range_meters":30000,"station_id":"ce4bhbh2rcd13ifvqeqg","pricing_plan_id":"free"},{"bike_id":"fc848809-688a-4985-875d-67f0418d07fa","system_id":"levelo_inurba_marseille","lat":43.30085,"lon":5.39083,"is_reserved":false,"is_disabled":false,"rental_uris":{"android":"levelo://app?vid=fc848809-688a-4985-875d-67f0418d07fa","ios":"levelo://app?vid=fc848809-688a-4985-875d-67f0418d07fa"},"vehicle_type_id":"4","last_reported":1707192513,"current_range_meters":3600,"station_id":"ce4bh192rcd13ifvqdb0","pricing_plan_id":"free"},{"bike_id":"c35a749a-e941-4f59-a85c-08058fadfd3c","system_id":"levelo_inurba_marseille","lat":43.292311,"lon":5.360731,"is_reserved":false,"is_disabled":false,"rental_uris":{"android":"levelo://app?vid=c35a749a-e941-4f59-a85c-08058fadfd3c","ios":"levelo://app?vid=c35a749a-e941-4f59-a85c-08058fadfd3c"},"vehicle_type_id":"4","last_reported":1707192513,"current_range_meters":30400,"station_id":"ce4bhbh2rcd13ifvqeqg","pricing_plan_id":"free"},{"bike_id":"8324566f-6423-49f4-843c-99f04a68cac0","system_id":"levelo_inurba_marseille","lat":43.298764,"lon":5.388973,"is_reserved":false,"is_disabled":false,"rental_uris":{"android":"levelo://app?vid=8324566f-6423-49f4-843c-99f04a68cac0","ios":"levelo://app?vid=8324566f-6423-49f4-843c-99f04a68cac0"},"vehicle_type_id":"4","last_reported":1707192513,"current_range_meters":28000,"station_id":"ce4bh392rcd13ifvqdl0","pricing_plan_id":"free"},{"bike_id":"5ee21015-9a4d-4577-813c-9c84c8aab881","system_id":"levelo_inurba_marseille","lat":43.298764,"lon":5.388973,"is_reserved":false,"is_disabled":false,"rental_uris":{"android":"levelo://app?vid=5ee21015-9a4d-4577-813c-9c84c8aab881","ios":"levelo://app?vid=5ee21015-9a4d-4577-813c-9c84c8aab881"},"vehicle_type_id":"4","last_reported":1707192513,"current_range_meters":30400,"station_id":"ce4bh392rcd13ifvqdl0","pricing_plan_id":"free"},{"bike_id":"af155b65-7503-49a1-acd7-96ad546c2bb4","system_id":"levelo_inurba_marseille","lat":43.298764,"lon":5.388973,"is_reserved":false,"is_disabled":false,"rental_uris":{"android":"levelo://app?vid=af155b65-7503-49a1-acd7-96ad546c2bb4","ios":"levelo://app?vid=af155b65-7503-49a1-acd7-96ad546c2bb4"},"vehicle_type_id":"4","last_reported":1707192513,"current_range_meters":23200,"station_id":"ce4bh392rcd13ifvqdl0","pricing_plan_id":"free"},{"bike_id":"6e18c83c-4423-4b39-ad69-146e43212d20","system_id":"levelo_inurba_marseille","lat":43.298764,"lon":5.388973,"is_reserved":false,"is_disabled":false,"rental_uris":{"android":"levelo://app?vid=6e18c83c-4423-4b39-ad69-146e43212d20","ios":"levelo://app?vid=6e18c83c-4423-4b39-ad69-146e43212d20"},"vehicle_type_id":"4","last_reported":1707192513,"current_range_meters":26800,"station_id":"ce4bh392rcd13ifvqdl0","pricing_plan_id":"free"},{"bike_id":"e11ff7e5-c753-4092-bc27-75dd3ddba33f","system_id":"levelo_inurba_marseille","lat":43.298764,"lon":5.388973,"is_reserved":false,"is_disabled":false,"rental_uris":{"android":"levelo://app?vid=e11ff7e5-c753-4092-bc27-75dd3ddba33f","ios":"levelo://app?vid=e11ff7e5-c753-4092-bc27-75dd3ddba33f"},"vehicle_type_id":"4","last_reported":1707192513,"current_range_meters":31200,"station_id":"ce4bh392rcd13ifvqdl0","pricing_plan_id":"free"},{"bike_id":"99e50f6b-1a9c-46d7-ae1f-d3c40ccc505c","system_id":"levelo_inurba_marseille","lat":43.308892,"lon":5.396315,"is_reserved":false,"is_disabled":false,"rental_uris":{"android":"levelo://app?vid=99e50f6b-1a9c-46d7-ae1f-d3c40ccc505c","ios":"levelo://app?vid=99e50f6b-1a9c-46d7-ae1f-d3c40ccc505c"},"vehicle_type_id":"4","last_reported":1707192513,"current_range_meters":26800,"station_id":"ce4bh012rcd13ifvqcv0","pricing_plan_id":"free"},{"bike_id":"21057e19-eddf-4d4f-b9c5-0043005ac08b","system_id":"levelo_inurba_marseille","lat":43.309047,"lon":5.396551,"is_reserved":false,"is_disabled":false,"rental_uris":{"android":"levelo://app?vid=21057e19-eddf-4d4f-b9c5-0043005ac08b","ios":"levelo://app?vid=21057e19-eddf-4d4f-b9c5-0043005ac08b"},"vehicle_type_id":"4","last_reported":1707192513,"current_range_meters":4800,"station_id":"ce4bh012rcd13ifvqcv0","pricing_plan_id":"free"},{"bike_id":"2e204d3a-71bf-404f-a73c-e2c92150823f","system_id":"levelo_inurba_marseille","lat":43.291994,"lon":5.357886,"is_reserved":false,"is_disabled":false,"rental_uris":{"android":"levelo://app?vid=2e204d3a-71bf-404f-a73c-e2c92150823f","ios":"levelo://app?vid=2e204d3a-71bf-404f-a73c-e2c92150823f"},"vehicle_type_id":"4","last_reported":1707192513,"current_range_meters":30000,"station_id":"ce4bhb12rcd13ifvqel0","pricing_plan_id":"free"},{"bike_id":"7a39ef44-818b-4cad-8a92-86a8a2ab2638","system_id":"levelo_inurba_marseille","lat":43.309038,"lon":5.396546,"is_reserved":false,"is_disabled":false,"rental_uris":{"android":"levelo://app?vid=7a39ef44-818b-4cad-8a92-86a8a2ab2638","ios":"levelo://app?vid=7a39ef44-818b-4cad-8a92-86a8a2ab2638"},"vehicle_type_id":"4","last_reported":1707192513,"current_range_meters":28000,"station_id":"ce4bh012rcd13ifvqcv0","pricing_plan_id":"free"},{"bike_id":"fa46b10b-5d1a-47d1-b6ea-bf65347bab89","system_id":"levelo_inurba_marseille","lat":43.309047,"lon":5.396551,"is_reserved":false,"is_disabled":false,"rental_uris":{"android":"levelo://app?vid=fa46b10b-5d1a-47d1-b6ea-bf65347bab89","ios":"levelo://app?vid=fa46b10b-5d1a-47d1-b6ea-bf65347bab89"},"vehicle_type_id":"4","last_reported":1707192513,"current_range_meters":23600,"station_id":"ce4bh012rcd13ifvqcv0","pricing_plan_id":"free"},{"bike_id":"1ddeecfd-cfa5-49b6-9cdb-2c7f29fe1be0","system_id":"levelo_inurba_marseille","lat":43.291994,"lon":5.357886,"is_reserved":false,"is_disabled":false,"rental_uris":{"android":"levelo://app?vid=1ddeecfd-cfa5-49b6-9cdb-2c7f29fe1be0","ios":"levelo://app?vid=1ddeecfd-cfa5-49b6-9cdb-2c7f29fe1be0"},"vehicle_type_id":"4","last_reported":1707192513,"current_range_meters":12400,"station_id":"ce4bhb12rcd13ifvqel0","pricing_plan_id":"free"},{"bike_id":"3c372d67-bf65-40de-90b1-009206ef707c","system_id":"levelo_inurba_marseille","lat":43.291994,"lon":5.357886,"is_reserved":false,"is_disabled":false,"rental_uris":{"android":"levelo://app?vid=3c372d67-bf65-40de-90b1-009206ef707c","ios":"levelo://app?vid=3c372d67-bf65-40de-90b1-009206ef707c"},"vehicle_type_id":"4","last_reported":1707192513,"current_range_meters":30800,"station_id":"ce4bhb12rcd13ifvqel0","pricing_plan_id":"free"},{"bike_id":"63e641d1-ae91-4f5d-8666-76945c47a59f","system_id":"levelo_inurba_marseille","lat":43.309038,"lon":5.396546,"is_reserved":false,"is_disabled":false,"rental_uris":{"android":"levelo://app?vid=63e641d1-ae91-4f5d-8666-76945c47a59f","ios":"levelo://app?vid=63e641d1-ae91-4f5d-8666-76945c47a59f"},"vehicle_type_id":"4","last_reported":1707192513,"current_range_meters":28000,"station_id":"ce4bh012rcd13ifvqcv0","pricing_plan_id":"free"},{"bike_id":"69bc5529-7d4d-45ec-9a30-4d9356d03867","system_id":"levelo_inurba_marseille","lat":43.30885,"lon":5.39638,"is_reserved":false,"is_disabled":false,"rental_uris":{"android":"levelo://app?vid=69bc5529-7d4d-45ec-9a30-4d9356d03867","ios":"levelo://app?vid=69bc5529-7d4d-45ec-9a30-4d9356d03867"},"vehicle_type_id":"4","last_reported":1707192513,"current_range_meters":5600,"station_id":"ce4bh012rcd13ifvqcv0","pricing_plan_id":"free"},{"bike_id":"e3ce010b-9cae-4639-95a5-e8ba0c545a2e","system_id":"levelo_inurba_marseille","lat":43.31328,"lon":5.39686,"is_reserved":false,"is_disabled":false,"rental_uris":{"android":"levelo://app?vid=e3ce010b-9cae-4639-95a5-e8ba0c545a2e","ios":"levelo://app?vid=e3ce010b-9cae-4639-95a5-e8ba0c545a2e"},"vehicle_type_id":"4","last_reported":1707192513,"current_range_meters":23200,"station_id":"ce4bgvp2rcd13ifvqcu0","pricing_plan_id":"free"},{"bike_id":"b2d69ced-47ee-4cb8-87b8-d2050325ab8f","system_id":"levelo_inurba_marseille","lat":43.309038,"lon":5.396546,"is_reserved":false,"is_disabled":false,"rental_uris":{"android":"levelo://app?vid=b2d69ced-47ee-4cb8-87b8-d2050325ab8f","ios":"levelo://app?vid=b2d69ced-47ee-4cb8-87b8-d2050325ab8f"},"vehicle_type_id":"4","last_reported":1707192513,"current_range_meters":19600,"station_id":"ce4bh012rcd13ifvqcv0","pricing_plan_id":"free"},{"bike_id":"93bb70ec-9ab9-4935-b816-df1199adf729","system_id":"levelo_inurba_marseille","lat":43.309038,"lon":5.396546,"is_reserved":false,"is_disabled":false,"rental_uris":{"android":"levelo://app?vid=93bb70ec-9ab9-4935-b816-df1199adf729","ios":"levelo://app?vid=93bb70ec-9ab9-4935-b816-df1199adf729"},"vehicle_type_id":"4","last_reported":1707192513,"current_range_meters":12400,"station_id":"ce4bh012rcd13ifvqcv0","pricing_plan_id":"free"},{"bike_id":"f854cbab-ad84-46d7-8b64-e84752f72ad5","system_id":"levelo_inurba_marseille","lat":43.309047,"lon":5.396551,"is_reserved":false,"is_disabled":false,"rental_uris":{"android":"levelo://app?vid=f854cbab-ad84-46d7-8b64-e84752f72ad5","ios":"levelo://app?vid=f854cbab-ad84-46d7-8b64-e84752f72ad5"},"vehicle_type_id":"4","last_reported":1707192513,"current_range_meters":31200,"station_id":"ce4bh012rcd13ifvqcv0","pricing_plan_id":"free"},{"bike_id":"a0f80542-26d8-4903-ae17-0e124c678084","system_id":"levelo_inurba_marseille","lat":43.291994,"lon":5.357886,"is_reserved":false,"is_disabled":false,"rental_uris":{"android":"levelo://app?vid=a0f80542-26d8-4903-ae17-0e124c678084","ios":"levelo://app?vid=a0f80542-26d8-4903-ae17-0e124c678084"},"vehicle_type_id":"4","last_reported":1707192513,"current_range_meters":21600,"station_id":"ce4bhb12rcd13ifvqel0","pricing_plan_id":"free"},{"bike_id":"d5f7fbe3-b606-4835-a2c8-e85284b426d5","system_id":"levelo_inurba_marseille","lat":43.309047,"lon":5.396551,"is_reserved":false,"is_disabled":false,"rental_uris":{"android":"levelo://app?vid=d5f7fbe3-b606-4835-a2c8-e85284b426d5","ios":"levelo://app?vid=d5f7fbe3-b606-4835-a2c8-e85284b426d5"},"vehicle_type_id":"4","last_reported":1707192513,"current_range_meters":28400,"station_id":"ce4bh012rcd13ifvqcv0","pricing_plan_id":"free"},{"bike_id":"0631623c-4a9e-4247-bdad-cc5d5cc2457f","system_id":"levelo_inurba_marseille","lat":43.31332,"lon":5.39689,"is_reserved":false,"is_disabled":false,"rental_uris":{"android":"levelo://app?vid=0631623c-4a9e-4247-bdad-cc5d5cc2457f","ios":"levelo://app?vid=0631623c-4a9e-4247-bdad-cc5d5cc2457f"},"vehicle_type_id":"4","last_reported":1707192513,"current_range_meters":800,"station_id":"ce4bgvp2rcd13ifvqcu0","pricing_plan_id":"free"},{"bike_id":"24acd523-dffc-4e9d-bdb3-17e5be54ba12","system_id":"levelo_inurba_marseille","lat":43.313294,"lon":5.396893,"is_reserved":false,"is_disabled":false,"rental_uris":{"android":"levelo://app?vid=24acd523-dffc-4e9d-bdb3-17e5be54ba12","ios":"levelo://app?vid=24acd523-dffc-4e9d-bdb3-17e5be54ba12"},"vehicle_type_id":"4","last_reported":1707192513,"current_range_meters":3200,"station_id":"ce4bgvp2rcd13ifvqcu0","pricing_plan_id":"free"},{"bike_id":"764e7bf2-e37b-48ab-b09a-d8389fa7ca99","system_id":"levelo_inurba_marseille","lat":43.308837,"lon":5.396421,"is_reserved":false,"is_disabled":false,"rental_uris":{"android":"levelo://app?vid=764e7bf2-e37b-48ab-b09a-d8389fa7ca99","ios":"levelo://app?vid=764e7bf2-e37b-48ab-b09a-d8389fa7ca99"},"vehicle_type_id":"4","last_reported":1707192513,"current_range_meters":15600,"station_id":"ce4bh012rcd13ifvqcv0","pricing_plan_id":"free"},{"bike_id":"ff0b2937-db5e-461e-b998-b08c472342eb","system_id":"levelo_inurba_marseille","lat":43.313269,"lon":5.396901,"is_reserved":false,"is_disabled":false,"rental_uris":{"android":"levelo://app?vid=ff0b2937-db5e-461e-b998-b08c472342eb","ios":"levelo://app?vid=ff0b2937-db5e-461e-b998-b08c472342eb"},"vehicle_type_id":"4","last_reported":1707192513,"current_range_meters":0,"station_id":"ce4bgvp2rcd13ifvqcu0","pricing_plan_id":"free"},{"bike_id":"fe9a8a76-eac5-40c7-a1d5-daf22af3c9d2","system_id":"levelo_inurba_marseille","lat":43.313291,"lon":5.396838,"is_reserved":false,"is_disabled":false,"rental_uris":{"android":"levelo://app?vid=fe9a8a76-eac5-40c7-a1d5-daf22af3c9d2","ios":"levelo://app?vid=fe9a8a76-eac5-40c7-a1d5-daf22af3c9d2"},"vehicle_type_id":"4","last_reported":1707192513,"current_range_meters":23200,"station_id":"ce4bgvp2rcd13ifvqcu0","pricing_plan_id":"free"},{"bike_id":"95beb350-8318-4e8c-af21-8bca85a78d07","system_id":"levelo_inurba_marseille","lat":43.291911,"lon":5.35798,"is_reserved":false,"is_disabled":false,"rental_uris":{"android":"levelo://app?vid=95beb350-8318-4e8c-af21-8bca85a78d07","ios":"levelo://app?vid=95beb350-8318-4e8c-af21-8bca85a78d07"},"vehicle_type_id":"4","last_reported":1707192513,"current_range_meters":30000,"station_id":"ce4bhb12rcd13ifvqel0","pricing_plan_id":"free"},{"bike_id":"00b2ceb5-080f-4b6b-8f11-43ff114ce4a8","system_id":"levelo_inurba_marseille","lat":43.313291,"lon":5.396838,"is_reserved":false,"is_disabled":false,"rental_uris":{"android":"levelo://app?vid=00b2ceb5-080f-4b6b-8f11-43ff114ce4a8","ios":"levelo://app?vid=00b2ceb5-080f-4b6b-8f11-43ff114ce4a8"},"vehicle_type_id":"4","last_reported":1707192513,"current_range_meters":16800,"station_id":"ce4bgvp2rcd13ifvqcu0","pricing_plan_id":"free"},{"bike_id":"6a09dc80-7eb1-4ddd-8d94-06f0801c356c","system_id":"levelo_inurba_marseille","lat":43.313291,"lon":5.396838,"is_reserved":false,"is_disabled":false,"rental_uris":{"android":"levelo://app?vid=6a09dc80-7eb1-4ddd-8d94-06f0801c356c","ios":"levelo://app?vid=6a09dc80-7eb1-4ddd-8d94-06f0801c356c"},"vehicle_type_id":"4","last_reported":1707192513,"current_range_meters":20800,"station_id":"ce4bgvp2rcd13ifvqcu0","pricing_plan_id":"free"},{"bike_id":"816de7cb-1c03-4f25-b835-e25b3f194275","system_id":"levelo_inurba_marseille","lat":43.309047,"lon":5.396551,"is_reserved":false,"is_disabled":false,"rental_uris":{"android":"levelo://app?vid=816de7cb-1c03-4f25-b835-e25b3f194275","ios":"levelo://app?vid=816de7cb-1c03-4f25-b835-e25b3f194275"},"vehicle_type_id":"4","last_reported":1707192513,"current_range_meters":29200,"station_id":"ce4bh012rcd13ifvqcv0","pricing_plan_id":"free"},{"bike_id":"d50e4198-709e-4bf6-ac70-eb9c531c6d7c","system_id":"levelo_inurba_marseille","lat":43.313297,"lon":5.396921,"is_reserved":false,"is_disabled":false,"rental_uris":{"android":"levelo://app?vid=d50e4198-709e-4bf6-ac70-eb9c531c6d7c","ios":"levelo://app?vid=d50e4198-709e-4bf6-ac70-eb9c531c6d7c"},"vehicle_type_id":"4","last_reported":1707192513,"current_range_meters":2000,"station_id":"ce4bgvp2rcd13ifvqcu0","pricing_plan_id":"free"},{"bike_id":"eaef20c1-ab88-43b8-8eff-87ab0cbd9be6","system_id":"levelo_inurba_marseille","lat":43.31331,"lon":5.396927,"is_reserved":false,"is_disabled":false,"rental_uris":{"android":"levelo://app?vid=eaef20c1-ab88-43b8-8eff-87ab0cbd9be6","ios":"levelo://app?vid=eaef20c1-ab88-43b8-8eff-87ab0cbd9be6"},"vehicle_type_id":"4","last_reported":1707192513,"current_range_meters":28800,"station_id":"ce4bgvp2rcd13ifvqcu0","pricing_plan_id":"free"},{"bike_id":"7189e1db-2648-4106-8cc0-ca80993b8e39","system_id":"levelo_inurba_marseille","lat":43.313291,"lon":5.396838,"is_reserved":false,"is_disabled":false,"rental_uris":{"android":"levelo://app?vid=7189e1db-2648-4106-8cc0-ca80993b8e39","ios":"levelo://app?vid=7189e1db-2648-4106-8cc0-ca80993b8e39"},"vehicle_type_id":"4","last_reported":1707192513,"current_range_meters":11200,"station_id":"ce4bgvp2rcd13ifvqcu0","pricing_plan_id":"free"},{"bike_id":"3d78babf-b6b5-494b-8319-25c9c350bed9","system_id":"levelo_inurba_marseille","lat":43.313291,"lon":5.396838,"is_reserved":false,"is_disabled":false,"rental_uris":{"android":"levelo://app?vid=3d78babf-b6b5-494b-8319-25c9c350bed9","ios":"levelo://app?vid=3d78babf-b6b5-494b-8319-25c9c350bed9"},"vehicle_type_id":"4","last_reported":1707192513,"current_range_meters":30000,"station_id":"ce4bgvp2rcd13ifvqcu0","pricing_plan_id":"free"},{"bike_id":"d92a2dd8-c86b-4665-824d-ff216b077688","system_id":"levelo_inurba_marseille","lat":43.291994,"lon":5.357886,"is_reserved":false,"is_disabled":false,"rental_uris":{"android":"levelo://app?vid=d92a2dd8-c86b-4665-824d-ff216b077688","ios":"levelo://app?vid=d92a2dd8-c86b-4665-824d-ff216b077688"},"vehicle_type_id":"4","last_reported":1707192513,"current_range_meters":23200,"station_id":"ce4bhb12rcd13ifvqel0","pricing_plan_id":"free"},{"bike_id":"bd0334eb-789b-4ae2-b843-6a42e0c0f9a4","system_id":"levelo_inurba_marseille","lat":43.313291,"lon":5.396838,"is_reserved":false,"is_disabled":false,"rental_uris":{"android":"levelo://app?vid=bd0334eb-789b-4ae2-b843-6a42e0c0f9a4","ios":"levelo://app?vid=bd0334eb-789b-4ae2-b843-6a42e0c0f9a4"},"vehicle_type_id":"4","last_reported":1707192513,"current_range_meters":24400,"station_id":"ce4bgvp2rcd13ifvqcu0","pricing_plan_id":"free"},{"bike_id":"7447e538-93ea-496b-9139-de1f49c84e8d","system_id":"levelo_inurba_marseille","lat":43.31331,"lon":5.39695,"is_reserved":false,"is_disabled":false,"rental_uris":{"android":"levelo://app?vid=7447e538-93ea-496b-9139-de1f49c84e8d","ios":"levelo://app?vid=7447e538-93ea-496b-9139-de1f49c84e8d"},"vehicle_type_id":"4","last_reported":1707192513,"current_range_meters":28800,"station_id":"ce4bgvp2rcd13ifvqcu0","pricing_plan_id":"free"},{"bike_id":"44681513-b64f-4df8-a1df-e2842fff5354","system_id":"levelo_inurba_marseille","lat":43.31331,"lon":5.39695,"is_reserved":false,"is_disabled":false,"rental_uris":{"android":"levelo://app?vid=44681513-b64f-4df8-a1df-e2842fff5354","ios":"levelo://app?vid=44681513-b64f-4df8-a1df-e2842fff5354"},"vehicle_type_id":"4","last_reported":1707192513,"current_range_meters":0,"station_id":"ce4bgvp2rcd13ifvqcu0","pricing_plan_id":"free"},{"bike_id":"028b69b2-5e8e-4463-8efe-bc9cb2f47340","system_id":"levelo_inurba_marseille","lat":43.31332,"lon":5.39697,"is_reserved":false,"is_disabled":false,"rental_uris":{"android":"levelo://app?vid=028b69b2-5e8e-4463-8efe-bc9cb2f47340","ios":"levelo://app?vid=028b69b2-5e8e-4463-8efe-bc9cb2f47340"},"vehicle_type_id":"4","last_reported":1707192513,"current_range_meters":20800,"station_id":"ce4bgvp2rcd13ifvqcu0","pricing_plan_id":"free"},{"bike_id":"3f1adaa1-f082-4b01-b176-05fce19e59a0","system_id":"levelo_inurba_marseille","lat":43.31326,"lon":5.39698,"is_reserved":false,"is_disabled":false,"rental_uris":{"android":"levelo://app?vid=3f1adaa1-f082-4b01-b176-05fce19e59a0","ios":"levelo://app?vid=3f1adaa1-f082-4b01-b176-05fce19e59a0"},"vehicle_type_id":"4","last_reported":1707192513,"current_range_meters":21600,"station_id":"ce4bgvp2rcd13ifvqcu0","pricing_plan_id":"free"},{"bike_id":"f5feeb80-cf01-4560-a6c3-eec7ab8745d0","system_id":"levelo_inurba_marseille","lat":43.313318,"lon":5.396988,"is_reserved":false,"is_disabled":false,"rental_uris":{"android":"levelo://app?vid=f5feeb80-cf01-4560-a6c3-eec7ab8745d0","ios":"levelo://app?vid=f5feeb80-cf01-4560-a6c3-eec7ab8745d0"},"vehicle_type_id":"4","last_reported":1707192513,"current_range_meters":0,"station_id":"ce4bgvp2rcd13ifvqcu0","pricing_plan_id":"free"},{"bike_id":"a308fa7e-cfac-4908-a9b8-68902fdf16fb","system_id":"levelo_inurba_marseille","lat":43.313291,"lon":5.396838,"is_reserved":false,"is_disabled":false,"rental_uris":{"android":"levelo://app?vid=a308fa7e-cfac-4908-a9b8-68902fdf16fb","ios":"levelo://app?vid=a308fa7e-cfac-4908-a9b8-68902fdf16fb"},"vehicle_type_id":"4","last_reported":1707192513,"current_range_meters":2000,"station_id":"ce4bgvp2rcd13ifvqcu0","pricing_plan_id":"free"},{"bike_id":"2ddb9959-d35b-4c21-96c7-383dadd13f9a","system_id":"levelo_inurba_marseille","lat":43.31333,"lon":5.396993,"is_reserved":false,"is_disabled":false,"rental_uris":{"android":"levelo://app?vid=2ddb9959-d35b-4c21-96c7-383dadd13f9a","ios":"levelo://app?vid=2ddb9959-d35b-4c21-96c7-383dadd13f9a"},"vehicle_type_id":"4","last_reported":1707192513,"current_range_meters":6400,"station_id":"ce4bgvp2rcd13ifvqcu0","pricing_plan_id":"free"},{"bike_id":"aff7b945-31be-4f2c-bc30-c744e348bb62","system_id":"levelo_inurba_marseille","lat":43.313291,"lon":5.396838,"is_reserved":false,"is_disabled":false,"rental_uris":{"android":"levelo://app?vid=aff7b945-31be-4f2c-bc30-c744e348bb62","ios":"levelo://app?vid=aff7b945-31be-4f2c-bc30-c744e348bb62"},"vehicle_type_id":"4","last_reported":1707192513,"current_range_meters":31200,"station_id":"ce4bgvp2rcd13ifvqcu0","pricing_plan_id":"free"},{"bike_id":"4419a724-5255-4916-9ab6-08c2c5ae2fc3","system_id":"levelo_inurba_marseille","lat":43.31634,"lon":5.39674,"is_reserved":false,"is_disabled":false,"rental_uris":{"android":"levelo://app?vid=4419a724-5255-4916-9ab6-08c2c5ae2fc3","ios":"levelo://app?vid=4419a724-5255-4916-9ab6-08c2c5ae2fc3"},"vehicle_type_id":"4","last_reported":1707192513,"current_range_meters":21600,"station_id":"","pricing_plan_id":"free"},{"bike_id":"56f4c175-de1c-4754-8741-47df0a7d1e4d","system_id":"levelo_inurba_marseille","lat":43.302008,"lon":5.394694,"is_reserved":false,"is_disabled":false,"rental_uris":{"android":"levelo://app?vid=56f4c175-de1c-4754-8741-47df0a7d1e4d","ios":"levelo://app?vid=56f4c175-de1c-4754-8741-47df0a7d1e4d"},"vehicle_type_id":"4","last_reported":1707192513,"current_range_meters":30400,"station_id":"ce4bh0p2rcd13ifvqd70","pricing_plan_id":"free"},{"bike_id":"c43c66c8-47ae-4a02-96c5-4d507d6a780d","system_id":"levelo_inurba_marseille","lat":43.290631,"lon":5.359244,"is_reserved":false,"is_disabled":false,"rental_uris":{"android":"levelo://app?vid=c43c66c8-47ae-4a02-96c5-4d507d6a780d","ios":"levelo://app?vid=c43c66c8-47ae-4a02-96c5-4d507d6a780d"},"vehicle_type_id":"4","last_reported":1707192513,"current_range_meters":31200,"station_id":"ce4bha92rcd13ifvqeg0","pricing_plan_id":"free"},{"bike_id":"1c969712-811e-485b-8fd3-f5640d926475","system_id":"levelo_inurba_marseille","lat":43.290631,"lon":5.359244,"is_reserved":false,"is_disabled":false,"rental_uris":{"android":"levelo://app?vid=1c969712-811e-485b-8fd3-f5640d926475","ios":"levelo://app?vid=1c969712-811e-485b-8fd3-f5640d926475"},"vehicle_type_id":"4","last_reported":1707192513,"current_range_meters":30800,"station_id":"ce4bha92rcd13ifvqeg0","pricing_plan_id":"free"},{"bike_id":"040f0d35-2067-4a37-a831-a311f6e8f8e2","system_id":"levelo_inurba_marseille","lat":43.290631,"lon":5.359244,"is_reserved":false,"is_disabled":false,"rental_uris":{"android":"levelo://app?vid=040f0d35-2067-4a37-a831-a311f6e8f8e2","ios":"levelo://app?vid=040f0d35-2067-4a37-a831-a311f6e8f8e2"},"vehicle_type_id":"4","last_reported":1707192513,"current_range_meters":23600,"station_id":"ce4bha92rcd13ifvqeg0","pricing_plan_id":"free"},{"bike_id":"fa6a41b9-efb3-4f92-ba1f-cc2631ab8e69","system_id":"levelo_inurba_marseille","lat":43.290631,"lon":5.359244,"is_reserved":false,"is_disabled":false,"rental_uris":{"android":"levelo://app?vid=fa6a41b9-efb3-4f92-ba1f-cc2631ab8e69","ios":"levelo://app?vid=fa6a41b9-efb3-4f92-ba1f-cc2631ab8e69"},"vehicle_type_id":"4","last_reported":1707192513,"current_range_meters":30000,"station_id":"ce4bha92rcd13ifvqeg0","pricing_plan_id":"free"},{"bike_id":"2656a35d-b613-4040-be2c-dcfc69212bd1","system_id":"levelo_inurba_marseille","lat":43.294153,"lon":5.386305,"is_reserved":false,"is_disabled":false,"rental_uris":{"android":"levelo://app?vid=2656a35d-b613-4040-be2c-dcfc69212bd1","ios":"levelo://app?vid=2656a35d-b613-4040-be2c-dcfc69212bd1"},"vehicle_type_id":"4","last_reported":1707192513,"current_range_meters":24000,"station_id":"ce4bh2h2rcd13ifvqdh0","pricing_plan_id":"free"},{"bike_id":"fc7d8f5c-f000-44ba-a383-e454b1baee36","system_id":"levelo_inurba_marseille","lat":43.289468,"lon":5.363719,"is_reserved":false,"is_disabled":false,"rental_uris":{"android":"levelo://app?vid=fc7d8f5c-f000-44ba-a383-e454b1baee36","ios":"levelo://app?vid=fc7d8f5c-f000-44ba-a383-e454b1baee36"},"vehicle_type_id":"4","last_reported":1707192513,"current_range_meters":31200,"station_id":"ce4bhc92rcd13ifvqetg","pricing_plan_id":"free"},{"bike_id":"75a1e213-5dd1-4bda-85ab-92fb8600611a","system_id":"levelo_inurba_marseille","lat":43.289468,"lon":5.363719,"is_reserved":false,"is_disabled":false,"rental_uris":{"android":"levelo://app?vid=75a1e213-5dd1-4bda-85ab-92fb8600611a","ios":"levelo://app?vid=75a1e213-5dd1-4bda-85ab-92fb8600611a"},"vehicle_type_id":"4","last_reported":1707192513,"current_range_meters":31200,"station_id":"ce4bhc92rcd13ifvqetg","pricing_plan_id":"free"},{"bike_id":"244e72d7-3ba8-4e26-8f32-dc3b75c656e7","system_id":"levelo_inurba_marseille","lat":43.289184,"lon":5.366408,"is_reserved":false,"is_disabled":false,"rental_uris":{"android":"levelo://app?vid=244e72d7-3ba8-4e26-8f32-dc3b75c656e7","ios":"levelo://app?vid=244e72d7-3ba8-4e26-8f32-dc3b75c656e7"},"vehicle_type_id":"4","last_reported":1707192513,"current_range_meters":31200,"station_id":"ce4bhap2rcd13ifvqek0","pricing_plan_id":"free"},{"bike_id":"ac506a4f-3e73-43c9-9d29-713ff3ed32cd","system_id":"levelo_inurba_marseille","lat":43.289184,"lon":5.366408,"is_reserved":false,"is_disabled":false,"rental_uris":{"android":"levelo://app?vid=ac506a4f-3e73-43c9-9d29-713ff3ed32cd","ios":"levelo://app?vid=ac506a4f-3e73-43c9-9d29-713ff3ed32cd"},"vehicle_type_id":"4","last_reported":1707192513,"current_range_meters":20800,"station_id":"ce4bhap2rcd13ifvqek0","pricing_plan_id":"free"},{"bike_id":"e2e49b5b-5def-4ac3-a348-3d5913850d6c","system_id":"levelo_inurba_marseille","lat":43.28935,"lon":5.36636,"is_reserved":false,"is_disabled":false,"rental_uris":{"android":"levelo://app?vid=e2e49b5b-5def-4ac3-a348-3d5913850d6c","ios":"levelo://app?vid=e2e49b5b-5def-4ac3-a348-3d5913850d6c"},"vehicle_type_id":"4","last_reported":1707192513,"current_range_meters":21200,"station_id":"ce4bhap2rcd13ifvqek0","pricing_plan_id":"free"},{"bike_id":"c343f3fe-ab42-49e3-8f91-565e26a752f5","system_id":"levelo_inurba_marseille","lat":43.289468,"lon":5.363719,"is_reserved":false,"is_disabled":false,"rental_uris":{"android":"levelo://app?vid=c343f3fe-ab42-49e3-8f91-565e26a752f5","ios":"levelo://app?vid=c343f3fe-ab42-49e3-8f91-565e26a752f5"},"vehicle_type_id":"4","last_reported":1707192513,"current_range_meters":31600,"station_id":"ce4bhc92rcd13ifvqetg","pricing_plan_id":"free"},{"bike_id":"214c6f0a-8b71-4327-89b8-5e0d94d9557e","system_id":"levelo_inurba_marseille","lat":43.289468,"lon":5.363719,"is_reserved":false,"is_disabled":false,"rental_uris":{"android":"levelo://app?vid=214c6f0a-8b71-4327-89b8-5e0d94d9557e","ios":"levelo://app?vid=214c6f0a-8b71-4327-89b8-5e0d94d9557e"},"vehicle_type_id":"4","last_reported":1707192513,"current_range_meters":31600,"station_id":"ce4bhc92rcd13ifvqetg","pricing_plan_id":"free"},{"bike_id":"bda46709-d167-413b-b592-a6c1898a91a9","system_id":"levelo_inurba_marseille","lat":43.289468,"lon":5.363719,"is_reserved":false,"is_disabled":false,"rental_uris":{"android":"levelo://app?vid=bda46709-d167-413b-b592-a6c1898a91a9","ios":"levelo://app?vid=bda46709-d167-413b-b592-a6c1898a91a9"},"vehicle_type_id":"4","last_reported":1707192513,"current_range_meters":31600,"station_id":"ce4bhc92rcd13ifvqetg","pricing_plan_id":"free"},{"bike_id":"30e63aee-ebd5-4086-b7ae-6180eb491738","system_id":"levelo_inurba_marseille","lat":43.28931,"lon":5.36631,"is_reserved":false,"is_disabled":false,"rental_uris":{"android":"levelo://app?vid=30e63aee-ebd5-4086-b7ae-6180eb491738","ios":"levelo://app?vid=30e63aee-ebd5-4086-b7ae-6180eb491738"},"vehicle_type_id":"4","last_reported":1707192513,"current_range_meters":11600,"station_id":"ce4bhap2rcd13ifvqek0","pricing_plan_id":"free"},{"bike_id":"8249ce6c-6c4d-4143-a530-e120180786e5","system_id":"levelo_inurba_marseille","lat":43.289309,"lon":5.366321,"is_reserved":false,"is_disabled":false,"rental_uris":{"android":"levelo://app?vid=8249ce6c-6c4d-4143-a530-e120180786e5","ios":"levelo://app?vid=8249ce6c-6c4d-4143-a530-e120180786e5"},"vehicle_type_id":"4","last_reported":1707192513,"current_range_meters":23600,"station_id":"ce4bhap2rcd13ifvqek0","pricing_plan_id":"free"},{"bike_id":"be590bc6-b3b8-470a-a86d-9d5025c19f0f","system_id":"levelo_inurba_marseille","lat":43.289468,"lon":5.363719,"is_reserved":false,"is_disabled":false,"rental_uris":{"android":"levelo://app?vid=be590bc6-b3b8-470a-a86d-9d5025c19f0f","ios":"levelo://app?vid=be590bc6-b3b8-470a-a86d-9d5025c19f0f"},"vehicle_type_id":"4","last_reported":1707192513,"current_range_meters":12400,"station_id":"ce4bhc92rcd13ifvqetg","pricing_plan_id":"free"},{"bike_id":"89bc92f6-2212-4fe1-a9bb-618a545329cc","system_id":"levelo_inurba_marseille","lat":43.289468,"lon":5.363719,"is_reserved":false,"is_disabled":false,"rental_uris":{"android":"levelo://app?vid=89bc92f6-2212-4fe1-a9bb-618a545329cc","ios":"levelo://app?vid=89bc92f6-2212-4fe1-a9bb-618a545329cc"},"vehicle_type_id":"4","last_reported":1707192513,"current_range_meters":31200,"station_id":"ce4bhc92rcd13ifvqetg","pricing_plan_id":"free"},{"bike_id":"1ab4c7dd-fe68-4704-a4be-a304fd0fb638","system_id":"levelo_inurba_marseille","lat":43.305994,"lon":5.393687,"is_reserved":false,"is_disabled":false,"rental_uris":{"android":"levelo://app?vid=1ab4c7dd-fe68-4704-a4be-a304fd0fb638","ios":"levelo://app?vid=1ab4c7dd-fe68-4704-a4be-a304fd0fb638"},"vehicle_type_id":"4","last_reported":1707192513,"current_range_meters":5600,"station_id":"ce4bh0p2rcd13ifvqd80","pricing_plan_id":"free"},{"bike_id":"d461d8d2-2622-4af7-b997-7f42cac1e5e2","system_id":"levelo_inurba_marseille","lat":43.304317,"lon":5.397445,"is_reserved":false,"is_disabled":false,"rental_uris":{"android":"levelo://app?vid=d461d8d2-2622-4af7-b997-7f42cac1e5e2","ios":"levelo://app?vid=d461d8d2-2622-4af7-b997-7f42cac1e5e2"},"vehicle_type_id":"4","last_reported":1707192513,"current_range_meters":27600,"station_id":"ce4bh092rcd13ifvqd20","pricing_plan_id":"free"},{"bike_id":"4184b14e-8b3e-406d-a783-b476af9c7d3b","system_id":"levelo_inurba_marseille","lat":43.290125,"lon":5.35608,"is_reserved":false,"is_disabled":false,"rental_uris":{"android":"levelo://app?vid=4184b14e-8b3e-406d-a783-b476af9c7d3b","ios":"levelo://app?vid=4184b14e-8b3e-406d-a783-b476af9c7d3b"},"vehicle_type_id":"4","last_reported":1707192513,"current_range_meters":30400,"station_id":"ce4bhb92rcd13ifvqen0","pricing_plan_id":"free"},{"bike_id":"51600653-b20d-40fb-949d-d2317248c790","system_id":"levelo_inurba_marseille","lat":43.29008,"lon":5.35609,"is_reserved":false,"is_disabled":false,"rental_uris":{"android":"levelo://app?vid=51600653-b20d-40fb-949d-d2317248c790","ios":"levelo://app?vid=51600653-b20d-40fb-949d-d2317248c790"},"vehicle_type_id":"4","last_reported":1707192513,"current_range_meters":0,"station_id":"ce4bhb92rcd13ifvqen0","pricing_plan_id":"free"},{"bike_id":"1c86cad6-c7e1-427d-96d7-3ed897233140","system_id":"levelo_inurba_marseille","lat":43.29007,"lon":5.3561,"is_reserved":false,"is_disabled":false,"rental_uris":{"android":"levelo://app?vid=1c86cad6-c7e1-427d-96d7-3ed897233140","ios":"levelo://app?vid=1c86cad6-c7e1-427d-96d7-3ed897233140"},"vehicle_type_id":"4","last_reported":1707192513,"current_range_meters":0,"station_id":"ce4bhb92rcd13ifvqen0","pricing_plan_id":"free"},{"bike_id":"8f321af2-6d50-497e-953b-c873e7918629","system_id":"levelo_inurba_marseille","lat":43.290068,"lon":5.356048,"is_reserved":false,"is_disabled":false,"rental_uris":{"android":"levelo://app?vid=8f321af2-6d50-497e-953b-c873e7918629","ios":"levelo://app?vid=8f321af2-6d50-497e-953b-c873e7918629"},"vehicle_type_id":"4","last_reported":1707192513,"current_range_meters":14000,"station_id":"ce4bhb92rcd13ifvqen0","pricing_plan_id":"free"},{"bike_id":"9a24772d-e58c-422f-b3e0-fa1edfa36718","system_id":"levelo_inurba_marseille","lat":43.290049,"lon":5.356119,"is_reserved":false,"is_disabled":false,"rental_uris":{"android":"levelo://app?vid=9a24772d-e58c-422f-b3e0-fa1edfa36718","ios":"levelo://app?vid=9a24772d-e58c-422f-b3e0-fa1edfa36718"},"vehicle_type_id":"4","last_reported":1707192513,"current_range_meters":31200,"station_id":"ce4bhb92rcd13ifvqen0","pricing_plan_id":"free"},{"bike_id":"1e2efbf7-458f-4304-ada7-27d8614860c5","system_id":"levelo_inurba_marseille","lat":43.290104,"lon":5.356111,"is_reserved":false,"is_disabled":false,"rental_uris":{"android":"levelo://app?vid=1e2efbf7-458f-4304-ada7-27d8614860c5","ios":"levelo://app?vid=1e2efbf7-458f-4304-ada7-27d8614860c5"},"vehicle_type_id":"4","last_reported":1707192513,"current_range_meters":24800,"station_id":"ce4bhb92rcd13ifvqen0","pricing_plan_id":"free"},{"bike_id":"77355052-aa68-4e46-a0c6-b1d0b8d39007","system_id":"levelo_inurba_marseille","lat":43.29007,"lon":5.35601,"is_reserved":false,"is_disabled":false,"rental_uris":{"android":"levelo://app?vid=77355052-aa68-4e46-a0c6-b1d0b8d39007","ios":"levelo://app?vid=77355052-aa68-4e46-a0c6-b1d0b8d39007"},"vehicle_type_id":"4","last_reported":1707192513,"current_range_meters":30800,"station_id":"ce4bhb92rcd13ifvqen0","pricing_plan_id":"free"},{"bike_id":"5c5bae33-7922-4f59-b3bd-dc80363976e6","system_id":"levelo_inurba_marseille","lat":43.290103,"lon":5.356114,"is_reserved":false,"is_disabled":false,"rental_uris":{"android":"levelo://app?vid=5c5bae33-7922-4f59-b3bd-dc80363976e6","ios":"levelo://app?vid=5c5bae33-7922-4f59-b3bd-dc80363976e6"},"vehicle_type_id":"4","last_reported":1707192513,"current_range_meters":31200,"station_id":"ce4bhb92rcd13ifvqen0","pricing_plan_id":"free"},{"bike_id":"9f393618-d632-4dad-a0ab-95b4c95ab94f","system_id":"levelo_inurba_marseille","lat":43.297869,"lon":5.393375,"is_reserved":false,"is_disabled":false,"rental_uris":{"android":"levelo://app?vid=9f393618-d632-4dad-a0ab-95b4c95ab94f","ios":"levelo://app?vid=9f393618-d632-4dad-a0ab-95b4c95ab94f"},"vehicle_type_id":"4","last_reported":1707192513,"current_range_meters":26400,"station_id":"chh1huq6cuj3fo74tm60","pricing_plan_id":"free"},{"bike_id":"3fe6d1f0-cf87-410d-bcbb-b9715ccec449","system_id":"levelo_inurba_marseille","lat":43.297815,"lon":5.393548,"is_reserved":false,"is_disabled":false,"rental_uris":{"android":"levelo://app?vid=3fe6d1f0-cf87-410d-bcbb-b9715ccec449","ios":"levelo://app?vid=3fe6d1f0-cf87-410d-bcbb-b9715ccec449"},"vehicle_type_id":"4","last_reported":1707192513,"current_range_meters":21600,"station_id":"chh1huq6cuj3fo74tm60","pricing_plan_id":"free"},{"bike_id":"0c3b0626-61e4-46ce-94bd-769de3a139e9","system_id":"levelo_inurba_marseille","lat":43.297873,"lon":5.393418,"is_reserved":false,"is_disabled":false,"rental_uris":{"android":"levelo://app?vid=0c3b0626-61e4-46ce-94bd-769de3a139e9","ios":"levelo://app?vid=0c3b0626-61e4-46ce-94bd-769de3a139e9"},"vehicle_type_id":"4","last_reported":1707192513,"current_range_meters":21200,"station_id":"chh1huq6cuj3fo74tm60","pricing_plan_id":"free"},{"bike_id":"94bb7d01-01a2-4190-8e02-6cf5c5556a05","system_id":"levelo_inurba_marseille","lat":43.297815,"lon":5.393548,"is_reserved":false,"is_disabled":false,"rental_uris":{"android":"levelo://app?vid=94bb7d01-01a2-4190-8e02-6cf5c5556a05","ios":"levelo://app?vid=94bb7d01-01a2-4190-8e02-6cf5c5556a05"},"vehicle_type_id":"4","last_reported":1707192513,"current_range_meters":31200,"station_id":"chh1huq6cuj3fo74tm60","pricing_plan_id":"free"},{"bike_id":"383fecf4-c283-4ff2-a945-f97c814fb9e5","system_id":"levelo_inurba_marseille","lat":43.297815,"lon":5.393548,"is_reserved":false,"is_disabled":false,"rental_uris":{"android":"levelo://app?vid=383fecf4-c283-4ff2-a945-f97c814fb9e5","ios":"levelo://app?vid=383fecf4-c283-4ff2-a945-f97c814fb9e5"},"vehicle_type_id":"4","last_reported":1707192513,"current_range_meters":17200,"station_id":"chh1huq6cuj3fo74tm60","pricing_plan_id":"free"},{"bike_id":"b7a7d7af-765d-4977-bfad-5a7575380362","system_id":"levelo_inurba_marseille","lat":43.297815,"lon":5.393548,"is_reserved":false,"is_disabled":false,"rental_uris":{"android":"levelo://app?vid=b7a7d7af-765d-4977-bfad-5a7575380362","ios":"levelo://app?vid=b7a7d7af-765d-4977-bfad-5a7575380362"},"vehicle_type_id":"4","last_reported":1707192513,"current_range_meters":30400,"station_id":"chh1huq6cuj3fo74tm60","pricing_plan_id":"free"},{"bike_id":"e3cdd8db-1a8c-42b0-8a1d-74e27724a81e","system_id":"levelo_inurba_marseille","lat":43.330442,"lon":5.389148,"is_reserved":false,"is_disabled":false,"rental_uris":{"android":"levelo://app?vid=e3cdd8db-1a8c-42b0-8a1d-74e27724a81e","ios":"levelo://app?vid=e3cdd8db-1a8c-42b0-8a1d-74e27724a81e"},"vehicle_type_id":"4","last_reported":1707192513,"current_range_meters":30800,"station_id":"ce4bhr92rcd13ifvqhrg","pricing_plan_id":"free"},{"bike_id":"89f49965-87aa-4437-a02e-3d53c2fe3382","system_id":"levelo_inurba_marseille","lat":43.330442,"lon":5.389148,"is_reserved":false,"is_disabled":false,"rental_uris":{"android":"levelo://app?vid=89f49965-87aa-4437-a02e-3d53c2fe3382","ios":"levelo://app?vid=89f49965-87aa-4437-a02e-3d53c2fe3382"},"vehicle_type_id":"4","last_reported":1707192513,"current_range_meters":24400,"station_id":"ce4bhr92rcd13ifvqhrg","pricing_plan_id":"free"},{"bike_id":"a8d88db6-f9dd-46e5-a730-a629bcf2a310","system_id":"levelo_inurba_marseille","lat":43.330442,"lon":5.389148,"is_reserved":false,"is_disabled":false,"rental_uris":{"android":"levelo://app?vid=a8d88db6-f9dd-46e5-a730-a629bcf2a310","ios":"levelo://app?vid=a8d88db6-f9dd-46e5-a730-a629bcf2a310"},"vehicle_type_id":"4","last_reported":1707192513,"current_range_meters":29200,"station_id":"ce4bhr92rcd13ifvqhrg","pricing_plan_id":"free"},{"bike_id":"9da1f043-1917-476f-81e4-b98b347dfff6","system_id":"levelo_inurba_marseille","lat":43.330442,"lon":5.389148,"is_reserved":false,"is_disabled":false,"rental_uris":{"android":"levelo://app?vid=9da1f043-1917-476f-81e4-b98b347dfff6","ios":"levelo://app?vid=9da1f043-1917-476f-81e4-b98b347dfff6"},"vehicle_type_id":"4","last_reported":1707192513,"current_range_meters":24800,"station_id":"ce4bhr92rcd13ifvqhrg","pricing_plan_id":"free"},{"bike_id":"baa26e4d-1d69-4d44-9c43-7fa7bc9a94af","system_id":"levelo_inurba_marseille","lat":43.330442,"lon":5.389148,"is_reserved":false,"is_disabled":false,"rental_uris":{"android":"levelo://app?vid=baa26e4d-1d69-4d44-9c43-7fa7bc9a94af","ios":"levelo://app?vid=baa26e4d-1d69-4d44-9c43-7fa7bc9a94af"},"vehicle_type_id":"4","last_reported":1707192513,"current_range_meters":23600,"station_id":"ce4bhr92rcd13ifvqhrg","pricing_plan_id":"free"},{"bike_id":"d665d324-ff95-4f94-8553-a4fac9077957","system_id":"levelo_inurba_marseille","lat":43.330442,"lon":5.389148,"is_reserved":false,"is_disabled":false,"rental_uris":{"android":"levelo://app?vid=d665d324-ff95-4f94-8553-a4fac9077957","ios":"levelo://app?vid=d665d324-ff95-4f94-8553-a4fac9077957"},"vehicle_type_id":"4","last_reported":1707192513,"current_range_meters":29200,"station_id":"ce4bhr92rcd13ifvqhrg","pricing_plan_id":"free"},{"bike_id":"b5772277-1e5a-490d-974c-370957e07eed","system_id":"levelo_inurba_marseille","lat":43.330442,"lon":5.389148,"is_reserved":false,"is_disabled":false,"rental_uris":{"android":"levelo://app?vid=b5772277-1e5a-490d-974c-370957e07eed","ios":"levelo://app?vid=b5772277-1e5a-490d-974c-370957e07eed"},"vehicle_type_id":"4","last_reported":1707192513,"current_range_meters":4800,"station_id":"ce4bhr92rcd13ifvqhrg","pricing_plan_id":"free"},{"bike_id":"ba7895df-fdf0-43d4-b40a-e7e64d29137d","system_id":"levelo_inurba_marseille","lat":43.330442,"lon":5.389148,"is_reserved":false,"is_disabled":false,"rental_uris":{"android":"levelo://app?vid=ba7895df-fdf0-43d4-b40a-e7e64d29137d","ios":"levelo://app?vid=ba7895df-fdf0-43d4-b40a-e7e64d29137d"},"vehicle_type_id":"4","last_reported":1707192513,"current_range_meters":29600,"station_id":"ce4bhr92rcd13ifvqhrg","pricing_plan_id":"free"},{"bike_id":"32c118b0-c898-48d6-ae3e-91767397bede","system_id":"levelo_inurba_marseille","lat":43.330273,"lon":5.390426,"is_reserved":false,"is_disabled":false,"rental_uris":{"android":"levelo://app?vid=32c118b0-c898-48d6-ae3e-91767397bede","ios":"levelo://app?vid=32c118b0-c898-48d6-ae3e-91767397bede"},"vehicle_type_id":"4","last_reported":1707192513,"current_range_meters":2400,"station_id":"ce4bhr92rcd13ifvqhrg","pricing_plan_id":"free"},{"bike_id":"02654401-c1b2-40a6-a09a-3ff882525df7","system_id":"levelo_inurba_marseille","lat":43.33027,"lon":5.39047,"is_reserved":false,"is_disabled":false,"rental_uris":{"android":"levelo://app?vid=02654401-c1b2-40a6-a09a-3ff882525df7","ios":"levelo://app?vid=02654401-c1b2-40a6-a09a-3ff882525df7"},"vehicle_type_id":"4","last_reported":1707192513,"current_range_meters":22000,"station_id":"ce4bhr92rcd13ifvqhrg","pricing_plan_id":"free"},{"bike_id":"4c2e16fb-f047-45eb-a52d-6325f50c6b48","system_id":"levelo_inurba_marseille","lat":43.288647,"lon":5.358461,"is_reserved":false,"is_disabled":false,"rental_uris":{"android":"levelo://app?vid=4c2e16fb-f047-45eb-a52d-6325f50c6b48","ios":"levelo://app?vid=4c2e16fb-f047-45eb-a52d-6325f50c6b48"},"vehicle_type_id":"4","last_reported":1707192513,"current_range_meters":20400,"station_id":"ce4bhb12rcd13ifvqem0","pricing_plan_id":"free"},