{"last_updated":1739628392,"ttl":60,"version":"2.2","data":{"bikes":[{"bike_id":"36afe8ad-90c7-46c3-931b-44b8cd5ad9d4","system_id":"levelo_inurba_marseille","lat":43.2926,"lon":5.38438,"is_reserved":false,"is_disabled":true,"rental_uris":{"android":"levelo://app?vid=36afe8ad-90c7-46c3-931b-44b8cd5ad9d4","ios":"levelo://app?vid=36afe8ad-90c7-46c3-931b-44b8cd5ad9d4"},"vehicle_type_id":"4","last_reported":1739628392,"current_range_meters":10800,"station_id":"ce4bh692rcd13ifvqea0","pricing_plan_id":"cebpf4jnsgd1na2vs0mg"},{"bike_id":"314ecb77-8b90-4fdb-aaf3-bbba8b437b8a","system_id":"levelo_inurba_marseille","lat":43.2904,"lon":5.39955,"is_reserved":false,"is_disabled":false,"rental_uris":{"android":"levelo://app?vid=314ecb77-8b90-4fdb-aaf3-bbba8b437b8a","ios":"levelo://app?vid=314ecb77-8b90-4fdb-aaf3-bbba8b437b8a"},"vehicle_type_id":"4","last_reported":1739628392,"current_range_meters":9600,"station_id":"ce4bh392rcd13ifvqdm0","pricing_plan_id":"cebpf4jnsgd1na2vs0mg"},{"bike_id":"8b6abb34-00fa-4d4c-96d9-ab8d9072a112","system_id":"levelo_inurba_marseille","lat":43.28611,"lon":5.35102,"is_reserved":false,"is_disabled":false,"rental_uris":{"android":"levelo://app?vid=8b6abb34-00fa-4d4c-96d9-ab8d9072a112","ios":"levelo://app?vid=8b6abb34-00fa-4d4c-96d9-ab8d9072a112"},"vehicle_type_id":"4","last_reported":1739628392,"current_range_meters":37600,"station_id":"ce4bhch2rcd13ifvqeug","pricing_plan_id":"cebpf4jnsgd1na2vs0mg"},{"bike_id":"ebf8377f-c311-4825-9b97-c6280c2187cb","system_id":"levelo_inurba_marseille","lat":43.25868,"lon":5.39894,"is_reserved":false,"is_disabled":false,"rental_uris":{"android":"levelo://app?vid=ebf8377f-c311-4825-9b97-c6280c2187cb","ios":"levelo://app?vid=ebf8377f-c311-4825-9b97-c6280c2187cb"},"vehicle_type_id":"4","last_reported":1739628392,"current_range_meters":38800,"station_id":"ce4bhl92rcd13ifvqghg","pricing_plan_id":"cebpf4jnsgd1na2vs0mg"},{"bike_id":"aeeb603c-9e21-471f-a3b4-471a46d5c228","system_id":"levelo_inurba_marseille","lat":43.24163,"lon":5.36399,"is_reserved":false,"is_disabled":false,"rental_uris":{"android":"levelo://app?vid=aeeb603c-9e21-471f-a3b4-471a46d5c228","ios":"levelo://app?vid=aeeb603c-9e21-471f-a3b4-471a46d5c228"},"vehicle_type_id":"4","last_reported":1739628392,"current_range_meters":16800,"station_id":"cpo36qri1sfpv3e86is0","pricing_plan_id":"cebpf4jnsgd1na2vs0mg"},{"bike_id":"1d4165b9-e8af-42e7-8e88-54a0f84b4f26","system_id":"levelo_inurba_marseille","lat":43.23241,"lon":5.40008,"is_reserved":false,"is_disabled":false,"rental_uris":{"android":"levelo://app?vid=1d4165b9-e8af-42e7-8e88-54a0f84b4f26","ios":"levelo://app?vid=1d4165b9-e8af-42e7-8e88-54a0f84b4f26"},"vehicle_type_id":"4","last_reported":1739628392,"current_range_meters":25200,"station_id":"","pricing_plan_id":"cebpf4jnsgd1na2vs0mg"},{"bike_id":"c1e76274-801b-4893-b793-e635178d8b86","system_id":"levelo_inurba_marseille","lat":43.23961,"lon":5.36631,"is_reserved":false,"is_disabled":false,"rental_uris":{"android":"levelo://app?vid=c1e76274-801b-4893-b793-e635178d8b86","ios":"levelo://app?vid=c1e76274-801b-4893-b793-e635178d8b86"},"vehicle_type_id":"4","last_reported":1739628392,"current_range_meters":38000,"station_id":"ce4bhi12rcd13ifvqfp0","pricing_plan_id":"cebpf4jnsgd1na2vs0mg"},{"bike_id":"484527d8-0820-40f5-8186-1686fa6584d4","system_id":"levelo_inurba_marseille","lat":43.28259,"lon":5.35076,"is_reserved":false,"is_disabled":false,"rental_uris":{"android":"levelo://app?vid=484527d8-0820-40f5-8186-1686fa6584d4","ios":"levelo://app?vid=484527d8-0820-40f5-8186-1686fa6584d4"},"vehicle_type_id":"4","last_reported":1739628392,"current_range_meters":38800,"station_id":"ce4bhbp2rcd13ifvqerg","pricing_plan_id":"cebpf4jnsgd1na2vs0mg"},{"bike_id":"c74f8124-73dc-4bd8-a98e-9fa42c510bc4","system_id":"levelo_inurba_marseille","lat":43.23175,"lon":5.39988,"is_reserved":false,"is_disabled":false,"rental_uris":{"android":"levelo://app?vid=c74f8124-73dc-4bd8-a98e-9fa42c510bc4","ios":"levelo://app?vid=c74f8124-73dc-4bd8-a98e-9fa42c510bc4"},"vehicle_type_id":"4","last_reported":1739628392,"current_range_meters":25200,"station_id":"ce4bhn12rcd13ifvqgqg","pricing_plan_id":"cebpf4jnsgd1na2vs0mg"},{"bike_id":"eace11fc-366d-49db-ab9f-2f957d528477","system_id":"levelo_inurba_marseille","lat":43.25503,"lon":5.37656,"is_reserved":false,"is_disabled":false,"rental_uris":{"android":"levelo://app?vid=eace11fc-366d-49db-ab9f-2f957d528477","ios":"levelo://app?vid=eace11fc-366d-49db-ab9f-2f957d528477"},"vehicle_type_id":"4","last_reported":1739628392,"current_range_meters":38800,"station_id":"ce4bhh12rcd13ifvqff0","pricing_plan_id":"cebpf4jnsgd1na2vs0mg"},{"bike_id":"c7322498-81a4-46c8-b4c9-ec796bfac1e6","system_id":"levelo_inurba_marseille","lat":43.24171,"lon":5.36395,"is_reserved":false,"is_disabled":false,"rental_uris":{"android":"levelo://app?vid=c7322498-81a4-46c8-b4c9-ec796bfac1e6","ios":"levelo://app?vid=c7322498-81a4-46c8-b4c9-ec796bfac1e6"},"vehicle_type_id":"4","last_reported":1739628392,"current_range_meters":38800,"station_id":"cpo36qri1sfpv3e86is0","pricing_plan_id":"cebpf4jnsgd1na2vs0mg"},{"bike_id":"5d2484e8-d08f-4bba-ae77-36cb31e97e9b","system_id":"levelo_inurba_marseille","lat":43.29548,"lon":5.42289,"is_reserved":false,"is_disabled":false,"rental_uris":{"android":"levelo://app?vid=5d2484e8-d08f-4bba-ae77-36cb31e97e9b","ios":"levelo://app?vid=5d2484e8-d08f-4bba-ae77-36cb31e97e9b"},"vehicle_type_id":"4","last_reported":1739628392,"current_range_meters":38800,"station_id":"ce4bhph2rcd13ifvqhdg","pricing_plan_id":"cebpf4jnsgd1na2vs0mg"},{"bike_id":"6b42f4f1-2360-420a-81a5-fa8f868ac30d","system_id":"levelo_inurba_marseille","lat":43.271859,"lon":5.390196,"is_reserved":false,"is_disabled":false,"rental_uris":{"android":"levelo://app?vid=6b42f4f1-2360-420a-81a5-fa8f868ac30d","ios":"levelo://app?vid=6b42f4f1-2360-420a-81a5-fa8f868ac30d"},"vehicle_type_id":"4","last_reported":1739628392,"current_range_meters":32800,"station_id":"","pricing_plan_id":"cebpf4jnsgd1na2vs0mg"},{"bike_id":"b34c6303-752a-46a1-93ad-ddbc991e20b6","system_id":"levelo_inurba_marseille","lat":43.230639,"lon":5.354938,"is_reserved":false,"is_disabled":false,"rental_uris":{"android":"levelo://app?vid=b34c6303-752a-46a1-93ad-ddbc991e20b6","ios":"levelo://app?vid=b34c6303-752a-46a1-93ad-ddbc991e20b6"},"vehicle_type_id":"4","last_reported":1739628392,"current_range_meters":37600,"station_id":"cpo3342slgdg3j2ifvpg","pricing_plan_id":"cebpf4jnsgd1na2vs0mg"},{"bike_id":"c029ce72-637d-4640-b3f3-cf627d613ca5","system_id":"levelo_inurba_marseille","lat":43.28734,"lon":5.39935,"is_reserved":false,"is_disabled":false,"rental_uris":{"android":"levelo://app?vid=c029ce72-637d-4640-b3f3-cf627d613ca5","ios":"levelo://app?vid=c029ce72-637d-4640-b3f3-cf627d613ca5"},"vehicle_type_id":"4","last_reported":1739628392,"current_range_meters":16800,"station_id":"ce4bho92rcd13ifvqh3g","pricing_plan_id":"cebpf4jnsgd1na2vs0mg"},{"bike_id":"f8aa89b2-ace3-4bd1-9c11-e05ce2b5eaf7","system_id":"levelo_inurba_marseille","lat":43.28457,"lon":5.35885,"is_reserved":false,"is_disabled":false,"rental_uris":{"android":"levelo://app?vid=f8aa89b2-ace3-4bd1-9c11-e05ce2b5eaf7","ios":"levelo://app?vid=f8aa89b2-ace3-4bd1-9c11-e05ce2b5eaf7"},"vehicle_type_id":"4","last_reported":1739628392,"current_range_meters":30000,"station_id":"ce4bhah2rcd13ifvqei0","pricing_plan_id":"cebpf4jnsgd1na2vs0mg"},{"bike_id":"1d966f65-a449-4943-aedb-1efd519bfa12","system_id":"levelo_inurba_marseille","lat":43.32118,"lon":5.36761,"is_reserved":false,"is_disabled":false,"rental_uris":{"android":"levelo://app?vid=1d966f65-a449-4943-aedb-1efd519bfa12","ios":"levelo://app?vid=1d966f65-a449-4943-aedb-1efd519bfa12"},"vehicle_type_id":"4","last_reported":1739628392,"current_range_meters":8400,"station_id":"ce4bhrh2rcd13ifvqhug","pricing_plan_id":"cebpf4jnsgd1na2vs0mg"},{"bike_id":"63d1a1a6-4ec1-406e-9020-1477db8b9d26","system_id":"levelo_inurba_marseille","lat":43.26059,"lon":5.39393,"is_reserved":false,"is_disabled":false,"rental_uris":{"android":"levelo://app?vid=63d1a1a6-4ec1-406e-9020-1477db8b9d26","ios":"levelo://app?vid=63d1a1a6-4ec1-406e-9020-1477db8b9d26"},"vehicle_type_id":"4","last_reported":1739628392,"current_range_meters":16400,"station_id":"ce4bhh92rcd13ifvqfj0","pricing_plan_id":"cebpf4jnsgd1na2vs0mg"},{"bike_id":"414d7126-b305-4fbe-ac4e-92cdec0afe83","system_id":"levelo_inurba_marseille","lat":43.29278,"lon":5.36844,"is_reserved":false,"is_disabled":false,"rental_uris":{"android":"levelo://app?vid=414d7126-b305-4fbe-ac4e-92cdec0afe83","ios":"levelo://app?vid=414d7126-b305-4fbe-ac4e-92cdec0afe83"},"vehicle_type_id":"4","last_reported":1739628392,"current_range_meters":36400,"station_id":"ce4bhbp2rcd13ifvqesg","pricing_plan_id":"cebpf4jnsgd1na2vs0mg"},{"bike_id":"27feb435-c99b-4f80-867b-2866d50d7db7","system_id":"levelo_inurba_marseille","lat":43.23069,"lon":5.35487,"is_reserved":false,"is_disabled":false,"rental_uris":{"android":"levelo://app?vid=27feb435-c99b-4f80-867b-2866d50d7db7","ios":"levelo://app?vid=27feb435-c99b-4f80-867b-2866d50d7db7"},"vehicle_type_id":"4","last_reported":1739628392,"current_range_meters":20000,"station_id":"cpo3342slgdg3j2ifvpg","pricing_plan_id":"cebpf4jnsgd1na2vs0mg"},{"bike_id":"5ac1b3e9-6624-4bab-a598-45ab544a1b2f","system_id":"levelo_inurba_marseille","lat":43.2667,"lon":5.38251,"is_reserved":false,"is_disabled":false,"rental_uris":{"android":"levelo://app?vid=5ac1b3e9-6624-4bab-a598-45ab544a1b2f","ios":"levelo://app?vid=5ac1b3e9-6624-4bab-a598-45ab544a1b2f"},"vehicle_type_id":"4","last_reported":1739628392,"current_range_meters":8400,"station_id":"ce4bhg92rcd13ifvqf90","pricing_plan_id":"cebpf4jnsgd1na2vs0mg"},{"bike_id":"1f0657bb-7196-41de-84fc-c834bbf90b28","system_id":"levelo_inurba_marseille","lat":43.28076,"lon":5.39647,"is_reserved":false,"is_disabled":true,"rental_uris":{"android":"levelo://app?vid=1f0657bb-7196-41de-84fc-c834bbf90b28","ios":"levelo://app?vid=1f0657bb-7196-41de-84fc-c834bbf90b28"},"vehicle_type_id":"4","last_reported":1739628392,"current_range_meters":36400,"station_id":"ce4bho12rcd13ifvqh2g","pricing_plan_id":"cebpf4jnsgd1na2vs0mg"},{"bike_id":"4085957e-a34f-48ec-8023-d0e7a9e56b71","system_id":"levelo_inurba_marseille","lat":43.23062,"lon":5.35489,"is_reserved":false,"is_disabled":false,"rental_uris":{"android":"levelo://app?vid=4085957e-a34f-48ec-8023-d0e7a9e56b71","ios":"levelo://app?vid=4085957e-a34f-48ec-8023-d0e7a9e56b71"},"vehicle_type_id":"4","last_reported":1739628392,"current_range_meters":38800,"station_id":"cpo3342slgdg3j2ifvpg","pricing_plan_id":"cebpf4jnsgd1na2vs0mg"},{"bike_id":"1eaaa93a-5c29-40ae-a6a7-dc10bd39dcd0","system_id":"levelo_inurba_marseille","lat":43.2757,"lon":5.3843,"is_reserved":false,"is_disabled":false,"rental_uris":{"android":"levelo://app?vid=1eaaa93a-5c29-40ae-a6a7-dc10bd39dcd0","ios":"levelo://app?vid=1eaaa93a-5c29-40ae-a6a7-dc10bd39dcd0"},"vehicle_type_id":"4","last_reported":1739628392,"current_range_meters":39200,"station_id":"ce4bhh92rcd13ifvqfi0","pricing_plan_id":"cebpf4jnsgd1na2vs0mg"},{"bike_id":"eb76b568-2c76-47ff-9c1c-4d8d8150add3","system_id":"levelo_inurba_marseille","lat":43.269388,"lon":5.402512,"is_reserved":false,"is_disabled":false,"rental_uris":{"android":"levelo://app?vid=eb76b568-2c76-47ff-9c1c-4d8d8150add3","ios":"levelo://app?vid=eb76b568-2c76-47ff-9c1c-4d8d8150add3"},"vehicle_type_id":"4","last_reported":1739628392,"current_range_meters":32800,"station_id":"cjm6bp8fraef2m0cb0m0","pricing_plan_id":"cebpf4jnsgd1na2vs0mg"},{"bike_id":"a422c461-92a6-4632-9acb-761556b4e936","system_id":"levelo_inurba_marseille","lat":43.27057,"lon":5.40271,"is_reserved":false,"is_disabled":false,"rental_uris":{"android":"levelo://app?vid=a422c461-92a6-4632-9acb-761556b4e936","ios":"levelo://app?vid=a422c461-92a6-4632-9acb-761556b4e936"},"vehicle_type_id":"4","last_reported":1739628392,"current_range_meters":10800,"station_id":"ce4bhk92rcd13ifvqgc0","pricing_plan_id":"cebpf4jnsgd1na2vs0mg"},{"bike_id":"8096e584-69f5-401f-9362-7fa607037a43","system_id":"levelo_inurba_marseille","lat":43.28418,"lon":5.37496,"is_reserved":false,"is_disabled":false,"rental_uris":{"android":"levelo://app?vid=8096e584-69f5-401f-9362-7fa607037a43","ios":"levelo://app?vid=8096e584-69f5-401f-9362-7fa607037a43"},"vehicle_type_id":"4","last_reported":1739628392,"current_range_meters":4800,"station_id":"ce4bh412rcd13ifvqds0","pricing_plan_id":"cebpf4jnsgd1na2vs0mg"},{"bike_id":"ae5fef56-5863-4d4b-a1a7-4181deb667e6","system_id":"levelo_inurba_marseille","lat":43.26422,"lon":5.37352,"is_reserved":false,"is_disabled":false,"rental_uris":{"android":"levelo://app?vid=ae5fef56-5863-4d4b-a1a7-4181deb667e6","ios":"levelo://app?vid=ae5fef56-5863-4d4b-a1a7-4181deb667e6"},"vehicle_type_id":"4","last_reported":1739628392,"current_range_meters":8000,"station_id":"","pricing_plan_id":"cebpf4jnsgd1na2vs0mg"},{"bike_id":"2e4b5732-e038-4613-a767-0f7b20df89d5","system_id":"levelo_inurba_marseille","lat":43.27213,"lon":5.3919,"is_reserved":false,"is_disabled":false,"rental_uris":{"android":"levelo://app?vid=2e4b5732-e038-4613-a767-0f7b20df89d5","ios":"levelo://app?vid=2e4b5732-e038-4613-a767-0f7b20df89d5"},"vehicle_type_id":"4","last_reported":1739628392,"current_range_meters":38800,"station_id":"ce4bhhp2rcd13ifvqfm0","pricing_plan_id":"cebpf4jnsgd1na2vs0mg"},{"bike_id":"75047715-037e-4095-923a-6135602a1527","system_id":"levelo_inurba_marseille","lat":43.28417,"lon":5.34978,"is_reserved":false,"is_disabled":false,"rental_uris":{"android":"levelo://app?vid=75047715-037e-4095-923a-6135602a1527","ios":"levelo://app?vid=75047715-037e-4095-923a-6135602a1527"},"vehicle_type_id":"4","last_reported":1739628392,"current_range_meters":25600,"station_id":"ce4bhbh2rcd13ifvqepg","pricing_plan_id":"cebpf4jnsgd1na2vs0mg"},{"bike_id":"4ba228e8-dcc2-47b2-be40-f5be097690e8","system_id":"levelo_inurba_marseille","lat":43.29107,"lon":5.3558,"is_reserved":false,"is_disabled":false,"rental_uris":{"android":"levelo://app?vid=4ba228e8-dcc2-47b2-be40-f5be097690e8","ios":"levelo://app?vid=4ba228e8-dcc2-47b2-be40-f5be097690e8"},"vehicle_type_id":"4","last_reported":1739628392,"current_range_meters":30400,"station_id":"","pricing_plan_id":"cebpf4jnsgd1na2vs0mg"},{"bike_id":"f92e748a-9f9b-4e54-8084-07e33515f3d5","system_id":"levelo_inurba_marseille","lat":43.27071,"lon":5.39347,"is_reserved":false,"is_disabled":true,"rental_uris":{"android":"levelo://app?vid=f92e748a-9f9b-4e54-8084-07e33515f3d5","ios":"levelo://app?vid=f92e748a-9f9b-4e54-8084-07e33515f3d5"},"vehicle_type_id":"4","last_reported":1739628392,"current_range_meters":0,"station_id":"","pricing_plan_id":"cebpf4jnsgd1na2vs0mg"},{"bike_id":"d08e85da-8116-4619-ad82-771deb872efd","system_id":"levelo_inurba_marseille","lat":43.28466,"lon":5.35883,"is_reserved":false,"is_disabled":false,"rental_uris":{"android":"levelo://app?vid=d08e85da-8116-4619-ad82-771deb872efd","ios":"levelo://app?vid=d08e85da-8116-4619-ad82-771deb872efd"},"vehicle_type_id":"4","last_reported":1739628392,"current_range_meters":8400,"station_id":"ce4bhah2rcd13ifvqei0","pricing_plan_id":"cebpf4jnsgd1na2vs0mg"},{"bike_id":"e37cd727-54ed-4ebd-b616-8e4019f8eb2c","system_id":"levelo_inurba_marseille","lat":43.2511,"lon":5.40327,"is_reserved":false,"is_disabled":false,"rental_uris":{"android":"levelo://app?vid=e37cd727-54ed-4ebd-b616-8e4019f8eb2c","ios":"levelo://app?vid=e37cd727-54ed-4ebd-b616-8e4019f8eb2c"},"vehicle_type_id":"4","last_reported":1739628392,"current_range_meters":38800,"station_id":"ce4bhlh2rcd13ifvqgig","pricing_plan_id":"cebpf4jnsgd1na2vs0mg"},{"bike_id":"cd1b225c-970a-4888-be4e-5cb0af2ecc20","system_id":"levelo_inurba_marseille","lat":43.26568,"lon":5.39006,"is_reserved":false,"is_disabled":false,"rental_uris":{"android":"levelo://app?vid=cd1b225c-970a-4888-be4e-5cb0af2ecc20","ios":"levelo://app?vid=cd1b225c-970a-4888-be4e-5cb0af2ecc20"},"vehicle_type_id":"4","last_reported":1739628392,"current_range_meters":6800,"station_id":"ce4bhe12rcd13ifvqf30","pricing_plan_id":"cebpf4jnsgd1na2vs0mg"},{"bike_id":"7952817a-f953-4777-b984-7a113c67295e","system_id":"levelo_inurba_marseille","lat":43.26934,"lon":5.40245,"is_reserved":false,"is_disabled":false,"rental_uris":{"android":"levelo://app?vid=7952817a-f953-4777-b984-7a113c67295e","ios":"levelo://app?vid=7952817a-f953-4777-b984-7a113c67295e"},"vehicle_type_id":"4","last_reported":1739628392,"current_range_meters":35200,"station_id":"cjm6bp8fraef2m0cb0m0","pricing_plan_id":"cebpf4jnsgd1na2vs0mg"},{"bike_id":"1b93b707-8637-4b7f-af28-6eb8a6acbe7b","system_id":"levelo_inurba_marseille","lat":43.26216,"lon":5.37448,"is_reserved":false,"is_disabled":false,"rental_uris":{"android":"levelo://app?vid=1b93b707-8637-4b7f-af28-6eb8a6acbe7b","ios":"levelo://app?vid=1b93b707-8637-4b7f-af28-6eb8a6acbe7b"},"vehicle_type_id":"4","last_reported":1739628392,"current_range_meters":26800,"station_id":"ce4bhgp2rcd13ifvqfc0","pricing_plan_id":"cebpf4jnsgd1na2vs0mg"},{"bike_id":"cd73739e-6850-4923-81be-52053efe4bcd","system_id":"levelo_inurba_marseille","lat":43.28621,"lon":5.35099,"is_reserved":false,"is_disabled":false,"rental_uris":{"android":"levelo://app?vid=cd73739e-6850-4923-81be-52053efe4bcd","ios":"levelo://app?vid=cd73739e-6850-4923-81be-52053efe4bcd"},"vehicle_type_id":"4","last_reported":1739628392,"current_range_meters":26000,"station_id":"ce4bhch2rcd13ifvqeug","pricing_plan_id":"cebpf4jnsgd1na2vs0mg"},{"bike_id":"9cf8e6d9-67b8-441b-8ab4-08ef8560d2b0","system_id":"levelo_inurba_marseille","lat":43.33514,"lon":5.35585,"is_reserved":false,"is_disabled":true,"rental_uris":{"android":"levelo://app?vid=9cf8e6d9-67b8-441b-8ab4-08ef8560d2b0","ios":"levelo://app?vid=9cf8e6d9-67b8-441b-8ab4-08ef8560d2b0"},"vehicle_type_id":"4","last_reported":1739628392,"current_range_meters":0,"station_id":"","pricing_plan_id":"cebpf4jnsgd1na2vs0mg"},{"bike_id":"06165e9c-ff5a-4e32-a74e-94955c8c830b","system_id":"levelo_inurba_marseille","lat":43.22923,"lon":5.35379,"is_reserved":false,"is_disabled":false,"rental_uris":{"android":"levelo://app?vid=06165e9c-ff5a-4e32-a74e-94955c8c830b","ios":"levelo://app?vid=06165e9c-ff5a-4e32-a74e-94955c8c830b"},"vehicle_type_id":"4","last_reported":1739628392,"current_range_meters":32000,"station_id":"cpo3532slgdg3j2ikp40","pricing_plan_id":"cebpf4jnsgd1na2vs0mg"},{"bike_id":"e83052d3-f834-4153-8159-6b1789775035","system_id":"levelo_inurba_marseille","lat":43.27373,"lon":5.36252,"is_reserved":false,"is_disabled":false,"rental_uris":{"android":"levelo://app?vid=e83052d3-f834-4153-8159-6b1789775035","ios":"levelo://app?vid=e83052d3-f834-4153-8159-6b1789775035"},"vehicle_type_id":"4","last_reported":1739628392,"current_range_meters":23200,"station_id":"ce4bhbh2rcd13ifvqeo0","pricing_plan_id":"cebpf4jnsgd1na2vs0mg"},{"bike_id":"811b63d6-9c3c-4b06-849e-3b400f65e795","system_id":"levelo_inurba_marseille","lat":43.246517,"lon":5.388881,"is_reserved":false,"is_disabled":false,"rental_uris":{"android":"levelo://app?vid=811b63d6-9c3c-4b06-849e-3b400f65e795","ios":"levelo://app?vid=811b63d6-9c3c-4b06-849e-3b400f65e795"},"vehicle_type_id":"4","last_reported":1739628392,"current_range_meters":10000,"station_id":"ce4bhg12rcd13ifvqf60","pricing_plan_id":"cebpf4jnsgd1na2vs0mg"},{"bike_id":"802a448c-de1b-42dc-9c21-98125d5e9bce","system_id":"levelo_inurba_marseille","lat":43.27615,"lon":5.36116,"is_reserved":false,"is_disabled":false,"rental_uris":{"android":"levelo://app?vid=802a448c-de1b-42dc-9c21-98125d5e9bce","ios":"levelo://app?vid=802a448c-de1b-42dc-9c21-98125d5e9bce"},"vehicle_type_id":"4","last_reported":1739628392,"current_range_meters":20800,"station_id":"ce4bgj92rcd13ifvqbe0","pricing_plan_id":"cebpf4jnsgd1na2vs0mg"},{"bike_id":"92852921-6c0f-4e80-9892-5002c3277bec","system_id":"levelo_inurba_marseille","lat":43.29546,"lon":5.42304,"is_reserved":false,"is_disabled":false,"rental_uris":{"android":"levelo://app?vid=92852921-6c0f-4e80-9892-5002c3277bec","ios":"levelo://app?vid=92852921-6c0f-4e80-9892-5002c3277bec"},"vehicle_type_id":"4","last_reported":1739628392,"current_range_meters":18800,"station_id":"ce4bhph2rcd13ifvqhdg","pricing_plan_id":"cebpf4jnsgd1na2vs0mg"},{"bike_id":"51ab7186-5043-4bed-baca-73708608a302","system_id":"levelo_inurba_marseille","lat":43.29584,"lon":5.37026,"is_reserved":false,"is_disabled":true,"rental_uris":{"android":"levelo://app?vid=51ab7186-5043-4bed-baca-73708608a302","ios":"levelo://app?vid=51ab7186-5043-4bed-baca-73708608a302"},"vehicle_type_id":"4","last_reported":1739628392,"current_range_meters":0,"station_id":"","pricing_plan_id":"cebpf4jnsgd1na2vs0mg"},{"bike_id":"9fdb08b8-1ceb-474a-abf2-04c699884b4a","system_id":"levelo_inurba_marseille","lat":43.23193,"lon":5.35563,"is_reserved":false,"is_disabled":true,"rental_uris":{"android":"levelo://app?vid=9fdb08b8-1ceb-474a-abf2-04c699884b4a","ios":"levelo://app?vid=9fdb08b8-1ceb-474a-abf2-04c699884b4a"},"vehicle_type_id":"4","last_reported":1739628392,"current_range_meters":1200,"station_id":"ce4bhu92rcd13ifvqi70","pricing_plan_id":"cebpf4jnsgd1na2vs0mg"},{"bike_id":"af250fd2-e42c-44d5-95ba-8d9ca6f40632","system_id":"levelo_inurba_marseille","lat":43.22933,"lon":5.35378,"is_reserved":false,"is_disabled":false,"rental_uris":{"android":"levelo://app?vid=af250fd2-e42c-44d5-95ba-8d9ca6f40632","ios":"levelo://app?vid=af250fd2-e42c-44d5-95ba-8d9ca6f40632"},"vehicle_type_id":"4","last_reported":1739628392,"current_range_meters":38800,"station_id":"cpo3532slgdg3j2ikp40","pricing_plan_id":"cebpf4jnsgd1na2vs0mg"},{"bike_id":"7917314d-8c06-4629-b9de-b3e419a0622a","system_id":"levelo_inurba_marseille","lat":43.23062,"lon":5.35493,"is_reserved":false,"is_disabled":false,"rental_uris":{"android":"levelo://app?vid=7917314d-8c06-4629-b9de-b3e419a0622a","ios":"levelo://app?vid=7917314d-8c06-4629-b9de-b3e419a0622a"},"vehicle_type_id":"4","last_reported":1739628392,"current_range_meters":17600,"station_id":"cpo3342slgdg3j2ifvpg","pricing_plan_id":"cebpf4jnsgd1na2vs0mg"},{"bike_id":"32ce155f-70fd-4794-8f45-b8fd71167e8d","system_id":"levelo_inurba_marseille","lat":43.23957,"lon":5.36634,"is_reserved":false,"is_disabled":false,"rental_uris":{"android":"levelo://app?vid=32ce155f-70fd-4794-8f45-b8fd71167e8d","ios":"levelo://app?vid=32ce155f-70fd-4794-8f45-b8fd71167e8d"},"vehicle_type_id":"4","last_reported":1739628392,"current_range_meters":12000,"station_id":"ce4bhi12rcd13ifvqfp0","pricing_plan_id":"cebpf4jnsgd1na2vs0mg"},{"bike_id":"78948909-7dfc-4a5a-a38d-28bdd6cb794c","system_id":"levelo_inurba_marseille","lat":43.31698,"lon":5.40424,"is_reserved":false,"is_disabled":false,"rental_uris":{"android":"levelo://app?vid=78948909-7dfc-4a5a-a38d-28bdd6cb794c","ios":"levelo://app?vid=78948909-7dfc-4a5a-a38d-28bdd6cb794c"},"vehicle_type_id":"4","last_reported":1739628392,"current_range_meters":38000,"station_id":"ce4bh012rcd13ifvqd00","pricing_plan_id":"cebpf4jnsgd1na2vs0mg"},{"bike_id":"5fbe50a8-885b-4657-b77c-df4181249707","system_id":"levelo_inurba_marseille","lat":43.300748,"lon":5.404928,"is_reserved":false,"is_disabled":false,"rental_uris":{"android":"levelo://app?vid=5fbe50a8-885b-4657-b77c-df4181249707","ios":"levelo://app?vid=5fbe50a8-885b-4657-b77c-df4181249707"},"vehicle_type_id":"4","last_reported":1739628392,"current_range_meters":33600,"station_id":"","pricing_plan_id":"cebpf4jnsgd1na2vs0mg"},{"bike_id":"c40e2cb9-b89c-4dbd-956b-535ef79f1d37","system_id":"levelo_inurba_marseille","lat":43.24808,"lon":5.37458,"is_reserved":false,"is_disabled":false,"rental_uris":{"android":"levelo://app?vid=c40e2cb9-b89c-4dbd-956b-535ef79f1d37","ios":"levelo://app?vid=c40e2cb9-b89c-4dbd-956b-535ef79f1d37"},"vehicle_type_id":"4","last_reported":1739628392,"current_range_meters":24000,"station_id":"ce4bhgh2rcd13ifvqfb0","pricing_plan_id":"cebpf4jnsgd1na2vs0mg"},{"bike_id":"e62139a2-d0c9-4308-9ec0-c009facf4678","system_id":"levelo_inurba_marseille","lat":43.29179,"lon":5.35782,"is_reserved":false,"is_disabled":false,"rental_uris":{"android":"levelo://app?vid=e62139a2-d0c9-4308-9ec0-c009facf4678","ios":"levelo://app?vid=e62139a2-d0c9-4308-9ec0-c009facf4678"},"vehicle_type_id":"4","last_reported":1739628392,"current_range_meters":36000,"station_id":"ce4bhb12rcd13ifvqel0","pricing_plan_id":"cebpf4jnsgd1na2vs0mg"},{"bike_id":"6d14ffd0-8cb0-40f3-8b6f-5b79b4098bae","system_id":"levelo_inurba_marseille","lat":43.28109,"lon":5.37827,"is_reserved":false,"is_disabled":false,"rental_uris":{"android":"levelo://app?vid=6d14ffd0-8cb0-40f3-8b6f-5b79b4098bae","ios":"levelo://app?vid=6d14ffd0-8cb0-40f3-8b6f-5b79b4098bae"},"vehicle_type_id":"4","last_reported":1739628392,"current_range_meters":31200,"station_id":"ce4bha12rcd13ifvqee0","pricing_plan_id":"cebpf4jnsgd1na2vs0mg"},{"bike_id":"acb44724-4345-4854-85c0-ea9f022059bb","system_id":"levelo_inurba_marseille","lat":43.24807,"lon":5.37458,"is_reserved":false,"is_disabled":false,"rental_uris":{"android":"levelo://app?vid=acb44724-4345-4854-85c0-ea9f022059bb","ios":"levelo://app?vid=acb44724-4345-4854-85c0-ea9f022059bb"},"vehicle_type_id":"4","last_reported":1739628392,"current_range_meters":39200,"station_id":"ce4bhgh2rcd13ifvqfb0","pricing_plan_id":"cebpf4jnsgd1na2vs0mg"},{"bike_id":"4afd05b5-41e1-4012-b907-304d88773920","system_id":"levelo_inurba_marseille","lat":43.23948,"lon":5.36646,"is_reserved":false,"is_disabled":false,"rental_uris":{"android":"levelo://app?vid=4afd05b5-41e1-4012-b907-304d88773920","ios":"levelo://app?vid=4afd05b5-41e1-4012-b907-304d88773920"},"vehicle_type_id":"4","last_reported":1739628392,"current_range_meters":38800,"station_id":"ce4bhi12rcd13ifvqfp0","pricing_plan_id":"cebpf4jnsgd1na2vs0mg"},{"bike_id":"67095dd8-663e-4d8c-8fb2-f5bd2e567ff7","system_id":"levelo_inurba_marseille","lat":43.28609,"lon":5.35101,"is_reserved":false,"is_disabled":false,"rental_uris":{"android":"levelo://app?vid=67095dd8-663e-4d8c-8fb2-f5bd2e567ff7","ios":"levelo://app?vid=67095dd8-663e-4d8c-8fb2-f5bd2e567ff7"},"vehicle_type_id":"4","last_reported":1739628392,"current_range_meters":17600,"station_id":"ce4bhch2rcd13ifvqeug","pricing_plan_id":"cebpf4jnsgd1na2vs0mg"},{"bike_id":"899e44e7-60b0-44a7-9ff3-d0219b681de2","system_id":"levelo_inurba_marseille","lat":43.28144,"lon":5.42639,"is_reserved":false,"is_disabled":false,"rental_uris":{"android":"levelo://app?vid=899e44e7-60b0-44a7-9ff3-d0219b681de2","ios":"levelo://app?vid=899e44e7-60b0-44a7-9ff3-d0219b681de2"},"vehicle_type_id":"4","last_reported":1739628392,"current_range_meters":34800,"station_id":"ce4bhnh2rcd13ifvqgug","pricing_plan_id":"cebpf4jnsgd1na2vs0mg"},{"bike_id":"91f4af11-8689-4e87-8934-3ebd11edaf92","system_id":"levelo_inurba_marseille","lat":43.262,"lon":5.37928,"is_reserved":false,"is_disabled":false,"rental_uris":{"android":"levelo://app?vid=91f4af11-8689-4e87-8934-3ebd11edaf92","ios":"levelo://app?vid=91f4af11-8689-4e87-8934-3ebd11edaf92"},"vehicle_type_id":"4","last_reported":1739628392,"current_range_meters":30000,"station_id":"ce4bhjp2rcd13ifvqg90","pricing_plan_id":"cebpf4jnsgd1na2vs0mg"},{"bike_id":"03b02bf5-5e6d-4b1c-abfe-96890ec6cf4f","system_id":"levelo_inurba_marseille","lat":43.2842,"lon":5.34989,"is_reserved":false,"is_disabled":false,"rental_uris":{"android":"levelo://app?vid=03b02bf5-5e6d-4b1c-abfe-96890ec6cf4f","ios":"levelo://app?vid=03b02bf5-5e6d-4b1c-abfe-96890ec6cf4f"},"vehicle_type_id":"4","last_reported":1739628392,"current_range_meters":8000,"station_id":"ce4bhbh2rcd13ifvqepg","pricing_plan_id":"cebpf4jnsgd1na2vs0mg"},{"bike_id":"dee3601d-ddca-408e-b8e5-fdf3429aa605","system_id":"levelo_inurba_marseille","lat":43.28994,"lon":5.35615,"is_reserved":false,"is_disabled":false,"rental_uris":{"android":"levelo://app?vid=dee3601d-ddca-408e-b8e5-fdf3429aa605","ios":"levelo://app?vid=dee3601d-ddca-408e-b8e5-fdf3429aa605"},"vehicle_type_id":"4","last_reported":1739628392,"current_range_meters":38800,"station_id":"ce4bhb92rcd13ifvqen0","pricing_plan_id":"cebpf4jnsgd1na2vs0mg"},{"bike_id":"dd6cb6d1-ec09-4fa3-b904-8bbc2202018d","system_id":"levelo_inurba_marseille","lat":43.30529,"lon":5.36708,"is_reserved":false,"is_disabled":false,"rental_uris":{"android":"levelo://app?vid=dd6cb6d1-ec09-4fa3-b904-8bbc2202018d","ios":"levelo://app?vid=dd6cb6d1-ec09-4fa3-b904-8bbc2202018d"},"vehicle_type_id":"4","last_reported":1739628392,"current_range_meters":29600,"station_id":"ce4bgrp2rcd13ifvqc9g","pricing_plan_id":"cebpf4jnsgd1na2vs0mg"},{"bike_id":"397f7144-3e20-4f61-9149-2720265fc375","system_id":"levelo_inurba_marseille","lat":43.24075,"lon":5.37757,"is_reserved":false,"is_disabled":false,"rental_uris":{"android":"levelo://app?vid=397f7144-3e20-4f61-9149-2720265fc375","ios":"levelo://app?vid=397f7144-3e20-4f61-9149-2720265fc375"},"vehicle_type_id":"4","last_reported":1739628392,"current_range_meters":38000,"station_id":"ce4bhnp2rcd13ifvqgvg","pricing_plan_id":"cebpf4jnsgd1na2vs0mg"},{"bike_id":"a631f734-4aa1-4ec4-bfa7-ef8429122ef0","system_id":"levelo_inurba_marseille","lat":43.25722,"lon":5.41118,"is_reserved":false,"is_disabled":false,"rental_uris":{"android":"levelo://app?vid=a631f734-4aa1-4ec4-bfa7-ef8429122ef0","ios":"levelo://app?vid=a631f734-4aa1-4ec4-bfa7-ef8429122ef0"},"vehicle_type_id":"4","last_reported":1739628392,"current_range_meters":17600,"station_id":"ce4bhkp2rcd13ifvqgd0","pricing_plan_id":"cebpf4jnsgd1na2vs0mg"},{"bike_id":"cb976fd1-127f-4e36-a203-b810fc1aa3da","system_id":"levelo_inurba_marseille","lat":43.27215,"lon":5.39184,"is_reserved":false,"is_disabled":false,"rental_uris":{"android":"levelo://app?vid=cb976fd1-127f-4e36-a203-b810fc1aa3da","ios":"levelo://app?vid=cb976fd1-127f-4e36-a203-b810fc1aa3da"},"vehicle_type_id":"4","last_reported":1739628392,"current_range_meters":30000,"station_id":"ce4bhhp2rcd13ifvqfm0","pricing_plan_id":"cebpf4jnsgd1na2vs0mg"},{"bike_id":"769bbdcf-7765-42d6-a23c-be51c1c90c46","system_id":"levelo_inurba_marseille","lat":43.22929,"lon":5.35376,"is_reserved":false,"is_disabled":false,"rental_uris":{"android":"levelo://app?vid=769bbdcf-7765-42d6-a23c-be51c1c90c46","ios":"levelo://app?vid=769bbdcf-7765-42d6-a23c-be51c1c90c46"},"vehicle_type_id":"4","last_reported":1739628392,"current_range_meters":12000,"station_id":"cpo3532slgdg3j2ikp40","pricing_plan_id":"cebpf4jnsgd1na2vs0mg"},{"bike_id":"907da6ac-e466-4f41-bfeb-cfec118a1581","system_id":"levelo_inurba_marseille","lat":43.24818,"lon":5.37457,"is_reserved":false,"is_disabled":false,"rental_uris":{"android":"levelo://app?vid=907da6ac-e466-4f41-bfeb-cfec118a1581","ios":"levelo://app?vid=907da6ac-e466-4f41-bfeb-cfec118a1581"},"vehicle_type_id":"4","last_reported":1739628392,"current_range_meters":20400,"station_id":"ce4bhgh2rcd13ifvqfb0","pricing_plan_id":"cebpf4jnsgd1na2vs0mg"},{"bike_id":"9d7c84b1-5e85-40b5-9214-0ea5f354ecac","system_id":"levelo_inurba_marseille","lat":43.28619,"lon":5.3845,"is_reserved":false,"is_disabled":false,"rental_uris":{"android":"levelo://app?vid=9d7c84b1-5e85-40b5-9214-0ea5f354ecac","ios":"levelo://app?vid=9d7c84b1-5e85-40b5-9214-0ea5f354ecac"},"vehicle_type_id":"4","last_reported":1739628392,"current_range_meters":15200,"station_id":"","pricing_plan_id":"cebpf4jnsgd1na2vs0mg"},{"bike_id":"e01f85e7-c690-4e76-91cc-b484b48fef35","system_id":"levelo_inurba_marseille","lat":43.26205,"lon":5.37433,"is_reserved":false,"is_disabled":false,"rental_uris":{"android":"levelo://app?vid=e01f85e7-c690-4e76-91cc-b484b48fef35","ios":"levelo://app?vid=e01f85e7-c690-4e76-91cc-b484b48fef35"},"vehicle_type_id":"4","last_reported":1739628392,"current_range_meters":35600,"station_id":"ce4bhgp2rcd13ifvqfc0","pricing_plan_id":"cebpf4jnsgd1na2vs0mg"},{"bike_id":"4305290c-ad21-4e5a-a75b-31467bb8609e","system_id":"levelo_inurba_marseille","lat":43.28272,"lon":5.35074,"is_reserved":false,"is_disabled":false,"rental_uris":{"android":"levelo://app?vid=4305290c-ad21-4e5a-a75b-31467bb8609e","ios":"levelo://app?vid=4305290c-ad21-4e5a-a75b-31467bb8609e"},"vehicle_type_id":"4","last_reported":1739628392,"current_range_meters":38800,"station_id":"ce4bhbp2rcd13ifvqerg","pricing_plan_id":"cebpf4jnsgd1na2vs0mg"},{"bike_id":"e09ad856-2119-4687-93ce-3829fee31a90","system_id":"levelo_inurba_marseille","lat":43.29039,"lon":5.35918,"is_reserved":false,"is_disabled":false,"rental_uris":{"android":"levelo://app?vid=e09ad856-2119-4687-93ce-3829fee31a90","ios":"levelo://app?vid=e09ad856-2119-4687-93ce-3829fee31a90"},"vehicle_type_id":"4","last_reported":1739628392,"current_range_meters":16800,"station_id":"ce4bha92rcd13ifvqeg0","pricing_plan_id":"cebpf4jnsgd1na2vs0mg"},{"bike_id":"ea97ac5e-3549-4466-a935-a370db5cd759","system_id":"levelo_inurba_marseille","lat":43.27935,"lon":5.41035,"is_reserved":false,"is_disabled":false,"rental_uris":{"android":"levelo://app?vid=ea97ac5e-3549-4466-a935-a370db5cd759","ios":"levelo://app?vid=ea97ac5e-3549-4466-a935-a370db5cd759"},"vehicle_type_id":"4","last_reported":1739628392,"current_range_meters":29600,"station_id":"ce4bhnp2rcd13ifvqh0g","pricing_plan_id":"cebpf4jnsgd1na2vs0mg"},{"bike_id":"cb040991-3b54-4bbc-a55e-cf272a8d5123","system_id":"levelo_inurba_marseille","lat":43.2992,"lon":5.37479,"is_reserved":false,"is_disabled":false,"rental_uris":{"android":"levelo://app?vid=cb040991-3b54-4bbc-a55e-cf272a8d5123","ios":"levelo://app?vid=cb040991-3b54-4bbc-a55e-cf272a8d5123"},"vehicle_type_id":"4","last_reported":1739628392,"current_range_meters":28000,"station_id":"ce4bgjh2rcd13ifvqbg0","pricing_plan_id":"cebpf4jnsgd1na2vs0mg"},{"bike_id":"d1b7e7c3-d876-4585-aa93-a701646b8c19","system_id":"levelo_inurba_marseille","lat":43.23177,"lon":5.39985,"is_reserved":false,"is_disabled":false,"rental_uris":{"android":"levelo://app?vid=d1b7e7c3-d876-4585-aa93-a701646b8c19","ios":"levelo://app?vid=d1b7e7c3-d876-4585-aa93-a701646b8c19"},"vehicle_type_id":"4","last_reported":1739628392,"current_range_meters":38800,"station_id":"ce4bhn12rcd13ifvqgqg","pricing_plan_id":"cebpf4jnsgd1na2vs0mg"},{"bike_id":"dc4fc55f-0ea9-49a1-bb39-4722eda2c2cd","system_id":"levelo_inurba_marseille","lat":43.29915,"lon":5.37652,"is_reserved":false,"is_disabled":false,"rental_uris":{"android":"levelo://app?vid=dc4fc55f-0ea9-49a1-bb39-4722eda2c2cd","ios":"levelo://app?vid=dc4fc55f-0ea9-49a1-bb39-4722eda2c2cd"},"vehicle_type_id":"4","last_reported":1739628392,"current_range_meters":17600,"station_id":"","pricing_plan_id":"cebpf4jnsgd1na2vs0mg"},{"bike_id":"0897f8b8-cb2c-4f16-bb11-e094cde7b6ae","system_id":"levelo_inurba_marseille","lat":43.29041,"lon":5.35921,"is_reserved":false,"is_disabled":false,"rental_uris":{"android":"levelo://app?vid=0897f8b8-cb2c-4f16-bb11-e094cde7b6ae","ios":"levelo://app?vid=0897f8b8-cb2c-4f16-bb11-e094cde7b6ae"},"vehicle_type_id":"4","last_reported":1739628392,"current_range_meters":31200,"station_id":"ce4bha92rcd13ifvqeg0","pricing_plan_id":"cebpf4jnsgd1na2vs0mg"},{"bike_id":"10410a5f-c872-4cbc-84fb-fe2ad13b1e20","system_id":"levelo_inurba_marseille","lat":43.28416,"lon":5.34983,"is_reserved":false,"is_disabled":false,"rental_uris":{"android":"levelo://app?vid=10410a5f-c872-4cbc-84fb-fe2ad13b1e20","ios":"levelo://app?vid=10410a5f-c872-4cbc-84fb-fe2ad13b1e20"},"vehicle_type_id":"4","last_reported":1739628392,"current_range_meters":28800,"station_id":"ce4bhbh2rcd13ifvqepg","pricing_plan_id":"cebpf4jnsgd1na2vs0mg"},{"bike_id":"d0f182e4-3393-4c3c-9a4d-3535f4866de1","system_id":"levelo_inurba_marseille","lat":43.27204,"lon":5.39187,"is_reserved":false,"is_disabled":false,"rental_uris":{"android":"levelo://app?vid=d0f182e4-3393-4c3c-9a4d-3535f4866de1","ios":"levelo://app?vid=d0f182e4-3393-4c3c-9a4d-3535f4866de1"},"vehicle_type_id":"4","last_reported":1739628392,"current_range_meters":20800,"station_id":"ce4bhhp2rcd13ifvqfm0","pricing_plan_id":"cebpf4jnsgd1na2vs0mg"},{"bike_id":"d2c98906-95e6-41f0-887e-addf55786d50","system_id":"levelo_inurba_marseille","lat":43.27944,"lon":5.41034,"is_reserved":false,"is_disabled":false,"rental_uris":{"android":"levelo://app?vid=d2c98906-95e6-41f0-887e-addf55786d50","ios":"levelo://app?vid=d2c98906-95e6-41f0-887e-addf55786d50"},"vehicle_type_id":"4","last_reported":1739628392,"current_range_meters":24800,"station_id":"ce4bhnp2rcd13ifvqh0g","pricing_plan_id":"cebpf4jnsgd1na2vs0mg"},{"bike_id":"72526c7a-bad2-48be-9eb5-30027376ec95","system_id":"levelo_inurba_marseille","lat":43.23192,"lon":5.35543,"is_reserved":false,"is_disabled":false,"rental_uris":{"android":"levelo://app?vid=72526c7a-bad2-48be-9eb5-30027376ec95","ios":"levelo://app?vid=72526c7a-bad2-48be-9eb5-30027376ec95"},"vehicle_type_id":"4","last_reported":1739628392,"current_range_meters":8400,"station_id":"ce4bhu92rcd13ifvqi70","pricing_plan_id":"cebpf4jnsgd1na2vs0mg"},{"bike_id":"c41aef02-ee00-4719-ba20-e911423cf410","system_id":"levelo_inurba_marseille","lat":43.2904,"lon":5.35915,"is_reserved":false,"is_disabled":false,"rental_uris":{"android":"levelo://app?vid=c41aef02-ee00-4719-ba20-e911423cf410","ios":"levelo://app?vid=c41aef02-ee00-4719-ba20-e911423cf410"},"vehicle_type_id":"4","last_reported":1739628392,"current_range_meters":18000,"station_id":"ce4bha92rcd13ifvqeg0","pricing_plan_id":"cebpf4jnsgd1na2vs0mg"},{"bike_id":"63926379-9e29-4084-b085-b97feb95fcfd","system_id":"levelo_inurba_marseille","lat":43.29271,"lon":5.36844,"is_reserved":false,"is_disabled":false,"rental_uris":{"android":"levelo://app?vid=63926379-9e29-4084-b085-b97feb95fcfd","ios":"levelo://app?vid=63926379-9e29-4084-b085-b97feb95fcfd"},"vehicle_type_id":"4","last_reported":1739628392,"current_range_meters":38800,"station_id":"ce4bhbp2rcd13ifvqesg","pricing_plan_id":"cebpf4jnsgd1na2vs0mg"},{"bike_id":"3bc5823b-3f83-4966-a897-939ee68da154","system_id":"levelo_inurba_marseille","lat":43.28441,"lon":5.35898,"is_reserved":false,"is_disabled":false,"rental_uris":{"android":"levelo://app?vid=3bc5823b-3f83-4966-a897-939ee68da154","ios":"levelo://app?vid=3bc5823b-3f83-4966-a897-939ee68da154"},"vehicle_type_id":"4","last_reported":1739628392,"current_range_meters":27200,"station_id":"ce4bhah2rcd13ifvqei0","pricing_plan_id":"cebpf4jnsgd1na2vs0mg"},{"bike_id":"03eba1d0-92c1-4e6e-a4d0-7c546f2439c0","system_id":"levelo_inurba_marseille","lat":43.337444,"lon":5.374475,"is_reserved":false,"is_disabled":true,"rental_uris":{"android":"levelo://app?vid=03eba1d0-92c1-4e6e-a4d0-7c546f2439c0","ios":"levelo://app?vid=03eba1d0-92c1-4e6e-a4d0-7c546f2439c0"},"vehicle_type_id":"4","last_reported":1739628392,"current_range_meters":0,"station_id":"","pricing_plan_id":"cebpf4jnsgd1na2vs0mg"},{"bike_id":"3ce9ce58-7c99-4dbb-a109-d0a36243ebfb","system_id":"levelo_inurba_marseille","lat":43.28443,"lon":5.39187,"is_reserved":false,"is_disabled":true,"rental_uris":{"android":"levelo://app?vid=3ce9ce58-7c99-4dbb-a109-d0a36243ebfb","ios":"levelo://app?vid=3ce9ce58-7c99-4dbb-a109-d0a36243ebfb"},"vehicle_type_id":"4","last_reported":1739628392,"current_range_meters":32400,"station_id":"ce4bhoh2rcd13ifvqh5g","pricing_plan_id":"cebpf4jnsgd1na2vs0mg"},{"bike_id":"0853d97b-7217-4a3e-98ad-a65c49a0009e","system_id":"levelo_inurba_marseille","lat":43.27381,"lon":5.36262,"is_reserved":false,"is_disabled":false,"rental_uris":{"android":"levelo://app?vid=0853d97b-7217-4a3e-98ad-a65c49a0009e","ios":"levelo://app?vid=0853d97b-7217-4a3e-98ad-a65c49a0009e"},"vehicle_type_id":"4","last_reported":1739628392,"current_range_meters":38400,"station_id":"ce4bhbh2rcd13ifvqeo0","pricing_plan_id":"cebpf4jnsgd1na2vs0mg"},{"bike_id":"306a4d04-07c8-410b-8655-167e5846186c","system_id":"levelo_inurba_marseille","lat":43.31498,"lon":5.37278,"is_reserved":false,"is_disabled":false,"rental_uris":{"android":"levelo://app?vid=306a4d04-07c8-410b-8655-167e5846186c","ios":"levelo://app?vid=306a4d04-07c8-410b-8655-167e5846186c"},"vehicle_type_id":"4","last_reported":1739628392,"current_range_meters":38000,"station_id":"ce4bgt12rcd13ifvqcd0","pricing_plan_id":"cebpf4jnsgd1na2vs0mg"},{"bike_id":"5016e875-414a-41bd-8f00-6a5845e39ba6","system_id":"levelo_inurba_marseille","lat":43.30801,"lon":5.43519,"is_reserved":false,"is_disabled":false,"rental_uris":{"android":"levelo://app?vid=5016e875-414a-41bd-8f00-6a5845e39ba6","ios":"levelo://app?vid=5016e875-414a-41bd-8f00-6a5845e39ba6"},"vehicle_type_id":"4","last_reported":1739628392,"current_range_meters":29600,"station_id":"ce4bhph2rcd13ifvqheg","pricing_plan_id":"cebpf4jnsgd1na2vs0mg"},{"bike_id":"d05b6a95-cdee-4138-a73d-03528f55d352","system_id":"levelo_inurba_marseille","lat":43.2955,"lon":5.42281,"is_reserved":false,"is_disabled":false,"rental_uris":{"android":"levelo://app?vid=d05b6a95-cdee-4138-a73d-03528f55d352","ios":"levelo://app?vid=d05b6a95-cdee-4138-a73d-03528f55d352"},"vehicle_type_id":"4","last_reported":1739628392,"current_range_meters":33200,"station_id":"ce4bhph2rcd13ifvqhdg","pricing_plan_id":"cebpf4jnsgd1na2vs0mg"},{"bike_id":"683dd2bd-1e81-48dd-a1eb-4b7a7378e30c","system_id":"levelo_inurba_marseille","lat":43.2439,"lon":5.37047,"is_reserved":false,"is_disabled":false,"rental_uris":{"android":"levelo://app?vid=683dd2bd-1e81-48dd-a1eb-4b7a7378e30c","ios":"levelo://app?vid=683dd2bd-1e81-48dd-a1eb-4b7a7378e30c"},"vehicle_type_id":"4","last_reported":1739628392,"current_range_meters":38800,"station_id":"ce4bhhh2rcd13ifvqfk0","pricing_plan_id":"cebpf4jnsgd1na2vs0mg"},{"bike_id":"696e810a-a08b-4e3c-8301-af005404211f","system_id":"levelo_inurba_marseille","lat":43.29097,"lon":5.38135,"is_reserved":false,"is_disabled":false,"rental_uris":{"android":"levelo://app?vid=696e810a-a08b-4e3c-8301-af005404211f","ios":"levelo://app?vid=696e810a-a08b-4e3c-8301-af005404211f"},"vehicle_type_id":"4","last_reported":1739628392,"current_range_meters":36800,"station_id":"ce4bh512rcd13ifvqe2g","pricing_plan_id":"cebpf4jnsgd1na2vs0mg"},{"bike_id":"06d999ca-c582-4453-b7d3-ae0762176595","system_id":"levelo_inurba_marseille","lat":43.2306,"lon":5.35496,"is_reserved":false,"is_disabled":false,"rental_uris":{"android":"levelo://app?vid=06d999ca-c582-4453-b7d3-ae0762176595","ios":"levelo://app?vid=06d999ca-c582-4453-b7d3-ae0762176595"},"vehicle_type_id":"4","last_reported":1739628392,"current_range_meters":6000,"station_id":"cpo3342slgdg3j2ifvpg","pricing_plan_id":"cebpf4jnsgd1na2vs0mg"},{"bike_id":"bc8f8c2f-8301-4cf3-92c3-cc9f07ac1a74","system_id":"levelo_inurba_marseille","lat":43.28995,"lon":5.35609,"is_reserved":false,"is_disabled":false,"rental_uris":{"android":"levelo://app?vid=bc8f8c2f-8301-4cf3-92c3-cc9f07ac1a74","ios":"levelo://app?vid=bc8f8c2f-8301-4cf3-92c3-cc9f07ac1a74"},"vehicle_type_id":"4","last_reported":1739628392,"current_range_meters":23200,"station_id":"ce4bhb92rcd13ifvqen0","pricing_plan_id":"cebpf4jnsgd1na2vs0mg"},{"bike_id":"38c4c65d-02a7-4fef-9ca5-1ec6c3a07e52","system_id":"levelo_inurba_marseille","lat":43.29008,"lon":5.35617,"is_reserved":false,"is_disabled":false,"rental_uris":{"android":"levelo://app?vid=38c4c65d-02a7-4fef-9ca5-1ec6c3a07e52","ios":"levelo://app?vid=38c4c65d-02a7-4fef-9ca5-1ec6c3a07e52"},"vehicle_type_id":"4","last_reported":1739628392,"current_range_meters":25200,"station_id":"ce4bhb92rcd13ifvqen0","pricing_plan_id":"cebpf4jnsgd1na2vs0mg"},{"bike_id":"bd1fbd17-5ecd-4c2a-9290-d1ffd1a70214","system_id":"levelo_inurba_marseille","lat":43.29547,"lon":5.42293,"is_reserved":false,"is_disabled":false,"rental_uris":{"android":"levelo://app?vid=bd1fbd17-5ecd-4c2a-9290-d1ffd1a70214","ios":"levelo://app?vid=bd1fbd17-5ecd-4c2a-9290-d1ffd1a70214"},"vehicle_type_id":"4","last_reported":1739628392,"current_range_meters":32800,"station_id":"ce4bhph2rcd13ifvqhdg","pricing_plan_id":"cebpf4jnsgd1na2vs0mg"},{"bike_id":"e492bf36-b9da-4024-88d1-1b3161c4bdab","system_id":"levelo_inurba_marseille","lat":43.2693,"lon":5.40263,"is_reserved":false,"is_disabled":false,"rental_uris":{"android":"levelo://app?vid=e492bf36-b9da-4024-88d1-1b3161c4bdab","ios":"levelo://app?vid=e492bf36-b9da-4024-88d1-1b3161c4bdab"},"vehicle_type_id":"4","last_reported":1739628392,"current_range_meters":39200,"station_id":"cjm6bp8fraef2m0cb0m0","pricing_plan_id":"cebpf4jnsgd1na2vs0mg"},{"bike_id":"b5b6c690-d1da-426c-9dd7-a262678e2c02","system_id":"levelo_inurba_marseille","lat":43.3095,"lon":5.39037,"is_reserved":false,"is_disabled":false,"rental_uris":{"android":"levelo://app?vid=b5b6c690-d1da-426c-9dd7-a262678e2c02","ios":"levelo://app?vid=b5b6c690-d1da-426c-9dd7-a262678e2c02"},"vehicle_type_id":"4","last_reported":1739628392,"current_range_meters":38800,"station_id":"ce4bgup2rcd13ifvqco0","pricing_plan_id":"cebpf4jnsgd1na2vs0mg"},{"bike_id":"d43528c0-bc71-47e5-95e7-fda200b40a43","system_id":"levelo_inurba_marseille","lat":43.30151,"lon":5.38096,"is_reserved":false,"is_disabled":false,"rental_uris":{"android":"levelo://app?vid=d43528c0-bc71-47e5-95e7-fda200b40a43","ios":"levelo://app?vid=d43528c0-bc71-47e5-95e7-fda200b40a43"},"vehicle_type_id":"4","last_reported":1739628392,"current_range_meters":32400,"station_id":"ce4bgjp2rcd13ifvqbh0","pricing_plan_id":"cebpf4jnsgd1na2vs0mg"},{"bike_id":"4f34ac20-13f8-4bff-8fa6-5425328bb98e","system_id":"levelo_inurba_marseille","lat":43.30241,"lon":5.40065,"is_reserved":false,"is_disabled":true,"rental_uris":{"android":"levelo://app?vid=4f34ac20-13f8-4bff-8fa6-5425328bb98e","ios":"levelo://app?vid=4f34ac20-13f8-4bff-8fa6-5425328bb98e"},"vehicle_type_id":"4","last_reported":1739628392,"current_range_meters":28000,"station_id":"ce4bgvh2rcd13ifvqcs0","pricing_plan_id":"cebpf4jnsgd1na2vs0mg"},{"bike_id":"9050dc33-46e9-487e-9f44-7a573ec7ec35","system_id":"levelo_inurba_marseille","lat":43.29003,"lon":5.35619,"is_reserved":false,"is_disabled":false,"rental_uris":{"android":"levelo://app?vid=9050dc33-46e9-487e-9f44-7a573ec7ec35","ios":"levelo://app?vid=9050dc33-46e9-487e-9f44-7a573ec7ec35"},"vehicle_type_id":"4","last_reported":1739628392,"current_range_meters":10800,"station_id":"ce4bhb92rcd13ifvqen0","pricing_plan_id":"cebpf4jnsgd1na2vs0mg"},{"bike_id":"44abfaf9-2106-4224-9d73-39ba42ba7d97","system_id":"levelo_inurba_marseille","lat":43.30209,"lon":5.39475,"is_reserved":false,"is_disabled":false,"rental_uris":{"android":"levelo://app?vid=44abfaf9-2106-4224-9d73-39ba42ba7d97","ios":"levelo://app?vid=44abfaf9-2106-4224-9d73-39ba42ba7d97"},"vehicle_type_id":"4","last_reported":1739628392,"current_range_meters":34800,"station_id":"ce4bh0p2rcd13ifvqd70","pricing_plan_id":"cebpf4jnsgd1na2vs0mg"},{"bike_id":"c7fffc40-3d64-4a2b-94cc-97c75c080853","system_id":"levelo_inurba_marseille","lat":43.25003,"lon":5.38928,"is_reserved":false,"is_disabled":false,"rental_uris":{"android":"levelo://app?vid=c7fffc40-3d64-4a2b-94cc-97c75c080853","ios":"levelo://app?vid=c7fffc40-3d64-4a2b-94cc-97c75c080853"},"vehicle_type_id":"4","last_reported":1739628392,"current_range_meters":8800,"station_id":"ce4bhgp2rcd13ifvqfd0","pricing_plan_id":"cebpf4jnsgd1na2vs0mg"},{"bike_id":"7ce19e4f-c127-4895-9ad8-43c92fc3fc8b","system_id":"levelo_inurba_marseille","lat":43.230564,"lon":5.354874,"is_reserved":false,"is_disabled":false,"rental_uris":{"android":"levelo://app?vid=7ce19e4f-c127-4895-9ad8-43c92fc3fc8b","ios":"levelo://app?vid=7ce19e4f-c127-4895-9ad8-43c92fc3fc8b"},"vehicle_type_id":"4","last_reported":1739628392,"current_range_meters":16000,"station_id":"cpo3342slgdg3j2ifvpg","pricing_plan_id":"cebpf4jnsgd1na2vs0mg"},{"bike_id":"20b1c36d-31b9-420f-b56d-55fdf8f8b178","system_id":"levelo_inurba_marseille","lat":43.25493,"lon":5.37673,"is_reserved":false,"is_disabled":false,"rental_uris":{"android":"levelo://app?vid=20b1c36d-31b9-420f-b56d-55fdf8f8b178","ios":"levelo://app?vid=20b1c36d-31b9-420f-b56d-55fdf8f8b178"},"vehicle_type_id":"4","last_reported":1739628392,"current_range_meters":12400,"station_id":"ce4bhh12rcd13ifvqff0","pricing_plan_id":"cebpf4jnsgd1na2vs0mg"},{"bike_id":"8036ad8d-9eda-42a5-81e4-4b08a476e342","system_id":"levelo_inurba_marseille","lat":43.29002,"lon":5.35611,"is_reserved":false,"is_disabled":false,"rental_uris":{"android":"levelo://app?vid=8036ad8d-9eda-42a5-81e4-4b08a476e342","ios":"levelo://app?vid=8036ad8d-9eda-42a5-81e4-4b08a476e342"},"vehicle_type_id":"4","last_reported":1739628392,"current_range_meters":5600,"station_id":"ce4bhb92rcd13ifvqen0","pricing_plan_id":"cebpf4jnsgd1na2vs0mg"},{"bike_id":"6bb6fa1f-1c83-47f4-8157-14e0205b7647","system_id":"levelo_inurba_marseille","lat":43.31056,"lon":5.40074,"is_reserved":false,"is_disabled":false,"rental_uris":{"android":"levelo://app?vid=6bb6fa1f-1c83-47f4-8157-14e0205b7647","ios":"levelo://app?vid=6bb6fa1f-1c83-47f4-8157-14e0205b7647"},"vehicle_type_id":"4","last_reported":1739628392,"current_range_meters":27200,"station_id":"","pricing_plan_id":"cebpf4jnsgd1na2vs0mg"},{"bike_id":"0cb5a4cc-0dc7-4436-876e-545ce5dd72fc","system_id":"levelo_inurba_marseille","lat":43.2657,"lon":5.3902,"is_reserved":false,"is_disabled":false,"rental_uris":{"android":"levelo://app?vid=0cb5a4cc-0dc7-4436-876e-545ce5dd72fc","ios":"levelo://app?vid=0cb5a4cc-0dc7-4436-876e-545ce5dd72fc"},"vehicle_type_id":"4","last_reported":1739628392,"current_range_meters":19600,"station_id":"ce4bhe12rcd13ifvqf30","pricing_plan_id":"cebpf4jnsgd1na2vs0mg"},{"bike_id":"3b2bde9a-e21b-4f53-b40f-a6b97bfabe92","system_id":"levelo_inurba_marseille","lat":43.290283,"lon":5.386689,"is_reserved":false,"is_disabled":false,"rental_uris":{"android":"levelo://app?vid=3b2bde9a-e21b-4f53-b40f-a6b97bfabe92","ios":"levelo://app?vid=3b2bde9a-e21b-4f53-b40f-a6b97bfabe92"},"vehicle_type_id":"4","last_reported":1739628392,"current_range_meters":16400,"station_id":"ce4bh4p2rcd13ifvqe0g","pricing_plan_id":"cebpf4jnsgd1na2vs0mg"},{"bike_id":"d4ccd934-9aa2-454a-99b4-3f200842e229","system_id":"levelo_inurba_marseille","lat":43.28406,"lon":5.34987,"is_reserved":false,"is_disabled":false,"rental_uris":{"android":"levelo://app?vid=d4ccd934-9aa2-454a-99b4-3f200842e229","ios":"levelo://app?vid=d4ccd934-9aa2-454a-99b4-3f200842e229"},"vehicle_type_id":"4","last_reported":1739628392,"current_range_meters":32000,"station_id":"ce4bhbh2rcd13ifvqepg","pricing_plan_id":"cebpf4jnsgd1na2vs0mg"},{"bike_id":"d90062e7-a8fa-4cee-9fac-99e2ed535eb1","system_id":"levelo_inurba_marseille","lat":43.2922,"lon":5.36066,"is_reserved":false,"is_disabled":false,"rental_uris":{"android":"levelo://app?vid=d90062e7-a8fa-4cee-9fac-99e2ed535eb1","ios":"levelo://app?vid=d90062e7-a8fa-4cee-9fac-99e2ed535eb1"},"vehicle_type_id":"4","last_reported":1739628392,"current_range_meters":4400,"station_id":"ce4bhbh2rcd13ifvqeqg","pricing_plan_id":"cebpf4jnsgd1na2vs0mg"},{"bike_id":"f88bc96c-cc98-403a-920f-20cb0dddc6e7","system_id":"levelo_inurba_marseille","lat":43.28936,"lon":5.36637,"is_reserved":false,"is_disabled":false,"rental_uris":{"android":"levelo://app?vid=f88bc96c-cc98-403a-920f-20cb0dddc6e7","ios":"levelo://app?vid=f88bc96c-cc98-403a-920f-20cb0dddc6e7"},"vehicle_type_id":"4","last_reported":1739628392,"current_range_meters":26800,"station_id":"ce4bhap2rcd13ifvqek0","pricing_plan_id":"cebpf4jnsgd1na2vs0mg"},{"bike_id":"d2f3f409-5d9d-475b-905c-c0aa09252e0f","system_id":"levelo_inurba_marseille","lat":43.29795,"lon":5.37107,"is_reserved":false,"is_disabled":false,"rental_uris":{"android":"levelo://app?vid=d2f3f409-5d9d-475b-905c-c0aa09252e0f","ios":"levelo://app?vid=d2f3f409-5d9d-475b-905c-c0aa09252e0f"},"vehicle_type_id":"4","last_reported":1739628392,"current_range_meters":38800,"station_id":"ce4bgop2rcd13ifvqc1g","pricing_plan_id":"cebpf4jnsgd1na2vs0mg"},{"bike_id":"fe0f12a8-8d62-4d79-b629-bda6901e6297","system_id":"levelo_inurba_marseille","lat":43.2695,"lon":5.40259,"is_reserved":false,"is_disabled":true,"rental_uris":{"android":"levelo://app?vid=fe0f12a8-8d62-4d79-b629-bda6901e6297","ios":"levelo://app?vid=fe0f12a8-8d62-4d79-b629-bda6901e6297"},"vehicle_type_id":"4","last_reported":1739628392,"current_range_meters":31200,"station_id":"cjm6bp8fraef2m0cb0m0","pricing_plan_id":"cebpf4jnsgd1na2vs0mg"},{"bike_id":"32dc0a9b-13a7-466e-a5f6-a57bb4d27511","system_id":"levelo_inurba_marseille","lat":43.28428,"lon":5.3499,"is_reserved":false,"is_disabled":false,"rental_uris":{"android":"levelo://app?vid=32dc0a9b-13a7-466e-a5f6-a57bb4d27511","ios":"levelo://app?vid=32dc0a9b-13a7-466e-a5f6-a57bb4d27511"},"vehicle_type_id":"4","last_reported":1739628392,"current_range_meters":25600,"station_id":"ce4bhbh2rcd13ifvqepg","pricing_plan_id":"cebpf4jnsgd1na2vs0mg"},{"bike_id":"698af3d4-6ab2-479b-a0cb-42a95e694dcb","system_id":"levelo_inurba_marseille","lat":43.2827,"lon":5.35062,"is_reserved":false,"is_disabled":false,"rental_uris":{"android":"levelo://app?vid=698af3d4-6ab2-479b-a0cb-42a95e694dcb","ios":"levelo://app?vid=698af3d4-6ab2-479b-a0cb-42a95e694dcb"},"vehicle_type_id":"4","last_reported":1739628392,"current_range_meters":38800,"station_id":"ce4bhbp2rcd13ifvqerg","pricing_plan_id":"cebpf4jnsgd1na2vs0mg"},{"bike_id":"5429a055-5c17-4863-ac08-ee7234bc7af8","system_id":"levelo_inurba_marseille","lat":43.32347,"lon":5.36741,"is_reserved":false,"is_disabled":false,"rental_uris":{"android":"levelo://app?vid=5429a055-5c17-4863-ac08-ee7234bc7af8","ios":"levelo://app?vid=5429a055-5c17-4863-ac08-ee7234bc7af8"},"vehicle_type_id":"4","last_reported":1739628392,"current_range_meters":33200,"station_id":"ce4bhsh2rcd13ifvqi2g","pricing_plan_id":"cebpf4jnsgd1na2vs0mg"},{"bike_id":"d2585244-6e73-4d54-bbbc-9369f6e5dd23","system_id":"levelo_inurba_marseille","lat":43.29619,"lon":5.37157,"is_reserved":false,"is_disabled":true,"rental_uris":{"android":"levelo://app?vid=d2585244-6e73-4d54-bbbc-9369f6e5dd23","ios":"levelo://app?vid=d2585244-6e73-4d54-bbbc-9369f6e5dd23"},"vehicle_type_id":"4","last_reported":1739628392,"current_range_meters":38800,"station_id":"ce4bgnh2rcd13ifvqc0g","pricing_plan_id":"cebpf4jnsgd1na2vs0mg"},{"bike_id":"4d6cb0ac-9778-459e-97b8-eb11a2da4450","system_id":"levelo_inurba_marseille","lat":43.28937,"lon":5.36633,"is_reserved":false,"is_disabled":false,"rental_uris":{"android":"levelo://app?vid=4d6cb0ac-9778-459e-97b8-eb11a2da4450","ios":"levelo://app?vid=4d6cb0ac-9778-459e-97b8-eb11a2da4450"},"vehicle_type_id":"4","last_reported":1739628392,"current_range_meters":34800,"station_id":"ce4bhap2rcd13ifvqek0","pricing_plan_id":"cebpf4jnsgd1na2vs0mg"},{"bike_id":"74f3d028-ef7a-4285-9a51-c39538f1bfb0","system_id":"levelo_inurba_marseille","lat":43.29005,"lon":5.35611,"is_reserved":false,"is_disabled":false,"rental_uris":{"android":"levelo://app?vid=74f3d028-ef7a-4285-9a51-c39538f1bfb0","ios":"levelo://app?vid=74f3d028-ef7a-4285-9a51-c39538f1bfb0"},"vehicle_type_id":"4","last_reported":1739628392,"current_range_meters":28800,"station_id":"ce4bhb92rcd13ifvqen0","pricing_plan_id":"cebpf4jnsgd1na2vs0mg"},{"bike_id":"65551c02-da59-4771-9239-11231c445f31","system_id":"levelo_inurba_marseille","lat":43.24391,"lon":5.37069,"is_reserved":false,"is_disabled":false,"rental_uris":{"android":"levelo://app?vid=65551c02-da59-4771-9239-11231c445f31","ios":"levelo://app?vid=65551c02-da59-4771-9239-11231c445f31"},"vehicle_type_id":"4","last_reported":1739628392,"current_range_meters":30400,"station_id":"ce4bhhh2rcd13ifvqfk0","pricing_plan_id":"cebpf4jnsgd1na2vs0mg"},{"bike_id":"9808258e-a380-4783-9ee2-40ae33f1371d","system_id":"levelo_inurba_marseille","lat":43.24389,"lon":5.37051,"is_reserved":false,"is_disabled":false,"rental_uris":{"android":"levelo://app?vid=9808258e-a380-4783-9ee2-40ae33f1371d","ios":"levelo://app?vid=9808258e-a380-4783-9ee2-40ae33f1371d"},"vehicle_type_id":"4","last_reported":1739628392,"current_range_meters":8000,"station_id":"ce4bhhh2rcd13ifvqfk0","pricing_plan_id":"cebpf4jnsgd1na2vs0mg"},{"bike_id":"981f0c84-c763-4744-ab7e-6d6374d30546","system_id":"levelo_inurba_marseille","lat":43.255,"lon":5.37654,"is_reserved":false,"is_disabled":false,"rental_uris":{"android":"levelo://app?vid=981f0c84-c763-4744-ab7e-6d6374d30546","ios":"levelo://app?vid=981f0c84-c763-4744-ab7e-6d6374d30546"},"vehicle_type_id":"4","last_reported":1739628392,"current_range_meters":38800,"station_id":"ce4bhh12rcd13ifvqff0","pricing_plan_id":"cebpf4jnsgd1na2vs0mg"},{"bike_id":"bf0b3e15-232d-4329-8d76-62ec2d61fd50","system_id":"levelo_inurba_marseille","lat":43.26255,"lon":5.37524,"is_reserved":false,"is_disabled":false,"rental_uris":{"android":"levelo://app?vid=bf0b3e15-232d-4329-8d76-62ec2d61fd50","ios":"levelo://app?vid=bf0b3e15-232d-4329-8d76-62ec2d61fd50"},"vehicle_type_id":"4","last_reported":1739628392,"current_range_meters":14400,"station_id":"","pricing_plan_id":"cebpf4jnsgd1na2vs0mg"},{"bike_id":"9b6568a2-5a77-407a-ae9e-2462b1f3c60a","system_id":"levelo_inurba_marseille","lat":43.29843,"lon":5.36277,"is_reserved":false,"is_disabled":false,"rental_uris":{"android":"levelo://app?vid=9b6568a2-5a77-407a-ae9e-2462b1f3c60a","ios":"levelo://app?vid=9b6568a2-5a77-407a-ae9e-2462b1f3c60a"},"vehicle_type_id":"4","last_reported":1739628392,"current_range_meters":19600,"station_id":"ce4bgpp2rcd13ifvqc3g","pricing_plan_id":"cebpf4jnsgd1na2vs0mg"},{"bike_id":"891aa433-187c-4f97-8b95-c3a9bea76680","system_id":"levelo_inurba_marseille","lat":43.28936,"lon":5.36639,"is_reserved":false,"is_disabled":false,"rental_uris":{"android":"levelo://app?vid=891aa433-187c-4f97-8b95-c3a9bea76680","ios":"levelo://app?vid=891aa433-187c-4f97-8b95-c3a9bea76680"},"vehicle_type_id":"4","last_reported":1739628392,"current_range_meters":35200,"station_id":"ce4bhap2rcd13ifvqek0","pricing_plan_id":"cebpf4jnsgd1na2vs0mg"},{"bike_id":"4cb2be0b-fd8b-4302-95d0-0ed32316f59c","system_id":"levelo_inurba_marseille","lat":43.29271,"lon":5.36847,"is_reserved":false,"is_disabled":false,"rental_uris":{"android":"levelo://app?vid=4cb2be0b-fd8b-4302-95d0-0ed32316f59c","ios":"levelo://app?vid=4cb2be0b-fd8b-4302-95d0-0ed32316f59c"},"vehicle_type_id":"4","last_reported":1739628392,"current_range_meters":37600,"station_id":"ce4bhbp2rcd13ifvqesg","pricing_plan_id":"cebpf4jnsgd1na2vs0mg"},{"bike_id":"53b5f8d9-591b-4722-8b93-d03568f78034","system_id":"levelo_inurba_marseille","lat":43.284519,"lon":5.359023,"is_reserved":false,"is_disabled":false,"rental_uris":{"android":"levelo://app?vid=53b5f8d9-591b-4722-8b93-d03568f78034","ios":"levelo://app?vid=53b5f8d9-591b-4722-8b93-d03568f78034"},"vehicle_type_id":"4","last_reported":1739628392,"current_range_meters":25200,"station_id":"ce4bhah2rcd13ifvqei0","pricing_plan_id":"cebpf4jnsgd1na2vs0mg"},{"bike_id":"7e4daf79-5a0d-4e05-adcf-877183ea0c98","system_id":"levelo_inurba_marseille","lat":43.29228,"lon":5.36071,"is_reserved":false,"is_disabled":false,"rental_uris":{"android":"levelo://app?vid=7e4daf79-5a0d-4e05-adcf-877183ea0c98","ios":"levelo://app?vid=7e4daf79-5a0d-4e05-adcf-877183ea0c98"},"vehicle_type_id":"4","last_reported":1739628392,"current_range_meters":22000,"station_id":"ce4bhbh2rcd13ifvqeqg","pricing_plan_id":"cebpf4jnsgd1na2vs0mg"},{"bike_id":"f00620ae-2110-4dbd-a2e7-cd7bf13fe429","system_id":"levelo_inurba_marseille","lat":43.23182,"lon":5.39995,"is_reserved":false,"is_disabled":true,"rental_uris":{"android":"levelo://app?vid=f00620ae-2110-4dbd-a2e7-cd7bf13fe429","ios":"levelo://app?vid=f00620ae-2110-4dbd-a2e7-cd7bf13fe429"},"vehicle_type_id":"4","last_reported":1739628392,"current_range_meters":9200,"station_id":"ce4bhn12rcd13ifvqgqg","pricing_plan_id":"cebpf4jnsgd1na2vs0mg"},{"bike_id":"c0b322e1-6c7c-4f23-82b7-1aa4057d1a73","system_id":"levelo_inurba_marseille","lat":43.28612,"lon":5.35105,"is_reserved":false,"is_disabled":false,"rental_uris":{"android":"levelo://app?vid=c0b322e1-6c7c-4f23-82b7-1aa4057d1a73","ios":"levelo://app?vid=c0b322e1-6c7c-4f23-82b7-1aa4057d1a73"},"vehicle_type_id":"4","last_reported":1739628392,"current_range_meters":22800,"station_id":"ce4bhch2rcd13ifvqeug","pricing_plan_id":"cebpf4jnsgd1na2vs0mg"},{"bike_id":"10ff71fe-52e2-486e-8bf8-d94f4482220a","system_id":"levelo_inurba_marseille","lat":43.2605,"lon":5.39384,"is_reserved":false,"is_disabled":false,"rental_uris":{"android":"levelo://app?vid=10ff71fe-52e2-486e-8bf8-d94f4482220a","ios":"levelo://app?vid=10ff71fe-52e2-486e-8bf8-d94f4482220a"},"vehicle_type_id":"4","last_reported":1739628392,"current_range_meters":33200,"station_id":"ce4bhh92rcd13ifvqfj0","pricing_plan_id":"cebpf4jnsgd1na2vs0mg"},{"bike_id":"ddf1d674-41d6-443f-b0f1-1da7df267862","system_id":"levelo_inurba_marseille","lat":43.2305,"lon":5.35494,"is_reserved":false,"is_disabled":false,"rental_uris":{"android":"levelo://app?vid=ddf1d674-41d6-443f-b0f1-1da7df267862","ios":"levelo://app?vid=ddf1d674-41d6-443f-b0f1-1da7df267862"},"vehicle_type_id":"4","last_reported":1739628392,"current_range_meters":20400,"station_id":"cpo3342slgdg3j2ifvpg","pricing_plan_id":"cebpf4jnsgd1na2vs0mg"},{"bike_id":"c5b6a971-cd43-4128-829e-95d3ee846037","system_id":"levelo_inurba_marseille","lat":43.25118,"lon":5.4032,"is_reserved":false,"is_disabled":false,"rental_uris":{"android":"levelo://app?vid=c5b6a971-cd43-4128-829e-95d3ee846037","ios":"levelo://app?vid=c5b6a971-cd43-4128-829e-95d3ee846037"},"vehicle_type_id":"4","last_reported":1739628392,"current_range_meters":33200,"station_id":"ce4bhlh2rcd13ifvqgig","pricing_plan_id":"cebpf4jnsgd1na2vs0mg"},{"bike_id":"46f7dd7f-3698-4a4b-84b6-cdfa84e75594","system_id":"levelo_inurba_marseille","lat":43.23966,"lon":5.36634,"is_reserved":false,"is_disabled":false,"rental_uris":{"android":"levelo://app?vid=46f7dd7f-3698-4a4b-84b6-cdfa84e75594","ios":"levelo://app?vid=46f7dd7f-3698-4a4b-84b6-cdfa84e75594"},"vehicle_type_id":"4","last_reported":1739628392,"current_range_meters":27200,"station_id":"ce4bhi12rcd13ifvqfp0","pricing_plan_id":"cebpf4jnsgd1na2vs0mg"},{"bike_id":"3657cb3a-8308-44c8-971b-092680d319de","system_id":"levelo_inurba_marseille","lat":43.23189,"lon":5.35533,"is_reserved":false,"is_disabled":false,"rental_uris":{"android":"levelo://app?vid=3657cb3a-8308-44c8-971b-092680d319de","ios":"levelo://app?vid=3657cb3a-8308-44c8-971b-092680d319de"},"vehicle_type_id":"4","last_reported":1739628392,"current_range_meters":14000,"station_id":"ce4bhu92rcd13ifvqi70","pricing_plan_id":"cebpf4jnsgd1na2vs0mg"},{"bike_id":"1bc7d3b2-7e18-407c-ba06-854d04fe0548","system_id":"levelo_inurba_marseille","lat":43.29225,"lon":5.36059,"is_reserved":false,"is_disabled":false,"rental_uris":{"android":"levelo://app?vid=1bc7d3b2-7e18-407c-ba06-854d04fe0548","ios":"levelo://app?vid=1bc7d3b2-7e18-407c-ba06-854d04fe0548"},"vehicle_type_id":"4","last_reported":1739628392,"current_range_meters":35200,"station_id":"ce4bhbh2rcd13ifvqeqg","pricing_plan_id":"cebpf4jnsgd1na2vs0mg"},{"bike_id":"051299f7-a8d9-41a5-b2ea-d656fa7d31ae","system_id":"levelo_inurba_marseille","lat":43.27371,"lon":5.36263,"is_reserved":false,"is_disabled":false,"rental_uris":{"android":"levelo://app?vid=051299f7-a8d9-41a5-b2ea-d656fa7d31ae","ios":"levelo://app?vid=051299f7-a8d9-41a5-b2ea-d656fa7d31ae"},"vehicle_type_id":"4","last_reported":1739628392,"current_range_meters":33600,"station_id":"ce4bhbh2rcd13ifvqeo0","pricing_plan_id":"cebpf4jnsgd1na2vs0mg"},{"bike_id":"43781eb1-2889-4ba8-a4f2-208a747d81be","system_id":"levelo_inurba_marseille","lat":43.26931,"lon":5.40262,"is_reserved":false,"is_disabled":false,"rental_uris":{"android":"levelo://app?vid=43781eb1-2889-4ba8-a4f2-208a747d81be","ios":"levelo://app?vid=43781eb1-2889-4ba8-a4f2-208a747d81be"},"vehicle_type_id":"4","last_reported":1739628392,"current_range_meters":3600,"station_id":"cjm6bp8fraef2m0cb0m0","pricing_plan_id":"cebpf4jnsgd1na2vs0mg"},{"bike_id":"c7508d02-78ec-4921-976e-286a2328136e","system_id":"levelo_inurba_marseille","lat":43.29197,"lon":5.35798,"is_reserved":false,"is_disabled":false,"rental_uris":{"android":"levelo://app?vid=c7508d02-78ec-4921-976e-286a2328136e","ios":"levelo://app?vid=c7508d02-78ec-4921-976e-286a2328136e"},"vehicle_type_id":"4","last_reported":1739628392,"current_range_meters":26000,"station_id":"ce4bhb12rcd13ifvqel0","pricing_plan_id":"cebpf4jnsgd1na2vs0mg"},{"bike_id":"4656852d-4bb4-471f-8086-95c8c9c1a6df","system_id":"levelo_inurba_marseille","lat":43.29004,"lon":5.35603,"is_reserved":false,"is_disabled":false,"rental_uris":{"android":"levelo://app?vid=4656852d-4bb4-471f-8086-95c8c9c1a6df","ios":"levelo://app?vid=4656852d-4bb4-471f-8086-95c8c9c1a6df"},"vehicle_type_id":"4","last_reported":1739628392,"current_range_meters":24400,"station_id":"ce4bhb92rcd13ifvqen0","pricing_plan_id":"cebpf4jnsgd1na2vs0mg"},{"bike_id":"a8bc8483-ceef-456e-92ec-efcc9ae8cb95","system_id":"levelo_inurba_marseille","lat":43.27619,"lon":5.36109,"is_reserved":false,"is_disabled":false,"rental_uris":{"android":"levelo://app?vid=a8bc8483-ceef-456e-92ec-efcc9ae8cb95","ios":"levelo://app?vid=a8bc8483-ceef-456e-92ec-efcc9ae8cb95"},"vehicle_type_id":"4","last_reported":1739628392,"current_range_meters":36000,"station_id":"ce4bgj92rcd13ifvqbe0","pricing_plan_id":"cebpf4jnsgd1na2vs0mg"},{"bike_id":"7c1ef472-42b4-419f-ab5c-b94d789aed3c","system_id":"levelo_inurba_marseille","lat":43.23062,"lon":5.35496,"is_reserved":false,"is_disabled":false,"rental_uris":{"android":"levelo://app?vid=7c1ef472-42b4-419f-ab5c-b94d789aed3c","ios":"levelo://app?vid=7c1ef472-42b4-419f-ab5c-b94d789aed3c"},"vehicle_type_id":"4","last_reported":1739628392,"current_range_meters":27200,"station_id":"cpo3342slgdg3j2ifvpg","pricing_plan_id":"cebpf4jnsgd1na2vs0mg"},{"bike_id":"a8017328-44a8-4006-b03e-0aa939147b84","system_id":"levelo_inurba_marseille","lat":43.23052,"lon":5.35491,"is_reserved":false,"is_disabled":false,"rental_uris":{"android":"levelo://app?vid=a8017328-44a8-4006-b03e-0aa939147b84","ios":"levelo://app?vid=a8017328-44a8-4006-b03e-0aa939147b84"},"vehicle_type_id":"4","last_reported":1739628392,"current_range_meters":6400,"station_id":"cpo3342slgdg3j2ifvpg","pricing_plan_id":"cebpf4jnsgd1na2vs0mg"},{"bike_id":"43dc5574-eed0-4b1d-9289-f32002400d84","system_id":"levelo_inurba_marseille","lat":43.24173,"lon":5.36403,"is_reserved":false,"is_disabled":false,"rental_uris":{"android":"levelo://app?vid=43dc5574-eed0-4b1d-9289-f32002400d84","ios":"levelo://app?vid=43dc5574-eed0-4b1d-9289-f32002400d84"},"vehicle_type_id":"4","last_reported":1739628392,"current_range_meters":11200,"station_id":"cpo36qri1sfpv3e86is0","pricing_plan_id":"cebpf4jnsgd1na2vs0mg"},{"bike_id":"b7675672-ea91-4212-a3c2-1e75ea117425","system_id":"levelo_inurba_marseille","lat":43.28153,"lon":5.42634,"is_reserved":false,"is_disabled":true,"rental_uris":{"android":"levelo://app?vid=b7675672-ea91-4212-a3c2-1e75ea117425","ios":"levelo://app?vid=b7675672-ea91-4212-a3c2-1e75ea117425"},"vehicle_type_id":"4","last_reported":1739628392,"current_range_meters":0,"station_id":"ce4bhnh2rcd13ifvqgug","pricing_plan_id":"cebpf4jnsgd1na2vs0mg"},{"bike_id":"90ee741f-dc36-43ba-a93f-115ce104ab5f","system_id":"levelo_inurba_marseille","lat":43.24163,"lon":5.36412,"is_reserved":false,"is_disabled":false,"rental_uris":{"android":"levelo://app?vid=90ee741f-dc36-43ba-a93f-115ce104ab5f","ios":"levelo://app?vid=90ee741f-dc36-43ba-a93f-115ce104ab5f"},"vehicle_type_id":"4","last_reported":1739628392,"current_range_meters":38800,"station_id":"cpo36qri1sfpv3e86is0","pricing_plan_id":"cebpf4jnsgd1na2vs0mg"},{"bike_id":"d6babad5-2686-429b-b30a-a7ac3321688e","system_id":"levelo_inurba_marseille","lat":43.27614,"lon":5.36114,"is_reserved":false,"is_disabled":false,"rental_uris":{"android":"levelo://app?vid=d6babad5-2686-429b-b30a-a7ac3321688e","ios":"levelo://app?vid=d6babad5-2686-429b-b30a-a7ac3321688e"},"vehicle_type_id":"4","last_reported":1739628392,"current_range_meters":37600,"station_id":"ce4bgj92rcd13ifvqbe0","pricing_plan_id":"cebpf4jnsgd1na2vs0mg"},{"bike_id":"13af69ef-c2ac-470a-8ede-93b229003cdd","system_id":"levelo_inurba_marseille","lat":43.29217,"lon":5.36059,"is_reserved":false,"is_disabled":false,"rental_uris":{"android":"levelo://app?vid=13af69ef-c2ac-470a-8ede-93b229003cdd","ios":"levelo://app?vid=13af69ef-c2ac-470a-8ede-93b229003cdd"},"vehicle_type_id":"4","last_reported":1739628392,"current_range_meters":38000,"station_id":"ce4bhbh2rcd13ifvqeqg","pricing_plan_id":"cebpf4jnsgd1na2vs0mg"},{"bike_id":"b696fb9a-fd2e-4b9d-b736-b554f42a1dc6","system_id":"levelo_inurba_marseille","lat":43.30535,"lon":5.36551,"is_reserved":false,"is_disabled":false,"rental_uris":{"android":"levelo://app?vid=b696fb9a-fd2e-4b9d-b736-b554f42a1dc6","ios":"levelo://app?vid=b696fb9a-fd2e-4b9d-b736-b554f42a1dc6"},"vehicle_type_id":"4","last_reported":1739628392,"current_range_meters":32800,"station_id":"ce4bgs12rcd13ifvqcag","pricing_plan_id":"cebpf4jnsgd1na2vs0mg"},{"bike_id":"9bcc3779-160f-4f11-a908-15bc41b1ac43","system_id":"levelo_inurba_marseille","lat":43.27985,"lon":5.40007,"is_reserved":false,"is_disabled":true,"rental_uris":{"android":"levelo://app?vid=9bcc3779-160f-4f11-a908-15bc41b1ac43","ios":"levelo://app?vid=9bcc3779-160f-4f11-a908-15bc41b1ac43"},"vehicle_type_id":"4","last_reported":1739628392,"current_range_meters":6800,"station_id":"ce4bho92rcd13ifvqh4g","pricing_plan_id":"cebpf4jnsgd1na2vs0mg"},{"bike_id":"3c64c24f-16f7-46ec-b068-15fe4ebda356","system_id":"levelo_inurba_marseille","lat":43.29493,"lon":5.36395,"is_reserved":false,"is_disabled":true,"rental_uris":{"android":"levelo://app?vid=3c64c24f-16f7-46ec-b068-15fe4ebda356","ios":"levelo://app?vid=3c64c24f-16f7-46ec-b068-15fe4ebda356"},"vehicle_type_id":"4","last_reported":1739628392,"current_range_meters":22000,"station_id":"","pricing_plan_id":"cebpf4jnsgd1na2vs0mg"},{"bike_id":"07103950-cfc8-4b51-a67a-cac3df3ef5e7","system_id":"levelo_inurba_marseille","lat":43.24068,"lon":5.37764,"is_reserved":false,"is_disabled":false,"rental_uris":{"android":"levelo://app?vid=07103950-cfc8-4b51-a67a-cac3df3ef5e7","ios":"levelo://app?vid=07103950-cfc8-4b51-a67a-cac3df3ef5e7"},"vehicle_type_id":"4","last_reported":1739628392,"current_range_meters":28800,"station_id":"ce4bhnp2rcd13ifvqgvg","pricing_plan_id":"cebpf4jnsgd1na2vs0mg"},{"bike_id":"62bdf77c-bcdd-4925-854b-4d4288bbe395","system_id":"levelo_inurba_marseille","lat":43.293767,"lon":5.378501,"is_reserved":false,"is_disabled":false,"rental_uris":{"android":"levelo://app?vid=62bdf77c-bcdd-4925-854b-4d4288bbe395","ios":"levelo://app?vid=62bdf77c-bcdd-4925-854b-4d4288bbe395"},"vehicle_type_id":"4","last_reported":1739628392,"current_range_meters":38000,"station_id":"ce4bgjh2rcd13ifvqbf0","pricing_plan_id":"cebpf4jnsgd1na2vs0mg"},{"bike_id":"71a8497c-c4cd-445c-a575-ac60d89e7360","system_id":"levelo_inurba_marseille","lat":43.24801,"lon":5.37462,"is_reserved":false,"is_disabled":false,"rental_uris":{"android":"levelo://app?vid=71a8497c-c4cd-445c-a575-ac60d89e7360","ios":"levelo://app?vid=71a8497c-c4cd-445c-a575-ac60d89e7360"},"vehicle_type_id":"4","last_reported":1739628392,"current_range_meters":18000,"station_id":"ce4bhgh2rcd13ifvqfb0","pricing_plan_id":"cebpf4jnsgd1na2vs0mg"},{"bike_id":"f66f74df-96d8-4ce3-87c1-7f9b86778635","system_id":"levelo_inurba_marseille","lat":43.22935,"lon":5.35374,"is_reserved":false,"is_disabled":false,"rental_uris":{"android":"levelo://app?vid=f66f74df-96d8-4ce3-87c1-7f9b86778635","ios":"levelo://app?vid=f66f74df-96d8-4ce3-87c1-7f9b86778635"},"vehicle_type_id":"4","last_reported":1739628392,"current_range_meters":22800,"station_id":"cpo3532slgdg3j2ikp40","pricing_plan_id":"cebpf4jnsgd1na2vs0mg"},{"bike_id":"e031351b-efdb-4640-8255-b69e1640bbff","system_id":"levelo_inurba_marseille","lat":43.24165,"lon":5.36391,"is_reserved":false,"is_disabled":false,"rental_uris":{"android":"levelo://app?vid=e031351b-efdb-4640-8255-b69e1640bbff","ios":"levelo://app?vid=e031351b-efdb-4640-8255-b69e1640bbff"},"vehicle_type_id":"4","last_reported":1739628392,"current_range_meters":30000,"station_id":"cpo36qri1sfpv3e86is0","pricing_plan_id":"cebpf4jnsgd1na2vs0mg"},{"bike_id":"9ebb5a9d-4361-463e-bf9a-89d36f38d7f0","system_id":"levelo_inurba_marseille","lat":43.27427,"lon":5.39403,"is_reserved":false,"is_disabled":true,"rental_uris":{"android":"levelo://app?vid=9ebb5a9d-4361-463e-bf9a-89d36f38d7f0","ios":"levelo://app?vid=9ebb5a9d-4361-463e-bf9a-89d36f38d7f0"},"vehicle_type_id":"4","last_reported":1739628392,"current_range_meters":2000,"station_id":"ce4bhdp2rcd13ifvqf20","pricing_plan_id":"cebpf4jnsgd1na2vs0mg"},{"bike_id":"81d65c80-967d-4bfa-bcbf-027e68d034d9","system_id":"levelo_inurba_marseille","lat":43.29848,"lon":5.36286,"is_reserved":false,"is_disabled":false,"rental_uris":{"android":"levelo://app?vid=81d65c80-967d-4bfa-bcbf-027e68d034d9","ios":"levelo://app?vid=81d65c80-967d-4bfa-bcbf-027e68d034d9"},"vehicle_type_id":"4","last_reported":1739628392,"current_range_meters":36400,"station_id":"ce4bgpp2rcd13ifvqc3g","pricing_plan_id":"cebpf4jnsgd1na2vs0mg"},{"bike_id":"abc5a5d7-7aaa-4f21-90f0-4be14faa3a2a","system_id":"levelo_inurba_marseille","lat":43.23052,"lon":5.35486,"is_reserved":false,"is_disabled":false,"rental_uris":{"android":"levelo://app?vid=abc5a5d7-7aaa-4f21-90f0-4be14faa3a2a","ios":"levelo://app?vid=abc5a5d7-7aaa-4f21-90f0-4be14faa3a2a"},"vehicle_type_id":"4","last_reported":1739628392,"current_range_meters":16800,"station_id":"cpo3342slgdg3j2ifvpg","pricing_plan_id":"cebpf4jnsgd1na2vs0mg"},{"bike_id":"eeb183ab-8558-448d-af48-048fbdd7b938","system_id":"levelo_inurba_marseille","lat":43.29003,"lon":5.35608,"is_reserved":false,"is_disabled":false,"rental_uris":{"android":"levelo://app?vid=eeb183ab-8558-448d-af48-048fbdd7b938","ios":"levelo://app?vid=eeb183ab-8558-448d-af48-048fbdd7b938"},"vehicle_type_id":"4","last_reported":1739628392,"current_range_meters":38800,"station_id":"ce4bhb92rcd13ifvqen0","pricing_plan_id":"cebpf4jnsgd1na2vs0mg"},{"bike_id":"8b6eea28-36ba-41d2-8cf4-64ef71815ead","system_id":"levelo_inurba_marseille","lat":43.27916,"lon":5.39575,"is_reserved":false,"is_disabled":false,"rental_uris":{"android":"levelo://app?vid=8b6eea28-36ba-41d2-8cf4-64ef71815ead","ios":"levelo://app?vid=8b6eea28-36ba-41d2-8cf4-64ef71815ead"},"vehicle_type_id":"4","last_reported":1739628392,"current_range_meters":11600,"station_id":"ce4bhf92rcd13ifvqf40","pricing_plan_id":"cebpf4jnsgd1na2vs0mg"},{"bike_id":"ad4af932-f51b-41b8-983b-7e431dcc24a9","system_id":"levelo_inurba_marseille","lat":43.337444,"lon":5.374475,"is_reserved":false,"is_disabled":true,"rental_uris":{"android":"levelo://app?vid=ad4af932-f51b-41b8-983b-7e431dcc24a9","ios":"levelo://app?vid=ad4af932-f51b-41b8-983b-7e431dcc24a9"},"vehicle_type_id":"4","last_reported":1739628392,"current_range_meters":0,"station_id":"","pricing_plan_id":"cebpf4jnsgd1na2vs0mg"},{"bike_id":"95d42703-1a37-4cb4-8b06-69616f6b8e6d","system_id":"levelo_inurba_marseille","lat":43.27686,"lon":5.38871,"is_reserved":false,"is_disabled":true,"rental_uris":{"android":"levelo://app?vid=95d42703-1a37-4cb4-8b06-69616f6b8e6d","ios":"levelo://app?vid=95d42703-1a37-4cb4-8b06-69616f6b8e6d"},"vehicle_type_id":"4","last_reported":1739628392,"current_range_meters":37600,"station_id":"ce4bhi12rcd13ifvqfo0","pricing_plan_id":"cebpf4jnsgd1na2vs0mg"},{"bike_id":"492bcbb6-9023-4459-9b9d-6ec125624bb4","system_id":"levelo_inurba_marseille","lat":43.25498,"lon":5.37651,"is_reserved":false,"is_disabled":false,"rental_uris":{"android":"levelo://app?vid=492bcbb6-9023-4459-9b9d-6ec125624bb4","ios":"levelo://app?vid=492bcbb6-9023-4459-9b9d-6ec125624bb4"},"vehicle_type_id":"4","last_reported":1739628392,"current_range_meters":38800,"station_id":"ce4bhh12rcd13ifvqff0","pricing_plan_id":"cebpf4jnsgd1na2vs0mg"},{"bike_id":"dfb8b4bf-66b7-4f69-91ef-2703e7099d0d","system_id":"levelo_inurba_marseille","lat":43.2679,"lon":5.39422,"is_reserved":false,"is_disabled":true,"rental_uris":{"android":"levelo://app?vid=dfb8b4bf-66b7-4f69-91ef-2703e7099d0d","ios":"levelo://app?vid=dfb8b4bf-66b7-4f69-91ef-2703e7099d0d"},"vehicle_type_id":"4","last_reported":1739628392,"current_range_meters":4400,"station_id":"ce4bhh12rcd13ifvqfg0","pricing_plan_id":"cebpf4jnsgd1na2vs0mg"},{"bike_id":"7ff9ff3f-a8d2-44e6-9dcf-92005bc23b74","system_id":"levelo_inurba_marseille","lat":43.29849,"lon":5.36291,"is_reserved":false,"is_disabled":false,"rental_uris":{"android":"levelo://app?vid=7ff9ff3f-a8d2-44e6-9dcf-92005bc23b74","ios":"levelo://app?vid=7ff9ff3f-a8d2-44e6-9dcf-92005bc23b74"},"vehicle_type_id":"4","last_reported":1739628392,"current_range_meters":24400,"station_id":"ce4bgpp2rcd13ifvqc3g","pricing_plan_id":"cebpf4jnsgd1na2vs0mg"},{"bike_id":"3893b19f-ff96-4eec-9ace-a6c59815c4d1","system_id":"levelo_inurba_marseille","lat":43.28997,"lon":5.35602,"is_reserved":false,"is_disabled":false,"rental_uris":{"android":"levelo://app?vid=3893b19f-ff96-4eec-9ace-a6c59815c4d1","ios":"levelo://app?vid=3893b19f-ff96-4eec-9ace-a6c59815c4d1"},"vehicle_type_id":"4","last_reported":1739628392,"current_range_meters":38800,"station_id":"ce4bhb92rcd13ifvqen0","pricing_plan_id":"cebpf4jnsgd1na2vs0mg"},{"bike_id":"aeb403d4-9cef-44b2-b32c-cb912f49efa3","system_id":"levelo_inurba_marseille","lat":43.23195,"lon":5.35545,"is_reserved":false,"is_disabled":false,"rental_uris":{"android":"levelo://app?vid=aeb403d4-9cef-44b2-b32c-cb912f49efa3","ios":"levelo://app?vid=aeb403d4-9cef-44b2-b32c-cb912f49efa3"},"vehicle_type_id":"4","last_reported":1739628392,"current_range_meters":33600,"station_id":"ce4bhu92rcd13ifvqi70","pricing_plan_id":"cebpf4jnsgd1na2vs0mg"},{"bike_id":"78c0286a-3fcf-4fc8-8041-6d2126c606f0","system_id":"levelo_inurba_marseille","lat":43.28928,"lon":5.36332,"is_reserved":false,"is_disabled":false,"rental_uris":{"android":"levelo://app?vid=78c0286a-3fcf-4fc8-8041-6d2126c606f0","ios":"levelo://app?vid=78c0286a-3fcf-4fc8-8041-6d2126c606f0"},"vehicle_type_id":"4","last_reported":1739628392,"current_range_meters":37600,"station_id":"ce4bgkp2rcd13ifvqbmg","pricing_plan_id":"cebpf4jnsgd1na2vs0mg"},{"bike_id":"f00a432d-6e5e-4ca0-a2b9-2ac1fcc4c4f4","system_id":"levelo_inurba_marseille","lat":43.27998,"lon":5.39994,"is_reserved":false,"is_disabled":false,"rental_uris":{"android":"levelo://app?vid=f00a432d-6e5e-4ca0-a2b9-2ac1fcc4c4f4","ios":"levelo://app?vid=f00a432d-6e5e-4ca0-a2b9-2ac1fcc4c4f4"},"vehicle_type_id":"4","last_reported":1739628392,"current_range_meters":38800,"station_id":"ce4bho92rcd13ifvqh4g","pricing_plan_id":"cebpf4jnsgd1na2vs0mg"},{"bike_id":"201b0315-f60e-45b0-a64d-ce13682f54e1","system_id":"levelo_inurba_marseille","lat":43.29025,"lon":5.35915,"is_reserved":false,"is_disabled":false,"rental_uris":{"android":"levelo://app?vid=201b0315-f60e-45b0-a64d-ce13682f54e1","ios":"levelo://app?vid=201b0315-f60e-45b0-a64d-ce13682f54e1"},"vehicle_type_id":"4","last_reported":1739628392,"current_range_meters":39200,"station_id":"ce4bha92rcd13ifvqeg0","pricing_plan_id":"cebpf4jnsgd1na2vs0mg"},{"bike_id":"63ea1146-6635-4ab9-8ded-196ccb45282d","system_id":"levelo_inurba_marseille","lat":43.23059,"lon":5.35495,"is_reserved":false,"is_disabled":false,"rental_uris":{"android":"levelo://app?vid=63ea1146-6635-4ab9-8ded-196ccb45282d","ios":"levelo://app?vid=63ea1146-6635-4ab9-8ded-196ccb45282d"},"vehicle_type_id":"4","last_reported":1739628392,"current_range_meters":17200,"station_id":"cpo3342slgdg3j2ifvpg","pricing_plan_id":"cebpf4jnsgd1na2vs0mg"},{"bike_id":"076459a0-f045-4288-b5e6-f76a8dd2fa74","system_id":"levelo_inurba_marseille","lat":43.26946,"lon":5.40236,"is_reserved":false,"is_disabled":false,"rental_uris":{"android":"levelo://app?vid=076459a0-f045-4288-b5e6-f76a8dd2fa74","ios":"levelo://app?vid=076459a0-f045-4288-b5e6-f76a8dd2fa74"},"vehicle_type_id":"4","last_reported":1739628392,"current_range_meters":18800,"station_id":"cjm6bp8fraef2m0cb0m0","pricing_plan_id":"cebpf4jnsgd1na2vs0mg"},{"bike_id":"a0e883bd-8f45-4a9b-841f-7dd4e6c67be8","system_id":"levelo_inurba_marseille","lat":43.28415,"lon":5.34976,"is_reserved":false,"is_disabled":false,"rental_uris":{"android":"levelo://app?vid=a0e883bd-8f45-4a9b-841f-7dd4e6c67be8","ios":"levelo://app?vid=a0e883bd-8f45-4a9b-841f-7dd4e6c67be8"},"vehicle_type_id":"4","last_reported":1739628392,"current_range_meters":31200,"station_id":"ce4bhbh2rcd13ifvqepg","pricing_plan_id":"cebpf4jnsgd1na2vs0mg"},{"bike_id":"caec9f61-b6a4-40a8-847e-7b907ae08f34","system_id":"levelo_inurba_marseille","lat":43.24807,"lon":5.37457,"is_reserved":false,"is_disabled":false,"rental_uris":{"android":"levelo://app?vid=caec9f61-b6a4-40a8-847e-7b907ae08f34","ios":"levelo://app?vid=caec9f61-b6a4-40a8-847e-7b907ae08f34"},"vehicle_type_id":"4","last_reported":1739628392,"current_range_meters":39200,"station_id":"ce4bhgh2rcd13ifvqfb0","pricing_plan_id":"cebpf4jnsgd1na2vs0mg"},{"bike_id":"c1665b9a-8804-49fb-a2e7-87ab5bdd8b6d","system_id":"levelo_inurba_marseille","lat":43.33727,"lon":5.39172,"is_reserved":false,"is_disabled":false,"rental_uris":{"android":"levelo://app?vid=c1665b9a-8804-49fb-a2e7-87ab5bdd8b6d","ios":"levelo://app?vid=c1665b9a-8804-49fb-a2e7-87ab5bdd8b6d"},"vehicle_type_id":"4","last_reported":1739628392,"current_range_meters":38800,"station_id":"ce4bhr92rcd13ifvqhsg","pricing_plan_id":"cebpf4jnsgd1na2vs0mg"},{"bike_id":"69104ce2-7a46-41f5-8e26-e48804d58d7a","system_id":"levelo_inurba_marseille","lat":43.29002,"lon":5.3562,"is_reserved":false,"is_disabled":false,"rental_uris":{"android":"levelo://app?vid=69104ce2-7a46-41f5-8e26-e48804d58d7a","ios":"levelo://app?vid=69104ce2-7a46-41f5-8e26-e48804d58d7a"},"vehicle_type_id":"4","last_reported":1739628392,"current_range_meters":35600,"station_id":"ce4bhb92rcd13ifvqen0","pricing_plan_id":"cebpf4jnsgd1na2vs0mg"},{"bike_id":"5c381eca-4257-4fd5-9296-339ca91bf680","system_id":"levelo_inurba_marseille","lat":43.31981,"lon":5.3816,"is_reserved":false,"is_disabled":true,"rental_uris":{"android":"levelo://app?vid=5c381eca-4257-4fd5-9296-339ca91bf680","ios":"levelo://app?vid=5c381eca-4257-4fd5-9296-339ca91bf680"},"vehicle_type_id":"4","last_reported":1739628392,"current_range_meters":800,"station_id":"ce4bhr12rcd13ifvqhpg","pricing_plan_id":"cebpf4jnsgd1na2vs0mg"},{"bike_id":"a0713cb5-5fe9-4704-a0e5-dc6b02f9fd05","system_id":"levelo_inurba_marseille","lat":43.27057,"lon":5.40263,"is_reserved":false,"is_disabled":false,"rental_uris":{"android":"levelo://app?vid=a0713cb5-5fe9-4704-a0e5-dc6b02f9fd05","ios":"levelo://app?vid=a0713cb5-5fe9-4704-a0e5-dc6b02f9fd05"},"vehicle_type_id":"4","last_reported":1739628392,"current_range_meters":17600,"station_id":"ce4bhk92rcd13ifvqgc0","pricing_plan_id":"cebpf4jnsgd1na2vs0mg"},{"bike_id":"282211ad-bbca-4d13-9801-d0ebb9c1483d","system_id":"levelo_inurba_marseille","lat":43.29552,"lon":5.42286,"is_reserved":false,"is_disabled":false,"rental_uris":{"android":"levelo://app?vid=282211ad-bbca-4d13-9801-d0ebb9c1483d","ios":"levelo://app?vid=282211ad-bbca-4d13-9801-d0ebb9c1483d"},"vehicle_type_id":"4","last_reported":1739628392,"current_range_meters":25600,"station_id":"ce4bhph2rcd13ifvqhdg","pricing_plan_id":"cebpf4jnsgd1na2vs0mg"},{"bike_id":"7f775eba-7304-4cdf-8047-edf74d1d8606","system_id":"levelo_inurba_marseille","lat":43.30537,"lon":5.36536,"is_reserved":false,"is_disabled":false,"rental_uris":{"android":"levelo://app?vid=7f775eba-7304-4cdf-8047-edf74d1d8606","ios":"levelo://app?vid=7f775eba-7304-4cdf-8047-edf74d1d8606"},"vehicle_type_id":"4","last_reported":1739628392,"current_range_meters":28000,"station_id":"ce4bgs12rcd13ifvqcag","pricing_plan_id":"cebpf4jnsgd1na2vs0mg"},{"bike_id":"d157203c-3a5b-4bbc-9638-6eefce740d5e","system_id":"levelo_inurba_marseille","lat":43.231997,"lon":5.355531,"is_reserved":false,"is_disabled":false,"rental_uris":{"android":"levelo://app?vid=d157203c-3a5b-4bbc-9638-6eefce740d5e","ios":"levelo://app?vid=d157203c-3a5b-4bbc-9638-6eefce740d5e"},"vehicle_type_id":"4","last_reported":1739628392,"current_range_meters":24800,"station_id":"ce4bhu92rcd13ifvqi70","pricing_plan_id":"cebpf4jnsgd1na2vs0mg"},{"bike_id":"ab761f08-1e0a-4231-9bcc-bde3a6c90930","system_id":"levelo_inurba_marseille","lat":43.29963,"lon":5.41337,"is_reserved":false,"is_disabled":false,"rental_uris":{"android":"levelo://app?vid=ab761f08-1e0a-4231-9bcc-bde3a6c90930","ios":"levelo://app?vid=ab761f08-1e0a-4231-9bcc-bde3a6c90930"},"vehicle_type_id":"4","last_reported":1739628392,"current_range_meters":38800,"station_id":"ce4bhp12rcd13ifvqh9g","pricing_plan_id":"cebpf4jnsgd1na2vs0mg"},{"bike_id":"3067cc11-ea3d-4497-a8fa-3717c9b08d94","system_id":"levelo_inurba_marseille","lat":43.273066,"lon":5.391291,"is_reserved":false,"is_disabled":true,"rental_uris":{"android":"levelo://app?vid=3067cc11-ea3d-4497-a8fa-3717c9b08d94","ios":"levelo://app?vid=3067cc11-ea3d-4497-a8fa-3717c9b08d94"},"vehicle_type_id":"4","last_reported":1739628392,"current_range_meters":38000,"station_id":"ce4bhgp2rcd13ifvqfe0","pricing_plan_id":"cebpf4jnsgd1na2vs0mg"},{"bike_id":"6a2bb3c9-0567-4da7-8fd1-380f62448aab","system_id":"levelo_inurba_marseille","lat":43.229277,"lon":5.353761,"is_reserved":false,"is_disabled":false,"rental_uris":{"android":"levelo://app?vid=6a2bb3c9-0567-4da7-8fd1-380f62448aab","ios":"levelo://app?vid=6a2bb3c9-0567-4da7-8fd1-380f62448aab"},"vehicle_type_id":"4","last_reported":1739628392,"current_range_meters":20000,"station_id":"cpo3532slgdg3j2ikp40","pricing_plan_id":"cebpf4jnsgd1na2vs0mg"},{"bike_id":"e0a7e71d-dc2f-4b1e-9aa8-6dab872d7df0","system_id":"levelo_inurba_marseille","lat":43.24648,"lon":5.38894,"is_reserved":false,"is_disabled":false,"rental_uris":{"android":"levelo://app?vid=e0a7e71d-dc2f-4b1e-9aa8-6dab872d7df0","ios":"levelo://app?vid=e0a7e71d-dc2f-4b1e-9aa8-6dab872d7df0"},"vehicle_type_id":"4","last_reported":1739628392,"current_range_meters":38800,"station_id":"ce4bhg12rcd13ifvqf60","pricing_plan_id":"cebpf4jnsgd1na2vs0mg"},{"bike_id":"d80860fa-7cf7-4ae7-befb-26e8065381a1","system_id":"levelo_inurba_marseille","lat":43.23207,"lon":5.35546,"is_reserved":false,"is_disabled":false,"rental_uris":{"android":"levelo://app?vid=d80860fa-7cf7-4ae7-befb-26e8065381a1","ios":"levelo://app?vid=d80860fa-7cf7-4ae7-befb-26e8065381a1"},"vehicle_type_id":"4","last_reported":1739628392,"current_range_meters":22400,"station_id":"ce4bhu92rcd13ifvqi70","pricing_plan_id":"cebpf4jnsgd1na2vs0mg"},{"bike_id":"105d9f63-3158-4a58-8927-d8e5c0881db6","system_id":"levelo_inurba_marseille","lat":43.31712,"lon":5.43713,"is_reserved":false,"is_disabled":false,"rental_uris":{"android":"levelo://app?vid=105d9f63-3158-4a58-8927-d8e5c0881db6","ios":"levelo://app?vid=105d9f63-3158-4a58-8927-d8e5c0881db6"},"vehicle_type_id":"4","last_reported":1739628392,"current_range_meters":28800,"station_id":"ce4bhp92rcd13ifvqhcg","pricing_plan_id":"cebpf4jnsgd1na2vs0mg"},{"bike_id":"9affa36b-20e9-45fc-a43b-0609d7cb9d1a","system_id":"levelo_inurba_marseille","lat":43.29059,"lon":5.39955,"is_reserved":false,"is_disabled":false,"rental_uris":{"android":"levelo://app?vid=9affa36b-20e9-45fc-a43b-0609d7cb9d1a","ios":"levelo://app?vid=9affa36b-20e9-45fc-a43b-0609d7cb9d1a"},"vehicle_type_id":"4","last_reported":1739628392,"current_range_meters":29600,"station_id":"ce4bh392rcd13ifvqdm0","pricing_plan_id":"cebpf4jnsgd1na2vs0mg"},{"bike_id":"7fbc73d1-9fd4-4110-b91c-2da795de64af","system_id":"levelo_inurba_marseille","lat":43.25725,"lon":5.41098,"is_reserved":false,"is_disabled":false,"rental_uris":{"android":"levelo://app?vid=7fbc73d1-9fd4-4110-b91c-2da795de64af","ios":"levelo://app?vid=7fbc73d1-9fd4-4110-b91c-2da795de64af"},"vehicle_type_id":"4","last_reported":1739628392,"current_range_meters":36000,"station_id":"ce4bhkp2rcd13ifvqgd0","pricing_plan_id":"cebpf4jnsgd1na2vs0mg"},{"bike_id":"47ef3a27-cf04-4369-bc44-2fee4bbfaa10","system_id":"levelo_inurba_marseille","lat":43.24686,"lon":5.38134,"is_reserved":false,"is_disabled":true,"rental_uris":{"android":"levelo://app?vid=47ef3a27-cf04-4369-bc44-2fee4bbfaa10","ios":"levelo://app?vid=47ef3a27-cf04-4369-bc44-2fee4bbfaa10"},"vehicle_type_id":"4","last_reported":1739628392,"current_range_meters":14400,"station_id":"ce4bhih2rcd13ifvqfr0","pricing_plan_id":"cebpf4jnsgd1na2vs0mg"},{"bike_id":"102faded-26f9-4ebc-b701-33d277912a5a","system_id":"levelo_inurba_marseille","lat":43.24391,"lon":5.37063,"is_reserved":false,"is_disabled":true,"rental_uris":{"android":"levelo://app?vid=102faded-26f9-4ebc-b701-33d277912a5a","ios":"levelo://app?vid=102faded-26f9-4ebc-b701-33d277912a5a"},"vehicle_type_id":"4","last_reported":1739628392,"current_range_meters":0,"station_id":"ce4bhhh2rcd13ifvqfk0","pricing_plan_id":"cebpf4jnsgd1na2vs0mg"},{"bike_id":"ce4f4277-5b34-4550-a49e-20c07d7f8834","system_id":"levelo_inurba_marseille","lat":43.22935,"lon":5.3538,"is_reserved":false,"is_disabled":false,"rental_uris":{"android":"levelo://app?vid=ce4f4277-5b34-4550-a49e-20c07d7f8834","ios":"levelo://app?vid=ce4f4277-5b34-4550-a49e-20c07d7f8834"},"vehicle_type_id":"4","last_reported":1739628392,"current_range_meters":18000,"station_id":"cpo3532slgdg3j2ikp40","pricing_plan_id":"cebpf4jnsgd1na2vs0mg"},{"bike_id":"9322770b-9ac7-49d9-9440-25a8d78cedc3","system_id":"levelo_inurba_marseille","lat":43.27319,"lon":5.39075,"is_reserved":false,"is_disabled":false,"rental_uris":{"android":"levelo://app?vid=9322770b-9ac7-49d9-9440-25a8d78cedc3","ios":"levelo://app?vid=9322770b-9ac7-49d9-9440-25a8d78cedc3"},"vehicle_type_id":"4","last_reported":1739628392,"current_range_meters":29600,"station_id":"ce4bhgp2rcd13ifvqfe0","pricing_plan_id":"cebpf4jnsgd1na2vs0mg"},{"bike_id":"ce0ae84b-face-4797-816b-f3c7c9ed1f05","system_id":"levelo_inurba_marseille","lat":43.29192,"lon":5.39317,"is_reserved":false,"is_disabled":false,"rental_uris":{"android":"levelo://app?vid=ce0ae84b-face-4797-816b-f3c7c9ed1f05","ios":"levelo://app?vid=ce0ae84b-face-4797-816b-f3c7c9ed1f05"},"vehicle_type_id":"4","last_reported":1739628392,"current_range_meters":7200,"station_id":"ce4bh192rcd13ifvqdd0","pricing_plan_id":"cebpf4jnsgd1na2vs0mg"},{"bike_id":"9595037c-e448-4190-9104-892406905695","system_id":"levelo_inurba_marseille","lat":43.26491,"lon":5.39549,"is_reserved":false,"is_disabled":false,"rental_uris":{"android":"levelo://app?vid=9595037c-e448-4190-9104-892406905695","ios":"levelo://app?vid=9595037c-e448-4190-9104-892406905695"},"vehicle_type_id":"4","last_reported":1739628392,"current_range_meters":30000,"station_id":"ce4bhi12rcd13ifvqfq0","pricing_plan_id":"cebpf4jnsgd1na2vs0mg"},{"bike_id":"7324a39c-46eb-4274-9bc8-c87c280daa98","system_id":"levelo_inurba_marseille","lat":43.25577,"lon":5.3823,"is_reserved":false,"is_disabled":false,"rental_uris":{"android":"levelo://app?vid=7324a39c-46eb-4274-9bc8-c87c280daa98","ios":"levelo://app?vid=7324a39c-46eb-4274-9bc8-c87c280daa98"},"vehicle_type_id":"4","last_reported":1739628392,"current_range_meters":38400,"station_id":"ce4bhih2rcd13ifvqfs0","pricing_plan_id":"cebpf4jnsgd1na2vs0mg"},{"bike_id":"853b7bac-ff8d-4a28-851f-917d01fbe52f","system_id":"levelo_inurba_marseille","lat":43.29016,"lon":5.35623,"is_reserved":false,"is_disabled":false,"rental_uris":{"android":"levelo://app?vid=853b7bac-ff8d-4a28-851f-917d01fbe52f","ios":"levelo://app?vid=853b7bac-ff8d-4a28-851f-917d01fbe52f"},"vehicle_type_id":"4","last_reported":1739628392,"current_range_meters":38800,"station_id":"ce4bhb92rcd13ifvqen0","pricing_plan_id":"cebpf4jnsgd1na2vs0mg"},{"bike_id":"2473118c-303f-4d83-81ea-eefc0a7cabf9","system_id":"levelo_inurba_marseille","lat":43.28268,"lon":5.35079,"is_reserved":false,"is_disabled":false,"rental_uris":{"android":"levelo://app?vid=2473118c-303f-4d83-81ea-eefc0a7cabf9","ios":"levelo://app?vid=2473118c-303f-4d83-81ea-eefc0a7cabf9"},"vehicle_type_id":"4","last_reported":1739628392,"current_range_meters":30800,"station_id":"ce4bhbp2rcd13ifvqerg","pricing_plan_id":"cebpf4jnsgd1na2vs0mg"},{"bike_id":"0cb0fe49-a533-4581-9bc2-3fbe111459f5","system_id":"levelo_inurba_marseille","lat":43.25006,"lon":5.3893,"is_reserved":false,"is_disabled":false,"rental_uris":{"android":"levelo://app?vid=0cb0fe49-a533-4581-9bc2-3fbe111459f5","ios":"levelo://app?vid=0cb0fe49-a533-4581-9bc2-3fbe111459f5"},"vehicle_type_id":"4","last_reported":1739628392,"current_range_meters":38800,"station_id":"ce4bhgp2rcd13ifvqfd0","pricing_plan_id":"cebpf4jnsgd1na2vs0mg"},{"bike_id":"24acec50-7e39-4d32-9e09-c62b341fb403","system_id":"levelo_inurba_marseille","lat":43.27623,"lon":5.3611,"is_reserved":false,"is_disabled":false,"rental_uris":{"android":"levelo://app?vid=24acec50-7e39-4d32-9e09-c62b341fb403","ios":"levelo://app?vid=24acec50-7e39-4d32-9e09-c62b341fb403"},"vehicle_type_id":"4","last_reported":1739628392,"current_range_meters":38800,"station_id":"ce4bgj92rcd13ifvqbe0","pricing_plan_id":"cebpf4jnsgd1na2vs0mg"},{"bike_id":"dfbbaa6c-2ed1-4e02-b7d2-e47d31975f77","system_id":"levelo_inurba_marseille","lat":43.29266,"lon":5.38447,"is_reserved":false,"is_disabled":false,"rental_uris":{"android":"levelo://app?vid=dfbbaa6c-2ed1-4e02-b7d2-e47d31975f77","ios":"levelo://app?vid=dfbbaa6c-2ed1-4e02-b7d2-e47d31975f77"},"vehicle_type_id":"4","last_reported":1739628392,"current_range_meters":18800,"station_id":"ce4bh692rcd13ifvqea0","pricing_plan_id":"cebpf4jnsgd1na2vs0mg"},{"bike_id":"f8be4ae6-adc2-4520-8321-d6b41cf92103","system_id":"levelo_inurba_marseille","lat":43.23187,"lon":5.35535,"is_reserved":false,"is_disabled":false,"rental_uris":{"android":"levelo://app?vid=f8be4ae6-adc2-4520-8321-d6b41cf92103","ios":"levelo://app?vid=f8be4ae6-adc2-4520-8321-d6b41cf92103"},"vehicle_type_id":"4","last_reported":1739628392,"current_range_meters":6800,"station_id":"ce4bhu92rcd13ifvqi70","pricing_plan_id":"cebpf4jnsgd1na2vs0mg"},{"bike_id":"8b399c4c-b05b-4ed3-b039-2ab0d4ef4983","system_id":"levelo_inurba_marseille","lat":43.29551,"lon":5.4229,"is_reserved":false,"is_disabled":false,"rental_uris":{"android":"levelo://app?vid=8b399c4c-b05b-4ed3-b039-2ab0d4ef4983","ios":"levelo://app?vid=8b399c4c-b05b-4ed3-b039-2ab0d4ef4983"},"vehicle_type_id":"4","last_reported":1739628392,"current_range_meters":25600,"station_id":"ce4bhph2rcd13ifvqhdg","pricing_plan_id":"cebpf4jnsgd1na2vs0mg"},{"bike_id":"60f17262-4b71-4e97-bf74-4cfb6825c12a","system_id":"levelo_inurba_marseille","lat":43.2319,"lon":5.3556,"is_reserved":false,"is_disabled":false,"rental_uris":{"android":"levelo://app?vid=60f17262-4b71-4e97-bf74-4cfb6825c12a","ios":"levelo://app?vid=60f17262-4b71-4e97-bf74-4cfb6825c12a"},"vehicle_type_id":"4","last_reported":1739628392,"current_range_meters":12000,"station_id":"ce4bhu92rcd13ifvqi70","pricing_plan_id":"cebpf4jnsgd1na2vs0mg"},{"bike_id":"44981bda-cbee-47d6-8be4-afa278e12d95","system_id":"levelo_inurba_marseille","lat":43.269465,"lon":5.402523,"is_reserved":false,"is_disabled":false,"rental_uris":{"android":"levelo://app?vid=44981bda-cbee-47d6-8be4-afa278e12d95","ios":"levelo://app?vid=44981bda-cbee-47d6-8be4-afa278e12d95"},"vehicle_type_id":"4","last_reported":1739628392,"current_range_meters":36800,"station_id":"cjm6bp8fraef2m0cb0m0","pricing_plan_id":"cebpf4jnsgd1na2vs0mg"},{"bike_id":"3919114e-9056-48bd-9696-d5f73da26fa4","system_id":"levelo_inurba_marseille","lat":43.28418,"lon":5.35008,"is_reserved":false,"is_disabled":false,"rental_uris":{"android":"levelo://app?vid=3919114e-9056-48bd-9696-d5f73da26fa4","ios":"levelo://app?vid=3919114e-9056-48bd-9696-d5f73da26fa4"},"vehicle_type_id":"4","last_reported":1739628392,"current_range_meters":19600,"station_id":"ce4bhbh2rcd13ifvqepg","pricing_plan_id":"cebpf4jnsgd1na2vs0mg"},{"bike_id":"f3ffe56c-4bc0-462e-83a3-297eacd5cea3","system_id":"levelo_inurba_marseille","lat":43.337444,"lon":5.374475,"is_reserved":false,"is_disabled":true,"rental_uris":{"android":"levelo://app?vid=f3ffe56c-4bc0-462e-83a3-297eacd5cea3","ios":"levelo://app?vid=f3ffe56c-4bc0-462e-83a3-297eacd5cea3"},"vehicle_type_id":"4","last_reported":1739628392,"current_range_meters":0,"station_id":"ce4bhb12rcd13ifvqem0","pricing_plan_id":"cebpf4jnsgd1na2vs0mg"},{"bike_id":"f5e9d791-a5d5-4fed-a7ac-bd9078f59418","system_id":"levelo_inurba_marseille","lat":43.23061,"lon":5.35492,"is_reserved":false,"is_disabled":false,"rental_uris":{"android":"levelo://app?vid=f5e9d791-a5d5-4fed-a7ac-bd9078f59418","ios":"levelo://app?vid=f5e9d791-a5d5-4fed-a7ac-bd9078f59418"},"vehicle_type_id":"4","last_reported":1739628392,"current_range_meters":22000,"station_id":"cpo3342slgdg3j2ifvpg","pricing_plan_id":"cebpf4jnsgd1na2vs0mg"},{"bike_id":"384460e5-6d8e-4433-8255-e12b444f5106","system_id":"levelo_inurba_marseille","lat":43.25855,"lon":5.39896,"is_reserved":false,"is_disabled":false,"rental_uris":{"android":"levelo://app?vid=384460e5-6d8e-4433-8255-e12b444f5106","ios":"levelo://app?vid=384460e5-6d8e-4433-8255-e12b444f5106"},"vehicle_type_id":"4","last_reported":1739628392,"current_range_meters":28400,"station_id":"ce4bhl92rcd13ifvqghg","pricing_plan_id":"cebpf4jnsgd1na2vs0mg"},{"bike_id":"fc65426c-b758-453e-ac9a-8252b2595dba","system_id":"levelo_inurba_marseille","lat":43.27375,"lon":5.36265,"is_reserved":false,"is_disabled":false,"rental_uris":{"android":"levelo://app?vid=fc65426c-b758-453e-ac9a-8252b2595dba","ios":"levelo://app?vid=fc65426c-b758-453e-ac9a-8252b2595dba"},"vehicle_type_id":"4","last_reported":1739628392,"current_range_meters":38800,"station_id":"ce4bhbh2rcd13ifvqeo0","pricing_plan_id":"cebpf4jnsgd1na2vs0mg"},{"bike_id":"d70c3cb5-02ba-4878-9b96-12086f139d16","system_id":"levelo_inurba_marseille","lat":43.29849,"lon":5.36281,"is_reserved":false,"is_disabled":false,"rental_uris":{"android":"levelo://app?vid=d70c3cb5-02ba-4878-9b96-12086f139d16","ios":"levelo://app?vid=d70c3cb5-02ba-4878-9b96-12086f139d16"},"vehicle_type_id":"4","last_reported":1739628392,"current_range_meters":20400,"station_id":"ce4bgpp2rcd13ifvqc3g","pricing_plan_id":"cebpf4jnsgd1na2vs0mg"},{"bike_id":"35de90e3-d5c7-4c1c-acc8-c13cdc9bbd8a","system_id":"levelo_inurba_marseille","lat":43.32033,"lon":5.41564,"is_reserved":false,"is_disabled":false,"rental_uris":{"android":"levelo://app?vid=35de90e3-d5c7-4c1c-acc8-c13cdc9bbd8a","ios":"levelo://app?vid=35de90e3-d5c7-4c1c-acc8-c13cdc9bbd8a"},"vehicle_type_id":"4","last_reported":1739628392,"current_range_meters":37600,"station_id":"ce4bhq92rcd13ifvqhkg","pricing_plan_id":"cebpf4jnsgd1na2vs0mg"},{"bike_id":"16121537-0bd6-441e-a4d5-ca5437676402","system_id":"levelo_inurba_marseille","lat":43.26569,"lon":5.39023,"is_reserved":false,"is_disabled":false,"rental_uris":{"android":"levelo://app?vid=16121537-0bd6-441e-a4d5-ca5437676402","ios":"levelo://app?vid=16121537-0bd6-441e-a4d5-ca5437676402"},"vehicle_type_id":"4","last_reported":1739628392,"current_range_meters":11600,"station_id":"ce4bhe12rcd13ifvqf30","pricing_plan_id":"cebpf4jnsgd1na2vs0mg"},{"bike_id":"3a05e5b8-52fa-49b7-9c3c-3bb6f869fcc4","system_id":"levelo_inurba_marseille","lat":43.26212,"lon":5.3744,"is_reserved":false,"is_disabled":false,"rental_uris":{"android":"levelo://app?vid=3a05e5b8-52fa-49b7-9c3c-3bb6f869fcc4","ios":"levelo://app?vid=3a05e5b8-52fa-49b7-9c3c-3bb6f869fcc4"},"vehicle_type_id":"4","last_reported":1739628392,"current_range_meters":33600,"station_id":"ce4bhgp2rcd13ifvqfc0","pricing_plan_id":"cebpf4jnsgd1na2vs0mg"},{"bike_id":"e8c48ecf-1af1-4804-a78d-b30fac0776f2","system_id":"levelo_inurba_marseille","lat":43.29565,"lon":5.42276,"is_reserved":false,"is_disabled":false,"rental_uris":{"android":"levelo://app?vid=e8c48ecf-1af1-4804-a78d-b30fac0776f2","ios":"levelo://app?vid=e8c48ecf-1af1-4804-a78d-b30fac0776f2"},"vehicle_type_id":"4","last_reported":1739628392,"current_range_meters":6400,"station_id":"ce4bhph2rcd13ifvqhdg","pricing_plan_id":"cebpf4jnsgd1na2vs0mg"},{"bike_id":"d8e3844e-fe3d-4597-ab0f-ce61d3a534ab","system_id":"levelo_inurba_marseille","lat":43.28014,"lon":5.40001,"is_reserved":false,"is_disabled":false,"rental_uris":{"android":"levelo://app?vid=d8e3844e-fe3d-4597-ab0f-ce61d3a534ab","ios":"levelo://app?vid=d8e3844e-fe3d-4597-ab0f-ce61d3a534ab"},"vehicle_type_id":"4","last_reported":1739628392,"current_range_meters":24800,"station_id":"ce4bho92rcd13ifvqh4g","pricing_plan_id":"cebpf4jnsgd1na2vs0mg"},{"bike_id":"3fca8f68-0571-4181-9b5d-7469c75c1a89","system_id":"levelo_inurba_marseille","lat":43.24166,"lon":5.36401,"is_reserved":false,"is_disabled":false,"rental_uris":{"android":"levelo://app?vid=3fca8f68-0571-4181-9b5d-7469c75c1a89","ios":"levelo://app?vid=3fca8f68-0571-4181-9b5d-7469c75c1a89"},"vehicle_type_id":"4","last_reported":1739628392,"current_range_meters":38800,"station_id":"cpo36qri1sfpv3e86is0","pricing_plan_id":"cebpf4jnsgd1na2vs0mg"},{"bike_id":"6b493194-5559-4642-96db-56c2a94cbf0f","system_id":"levelo_inurba_marseille","lat":43.31766,"lon":5.39011,"is_reserved":false,"is_disabled":false,"rental_uris":{"android":"levelo://app?vid=6b493194-5559-4642-96db-56c2a94cbf0f","ios":"levelo://app?vid=6b493194-5559-4642-96db-56c2a94cbf0f"},"vehicle_type_id":"4","last_reported":1739628392,"current_range_meters":36400,"station_id":"ce4bhqp2rcd13ifvqhng","pricing_plan_id":"cebpf4jnsgd1na2vs0mg"},