{"last_updated":1756148889,"ttl":60,"version":"2.2","data":{"bikes":[{"bike_id":"3786bc3f-a1ef-4971-82b5-53ee21f255a9","system_id":"levelo_inurba_marseille","lat":43.337444,"lon":5.374475,"is_reserved":false,"is_disabled":true,"rental_uris":{"android":"levelo://app?vid=3786bc3f-a1ef-4971-82b5-53ee21f255a9","ios":"levelo://app?vid=3786bc3f-a1ef-4971-82b5-53ee21f255a9"},"vehicle_type_id":"4","last_reported":1756148890,"current_range_meters":0,"station_id":"","pricing_plan_id":"cebpf4jnsgd1na2vs0mg"},{"bike_id":"eaf33fba-ed97-48de-8903-7533cbd22295","system_id":"levelo_inurba_marseille","lat":43.337444,"lon":5.374475,"is_reserved":false,"is_disabled":true,"rental_uris":{"android":"levelo://app?vid=eaf33fba-ed97-48de-8903-7533cbd22295","ios":"levelo://app?vid=eaf33fba-ed97-48de-8903-7533cbd22295"},"vehicle_type_id":"4","last_reported":1756148890,"current_range_meters":0,"station_id":"","pricing_plan_id":"cebpf4jnsgd1na2vs0mg"},{"bike_id":"d165ff19-8e79-4669-a0ec-2766941625b3","system_id":"levelo_inurba_marseille","lat":43.337444,"lon":5.374475,"is_reserved":false,"is_disabled":true,"rental_uris":{"android":"levelo://app?vid=d165ff19-8e79-4669-a0ec-2766941625b3","ios":"levelo://app?vid=d165ff19-8e79-4669-a0ec-2766941625b3"},"vehicle_type_id":"4","last_reported":1756148890,"current_range_meters":0,"station_id":"","pricing_plan_id":"cebpf4jnsgd1na2vs0mg"},{"bike_id":"fee6e365-1410-47ff-aac6-460fe19870cf","system_id":"levelo_inurba_marseille","lat":43.33771,"lon":5.37424,"is_reserved":false,"is_disabled":true,"rental_uris":{"android":"levelo://app?vid=fee6e365-1410-47ff-aac6-460fe19870cf","ios":"levelo://app?vid=fee6e365-1410-47ff-aac6-460fe19870cf"},"vehicle_type_id":"4","last_reported":1756148890,"current_range_meters":0,"station_id":"","pricing_plan_id":"cebpf4jnsgd1na2vs0mg"},{"bike_id":"e7907bf2-9f85-4fec-b00b-f77b1a4a873c","system_id":"levelo_inurba_marseille","lat":43.33751,"lon":5.37456,"is_reserved":false,"is_disabled":true,"rental_uris":{"android":"levelo://app?vid=e7907bf2-9f85-4fec-b00b-f77b1a4a873c","ios":"levelo://app?vid=e7907bf2-9f85-4fec-b00b-f77b1a4a873c"},"vehicle_type_id":"4","last_reported":1756148890,"current_range_meters":0,"station_id":"","pricing_plan_id":"cebpf4jnsgd1na2vs0mg"},{"bike_id":"c060c1ec-0d33-42db-9a3d-6fb7fae5ea5e","system_id":"levelo_inurba_marseille","lat":43.33747,"lon":5.37463,"is_reserved":false,"is_disabled":true,"rental_uris":{"android":"levelo://app?vid=c060c1ec-0d33-42db-9a3d-6fb7fae5ea5e","ios":"levelo://app?vid=c060c1ec-0d33-42db-9a3d-6fb7fae5ea5e"},"vehicle_type_id":"1","last_reported":1756148890,"current_range_meters":0,"station_id":"","pricing_plan_id":"cebpf4jnsgd1na2vs0mg"},{"bike_id":"e6546109-cd3c-4cd0-ac12-e78c09da4ae6","system_id":"levelo_inurba_marseille","lat":43.33737,"lon":5.37465,"is_reserved":false,"is_disabled":true,"rental_uris":{"android":"levelo://app?vid=e6546109-cd3c-4cd0-ac12-e78c09da4ae6","ios":"levelo://app?vid=e6546109-cd3c-4cd0-ac12-e78c09da4ae6"},"vehicle_type_id":"4","last_reported":1756148890,"current_range_meters":0,"station_id":"","pricing_plan_id":"cebpf4jnsgd1na2vs0mg"},{"bike_id":"8facfda0-e588-46c6-8323-70578ba699b1","system_id":"levelo_inurba_marseille","lat":43.305001,"lon":5.370297,"is_reserved":false,"is_disabled":true,"rental_uris":{"android":"levelo://app?vid=8facfda0-e588-46c6-8323-70578ba699b1","ios":"levelo://app?vid=8facfda0-e588-46c6-8323-70578ba699b1"},"vehicle_type_id":"4","last_reported":1756148890,"current_range_meters":0,"station_id":"","pricing_plan_id":"cebpf4jnsgd1na2vs0mg"},{"bike_id":"b3fa04f4-753f-44ec-9319-e8b6b49d76a7","system_id":"levelo_inurba_marseille","lat":43.28846,"lon":5.38527,"is_reserved":false,"is_disabled":true,"rental_uris":{"android":"levelo://app?vid=b3fa04f4-753f-44ec-9319-e8b6b49d76a7","ios":"levelo://app?vid=b3fa04f4-753f-44ec-9319-e8b6b49d76a7"},"vehicle_type_id":"4","last_reported":1756148890,"current_range_meters":0,"station_id":"","pricing_plan_id":"cebpf4jnsgd1na2vs0mg"},{"bike_id":"804cc7cf-990a-486b-8e81-d36ef80e9c3c","system_id":"levelo_inurba_marseille","lat":43.31731,"lon":5.40422,"is_reserved":false,"is_disabled":false,"rental_uris":{"android":"levelo://app?vid=804cc7cf-990a-486b-8e81-d36ef80e9c3c","ios":"levelo://app?vid=804cc7cf-990a-486b-8e81-d36ef80e9c3c"},"vehicle_type_id":"4","last_reported":1756148890,"current_range_meters":3200,"station_id":"","pricing_plan_id":"cebpf4jnsgd1na2vs0mg"},{"bike_id":"0d006835-dfc4-460a-8c56-acc02ce01133","system_id":"levelo_inurba_marseille","lat":43.28103,"lon":5.39816,"is_reserved":false,"is_disabled":true,"rental_uris":{"android":"levelo://app?vid=0d006835-dfc4-460a-8c56-acc02ce01133","ios":"levelo://app?vid=0d006835-dfc4-460a-8c56-acc02ce01133"},"vehicle_type_id":"4","last_reported":1756148890,"current_range_meters":0,"station_id":"","pricing_plan_id":"cebpf4jnsgd1na2vs0mg"},{"bike_id":"2f5601ef-bcb8-40a8-a1be-d9974a0e6480","system_id":"levelo_inurba_marseille","lat":43.33127,"lon":5.38949,"is_reserved":false,"is_disabled":true,"rental_uris":{"android":"levelo://app?vid=2f5601ef-bcb8-40a8-a1be-d9974a0e6480","ios":"levelo://app?vid=2f5601ef-bcb8-40a8-a1be-d9974a0e6480"},"vehicle_type_id":"4","last_reported":1756148890,"current_range_meters":0,"station_id":"","pricing_plan_id":"cebpf4jnsgd1na2vs0mg"},{"bike_id":"5d315e57-bb67-481f-b455-26ecfe9889ad","system_id":"levelo_inurba_marseille","lat":43.28069,"lon":5.34773,"is_reserved":false,"is_disabled":true,"rental_uris":{"android":"levelo://app?vid=5d315e57-bb67-481f-b455-26ecfe9889ad","ios":"levelo://app?vid=5d315e57-bb67-481f-b455-26ecfe9889ad"},"vehicle_type_id":"4","last_reported":1756148890,"current_range_meters":0,"station_id":"","pricing_plan_id":"cebpf4jnsgd1na2vs0mg"},{"bike_id":"38ba3d68-3b96-46a4-b2d0-cdc7f5294c22","system_id":"levelo_inurba_marseille","lat":43.33123,"lon":5.38942,"is_reserved":false,"is_disabled":true,"rental_uris":{"android":"levelo://app?vid=38ba3d68-3b96-46a4-b2d0-cdc7f5294c22","ios":"levelo://app?vid=38ba3d68-3b96-46a4-b2d0-cdc7f5294c22"},"vehicle_type_id":"4","last_reported":1756148890,"current_range_meters":0,"station_id":"","pricing_plan_id":"cebpf4jnsgd1na2vs0mg"},{"bike_id":"14fbad4c-786a-4a4b-8a18-f35c5e17a984","system_id":"levelo_inurba_marseille","lat":43.24466,"lon":5.3692,"is_reserved":false,"is_disabled":true,"rental_uris":{"android":"levelo://app?vid=14fbad4c-786a-4a4b-8a18-f35c5e17a984","ios":"levelo://app?vid=14fbad4c-786a-4a4b-8a18-f35c5e17a984"},"vehicle_type_id":"4","last_reported":1756148890,"current_range_meters":0,"station_id":"","pricing_plan_id":"cebpf4jnsgd1na2vs0mg"},{"bike_id":"2a2c596d-5f0e-4de8-9c54-88627e7b9e4b","system_id":"levelo_inurba_marseille","lat":43.34081,"lon":5.38,"is_reserved":false,"is_disabled":true,"rental_uris":{"android":"levelo://app?vid=2a2c596d-5f0e-4de8-9c54-88627e7b9e4b","ios":"levelo://app?vid=2a2c596d-5f0e-4de8-9c54-88627e7b9e4b"},"vehicle_type_id":"4","last_reported":1756148890,"current_range_meters":0,"station_id":"","pricing_plan_id":"cebpf4jnsgd1na2vs0mg"},{"bike_id":"8fecfd98-872d-4b0c-86da-8c5bcd09eca9","system_id":"levelo_inurba_marseille","lat":43.2477,"lon":5.41057,"is_reserved":false,"is_disabled":true,"rental_uris":{"android":"levelo://app?vid=8fecfd98-872d-4b0c-86da-8c5bcd09eca9","ios":"levelo://app?vid=8fecfd98-872d-4b0c-86da-8c5bcd09eca9"},"vehicle_type_id":"4","last_reported":1756148890,"current_range_meters":0,"station_id":"","pricing_plan_id":"cebpf4jnsgd1na2vs0mg"},{"bike_id":"a924c981-3d6e-468b-89e3-5311b0d08544","system_id":"levelo_inurba_marseille","lat":43.292725,"lon":5.384494,"is_reserved":false,"is_disabled":true,"rental_uris":{"android":"levelo://app?vid=a924c981-3d6e-468b-89e3-5311b0d08544","ios":"levelo://app?vid=a924c981-3d6e-468b-89e3-5311b0d08544"},"vehicle_type_id":"4","last_reported":1756148890,"current_range_meters":0,"station_id":"","pricing_plan_id":"cebpf4jnsgd1na2vs0mg"},{"bike_id":"90e47907-ac8b-4816-8d0d-6723bcebe903","system_id":"levelo_inurba_marseille","lat":43.32351,"lon":5.36667,"is_reserved":false,"is_disabled":true,"rental_uris":{"android":"levelo://app?vid=90e47907-ac8b-4816-8d0d-6723bcebe903","ios":"levelo://app?vid=90e47907-ac8b-4816-8d0d-6723bcebe903"},"vehicle_type_id":"4","last_reported":1756148890,"current_range_meters":0,"station_id":"","pricing_plan_id":"cebpf4jnsgd1na2vs0mg"},{"bike_id":"dc966711-a8a0-4884-a2c4-f00eb61127f6","system_id":"levelo_inurba_marseille","lat":43.27808,"lon":5.4071,"is_reserved":false,"is_disabled":true,"rental_uris":{"android":"levelo://app?vid=dc966711-a8a0-4884-a2c4-f00eb61127f6","ios":"levelo://app?vid=dc966711-a8a0-4884-a2c4-f00eb61127f6"},"vehicle_type_id":"4","last_reported":1756148890,"current_range_meters":0,"station_id":"","pricing_plan_id":"cebpf4jnsgd1na2vs0mg"},{"bike_id":"1ce2accc-201d-4974-a7f0-b3c0c62b704b","system_id":"levelo_inurba_marseille","lat":43.33338,"lon":5.39858,"is_reserved":false,"is_disabled":true,"rental_uris":{"android":"levelo://app?vid=1ce2accc-201d-4974-a7f0-b3c0c62b704b","ios":"levelo://app?vid=1ce2accc-201d-4974-a7f0-b3c0c62b704b"},"vehicle_type_id":"4","last_reported":1756148890,"current_range_meters":0,"station_id":"","pricing_plan_id":"cebpf4jnsgd1na2vs0mg"},{"bike_id":"838dba12-bcaf-4dfe-bf81-73a584a33eb2","system_id":"levelo_inurba_marseille","lat":43.29603,"lon":5.36047,"is_reserved":false,"is_disabled":true,"rental_uris":{"android":"levelo://app?vid=838dba12-bcaf-4dfe-bf81-73a584a33eb2","ios":"levelo://app?vid=838dba12-bcaf-4dfe-bf81-73a584a33eb2"},"vehicle_type_id":"4","last_reported":1756148890,"current_range_meters":0,"station_id":"","pricing_plan_id":"cebpf4jnsgd1na2vs0mg"},{"bike_id":"4dca8c2f-f9d1-4702-a077-556d00c035ea","system_id":"levelo_inurba_marseille","lat":43.31855,"lon":5.37512,"is_reserved":false,"is_disabled":true,"rental_uris":{"android":"levelo://app?vid=4dca8c2f-f9d1-4702-a077-556d00c035ea","ios":"levelo://app?vid=4dca8c2f-f9d1-4702-a077-556d00c035ea"},"vehicle_type_id":"4","last_reported":1756148890,"current_range_meters":0,"station_id":"","pricing_plan_id":"cebpf4jnsgd1na2vs0mg"},{"bike_id":"61ef71d4-2ec5-47bb-8843-8aa4475ea5c1","system_id":"levelo_inurba_marseille","lat":43.29528,"lon":5.38545,"is_reserved":false,"is_disabled":true,"rental_uris":{"android":"levelo://app?vid=61ef71d4-2ec5-47bb-8843-8aa4475ea5c1","ios":"levelo://app?vid=61ef71d4-2ec5-47bb-8843-8aa4475ea5c1"},"vehicle_type_id":"4","last_reported":1756148890,"current_range_meters":0,"station_id":"ce4bgih2rcd13ifvqba0","pricing_plan_id":"cebpf4jnsgd1na2vs0mg"},{"bike_id":"be2135e8-0260-4e9f-9b2c-fae09bea8dd9","system_id":"levelo_inurba_marseille","lat":43.310688,"lon":5.383345,"is_reserved":false,"is_disabled":true,"rental_uris":{"android":"levelo://app?vid=be2135e8-0260-4e9f-9b2c-fae09bea8dd9","ios":"levelo://app?vid=be2135e8-0260-4e9f-9b2c-fae09bea8dd9"},"vehicle_type_id":"4","last_reported":1756148890,"current_range_meters":0,"station_id":"ce4bgv92rcd13ifvqcr0","pricing_plan_id":"cebpf4jnsgd1na2vs0mg"},{"bike_id":"3700d17d-e8f0-4aee-9474-c64b89eba5db","system_id":"levelo_inurba_marseille","lat":43.31684,"lon":5.40472,"is_reserved":false,"is_disabled":true,"rental_uris":{"android":"levelo://app?vid=3700d17d-e8f0-4aee-9474-c64b89eba5db","ios":"levelo://app?vid=3700d17d-e8f0-4aee-9474-c64b89eba5db"},"vehicle_type_id":"4","last_reported":1756148890,"current_range_meters":0,"station_id":"ce4bh012rcd13ifvqd00","pricing_plan_id":"cebpf4jnsgd1na2vs0mg"},{"bike_id":"09442499-2ca7-4bc5-ba3e-9332878e56ff","system_id":"levelo_inurba_marseille","lat":43.29278,"lon":5.40115,"is_reserved":false,"is_disabled":true,"rental_uris":{"android":"levelo://app?vid=09442499-2ca7-4bc5-ba3e-9332878e56ff","ios":"levelo://app?vid=09442499-2ca7-4bc5-ba3e-9332878e56ff"},"vehicle_type_id":"4","last_reported":1756148890,"current_range_meters":0,"station_id":"ce4bh312rcd13ifvqdk0","pricing_plan_id":"cebpf4jnsgd1na2vs0mg"},{"bike_id":"840ec469-94f9-40a3-8191-095ec15848ab","system_id":"levelo_inurba_marseille","lat":43.28374,"lon":5.38653,"is_reserved":false,"is_disabled":true,"rental_uris":{"android":"levelo://app?vid=840ec469-94f9-40a3-8191-095ec15848ab","ios":"levelo://app?vid=840ec469-94f9-40a3-8191-095ec15848ab"},"vehicle_type_id":"4","last_reported":1756148890,"current_range_meters":0,"station_id":"ce4bh492rcd13ifvqdvg","pricing_plan_id":"cebpf4jnsgd1na2vs0mg"},{"bike_id":"e5ec0b32-a96f-4c91-8dd4-2435c6e06438","system_id":"levelo_inurba_marseille","lat":43.27304,"lon":5.39126,"is_reserved":false,"is_disabled":true,"rental_uris":{"android":"levelo://app?vid=e5ec0b32-a96f-4c91-8dd4-2435c6e06438","ios":"levelo://app?vid=e5ec0b32-a96f-4c91-8dd4-2435c6e06438"},"vehicle_type_id":"4","last_reported":1756148890,"current_range_meters":0,"station_id":"ce4bhgp2rcd13ifvqfe0","pricing_plan_id":"cebpf4jnsgd1na2vs0mg"},{"bike_id":"53965643-74c1-44b5-8dda-406f22caa455","system_id":"levelo_inurba_marseille","lat":43.26941,"lon":5.38634,"is_reserved":false,"is_disabled":true,"rental_uris":{"android":"levelo://app?vid=53965643-74c1-44b5-8dda-406f22caa455","ios":"levelo://app?vid=53965643-74c1-44b5-8dda-406f22caa455"},"vehicle_type_id":"4","last_reported":1756148890,"current_range_meters":0,"station_id":"ce4bhh92rcd13ifvqfh0","pricing_plan_id":"cebpf4jnsgd1na2vs0mg"},{"bike_id":"d6c262a8-ac7a-4ad7-a9db-fb9327378431","system_id":"levelo_inurba_marseille","lat":43.32532,"lon":5.41453,"is_reserved":false,"is_disabled":true,"rental_uris":{"android":"levelo://app?vid=d6c262a8-ac7a-4ad7-a9db-fb9327378431","ios":"levelo://app?vid=d6c262a8-ac7a-4ad7-a9db-fb9327378431"},"vehicle_type_id":"4","last_reported":1756148890,"current_range_meters":0,"station_id":"ce4bhq12rcd13ifvqhhg","pricing_plan_id":"cebpf4jnsgd1na2vs0mg"},{"bike_id":"86300d8a-9cc0-47e7-88eb-970dcce93f82","system_id":"levelo_inurba_marseille","lat":43.32363,"lon":5.38924,"is_reserved":false,"is_disabled":true,"rental_uris":{"android":"levelo://app?vid=86300d8a-9cc0-47e7-88eb-970dcce93f82","ios":"levelo://app?vid=86300d8a-9cc0-47e7-88eb-970dcce93f82"},"vehicle_type_id":"4","last_reported":1756148890,"current_range_meters":0,"station_id":"ce4bhqp2rcd13ifvqhog","pricing_plan_id":"cebpf4jnsgd1na2vs0mg"},{"bike_id":"8d417a22-9624-4615-9048-7cc7981cec49","system_id":"levelo_inurba_marseille","lat":43.32291,"lon":5.38277,"is_reserved":false,"is_disabled":true,"rental_uris":{"android":"levelo://app?vid=8d417a22-9624-4615-9048-7cc7981cec49","ios":"levelo://app?vid=8d417a22-9624-4615-9048-7cc7981cec49"},"vehicle_type_id":"4","last_reported":1756148890,"current_range_meters":0,"station_id":"ce4bhr12rcd13ifvqhqg","pricing_plan_id":"cebpf4jnsgd1na2vs0mg"},{"bike_id":"1ba3bdde-aab8-4f07-9fdc-3fb6cd576a01","system_id":"levelo_inurba_marseille","lat":43.21757,"lon":5.3462,"is_reserved":false,"is_disabled":true,"rental_uris":{"android":"levelo://app?vid=1ba3bdde-aab8-4f07-9fdc-3fb6cd576a01","ios":"levelo://app?vid=1ba3bdde-aab8-4f07-9fdc-3fb6cd576a01"},"vehicle_type_id":"4","last_reported":1756148890,"current_range_meters":0,"station_id":"st_cvj6r9ubvosntc0bgbag","pricing_plan_id":"cebpf4jnsgd1na2vs0mg"},{"bike_id":"043a02fa-5492-4bcb-b4f2-739fbbfcc18b","system_id":"levelo_inurba_marseille","lat":43.211859,"lon":5.350738,"is_reserved":false,"is_disabled":true,"rental_uris":{"android":"levelo://app?vid=043a02fa-5492-4bcb-b4f2-739fbbfcc18b","ios":"levelo://app?vid=043a02fa-5492-4bcb-b4f2-739fbbfcc18b"},"vehicle_type_id":"4","last_reported":1756148890,"current_range_meters":0,"station_id":"st_cvj6sg6p6f1abm77japg","pricing_plan_id":"cebpf4jnsgd1na2vs0mg"},{"bike_id":"ba9b61a4-caf5-457d-aec4-4a9e3b81758a","system_id":"levelo_inurba_marseille","lat":43.21191,"lon":5.35071,"is_reserved":false,"is_disabled":true,"rental_uris":{"android":"levelo://app?vid=ba9b61a4-caf5-457d-aec4-4a9e3b81758a","ios":"levelo://app?vid=ba9b61a4-caf5-457d-aec4-4a9e3b81758a"},"vehicle_type_id":"4","last_reported":1756148890,"current_range_meters":0,"station_id":"st_cvj6sg6p6f1abm77japg","pricing_plan_id":"cebpf4jnsgd1na2vs0mg"},{"bike_id":"3bf56a15-c7f1-47ac-8620-851ec87b7dc0","system_id":"levelo_inurba_marseille","lat":43.29256,"lon":5.38448,"is_reserved":false,"is_disabled":true,"rental_uris":{"android":"levelo://app?vid=3bf56a15-c7f1-47ac-8620-851ec87b7dc0","ios":"levelo://app?vid=3bf56a15-c7f1-47ac-8620-851ec87b7dc0"},"vehicle_type_id":"4","last_reported":1756148890,"current_range_meters":400,"station_id":"ce4bh692rcd13ifvqea0","pricing_plan_id":"cebpf4jnsgd1na2vs0mg"},{"bike_id":"cf00471d-cd52-4c8e-9599-8d45a5df1246","system_id":"levelo_inurba_marseille","lat":43.29528,"lon":5.38549,"is_reserved":false,"is_disabled":true,"rental_uris":{"android":"levelo://app?vid=cf00471d-cd52-4c8e-9599-8d45a5df1246","ios":"levelo://app?vid=cf00471d-cd52-4c8e-9599-8d45a5df1246"},"vehicle_type_id":"4","last_reported":1756148890,"current_range_meters":800,"station_id":"ce4bgih2rcd13ifvqba0","pricing_plan_id":"cebpf4jnsgd1na2vs0mg"},{"bike_id":"2446fd5e-225a-4dc3-b75e-9c9610b59306","system_id":"levelo_inurba_marseille","lat":43.27809,"lon":5.40727,"is_reserved":false,"is_disabled":true,"rental_uris":{"android":"levelo://app?vid=2446fd5e-225a-4dc3-b75e-9c9610b59306","ios":"levelo://app?vid=2446fd5e-225a-4dc3-b75e-9c9610b59306"},"vehicle_type_id":"4","last_reported":1756148890,"current_range_meters":800,"station_id":"ce4bhnh2rcd13ifvqgtg","pricing_plan_id":"cebpf4jnsgd1na2vs0mg"},{"bike_id":"5a4b49a2-b2ab-49d2-a328-1a50ee359d04","system_id":"levelo_inurba_marseille","lat":43.33017,"lon":5.3941,"is_reserved":false,"is_disabled":true,"rental_uris":{"android":"levelo://app?vid=5a4b49a2-b2ab-49d2-a328-1a50ee359d04","ios":"levelo://app?vid=5a4b49a2-b2ab-49d2-a328-1a50ee359d04"},"vehicle_type_id":"4","last_reported":1756148890,"current_range_meters":1200,"station_id":"","pricing_plan_id":"cebpf4jnsgd1na2vs0mg"},{"bike_id":"76f4377e-b59b-443d-8dbc-58de2696bd1f","system_id":"levelo_inurba_marseille","lat":43.299213,"lon":5.374752,"is_reserved":false,"is_disabled":true,"rental_uris":{"android":"levelo://app?vid=76f4377e-b59b-443d-8dbc-58de2696bd1f","ios":"levelo://app?vid=76f4377e-b59b-443d-8dbc-58de2696bd1f"},"vehicle_type_id":"4","last_reported":1756148890,"current_range_meters":1200,"station_id":"ce4bgjh2rcd13ifvqbg0","pricing_plan_id":"cebpf4jnsgd1na2vs0mg"},{"bike_id":"9edb5047-4abe-46f6-becf-821677d3c38f","system_id":"levelo_inurba_marseille","lat":43.29205,"lon":5.358009,"is_reserved":false,"is_disabled":true,"rental_uris":{"android":"levelo://app?vid=9edb5047-4abe-46f6-becf-821677d3c38f","ios":"levelo://app?vid=9edb5047-4abe-46f6-becf-821677d3c38f"},"vehicle_type_id":"4","last_reported":1756148890,"current_range_meters":1200,"station_id":"ce4bhb12rcd13ifvqel0","pricing_plan_id":"cebpf4jnsgd1na2vs0mg"},{"bike_id":"24cc5286-3146-4130-bc4a-5bee8f2f6b44","system_id":"levelo_inurba_marseille","lat":43.31697,"lon":5.39843,"is_reserved":false,"is_disabled":true,"rental_uris":{"android":"levelo://app?vid=24cc5286-3146-4130-bc4a-5bee8f2f6b44","ios":"levelo://app?vid=24cc5286-3146-4130-bc4a-5bee8f2f6b44"},"vehicle_type_id":"4","last_reported":1756148890,"current_range_meters":1600,"station_id":"","pricing_plan_id":"cebpf4jnsgd1na2vs0mg"},{"bike_id":"abf5a455-60d0-4975-8fd5-5fcb12877869","system_id":"levelo_inurba_marseille","lat":43.30432,"lon":5.38908,"is_reserved":false,"is_disabled":true,"rental_uris":{"android":"levelo://app?vid=abf5a455-60d0-4975-8fd5-5fcb12877869","ios":"levelo://app?vid=abf5a455-60d0-4975-8fd5-5fcb12877869"},"vehicle_type_id":"4","last_reported":1756148890,"current_range_meters":1600,"station_id":"ce4bgk12rcd13ifvqbi0","pricing_plan_id":"cebpf4jnsgd1na2vs0mg"},{"bike_id":"58a59188-1cd9-4a74-8314-3c01f94cd4e3","system_id":"levelo_inurba_marseille","lat":43.286163,"lon":5.35106,"is_reserved":false,"is_disabled":true,"rental_uris":{"android":"levelo://app?vid=58a59188-1cd9-4a74-8314-3c01f94cd4e3","ios":"levelo://app?vid=58a59188-1cd9-4a74-8314-3c01f94cd4e3"},"vehicle_type_id":"4","last_reported":1756148890,"current_range_meters":2000,"station_id":"","pricing_plan_id":"cebpf4jnsgd1na2vs0mg"},{"bike_id":"cd95517a-b658-4070-9c92-689121355b24","system_id":"levelo_inurba_marseille","lat":43.2841,"lon":5.37524,"is_reserved":false,"is_disabled":true,"rental_uris":{"android":"levelo://app?vid=cd95517a-b658-4070-9c92-689121355b24","ios":"levelo://app?vid=cd95517a-b658-4070-9c92-689121355b24"},"vehicle_type_id":"4","last_reported":1756148890,"current_range_meters":2000,"station_id":"ce4bh412rcd13ifvqds0","pricing_plan_id":"cebpf4jnsgd1na2vs0mg"},{"bike_id":"7e25278e-bc3e-4161-bb44-54702deb3556","system_id":"levelo_inurba_marseille","lat":43.28663,"lon":5.38658,"is_reserved":false,"is_disabled":true,"rental_uris":{"android":"levelo://app?vid=7e25278e-bc3e-4161-bb44-54702deb3556","ios":"levelo://app?vid=7e25278e-bc3e-4161-bb44-54702deb3556"},"vehicle_type_id":"4","last_reported":1756148890,"current_range_meters":2000,"station_id":"ce4bh492rcd13ifvqdug","pricing_plan_id":"cebpf4jnsgd1na2vs0mg"},{"bike_id":"1587873f-8de8-4b95-9758-e5adab1adbfb","system_id":"levelo_inurba_marseille","lat":43.28935,"lon":5.38393,"is_reserved":false,"is_disabled":true,"rental_uris":{"android":"levelo://app?vid=1587873f-8de8-4b95-9758-e5adab1adbfb","ios":"levelo://app?vid=1587873f-8de8-4b95-9758-e5adab1adbfb"},"vehicle_type_id":"4","last_reported":1756148890,"current_range_meters":2000,"station_id":"ce4bh612rcd13ifvqe6g","pricing_plan_id":"cebpf4jnsgd1na2vs0mg"},{"bike_id":"32fb3f3d-4b26-4243-aacc-d0c9f27aa48d","system_id":"levelo_inurba_marseille","lat":43.32479,"lon":5.36568,"is_reserved":false,"is_disabled":true,"rental_uris":{"android":"levelo://app?vid=32fb3f3d-4b26-4243-aacc-d0c9f27aa48d","ios":"levelo://app?vid=32fb3f3d-4b26-4243-aacc-d0c9f27aa48d"},"vehicle_type_id":"4","last_reported":1756148890,"current_range_meters":2000,"station_id":"ce4bhs12rcd13ifvqhvg","pricing_plan_id":"cebpf4jnsgd1na2vs0mg"},{"bike_id":"fe783649-986a-4e50-b4c9-fbabd864f3be","system_id":"levelo_inurba_marseille","lat":43.31165,"lon":5.38723,"is_reserved":false,"is_disabled":false,"rental_uris":{"android":"levelo://app?vid=fe783649-986a-4e50-b4c9-fbabd864f3be","ios":"levelo://app?vid=fe783649-986a-4e50-b4c9-fbabd864f3be"},"vehicle_type_id":"4","last_reported":1756148890,"current_range_meters":2800,"station_id":"ce4bgv12rcd13ifvqcp0","pricing_plan_id":"cebpf4jnsgd1na2vs0mg"},{"bike_id":"99018874-0ab6-484d-8f3c-c9d003542d12","system_id":"levelo_inurba_marseille","lat":43.25727,"lon":5.41105,"is_reserved":false,"is_disabled":false,"rental_uris":{"android":"levelo://app?vid=99018874-0ab6-484d-8f3c-c9d003542d12","ios":"levelo://app?vid=99018874-0ab6-484d-8f3c-c9d003542d12"},"vehicle_type_id":"4","last_reported":1756148890,"current_range_meters":2800,"station_id":"ce4bhkp2rcd13ifvqgd0","pricing_plan_id":"cebpf4jnsgd1na2vs0mg"},{"bike_id":"d3cd0a3b-3f8e-4284-a0c6-3a18375ae8bf","system_id":"levelo_inurba_marseille","lat":43.29031,"lon":5.38646,"is_reserved":false,"is_disabled":false,"rental_uris":{"android":"levelo://app?vid=d3cd0a3b-3f8e-4284-a0c6-3a18375ae8bf","ios":"levelo://app?vid=d3cd0a3b-3f8e-4284-a0c6-3a18375ae8bf"},"vehicle_type_id":"4","last_reported":1756148890,"current_range_meters":3200,"station_id":"ce4bh4p2rcd13ifvqe0g","pricing_plan_id":"cebpf4jnsgd1na2vs0mg"},{"bike_id":"4df71f0f-c74e-4ac3-acf8-818e23b9a99b","system_id":"levelo_inurba_marseille","lat":43.292626,"lon":5.384366,"is_reserved":false,"is_disabled":false,"rental_uris":{"android":"levelo://app?vid=4df71f0f-c74e-4ac3-acf8-818e23b9a99b","ios":"levelo://app?vid=4df71f0f-c74e-4ac3-acf8-818e23b9a99b"},"vehicle_type_id":"4","last_reported":1756148890,"current_range_meters":3600,"station_id":"","pricing_plan_id":"cebpf4jnsgd1na2vs0mg"},{"bike_id":"789e60c1-8d5d-454e-bd4f-2c02b8d1c2f6","system_id":"levelo_inurba_marseille","lat":43.30647,"lon":5.40109,"is_reserved":false,"is_disabled":false,"rental_uris":{"android":"levelo://app?vid=789e60c1-8d5d-454e-bd4f-2c02b8d1c2f6","ios":"levelo://app?vid=789e60c1-8d5d-454e-bd4f-2c02b8d1c2f6"},"vehicle_type_id":"4","last_reported":1756148890,"current_range_meters":3600,"station_id":"ce4bh112rcd13ifvqda0","pricing_plan_id":"cebpf4jnsgd1na2vs0mg"},{"bike_id":"67010c27-624a-43d8-a583-cf50db2c16e8","system_id":"levelo_inurba_marseille","lat":43.3222,"lon":5.36886,"is_reserved":false,"is_disabled":false,"rental_uris":{"android":"levelo://app?vid=67010c27-624a-43d8-a583-cf50db2c16e8","ios":"levelo://app?vid=67010c27-624a-43d8-a583-cf50db2c16e8"},"vehicle_type_id":"4","last_reported":1756148890,"current_range_meters":4000,"station_id":"","pricing_plan_id":"cebpf4jnsgd1na2vs0mg"},{"bike_id":"7adbac07-0a90-46d2-a401-d44336298bdb","system_id":"levelo_inurba_marseille","lat":43.30036,"lon":5.3755,"is_reserved":false,"is_disabled":false,"rental_uris":{"android":"levelo://app?vid=7adbac07-0a90-46d2-a401-d44336298bdb","ios":"levelo://app?vid=7adbac07-0a90-46d2-a401-d44336298bdb"},"vehicle_type_id":"4","last_reported":1756148890,"current_range_meters":4000,"station_id":"","pricing_plan_id":"cebpf4jnsgd1na2vs0mg"},{"bike_id":"6c78b604-06f8-4997-81bd-8fbc74b231b7","system_id":"levelo_inurba_marseille","lat":43.310748,"lon":5.383518,"is_reserved":false,"is_disabled":false,"rental_uris":{"android":"levelo://app?vid=6c78b604-06f8-4997-81bd-8fbc74b231b7","ios":"levelo://app?vid=6c78b604-06f8-4997-81bd-8fbc74b231b7"},"vehicle_type_id":"4","last_reported":1756148890,"current_range_meters":4000,"station_id":"ce4bgv92rcd13ifvqcr0","pricing_plan_id":"cebpf4jnsgd1na2vs0mg"},{"bike_id":"d3d2921a-3f91-4b9d-9945-e80d2f5d8aaa","system_id":"levelo_inurba_marseille","lat":43.26801,"lon":5.40257,"is_reserved":false,"is_disabled":false,"rental_uris":{"android":"levelo://app?vid=d3d2921a-3f91-4b9d-9945-e80d2f5d8aaa","ios":"levelo://app?vid=d3d2921a-3f91-4b9d-9945-e80d2f5d8aaa"},"vehicle_type_id":"4","last_reported":1756148890,"current_range_meters":4000,"station_id":"ce501612rcd8frsf0b60","pricing_plan_id":"cebpf4jnsgd1na2vs0mg"},{"bike_id":"01d00d05-aac8-4504-92cf-8db2a41c177d","system_id":"levelo_inurba_marseille","lat":43.29292,"lon":5.37173,"is_reserved":false,"is_disabled":false,"rental_uris":{"android":"levelo://app?vid=01d00d05-aac8-4504-92cf-8db2a41c177d","ios":"levelo://app?vid=01d00d05-aac8-4504-92cf-8db2a41c177d"},"vehicle_type_id":"4","last_reported":1756148890,"current_range_meters":4400,"station_id":"ce4bgh92rcd13ifvqb40","pricing_plan_id":"cebpf4jnsgd1na2vs0mg"},{"bike_id":"f3ff9de5-db79-4656-a5aa-f69ec5a630a8","system_id":"levelo_inurba_marseille","lat":43.304346,"lon":5.388984,"is_reserved":false,"is_disabled":false,"rental_uris":{"android":"levelo://app?vid=f3ff9de5-db79-4656-a5aa-f69ec5a630a8","ios":"levelo://app?vid=f3ff9de5-db79-4656-a5aa-f69ec5a630a8"},"vehicle_type_id":"4","last_reported":1756148890,"current_range_meters":4400,"station_id":"ce4bgk12rcd13ifvqbi0","pricing_plan_id":"cebpf4jnsgd1na2vs0mg"},{"bike_id":"a06bf453-39b9-49e4-aab9-dcffb91e1b9b","system_id":"levelo_inurba_marseille","lat":43.29601,"lon":5.38094,"is_reserved":false,"is_disabled":false,"rental_uris":{"android":"levelo://app?vid=a06bf453-39b9-49e4-aab9-dcffb91e1b9b","ios":"levelo://app?vid=a06bf453-39b9-49e4-aab9-dcffb91e1b9b"},"vehicle_type_id":"4","last_reported":1756148890,"current_range_meters":4800,"station_id":"ce4bgl12rcd13ifvqbo0","pricing_plan_id":"cebpf4jnsgd1na2vs0mg"},{"bike_id":"02b9213d-3d63-4632-a0c5-6c943bbdb5b6","system_id":"levelo_inurba_marseille","lat":43.28461,"lon":5.35884,"is_reserved":false,"is_disabled":false,"rental_uris":{"android":"levelo://app?vid=02b9213d-3d63-4632-a0c5-6c943bbdb5b6","ios":"levelo://app?vid=02b9213d-3d63-4632-a0c5-6c943bbdb5b6"},"vehicle_type_id":"4","last_reported":1756148890,"current_range_meters":5600,"station_id":"ce4bhah2rcd13ifvqei0","pricing_plan_id":"cebpf4jnsgd1na2vs0mg"},{"bike_id":"d454d867-0d8f-41fb-ab0c-ba27df36255f","system_id":"levelo_inurba_marseille","lat":43.31372,"lon":5.38501,"is_reserved":false,"is_disabled":false,"rental_uris":{"android":"levelo://app?vid=d454d867-0d8f-41fb-ab0c-ba27df36255f","ios":"levelo://app?vid=d454d867-0d8f-41fb-ab0c-ba27df36255f"},"vehicle_type_id":"4","last_reported":1756148890,"current_range_meters":6000,"station_id":"ce4bgt92rcd13ifvqcf0","pricing_plan_id":"cebpf4jnsgd1na2vs0mg"},{"bike_id":"e58fc0fe-9229-49df-aa25-5aad1ce61c10","system_id":"levelo_inurba_marseille","lat":43.28845,"lon":5.35846,"is_reserved":false,"is_disabled":false,"rental_uris":{"android":"levelo://app?vid=e58fc0fe-9229-49df-aa25-5aad1ce61c10","ios":"levelo://app?vid=e58fc0fe-9229-49df-aa25-5aad1ce61c10"},"vehicle_type_id":"4","last_reported":1756148890,"current_range_meters":6000,"station_id":"ce4bhb12rcd13ifvqem0","pricing_plan_id":"cebpf4jnsgd1na2vs0mg"},{"bike_id":"6c8a15ad-2118-4d50-8a7a-7a5f6792f8d0","system_id":"levelo_inurba_marseille","lat":43.23964,"lon":5.3663,"is_reserved":false,"is_disabled":false,"rental_uris":{"android":"levelo://app?vid=6c8a15ad-2118-4d50-8a7a-7a5f6792f8d0","ios":"levelo://app?vid=6c8a15ad-2118-4d50-8a7a-7a5f6792f8d0"},"vehicle_type_id":"4","last_reported":1756148890,"current_range_meters":6000,"station_id":"ce4bhi12rcd13ifvqfp0","pricing_plan_id":"cebpf4jnsgd1na2vs0mg"},{"bike_id":"77dd41bf-1f4d-400a-9b5d-1486fb2c2e2f","system_id":"levelo_inurba_marseille","lat":43.29284,"lon":5.4012,"is_reserved":false,"is_disabled":false,"rental_uris":{"android":"levelo://app?vid=77dd41bf-1f4d-400a-9b5d-1486fb2c2e2f","ios":"levelo://app?vid=77dd41bf-1f4d-400a-9b5d-1486fb2c2e2f"},"vehicle_type_id":"4","last_reported":1756148890,"current_range_meters":6400,"station_id":"ce4bh312rcd13ifvqdk0","pricing_plan_id":"cebpf4jnsgd1na2vs0mg"},{"bike_id":"07a0559d-0162-47d2-a880-daeb42332a4a","system_id":"levelo_inurba_marseille","lat":43.26807,"lon":5.40275,"is_reserved":false,"is_disabled":false,"rental_uris":{"android":"levelo://app?vid=07a0559d-0162-47d2-a880-daeb42332a4a","ios":"levelo://app?vid=07a0559d-0162-47d2-a880-daeb42332a4a"},"vehicle_type_id":"4","last_reported":1756148890,"current_range_meters":6400,"station_id":"ce501612rcd8frsf0b60","pricing_plan_id":"cebpf4jnsgd1na2vs0mg"},{"bike_id":"3fcb1ecf-014d-414b-8e46-6cb5a3a18d8d","system_id":"levelo_inurba_marseille","lat":43.270949,"lon":5.387171,"is_reserved":false,"is_disabled":false,"rental_uris":{"android":"levelo://app?vid=3fcb1ecf-014d-414b-8e46-6cb5a3a18d8d","ios":"levelo://app?vid=3fcb1ecf-014d-414b-8e46-6cb5a3a18d8d"},"vehicle_type_id":"4","last_reported":1756148890,"current_range_meters":6800,"station_id":"","pricing_plan_id":"cebpf4jnsgd1na2vs0mg"},{"bike_id":"158fe4a9-48cc-491f-95fd-2aa73bd55cc0","system_id":"levelo_inurba_marseille","lat":43.30561,"lon":5.36914,"is_reserved":false,"is_disabled":false,"rental_uris":{"android":"levelo://app?vid=158fe4a9-48cc-491f-95fd-2aa73bd55cc0","ios":"levelo://app?vid=158fe4a9-48cc-491f-95fd-2aa73bd55cc0"},"vehicle_type_id":"4","last_reported":1756148890,"current_range_meters":6800,"station_id":"","pricing_plan_id":"cebpf4jnsgd1na2vs0mg"},{"bike_id":"f658b770-8acc-45f1-9377-9dad0ff22b6f","system_id":"levelo_inurba_marseille","lat":43.299221,"lon":5.374753,"is_reserved":false,"is_disabled":false,"rental_uris":{"android":"levelo://app?vid=f658b770-8acc-45f1-9377-9dad0ff22b6f","ios":"levelo://app?vid=f658b770-8acc-45f1-9377-9dad0ff22b6f"},"vehicle_type_id":"4","last_reported":1756148890,"current_range_meters":6800,"station_id":"ce4bgjh2rcd13ifvqbg0","pricing_plan_id":"cebpf4jnsgd1na2vs0mg"},{"bike_id":"8f0dcff4-f046-4032-9f3d-ddf858de1e56","system_id":"levelo_inurba_marseille","lat":43.292654,"lon":5.384271,"is_reserved":false,"is_disabled":false,"rental_uris":{"android":"levelo://app?vid=8f0dcff4-f046-4032-9f3d-ddf858de1e56","ios":"levelo://app?vid=8f0dcff4-f046-4032-9f3d-ddf858de1e56"},"vehicle_type_id":"4","last_reported":1756148890,"current_range_meters":6800,"station_id":"ce4bh692rcd13ifvqea0","pricing_plan_id":"cebpf4jnsgd1na2vs0mg"},{"bike_id":"3dcddbc4-5a26-4d4d-85d1-c4b9c9a580e3","system_id":"levelo_inurba_marseille","lat":43.287,"lon":5.39979,"is_reserved":false,"is_disabled":false,"rental_uris":{"android":"levelo://app?vid=3dcddbc4-5a26-4d4d-85d1-c4b9c9a580e3","ios":"levelo://app?vid=3dcddbc4-5a26-4d4d-85d1-c4b9c9a580e3"},"vehicle_type_id":"4","last_reported":1756148890,"current_range_meters":6800,"station_id":"ce4bho92rcd13ifvqh3g","pricing_plan_id":"cebpf4jnsgd1na2vs0mg"},{"bike_id":"0490c530-845d-44f9-bf75-09a8b4d2b9b9","system_id":"levelo_inurba_marseille","lat":43.29755,"lon":5.38067,"is_reserved":false,"is_disabled":false,"rental_uris":{"android":"levelo://app?vid=0490c530-845d-44f9-bf75-09a8b4d2b9b9","ios":"levelo://app?vid=0490c530-845d-44f9-bf75-09a8b4d2b9b9"},"vehicle_type_id":"4","last_reported":1756148890,"current_range_meters":7200,"station_id":"","pricing_plan_id":"cebpf4jnsgd1na2vs0mg"},{"bike_id":"8e3c1d96-db3d-493f-9f1f-6750dcd1e8bc","system_id":"levelo_inurba_marseille","lat":43.32765,"lon":5.38795,"is_reserved":false,"is_disabled":false,"rental_uris":{"android":"levelo://app?vid=8e3c1d96-db3d-493f-9f1f-6750dcd1e8bc","ios":"levelo://app?vid=8e3c1d96-db3d-493f-9f1f-6750dcd1e8bc"},"vehicle_type_id":"4","last_reported":1756148890,"current_range_meters":7200,"station_id":"","pricing_plan_id":"cebpf4jnsgd1na2vs0mg"},{"bike_id":"837b4568-40dc-453d-a129-3feaf616b126","system_id":"levelo_inurba_marseille","lat":43.28926,"lon":5.384,"is_reserved":false,"is_disabled":false,"rental_uris":{"android":"levelo://app?vid=837b4568-40dc-453d-a129-3feaf616b126","ios":"levelo://app?vid=837b4568-40dc-453d-a129-3feaf616b126"},"vehicle_type_id":"4","last_reported":1756148890,"current_range_meters":7200,"station_id":"ce4bh612rcd13ifvqe6g","pricing_plan_id":"cebpf4jnsgd1na2vs0mg"},{"bike_id":"0b8950e5-e6ff-4217-b03e-3f3539efba41","system_id":"levelo_inurba_marseille","lat":43.28477,"lon":5.3855,"is_reserved":false,"is_disabled":false,"rental_uris":{"android":"levelo://app?vid=0b8950e5-e6ff-4217-b03e-3f3539efba41","ios":"levelo://app?vid=0b8950e5-e6ff-4217-b03e-3f3539efba41"},"vehicle_type_id":"4","last_reported":1756148890,"current_range_meters":7200,"station_id":"ce4bh8p2rcd13ifvqeb0","pricing_plan_id":"cebpf4jnsgd1na2vs0mg"},{"bike_id":"ac014763-0cee-4afc-a476-5d2616ce3e77","system_id":"levelo_inurba_marseille","lat":43.25865,"lon":5.39896,"is_reserved":false,"is_disabled":false,"rental_uris":{"android":"levelo://app?vid=ac014763-0cee-4afc-a476-5d2616ce3e77","ios":"levelo://app?vid=ac014763-0cee-4afc-a476-5d2616ce3e77"},"vehicle_type_id":"4","last_reported":1756148890,"current_range_meters":7200,"station_id":"ce4bhl92rcd13ifvqghg","pricing_plan_id":"cebpf4jnsgd1na2vs0mg"},{"bike_id":"df6d4fe6-0629-4e8a-a9a2-be5f54d27446","system_id":"levelo_inurba_marseille","lat":43.287,"lon":5.39992,"is_reserved":false,"is_disabled":false,"rental_uris":{"android":"levelo://app?vid=df6d4fe6-0629-4e8a-a9a2-be5f54d27446","ios":"levelo://app?vid=df6d4fe6-0629-4e8a-a9a2-be5f54d27446"},"vehicle_type_id":"4","last_reported":1756148890,"current_range_meters":7200,"station_id":"ce4bho92rcd13ifvqh3g","pricing_plan_id":"cebpf4jnsgd1na2vs0mg"},{"bike_id":"5a81dd96-a0af-4fb0-acb4-88d32da4cd98","system_id":"levelo_inurba_marseille","lat":43.32023,"lon":5.41607,"is_reserved":false,"is_disabled":false,"rental_uris":{"android":"levelo://app?vid=5a81dd96-a0af-4fb0-acb4-88d32da4cd98","ios":"levelo://app?vid=5a81dd96-a0af-4fb0-acb4-88d32da4cd98"},"vehicle_type_id":"4","last_reported":1756148890,"current_range_meters":7200,"station_id":"ce4bhq92rcd13ifvqhkg","pricing_plan_id":"cebpf4jnsgd1na2vs0mg"},{"bike_id":"dc87a039-7c6d-478a-afe7-e47db1d88996","system_id":"levelo_inurba_marseille","lat":43.21186,"lon":5.35088,"is_reserved":false,"is_disabled":false,"rental_uris":{"android":"levelo://app?vid=dc87a039-7c6d-478a-afe7-e47db1d88996","ios":"levelo://app?vid=dc87a039-7c6d-478a-afe7-e47db1d88996"},"vehicle_type_id":"4","last_reported":1756148890,"current_range_meters":7200,"station_id":"st_cvj6sg6p6f1abm77japg","pricing_plan_id":"cebpf4jnsgd1na2vs0mg"},{"bike_id":"8278d03d-5584-48a8-a86a-7847a162c713","system_id":"levelo_inurba_marseille","lat":43.3094,"lon":5.38133,"is_reserved":false,"is_disabled":false,"rental_uris":{"android":"levelo://app?vid=8278d03d-5584-48a8-a86a-7847a162c713","ios":"levelo://app?vid=8278d03d-5584-48a8-a86a-7847a162c713"},"vehicle_type_id":"4","last_reported":1756148890,"current_range_meters":8000,"station_id":"","pricing_plan_id":"cebpf4jnsgd1na2vs0mg"},{"bike_id":"55109174-fe98-4631-83c4-d6dff8bf45da","system_id":"levelo_inurba_marseille","lat":43.31124,"lon":5.37761,"is_reserved":false,"is_disabled":false,"rental_uris":{"android":"levelo://app?vid=55109174-fe98-4631-83c4-d6dff8bf45da","ios":"levelo://app?vid=55109174-fe98-4631-83c4-d6dff8bf45da"},"vehicle_type_id":"4","last_reported":1756148890,"current_range_meters":8000,"station_id":"ce4bgt92rcd13ifvqcg0","pricing_plan_id":"cebpf4jnsgd1na2vs0mg"},{"bike_id":"e91e6b02-9656-4bda-bb4c-907ddb1c5373","system_id":"levelo_inurba_marseille","lat":43.28943,"lon":5.36634,"is_reserved":false,"is_disabled":false,"rental_uris":{"android":"levelo://app?vid=e91e6b02-9656-4bda-bb4c-907ddb1c5373","ios":"levelo://app?vid=e91e6b02-9656-4bda-bb4c-907ddb1c5373"},"vehicle_type_id":"4","last_reported":1756148890,"current_range_meters":8000,"station_id":"ce4bhap2rcd13ifvqek0","pricing_plan_id":"cebpf4jnsgd1na2vs0mg"},{"bike_id":"7f360e99-5297-4410-bb23-261af789bbda","system_id":"levelo_inurba_marseille","lat":43.2657,"lon":5.39023,"is_reserved":false,"is_disabled":false,"rental_uris":{"android":"levelo://app?vid=7f360e99-5297-4410-bb23-261af789bbda","ios":"levelo://app?vid=7f360e99-5297-4410-bb23-261af789bbda"},"vehicle_type_id":"4","last_reported":1756148890,"current_range_meters":8000,"station_id":"ce4bhe12rcd13ifvqf30","pricing_plan_id":"cebpf4jnsgd1na2vs0mg"},{"bike_id":"88d3883f-84aa-4468-a0a1-78dcc643602b","system_id":"levelo_inurba_marseille","lat":43.29601,"lon":5.38117,"is_reserved":false,"is_disabled":false,"rental_uris":{"android":"levelo://app?vid=88d3883f-84aa-4468-a0a1-78dcc643602b","ios":"levelo://app?vid=88d3883f-84aa-4468-a0a1-78dcc643602b"},"vehicle_type_id":"4","last_reported":1756148890,"current_range_meters":8400,"station_id":"ce4bgl12rcd13ifvqbo0","pricing_plan_id":"cebpf4jnsgd1na2vs0mg"},{"bike_id":"318a994a-51ff-465f-b40c-534a36bf7044","system_id":"levelo_inurba_marseille","lat":43.30163,"lon":5.38277,"is_reserved":false,"is_disabled":false,"rental_uris":{"android":"levelo://app?vid=318a994a-51ff-465f-b40c-534a36bf7044","ios":"levelo://app?vid=318a994a-51ff-465f-b40c-534a36bf7044"},"vehicle_type_id":"4","last_reported":1756148890,"current_range_meters":8800,"station_id":"","pricing_plan_id":"cebpf4jnsgd1na2vs0mg"},{"bike_id":"4b76acbc-4409-4ff9-8545-d99df813bdea","system_id":"levelo_inurba_marseille","lat":43.31483,"lon":5.37313,"is_reserved":false,"is_disabled":false,"rental_uris":{"android":"levelo://app?vid=4b76acbc-4409-4ff9-8545-d99df813bdea","ios":"levelo://app?vid=4b76acbc-4409-4ff9-8545-d99df813bdea"},"vehicle_type_id":"4","last_reported":1756148890,"current_range_meters":8800,"station_id":"ce4bgt12rcd13ifvqcd0","pricing_plan_id":"cebpf4jnsgd1na2vs0mg"},{"bike_id":"d4e44849-9eff-4b1a-857d-5eda5b467760","system_id":"levelo_inurba_marseille","lat":43.284215,"lon":5.374848,"is_reserved":false,"is_disabled":false,"rental_uris":{"android":"levelo://app?vid=d4e44849-9eff-4b1a-857d-5eda5b467760","ios":"levelo://app?vid=d4e44849-9eff-4b1a-857d-5eda5b467760"},"vehicle_type_id":"4","last_reported":1756148890,"current_range_meters":8800,"station_id":"ce4bh412rcd13ifvqds0","pricing_plan_id":"cebpf4jnsgd1na2vs0mg"},{"bike_id":"a2f99c99-dde5-41c8-97bd-7772fe82f3a8","system_id":"levelo_inurba_marseille","lat":43.21192,"lon":5.35077,"is_reserved":false,"is_disabled":false,"rental_uris":{"android":"levelo://app?vid=a2f99c99-dde5-41c8-97bd-7772fe82f3a8","ios":"levelo://app?vid=a2f99c99-dde5-41c8-97bd-7772fe82f3a8"},"vehicle_type_id":"4","last_reported":1756148890,"current_range_meters":8800,"station_id":"st_cvj6sg6p6f1abm77japg","pricing_plan_id":"cebpf4jnsgd1na2vs0mg"},{"bike_id":"fb0ecd7c-2c0f-42f1-9e73-9448c9893367","system_id":"levelo_inurba_marseille","lat":43.26478,"lon":5.37046,"is_reserved":false,"is_disabled":false,"rental_uris":{"android":"levelo://app?vid=fb0ecd7c-2c0f-42f1-9e73-9448c9893367","ios":"levelo://app?vid=fb0ecd7c-2c0f-42f1-9e73-9448c9893367"},"vehicle_type_id":"4","last_reported":1756148890,"current_range_meters":9200,"station_id":"","pricing_plan_id":"cebpf4jnsgd1na2vs0mg"},{"bike_id":"a3b06253-9ed2-4d5d-aa22-52b5e574568b","system_id":"levelo_inurba_marseille","lat":43.29569,"lon":5.37526,"is_reserved":false,"is_disabled":false,"rental_uris":{"android":"levelo://app?vid=a3b06253-9ed2-4d5d-aa22-52b5e574568b","ios":"levelo://app?vid=a3b06253-9ed2-4d5d-aa22-52b5e574568b"},"vehicle_type_id":"4","last_reported":1756148890,"current_range_meters":9200,"station_id":"ce4bgh92rcd13ifvqb50","pricing_plan_id":"cebpf4jnsgd1na2vs0mg"},{"bike_id":"0b59414e-2596-4273-bfe7-0260e2270739","system_id":"levelo_inurba_marseille","lat":43.28213,"lon":5.39036,"is_reserved":false,"is_disabled":false,"rental_uris":{"android":"levelo://app?vid=0b59414e-2596-4273-bfe7-0260e2270739","ios":"levelo://app?vid=0b59414e-2596-4273-bfe7-0260e2270739"},"vehicle_type_id":"4","last_reported":1756148890,"current_range_meters":9200,"station_id":"ce4bhn92rcd13ifvqgsg","pricing_plan_id":"cebpf4jnsgd1na2vs0mg"},{"bike_id":"53a1ba35-4cc8-4cd8-87a3-15b197fe4ff4","system_id":"levelo_inurba_marseille","lat":43.2886,"lon":5.39314,"is_reserved":false,"is_disabled":false,"rental_uris":{"android":"levelo://app?vid=53a1ba35-4cc8-4cd8-87a3-15b197fe4ff4","ios":"levelo://app?vid=53a1ba35-4cc8-4cd8-87a3-15b197fe4ff4"},"vehicle_type_id":"4","last_reported":1756148890,"current_range_meters":9600,"station_id":"ce4bh2p2rcd13ifvqdi0","pricing_plan_id":"cebpf4jnsgd1na2vs0mg"},{"bike_id":"5bc159b2-6625-4331-8d47-866182c3fe54","system_id":"levelo_inurba_marseille","lat":43.28702,"lon":5.37389,"is_reserved":false,"is_disabled":false,"rental_uris":{"android":"levelo://app?vid=5bc159b2-6625-4331-8d47-866182c3fe54","ios":"levelo://app?vid=5bc159b2-6625-4331-8d47-866182c3fe54"},"vehicle_type_id":"4","last_reported":1756148890,"current_range_meters":9600,"station_id":"ce4bh3p2rcd13ifvqdq0","pricing_plan_id":"cebpf4jnsgd1na2vs0mg"},{"bike_id":"aabc51fa-f4f5-405f-b6b7-78d5b8c97b32","system_id":"levelo_inurba_marseille","lat":43.28462,"lon":5.35894,"is_reserved":false,"is_disabled":false,"rental_uris":{"android":"levelo://app?vid=aabc51fa-f4f5-405f-b6b7-78d5b8c97b32","ios":"levelo://app?vid=aabc51fa-f4f5-405f-b6b7-78d5b8c97b32"},"vehicle_type_id":"4","last_reported":1756148890,"current_range_meters":9600,"station_id":"ce4bhah2rcd13ifvqei0","pricing_plan_id":"cebpf4jnsgd1na2vs0mg"},{"bike_id":"d0999127-b16f-4437-8178-2bcfe37baaed","system_id":"levelo_inurba_marseille","lat":43.27813,"lon":5.40718,"is_reserved":false,"is_disabled":false,"rental_uris":{"android":"levelo://app?vid=d0999127-b16f-4437-8178-2bcfe37baaed","ios":"levelo://app?vid=d0999127-b16f-4437-8178-2bcfe37baaed"},"vehicle_type_id":"4","last_reported":1756148890,"current_range_meters":9600,"station_id":"ce4bhnh2rcd13ifvqgtg","pricing_plan_id":"cebpf4jnsgd1na2vs0mg"},{"bike_id":"f827924e-764d-464b-bd85-3fbe8fd49a38","system_id":"levelo_inurba_marseille","lat":43.28157,"lon":5.42643,"is_reserved":false,"is_disabled":false,"rental_uris":{"android":"levelo://app?vid=f827924e-764d-464b-bd85-3fbe8fd49a38","ios":"levelo://app?vid=f827924e-764d-464b-bd85-3fbe8fd49a38"},"vehicle_type_id":"4","last_reported":1756148890,"current_range_meters":9600,"station_id":"ce4bhnh2rcd13ifvqgug","pricing_plan_id":"cebpf4jnsgd1na2vs0mg"},{"bike_id":"82bc0abc-7a95-4a7d-90a4-db0b095dbb34","system_id":"levelo_inurba_marseille","lat":43.32086,"lon":5.36781,"is_reserved":false,"is_disabled":false,"rental_uris":{"android":"levelo://app?vid=82bc0abc-7a95-4a7d-90a4-db0b095dbb34","ios":"levelo://app?vid=82bc0abc-7a95-4a7d-90a4-db0b095dbb34"},"vehicle_type_id":"4","last_reported":1756148890,"current_range_meters":9600,"station_id":"ce4bhrh2rcd13ifvqhug","pricing_plan_id":"cebpf4jnsgd1na2vs0mg"},{"bike_id":"9d00c3f2-394a-452e-81aa-a0f04b664229","system_id":"levelo_inurba_marseille","lat":43.30427,"lon":5.38887,"is_reserved":false,"is_disabled":false,"rental_uris":{"android":"levelo://app?vid=9d00c3f2-394a-452e-81aa-a0f04b664229","ios":"levelo://app?vid=9d00c3f2-394a-452e-81aa-a0f04b664229"},"vehicle_type_id":"4","last_reported":1756148890,"current_range_meters":10000,"station_id":"ce4bgk12rcd13ifvqbi0","pricing_plan_id":"cebpf4jnsgd1na2vs0mg"},{"bike_id":"51a104be-a94a-4b83-84d7-1040c9640c82","system_id":"levelo_inurba_marseille","lat":43.28485,"lon":5.38426,"is_reserved":false,"is_disabled":false,"rental_uris":{"android":"levelo://app?vid=51a104be-a94a-4b83-84d7-1040c9640c82","ios":"levelo://app?vid=51a104be-a94a-4b83-84d7-1040c9640c82"},"vehicle_type_id":"4","last_reported":1756148890,"current_range_meters":10000,"station_id":"ce4bh512rcd13ifvqe3g","pricing_plan_id":"cebpf4jnsgd1na2vs0mg"},{"bike_id":"3f841bd6-7fab-4c08-a3b5-9956bb08235c","system_id":"levelo_inurba_marseille","lat":43.32106,"lon":5.36773,"is_reserved":false,"is_disabled":false,"rental_uris":{"android":"levelo://app?vid=3f841bd6-7fab-4c08-a3b5-9956bb08235c","ios":"levelo://app?vid=3f841bd6-7fab-4c08-a3b5-9956bb08235c"},"vehicle_type_id":"4","last_reported":1756148890,"current_range_meters":10000,"station_id":"ce4bhrh2rcd13ifvqhug","pricing_plan_id":"cebpf4jnsgd1na2vs0mg"},{"bike_id":"3799ec2b-6545-4732-b1f5-6b525c9cfc81","system_id":"levelo_inurba_marseille","lat":43.29778,"lon":5.38101,"is_reserved":false,"is_disabled":false,"rental_uris":{"android":"levelo://app?vid=3799ec2b-6545-4732-b1f5-6b525c9cfc81","ios":"levelo://app?vid=3799ec2b-6545-4732-b1f5-6b525c9cfc81"},"vehicle_type_id":"4","last_reported":1756148890,"current_range_meters":10800,"station_id":"ce4bgip2rcd13ifvqbb0","pricing_plan_id":"cebpf4jnsgd1na2vs0mg"},{"bike_id":"689178bc-5c72-427e-9882-887899b3c3e0","system_id":"levelo_inurba_marseille","lat":43.28945,"lon":5.3637,"is_reserved":false,"is_disabled":false,"rental_uris":{"android":"levelo://app?vid=689178bc-5c72-427e-9882-887899b3c3e0","ios":"levelo://app?vid=689178bc-5c72-427e-9882-887899b3c3e0"},"vehicle_type_id":"4","last_reported":1756148890,"current_range_meters":10800,"station_id":"ce4bhc92rcd13ifvqetg","pricing_plan_id":"cebpf4jnsgd1na2vs0mg"},{"bike_id":"1567d1b1-2741-4bf3-9db0-f1ad92096fc3","system_id":"levelo_inurba_marseille","lat":43.24647,"lon":5.38893,"is_reserved":false,"is_disabled":false,"rental_uris":{"android":"levelo://app?vid=1567d1b1-2741-4bf3-9db0-f1ad92096fc3","ios":"levelo://app?vid=1567d1b1-2741-4bf3-9db0-f1ad92096fc3"},"vehicle_type_id":"4","last_reported":1756148890,"current_range_meters":10800,"station_id":"ce4bhg12rcd13ifvqf60","pricing_plan_id":"cebpf4jnsgd1na2vs0mg"},{"bike_id":"3f1187c8-9177-4311-82f3-14d53139d8e6","system_id":"levelo_inurba_marseille","lat":43.27495,"lon":5.42451,"is_reserved":false,"is_disabled":false,"rental_uris":{"android":"levelo://app?vid=3f1187c8-9177-4311-82f3-14d53139d8e6","ios":"levelo://app?vid=3f1187c8-9177-4311-82f3-14d53139d8e6"},"vehicle_type_id":"4","last_reported":1756148890,"current_range_meters":10800,"station_id":"ce4bhn92rcd13ifvqgrg","pricing_plan_id":"cebpf4jnsgd1na2vs0mg"},{"bike_id":"ea054efb-6435-4b1d-95d4-b10cd5cc3ec2","system_id":"levelo_inurba_marseille","lat":43.32366,"lon":5.36766,"is_reserved":false,"is_disabled":false,"rental_uris":{"android":"levelo://app?vid=ea054efb-6435-4b1d-95d4-b10cd5cc3ec2","ios":"levelo://app?vid=ea054efb-6435-4b1d-95d4-b10cd5cc3ec2"},"vehicle_type_id":"4","last_reported":1756148890,"current_range_meters":10800,"station_id":"ce4bhsh2rcd13ifvqi2g","pricing_plan_id":"cebpf4jnsgd1na2vs0mg"},{"bike_id":"b74c1f4c-a0f0-4f2b-95ac-2abe6fe03a8e","system_id":"levelo_inurba_marseille","lat":43.30787,"lon":5.37642,"is_reserved":false,"is_disabled":false,"rental_uris":{"android":"levelo://app?vid=b74c1f4c-a0f0-4f2b-95ac-2abe6fe03a8e","ios":"levelo://app?vid=b74c1f4c-a0f0-4f2b-95ac-2abe6fe03a8e"},"vehicle_type_id":"4","last_reported":1756148890,"current_range_meters":11200,"station_id":"ce4bgv92rcd13ifvqcq0","pricing_plan_id":"cebpf4jnsgd1na2vs0mg"},{"bike_id":"0f2f1030-db9c-4614-afa5-7510c24bd345","system_id":"levelo_inurba_marseille","lat":43.2907,"lon":5.3715,"is_reserved":false,"is_disabled":false,"rental_uris":{"android":"levelo://app?vid=0f2f1030-db9c-4614-afa5-7510c24bd345","ios":"levelo://app?vid=0f2f1030-db9c-4614-afa5-7510c24bd345"},"vehicle_type_id":"4","last_reported":1756148890,"current_range_meters":11200,"station_id":"ce4bh5p2rcd13ifvqe4g","pricing_plan_id":"cebpf4jnsgd1na2vs0mg"},{"bike_id":"00900e47-6954-4b20-ab32-dbe8c300bf71","system_id":"levelo_inurba_marseille","lat":43.31726,"lon":5.42394,"is_reserved":false,"is_disabled":false,"rental_uris":{"android":"levelo://app?vid=00900e47-6954-4b20-ab32-dbe8c300bf71","ios":"levelo://app?vid=00900e47-6954-4b20-ab32-dbe8c300bf71"},"vehicle_type_id":"4","last_reported":1756148890,"current_range_meters":11200,"station_id":"ce4bhp92rcd13ifvqhbg","pricing_plan_id":"cebpf4jnsgd1na2vs0mg"},{"bike_id":"193642bc-ecf5-4317-b16c-5823c5a351b9","system_id":"levelo_inurba_marseille","lat":43.31758,"lon":5.39017,"is_reserved":false,"is_disabled":false,"rental_uris":{"android":"levelo://app?vid=193642bc-ecf5-4317-b16c-5823c5a351b9","ios":"levelo://app?vid=193642bc-ecf5-4317-b16c-5823c5a351b9"},"vehicle_type_id":"4","last_reported":1756148890,"current_range_meters":11200,"station_id":"ce4bhqp2rcd13ifvqhng","pricing_plan_id":"cebpf4jnsgd1na2vs0mg"},{"bike_id":"a4a408b3-aa81-4fa0-99b2-8d0a08e384bc","system_id":"levelo_inurba_marseille","lat":43.32102,"lon":5.36769,"is_reserved":false,"is_disabled":false,"rental_uris":{"android":"levelo://app?vid=a4a408b3-aa81-4fa0-99b2-8d0a08e384bc","ios":"levelo://app?vid=a4a408b3-aa81-4fa0-99b2-8d0a08e384bc"},"vehicle_type_id":"4","last_reported":1756148890,"current_range_meters":11200,"station_id":"ce4bhrh2rcd13ifvqhug","pricing_plan_id":"cebpf4jnsgd1na2vs0mg"},{"bike_id":"fc5baf79-349d-4bd6-96df-fb36c34a0f38","system_id":"levelo_inurba_marseille","lat":43.28618,"lon":5.35104,"is_reserved":false,"is_disabled":false,"rental_uris":{"android":"levelo://app?vid=fc5baf79-349d-4bd6-96df-fb36c34a0f38","ios":"levelo://app?vid=fc5baf79-349d-4bd6-96df-fb36c34a0f38"},"vehicle_type_id":"4","last_reported":1756148890,"current_range_meters":11600,"station_id":"ce4bhch2rcd13ifvqeug","pricing_plan_id":"cebpf4jnsgd1na2vs0mg"},{"bike_id":"1cd21559-399f-4936-b4ac-cb1d7223c9c3","system_id":"levelo_inurba_marseille","lat":43.23994,"lon":5.36286,"is_reserved":false,"is_disabled":false,"rental_uris":{"android":"levelo://app?vid=1cd21559-399f-4936-b4ac-cb1d7223c9c3","ios":"levelo://app?vid=1cd21559-399f-4936-b4ac-cb1d7223c9c3"},"vehicle_type_id":"4","last_reported":1756148890,"current_range_meters":12000,"station_id":"","pricing_plan_id":"cebpf4jnsgd1na2vs0mg"},{"bike_id":"9088aabd-dc58-40cc-a765-35686c1c444b","system_id":"levelo_inurba_marseille","lat":43.29025,"lon":5.38647,"is_reserved":false,"is_disabled":false,"rental_uris":{"android":"levelo://app?vid=9088aabd-dc58-40cc-a765-35686c1c444b","ios":"levelo://app?vid=9088aabd-dc58-40cc-a765-35686c1c444b"},"vehicle_type_id":"4","last_reported":1756148890,"current_range_meters":12000,"station_id":"ce4bh4p2rcd13ifvqe0g","pricing_plan_id":"cebpf4jnsgd1na2vs0mg"},{"bike_id":"b0d6a657-c78e-47de-85ac-cbf4564acdcb","system_id":"levelo_inurba_marseille","lat":43.281553,"lon":5.426445,"is_reserved":false,"is_disabled":false,"rental_uris":{"android":"levelo://app?vid=b0d6a657-c78e-47de-85ac-cbf4564acdcb","ios":"levelo://app?vid=b0d6a657-c78e-47de-85ac-cbf4564acdcb"},"vehicle_type_id":"4","last_reported":1756148890,"current_range_meters":12000,"station_id":"ce4bhnh2rcd13ifvqgug","pricing_plan_id":"cebpf4jnsgd1na2vs0mg"},{"bike_id":"f8a0d0fe-5929-4159-b9a5-a8b5e2af6a16","system_id":"levelo_inurba_marseille","lat":43.29265,"lon":5.38426,"is_reserved":false,"is_disabled":false,"rental_uris":{"android":"levelo://app?vid=f8a0d0fe-5929-4159-b9a5-a8b5e2af6a16","ios":"levelo://app?vid=f8a0d0fe-5929-4159-b9a5-a8b5e2af6a16"},"vehicle_type_id":"4","last_reported":1756148890,"current_range_meters":12400,"station_id":"ce4bh692rcd13ifvqea0","pricing_plan_id":"cebpf4jnsgd1na2vs0mg"},{"bike_id":"af4f25ab-3f23-4eef-b561-a9bfc5ac7a45","system_id":"levelo_inurba_marseille","lat":43.29257,"lon":5.38429,"is_reserved":false,"is_disabled":false,"rental_uris":{"android":"levelo://app?vid=af4f25ab-3f23-4eef-b561-a9bfc5ac7a45","ios":"levelo://app?vid=af4f25ab-3f23-4eef-b561-a9bfc5ac7a45"},"vehicle_type_id":"4","last_reported":1756148890,"current_range_meters":12400,"station_id":"ce4bh692rcd13ifvqea0","pricing_plan_id":"cebpf4jnsgd1na2vs0mg"},{"bike_id":"37ee34ea-f1e1-4241-a19a-4060e53b71a9","system_id":"levelo_inurba_marseille","lat":43.27371,"lon":5.36235,"is_reserved":false,"is_disabled":false,"rental_uris":{"android":"levelo://app?vid=37ee34ea-f1e1-4241-a19a-4060e53b71a9","ios":"levelo://app?vid=37ee34ea-f1e1-4241-a19a-4060e53b71a9"},"vehicle_type_id":"4","last_reported":1756148890,"current_range_meters":12400,"station_id":"ce4bhbh2rcd13ifvqeo0","pricing_plan_id":"cebpf4jnsgd1na2vs0mg"},{"bike_id":"a5aff412-9b35-4d5b-b2d6-ea29ae910d7f","system_id":"levelo_inurba_marseille","lat":43.32093,"lon":5.36784,"is_reserved":false,"is_disabled":false,"rental_uris":{"android":"levelo://app?vid=a5aff412-9b35-4d5b-b2d6-ea29ae910d7f","ios":"levelo://app?vid=a5aff412-9b35-4d5b-b2d6-ea29ae910d7f"},"vehicle_type_id":"4","last_reported":1756148890,"current_range_meters":12400,"station_id":"ce4bhrh2rcd13ifvqhug","pricing_plan_id":"cebpf4jnsgd1na2vs0mg"},{"bike_id":"a14bff5c-a124-40f1-914a-f95a7ea297c7","system_id":"levelo_inurba_marseille","lat":43.25341,"lon":5.4217,"is_reserved":false,"is_disabled":false,"rental_uris":{"android":"levelo://app?vid=a14bff5c-a124-40f1-914a-f95a7ea297c7","ios":"levelo://app?vid=a14bff5c-a124-40f1-914a-f95a7ea297c7"},"vehicle_type_id":"4","last_reported":1756148890,"current_range_meters":12400,"station_id":"st_d2m65c5bi1j21697t3ng","pricing_plan_id":"cebpf4jnsgd1na2vs0mg"},{"bike_id":"1f8501a7-4674-4d39-83d9-7ec9c7fb9041","system_id":"levelo_inurba_marseille","lat":43.29258,"lon":5.38445,"is_reserved":false,"is_disabled":false,"rental_uris":{"android":"levelo://app?vid=1f8501a7-4674-4d39-83d9-7ec9c7fb9041","ios":"levelo://app?vid=1f8501a7-4674-4d39-83d9-7ec9c7fb9041"},"vehicle_type_id":"4","last_reported":1756148890,"current_range_meters":12800,"station_id":"ce4bh692rcd13ifvqea0","pricing_plan_id":"cebpf4jnsgd1na2vs0mg"},{"bike_id":"186b83f8-ac67-41eb-a562-75daed118ce5","system_id":"levelo_inurba_marseille","lat":43.29268,"lon":5.38443,"is_reserved":false,"is_disabled":false,"rental_uris":{"android":"levelo://app?vid=186b83f8-ac67-41eb-a562-75daed118ce5","ios":"levelo://app?vid=186b83f8-ac67-41eb-a562-75daed118ce5"},"vehicle_type_id":"4","last_reported":1756148890,"current_range_meters":12800,"station_id":"ce4bh692rcd13ifvqea0","pricing_plan_id":"cebpf4jnsgd1na2vs0mg"},{"bike_id":"471eb35e-d3a4-476b-8b9d-c7e88b211592","system_id":"levelo_inurba_marseille","lat":43.25329,"lon":5.42178,"is_reserved":false,"is_disabled":false,"rental_uris":{"android":"levelo://app?vid=471eb35e-d3a4-476b-8b9d-c7e88b211592","ios":"levelo://app?vid=471eb35e-d3a4-476b-8b9d-c7e88b211592"},"vehicle_type_id":"4","last_reported":1756148890,"current_range_meters":12800,"station_id":"st_d2m65c5bi1j21697t3ng","pricing_plan_id":"cebpf4jnsgd1na2vs0mg"},{"bike_id":"3f4a45cc-e5bb-4b35-88d4-61431d4f60e6","system_id":"levelo_inurba_marseille","lat":43.329242,"lon":5.390876,"is_reserved":false,"is_disabled":false,"rental_uris":{"android":"levelo://app?vid=3f4a45cc-e5bb-4b35-88d4-61431d4f60e6","ios":"levelo://app?vid=3f4a45cc-e5bb-4b35-88d4-61431d4f60e6"},"vehicle_type_id":"4","last_reported":1756148890,"current_range_meters":13600,"station_id":"","pricing_plan_id":"cebpf4jnsgd1na2vs0mg"},{"bike_id":"73150f30-1400-4cf5-b6ce-c390828bfddd","system_id":"levelo_inurba_marseille","lat":43.29781,"lon":5.37119,"is_reserved":false,"is_disabled":false,"rental_uris":{"android":"levelo://app?vid=73150f30-1400-4cf5-b6ce-c390828bfddd","ios":"levelo://app?vid=73150f30-1400-4cf5-b6ce-c390828bfddd"},"vehicle_type_id":"4","last_reported":1756148890,"current_range_meters":13600,"station_id":"ce4bgop2rcd13ifvqc1g","pricing_plan_id":"cebpf4jnsgd1na2vs0mg"},{"bike_id":"7485ae6f-fc2e-4b28-b120-b38ebae858e9","system_id":"levelo_inurba_marseille","lat":43.30587,"lon":5.37229,"is_reserved":false,"is_disabled":false,"rental_uris":{"android":"levelo://app?vid=7485ae6f-fc2e-4b28-b120-b38ebae858e9","ios":"levelo://app?vid=7485ae6f-fc2e-4b28-b120-b38ebae858e9"},"vehicle_type_id":"4","last_reported":1756148890,"current_range_meters":13600,"station_id":"ce4bgqh2rcd13ifvqc4g","pricing_plan_id":"cebpf4jnsgd1na2vs0mg"},{"bike_id":"6fa795ae-c410-4e75-accd-65c0dc295cce","system_id":"levelo_inurba_marseille","lat":43.28607,"lon":5.35108,"is_reserved":false,"is_disabled":false,"rental_uris":{"android":"levelo://app?vid=6fa795ae-c410-4e75-accd-65c0dc295cce","ios":"levelo://app?vid=6fa795ae-c410-4e75-accd-65c0dc295cce"},"vehicle_type_id":"4","last_reported":1756148890,"current_range_meters":13600,"station_id":"ce4bhch2rcd13ifvqeug","pricing_plan_id":"cebpf4jnsgd1na2vs0mg"},{"bike_id":"b028f0e6-3d25-4e55-9c4c-96bd0e8c45a4","system_id":"levelo_inurba_marseille","lat":43.26566,"lon":5.39022,"is_reserved":false,"is_disabled":false,"rental_uris":{"android":"levelo://app?vid=b028f0e6-3d25-4e55-9c4c-96bd0e8c45a4","ios":"levelo://app?vid=b028f0e6-3d25-4e55-9c4c-96bd0e8c45a4"},"vehicle_type_id":"4","last_reported":1756148890,"current_range_meters":13600,"station_id":"ce4bhe12rcd13ifvqf30","pricing_plan_id":"cebpf4jnsgd1na2vs0mg"},{"bike_id":"d94a3e2d-afbd-4e20-9e99-a5beeae0f186","system_id":"levelo_inurba_marseille","lat":43.28158,"lon":5.4264,"is_reserved":false,"is_disabled":false,"rental_uris":{"android":"levelo://app?vid=d94a3e2d-afbd-4e20-9e99-a5beeae0f186","ios":"levelo://app?vid=d94a3e2d-afbd-4e20-9e99-a5beeae0f186"},"vehicle_type_id":"4","last_reported":1756148890,"current_range_meters":13600,"station_id":"ce4bhnh2rcd13ifvqgug","pricing_plan_id":"cebpf4jnsgd1na2vs0mg"},{"bike_id":"bd0b3466-02c3-42e1-81e4-85af84d5bbfb","system_id":"levelo_inurba_marseille","lat":43.2893,"lon":5.38398,"is_reserved":false,"is_disabled":false,"rental_uris":{"android":"levelo://app?vid=bd0b3466-02c3-42e1-81e4-85af84d5bbfb","ios":"levelo://app?vid=bd0b3466-02c3-42e1-81e4-85af84d5bbfb"},"vehicle_type_id":"4","last_reported":1756148890,"current_range_meters":14000,"station_id":"ce4bh612rcd13ifvqe6g","pricing_plan_id":"cebpf4jnsgd1na2vs0mg"},{"bike_id":"919f8de0-32f4-4349-b262-ac11136c60f1","system_id":"levelo_inurba_marseille","lat":43.27988,"lon":5.41662,"is_reserved":false,"is_disabled":false,"rental_uris":{"android":"levelo://app?vid=919f8de0-32f4-4349-b262-ac11136c60f1","ios":"levelo://app?vid=919f8de0-32f4-4349-b262-ac11136c60f1"},"vehicle_type_id":"4","last_reported":1756148890,"current_range_meters":14000,"station_id":"ce4bho12rcd13ifvqh1g","pricing_plan_id":"cebpf4jnsgd1na2vs0mg"},{"bike_id":"19783fba-7475-4b86-95a6-08d3d4fa647f","system_id":"levelo_inurba_marseille","lat":43.29896,"lon":5.43673,"is_reserved":false,"is_disabled":false,"rental_uris":{"android":"levelo://app?vid=19783fba-7475-4b86-95a6-08d3d4fa647f","ios":"levelo://app?vid=19783fba-7475-4b86-95a6-08d3d4fa647f"},"vehicle_type_id":"4","last_reported":1756148890,"current_range_meters":14000,"station_id":"ce4bhpp2rcd13ifvqhfg","pricing_plan_id":"cebpf4jnsgd1na2vs0mg"},{"bike_id":"322142a9-6cb3-49c2-bb0e-0e2c0fda1e2e","system_id":"levelo_inurba_marseille","lat":43.33009,"lon":5.39034,"is_reserved":false,"is_disabled":false,"rental_uris":{"android":"levelo://app?vid=322142a9-6cb3-49c2-bb0e-0e2c0fda1e2e","ios":"levelo://app?vid=322142a9-6cb3-49c2-bb0e-0e2c0fda1e2e"},"vehicle_type_id":"4","last_reported":1756148890,"current_range_meters":14000,"station_id":"ce4bhr92rcd13ifvqhrg","pricing_plan_id":"cebpf4jnsgd1na2vs0mg"},{"bike_id":"6c65d2f5-d6ad-4ac2-955b-91499b8d1246","system_id":"levelo_inurba_marseille","lat":43.29576,"lon":5.37511,"is_reserved":false,"is_disabled":false,"rental_uris":{"android":"levelo://app?vid=6c65d2f5-d6ad-4ac2-955b-91499b8d1246","ios":"levelo://app?vid=6c65d2f5-d6ad-4ac2-955b-91499b8d1246"},"vehicle_type_id":"4","last_reported":1756148890,"current_range_meters":14400,"station_id":"ce4bgh92rcd13ifvqb50","pricing_plan_id":"cebpf4jnsgd1na2vs0mg"},{"bike_id":"c7749fdd-f279-4a9b-88ec-b88ace9341f5","system_id":"levelo_inurba_marseille","lat":43.29527,"lon":5.38547,"is_reserved":false,"is_disabled":false,"rental_uris":{"android":"levelo://app?vid=c7749fdd-f279-4a9b-88ec-b88ace9341f5","ios":"levelo://app?vid=c7749fdd-f279-4a9b-88ec-b88ace9341f5"},"vehicle_type_id":"4","last_reported":1756148890,"current_range_meters":14400,"station_id":"ce4bgih2rcd13ifvqba0","pricing_plan_id":"cebpf4jnsgd1na2vs0mg"},{"bike_id":"b92b68c3-c808-4f97-81eb-5fc5fbc4c9e6","system_id":"levelo_inurba_marseille","lat":43.29603,"lon":5.38098,"is_reserved":false,"is_disabled":false,"rental_uris":{"android":"levelo://app?vid=b92b68c3-c808-4f97-81eb-5fc5fbc4c9e6","ios":"levelo://app?vid=b92b68c3-c808-4f97-81eb-5fc5fbc4c9e6"},"vehicle_type_id":"4","last_reported":1756148890,"current_range_meters":14400,"station_id":"ce4bgl12rcd13ifvqbo0","pricing_plan_id":"cebpf4jnsgd1na2vs0mg"},{"bike_id":"4088c333-98fe-4261-bc3a-a823a327bc0b","system_id":"levelo_inurba_marseille","lat":43.28621,"lon":5.35114,"is_reserved":false,"is_disabled":false,"rental_uris":{"android":"levelo://app?vid=4088c333-98fe-4261-bc3a-a823a327bc0b","ios":"levelo://app?vid=4088c333-98fe-4261-bc3a-a823a327bc0b"},"vehicle_type_id":"4","last_reported":1756148890,"current_range_meters":14400,"station_id":"ce4bhch2rcd13ifvqeug","pricing_plan_id":"cebpf4jnsgd1na2vs0mg"},{"bike_id":"78c01866-7c31-4b0c-93fb-94177f5e298a","system_id":"levelo_inurba_marseille","lat":43.22948,"lon":5.35389,"is_reserved":false,"is_disabled":false,"rental_uris":{"android":"levelo://app?vid=78c01866-7c31-4b0c-93fb-94177f5e298a","ios":"levelo://app?vid=78c01866-7c31-4b0c-93fb-94177f5e298a"},"vehicle_type_id":"4","last_reported":1756148890,"current_range_meters":14400,"station_id":"cpo3532slgdg3j2ikp40","pricing_plan_id":"cebpf4jnsgd1na2vs0mg"},{"bike_id":"8b09d6e8-3175-46a4-a882-3f13b9ad4be3","system_id":"levelo_inurba_marseille","lat":43.24632,"lon":5.43154,"is_reserved":false,"is_disabled":false,"rental_uris":{"android":"levelo://app?vid=8b09d6e8-3175-46a4-a882-3f13b9ad4be3","ios":"levelo://app?vid=8b09d6e8-3175-46a4-a882-3f13b9ad4be3"},"vehicle_type_id":"4","last_reported":1756148890,"current_range_meters":14400,"station_id":"st_d2m6c4gdas8pm72e190g","pricing_plan_id":"cebpf4jnsgd1na2vs0mg"},{"bike_id":"46a9bc63-5c5b-4814-9969-83acde5b11ff","system_id":"levelo_inurba_marseille","lat":43.28358,"lon":5.38121,"is_reserved":false,"is_disabled":false,"rental_uris":{"android":"levelo://app?vid=46a9bc63-5c5b-4814-9969-83acde5b11ff","ios":"levelo://app?vid=46a9bc63-5c5b-4814-9969-83acde5b11ff"},"vehicle_type_id":"4","last_reported":1756148890,"current_range_meters":14800,"station_id":"ce4bh412rcd13ifvqdr0","pricing_plan_id":"cebpf4jnsgd1na2vs0mg"},{"bike_id":"ce3f054c-9878-49e1-9b46-2cbfe04ce611","system_id":"levelo_inurba_marseille","lat":43.31684,"lon":5.40473,"is_reserved":false,"is_disabled":false,"rental_uris":{"android":"levelo://app?vid=ce3f054c-9878-49e1-9b46-2cbfe04ce611","ios":"levelo://app?vid=ce3f054c-9878-49e1-9b46-2cbfe04ce611"},"vehicle_type_id":"4","last_reported":1756148890,"current_range_meters":15200,"station_id":"ce4bh012rcd13ifvqd00","pricing_plan_id":"cebpf4jnsgd1na2vs0mg"},{"bike_id":"9310b3ee-aa92-4445-906e-cb0397aba894","system_id":"levelo_inurba_marseille","lat":43.29868,"lon":5.39732,"is_reserved":false,"is_disabled":false,"rental_uris":{"android":"levelo://app?vid=9310b3ee-aa92-4445-906e-cb0397aba894","ios":"levelo://app?vid=9310b3ee-aa92-4445-906e-cb0397aba894"},"vehicle_type_id":"4","last_reported":1756148890,"current_range_meters":15200,"station_id":"ce4bh0h2rcd13ifvqd50","pricing_plan_id":"cebpf4jnsgd1na2vs0mg"},{"bike_id":"846120c2-2530-443a-ba1f-2aea0ce1ea44","system_id":"levelo_inurba_marseille","lat":43.30208,"lon":5.39468,"is_reserved":false,"is_disabled":false,"rental_uris":{"android":"levelo://app?vid=846120c2-2530-443a-ba1f-2aea0ce1ea44","ios":"levelo://app?vid=846120c2-2530-443a-ba1f-2aea0ce1ea44"},"vehicle_type_id":"4","last_reported":1756148890,"current_range_meters":15200,"station_id":"ce4bh0p2rcd13ifvqd70","pricing_plan_id":"cebpf4jnsgd1na2vs0mg"},{"bike_id":"5dde14d4-d04f-41cf-a211-b6d3731219e1","system_id":"levelo_inurba_marseille","lat":43.28966,"lon":5.37839,"is_reserved":false,"is_disabled":false,"rental_uris":{"android":"levelo://app?vid=5dde14d4-d04f-41cf-a211-b6d3731219e1","ios":"levelo://app?vid=5dde14d4-d04f-41cf-a211-b6d3731219e1"},"vehicle_type_id":"4","last_reported":1756148890,"current_range_meters":15200,"station_id":"ce4bh9p2rcd13ifvqed0","pricing_plan_id":"cebpf4jnsgd1na2vs0mg"},{"bike_id":"1e7b67f7-6bc7-46ae-aa5d-8dff3a7542cd","system_id":"levelo_inurba_marseille","lat":43.29047,"lon":5.35913,"is_reserved":false,"is_disabled":false,"rental_uris":{"android":"levelo://app?vid=1e7b67f7-6bc7-46ae-aa5d-8dff3a7542cd","ios":"levelo://app?vid=1e7b67f7-6bc7-46ae-aa5d-8dff3a7542cd"},"vehicle_type_id":"4","last_reported":1756148890,"current_range_meters":15200,"station_id":"ce4bha92rcd13ifvqeg0","pricing_plan_id":"cebpf4jnsgd1na2vs0mg"},{"bike_id":"1e717a90-c853-4831-a30a-21a593345e4c","system_id":"levelo_inurba_marseille","lat":43.28482,"lon":5.35876,"is_reserved":false,"is_disabled":false,"rental_uris":{"android":"levelo://app?vid=1e717a90-c853-4831-a30a-21a593345e4c","ios":"levelo://app?vid=1e717a90-c853-4831-a30a-21a593345e4c"},"vehicle_type_id":"4","last_reported":1756148890,"current_range_meters":15200,"station_id":"ce4bhah2rcd13ifvqei0","pricing_plan_id":"cebpf4jnsgd1na2vs0mg"},{"bike_id":"84b79488-8d1f-4d43-8ed1-8c7d4d69fa43","system_id":"levelo_inurba_marseille","lat":43.27808,"lon":5.40724,"is_reserved":false,"is_disabled":false,"rental_uris":{"android":"levelo://app?vid=84b79488-8d1f-4d43-8ed1-8c7d4d69fa43","ios":"levelo://app?vid=84b79488-8d1f-4d43-8ed1-8c7d4d69fa43"},"vehicle_type_id":"4","last_reported":1756148890,"current_range_meters":15200,"station_id":"ce4bhnh2rcd13ifvqgtg","pricing_plan_id":"cebpf4jnsgd1na2vs0mg"},{"bike_id":"32f22f25-0f77-40c0-8ad3-e1ef096781e4","system_id":"levelo_inurba_marseille","lat":43.322914,"lon":5.382723,"is_reserved":false,"is_disabled":false,"rental_uris":{"android":"levelo://app?vid=32f22f25-0f77-40c0-8ad3-e1ef096781e4","ios":"levelo://app?vid=32f22f25-0f77-40c0-8ad3-e1ef096781e4"},"vehicle_type_id":"4","last_reported":1756148890,"current_range_meters":15200,"station_id":"ce4bhr12rcd13ifvqhqg","pricing_plan_id":"cebpf4jnsgd1na2vs0mg"},{"bike_id":"b0170a75-f823-42a2-b9cb-d41486c907bb","system_id":"levelo_inurba_marseille","lat":43.32373,"lon":5.36577,"is_reserved":false,"is_disabled":false,"rental_uris":{"android":"levelo://app?vid=b0170a75-f823-42a2-b9cb-d41486c907bb","ios":"levelo://app?vid=b0170a75-f823-42a2-b9cb-d41486c907bb"},"vehicle_type_id":"4","last_reported":1756148890,"current_range_meters":16000,"station_id":"","pricing_plan_id":"cebpf4jnsgd1na2vs0mg"},{"bike_id":"b781a5a0-6633-425e-89d0-234145a32713","system_id":"levelo_inurba_marseille","lat":43.29618,"lon":5.38066,"is_reserved":false,"is_disabled":false,"rental_uris":{"android":"levelo://app?vid=b781a5a0-6633-425e-89d0-234145a32713","ios":"levelo://app?vid=b781a5a0-6633-425e-89d0-234145a32713"},"vehicle_type_id":"4","last_reported":1756148890,"current_range_meters":16000,"station_id":"ce4bgl12rcd13ifvqbo0","pricing_plan_id":"cebpf4jnsgd1na2vs0mg"},{"bike_id":"ce6e6ab8-e795-46c9-9c35-a1b68ef6aaa9","system_id":"levelo_inurba_marseille","lat":43.30953,"lon":5.40118,"is_reserved":false,"is_disabled":false,"rental_uris":{"android":"levelo://app?vid=ce6e6ab8-e795-46c9-9c35-a1b68ef6aaa9","ios":"levelo://app?vid=ce6e6ab8-e795-46c9-9c35-a1b68ef6aaa9"},"vehicle_type_id":"4","last_reported":1756148890,"current_range_meters":16000,"station_id":"ce4bgvp2rcd13ifvqct0","pricing_plan_id":"cebpf4jnsgd1na2vs0mg"},{"bike_id":"bb461beb-107a-4993-95d6-4dd4e0b2d2fe","system_id":"levelo_inurba_marseille","lat":43.30323,"lon":5.4044,"is_reserved":false,"is_disabled":false,"rental_uris":{"android":"levelo://app?vid=bb461beb-107a-4993-95d6-4dd4e0b2d2fe","ios":"levelo://app?vid=bb461beb-107a-4993-95d6-4dd4e0b2d2fe"},"vehicle_type_id":"4","last_reported":1756148890,"current_range_meters":16000,"station_id":"ce4bh012rcd13ifvqd10","pricing_plan_id":"cebpf4jnsgd1na2vs0mg"},{"bike_id":"31fa70b9-b1cc-4315-9cc5-2d3dea3a4247","system_id":"levelo_inurba_marseille","lat":43.30206,"lon":5.3948,"is_reserved":false,"is_disabled":false,"rental_uris":{"android":"levelo://app?vid=31fa70b9-b1cc-4315-9cc5-2d3dea3a4247","ios":"levelo://app?vid=31fa70b9-b1cc-4315-9cc5-2d3dea3a4247"},"vehicle_type_id":"4","last_reported":1756148890,"current_range_meters":16000,"station_id":"ce4bh0p2rcd13ifvqd70","pricing_plan_id":"cebpf4jnsgd1na2vs0mg"},{"bike_id":"7b43efcb-8762-4c7d-8e32-a6fa51130619","system_id":"levelo_inurba_marseille","lat":43.28406,"lon":5.37518,"is_reserved":false,"is_disabled":false,"rental_uris":{"android":"levelo://app?vid=7b43efcb-8762-4c7d-8e32-a6fa51130619","ios":"levelo://app?vid=7b43efcb-8762-4c7d-8e32-a6fa51130619"},"vehicle_type_id":"4","last_reported":1756148890,"current_range_meters":16000,"station_id":"ce4bh412rcd13ifvqds0","pricing_plan_id":"cebpf4jnsgd1na2vs0mg"},{"bike_id":"72bc6cd4-9fa4-4e48-a52d-d55ed8c9e997","system_id":"levelo_inurba_marseille","lat":43.2867,"lon":5.38667,"is_reserved":false,"is_disabled":false,"rental_uris":{"android":"levelo://app?vid=72bc6cd4-9fa4-4e48-a52d-d55ed8c9e997","ios":"levelo://app?vid=72bc6cd4-9fa4-4e48-a52d-d55ed8c9e997"},"vehicle_type_id":"4","last_reported":1756148890,"current_range_meters":16000,"station_id":"ce4bh492rcd13ifvqdug","pricing_plan_id":"cebpf4jnsgd1na2vs0mg"},{"bike_id":"8eab3b0a-2a7c-41b9-a133-b93783ff122e","system_id":"levelo_inurba_marseille","lat":43.2893,"lon":5.384,"is_reserved":false,"is_disabled":false,"rental_uris":{"android":"levelo://app?vid=8eab3b0a-2a7c-41b9-a133-b93783ff122e","ios":"levelo://app?vid=8eab3b0a-2a7c-41b9-a133-b93783ff122e"},"vehicle_type_id":"4","last_reported":1756148890,"current_range_meters":16000,"station_id":"ce4bh612rcd13ifvqe6g","pricing_plan_id":"cebpf4jnsgd1na2vs0mg"},{"bike_id":"a68f5e70-decd-4d36-ad32-79daf85e8cf0","system_id":"levelo_inurba_marseille","lat":43.29268,"lon":5.38449,"is_reserved":false,"is_disabled":false,"rental_uris":{"android":"levelo://app?vid=a68f5e70-decd-4d36-ad32-79daf85e8cf0","ios":"levelo://app?vid=a68f5e70-decd-4d36-ad32-79daf85e8cf0"},"vehicle_type_id":"4","last_reported":1756148890,"current_range_meters":16000,"station_id":"ce4bh692rcd13ifvqea0","pricing_plan_id":"cebpf4jnsgd1na2vs0mg"},{"bike_id":"7e8b7c44-c44c-48fb-98d6-1883024f4cf8","system_id":"levelo_inurba_marseille","lat":43.28617,"lon":5.35106,"is_reserved":false,"is_disabled":false,"rental_uris":{"android":"levelo://app?vid=7e8b7c44-c44c-48fb-98d6-1883024f4cf8","ios":"levelo://app?vid=7e8b7c44-c44c-48fb-98d6-1883024f4cf8"},"vehicle_type_id":"4","last_reported":1756148890,"current_range_meters":16000,"station_id":"ce4bhch2rcd13ifvqeug","pricing_plan_id":"cebpf4jnsgd1na2vs0mg"},{"bike_id":"be11ee8e-d6e8-4b5a-9526-c98af2d376fa","system_id":"levelo_inurba_marseille","lat":43.28149,"lon":5.42651,"is_reserved":false,"is_disabled":false,"rental_uris":{"android":"levelo://app?vid=be11ee8e-d6e8-4b5a-9526-c98af2d376fa","ios":"levelo://app?vid=be11ee8e-d6e8-4b5a-9526-c98af2d376fa"},"vehicle_type_id":"4","last_reported":1756148890,"current_range_meters":16000,"station_id":"ce4bhnh2rcd13ifvqgug","pricing_plan_id":"cebpf4jnsgd1na2vs0mg"},{"bike_id":"aa4cda76-36b8-4022-806b-887111873a7e","system_id":"levelo_inurba_marseille","lat":43.24077,"lon":5.37744,"is_reserved":false,"is_disabled":false,"rental_uris":{"android":"levelo://app?vid=aa4cda76-36b8-4022-806b-887111873a7e","ios":"levelo://app?vid=aa4cda76-36b8-4022-806b-887111873a7e"},"vehicle_type_id":"4","last_reported":1756148890,"current_range_meters":16000,"station_id":"ce4bhnp2rcd13ifvqgvg","pricing_plan_id":"cebpf4jnsgd1na2vs0mg"},{"bike_id":"0eaf3235-920b-4dd0-95c9-cf4f66291747","system_id":"levelo_inurba_marseille","lat":43.25323,"lon":5.42127,"is_reserved":false,"is_disabled":false,"rental_uris":{"android":"levelo://app?vid=0eaf3235-920b-4dd0-95c9-cf4f66291747","ios":"levelo://app?vid=0eaf3235-920b-4dd0-95c9-cf4f66291747"},"vehicle_type_id":"4","last_reported":1756148890,"current_range_meters":16000,"station_id":"st_d2m65c5bi1j21697t3ng","pricing_plan_id":"cebpf4jnsgd1na2vs0mg"},{"bike_id":"5f9365e2-60dc-4158-a2c3-0e40911a7a32","system_id":"levelo_inurba_marseille","lat":43.33424,"lon":5.40075,"is_reserved":false,"is_disabled":false,"rental_uris":{"android":"levelo://app?vid=5f9365e2-60dc-4158-a2c3-0e40911a7a32","ios":"levelo://app?vid=5f9365e2-60dc-4158-a2c3-0e40911a7a32"},"vehicle_type_id":"4","last_reported":1756148890,"current_range_meters":16400,"station_id":"","pricing_plan_id":"cebpf4jnsgd1na2vs0mg"},{"bike_id":"8ea70c9a-6664-4e1d-9b58-499929bd3925","system_id":"levelo_inurba_marseille","lat":43.28705,"lon":5.37382,"is_reserved":false,"is_disabled":false,"rental_uris":{"android":"levelo://app?vid=8ea70c9a-6664-4e1d-9b58-499929bd3925","ios":"levelo://app?vid=8ea70c9a-6664-4e1d-9b58-499929bd3925"},"vehicle_type_id":"4","last_reported":1756148890,"current_range_meters":16400,"station_id":"ce4bh3p2rcd13ifvqdq0","pricing_plan_id":"cebpf4jnsgd1na2vs0mg"},{"bike_id":"7cb85f8d-5fb5-4f34-92c0-eab758eec588","system_id":"levelo_inurba_marseille","lat":43.29038,"lon":5.35923,"is_reserved":false,"is_disabled":false,"rental_uris":{"android":"levelo://app?vid=7cb85f8d-5fb5-4f34-92c0-eab758eec588","ios":"levelo://app?vid=7cb85f8d-5fb5-4f34-92c0-eab758eec588"},"vehicle_type_id":"4","last_reported":1756148890,"current_range_meters":16400,"station_id":"ce4bha92rcd13ifvqeg0","pricing_plan_id":"cebpf4jnsgd1na2vs0mg"},{"bike_id":"9a186a2c-f118-4fe5-b25c-8955791f38af","system_id":"levelo_inurba_marseille","lat":43.28942,"lon":5.36636,"is_reserved":false,"is_disabled":false,"rental_uris":{"android":"levelo://app?vid=9a186a2c-f118-4fe5-b25c-8955791f38af","ios":"levelo://app?vid=9a186a2c-f118-4fe5-b25c-8955791f38af"},"vehicle_type_id":"4","last_reported":1756148890,"current_range_meters":16400,"station_id":"ce4bhap2rcd13ifvqek0","pricing_plan_id":"cebpf4jnsgd1na2vs0mg"},{"bike_id":"bc4fabc1-49d3-4d30-ae41-26261331568a","system_id":"levelo_inurba_marseille","lat":43.28149,"lon":5.4264,"is_reserved":false,"is_disabled":false,"rental_uris":{"android":"levelo://app?vid=bc4fabc1-49d3-4d30-ae41-26261331568a","ios":"levelo://app?vid=bc4fabc1-49d3-4d30-ae41-26261331568a"},"vehicle_type_id":"4","last_reported":1756148890,"current_range_meters":16400,"station_id":"ce4bhnh2rcd13ifvqgug","pricing_plan_id":"cebpf4jnsgd1na2vs0mg"},{"bike_id":"a916761e-4357-41be-924c-a9527870011b","system_id":"levelo_inurba_marseille","lat":43.3372,"lon":5.39187,"is_reserved":false,"is_disabled":false,"rental_uris":{"android":"levelo://app?vid=a916761e-4357-41be-924c-a9527870011b","ios":"levelo://app?vid=a916761e-4357-41be-924c-a9527870011b"},"vehicle_type_id":"4","last_reported":1756148890,"current_range_meters":16400,"station_id":"ce4bhr92rcd13ifvqhsg","pricing_plan_id":"cebpf4jnsgd1na2vs0mg"},{"bike_id":"3e130ff4-87da-4c51-a264-44d1f277fd66","system_id":"levelo_inurba_marseille","lat":43.32113,"lon":5.368,"is_reserved":false,"is_disabled":false,"rental_uris":{"android":"levelo://app?vid=3e130ff4-87da-4c51-a264-44d1f277fd66","ios":"levelo://app?vid=3e130ff4-87da-4c51-a264-44d1f277fd66"},"vehicle_type_id":"4","last_reported":1756148890,"current_range_meters":16400,"station_id":"ce4bhrh2rcd13ifvqhug","pricing_plan_id":"cebpf4jnsgd1na2vs0mg"},{"bike_id":"6030ebdc-126c-463d-a229-e3b8a84b3c35","system_id":"levelo_inurba_marseille","lat":43.29784,"lon":5.39343,"is_reserved":false,"is_disabled":false,"rental_uris":{"android":"levelo://app?vid=6030ebdc-126c-463d-a229-e3b8a84b3c35","ios":"levelo://app?vid=6030ebdc-126c-463d-a229-e3b8a84b3c35"},"vehicle_type_id":"4","last_reported":1756148890,"current_range_meters":16400,"station_id":"chh1huq6cuj3fo74tm60","pricing_plan_id":"cebpf4jnsgd1na2vs0mg"},{"bike_id":"0d502687-08ef-4491-8893-8a03d8688be8","system_id":"levelo_inurba_marseille","lat":43.29623,"lon":5.36106,"is_reserved":false,"is_disabled":false,"rental_uris":{"android":"levelo://app?vid=0d502687-08ef-4491-8893-8a03d8688be8","ios":"levelo://app?vid=0d502687-08ef-4491-8893-8a03d8688be8"},"vehicle_type_id":"4","last_reported":1756148890,"current_range_meters":16800,"station_id":"","pricing_plan_id":"cebpf4jnsgd1na2vs0mg"},{"bike_id":"7612c145-8535-4ccf-96ee-de62f40b9550","system_id":"levelo_inurba_marseille","lat":43.32373,"lon":5.38961,"is_reserved":false,"is_disabled":false,"rental_uris":{"android":"levelo://app?vid=7612c145-8535-4ccf-96ee-de62f40b9550","ios":"levelo://app?vid=7612c145-8535-4ccf-96ee-de62f40b9550"},"vehicle_type_id":"4","last_reported":1756148890,"current_range_meters":16800,"station_id":"","pricing_plan_id":"cebpf4jnsgd1na2vs0mg"},{"bike_id":"d0bd1848-0ce2-4548-803b-2489c9517b29","system_id":"levelo_inurba_marseille","lat":43.29882,"lon":5.38896,"is_reserved":false,"is_disabled":false,"rental_uris":{"android":"levelo://app?vid=d0bd1848-0ce2-4548-803b-2489c9517b29","ios":"levelo://app?vid=d0bd1848-0ce2-4548-803b-2489c9517b29"},"vehicle_type_id":"4","last_reported":1756148890,"current_range_meters":16800,"station_id":"ce4bh392rcd13ifvqdl0","pricing_plan_id":"cebpf4jnsgd1na2vs0mg"},{"bike_id":"db7d3d83-f39a-4469-8445-29697e69fec4","system_id":"levelo_inurba_marseille","lat":43.32976,"lon":5.3913,"is_reserved":false,"is_disabled":false,"rental_uris":{"android":"levelo://app?vid=db7d3d83-f39a-4469-8445-29697e69fec4","ios":"levelo://app?vid=db7d3d83-f39a-4469-8445-29697e69fec4"},"vehicle_type_id":"4","last_reported":1756148890,"current_range_meters":17200,"station_id":"","pricing_plan_id":"cebpf4jnsgd1na2vs0mg"},{"bike_id":"907d7f74-a0e1-4e87-962e-35d956e1740f","system_id":"levelo_inurba_marseille","lat":43.29309,"lon":5.3717,"is_reserved":false,"is_disabled":false,"rental_uris":{"android":"levelo://app?vid=907d7f74-a0e1-4e87-962e-35d956e1740f","ios":"levelo://app?vid=907d7f74-a0e1-4e87-962e-35d956e1740f"},"vehicle_type_id":"4","last_reported":1756148890,"current_range_meters":17200,"station_id":"ce4bgh92rcd13ifvqb40","pricing_plan_id":"cebpf4jnsgd1na2vs0mg"},{"bike_id":"adae12bc-a5c7-4392-94f9-5382462cc7ee","system_id":"levelo_inurba_marseille","lat":43.292725,"lon":5.384281,"is_reserved":false,"is_disabled":false,"rental_uris":{"android":"levelo://app?vid=adae12bc-a5c7-4392-94f9-5382462cc7ee","ios":"levelo://app?vid=adae12bc-a5c7-4392-94f9-5382462cc7ee"},"vehicle_type_id":"4","last_reported":1756148890,"current_range_meters":17200,"station_id":"ce4bh692rcd13ifvqea0","pricing_plan_id":"cebpf4jnsgd1na2vs0mg"},{"bike_id":"8dc9452d-0528-426c-aab3-7cf835347ac1","system_id":"levelo_inurba_marseille","lat":43.28488,"lon":5.38553,"is_reserved":false,"is_disabled":false,"rental_uris":{"android":"levelo://app?vid=8dc9452d-0528-426c-aab3-7cf835347ac1","ios":"levelo://app?vid=8dc9452d-0528-426c-aab3-7cf835347ac1"},"vehicle_type_id":"4","last_reported":1756148890,"current_range_meters":17200,"station_id":"ce4bh8p2rcd13ifvqeb0","pricing_plan_id":"cebpf4jnsgd1na2vs0mg"},{"bike_id":"1fc6a842-584b-4273-b695-1d23f7295490","system_id":"levelo_inurba_marseille","lat":43.28271,"lon":5.35087,"is_reserved":false,"is_disabled":false,"rental_uris":{"android":"levelo://app?vid=1fc6a842-584b-4273-b695-1d23f7295490","ios":"levelo://app?vid=1fc6a842-584b-4273-b695-1d23f7295490"},"vehicle_type_id":"4","last_reported":1756148890,"current_range_meters":17200,"station_id":"ce4bhbp2rcd13ifvqerg","pricing_plan_id":"cebpf4jnsgd1na2vs0mg"},{"bike_id":"50080086-5ad6-41c2-b993-d4f4d5e2439a","system_id":"levelo_inurba_marseille","lat":43.33,"lon":5.39024,"is_reserved":false,"is_disabled":false,"rental_uris":{"android":"levelo://app?vid=50080086-5ad6-41c2-b993-d4f4d5e2439a","ios":"levelo://app?vid=50080086-5ad6-41c2-b993-d4f4d5e2439a"},"vehicle_type_id":"4","last_reported":1756148890,"current_range_meters":17200,"station_id":"ce4bhr92rcd13ifvqhrg","pricing_plan_id":"cebpf4jnsgd1na2vs0mg"},{"bike_id":"2198d534-1e4e-4e7b-b2b3-d1e3dccee066","system_id":"levelo_inurba_marseille","lat":43.32107,"lon":5.36807,"is_reserved":false,"is_disabled":false,"rental_uris":{"android":"levelo://app?vid=2198d534-1e4e-4e7b-b2b3-d1e3dccee066","ios":"levelo://app?vid=2198d534-1e4e-4e7b-b2b3-d1e3dccee066"},"vehicle_type_id":"4","last_reported":1756148890,"current_range_meters":17200,"station_id":"ce4bhrh2rcd13ifvqhug","pricing_plan_id":"cebpf4jnsgd1na2vs0mg"},{"bike_id":"eb7721cc-c6c0-4468-b17c-a2c2b7aa8a38","system_id":"levelo_inurba_marseille","lat":43.2928,"lon":5.40118,"is_reserved":false,"is_disabled":false,"rental_uris":{"android":"levelo://app?vid=eb7721cc-c6c0-4468-b17c-a2c2b7aa8a38","ios":"levelo://app?vid=eb7721cc-c6c0-4468-b17c-a2c2b7aa8a38"},"vehicle_type_id":"4","last_reported":1756148890,"current_range_meters":17600,"station_id":"ce4bh312rcd13ifvqdk0","pricing_plan_id":"cebpf4jnsgd1na2vs0mg"},{"bike_id":"20b2d8d2-2e56-4fce-86a2-1285d88068df","system_id":"levelo_inurba_marseille","lat":43.28459,"lon":5.35894,"is_reserved":false,"is_disabled":false,"rental_uris":{"android":"levelo://app?vid=20b2d8d2-2e56-4fce-86a2-1285d88068df","ios":"levelo://app?vid=20b2d8d2-2e56-4fce-86a2-1285d88068df"},"vehicle_type_id":"4","last_reported":1756148890,"current_range_meters":17600,"station_id":"ce4bhah2rcd13ifvqei0","pricing_plan_id":"cebpf4jnsgd1na2vs0mg"},{"bike_id":"32a4e03e-369a-48c4-acaf-761e5f05550a","system_id":"levelo_inurba_marseille","lat":43.27495,"lon":5.42452,"is_reserved":false,"is_disabled":false,"rental_uris":{"android":"levelo://app?vid=32a4e03e-369a-48c4-acaf-761e5f05550a","ios":"levelo://app?vid=32a4e03e-369a-48c4-acaf-761e5f05550a"},"vehicle_type_id":"4","last_reported":1756148890,"current_range_meters":17600,"station_id":"ce4bhn92rcd13ifvqgrg","pricing_plan_id":"cebpf4jnsgd1na2vs0mg"},{"bike_id":"6e4e1c1a-b3be-42ea-8c32-3cccea89bd89","system_id":"levelo_inurba_marseille","lat":43.31726,"lon":5.42402,"is_reserved":false,"is_disabled":false,"rental_uris":{"android":"levelo://app?vid=6e4e1c1a-b3be-42ea-8c32-3cccea89bd89","ios":"levelo://app?vid=6e4e1c1a-b3be-42ea-8c32-3cccea89bd89"},"vehicle_type_id":"4","last_reported":1756148890,"current_range_meters":17600,"station_id":"ce4bhp92rcd13ifvqhbg","pricing_plan_id":"cebpf4jnsgd1na2vs0mg"},{"bike_id":"45bc046a-ccea-4c00-b616-232704e6d7df","system_id":"levelo_inurba_marseille","lat":43.33038,"lon":5.39036,"is_reserved":false,"is_disabled":false,"rental_uris":{"android":"levelo://app?vid=45bc046a-ccea-4c00-b616-232704e6d7df","ios":"levelo://app?vid=45bc046a-ccea-4c00-b616-232704e6d7df"},"vehicle_type_id":"4","last_reported":1756148890,"current_range_meters":17600,"station_id":"ce4bhr92rcd13ifvqhrg","pricing_plan_id":"cebpf4jnsgd1na2vs0mg"},{"bike_id":"f56a0f8c-3f3b-47a3-9720-5e1fb63d10b2","system_id":"levelo_inurba_marseille","lat":43.29525,"lon":5.38546,"is_reserved":false,"is_disabled":false,"rental_uris":{"android":"levelo://app?vid=f56a0f8c-3f3b-47a3-9720-5e1fb63d10b2","ios":"levelo://app?vid=f56a0f8c-3f3b-47a3-9720-5e1fb63d10b2"},"vehicle_type_id":"4","last_reported":1756148890,"current_range_meters":18000,"station_id":"ce4bgih2rcd13ifvqba0","pricing_plan_id":"cebpf4jnsgd1na2vs0mg"},{"bike_id":"71f2187f-7c06-4afd-b6d4-5f58c2f8533e","system_id":"levelo_inurba_marseille","lat":43.29688,"lon":5.37683,"is_reserved":false,"is_disabled":false,"rental_uris":{"android":"levelo://app?vid=71f2187f-7c06-4afd-b6d4-5f58c2f8533e","ios":"levelo://app?vid=71f2187f-7c06-4afd-b6d4-5f58c2f8533e"},"vehicle_type_id":"4","last_reported":1756148890,"current_range_meters":18000,"station_id":"ce4bgkh2rcd13ifvqbl0","pricing_plan_id":"cebpf4jnsgd1na2vs0mg"},{"bike_id":"9cea2469-1175-4646-a5dd-9882ce59d612","system_id":"levelo_inurba_marseille","lat":43.2919,"lon":5.39327,"is_reserved":false,"is_disabled":false,"rental_uris":{"android":"levelo://app?vid=9cea2469-1175-4646-a5dd-9882ce59d612","ios":"levelo://app?vid=9cea2469-1175-4646-a5dd-9882ce59d612"},"vehicle_type_id":"4","last_reported":1756148890,"current_range_meters":18000,"station_id":"ce4bh192rcd13ifvqdd0","pricing_plan_id":"cebpf4jnsgd1na2vs0mg"},{"bike_id":"7d454a8f-540e-4616-95d9-6a04449dd37c","system_id":"levelo_inurba_marseille","lat":43.28619,"lon":5.35097,"is_reserved":false,"is_disabled":false,"rental_uris":{"android":"levelo://app?vid=7d454a8f-540e-4616-95d9-6a04449dd37c","ios":"levelo://app?vid=7d454a8f-540e-4616-95d9-6a04449dd37c"},"vehicle_type_id":"4","last_reported":1756148890,"current_range_meters":18000,"station_id":"ce4bhch2rcd13ifvqeug","pricing_plan_id":"cebpf4jnsgd1na2vs0mg"},{"bike_id":"994a4882-f6d7-4150-aa82-2c9311c22cb8","system_id":"levelo_inurba_marseille","lat":43.26572,"lon":5.39011,"is_reserved":false,"is_disabled":false,"rental_uris":{"android":"levelo://app?vid=994a4882-f6d7-4150-aa82-2c9311c22cb8","ios":"levelo://app?vid=994a4882-f6d7-4150-aa82-2c9311c22cb8"},"vehicle_type_id":"4","last_reported":1756148890,"current_range_meters":18000,"station_id":"ce4bhe12rcd13ifvqf30","pricing_plan_id":"cebpf4jnsgd1na2vs0mg"},{"bike_id":"1c889b09-8cad-434d-bfd5-5f7e6198ad13","system_id":"levelo_inurba_marseille","lat":43.23192,"lon":5.39981,"is_reserved":false,"is_disabled":false,"rental_uris":{"android":"levelo://app?vid=1c889b09-8cad-434d-bfd5-5f7e6198ad13","ios":"levelo://app?vid=1c889b09-8cad-434d-bfd5-5f7e6198ad13"},"vehicle_type_id":"4","last_reported":1756148890,"current_range_meters":18000,"station_id":"ce4bhn12rcd13ifvqgqg","pricing_plan_id":"cebpf4jnsgd1na2vs0mg"},{"bike_id":"90106b61-39ba-4550-9728-cd6a51353a17","system_id":"levelo_inurba_marseille","lat":43.21184,"lon":5.35072,"is_reserved":false,"is_disabled":false,"rental_uris":{"android":"levelo://app?vid=90106b61-39ba-4550-9728-cd6a51353a17","ios":"levelo://app?vid=90106b61-39ba-4550-9728-cd6a51353a17"},"vehicle_type_id":"4","last_reported":1756148890,"current_range_meters":18000,"station_id":"st_cvj6sg6p6f1abm77japg","pricing_plan_id":"cebpf4jnsgd1na2vs0mg"},{"bike_id":"2bede151-7a7f-4b87-aa7d-9c2554a5ad23","system_id":"levelo_inurba_marseille","lat":43.29593,"lon":5.38118,"is_reserved":false,"is_disabled":false,"rental_uris":{"android":"levelo://app?vid=2bede151-7a7f-4b87-aa7d-9c2554a5ad23","ios":"levelo://app?vid=2bede151-7a7f-4b87-aa7d-9c2554a5ad23"},"vehicle_type_id":"4","last_reported":1756148890,"current_range_meters":18800,"station_id":"ce4bgl12rcd13ifvqbo0","pricing_plan_id":"cebpf4jnsgd1na2vs0mg"},{"bike_id":"bc27094f-7ef5-4547-8cb1-4829650949ae","system_id":"levelo_inurba_marseille","lat":43.3128,"lon":5.40157,"is_reserved":false,"is_disabled":false,"rental_uris":{"android":"levelo://app?vid=bc27094f-7ef5-4547-8cb1-4829650949ae","ios":"levelo://app?vid=bc27094f-7ef5-4547-8cb1-4829650949ae"},"vehicle_type_id":"4","last_reported":1756148890,"current_range_meters":18800,"station_id":"ce4bh092rcd13ifvqd30","pricing_plan_id":"cebpf4jnsgd1na2vs0mg"},{"bike_id":"534df56e-9c38-4341-9dfd-f105fa072c74","system_id":"levelo_inurba_marseille","lat":43.30116,"lon":5.39087,"is_reserved":false,"is_disabled":false,"rental_uris":{"android":"levelo://app?vid=534df56e-9c38-4341-9dfd-f105fa072c74","ios":"levelo://app?vid=534df56e-9c38-4341-9dfd-f105fa072c74"},"vehicle_type_id":"4","last_reported":1756148890,"current_range_meters":18800,"station_id":"ce4bh192rcd13ifvqdb0","pricing_plan_id":"cebpf4jnsgd1na2vs0mg"},{"bike_id":"0dbb8eba-e6db-428c-86fe-5db803b4eff9","system_id":"levelo_inurba_marseille","lat":43.28459,"lon":5.35887,"is_reserved":false,"is_disabled":false,"rental_uris":{"android":"levelo://app?vid=0dbb8eba-e6db-428c-86fe-5db803b4eff9","ios":"levelo://app?vid=0dbb8eba-e6db-428c-86fe-5db803b4eff9"},"vehicle_type_id":"4","last_reported":1756148890,"current_range_meters":18800,"station_id":"ce4bhah2rcd13ifvqei0","pricing_plan_id":"cebpf4jnsgd1na2vs0mg"},{"bike_id":"7844e208-8956-41f1-b58b-85419f7b94b1","system_id":"levelo_inurba_marseille","lat":43.29005,"lon":5.35612,"is_reserved":false,"is_disabled":false,"rental_uris":{"android":"levelo://app?vid=7844e208-8956-41f1-b58b-85419f7b94b1","ios":"levelo://app?vid=7844e208-8956-41f1-b58b-85419f7b94b1"},"vehicle_type_id":"4","last_reported":1756148890,"current_range_meters":18800,"station_id":"ce4bhb92rcd13ifvqen0","pricing_plan_id":"cebpf4jnsgd1na2vs0mg"},{"bike_id":"b12530c9-6293-428a-b97a-6581d8129dab","system_id":"levelo_inurba_marseille","lat":43.28418,"lon":5.35008,"is_reserved":false,"is_disabled":false,"rental_uris":{"android":"levelo://app?vid=b12530c9-6293-428a-b97a-6581d8129dab","ios":"levelo://app?vid=b12530c9-6293-428a-b97a-6581d8129dab"},"vehicle_type_id":"4","last_reported":1756148890,"current_range_meters":18800,"station_id":"ce4bhbh2rcd13ifvqepg","pricing_plan_id":"cebpf4jnsgd1na2vs0mg"},{"bike_id":"6b31dbcd-c0f1-4451-888c-aa5229cd8e00","system_id":"levelo_inurba_marseille","lat":43.28617,"lon":5.3511,"is_reserved":false,"is_disabled":false,"rental_uris":{"android":"levelo://app?vid=6b31dbcd-c0f1-4451-888c-aa5229cd8e00","ios":"levelo://app?vid=6b31dbcd-c0f1-4451-888c-aa5229cd8e00"},"vehicle_type_id":"4","last_reported":1756148890,"current_range_meters":18800,"station_id":"ce4bhch2rcd13ifvqeug","pricing_plan_id":"cebpf4jnsgd1na2vs0mg"},{"bike_id":"d715a2f7-3adf-4050-9ada-3b98c69ff5ca","system_id":"levelo_inurba_marseille","lat":43.239631,"lon":5.366264,"is_reserved":false,"is_disabled":false,"rental_uris":{"android":"levelo://app?vid=d715a2f7-3adf-4050-9ada-3b98c69ff5ca","ios":"levelo://app?vid=d715a2f7-3adf-4050-9ada-3b98c69ff5ca"},"vehicle_type_id":"4","last_reported":1756148890,"current_range_meters":18800,"station_id":"ce4bhi12rcd13ifvqfp0","pricing_plan_id":"cebpf4jnsgd1na2vs0mg"},{"bike_id":"bd9e1e4f-d5a3-4b38-a4f0-7b86a4f68ed9","system_id":"levelo_inurba_marseille","lat":43.23968,"lon":5.36637,"is_reserved":false,"is_disabled":false,"rental_uris":{"android":"levelo://app?vid=bd9e1e4f-d5a3-4b38-a4f0-7b86a4f68ed9","ios":"levelo://app?vid=bd9e1e4f-d5a3-4b38-a4f0-7b86a4f68ed9"},"vehicle_type_id":"4","last_reported":1756148890,"current_range_meters":18800,"station_id":"ce4bhi12rcd13ifvqfp0","pricing_plan_id":"cebpf4jnsgd1na2vs0mg"},{"bike_id":"b4f76d40-d7cd-4850-a907-d84e24578714","system_id":"levelo_inurba_marseille","lat":43.25583,"lon":5.38254,"is_reserved":false,"is_disabled":false,"rental_uris":{"android":"levelo://app?vid=b4f76d40-d7cd-4850-a907-d84e24578714","ios":"levelo://app?vid=b4f76d40-d7cd-4850-a907-d84e24578714"},"vehicle_type_id":"4","last_reported":1756148890,"current_range_meters":18800,"station_id":"ce4bhih2rcd13ifvqfs0","pricing_plan_id":"cebpf4jnsgd1na2vs0mg"},{"bike_id":"8449a933-0a55-4a93-b6f0-c1be5b573b64","system_id":"levelo_inurba_marseille","lat":43.23178,"lon":5.39993,"is_reserved":false,"is_disabled":false,"rental_uris":{"android":"levelo://app?vid=8449a933-0a55-4a93-b6f0-c1be5b573b64","ios":"levelo://app?vid=8449a933-0a55-4a93-b6f0-c1be5b573b64"},"vehicle_type_id":"4","last_reported":1756148890,"current_range_meters":18800,"station_id":"ce4bhn12rcd13ifvqgqg","pricing_plan_id":"cebpf4jnsgd1na2vs0mg"},{"bike_id":"4b6d03d5-c489-44f5-894a-b511c0aa6886","system_id":"levelo_inurba_marseille","lat":43.295595,"lon":5.42283,"is_reserved":false,"is_disabled":false,"rental_uris":{"android":"levelo://app?vid=4b6d03d5-c489-44f5-894a-b511c0aa6886","ios":"levelo://app?vid=4b6d03d5-c489-44f5-894a-b511c0aa6886"},"vehicle_type_id":"4","last_reported":1756148890,"current_range_meters":18800,"station_id":"ce4bhph2rcd13ifvqhdg","pricing_plan_id":"cebpf4jnsgd1na2vs0mg"},{"bike_id":"ed243616-8940-41d8-928c-50f15747ce30","system_id":"levelo_inurba_marseille","lat":43.31537,"lon":5.3805,"is_reserved":false,"is_disabled":false,"rental_uris":{"android":"levelo://app?vid=ed243616-8940-41d8-928c-50f15747ce30","ios":"levelo://app?vid=ed243616-8940-41d8-928c-50f15747ce30"},"vehicle_type_id":"4","last_reported":1756148890,"current_range_meters":18800,"station_id":"ce4bhsp2rcd13ifvqi50","pricing_plan_id":"cebpf4jnsgd1na2vs0mg"},{"bike_id":"f0400c37-c7f6-4929-b1ac-d92430ff6f2d","system_id":"levelo_inurba_marseille","lat":43.276492,"lon":5.396329,"is_reserved":false,"is_disabled":false,"rental_uris":{"android":"levelo://app?vid=f0400c37-c7f6-4929-b1ac-d92430ff6f2d","ios":"levelo://app?vid=f0400c37-c7f6-4929-b1ac-d92430ff6f2d"},"vehicle_type_id":"4","last_reported":1756148890,"current_range_meters":19200,"station_id":"","pricing_plan_id":"cebpf4jnsgd1na2vs0mg"},{"bike_id":"a89b9957-e63d-4f00-ab62-2567ed1bcecc","system_id":"levelo_inurba_marseille","lat":43.308114,"lon":5.376901,"is_reserved":false,"is_disabled":false,"rental_uris":{"android":"levelo://app?vid=a89b9957-e63d-4f00-ab62-2567ed1bcecc","ios":"levelo://app?vid=a89b9957-e63d-4f00-ab62-2567ed1bcecc"},"vehicle_type_id":"4","last_reported":1756148890,"current_range_meters":19200,"station_id":"ce4bgv92rcd13ifvqcq0","pricing_plan_id":"cebpf4jnsgd1na2vs0mg"},{"bike_id":"964d544a-6015-4eef-a4a8-eb4460539ff0","system_id":"levelo_inurba_marseille","lat":43.28401,"lon":5.34987,"is_reserved":false,"is_disabled":false,"rental_uris":{"android":"levelo://app?vid=964d544a-6015-4eef-a4a8-eb4460539ff0","ios":"levelo://app?vid=964d544a-6015-4eef-a4a8-eb4460539ff0"},"vehicle_type_id":"4","last_reported":1756148890,"current_range_meters":19200,"station_id":"ce4bhbh2rcd13ifvqepg","pricing_plan_id":"cebpf4jnsgd1na2vs0mg"},{"bike_id":"25005ec9-f891-41e5-8761-b371983667d5","system_id":"levelo_inurba_marseille","lat":43.28423,"lon":5.35001,"is_reserved":false,"is_disabled":false,"rental_uris":{"android":"levelo://app?vid=25005ec9-f891-41e5-8761-b371983667d5","ios":"levelo://app?vid=25005ec9-f891-41e5-8761-b371983667d5"},"vehicle_type_id":"4","last_reported":1756148890,"current_range_meters":19200,"station_id":"ce4bhbh2rcd13ifvqepg","pricing_plan_id":"cebpf4jnsgd1na2vs0mg"},{"bike_id":"7540c248-e9a4-4330-9b2e-cb1a7c931e92","system_id":"levelo_inurba_marseille","lat":43.27808,"lon":5.40717,"is_reserved":false,"is_disabled":false,"rental_uris":{"android":"levelo://app?vid=7540c248-e9a4-4330-9b2e-cb1a7c931e92","ios":"levelo://app?vid=7540c248-e9a4-4330-9b2e-cb1a7c931e92"},"vehicle_type_id":"4","last_reported":1756148890,"current_range_meters":19200,"station_id":"ce4bhnh2rcd13ifvqgtg","pricing_plan_id":"cebpf4jnsgd1na2vs0mg"},{"bike_id":"89b1b02e-84f7-4baf-be65-3c548f4533e9","system_id":"levelo_inurba_marseille","lat":43.27947,"lon":5.41049,"is_reserved":false,"is_disabled":false,"rental_uris":{"android":"levelo://app?vid=89b1b02e-84f7-4baf-be65-3c548f4533e9","ios":"levelo://app?vid=89b1b02e-84f7-4baf-be65-3c548f4533e9"},"vehicle_type_id":"4","last_reported":1756148890,"current_range_meters":19200,"station_id":"ce4bhnp2rcd13ifvqh0g","pricing_plan_id":"cebpf4jnsgd1na2vs0mg"},{"bike_id":"26bb3bf1-c76f-4085-a8c2-ced74a1de612","system_id":"levelo_inurba_marseille","lat":43.28938,"lon":5.36391,"is_reserved":false,"is_disabled":false,"rental_uris":{"android":"levelo://app?vid=26bb3bf1-c76f-4085-a8c2-ced74a1de612","ios":"levelo://app?vid=26bb3bf1-c76f-4085-a8c2-ced74a1de612"},"vehicle_type_id":"4","last_reported":1756148890,"current_range_meters":19600,"station_id":"ce4bhc92rcd13ifvqetg","pricing_plan_id":"cebpf4jnsgd1na2vs0mg"},{"bike_id":"42d406a2-2905-4ffe-bb88-a7a75ed507f0","system_id":"levelo_inurba_marseille","lat":43.28613,"lon":5.35101,"is_reserved":false,"is_disabled":false,"rental_uris":{"android":"levelo://app?vid=42d406a2-2905-4ffe-bb88-a7a75ed507f0","ios":"levelo://app?vid=42d406a2-2905-4ffe-bb88-a7a75ed507f0"},"vehicle_type_id":"4","last_reported":1756148890,"current_range_meters":19600,"station_id":"ce4bhch2rcd13ifvqeug","pricing_plan_id":"cebpf4jnsgd1na2vs0mg"},{"bike_id":"78b2d9cb-483f-45f6-a1fa-457d75ec0086","system_id":"levelo_inurba_marseille","lat":43.26575,"lon":5.39014,"is_reserved":false,"is_disabled":false,"rental_uris":{"android":"levelo://app?vid=78b2d9cb-483f-45f6-a1fa-457d75ec0086","ios":"levelo://app?vid=78b2d9cb-483f-45f6-a1fa-457d75ec0086"},"vehicle_type_id":"4","last_reported":1756148890,"current_range_meters":19600,"station_id":"ce4bhe12rcd13ifvqf30","pricing_plan_id":"cebpf4jnsgd1na2vs0mg"},{"bike_id":"070c5c08-8102-4233-9aa2-6dc44cc7988e","system_id":"levelo_inurba_marseille","lat":43.30282,"lon":5.38421,"is_reserved":false,"is_disabled":false,"rental_uris":{"android":"levelo://app?vid=070c5c08-8102-4233-9aa2-6dc44cc7988e","ios":"levelo://app?vid=070c5c08-8102-4233-9aa2-6dc44cc7988e"},"vehicle_type_id":"4","last_reported":1756148890,"current_range_meters":20000,"station_id":"","pricing_plan_id":"cebpf4jnsgd1na2vs0mg"},{"bike_id":"c5c8a740-3a5e-40ef-957c-8894ad2f5643","system_id":"levelo_inurba_marseille","lat":43.307983,"lon":5.381626,"is_reserved":false,"is_disabled":false,"rental_uris":{"android":"levelo://app?vid=c5c8a740-3a5e-40ef-957c-8894ad2f5643","ios":"levelo://app?vid=c5c8a740-3a5e-40ef-957c-8894ad2f5643"},"vehicle_type_id":"4","last_reported":1756148890,"current_range_meters":20000,"station_id":"ce4bgt12rcd13ifvqce0","pricing_plan_id":"cebpf4jnsgd1na2vs0mg"},{"bike_id":"f4723179-403e-4e2c-8995-4467fefbe306","system_id":"levelo_inurba_marseille","lat":43.31326,"lon":5.39687,"is_reserved":false,"is_disabled":false,"rental_uris":{"android":"levelo://app?vid=f4723179-403e-4e2c-8995-4467fefbe306","ios":"levelo://app?vid=f4723179-403e-4e2c-8995-4467fefbe306"},"vehicle_type_id":"4","last_reported":1756148890,"current_range_meters":20000,"station_id":"ce4bgvp2rcd13ifvqcu0","pricing_plan_id":"cebpf4jnsgd1na2vs0mg"},{"bike_id":"0804bd2c-15df-4329-a65a-df9851036829","system_id":"levelo_inurba_marseille","lat":43.31327,"lon":5.3972,"is_reserved":false,"is_disabled":false,"rental_uris":{"android":"levelo://app?vid=0804bd2c-15df-4329-a65a-df9851036829","ios":"levelo://app?vid=0804bd2c-15df-4329-a65a-df9851036829"},"vehicle_type_id":"4","last_reported":1756148890,"current_range_meters":20000,"station_id":"ce4bgvp2rcd13ifvqcu0","pricing_plan_id":"cebpf4jnsgd1na2vs0mg"},{"bike_id":"dd721bff-11a2-4022-8c27-038f340fe7cd","system_id":"levelo_inurba_marseille","lat":43.29263,"lon":5.38432,"is_reserved":false,"is_disabled":false,"rental_uris":{"android":"levelo://app?vid=dd721bff-11a2-4022-8c27-038f340fe7cd","ios":"levelo://app?vid=dd721bff-11a2-4022-8c27-038f340fe7cd"},"vehicle_type_id":"4","last_reported":1756148890,"current_range_meters":20000,"station_id":"ce4bh692rcd13ifvqea0","pricing_plan_id":"cebpf4jnsgd1na2vs0mg"},{"bike_id":"cd72348f-c25e-4a42-8e7b-92827432e9b7","system_id":"levelo_inurba_marseille","lat":43.25492,"lon":5.37654,"is_reserved":false,"is_disabled":false,"rental_uris":{"android":"levelo://app?vid=cd72348f-c25e-4a42-8e7b-92827432e9b7","ios":"levelo://app?vid=cd72348f-c25e-4a42-8e7b-92827432e9b7"},"vehicle_type_id":"4","last_reported":1756148890,"current_range_meters":20000,"station_id":"ce4bhh12rcd13ifvqff0","pricing_plan_id":"cebpf4jnsgd1na2vs0mg"},{"bike_id":"61a70fe0-50a6-4ae0-bc6d-28d0ce23c299","system_id":"levelo_inurba_marseille","lat":43.26786,"lon":5.39415,"is_reserved":false,"is_disabled":false,"rental_uris":{"android":"levelo://app?vid=61a70fe0-50a6-4ae0-bc6d-28d0ce23c299","ios":"levelo://app?vid=61a70fe0-50a6-4ae0-bc6d-28d0ce23c299"},"vehicle_type_id":"4","last_reported":1756148890,"current_range_meters":20000,"station_id":"ce4bhh12rcd13ifvqfg0","pricing_plan_id":"cebpf4jnsgd1na2vs0mg"},{"bike_id":"1f8abda0-b398-458e-b1d4-8f630b737e5e","system_id":"levelo_inurba_marseille","lat":43.257237,"lon":5.411177,"is_reserved":false,"is_disabled":false,"rental_uris":{"android":"levelo://app?vid=1f8abda0-b398-458e-b1d4-8f630b737e5e","ios":"levelo://app?vid=1f8abda0-b398-458e-b1d4-8f630b737e5e"},"vehicle_type_id":"4","last_reported":1756148890,"current_range_meters":20000,"station_id":"ce4bhkp2rcd13ifvqgd0","pricing_plan_id":"cebpf4jnsgd1na2vs0mg"},