{"last_updated":1742422155,"ttl":60,"version":"2.2","data":{"bikes":[{"bike_id":"a885066e-3705-425b-a338-3ef4149b3e5d","system_id":"levelo_inurba_marseille","lat":43.2797,"lon":5.38739,"is_reserved":false,"is_disabled":false,"rental_uris":{"android":"levelo://app?vid=a885066e-3705-425b-a338-3ef4149b3e5d","ios":"levelo://app?vid=a885066e-3705-425b-a338-3ef4149b3e5d"},"vehicle_type_id":"4","last_reported":1742422155,"current_range_meters":2800,"station_id":"ce4bhg12rcd13ifvqf80","pricing_plan_id":"cebpf4jnsgd1na2vs0mg"},{"bike_id":"e582d1fe-4879-4f27-8671-77ca2ba0d27e","system_id":"levelo_inurba_marseille","lat":43.24834,"lon":5.37502,"is_reserved":false,"is_disabled":true,"rental_uris":{"android":"levelo://app?vid=e582d1fe-4879-4f27-8671-77ca2ba0d27e","ios":"levelo://app?vid=e582d1fe-4879-4f27-8671-77ca2ba0d27e"},"vehicle_type_id":"4","last_reported":1742422155,"current_range_meters":2800,"station_id":"","pricing_plan_id":"cebpf4jnsgd1na2vs0mg"},{"bike_id":"7be357ca-49f9-45d6-a962-754132a73fd4","system_id":"levelo_inurba_marseille","lat":43.30407,"lon":5.41262,"is_reserved":false,"is_disabled":false,"rental_uris":{"android":"levelo://app?vid=7be357ca-49f9-45d6-a962-754132a73fd4","ios":"levelo://app?vid=7be357ca-49f9-45d6-a962-754132a73fd4"},"vehicle_type_id":"4","last_reported":1742422155,"current_range_meters":2800,"station_id":"ce4bhop2rcd13ifvqh8g","pricing_plan_id":"cebpf4jnsgd1na2vs0mg"},{"bike_id":"d835339a-815c-4f2d-bc5f-06df97638758","system_id":"levelo_inurba_marseille","lat":43.31369,"lon":5.38608,"is_reserved":false,"is_disabled":false,"rental_uris":{"android":"levelo://app?vid=d835339a-815c-4f2d-bc5f-06df97638758","ios":"levelo://app?vid=d835339a-815c-4f2d-bc5f-06df97638758"},"vehicle_type_id":"4","last_reported":1742422155,"current_range_meters":2800,"station_id":"","pricing_plan_id":"cebpf4jnsgd1na2vs0mg"},{"bike_id":"025b93a4-47c9-4472-823d-76319b10550f","system_id":"levelo_inurba_marseille","lat":43.31168,"lon":5.38718,"is_reserved":false,"is_disabled":false,"rental_uris":{"android":"levelo://app?vid=025b93a4-47c9-4472-823d-76319b10550f","ios":"levelo://app?vid=025b93a4-47c9-4472-823d-76319b10550f"},"vehicle_type_id":"4","last_reported":1742422155,"current_range_meters":2800,"station_id":"ce4bgv12rcd13ifvqcp0","pricing_plan_id":"cebpf4jnsgd1na2vs0mg"},{"bike_id":"ad582bb4-c426-4215-a95a-a3681c42f243","system_id":"levelo_inurba_marseille","lat":43.24803,"lon":5.37452,"is_reserved":false,"is_disabled":false,"rental_uris":{"android":"levelo://app?vid=ad582bb4-c426-4215-a95a-a3681c42f243","ios":"levelo://app?vid=ad582bb4-c426-4215-a95a-a3681c42f243"},"vehicle_type_id":"4","last_reported":1742422155,"current_range_meters":3200,"station_id":"ce4bhgh2rcd13ifvqfb0","pricing_plan_id":"cebpf4jnsgd1na2vs0mg"},{"bike_id":"f6ab5706-aa19-447f-bbcb-333c7534d072","system_id":"levelo_inurba_marseille","lat":43.30881,"lon":5.3963,"is_reserved":false,"is_disabled":false,"rental_uris":{"android":"levelo://app?vid=f6ab5706-aa19-447f-bbcb-333c7534d072","ios":"levelo://app?vid=f6ab5706-aa19-447f-bbcb-333c7534d072"},"vehicle_type_id":"4","last_reported":1742422155,"current_range_meters":3200,"station_id":"ce4bh012rcd13ifvqcv0","pricing_plan_id":"cebpf4jnsgd1na2vs0mg"},{"bike_id":"6368f354-6da7-4884-a394-062f1a963ed6","system_id":"levelo_inurba_marseille","lat":43.29317,"lon":5.42778,"is_reserved":false,"is_disabled":false,"rental_uris":{"android":"levelo://app?vid=6368f354-6da7-4884-a394-062f1a963ed6","ios":"levelo://app?vid=6368f354-6da7-4884-a394-062f1a963ed6"},"vehicle_type_id":"4","last_reported":1742422155,"current_range_meters":3200,"station_id":"","pricing_plan_id":"cebpf4jnsgd1na2vs0mg"},{"bike_id":"6d6c8024-ca50-4879-b306-358b4dcb48e3","system_id":"levelo_inurba_marseille","lat":43.3021,"lon":5.39459,"is_reserved":false,"is_disabled":false,"rental_uris":{"android":"levelo://app?vid=6d6c8024-ca50-4879-b306-358b4dcb48e3","ios":"levelo://app?vid=6d6c8024-ca50-4879-b306-358b4dcb48e3"},"vehicle_type_id":"4","last_reported":1742422155,"current_range_meters":3600,"station_id":"ce4bh0p2rcd13ifvqd70","pricing_plan_id":"cebpf4jnsgd1na2vs0mg"},{"bike_id":"97820cc4-93f7-472f-a6a3-bb0b3708ecd1","system_id":"levelo_inurba_marseille","lat":43.26529,"lon":5.37286,"is_reserved":false,"is_disabled":true,"rental_uris":{"android":"levelo://app?vid=97820cc4-93f7-472f-a6a3-bb0b3708ecd1","ios":"levelo://app?vid=97820cc4-93f7-472f-a6a3-bb0b3708ecd1"},"vehicle_type_id":"4","last_reported":1742422155,"current_range_meters":3600,"station_id":"ce4bhg12rcd13ifvqf70","pricing_plan_id":"cebpf4jnsgd1na2vs0mg"},{"bike_id":"55e8ed10-daa2-413a-980d-6a6eb45a229d","system_id":"levelo_inurba_marseille","lat":43.28379,"lon":5.38648,"is_reserved":false,"is_disabled":false,"rental_uris":{"android":"levelo://app?vid=55e8ed10-daa2-413a-980d-6a6eb45a229d","ios":"levelo://app?vid=55e8ed10-daa2-413a-980d-6a6eb45a229d"},"vehicle_type_id":"4","last_reported":1742422155,"current_range_meters":4000,"station_id":"ce4bh492rcd13ifvqdvg","pricing_plan_id":"cebpf4jnsgd1na2vs0mg"},{"bike_id":"72fa9928-6f34-4e20-a699-21c02d9b6490","system_id":"levelo_inurba_marseille","lat":43.27914,"lon":5.41222,"is_reserved":false,"is_disabled":false,"rental_uris":{"android":"levelo://app?vid=72fa9928-6f34-4e20-a699-21c02d9b6490","ios":"levelo://app?vid=72fa9928-6f34-4e20-a699-21c02d9b6490"},"vehicle_type_id":"4","last_reported":1742422155,"current_range_meters":4000,"station_id":"","pricing_plan_id":"cebpf4jnsgd1na2vs0mg"},{"bike_id":"2ae1ee72-fae0-47af-8b48-ae60edbcb597","system_id":"levelo_inurba_marseille","lat":43.31486,"lon":5.37296,"is_reserved":false,"is_disabled":false,"rental_uris":{"android":"levelo://app?vid=2ae1ee72-fae0-47af-8b48-ae60edbcb597","ios":"levelo://app?vid=2ae1ee72-fae0-47af-8b48-ae60edbcb597"},"vehicle_type_id":"4","last_reported":1742422155,"current_range_meters":4000,"station_id":"ce4bgt12rcd13ifvqcd0","pricing_plan_id":"cebpf4jnsgd1na2vs0mg"},{"bike_id":"316b5ba9-2790-4d55-91cb-595f1ebd680a","system_id":"levelo_inurba_marseille","lat":43.28404,"lon":5.37508,"is_reserved":false,"is_disabled":false,"rental_uris":{"android":"levelo://app?vid=316b5ba9-2790-4d55-91cb-595f1ebd680a","ios":"levelo://app?vid=316b5ba9-2790-4d55-91cb-595f1ebd680a"},"vehicle_type_id":"4","last_reported":1742422155,"current_range_meters":4400,"station_id":"ce4bh412rcd13ifvqds0","pricing_plan_id":"cebpf4jnsgd1na2vs0mg"},{"bike_id":"4ab60c3c-0e31-4a02-9d5f-acb594ff22ad","system_id":"levelo_inurba_marseille","lat":43.29927,"lon":5.37452,"is_reserved":false,"is_disabled":true,"rental_uris":{"android":"levelo://app?vid=4ab60c3c-0e31-4a02-9d5f-acb594ff22ad","ios":"levelo://app?vid=4ab60c3c-0e31-4a02-9d5f-acb594ff22ad"},"vehicle_type_id":"4","last_reported":1742422155,"current_range_meters":4800,"station_id":"ce4bgjh2rcd13ifvqbg0","pricing_plan_id":"cebpf4jnsgd1na2vs0mg"},{"bike_id":"0b60e72b-d8b1-4266-9b63-b94b87c1ad4b","system_id":"levelo_inurba_marseille","lat":43.23197,"lon":5.3998,"is_reserved":false,"is_disabled":false,"rental_uris":{"android":"levelo://app?vid=0b60e72b-d8b1-4266-9b63-b94b87c1ad4b","ios":"levelo://app?vid=0b60e72b-d8b1-4266-9b63-b94b87c1ad4b"},"vehicle_type_id":"4","last_reported":1742422155,"current_range_meters":5600,"station_id":"ce4bhn12rcd13ifvqgqg","pricing_plan_id":"cebpf4jnsgd1na2vs0mg"},{"bike_id":"6ae6f76c-6a01-4d75-9d3f-dfa610803a78","system_id":"levelo_inurba_marseille","lat":43.23066,"lon":5.35486,"is_reserved":false,"is_disabled":false,"rental_uris":{"android":"levelo://app?vid=6ae6f76c-6a01-4d75-9d3f-dfa610803a78","ios":"levelo://app?vid=6ae6f76c-6a01-4d75-9d3f-dfa610803a78"},"vehicle_type_id":"4","last_reported":1742422155,"current_range_meters":5600,"station_id":"cpo3342slgdg3j2ifvpg","pricing_plan_id":"cebpf4jnsgd1na2vs0mg"},{"bike_id":"c849e512-8241-40ea-82b7-ef1c1b5cdc02","system_id":"levelo_inurba_marseille","lat":43.26043,"lon":5.39391,"is_reserved":false,"is_disabled":false,"rental_uris":{"android":"levelo://app?vid=c849e512-8241-40ea-82b7-ef1c1b5cdc02","ios":"levelo://app?vid=c849e512-8241-40ea-82b7-ef1c1b5cdc02"},"vehicle_type_id":"4","last_reported":1742422155,"current_range_meters":5600,"station_id":"ce4bhh92rcd13ifvqfj0","pricing_plan_id":"cebpf4jnsgd1na2vs0mg"},{"bike_id":"41ccd72c-504a-4b33-907d-e3b6bd114bcb","system_id":"levelo_inurba_marseille","lat":43.23214,"lon":5.35552,"is_reserved":false,"is_disabled":false,"rental_uris":{"android":"levelo://app?vid=41ccd72c-504a-4b33-907d-e3b6bd114bcb","ios":"levelo://app?vid=41ccd72c-504a-4b33-907d-e3b6bd114bcb"},"vehicle_type_id":"4","last_reported":1742422155,"current_range_meters":5600,"station_id":"ce4bhu92rcd13ifvqi70","pricing_plan_id":"cebpf4jnsgd1na2vs0mg"},{"bike_id":"4c59bec2-d66f-4868-811c-23bedd89c22e","system_id":"levelo_inurba_marseille","lat":43.28935,"lon":5.36386,"is_reserved":false,"is_disabled":false,"rental_uris":{"android":"levelo://app?vid=4c59bec2-d66f-4868-811c-23bedd89c22e","ios":"levelo://app?vid=4c59bec2-d66f-4868-811c-23bedd89c22e"},"vehicle_type_id":"4","last_reported":1742422155,"current_range_meters":5600,"station_id":"ce4bhc92rcd13ifvqetg","pricing_plan_id":"cebpf4jnsgd1na2vs0mg"},{"bike_id":"cc415b76-7b54-4f1d-ada8-a6c19b8a3fa9","system_id":"levelo_inurba_marseille","lat":43.31547,"lon":5.38062,"is_reserved":false,"is_disabled":false,"rental_uris":{"android":"levelo://app?vid=cc415b76-7b54-4f1d-ada8-a6c19b8a3fa9","ios":"levelo://app?vid=cc415b76-7b54-4f1d-ada8-a6c19b8a3fa9"},"vehicle_type_id":"4","last_reported":1742422155,"current_range_meters":5600,"station_id":"ce4bhsp2rcd13ifvqi50","pricing_plan_id":"cebpf4jnsgd1na2vs0mg"},{"bike_id":"dd2ed7bd-b7fd-4968-a45f-8f49550d4b0d","system_id":"levelo_inurba_marseille","lat":43.28423,"lon":5.39215,"is_reserved":false,"is_disabled":false,"rental_uris":{"android":"levelo://app?vid=dd2ed7bd-b7fd-4968-a45f-8f49550d4b0d","ios":"levelo://app?vid=dd2ed7bd-b7fd-4968-a45f-8f49550d4b0d"},"vehicle_type_id":"4","last_reported":1742422155,"current_range_meters":5600,"station_id":"ce4bhoh2rcd13ifvqh5g","pricing_plan_id":"cebpf4jnsgd1na2vs0mg"},{"bike_id":"f4ecdf2e-9609-44f7-bd98-2edcf10853b9","system_id":"levelo_inurba_marseille","lat":43.31685,"lon":5.40474,"is_reserved":false,"is_disabled":false,"rental_uris":{"android":"levelo://app?vid=f4ecdf2e-9609-44f7-bd98-2edcf10853b9","ios":"levelo://app?vid=f4ecdf2e-9609-44f7-bd98-2edcf10853b9"},"vehicle_type_id":"4","last_reported":1742422155,"current_range_meters":5600,"station_id":"ce4bh012rcd13ifvqd00","pricing_plan_id":"cebpf4jnsgd1na2vs0mg"},{"bike_id":"c1ccf0a5-89fe-4d49-a5d7-808fb720c652","system_id":"levelo_inurba_marseille","lat":43.26025,"lon":5.41747,"is_reserved":false,"is_disabled":false,"rental_uris":{"android":"levelo://app?vid=c1ccf0a5-89fe-4d49-a5d7-808fb720c652","ios":"levelo://app?vid=c1ccf0a5-89fe-4d49-a5d7-808fb720c652"},"vehicle_type_id":"4","last_reported":1742422155,"current_range_meters":6000,"station_id":"","pricing_plan_id":"cebpf4jnsgd1na2vs0mg"},{"bike_id":"4382fcbb-ab3a-4082-a593-40cf743c03e0","system_id":"levelo_inurba_marseille","lat":43.25115,"lon":5.40339,"is_reserved":false,"is_disabled":false,"rental_uris":{"android":"levelo://app?vid=4382fcbb-ab3a-4082-a593-40cf743c03e0","ios":"levelo://app?vid=4382fcbb-ab3a-4082-a593-40cf743c03e0"},"vehicle_type_id":"4","last_reported":1742422155,"current_range_meters":6000,"station_id":"ce4bhlh2rcd13ifvqgig","pricing_plan_id":"cebpf4jnsgd1na2vs0mg"},{"bike_id":"ca1c0a28-8faf-435f-9d8b-370c3a07ff34","system_id":"levelo_inurba_marseille","lat":43.24163,"lon":5.36388,"is_reserved":false,"is_disabled":false,"rental_uris":{"android":"levelo://app?vid=ca1c0a28-8faf-435f-9d8b-370c3a07ff34","ios":"levelo://app?vid=ca1c0a28-8faf-435f-9d8b-370c3a07ff34"},"vehicle_type_id":"4","last_reported":1742422155,"current_range_meters":6000,"station_id":"cpo36qri1sfpv3e86is0","pricing_plan_id":"cebpf4jnsgd1na2vs0mg"},{"bike_id":"8997f540-8acf-4714-9054-8cd70c106aba","system_id":"levelo_inurba_marseille","lat":43.25866,"lon":5.39908,"is_reserved":false,"is_disabled":false,"rental_uris":{"android":"levelo://app?vid=8997f540-8acf-4714-9054-8cd70c106aba","ios":"levelo://app?vid=8997f540-8acf-4714-9054-8cd70c106aba"},"vehicle_type_id":"4","last_reported":1742422155,"current_range_meters":6000,"station_id":"ce4bhl92rcd13ifvqghg","pricing_plan_id":"cebpf4jnsgd1na2vs0mg"},{"bike_id":"ed167cf2-fcca-45d3-a06f-d2b9c6a361e0","system_id":"levelo_inurba_marseille","lat":43.28032,"lon":5.40065,"is_reserved":false,"is_disabled":false,"rental_uris":{"android":"levelo://app?vid=ed167cf2-fcca-45d3-a06f-d2b9c6a361e0","ios":"levelo://app?vid=ed167cf2-fcca-45d3-a06f-d2b9c6a361e0"},"vehicle_type_id":"4","last_reported":1742422155,"current_range_meters":6000,"station_id":"","pricing_plan_id":"cebpf4jnsgd1na2vs0mg"},{"bike_id":"6c1383c4-ce25-49bd-9e8f-5404db35746c","system_id":"levelo_inurba_marseille","lat":43.23651,"lon":5.39147,"is_reserved":false,"is_disabled":false,"rental_uris":{"android":"levelo://app?vid=6c1383c4-ce25-49bd-9e8f-5404db35746c","ios":"levelo://app?vid=6c1383c4-ce25-49bd-9e8f-5404db35746c"},"vehicle_type_id":"4","last_reported":1742422155,"current_range_meters":6000,"station_id":"","pricing_plan_id":"cebpf4jnsgd1na2vs0mg"},{"bike_id":"142e505d-f2ba-463d-85c3-bfc10c5b02f0","system_id":"levelo_inurba_marseille","lat":43.26937,"lon":5.38924,"is_reserved":false,"is_disabled":false,"rental_uris":{"android":"levelo://app?vid=142e505d-f2ba-463d-85c3-bfc10c5b02f0","ios":"levelo://app?vid=142e505d-f2ba-463d-85c3-bfc10c5b02f0"},"vehicle_type_id":"4","last_reported":1742422155,"current_range_meters":5600,"station_id":"ce4bhhh2rcd13ifvqfl0","pricing_plan_id":"cebpf4jnsgd1na2vs0mg"},{"bike_id":"d0f8fd34-84ff-4859-8903-7aee9c800007","system_id":"levelo_inurba_marseille","lat":43.28342,"lon":5.38643,"is_reserved":false,"is_disabled":false,"rental_uris":{"android":"levelo://app?vid=d0f8fd34-84ff-4859-8903-7aee9c800007","ios":"levelo://app?vid=d0f8fd34-84ff-4859-8903-7aee9c800007"},"vehicle_type_id":"4","last_reported":1742422155,"current_range_meters":6400,"station_id":"ce4bh492rcd13ifvqdvg","pricing_plan_id":"cebpf4jnsgd1na2vs0mg"},{"bike_id":"332822ad-0b58-4d90-b573-eb7fb519e8ec","system_id":"levelo_inurba_marseille","lat":43.30907,"lon":5.40168,"is_reserved":false,"is_disabled":false,"rental_uris":{"android":"levelo://app?vid=332822ad-0b58-4d90-b573-eb7fb519e8ec","ios":"levelo://app?vid=332822ad-0b58-4d90-b573-eb7fb519e8ec"},"vehicle_type_id":"4","last_reported":1742422155,"current_range_meters":6400,"station_id":"ce4bgvp2rcd13ifvqct0","pricing_plan_id":"cebpf4jnsgd1na2vs0mg"},{"bike_id":"8a2aee9f-027f-415a-9d5c-83912e4bbe0d","system_id":"levelo_inurba_marseille","lat":43.31772,"lon":5.3901,"is_reserved":false,"is_disabled":false,"rental_uris":{"android":"levelo://app?vid=8a2aee9f-027f-415a-9d5c-83912e4bbe0d","ios":"levelo://app?vid=8a2aee9f-027f-415a-9d5c-83912e4bbe0d"},"vehicle_type_id":"4","last_reported":1742422155,"current_range_meters":6400,"station_id":"ce4bhqp2rcd13ifvqhng","pricing_plan_id":"cebpf4jnsgd1na2vs0mg"},{"bike_id":"9072ba91-36e1-4c86-be3a-d886f3b77f8b","system_id":"levelo_inurba_marseille","lat":43.2991,"lon":5.38173,"is_reserved":false,"is_disabled":false,"rental_uris":{"android":"levelo://app?vid=9072ba91-36e1-4c86-be3a-d886f3b77f8b","ios":"levelo://app?vid=9072ba91-36e1-4c86-be3a-d886f3b77f8b"},"vehicle_type_id":"4","last_reported":1742422155,"current_range_meters":6400,"station_id":"ce4bgj12rcd13ifvqbc0","pricing_plan_id":"cebpf4jnsgd1na2vs0mg"},{"bike_id":"36398751-62bc-42f9-97fc-ed7aa66a199a","system_id":"levelo_inurba_marseille","lat":43.24778,"lon":5.37448,"is_reserved":false,"is_disabled":false,"rental_uris":{"android":"levelo://app?vid=36398751-62bc-42f9-97fc-ed7aa66a199a","ios":"levelo://app?vid=36398751-62bc-42f9-97fc-ed7aa66a199a"},"vehicle_type_id":"4","last_reported":1742422155,"current_range_meters":6400,"station_id":"ce4bhgh2rcd13ifvqfb0","pricing_plan_id":"cebpf4jnsgd1na2vs0mg"},{"bike_id":"781997d5-043d-49ab-8994-d86e794a8344","system_id":"levelo_inurba_marseille","lat":43.28932,"lon":5.36408,"is_reserved":false,"is_disabled":false,"rental_uris":{"android":"levelo://app?vid=781997d5-043d-49ab-8994-d86e794a8344","ios":"levelo://app?vid=781997d5-043d-49ab-8994-d86e794a8344"},"vehicle_type_id":"4","last_reported":1742422155,"current_range_meters":6400,"station_id":"ce4bhc92rcd13ifvqetg","pricing_plan_id":"cebpf4jnsgd1na2vs0mg"},{"bike_id":"13c50ce8-ac37-403c-9a91-fd3d918d2a4f","system_id":"levelo_inurba_marseille","lat":43.2782,"lon":5.40725,"is_reserved":false,"is_disabled":false,"rental_uris":{"android":"levelo://app?vid=13c50ce8-ac37-403c-9a91-fd3d918d2a4f","ios":"levelo://app?vid=13c50ce8-ac37-403c-9a91-fd3d918d2a4f"},"vehicle_type_id":"4","last_reported":1742422155,"current_range_meters":6400,"station_id":"ce4bhnh2rcd13ifvqgtg","pricing_plan_id":"cebpf4jnsgd1na2vs0mg"},{"bike_id":"3971f77a-b88d-4f35-bb02-cd0729f773be","system_id":"levelo_inurba_marseille","lat":43.25816,"lon":5.39424,"is_reserved":false,"is_disabled":false,"rental_uris":{"android":"levelo://app?vid=3971f77a-b88d-4f35-bb02-cd0729f773be","ios":"levelo://app?vid=3971f77a-b88d-4f35-bb02-cd0729f773be"},"vehicle_type_id":"4","last_reported":1742422155,"current_range_meters":6400,"station_id":"ce4bhip2rcd13ifvqft0","pricing_plan_id":"cebpf4jnsgd1na2vs0mg"},{"bike_id":"b4de28f4-8a25-4498-9ea9-5ae001331785","system_id":"levelo_inurba_marseille","lat":43.24679,"lon":5.38143,"is_reserved":false,"is_disabled":false,"rental_uris":{"android":"levelo://app?vid=b4de28f4-8a25-4498-9ea9-5ae001331785","ios":"levelo://app?vid=b4de28f4-8a25-4498-9ea9-5ae001331785"},"vehicle_type_id":"4","last_reported":1742422155,"current_range_meters":6400,"station_id":"ce4bhih2rcd13ifvqfr0","pricing_plan_id":"cebpf4jnsgd1na2vs0mg"},{"bike_id":"93c8459b-99b3-44b8-ba99-136ecf8bee55","system_id":"levelo_inurba_marseille","lat":43.24791,"lon":5.37458,"is_reserved":false,"is_disabled":false,"rental_uris":{"android":"levelo://app?vid=93c8459b-99b3-44b8-ba99-136ecf8bee55","ios":"levelo://app?vid=93c8459b-99b3-44b8-ba99-136ecf8bee55"},"vehicle_type_id":"4","last_reported":1742422155,"current_range_meters":6800,"station_id":"ce4bhgh2rcd13ifvqfb0","pricing_plan_id":"cebpf4jnsgd1na2vs0mg"},{"bike_id":"a342afa1-fe1b-4de5-8f98-f3f81167fac6","system_id":"levelo_inurba_marseille","lat":43.22918,"lon":5.35378,"is_reserved":false,"is_disabled":false,"rental_uris":{"android":"levelo://app?vid=a342afa1-fe1b-4de5-8f98-f3f81167fac6","ios":"levelo://app?vid=a342afa1-fe1b-4de5-8f98-f3f81167fac6"},"vehicle_type_id":"4","last_reported":1742422155,"current_range_meters":6800,"station_id":"cpo3532slgdg3j2ikp40","pricing_plan_id":"cebpf4jnsgd1na2vs0mg"},{"bike_id":"e571732a-bd15-4218-b100-a5ee642d86ef","system_id":"levelo_inurba_marseille","lat":43.30779,"lon":5.37642,"is_reserved":false,"is_disabled":false,"rental_uris":{"android":"levelo://app?vid=e571732a-bd15-4218-b100-a5ee642d86ef","ios":"levelo://app?vid=e571732a-bd15-4218-b100-a5ee642d86ef"},"vehicle_type_id":"4","last_reported":1742422155,"current_range_meters":6400,"station_id":"ce4bgv92rcd13ifvqcq0","pricing_plan_id":"cebpf4jnsgd1na2vs0mg"},{"bike_id":"a74bf8ef-9a67-48b0-83b7-af79b30b454c","system_id":"levelo_inurba_marseille","lat":43.30887,"lon":5.39625,"is_reserved":false,"is_disabled":false,"rental_uris":{"android":"levelo://app?vid=a74bf8ef-9a67-48b0-83b7-af79b30b454c","ios":"levelo://app?vid=a74bf8ef-9a67-48b0-83b7-af79b30b454c"},"vehicle_type_id":"4","last_reported":1742422155,"current_range_meters":6800,"station_id":"ce4bh012rcd13ifvqcv0","pricing_plan_id":"cebpf4jnsgd1na2vs0mg"},{"bike_id":"70cae091-30ee-4401-925f-2bb46b380ad8","system_id":"levelo_inurba_marseille","lat":43.31751,"lon":5.39018,"is_reserved":false,"is_disabled":false,"rental_uris":{"android":"levelo://app?vid=70cae091-30ee-4401-925f-2bb46b380ad8","ios":"levelo://app?vid=70cae091-30ee-4401-925f-2bb46b380ad8"},"vehicle_type_id":"4","last_reported":1742422155,"current_range_meters":6400,"station_id":"ce4bhqp2rcd13ifvqhng","pricing_plan_id":"cebpf4jnsgd1na2vs0mg"},{"bike_id":"66ebd736-d0e1-4909-b91a-8b8e170e1ed9","system_id":"levelo_inurba_marseille","lat":43.24066,"lon":5.37745,"is_reserved":false,"is_disabled":false,"rental_uris":{"android":"levelo://app?vid=66ebd736-d0e1-4909-b91a-8b8e170e1ed9","ios":"levelo://app?vid=66ebd736-d0e1-4909-b91a-8b8e170e1ed9"},"vehicle_type_id":"4","last_reported":1742422155,"current_range_meters":6800,"station_id":"ce4bhnp2rcd13ifvqgvg","pricing_plan_id":"cebpf4jnsgd1na2vs0mg"},{"bike_id":"4f70ebff-4208-422e-8c95-09d5bebf9c84","system_id":"levelo_inurba_marseille","lat":43.27931,"lon":5.39602,"is_reserved":false,"is_disabled":false,"rental_uris":{"android":"levelo://app?vid=4f70ebff-4208-422e-8c95-09d5bebf9c84","ios":"levelo://app?vid=4f70ebff-4208-422e-8c95-09d5bebf9c84"},"vehicle_type_id":"4","last_reported":1742422155,"current_range_meters":6800,"station_id":"ce4bhf92rcd13ifvqf40","pricing_plan_id":"cebpf4jnsgd1na2vs0mg"},{"bike_id":"4156866b-a0ed-4dcf-b9d2-e7765ca102e2","system_id":"levelo_inurba_marseille","lat":43.30579,"lon":5.3668,"is_reserved":false,"is_disabled":true,"rental_uris":{"android":"levelo://app?vid=4156866b-a0ed-4dcf-b9d2-e7765ca102e2","ios":"levelo://app?vid=4156866b-a0ed-4dcf-b9d2-e7765ca102e2"},"vehicle_type_id":"4","last_reported":1742422155,"current_range_meters":6800,"station_id":"ce4bgrp2rcd13ifvqc9g","pricing_plan_id":"cebpf4jnsgd1na2vs0mg"},{"bike_id":"07a84210-640a-4451-abeb-0f9d302f1d58","system_id":"levelo_inurba_marseille","lat":43.2656,"lon":5.39002,"is_reserved":false,"is_disabled":false,"rental_uris":{"android":"levelo://app?vid=07a84210-640a-4451-abeb-0f9d302f1d58","ios":"levelo://app?vid=07a84210-640a-4451-abeb-0f9d302f1d58"},"vehicle_type_id":"4","last_reported":1742422155,"current_range_meters":6800,"station_id":"ce4bhe12rcd13ifvqf30","pricing_plan_id":"cebpf4jnsgd1na2vs0mg"},{"bike_id":"7acbcf9d-3f47-4532-a2f9-2815cd2e9308","system_id":"levelo_inurba_marseille","lat":43.325843,"lon":5.41314,"is_reserved":false,"is_disabled":false,"rental_uris":{"android":"levelo://app?vid=7acbcf9d-3f47-4532-a2f9-2815cd2e9308","ios":"levelo://app?vid=7acbcf9d-3f47-4532-a2f9-2815cd2e9308"},"vehicle_type_id":"4","last_reported":1742422155,"current_range_meters":6800,"station_id":"ce4bhqh2rcd13ifvqhmg","pricing_plan_id":"cebpf4jnsgd1na2vs0mg"},{"bike_id":"865b135a-b505-4801-b213-2527312db79d","system_id":"levelo_inurba_marseille","lat":43.23879,"lon":5.37109,"is_reserved":false,"is_disabled":false,"rental_uris":{"android":"levelo://app?vid=865b135a-b505-4801-b213-2527312db79d","ios":"levelo://app?vid=865b135a-b505-4801-b213-2527312db79d"},"vehicle_type_id":"4","last_reported":1742422155,"current_range_meters":7200,"station_id":"","pricing_plan_id":"cebpf4jnsgd1na2vs0mg"},{"bike_id":"d3aee935-e07d-4388-bbdb-0f36c5d2addd","system_id":"levelo_inurba_marseille","lat":43.28707,"lon":5.37383,"is_reserved":false,"is_disabled":false,"rental_uris":{"android":"levelo://app?vid=d3aee935-e07d-4388-bbdb-0f36c5d2addd","ios":"levelo://app?vid=d3aee935-e07d-4388-bbdb-0f36c5d2addd"},"vehicle_type_id":"4","last_reported":1742422155,"current_range_meters":7200,"station_id":"ce4bh3p2rcd13ifvqdq0","pricing_plan_id":"cebpf4jnsgd1na2vs0mg"},{"bike_id":"361822fa-663c-449d-9c8f-b3dec5b6d89a","system_id":"levelo_inurba_marseille","lat":43.27505,"lon":5.42453,"is_reserved":false,"is_disabled":false,"rental_uris":{"android":"levelo://app?vid=361822fa-663c-449d-9c8f-b3dec5b6d89a","ios":"levelo://app?vid=361822fa-663c-449d-9c8f-b3dec5b6d89a"},"vehicle_type_id":"4","last_reported":1742422155,"current_range_meters":7200,"station_id":"ce4bhn92rcd13ifvqgrg","pricing_plan_id":"cebpf4jnsgd1na2vs0mg"},{"bike_id":"4f768683-98ef-4058-a6fa-4682623e24f5","system_id":"levelo_inurba_marseille","lat":43.30885,"lon":5.39648,"is_reserved":false,"is_disabled":false,"rental_uris":{"android":"levelo://app?vid=4f768683-98ef-4058-a6fa-4682623e24f5","ios":"levelo://app?vid=4f768683-98ef-4058-a6fa-4682623e24f5"},"vehicle_type_id":"4","last_reported":1742422155,"current_range_meters":7200,"station_id":"ce4bh012rcd13ifvqcv0","pricing_plan_id":"cebpf4jnsgd1na2vs0mg"},{"bike_id":"9e1177ed-b926-4924-9367-ed84f37e2b9b","system_id":"levelo_inurba_marseille","lat":43.28971,"lon":5.36368,"is_reserved":false,"is_disabled":false,"rental_uris":{"android":"levelo://app?vid=9e1177ed-b926-4924-9367-ed84f37e2b9b","ios":"levelo://app?vid=9e1177ed-b926-4924-9367-ed84f37e2b9b"},"vehicle_type_id":"4","last_reported":1742422155,"current_range_meters":7200,"station_id":"ce4bhc92rcd13ifvqetg","pricing_plan_id":"cebpf4jnsgd1na2vs0mg"},{"bike_id":"3c0f86bf-2134-4462-a7ab-79aaede557c9","system_id":"levelo_inurba_marseille","lat":43.31731,"lon":5.4371,"is_reserved":false,"is_disabled":false,"rental_uris":{"android":"levelo://app?vid=3c0f86bf-2134-4462-a7ab-79aaede557c9","ios":"levelo://app?vid=3c0f86bf-2134-4462-a7ab-79aaede557c9"},"vehicle_type_id":"4","last_reported":1742422155,"current_range_meters":7200,"station_id":"ce4bhp92rcd13ifvqhcg","pricing_plan_id":"cebpf4jnsgd1na2vs0mg"},{"bike_id":"c632951f-97ff-4417-a231-2f19dfc211bb","system_id":"levelo_inurba_marseille","lat":43.27817,"lon":5.40714,"is_reserved":false,"is_disabled":false,"rental_uris":{"android":"levelo://app?vid=c632951f-97ff-4417-a231-2f19dfc211bb","ios":"levelo://app?vid=c632951f-97ff-4417-a231-2f19dfc211bb"},"vehicle_type_id":"4","last_reported":1742422155,"current_range_meters":7200,"station_id":"ce4bhnh2rcd13ifvqgtg","pricing_plan_id":"cebpf4jnsgd1na2vs0mg"},{"bike_id":"693926d2-fd1b-4d98-a528-fed8b223a2c0","system_id":"levelo_inurba_marseille","lat":43.28016,"lon":5.36962,"is_reserved":false,"is_disabled":false,"rental_uris":{"android":"levelo://app?vid=693926d2-fd1b-4d98-a528-fed8b223a2c0","ios":"levelo://app?vid=693926d2-fd1b-4d98-a528-fed8b223a2c0"},"vehicle_type_id":"4","last_reported":1742422155,"current_range_meters":7200,"station_id":"ce4bha12rcd13ifvqef0","pricing_plan_id":"cebpf4jnsgd1na2vs0mg"},{"bike_id":"d05e5468-eb7b-4568-b909-8890d3a6af2b","system_id":"levelo_inurba_marseille","lat":43.31687,"lon":5.40475,"is_reserved":false,"is_disabled":false,"rental_uris":{"android":"levelo://app?vid=d05e5468-eb7b-4568-b909-8890d3a6af2b","ios":"levelo://app?vid=d05e5468-eb7b-4568-b909-8890d3a6af2b"},"vehicle_type_id":"4","last_reported":1742422155,"current_range_meters":7200,"station_id":"ce4bh012rcd13ifvqd00","pricing_plan_id":"cebpf4jnsgd1na2vs0mg"},{"bike_id":"c6c8dd2d-5b6e-4c3a-8293-f6b60960b982","system_id":"levelo_inurba_marseille","lat":43.30873,"lon":5.37435,"is_reserved":false,"is_disabled":false,"rental_uris":{"android":"levelo://app?vid=c6c8dd2d-5b6e-4c3a-8293-f6b60960b982","ios":"levelo://app?vid=c6c8dd2d-5b6e-4c3a-8293-f6b60960b982"},"vehicle_type_id":"4","last_reported":1742422155,"current_range_meters":7200,"station_id":"","pricing_plan_id":"cebpf4jnsgd1na2vs0mg"},{"bike_id":"cd3f6418-d471-43bd-a8af-c4289f0429a3","system_id":"levelo_inurba_marseille","lat":43.24189,"lon":5.39722,"is_reserved":false,"is_disabled":false,"rental_uris":{"android":"levelo://app?vid=cd3f6418-d471-43bd-a8af-c4289f0429a3","ios":"levelo://app?vid=cd3f6418-d471-43bd-a8af-c4289f0429a3"},"vehicle_type_id":"4","last_reported":1742422155,"current_range_meters":8000,"station_id":"ce4bhn12rcd13ifvqgpg","pricing_plan_id":"cebpf4jnsgd1na2vs0mg"},{"bike_id":"1fe8cbb2-e61f-4748-8f3f-eff906305549","system_id":"levelo_inurba_marseille","lat":43.23052,"lon":5.355,"is_reserved":false,"is_disabled":false,"rental_uris":{"android":"levelo://app?vid=1fe8cbb2-e61f-4748-8f3f-eff906305549","ios":"levelo://app?vid=1fe8cbb2-e61f-4748-8f3f-eff906305549"},"vehicle_type_id":"4","last_reported":1742422155,"current_range_meters":8000,"station_id":"cpo3342slgdg3j2ifvpg","pricing_plan_id":"cebpf4jnsgd1na2vs0mg"},{"bike_id":"5da21120-765c-493a-addc-469da6f3f383","system_id":"levelo_inurba_marseille","lat":43.30817,"lon":5.37512,"is_reserved":false,"is_disabled":false,"rental_uris":{"android":"levelo://app?vid=5da21120-765c-493a-addc-469da6f3f383","ios":"levelo://app?vid=5da21120-765c-493a-addc-469da6f3f383"},"vehicle_type_id":"4","last_reported":1742422155,"current_range_meters":8000,"station_id":"","pricing_plan_id":"cebpf4jnsgd1na2vs0mg"},{"bike_id":"3814871c-e444-4b86-8623-d81856e5c86c","system_id":"levelo_inurba_marseille","lat":43.30258,"lon":5.40057,"is_reserved":false,"is_disabled":false,"rental_uris":{"android":"levelo://app?vid=3814871c-e444-4b86-8623-d81856e5c86c","ios":"levelo://app?vid=3814871c-e444-4b86-8623-d81856e5c86c"},"vehicle_type_id":"4","last_reported":1742422155,"current_range_meters":8000,"station_id":"ce4bgvh2rcd13ifvqcs0","pricing_plan_id":"cebpf4jnsgd1na2vs0mg"},{"bike_id":"ed32af05-a93a-40af-b3e3-3171404acc80","system_id":"levelo_inurba_marseille","lat":43.27373,"lon":5.36255,"is_reserved":false,"is_disabled":false,"rental_uris":{"android":"levelo://app?vid=ed32af05-a93a-40af-b3e3-3171404acc80","ios":"levelo://app?vid=ed32af05-a93a-40af-b3e3-3171404acc80"},"vehicle_type_id":"4","last_reported":1742422155,"current_range_meters":8000,"station_id":"ce4bhbh2rcd13ifvqeo0","pricing_plan_id":"cebpf4jnsgd1na2vs0mg"},{"bike_id":"b22f904a-2d96-48f5-b033-f14376ba90f9","system_id":"levelo_inurba_marseille","lat":43.31197,"lon":5.3675,"is_reserved":false,"is_disabled":false,"rental_uris":{"android":"levelo://app?vid=b22f904a-2d96-48f5-b033-f14376ba90f9","ios":"levelo://app?vid=b22f904a-2d96-48f5-b033-f14376ba90f9"},"vehicle_type_id":"4","last_reported":1742422155,"current_range_meters":8000,"station_id":"ce4bgl92rcd13ifvqbq0","pricing_plan_id":"cebpf4jnsgd1na2vs0mg"},{"bike_id":"478ecfc4-5241-4dbc-9c90-9e831269f219","system_id":"levelo_inurba_marseille","lat":43.2902,"lon":5.38627,"is_reserved":false,"is_disabled":true,"rental_uris":{"android":"levelo://app?vid=478ecfc4-5241-4dbc-9c90-9e831269f219","ios":"levelo://app?vid=478ecfc4-5241-4dbc-9c90-9e831269f219"},"vehicle_type_id":"4","last_reported":1742422155,"current_range_meters":8000,"station_id":"ce4bh4p2rcd13ifvqe0g","pricing_plan_id":"cebpf4jnsgd1na2vs0mg"},{"bike_id":"d36999e5-1ec8-4299-a4fc-068061d2f0c7","system_id":"levelo_inurba_marseille","lat":43.31275,"lon":5.40168,"is_reserved":false,"is_disabled":false,"rental_uris":{"android":"levelo://app?vid=d36999e5-1ec8-4299-a4fc-068061d2f0c7","ios":"levelo://app?vid=d36999e5-1ec8-4299-a4fc-068061d2f0c7"},"vehicle_type_id":"4","last_reported":1742422155,"current_range_meters":8000,"station_id":"ce4bh092rcd13ifvqd30","pricing_plan_id":"cebpf4jnsgd1na2vs0mg"},{"bike_id":"f900da6c-7e5c-4ec1-bb80-501e71312a52","system_id":"levelo_inurba_marseille","lat":43.27354,"lon":5.36221,"is_reserved":false,"is_disabled":false,"rental_uris":{"android":"levelo://app?vid=f900da6c-7e5c-4ec1-bb80-501e71312a52","ios":"levelo://app?vid=f900da6c-7e5c-4ec1-bb80-501e71312a52"},"vehicle_type_id":"4","last_reported":1742422155,"current_range_meters":8000,"station_id":"ce4bhbh2rcd13ifvqeo0","pricing_plan_id":"cebpf4jnsgd1na2vs0mg"},{"bike_id":"4858167e-edc8-4792-9d1c-05670cc1275f","system_id":"levelo_inurba_marseille","lat":43.29305,"lon":5.42751,"is_reserved":false,"is_disabled":false,"rental_uris":{"android":"levelo://app?vid=4858167e-edc8-4792-9d1c-05670cc1275f","ios":"levelo://app?vid=4858167e-edc8-4792-9d1c-05670cc1275f"},"vehicle_type_id":"4","last_reported":1742422155,"current_range_meters":8000,"station_id":"","pricing_plan_id":"cebpf4jnsgd1na2vs0mg"},{"bike_id":"4fa0322d-b201-409d-9218-57726b4a4ca2","system_id":"levelo_inurba_marseille","lat":43.30634,"lon":5.40085,"is_reserved":false,"is_disabled":false,"rental_uris":{"android":"levelo://app?vid=4fa0322d-b201-409d-9218-57726b4a4ca2","ios":"levelo://app?vid=4fa0322d-b201-409d-9218-57726b4a4ca2"},"vehicle_type_id":"4","last_reported":1742422155,"current_range_meters":8000,"station_id":"ce4bh112rcd13ifvqda0","pricing_plan_id":"cebpf4jnsgd1na2vs0mg"},{"bike_id":"dfcc8bbb-6cc0-487f-9f53-6c4f09735ec3","system_id":"levelo_inurba_marseille","lat":43.27494,"lon":5.42458,"is_reserved":false,"is_disabled":true,"rental_uris":{"android":"levelo://app?vid=dfcc8bbb-6cc0-487f-9f53-6c4f09735ec3","ios":"levelo://app?vid=dfcc8bbb-6cc0-487f-9f53-6c4f09735ec3"},"vehicle_type_id":"4","last_reported":1742422155,"current_range_meters":8000,"station_id":"ce4bhn92rcd13ifvqgrg","pricing_plan_id":"cebpf4jnsgd1na2vs0mg"},{"bike_id":"704bac85-0999-494b-ab70-f77e05470586","system_id":"levelo_inurba_marseille","lat":43.27959,"lon":5.41043,"is_reserved":false,"is_disabled":false,"rental_uris":{"android":"levelo://app?vid=704bac85-0999-494b-ab70-f77e05470586","ios":"levelo://app?vid=704bac85-0999-494b-ab70-f77e05470586"},"vehicle_type_id":"4","last_reported":1742422155,"current_range_meters":8000,"station_id":"ce4bhnp2rcd13ifvqh0g","pricing_plan_id":"cebpf4jnsgd1na2vs0mg"},{"bike_id":"a47335de-0737-4795-bf96-99d5c34cb3e9","system_id":"levelo_inurba_marseille","lat":43.29276,"lon":5.40134,"is_reserved":false,"is_disabled":false,"rental_uris":{"android":"levelo://app?vid=a47335de-0737-4795-bf96-99d5c34cb3e9","ios":"levelo://app?vid=a47335de-0737-4795-bf96-99d5c34cb3e9"},"vehicle_type_id":"4","last_reported":1742422155,"current_range_meters":8400,"station_id":"ce4bh312rcd13ifvqdk0","pricing_plan_id":"cebpf4jnsgd1na2vs0mg"},{"bike_id":"034cbda5-a269-406e-ac7d-9962861bb824","system_id":"levelo_inurba_marseille","lat":43.31778,"lon":5.38999,"is_reserved":false,"is_disabled":false,"rental_uris":{"android":"levelo://app?vid=034cbda5-a269-406e-ac7d-9962861bb824","ios":"levelo://app?vid=034cbda5-a269-406e-ac7d-9962861bb824"},"vehicle_type_id":"4","last_reported":1742422155,"current_range_meters":8400,"station_id":"ce4bhqp2rcd13ifvqhng","pricing_plan_id":"cebpf4jnsgd1na2vs0mg"},{"bike_id":"3058eb37-35b9-4277-898b-f9025638e045","system_id":"levelo_inurba_marseille","lat":43.25924,"lon":5.40899,"is_reserved":false,"is_disabled":false,"rental_uris":{"android":"levelo://app?vid=3058eb37-35b9-4277-898b-f9025638e045","ios":"levelo://app?vid=3058eb37-35b9-4277-898b-f9025638e045"},"vehicle_type_id":"4","last_reported":1742422155,"current_range_meters":8400,"station_id":"ce4bhm92rcd13ifvqglg","pricing_plan_id":"cebpf4jnsgd1na2vs0mg"},{"bike_id":"287397f1-301a-46cd-a566-760697ced275","system_id":"levelo_inurba_marseille","lat":43.28159,"lon":5.42655,"is_reserved":false,"is_disabled":false,"rental_uris":{"android":"levelo://app?vid=287397f1-301a-46cd-a566-760697ced275","ios":"levelo://app?vid=287397f1-301a-46cd-a566-760697ced275"},"vehicle_type_id":"4","last_reported":1742422155,"current_range_meters":8400,"station_id":"ce4bhnh2rcd13ifvqgug","pricing_plan_id":"cebpf4jnsgd1na2vs0mg"},{"bike_id":"c031a249-66bb-4066-ad63-16f6b523aa7c","system_id":"levelo_inurba_marseille","lat":43.29079,"lon":5.38122,"is_reserved":false,"is_disabled":false,"rental_uris":{"android":"levelo://app?vid=c031a249-66bb-4066-ad63-16f6b523aa7c","ios":"levelo://app?vid=c031a249-66bb-4066-ad63-16f6b523aa7c"},"vehicle_type_id":"4","last_reported":1742422155,"current_range_meters":8400,"station_id":"ce4bh512rcd13ifvqe2g","pricing_plan_id":"cebpf4jnsgd1na2vs0mg"},{"bike_id":"65dada9a-7123-44f0-a60e-83a1f94fca2c","system_id":"levelo_inurba_marseille","lat":43.29298,"lon":5.38431,"is_reserved":false,"is_disabled":false,"rental_uris":{"android":"levelo://app?vid=65dada9a-7123-44f0-a60e-83a1f94fca2c","ios":"levelo://app?vid=65dada9a-7123-44f0-a60e-83a1f94fca2c"},"vehicle_type_id":"4","last_reported":1742422155,"current_range_meters":8400,"station_id":"ce4bh692rcd13ifvqea0","pricing_plan_id":"cebpf4jnsgd1na2vs0mg"},{"bike_id":"35c29046-1d03-462d-9c91-5813a4d5a08e","system_id":"levelo_inurba_marseille","lat":43.28436,"lon":5.39198,"is_reserved":false,"is_disabled":false,"rental_uris":{"android":"levelo://app?vid=35c29046-1d03-462d-9c91-5813a4d5a08e","ios":"levelo://app?vid=35c29046-1d03-462d-9c91-5813a4d5a08e"},"vehicle_type_id":"4","last_reported":1742422155,"current_range_meters":8400,"station_id":"ce4bhoh2rcd13ifvqh5g","pricing_plan_id":"cebpf4jnsgd1na2vs0mg"},{"bike_id":"d36dd5c9-f023-4afa-aa74-4c7e9499d0cd","system_id":"levelo_inurba_marseille","lat":43.27367,"lon":5.36246,"is_reserved":false,"is_disabled":false,"rental_uris":{"android":"levelo://app?vid=d36dd5c9-f023-4afa-aa74-4c7e9499d0cd","ios":"levelo://app?vid=d36dd5c9-f023-4afa-aa74-4c7e9499d0cd"},"vehicle_type_id":"4","last_reported":1742422155,"current_range_meters":8400,"station_id":"ce4bhbh2rcd13ifvqeo0","pricing_plan_id":"cebpf4jnsgd1na2vs0mg"},{"bike_id":"dff22bde-84fd-490a-8837-d6c39b979395","system_id":"levelo_inurba_marseille","lat":43.28618,"lon":5.37055,"is_reserved":false,"is_disabled":false,"rental_uris":{"android":"levelo://app?vid=dff22bde-84fd-490a-8837-d6c39b979395","ios":"levelo://app?vid=dff22bde-84fd-490a-8837-d6c39b979395"},"vehicle_type_id":"4","last_reported":1742422155,"current_range_meters":8400,"station_id":"ce4bht12rcd13ifvqi60","pricing_plan_id":"cebpf4jnsgd1na2vs0mg"},{"bike_id":"054b79e5-3c6c-4562-a1d6-d64bd099ac6b","system_id":"levelo_inurba_marseille","lat":43.24686,"lon":5.38152,"is_reserved":false,"is_disabled":false,"rental_uris":{"android":"levelo://app?vid=054b79e5-3c6c-4562-a1d6-d64bd099ac6b","ios":"levelo://app?vid=054b79e5-3c6c-4562-a1d6-d64bd099ac6b"},"vehicle_type_id":"4","last_reported":1742422155,"current_range_meters":8400,"station_id":"ce4bhih2rcd13ifvqfr0","pricing_plan_id":"cebpf4jnsgd1na2vs0mg"},{"bike_id":"a2ad3ef3-40b0-40fc-8ad0-893f4e20ab03","system_id":"levelo_inurba_marseille","lat":43.248,"lon":5.37452,"is_reserved":false,"is_disabled":false,"rental_uris":{"android":"levelo://app?vid=a2ad3ef3-40b0-40fc-8ad0-893f4e20ab03","ios":"levelo://app?vid=a2ad3ef3-40b0-40fc-8ad0-893f4e20ab03"},"vehicle_type_id":"4","last_reported":1742422155,"current_range_meters":8400,"station_id":"ce4bhgh2rcd13ifvqfb0","pricing_plan_id":"cebpf4jnsgd1na2vs0mg"},{"bike_id":"227ea19f-289e-4a92-895e-218ec5d5c552","system_id":"levelo_inurba_marseille","lat":43.27495,"lon":5.42457,"is_reserved":false,"is_disabled":false,"rental_uris":{"android":"levelo://app?vid=227ea19f-289e-4a92-895e-218ec5d5c552","ios":"levelo://app?vid=227ea19f-289e-4a92-895e-218ec5d5c552"},"vehicle_type_id":"4","last_reported":1742422155,"current_range_meters":8400,"station_id":"ce4bhn92rcd13ifvqgrg","pricing_plan_id":"cebpf4jnsgd1na2vs0mg"},{"bike_id":"37d084cd-000f-4f88-9029-7002850f459f","system_id":"levelo_inurba_marseille","lat":43.273272,"lon":5.390918,"is_reserved":false,"is_disabled":false,"rental_uris":{"android":"levelo://app?vid=37d084cd-000f-4f88-9029-7002850f459f","ios":"levelo://app?vid=37d084cd-000f-4f88-9029-7002850f459f"},"vehicle_type_id":"4","last_reported":1742422155,"current_range_meters":8400,"station_id":"ce4bha92rcd13ifvqeh0","pricing_plan_id":"cebpf4jnsgd1na2vs0mg"},{"bike_id":"50052a34-cd4d-455e-89a2-d030d8c6c1ad","system_id":"levelo_inurba_marseille","lat":43.24138,"lon":5.38922,"is_reserved":false,"is_disabled":false,"rental_uris":{"android":"levelo://app?vid=50052a34-cd4d-455e-89a2-d030d8c6c1ad","ios":"levelo://app?vid=50052a34-cd4d-455e-89a2-d030d8c6c1ad"},"vehicle_type_id":"4","last_reported":1742422155,"current_range_meters":8800,"station_id":"","pricing_plan_id":"cebpf4jnsgd1na2vs0mg"},{"bike_id":"ebd45e7b-1c45-4b94-a31a-e5fdc9535d41","system_id":"levelo_inurba_marseille","lat":43.23981,"lon":5.36618,"is_reserved":false,"is_disabled":false,"rental_uris":{"android":"levelo://app?vid=ebd45e7b-1c45-4b94-a31a-e5fdc9535d41","ios":"levelo://app?vid=ebd45e7b-1c45-4b94-a31a-e5fdc9535d41"},"vehicle_type_id":"4","last_reported":1742422155,"current_range_meters":8800,"station_id":"ce4bhi12rcd13ifvqfp0","pricing_plan_id":"cebpf4jnsgd1na2vs0mg"},{"bike_id":"d45aa902-4bcb-471b-8a0f-8cdc3416ec8c","system_id":"levelo_inurba_marseille","lat":43.27605,"lon":5.36123,"is_reserved":false,"is_disabled":false,"rental_uris":{"android":"levelo://app?vid=d45aa902-4bcb-471b-8a0f-8cdc3416ec8c","ios":"levelo://app?vid=d45aa902-4bcb-471b-8a0f-8cdc3416ec8c"},"vehicle_type_id":"4","last_reported":1742422155,"current_range_meters":8800,"station_id":"ce4bgj92rcd13ifvqbe0","pricing_plan_id":"cebpf4jnsgd1na2vs0mg"},{"bike_id":"86618eeb-713f-4456-85a3-39e216841099","system_id":"levelo_inurba_marseille","lat":43.30645,"lon":5.40099,"is_reserved":false,"is_disabled":false,"rental_uris":{"android":"levelo://app?vid=86618eeb-713f-4456-85a3-39e216841099","ios":"levelo://app?vid=86618eeb-713f-4456-85a3-39e216841099"},"vehicle_type_id":"4","last_reported":1742422155,"current_range_meters":8800,"station_id":"ce4bh112rcd13ifvqda0","pricing_plan_id":"cebpf4jnsgd1na2vs0mg"},{"bike_id":"3455258b-4135-46b9-9a26-10bf95160e40","system_id":"levelo_inurba_marseille","lat":43.23187,"lon":5.35552,"is_reserved":false,"is_disabled":false,"rental_uris":{"android":"levelo://app?vid=3455258b-4135-46b9-9a26-10bf95160e40","ios":"levelo://app?vid=3455258b-4135-46b9-9a26-10bf95160e40"},"vehicle_type_id":"4","last_reported":1742422155,"current_range_meters":8800,"station_id":"ce4bhu92rcd13ifvqi70","pricing_plan_id":"cebpf4jnsgd1na2vs0mg"},{"bike_id":"0cf839ab-e587-4ab8-b08d-84e42ef6ef98","system_id":"levelo_inurba_marseille","lat":43.23954,"lon":5.36629,"is_reserved":false,"is_disabled":false,"rental_uris":{"android":"levelo://app?vid=0cf839ab-e587-4ab8-b08d-84e42ef6ef98","ios":"levelo://app?vid=0cf839ab-e587-4ab8-b08d-84e42ef6ef98"},"vehicle_type_id":"4","last_reported":1742422155,"current_range_meters":8800,"station_id":"ce4bhi12rcd13ifvqfp0","pricing_plan_id":"cebpf4jnsgd1na2vs0mg"},{"bike_id":"87dbed1b-ca5f-4559-b4e0-6657c214f315","system_id":"levelo_inurba_marseille","lat":43.23963,"lon":5.36626,"is_reserved":false,"is_disabled":false,"rental_uris":{"android":"levelo://app?vid=87dbed1b-ca5f-4559-b4e0-6657c214f315","ios":"levelo://app?vid=87dbed1b-ca5f-4559-b4e0-6657c214f315"},"vehicle_type_id":"4","last_reported":1742422155,"current_range_meters":8800,"station_id":"ce4bhi12rcd13ifvqfp0","pricing_plan_id":"cebpf4jnsgd1na2vs0mg"},{"bike_id":"4383040d-fbd2-4d09-b966-c2b15978917e","system_id":"levelo_inurba_marseille","lat":43.24176,"lon":5.39721,"is_reserved":false,"is_disabled":false,"rental_uris":{"android":"levelo://app?vid=4383040d-fbd2-4d09-b966-c2b15978917e","ios":"levelo://app?vid=4383040d-fbd2-4d09-b966-c2b15978917e"},"vehicle_type_id":"4","last_reported":1742422155,"current_range_meters":8800,"station_id":"ce4bhn12rcd13ifvqgpg","pricing_plan_id":"cebpf4jnsgd1na2vs0mg"},{"bike_id":"a2a6db60-0906-4bdf-872c-8533f7fe0239","system_id":"levelo_inurba_marseille","lat":43.26222,"lon":5.40449,"is_reserved":false,"is_disabled":false,"rental_uris":{"android":"levelo://app?vid=a2a6db60-0906-4bdf-872c-8533f7fe0239","ios":"levelo://app?vid=a2a6db60-0906-4bdf-872c-8533f7fe0239"},"vehicle_type_id":"4","last_reported":1742422155,"current_range_meters":8800,"station_id":"ce4bhmh2rcd13ifvqgmg","pricing_plan_id":"cebpf4jnsgd1na2vs0mg"},{"bike_id":"cda613db-a84a-4ea4-8a9a-469c37335051","system_id":"levelo_inurba_marseille","lat":43.29348,"lon":5.37858,"is_reserved":false,"is_disabled":false,"rental_uris":{"android":"levelo://app?vid=cda613db-a84a-4ea4-8a9a-469c37335051","ios":"levelo://app?vid=cda613db-a84a-4ea4-8a9a-469c37335051"},"vehicle_type_id":"4","last_reported":1742422155,"current_range_meters":8400,"station_id":"ce4bgjh2rcd13ifvqbf0","pricing_plan_id":"cebpf4jnsgd1na2vs0mg"},{"bike_id":"60a7b8f5-644a-46c7-8dc2-1714f53a585e","system_id":"levelo_inurba_marseille","lat":43.28679,"lon":5.37396,"is_reserved":false,"is_disabled":false,"rental_uris":{"android":"levelo://app?vid=60a7b8f5-644a-46c7-8dc2-1714f53a585e","ios":"levelo://app?vid=60a7b8f5-644a-46c7-8dc2-1714f53a585e"},"vehicle_type_id":"4","last_reported":1742422155,"current_range_meters":8800,"station_id":"ce4bh3p2rcd13ifvqdq0","pricing_plan_id":"cebpf4jnsgd1na2vs0mg"},{"bike_id":"1fea0b3c-94ab-41af-b18e-d9bbaa7dda49","system_id":"levelo_inurba_marseille","lat":43.31774,"lon":5.43711,"is_reserved":false,"is_disabled":false,"rental_uris":{"android":"levelo://app?vid=1fea0b3c-94ab-41af-b18e-d9bbaa7dda49","ios":"levelo://app?vid=1fea0b3c-94ab-41af-b18e-d9bbaa7dda49"},"vehicle_type_id":"4","last_reported":1742422155,"current_range_meters":8800,"station_id":"ce4bhp92rcd13ifvqhcg","pricing_plan_id":"cebpf4jnsgd1na2vs0mg"},{"bike_id":"71f2cd9d-ef15-44a1-a9cf-33002d842832","system_id":"levelo_inurba_marseille","lat":43.24627,"lon":5.3819,"is_reserved":false,"is_disabled":false,"rental_uris":{"android":"levelo://app?vid=71f2cd9d-ef15-44a1-a9cf-33002d842832","ios":"levelo://app?vid=71f2cd9d-ef15-44a1-a9cf-33002d842832"},"vehicle_type_id":"4","last_reported":1742422155,"current_range_meters":9200,"station_id":"ce4bhih2rcd13ifvqfr0","pricing_plan_id":"cebpf4jnsgd1na2vs0mg"},{"bike_id":"4ad231a2-6656-4750-b2aa-69ad2e40651e","system_id":"levelo_inurba_marseille","lat":43.31163,"lon":5.38724,"is_reserved":false,"is_disabled":false,"rental_uris":{"android":"levelo://app?vid=4ad231a2-6656-4750-b2aa-69ad2e40651e","ios":"levelo://app?vid=4ad231a2-6656-4750-b2aa-69ad2e40651e"},"vehicle_type_id":"4","last_reported":1742422155,"current_range_meters":9200,"station_id":"ce4bgv12rcd13ifvqcp0","pricing_plan_id":"cebpf4jnsgd1na2vs0mg"},{"bike_id":"bfd67b10-fd7c-4b25-bc6e-0830b23c1f4b","system_id":"levelo_inurba_marseille","lat":43.25816,"lon":5.39422,"is_reserved":false,"is_disabled":false,"rental_uris":{"android":"levelo://app?vid=bfd67b10-fd7c-4b25-bc6e-0830b23c1f4b","ios":"levelo://app?vid=bfd67b10-fd7c-4b25-bc6e-0830b23c1f4b"},"vehicle_type_id":"4","last_reported":1742422155,"current_range_meters":9200,"station_id":"ce4bhip2rcd13ifvqft0","pricing_plan_id":"cebpf4jnsgd1na2vs0mg"},{"bike_id":"f66918bb-7675-439c-a940-07ef470d6a94","system_id":"levelo_inurba_marseille","lat":43.31276,"lon":5.40175,"is_reserved":false,"is_disabled":false,"rental_uris":{"android":"levelo://app?vid=f66918bb-7675-439c-a940-07ef470d6a94","ios":"levelo://app?vid=f66918bb-7675-439c-a940-07ef470d6a94"},"vehicle_type_id":"4","last_reported":1742422155,"current_range_meters":9200,"station_id":"ce4bh092rcd13ifvqd30","pricing_plan_id":"cebpf4jnsgd1na2vs0mg"},{"bike_id":"c7554cde-3a4f-4b1d-8e8a-ff73a448a836","system_id":"levelo_inurba_marseille","lat":43.2979,"lon":5.39341,"is_reserved":false,"is_disabled":false,"rental_uris":{"android":"levelo://app?vid=c7554cde-3a4f-4b1d-8e8a-ff73a448a836","ios":"levelo://app?vid=c7554cde-3a4f-4b1d-8e8a-ff73a448a836"},"vehicle_type_id":"4","last_reported":1742422155,"current_range_meters":8800,"station_id":"chh1huq6cuj3fo74tm60","pricing_plan_id":"cebpf4jnsgd1na2vs0mg"},{"bike_id":"3da64548-8b6a-42d6-898f-dc427d7ab309","system_id":"levelo_inurba_marseille","lat":43.27945,"lon":5.41052,"is_reserved":false,"is_disabled":false,"rental_uris":{"android":"levelo://app?vid=3da64548-8b6a-42d6-898f-dc427d7ab309","ios":"levelo://app?vid=3da64548-8b6a-42d6-898f-dc427d7ab309"},"vehicle_type_id":"4","last_reported":1742422155,"current_range_meters":9200,"station_id":"ce4bhnp2rcd13ifvqh0g","pricing_plan_id":"cebpf4jnsgd1na2vs0mg"},{"bike_id":"9d32c503-5f1f-4b14-8d26-4a233bb720e6","system_id":"levelo_inurba_marseille","lat":43.30821,"lon":5.37637,"is_reserved":false,"is_disabled":false,"rental_uris":{"android":"levelo://app?vid=9d32c503-5f1f-4b14-8d26-4a233bb720e6","ios":"levelo://app?vid=9d32c503-5f1f-4b14-8d26-4a233bb720e6"},"vehicle_type_id":"4","last_reported":1742422155,"current_range_meters":9200,"station_id":"ce4bgv92rcd13ifvqcq0","pricing_plan_id":"cebpf4jnsgd1na2vs0mg"},{"bike_id":"ff40212a-8f7d-43a8-822c-31c34c2bf0d5","system_id":"levelo_inurba_marseille","lat":43.25005,"lon":5.38933,"is_reserved":false,"is_disabled":false,"rental_uris":{"android":"levelo://app?vid=ff40212a-8f7d-43a8-822c-31c34c2bf0d5","ios":"levelo://app?vid=ff40212a-8f7d-43a8-822c-31c34c2bf0d5"},"vehicle_type_id":"4","last_reported":1742422155,"current_range_meters":9200,"station_id":"ce4bhgp2rcd13ifvqfd0","pricing_plan_id":"cebpf4jnsgd1na2vs0mg"},{"bike_id":"f1fcaa64-8777-41b7-8701-8233132e1bca","system_id":"levelo_inurba_marseille","lat":43.27951,"lon":5.41052,"is_reserved":false,"is_disabled":false,"rental_uris":{"android":"levelo://app?vid=f1fcaa64-8777-41b7-8701-8233132e1bca","ios":"levelo://app?vid=f1fcaa64-8777-41b7-8701-8233132e1bca"},"vehicle_type_id":"4","last_reported":1742422155,"current_range_meters":9200,"station_id":"ce4bhnp2rcd13ifvqh0g","pricing_plan_id":"cebpf4jnsgd1na2vs0mg"},{"bike_id":"963a17fa-4222-4f93-b414-09c4cce8d25a","system_id":"levelo_inurba_marseille","lat":43.28415,"lon":5.38471,"is_reserved":false,"is_disabled":false,"rental_uris":{"android":"levelo://app?vid=963a17fa-4222-4f93-b414-09c4cce8d25a","ios":"levelo://app?vid=963a17fa-4222-4f93-b414-09c4cce8d25a"},"vehicle_type_id":"4","last_reported":1742422155,"current_range_meters":9200,"station_id":"","pricing_plan_id":"cebpf4jnsgd1na2vs0mg"},{"bike_id":"a3175949-f9d6-40da-9481-3578df78d3a4","system_id":"levelo_inurba_marseille","lat":43.25004,"lon":5.38918,"is_reserved":false,"is_disabled":false,"rental_uris":{"android":"levelo://app?vid=a3175949-f9d6-40da-9481-3578df78d3a4","ios":"levelo://app?vid=a3175949-f9d6-40da-9481-3578df78d3a4"},"vehicle_type_id":"4","last_reported":1742422155,"current_range_meters":9600,"station_id":"ce4bhgp2rcd13ifvqfd0","pricing_plan_id":"cebpf4jnsgd1na2vs0mg"},{"bike_id":"53c52c3d-ed26-42c7-8d0d-8214d01bc438","system_id":"levelo_inurba_marseille","lat":43.31434,"lon":5.3931,"is_reserved":false,"is_disabled":false,"rental_uris":{"android":"levelo://app?vid=53c52c3d-ed26-42c7-8d0d-8214d01bc438","ios":"levelo://app?vid=53c52c3d-ed26-42c7-8d0d-8214d01bc438"},"vehicle_type_id":"4","last_reported":1742422155,"current_range_meters":9600,"station_id":"","pricing_plan_id":"cebpf4jnsgd1na2vs0mg"},{"bike_id":"4190958f-3dab-482a-94a8-57626ebcdefa","system_id":"levelo_inurba_marseille","lat":43.26558,"lon":5.37285,"is_reserved":false,"is_disabled":false,"rental_uris":{"android":"levelo://app?vid=4190958f-3dab-482a-94a8-57626ebcdefa","ios":"levelo://app?vid=4190958f-3dab-482a-94a8-57626ebcdefa"},"vehicle_type_id":"4","last_reported":1742422155,"current_range_meters":9600,"station_id":"ce4bhg12rcd13ifvqf70","pricing_plan_id":"cebpf4jnsgd1na2vs0mg"},{"bike_id":"a043f14d-7bfe-4e58-bb46-3233f50b724e","system_id":"levelo_inurba_marseille","lat":43.31171,"lon":5.38716,"is_reserved":false,"is_disabled":false,"rental_uris":{"android":"levelo://app?vid=a043f14d-7bfe-4e58-bb46-3233f50b724e","ios":"levelo://app?vid=a043f14d-7bfe-4e58-bb46-3233f50b724e"},"vehicle_type_id":"4","last_reported":1742422155,"current_range_meters":9600,"station_id":"ce4bgv12rcd13ifvqcp0","pricing_plan_id":"cebpf4jnsgd1na2vs0mg"},{"bike_id":"8168e555-e617-42c3-b56a-13243fda4113","system_id":"levelo_inurba_marseille","lat":43.27952,"lon":5.41034,"is_reserved":false,"is_disabled":false,"rental_uris":{"android":"levelo://app?vid=8168e555-e617-42c3-b56a-13243fda4113","ios":"levelo://app?vid=8168e555-e617-42c3-b56a-13243fda4113"},"vehicle_type_id":"4","last_reported":1742422155,"current_range_meters":9600,"station_id":"ce4bhnp2rcd13ifvqh0g","pricing_plan_id":"cebpf4jnsgd1na2vs0mg"},{"bike_id":"78b95c41-f57f-46b7-8807-c311e5a77278","system_id":"levelo_inurba_marseille","lat":43.2397,"lon":5.36619,"is_reserved":false,"is_disabled":false,"rental_uris":{"android":"levelo://app?vid=78b95c41-f57f-46b7-8807-c311e5a77278","ios":"levelo://app?vid=78b95c41-f57f-46b7-8807-c311e5a77278"},"vehicle_type_id":"4","last_reported":1742422155,"current_range_meters":9600,"station_id":"ce4bhi12rcd13ifvqfp0","pricing_plan_id":"cebpf4jnsgd1na2vs0mg"},{"bike_id":"11a593f9-e28a-4d60-9990-7d92ced3ba47","system_id":"levelo_inurba_marseille","lat":43.28893,"lon":5.35827,"is_reserved":false,"is_disabled":false,"rental_uris":{"android":"levelo://app?vid=11a593f9-e28a-4d60-9990-7d92ced3ba47","ios":"levelo://app?vid=11a593f9-e28a-4d60-9990-7d92ced3ba47"},"vehicle_type_id":"4","last_reported":1742422155,"current_range_meters":9600,"station_id":"ce4bhb12rcd13ifvqem0","pricing_plan_id":"cebpf4jnsgd1na2vs0mg"},{"bike_id":"5edb3c9d-ffdb-4b2a-b674-17f6a28418bf","system_id":"levelo_inurba_marseille","lat":43.32291,"lon":5.38282,"is_reserved":false,"is_disabled":false,"rental_uris":{"android":"levelo://app?vid=5edb3c9d-ffdb-4b2a-b674-17f6a28418bf","ios":"levelo://app?vid=5edb3c9d-ffdb-4b2a-b674-17f6a28418bf"},"vehicle_type_id":"4","last_reported":1742422155,"current_range_meters":9600,"station_id":"ce4bhr12rcd13ifvqhqg","pricing_plan_id":"cebpf4jnsgd1na2vs0mg"},{"bike_id":"fa2e9c3b-2e14-470f-8a30-b5c6f25dad97","system_id":"levelo_inurba_marseille","lat":43.294162,"lon":5.386204,"is_reserved":false,"is_disabled":false,"rental_uris":{"android":"levelo://app?vid=fa2e9c3b-2e14-470f-8a30-b5c6f25dad97","ios":"levelo://app?vid=fa2e9c3b-2e14-470f-8a30-b5c6f25dad97"},"vehicle_type_id":"4","last_reported":1742422155,"current_range_meters":9600,"station_id":"ce4bh4p2rcd13ifvqe1g","pricing_plan_id":"cebpf4jnsgd1na2vs0mg"},{"bike_id":"4b06f18b-5061-4ad4-b910-26260aea2104","system_id":"levelo_inurba_marseille","lat":43.26559,"lon":5.37324,"is_reserved":false,"is_disabled":false,"rental_uris":{"android":"levelo://app?vid=4b06f18b-5061-4ad4-b910-26260aea2104","ios":"levelo://app?vid=4b06f18b-5061-4ad4-b910-26260aea2104"},"vehicle_type_id":"4","last_reported":1742422155,"current_range_meters":9600,"station_id":"ce4bhg12rcd13ifvqf70","pricing_plan_id":"cebpf4jnsgd1na2vs0mg"},{"bike_id":"6eb98e18-92f8-411c-92c0-82d5569fb85c","system_id":"levelo_inurba_marseille","lat":43.32351,"lon":5.36764,"is_reserved":false,"is_disabled":false,"rental_uris":{"android":"levelo://app?vid=6eb98e18-92f8-411c-92c0-82d5569fb85c","ios":"levelo://app?vid=6eb98e18-92f8-411c-92c0-82d5569fb85c"},"vehicle_type_id":"4","last_reported":1742422155,"current_range_meters":10000,"station_id":"ce4bhsh2rcd13ifvqi2g","pricing_plan_id":"cebpf4jnsgd1na2vs0mg"},{"bike_id":"cf55e014-b557-4944-91b9-d3753116f4a7","system_id":"levelo_inurba_marseille","lat":43.2954,"lon":5.38541,"is_reserved":false,"is_disabled":false,"rental_uris":{"android":"levelo://app?vid=cf55e014-b557-4944-91b9-d3753116f4a7","ios":"levelo://app?vid=cf55e014-b557-4944-91b9-d3753116f4a7"},"vehicle_type_id":"4","last_reported":1742422155,"current_range_meters":10000,"station_id":"ce4bgih2rcd13ifvqba0","pricing_plan_id":"cebpf4jnsgd1na2vs0mg"},{"bike_id":"823f92b6-f8d0-466c-8106-89ac6559d6b6","system_id":"levelo_inurba_marseille","lat":43.291947,"lon":5.400272,"is_reserved":false,"is_disabled":false,"rental_uris":{"android":"levelo://app?vid=823f92b6-f8d0-466c-8106-89ac6559d6b6","ios":"levelo://app?vid=823f92b6-f8d0-466c-8106-89ac6559d6b6"},"vehicle_type_id":"4","last_reported":1742422155,"current_range_meters":10000,"station_id":"ce4bh312rcd13ifvqdj0","pricing_plan_id":"cebpf4jnsgd1na2vs0mg"},{"bike_id":"c8a5c5c1-331e-4477-bcc8-5f636ea1891c","system_id":"levelo_inurba_marseille","lat":43.31176,"lon":5.38708,"is_reserved":false,"is_disabled":false,"rental_uris":{"android":"levelo://app?vid=c8a5c5c1-331e-4477-bcc8-5f636ea1891c","ios":"levelo://app?vid=c8a5c5c1-331e-4477-bcc8-5f636ea1891c"},"vehicle_type_id":"4","last_reported":1742422155,"current_range_meters":10000,"station_id":"ce4bgv12rcd13ifvqcp0","pricing_plan_id":"cebpf4jnsgd1na2vs0mg"},{"bike_id":"4de03db8-98f0-4442-9f47-5d0a4ef807b1","system_id":"levelo_inurba_marseille","lat":43.28746,"lon":5.36072,"is_reserved":false,"is_disabled":false,"rental_uris":{"android":"levelo://app?vid=4de03db8-98f0-4442-9f47-5d0a4ef807b1","ios":"levelo://app?vid=4de03db8-98f0-4442-9f47-5d0a4ef807b1"},"vehicle_type_id":"4","last_reported":1742422155,"current_range_meters":10000,"station_id":"cki0cbj6b192h4jlfktg","pricing_plan_id":"cebpf4jnsgd1na2vs0mg"},{"bike_id":"a8b8dae1-87ef-4f8a-a2c8-fe9fd9bf0f77","system_id":"levelo_inurba_marseille","lat":43.23524,"lon":5.37753,"is_reserved":false,"is_disabled":false,"rental_uris":{"android":"levelo://app?vid=a8b8dae1-87ef-4f8a-a2c8-fe9fd9bf0f77","ios":"levelo://app?vid=a8b8dae1-87ef-4f8a-a2c8-fe9fd9bf0f77"},"vehicle_type_id":"4","last_reported":1742422155,"current_range_meters":10000,"station_id":"","pricing_plan_id":"cebpf4jnsgd1na2vs0mg"},{"bike_id":"d666a6ad-a0a4-4127-8c39-8ef5817c6721","system_id":"levelo_inurba_marseille","lat":43.24667,"lon":5.38151,"is_reserved":false,"is_disabled":false,"rental_uris":{"android":"levelo://app?vid=d666a6ad-a0a4-4127-8c39-8ef5817c6721","ios":"levelo://app?vid=d666a6ad-a0a4-4127-8c39-8ef5817c6721"},"vehicle_type_id":"4","last_reported":1742422155,"current_range_meters":10000,"station_id":"ce4bhih2rcd13ifvqfr0","pricing_plan_id":"cebpf4jnsgd1na2vs0mg"},{"bike_id":"fe01cef1-5a66-4c80-b839-a75855d4db22","system_id":"levelo_inurba_marseille","lat":43.28346,"lon":5.38102,"is_reserved":false,"is_disabled":false,"rental_uris":{"android":"levelo://app?vid=fe01cef1-5a66-4c80-b839-a75855d4db22","ios":"levelo://app?vid=fe01cef1-5a66-4c80-b839-a75855d4db22"},"vehicle_type_id":"4","last_reported":1742422155,"current_range_meters":10000,"station_id":"ce4bh412rcd13ifvqdr0","pricing_plan_id":"cebpf4jnsgd1na2vs0mg"},{"bike_id":"ee0f687c-08bb-4e36-98a2-e3de6b954481","system_id":"levelo_inurba_marseille","lat":43.24155,"lon":5.39725,"is_reserved":false,"is_disabled":false,"rental_uris":{"android":"levelo://app?vid=ee0f687c-08bb-4e36-98a2-e3de6b954481","ios":"levelo://app?vid=ee0f687c-08bb-4e36-98a2-e3de6b954481"},"vehicle_type_id":"4","last_reported":1742422155,"current_range_meters":10000,"station_id":"ce4bhn12rcd13ifvqgpg","pricing_plan_id":"cebpf4jnsgd1na2vs0mg"},{"bike_id":"3341571f-bd27-401c-8b47-8fe3403f266a","system_id":"levelo_inurba_marseille","lat":43.2873,"lon":5.37407,"is_reserved":false,"is_disabled":false,"rental_uris":{"android":"levelo://app?vid=3341571f-bd27-401c-8b47-8fe3403f266a","ios":"levelo://app?vid=3341571f-bd27-401c-8b47-8fe3403f266a"},"vehicle_type_id":"4","last_reported":1742422155,"current_range_meters":10000,"station_id":"ce4bh3p2rcd13ifvqdq0","pricing_plan_id":"cebpf4jnsgd1na2vs0mg"},{"bike_id":"f182cefc-27ad-47f5-9c3b-19932b6dd685","system_id":"levelo_inurba_marseille","lat":43.31172,"lon":5.38716,"is_reserved":false,"is_disabled":false,"rental_uris":{"android":"levelo://app?vid=f182cefc-27ad-47f5-9c3b-19932b6dd685","ios":"levelo://app?vid=f182cefc-27ad-47f5-9c3b-19932b6dd685"},"vehicle_type_id":"4","last_reported":1742422155,"current_range_meters":10000,"station_id":"ce4bgv12rcd13ifvqcp0","pricing_plan_id":"cebpf4jnsgd1na2vs0mg"},{"bike_id":"02f43b01-3b74-45fa-a40e-2df823c84cda","system_id":"levelo_inurba_marseille","lat":43.24169,"lon":5.39706,"is_reserved":false,"is_disabled":false,"rental_uris":{"android":"levelo://app?vid=02f43b01-3b74-45fa-a40e-2df823c84cda","ios":"levelo://app?vid=02f43b01-3b74-45fa-a40e-2df823c84cda"},"vehicle_type_id":"4","last_reported":1742422155,"current_range_meters":10000,"station_id":"ce4bhn12rcd13ifvqgpg","pricing_plan_id":"cebpf4jnsgd1na2vs0mg"},{"bike_id":"149a7237-4b0c-4c09-b5e1-e29dc8e198e1","system_id":"levelo_inurba_marseille","lat":43.31395,"lon":5.39957,"is_reserved":false,"is_disabled":false,"rental_uris":{"android":"levelo://app?vid=149a7237-4b0c-4c09-b5e1-e29dc8e198e1","ios":"levelo://app?vid=149a7237-4b0c-4c09-b5e1-e29dc8e198e1"},"vehicle_type_id":"4","last_reported":1742422155,"current_range_meters":10000,"station_id":"ce4bh092rcd13ifvqd30","pricing_plan_id":"cebpf4jnsgd1na2vs0mg"},{"bike_id":"09202724-fb16-47b4-8abc-ddba2c95ece7","system_id":"levelo_inurba_marseille","lat":43.24077,"lon":5.37756,"is_reserved":false,"is_disabled":false,"rental_uris":{"android":"levelo://app?vid=09202724-fb16-47b4-8abc-ddba2c95ece7","ios":"levelo://app?vid=09202724-fb16-47b4-8abc-ddba2c95ece7"},"vehicle_type_id":"4","last_reported":1742422155,"current_range_meters":10000,"station_id":"ce4bhnp2rcd13ifvqgvg","pricing_plan_id":"cebpf4jnsgd1na2vs0mg"},{"bike_id":"9d26c008-8ec1-4269-9cd2-f45774f03ccb","system_id":"levelo_inurba_marseille","lat":43.27962,"lon":5.37917,"is_reserved":false,"is_disabled":false,"rental_uris":{"android":"levelo://app?vid=9d26c008-8ec1-4269-9cd2-f45774f03ccb","ios":"levelo://app?vid=9d26c008-8ec1-4269-9cd2-f45774f03ccb"},"vehicle_type_id":"4","last_reported":1742422155,"current_range_meters":10000,"station_id":"","pricing_plan_id":"cebpf4jnsgd1na2vs0mg"},{"bike_id":"286968fb-88b0-4064-9c02-a3b8868ec7e2","system_id":"levelo_inurba_marseille","lat":43.28704,"lon":5.38653,"is_reserved":false,"is_disabled":false,"rental_uris":{"android":"levelo://app?vid=286968fb-88b0-4064-9c02-a3b8868ec7e2","ios":"levelo://app?vid=286968fb-88b0-4064-9c02-a3b8868ec7e2"},"vehicle_type_id":"4","last_reported":1742422155,"current_range_meters":10000,"station_id":"ce4bh492rcd13ifvqdug","pricing_plan_id":"cebpf4jnsgd1na2vs0mg"},{"bike_id":"f1645a4b-a4f8-4d65-9e70-33df978114e1","system_id":"levelo_inurba_marseille","lat":43.28911,"lon":5.36405,"is_reserved":false,"is_disabled":false,"rental_uris":{"android":"levelo://app?vid=f1645a4b-a4f8-4d65-9e70-33df978114e1","ios":"levelo://app?vid=f1645a4b-a4f8-4d65-9e70-33df978114e1"},"vehicle_type_id":"4","last_reported":1742422155,"current_range_meters":10000,"station_id":"ce4bhc92rcd13ifvqetg","pricing_plan_id":"cebpf4jnsgd1na2vs0mg"},{"bike_id":"746d92e8-e76c-4f53-a91a-2ef1b8aff248","system_id":"levelo_inurba_marseille","lat":43.29424,"lon":5.38619,"is_reserved":false,"is_disabled":false,"rental_uris":{"android":"levelo://app?vid=746d92e8-e76c-4f53-a91a-2ef1b8aff248","ios":"levelo://app?vid=746d92e8-e76c-4f53-a91a-2ef1b8aff248"},"vehicle_type_id":"4","last_reported":1742422155,"current_range_meters":10000,"station_id":"ce4bh2h2rcd13ifvqdh0","pricing_plan_id":"cebpf4jnsgd1na2vs0mg"},{"bike_id":"6b467574-69f1-40a2-a88f-6859ed54971d","system_id":"levelo_inurba_marseille","lat":43.33436,"lon":5.40062,"is_reserved":false,"is_disabled":false,"rental_uris":{"android":"levelo://app?vid=6b467574-69f1-40a2-a88f-6859ed54971d","ios":"levelo://app?vid=6b467574-69f1-40a2-a88f-6859ed54971d"},"vehicle_type_id":"4","last_reported":1742422155,"current_range_meters":10000,"station_id":"","pricing_plan_id":"cebpf4jnsgd1na2vs0mg"},{"bike_id":"86da5b62-d19c-41eb-9417-15eac028c300","system_id":"levelo_inurba_marseille","lat":43.29797,"lon":5.3936,"is_reserved":false,"is_disabled":false,"rental_uris":{"android":"levelo://app?vid=86da5b62-d19c-41eb-9417-15eac028c300","ios":"levelo://app?vid=86da5b62-d19c-41eb-9417-15eac028c300"},"vehicle_type_id":"4","last_reported":1742422155,"current_range_meters":10800,"station_id":"chh1huq6cuj3fo74tm60","pricing_plan_id":"cebpf4jnsgd1na2vs0mg"},{"bike_id":"f4c4bf6d-48a4-4198-942b-eda89b945e41","system_id":"levelo_inurba_marseille","lat":43.27383,"lon":5.36253,"is_reserved":false,"is_disabled":false,"rental_uris":{"android":"levelo://app?vid=f4c4bf6d-48a4-4198-942b-eda89b945e41","ios":"levelo://app?vid=f4c4bf6d-48a4-4198-942b-eda89b945e41"},"vehicle_type_id":"4","last_reported":1742422155,"current_range_meters":10800,"station_id":"ce4bhbh2rcd13ifvqeo0","pricing_plan_id":"cebpf4jnsgd1na2vs0mg"},{"bike_id":"e6c8473b-6f16-40c7-9d09-903e0bcd4e87","system_id":"levelo_inurba_marseille","lat":43.32575,"lon":5.41933,"is_reserved":false,"is_disabled":false,"rental_uris":{"android":"levelo://app?vid=e6c8473b-6f16-40c7-9d09-903e0bcd4e87","ios":"levelo://app?vid=e6c8473b-6f16-40c7-9d09-903e0bcd4e87"},"vehicle_type_id":"4","last_reported":1742422155,"current_range_meters":10800,"station_id":"","pricing_plan_id":"cebpf4jnsgd1na2vs0mg"},{"bike_id":"86eccc93-4fd8-4ef6-aed2-86921ac3f9c9","system_id":"levelo_inurba_marseille","lat":43.26681,"lon":5.38264,"is_reserved":false,"is_disabled":false,"rental_uris":{"android":"levelo://app?vid=86eccc93-4fd8-4ef6-aed2-86921ac3f9c9","ios":"levelo://app?vid=86eccc93-4fd8-4ef6-aed2-86921ac3f9c9"},"vehicle_type_id":"4","last_reported":1742422155,"current_range_meters":10800,"station_id":"ce4bhg92rcd13ifvqf90","pricing_plan_id":"cebpf4jnsgd1na2vs0mg"},{"bike_id":"61515760-6e6a-49fe-8e6d-03d046204a7d","system_id":"levelo_inurba_marseille","lat":43.30216,"lon":5.40019,"is_reserved":false,"is_disabled":false,"rental_uris":{"android":"levelo://app?vid=61515760-6e6a-49fe-8e6d-03d046204a7d","ios":"levelo://app?vid=61515760-6e6a-49fe-8e6d-03d046204a7d"},"vehicle_type_id":"4","last_reported":1742422155,"current_range_meters":10000,"station_id":"ce4bgvh2rcd13ifvqcs0","pricing_plan_id":"cebpf4jnsgd1na2vs0mg"},{"bike_id":"7c62291a-b09b-4907-af3f-97c7035e40d0","system_id":"levelo_inurba_marseille","lat":43.28322,"lon":5.38112,"is_reserved":false,"is_disabled":false,"rental_uris":{"android":"levelo://app?vid=7c62291a-b09b-4907-af3f-97c7035e40d0","ios":"levelo://app?vid=7c62291a-b09b-4907-af3f-97c7035e40d0"},"vehicle_type_id":"4","last_reported":1742422155,"current_range_meters":10800,"station_id":"ce4bh412rcd13ifvqdr0","pricing_plan_id":"cebpf4jnsgd1na2vs0mg"},{"bike_id":"38700e88-0eed-4189-a7cd-49878612c994","system_id":"levelo_inurba_marseille","lat":43.31551,"lon":5.38916,"is_reserved":false,"is_disabled":false,"rental_uris":{"android":"levelo://app?vid=38700e88-0eed-4189-a7cd-49878612c994","ios":"levelo://app?vid=38700e88-0eed-4189-a7cd-49878612c994"},"vehicle_type_id":"4","last_reported":1742422155,"current_range_meters":10800,"station_id":"","pricing_plan_id":"cebpf4jnsgd1na2vs0mg"},{"bike_id":"c6cc606a-35a6-4223-87eb-6e98e5eb5040","system_id":"levelo_inurba_marseille","lat":43.28398,"lon":5.37541,"is_reserved":false,"is_disabled":false,"rental_uris":{"android":"levelo://app?vid=c6cc606a-35a6-4223-87eb-6e98e5eb5040","ios":"levelo://app?vid=c6cc606a-35a6-4223-87eb-6e98e5eb5040"},"vehicle_type_id":"4","last_reported":1742422155,"current_range_meters":10800,"station_id":"ce4bh412rcd13ifvqds0","pricing_plan_id":"cebpf4jnsgd1na2vs0mg"},{"bike_id":"0303b0ed-f8c8-4727-a934-eab1ff5762e3","system_id":"levelo_inurba_marseille","lat":43.30886,"lon":5.3964,"is_reserved":false,"is_disabled":false,"rental_uris":{"android":"levelo://app?vid=0303b0ed-f8c8-4727-a934-eab1ff5762e3","ios":"levelo://app?vid=0303b0ed-f8c8-4727-a934-eab1ff5762e3"},"vehicle_type_id":"4","last_reported":1742422155,"current_range_meters":10800,"station_id":"ce4bh012rcd13ifvqcv0","pricing_plan_id":"cebpf4jnsgd1na2vs0mg"},{"bike_id":"f24ccfec-25c8-4b53-b963-2ee48fab5364","system_id":"levelo_inurba_marseille","lat":43.29562,"lon":5.39988,"is_reserved":false,"is_disabled":false,"rental_uris":{"android":"levelo://app?vid=f24ccfec-25c8-4b53-b963-2ee48fab5364","ios":"levelo://app?vid=f24ccfec-25c8-4b53-b963-2ee48fab5364"},"vehicle_type_id":"4","last_reported":1742422155,"current_range_meters":11200,"station_id":"ce4bh312rcd13ifvqdj0","pricing_plan_id":"cebpf4jnsgd1na2vs0mg"},{"bike_id":"471b8c1a-1a85-4080-b533-fb41f3dbfd81","system_id":"levelo_inurba_marseille","lat":43.23198,"lon":5.35555,"is_reserved":false,"is_disabled":false,"rental_uris":{"android":"levelo://app?vid=471b8c1a-1a85-4080-b533-fb41f3dbfd81","ios":"levelo://app?vid=471b8c1a-1a85-4080-b533-fb41f3dbfd81"},"vehicle_type_id":"4","last_reported":1742422155,"current_range_meters":11200,"station_id":"ce4bhu92rcd13ifvqi70","pricing_plan_id":"cebpf4jnsgd1na2vs0mg"},{"bike_id":"ef52c551-eb67-486d-85cc-ce2612d4cc9c","system_id":"levelo_inurba_marseille","lat":43.30317,"lon":5.40453,"is_reserved":false,"is_disabled":false,"rental_uris":{"android":"levelo://app?vid=ef52c551-eb67-486d-85cc-ce2612d4cc9c","ios":"levelo://app?vid=ef52c551-eb67-486d-85cc-ce2612d4cc9c"},"vehicle_type_id":"4","last_reported":1742422155,"current_range_meters":11200,"station_id":"ce4bh012rcd13ifvqd10","pricing_plan_id":"cebpf4jnsgd1na2vs0mg"},{"bike_id":"671210b1-9e8f-4893-953f-985ab8b97e34","system_id":"levelo_inurba_marseille","lat":43.32135,"lon":5.36777,"is_reserved":false,"is_disabled":false,"rental_uris":{"android":"levelo://app?vid=671210b1-9e8f-4893-953f-985ab8b97e34","ios":"levelo://app?vid=671210b1-9e8f-4893-953f-985ab8b97e34"},"vehicle_type_id":"4","last_reported":1742422155,"current_range_meters":11200,"station_id":"ce4bhrh2rcd13ifvqhug","pricing_plan_id":"cebpf4jnsgd1na2vs0mg"},{"bike_id":"815d7014-c6fe-4564-82ce-d8b51f90d2f6","system_id":"levelo_inurba_marseille","lat":43.3374,"lon":5.39181,"is_reserved":false,"is_disabled":false,"rental_uris":{"android":"levelo://app?vid=815d7014-c6fe-4564-82ce-d8b51f90d2f6","ios":"levelo://app?vid=815d7014-c6fe-4564-82ce-d8b51f90d2f6"},"vehicle_type_id":"4","last_reported":1742422155,"current_range_meters":11200,"station_id":"ce4bhr92rcd13ifvqhsg","pricing_plan_id":"cebpf4jnsgd1na2vs0mg"},{"bike_id":"94ffa62a-c0a8-48b0-83e4-7237e17e0e07","system_id":"levelo_inurba_marseille","lat":43.27952,"lon":5.41039,"is_reserved":false,"is_disabled":false,"rental_uris":{"android":"levelo://app?vid=94ffa62a-c0a8-48b0-83e4-7237e17e0e07","ios":"levelo://app?vid=94ffa62a-c0a8-48b0-83e4-7237e17e0e07"},"vehicle_type_id":"4","last_reported":1742422155,"current_range_meters":11200,"station_id":"ce4bhnp2rcd13ifvqh0g","pricing_plan_id":"cebpf4jnsgd1na2vs0mg"},{"bike_id":"4cb6b837-43dc-40de-9cea-cfcec3746b95","system_id":"levelo_inurba_marseille","lat":43.30886,"lon":5.39632,"is_reserved":false,"is_disabled":false,"rental_uris":{"android":"levelo://app?vid=4cb6b837-43dc-40de-9cea-cfcec3746b95","ios":"levelo://app?vid=4cb6b837-43dc-40de-9cea-cfcec3746b95"},"vehicle_type_id":"4","last_reported":1742422155,"current_range_meters":11200,"station_id":"ce4bh012rcd13ifvqcv0","pricing_plan_id":"cebpf4jnsgd1na2vs0mg"},{"bike_id":"7c23dcb0-31a4-457d-8cd5-05a913c017d4","system_id":"levelo_inurba_marseille","lat":43.33052,"lon":5.39018,"is_reserved":false,"is_disabled":false,"rental_uris":{"android":"levelo://app?vid=7c23dcb0-31a4-457d-8cd5-05a913c017d4","ios":"levelo://app?vid=7c23dcb0-31a4-457d-8cd5-05a913c017d4"},"vehicle_type_id":"4","last_reported":1742422155,"current_range_meters":11200,"station_id":"ce4bhr92rcd13ifvqhrg","pricing_plan_id":"cebpf4jnsgd1na2vs0mg"},{"bike_id":"176d2e0b-da43-4b98-b92e-b45d4ab12b2f","system_id":"levelo_inurba_marseille","lat":43.30227,"lon":5.38435,"is_reserved":false,"is_disabled":false,"rental_uris":{"android":"levelo://app?vid=176d2e0b-da43-4b98-b92e-b45d4ab12b2f","ios":"levelo://app?vid=176d2e0b-da43-4b98-b92e-b45d4ab12b2f"},"vehicle_type_id":"4","last_reported":1742422155,"current_range_meters":11200,"station_id":"","pricing_plan_id":"cebpf4jnsgd1na2vs0mg"},{"bike_id":"9a407e55-d314-42fc-8c32-c5b5dcba6239","system_id":"levelo_inurba_marseille","lat":43.26263,"lon":5.40467,"is_reserved":false,"is_disabled":false,"rental_uris":{"android":"levelo://app?vid=9a407e55-d314-42fc-8c32-c5b5dcba6239","ios":"levelo://app?vid=9a407e55-d314-42fc-8c32-c5b5dcba6239"},"vehicle_type_id":"4","last_reported":1742422155,"current_range_meters":11600,"station_id":"","pricing_plan_id":"cebpf4jnsgd1na2vs0mg"},{"bike_id":"ebafa0fd-ee12-47f4-b68c-4a54737665d1","system_id":"levelo_inurba_marseille","lat":43.30885,"lon":5.39631,"is_reserved":false,"is_disabled":false,"rental_uris":{"android":"levelo://app?vid=ebafa0fd-ee12-47f4-b68c-4a54737665d1","ios":"levelo://app?vid=ebafa0fd-ee12-47f4-b68c-4a54737665d1"},"vehicle_type_id":"4","last_reported":1742422155,"current_range_meters":11600,"station_id":"ce4bh012rcd13ifvqcv0","pricing_plan_id":"cebpf4jnsgd1na2vs0mg"},{"bike_id":"3d6e5bb2-49a5-4ae9-ac7c-7c3250491a49","system_id":"levelo_inurba_marseille","lat":43.28865,"lon":5.35933,"is_reserved":false,"is_disabled":false,"rental_uris":{"android":"levelo://app?vid=3d6e5bb2-49a5-4ae9-ac7c-7c3250491a49","ios":"levelo://app?vid=3d6e5bb2-49a5-4ae9-ac7c-7c3250491a49"},"vehicle_type_id":"4","last_reported":1742422155,"current_range_meters":11600,"station_id":"","pricing_plan_id":"cebpf4jnsgd1na2vs0mg"},{"bike_id":"d3269e03-9275-4322-bf89-882128b5d35e","system_id":"levelo_inurba_marseille","lat":43.31343,"lon":5.40123,"is_reserved":false,"is_disabled":false,"rental_uris":{"android":"levelo://app?vid=d3269e03-9275-4322-bf89-882128b5d35e","ios":"levelo://app?vid=d3269e03-9275-4322-bf89-882128b5d35e"},"vehicle_type_id":"4","last_reported":1742422155,"current_range_meters":11600,"station_id":"ce4bh092rcd13ifvqd30","pricing_plan_id":"cebpf4jnsgd1na2vs0mg"},{"bike_id":"b9a8203a-77ef-49cf-b822-c4850d7eca95","system_id":"levelo_inurba_marseille","lat":43.24818,"lon":5.37451,"is_reserved":false,"is_disabled":false,"rental_uris":{"android":"levelo://app?vid=b9a8203a-77ef-49cf-b822-c4850d7eca95","ios":"levelo://app?vid=b9a8203a-77ef-49cf-b822-c4850d7eca95"},"vehicle_type_id":"4","last_reported":1742422155,"current_range_meters":11600,"station_id":"ce4bhgh2rcd13ifvqfb0","pricing_plan_id":"cebpf4jnsgd1na2vs0mg"},{"bike_id":"9e416160-7c0f-441b-b3e5-6061b7c9ea3e","system_id":"levelo_inurba_marseille","lat":43.30253,"lon":5.40061,"is_reserved":false,"is_disabled":false,"rental_uris":{"android":"levelo://app?vid=9e416160-7c0f-441b-b3e5-6061b7c9ea3e","ios":"levelo://app?vid=9e416160-7c0f-441b-b3e5-6061b7c9ea3e"},"vehicle_type_id":"4","last_reported":1742422155,"current_range_meters":11600,"station_id":"ce4bgvh2rcd13ifvqcs0","pricing_plan_id":"cebpf4jnsgd1na2vs0mg"},{"bike_id":"477b3b7f-28c2-49ea-8f4e-2b4d1861b94d","system_id":"levelo_inurba_marseille","lat":43.2559,"lon":5.38224,"is_reserved":false,"is_disabled":false,"rental_uris":{"android":"levelo://app?vid=477b3b7f-28c2-49ea-8f4e-2b4d1861b94d","ios":"levelo://app?vid=477b3b7f-28c2-49ea-8f4e-2b4d1861b94d"},"vehicle_type_id":"4","last_reported":1742422155,"current_range_meters":11600,"station_id":"ce4bhih2rcd13ifvqfs0","pricing_plan_id":"cebpf4jnsgd1na2vs0mg"},{"bike_id":"1689fa84-13f6-46a5-be92-d2be23b25286","system_id":"levelo_inurba_marseille","lat":43.31452,"lon":5.376,"is_reserved":false,"is_disabled":false,"rental_uris":{"android":"levelo://app?vid=1689fa84-13f6-46a5-be92-d2be23b25286","ios":"levelo://app?vid=1689fa84-13f6-46a5-be92-d2be23b25286"},"vehicle_type_id":"4","last_reported":1742422155,"current_range_meters":11600,"station_id":"","pricing_plan_id":"cebpf4jnsgd1na2vs0mg"},{"bike_id":"6c7e51d2-e2f9-4032-b4ac-95afc513e72e","system_id":"levelo_inurba_marseille","lat":43.27373,"lon":5.36253,"is_reserved":false,"is_disabled":false,"rental_uris":{"android":"levelo://app?vid=6c7e51d2-e2f9-4032-b4ac-95afc513e72e","ios":"levelo://app?vid=6c7e51d2-e2f9-4032-b4ac-95afc513e72e"},"vehicle_type_id":"4","last_reported":1742422155,"current_range_meters":12000,"station_id":"ce4bhbh2rcd13ifvqeo0","pricing_plan_id":"cebpf4jnsgd1na2vs0mg"},{"bike_id":"11bd8d6d-27dc-4740-9c7d-3b5375e8c83b","system_id":"levelo_inurba_marseille","lat":43.31676,"lon":5.39564,"is_reserved":false,"is_disabled":false,"rental_uris":{"android":"levelo://app?vid=11bd8d6d-27dc-4740-9c7d-3b5375e8c83b","ios":"levelo://app?vid=11bd8d6d-27dc-4740-9c7d-3b5375e8c83b"},"vehicle_type_id":"4","last_reported":1742422155,"current_range_meters":12000,"station_id":"","pricing_plan_id":"cebpf4jnsgd1na2vs0mg"},{"bike_id":"0af285be-0294-4c23-9728-cedd0c1ca6b2","system_id":"levelo_inurba_marseille","lat":43.2318,"lon":5.39986,"is_reserved":false,"is_disabled":false,"rental_uris":{"android":"levelo://app?vid=0af285be-0294-4c23-9728-cedd0c1ca6b2","ios":"levelo://app?vid=0af285be-0294-4c23-9728-cedd0c1ca6b2"},"vehicle_type_id":"4","last_reported":1742422155,"current_range_meters":12000,"station_id":"ce4bhn12rcd13ifvqgqg","pricing_plan_id":"cebpf4jnsgd1na2vs0mg"},{"bike_id":"a6c26f49-f3e7-46f4-ac2a-6068f61eda81","system_id":"levelo_inurba_marseille","lat":43.29363,"lon":5.37868,"is_reserved":false,"is_disabled":true,"rental_uris":{"android":"levelo://app?vid=a6c26f49-f3e7-46f4-ac2a-6068f61eda81","ios":"levelo://app?vid=a6c26f49-f3e7-46f4-ac2a-6068f61eda81"},"vehicle_type_id":"4","last_reported":1742422155,"current_range_meters":12000,"station_id":"ce4bgjh2rcd13ifvqbf0","pricing_plan_id":"cebpf4jnsgd1na2vs0mg"},{"bike_id":"eca24668-5a1d-44e2-a2b2-ff33a9dd09d8","system_id":"levelo_inurba_marseille","lat":43.24811,"lon":5.37449,"is_reserved":false,"is_disabled":false,"rental_uris":{"android":"levelo://app?vid=eca24668-5a1d-44e2-a2b2-ff33a9dd09d8","ios":"levelo://app?vid=eca24668-5a1d-44e2-a2b2-ff33a9dd09d8"},"vehicle_type_id":"4","last_reported":1742422155,"current_range_meters":12000,"station_id":"ce4bhgh2rcd13ifvqfb0","pricing_plan_id":"cebpf4jnsgd1na2vs0mg"},{"bike_id":"6eabdc8a-e609-4cfb-8c0a-9a07dbb50296","system_id":"levelo_inurba_marseille","lat":43.31486,"lon":5.37302,"is_reserved":false,"is_disabled":false,"rental_uris":{"android":"levelo://app?vid=6eabdc8a-e609-4cfb-8c0a-9a07dbb50296","ios":"levelo://app?vid=6eabdc8a-e609-4cfb-8c0a-9a07dbb50296"},"vehicle_type_id":"4","last_reported":1742422155,"current_range_meters":12000,"station_id":"ce4bgt12rcd13ifvqcd0","pricing_plan_id":"cebpf4jnsgd1na2vs0mg"},{"bike_id":"d7645557-54c5-44ed-8c44-41e433a350da","system_id":"levelo_inurba_marseille","lat":43.29474,"lon":5.35565,"is_reserved":false,"is_disabled":false,"rental_uris":{"android":"levelo://app?vid=d7645557-54c5-44ed-8c44-41e433a350da","ios":"levelo://app?vid=d7645557-54c5-44ed-8c44-41e433a350da"},"vehicle_type_id":"4","last_reported":1742422155,"current_range_meters":12000,"station_id":"","pricing_plan_id":"cebpf4jnsgd1na2vs0mg"},{"bike_id":"cb6062cd-3cfa-4917-b79b-5707b99e3c03","system_id":"levelo_inurba_marseille","lat":43.321185,"lon":5.367534,"is_reserved":false,"is_disabled":false,"rental_uris":{"android":"levelo://app?vid=cb6062cd-3cfa-4917-b79b-5707b99e3c03","ios":"levelo://app?vid=cb6062cd-3cfa-4917-b79b-5707b99e3c03"},"vehicle_type_id":"4","last_reported":1742422155,"current_range_meters":12400,"station_id":"ce4bho92rcd13ifvqh3g","pricing_plan_id":"cebpf4jnsgd1na2vs0mg"},{"bike_id":"0d90e074-2d4e-4ecb-86ba-820d133e1b46","system_id":"levelo_inurba_marseille","lat":43.295249,"lon":5.394017,"is_reserved":false,"is_disabled":false,"rental_uris":{"android":"levelo://app?vid=0d90e074-2d4e-4ecb-86ba-820d133e1b46","ios":"levelo://app?vid=0d90e074-2d4e-4ecb-86ba-820d133e1b46"},"vehicle_type_id":"4","last_reported":1742422155,"current_range_meters":12400,"station_id":"ce4bha12rcd13ifvqef0","pricing_plan_id":"cebpf4jnsgd1na2vs0mg"},{"bike_id":"a0deeb6c-62a7-4efb-834c-1bec837aaba6","system_id":"levelo_inurba_marseille","lat":43.33696,"lon":5.3782,"is_reserved":false,"is_disabled":false,"rental_uris":{"android":"levelo://app?vid=a0deeb6c-62a7-4efb-834c-1bec837aaba6","ios":"levelo://app?vid=a0deeb6c-62a7-4efb-834c-1bec837aaba6"},"vehicle_type_id":"4","last_reported":1742422155,"current_range_meters":12400,"station_id":"","pricing_plan_id":"cebpf4jnsgd1na2vs0mg"},{"bike_id":"c3171a6d-07dd-4c33-a5ee-bcaedbbad7d7","system_id":"levelo_inurba_marseille","lat":43.30804,"lon":5.43517,"is_reserved":false,"is_disabled":false,"rental_uris":{"android":"levelo://app?vid=c3171a6d-07dd-4c33-a5ee-bcaedbbad7d7","ios":"levelo://app?vid=c3171a6d-07dd-4c33-a5ee-bcaedbbad7d7"},"vehicle_type_id":"4","last_reported":1742422155,"current_range_meters":12400,"station_id":"ce4bhph2rcd13ifvqheg","pricing_plan_id":"cebpf4jnsgd1na2vs0mg"},{"bike_id":"b72a4e8d-30f8-42bb-95fe-c8455fffdf0d","system_id":"levelo_inurba_marseille","lat":43.30787,"lon":5.37646,"is_reserved":false,"is_disabled":false,"rental_uris":{"android":"levelo://app?vid=b72a4e8d-30f8-42bb-95fe-c8455fffdf0d","ios":"levelo://app?vid=b72a4e8d-30f8-42bb-95fe-c8455fffdf0d"},"vehicle_type_id":"4","last_reported":1742422155,"current_range_meters":12400,"station_id":"ce4bgv92rcd13ifvqcq0","pricing_plan_id":"cebpf4jnsgd1na2vs0mg"},{"bike_id":"8e503168-2a2f-4739-aed6-a74f965c4e63","system_id":"levelo_inurba_marseille","lat":43.2573,"lon":5.41111,"is_reserved":false,"is_disabled":false,"rental_uris":{"android":"levelo://app?vid=8e503168-2a2f-4739-aed6-a74f965c4e63","ios":"levelo://app?vid=8e503168-2a2f-4739-aed6-a74f965c4e63"},"vehicle_type_id":"4","last_reported":1742422155,"current_range_meters":12800,"station_id":"ce4bhkp2rcd13ifvqgd0","pricing_plan_id":"cebpf4jnsgd1na2vs0mg"},{"bike_id":"146df646-5b89-4971-82ef-a2e3d33f2c05","system_id":"levelo_inurba_marseille","lat":43.25586,"lon":5.38232,"is_reserved":false,"is_disabled":false,"rental_uris":{"android":"levelo://app?vid=146df646-5b89-4971-82ef-a2e3d33f2c05","ios":"levelo://app?vid=146df646-5b89-4971-82ef-a2e3d33f2c05"},"vehicle_type_id":"4","last_reported":1742422155,"current_range_meters":12400,"station_id":"ce4bhih2rcd13ifvqfs0","pricing_plan_id":"cebpf4jnsgd1na2vs0mg"},{"bike_id":"18731a0d-3f5a-4741-bc4f-48cab07325c9","system_id":"levelo_inurba_marseille","lat":43.29541,"lon":5.38541,"is_reserved":false,"is_disabled":false,"rental_uris":{"android":"levelo://app?vid=18731a0d-3f5a-4741-bc4f-48cab07325c9","ios":"levelo://app?vid=18731a0d-3f5a-4741-bc4f-48cab07325c9"},"vehicle_type_id":"4","last_reported":1742422155,"current_range_meters":12800,"station_id":"ce4bgih2rcd13ifvqba0","pricing_plan_id":"cebpf4jnsgd1na2vs0mg"},{"bike_id":"5a2eaca6-0725-4fc7-8a84-98d727de145e","system_id":"levelo_inurba_marseille","lat":43.30593,"lon":5.39341,"is_reserved":false,"is_disabled":false,"rental_uris":{"android":"levelo://app?vid=5a2eaca6-0725-4fc7-8a84-98d727de145e","ios":"levelo://app?vid=5a2eaca6-0725-4fc7-8a84-98d727de145e"},"vehicle_type_id":"4","last_reported":1742422155,"current_range_meters":12800,"station_id":"ce4bh0p2rcd13ifvqd80","pricing_plan_id":"cebpf4jnsgd1na2vs0mg"},{"bike_id":"211ee8ec-5df5-49d9-862c-6084256cf9d2","system_id":"levelo_inurba_marseille","lat":43.31896,"lon":5.40734,"is_reserved":false,"is_disabled":false,"rental_uris":{"android":"levelo://app?vid=211ee8ec-5df5-49d9-862c-6084256cf9d2","ios":"levelo://app?vid=211ee8ec-5df5-49d9-862c-6084256cf9d2"},"vehicle_type_id":"4","last_reported":1742422155,"current_range_meters":12800,"station_id":"ce4bhq12rcd13ifvqhig","pricing_plan_id":"cebpf4jnsgd1na2vs0mg"},{"bike_id":"fe43f2e2-68ef-4fcd-bb23-84fd515f2ed0","system_id":"levelo_inurba_marseille","lat":43.31267,"lon":5.40166,"is_reserved":false,"is_disabled":false,"rental_uris":{"android":"levelo://app?vid=fe43f2e2-68ef-4fcd-bb23-84fd515f2ed0","ios":"levelo://app?vid=fe43f2e2-68ef-4fcd-bb23-84fd515f2ed0"},"vehicle_type_id":"4","last_reported":1742422155,"current_range_meters":12800,"station_id":"ce4bh092rcd13ifvqd30","pricing_plan_id":"cebpf4jnsgd1na2vs0mg"},{"bike_id":"5f474075-5c97-4d14-b6ed-363bf61d51c6","system_id":"levelo_inurba_marseille","lat":43.30231,"lon":5.40034,"is_reserved":false,"is_disabled":false,"rental_uris":{"android":"levelo://app?vid=5f474075-5c97-4d14-b6ed-363bf61d51c6","ios":"levelo://app?vid=5f474075-5c97-4d14-b6ed-363bf61d51c6"},"vehicle_type_id":"4","last_reported":1742422155,"current_range_meters":12800,"station_id":"","pricing_plan_id":"cebpf4jnsgd1na2vs0mg"},{"bike_id":"89458560-9630-42a9-b15e-37444c90176b","system_id":"levelo_inurba_marseille","lat":43.29793,"lon":5.39341,"is_reserved":false,"is_disabled":false,"rental_uris":{"android":"levelo://app?vid=89458560-9630-42a9-b15e-37444c90176b","ios":"levelo://app?vid=89458560-9630-42a9-b15e-37444c90176b"},"vehicle_type_id":"4","last_reported":1742422155,"current_range_meters":13600,"station_id":"chh1huq6cuj3fo74tm60","pricing_plan_id":"cebpf4jnsgd1na2vs0mg"},{"bike_id":"f7629e3d-4aa5-4911-a5a4-b65ca5ee571a","system_id":"levelo_inurba_marseille","lat":43.2832,"lon":5.38107,"is_reserved":false,"is_disabled":false,"rental_uris":{"android":"levelo://app?vid=f7629e3d-4aa5-4911-a5a4-b65ca5ee571a","ios":"levelo://app?vid=f7629e3d-4aa5-4911-a5a4-b65ca5ee571a"},"vehicle_type_id":"4","last_reported":1742422155,"current_range_meters":13600,"station_id":"ce4bh412rcd13ifvqdr0","pricing_plan_id":"cebpf4jnsgd1na2vs0mg"},{"bike_id":"ebe1c969-3a3f-4bca-ac92-df6fb55cceaf","system_id":"levelo_inurba_marseille","lat":43.28404,"lon":5.37518,"is_reserved":false,"is_disabled":false,"rental_uris":{"android":"levelo://app?vid=ebe1c969-3a3f-4bca-ac92-df6fb55cceaf","ios":"levelo://app?vid=ebe1c969-3a3f-4bca-ac92-df6fb55cceaf"},"vehicle_type_id":"4","last_reported":1742422155,"current_range_meters":13600,"station_id":"ce4bh412rcd13ifvqds0","pricing_plan_id":"cebpf4jnsgd1na2vs0mg"},{"bike_id":"f43a1c44-6a62-4987-8c19-349574f83478","system_id":"levelo_inurba_marseille","lat":43.25118,"lon":5.40315,"is_reserved":false,"is_disabled":false,"rental_uris":{"android":"levelo://app?vid=f43a1c44-6a62-4987-8c19-349574f83478","ios":"levelo://app?vid=f43a1c44-6a62-4987-8c19-349574f83478"},"vehicle_type_id":"4","last_reported":1742422155,"current_range_meters":13600,"station_id":"ce4bhlh2rcd13ifvqgig","pricing_plan_id":"cebpf4jnsgd1na2vs0mg"},{"bike_id":"7721c1d1-8e22-4af6-b461-42e564891d17","system_id":"levelo_inurba_marseille","lat":43.301262,"lon":5.39906,"is_reserved":false,"is_disabled":true,"rental_uris":{"android":"levelo://app?vid=7721c1d1-8e22-4af6-b461-42e564891d17","ios":"levelo://app?vid=7721c1d1-8e22-4af6-b461-42e564891d17"},"vehicle_type_id":"4","last_reported":1742422155,"current_range_meters":13600,"station_id":"ce4bh0h2rcd13ifvqd40","pricing_plan_id":"cebpf4jnsgd1na2vs0mg"},{"bike_id":"e84d075b-25a6-4b86-8454-449d0c7277c1","system_id":"levelo_inurba_marseille","lat":43.30296,"lon":5.39208,"is_reserved":false,"is_disabled":false,"rental_uris":{"android":"levelo://app?vid=e84d075b-25a6-4b86-8454-449d0c7277c1","ios":"levelo://app?vid=e84d075b-25a6-4b86-8454-449d0c7277c1"},"vehicle_type_id":"4","last_reported":1742422155,"current_range_meters":13600,"station_id":"ce4bgkh2rcd13ifvqbk0","pricing_plan_id":"cebpf4jnsgd1na2vs0mg"},{"bike_id":"bc1594f0-f23b-46fa-bccc-f3ff1c68a71d","system_id":"levelo_inurba_marseille","lat":43.25812,"lon":5.39449,"is_reserved":false,"is_disabled":false,"rental_uris":{"android":"levelo://app?vid=bc1594f0-f23b-46fa-bccc-f3ff1c68a71d","ios":"levelo://app?vid=bc1594f0-f23b-46fa-bccc-f3ff1c68a71d"},"vehicle_type_id":"4","last_reported":1742422155,"current_range_meters":14000,"station_id":"ce4bhip2rcd13ifvqft0","pricing_plan_id":"cebpf4jnsgd1na2vs0mg"},{"bike_id":"ffbee1c9-ab8d-45ee-b606-c546ab78c5f2","system_id":"levelo_inurba_marseille","lat":43.29719,"lon":5.37783,"is_reserved":false,"is_disabled":false,"rental_uris":{"android":"levelo://app?vid=ffbee1c9-ab8d-45ee-b606-c546ab78c5f2","ios":"levelo://app?vid=ffbee1c9-ab8d-45ee-b606-c546ab78c5f2"},"vehicle_type_id":"4","last_reported":1742422155,"current_range_meters":14000,"station_id":"","pricing_plan_id":"cebpf4jnsgd1na2vs0mg"},{"bike_id":"86b1b110-d208-4984-95b0-e9853712aa1f","system_id":"levelo_inurba_marseille","lat":43.31883,"lon":5.40739,"is_reserved":false,"is_disabled":false,"rental_uris":{"android":"levelo://app?vid=86b1b110-d208-4984-95b0-e9853712aa1f","ios":"levelo://app?vid=86b1b110-d208-4984-95b0-e9853712aa1f"},"vehicle_type_id":"4","last_reported":1742422155,"current_range_meters":14000,"station_id":"ce4bhq12rcd13ifvqhig","pricing_plan_id":"cebpf4jnsgd1na2vs0mg"},{"bike_id":"d7fb3117-8b22-47f2-81e8-30ae0a3c4279","system_id":"levelo_inurba_marseille","lat":43.31498,"lon":5.37249,"is_reserved":false,"is_disabled":false,"rental_uris":{"android":"levelo://app?vid=d7fb3117-8b22-47f2-81e8-30ae0a3c4279","ios":"levelo://app?vid=d7fb3117-8b22-47f2-81e8-30ae0a3c4279"},"vehicle_type_id":"4","last_reported":1742422155,"current_range_meters":14000,"station_id":"ce4bgt12rcd13ifvqcd0","pricing_plan_id":"cebpf4jnsgd1na2vs0mg"},{"bike_id":"dcfce11f-23fd-43b3-ac6a-2331b19f3e91","system_id":"levelo_inurba_marseille","lat":43.30883,"lon":5.3964,"is_reserved":false,"is_disabled":false,"rental_uris":{"android":"levelo://app?vid=dcfce11f-23fd-43b3-ac6a-2331b19f3e91","ios":"levelo://app?vid=dcfce11f-23fd-43b3-ac6a-2331b19f3e91"},"vehicle_type_id":"4","last_reported":1742422155,"current_range_meters":14000,"station_id":"ce4bh012rcd13ifvqcv0","pricing_plan_id":"cebpf4jnsgd1na2vs0mg"},{"bike_id":"6883c811-8746-429a-bd41-848ecf4dd19e","system_id":"levelo_inurba_marseille","lat":43.23507,"lon":5.37736,"is_reserved":false,"is_disabled":false,"rental_uris":{"android":"levelo://app?vid=6883c811-8746-429a-bd41-848ecf4dd19e","ios":"levelo://app?vid=6883c811-8746-429a-bd41-848ecf4dd19e"},"vehicle_type_id":"4","last_reported":1742422155,"current_range_meters":14000,"station_id":"","pricing_plan_id":"cebpf4jnsgd1na2vs0mg"},{"bike_id":"3541b254-27bb-462a-9b76-258b8d38b3e8","system_id":"levelo_inurba_marseille","lat":43.31086,"lon":5.38338,"is_reserved":false,"is_disabled":false,"rental_uris":{"android":"levelo://app?vid=3541b254-27bb-462a-9b76-258b8d38b3e8","ios":"levelo://app?vid=3541b254-27bb-462a-9b76-258b8d38b3e8"},"vehicle_type_id":"4","last_reported":1742422155,"current_range_meters":14000,"station_id":"ce4bgv92rcd13ifvqcr0","pricing_plan_id":"cebpf4jnsgd1na2vs0mg"},{"bike_id":"181b1742-09ee-46ab-8712-67d8396af664","system_id":"levelo_inurba_marseille","lat":43.24171,"lon":5.39734,"is_reserved":false,"is_disabled":false,"rental_uris":{"android":"levelo://app?vid=181b1742-09ee-46ab-8712-67d8396af664","ios":"levelo://app?vid=181b1742-09ee-46ab-8712-67d8396af664"},"vehicle_type_id":"4","last_reported":1742422155,"current_range_meters":14000,"station_id":"ce4bhn12rcd13ifvqgpg","pricing_plan_id":"cebpf4jnsgd1na2vs0mg"},{"bike_id":"4fcd06ae-4851-4c19-aff2-bf420ac261fc","system_id":"levelo_inurba_marseille","lat":43.28381,"lon":5.38649,"is_reserved":false,"is_disabled":true,"rental_uris":{"android":"levelo://app?vid=4fcd06ae-4851-4c19-aff2-bf420ac261fc","ios":"levelo://app?vid=4fcd06ae-4851-4c19-aff2-bf420ac261fc"},"vehicle_type_id":"4","last_reported":1742422155,"current_range_meters":14000,"station_id":"ce4bh492rcd13ifvqdvg","pricing_plan_id":"cebpf4jnsgd1na2vs0mg"},{"bike_id":"76f0a242-d0ee-4b33-969e-248778f81ac7","system_id":"levelo_inurba_marseille","lat":43.28946,"lon":5.36623,"is_reserved":false,"is_disabled":false,"rental_uris":{"android":"levelo://app?vid=76f0a242-d0ee-4b33-969e-248778f81ac7","ios":"levelo://app?vid=76f0a242-d0ee-4b33-969e-248778f81ac7"},"vehicle_type_id":"4","last_reported":1742422155,"current_range_meters":14000,"station_id":"ce4bhap2rcd13ifvqek0","pricing_plan_id":"cebpf4jnsgd1na2vs0mg"},{"bike_id":"8879e25f-e10f-420b-a3cf-17b5a4037281","system_id":"levelo_inurba_marseille","lat":43.25844,"lon":5.39418,"is_reserved":false,"is_disabled":false,"rental_uris":{"android":"levelo://app?vid=8879e25f-e10f-420b-a3cf-17b5a4037281","ios":"levelo://app?vid=8879e25f-e10f-420b-a3cf-17b5a4037281"},"vehicle_type_id":"4","last_reported":1742422155,"current_range_meters":14000,"station_id":"ce4bhip2rcd13ifvqft0","pricing_plan_id":"cebpf4jnsgd1na2vs0mg"},{"bike_id":"5b3d9267-984e-4cde-81d9-f6988e2f0858","system_id":"levelo_inurba_marseille","lat":43.29243,"lon":5.38428,"is_reserved":false,"is_disabled":false,"rental_uris":{"android":"levelo://app?vid=5b3d9267-984e-4cde-81d9-f6988e2f0858","ios":"levelo://app?vid=5b3d9267-984e-4cde-81d9-f6988e2f0858"},"vehicle_type_id":"4","last_reported":1742422155,"current_range_meters":14400,"station_id":"ce4bh692rcd13ifvqea0","pricing_plan_id":"cebpf4jnsgd1na2vs0mg"},{"bike_id":"ca15f5ed-35c3-4d4a-916b-8006f690ad60","system_id":"levelo_inurba_marseille","lat":43.30261,"lon":5.40071,"is_reserved":false,"is_disabled":false,"rental_uris":{"android":"levelo://app?vid=ca15f5ed-35c3-4d4a-916b-8006f690ad60","ios":"levelo://app?vid=ca15f5ed-35c3-4d4a-916b-8006f690ad60"},"vehicle_type_id":"4","last_reported":1742422155,"current_range_meters":14400,"station_id":"ce4bgvh2rcd13ifvqcs0","pricing_plan_id":"cebpf4jnsgd1na2vs0mg"},{"bike_id":"f239c964-fe5d-448c-8524-569ed1071734","system_id":"levelo_inurba_marseille","lat":43.25817,"lon":5.39418,"is_reserved":false,"is_disabled":false,"rental_uris":{"android":"levelo://app?vid=f239c964-fe5d-448c-8524-569ed1071734","ios":"levelo://app?vid=f239c964-fe5d-448c-8524-569ed1071734"},"vehicle_type_id":"4","last_reported":1742422155,"current_range_meters":14400,"station_id":"ce4bhip2rcd13ifvqft0","pricing_plan_id":"cebpf4jnsgd1na2vs0mg"},{"bike_id":"f1159bac-0522-4896-822f-b0868954f831","system_id":"levelo_inurba_marseille","lat":43.28936,"lon":5.36644,"is_reserved":false,"is_disabled":false,"rental_uris":{"android":"levelo://app?vid=f1159bac-0522-4896-822f-b0868954f831","ios":"levelo://app?vid=f1159bac-0522-4896-822f-b0868954f831"},"vehicle_type_id":"4","last_reported":1742422155,"current_range_meters":14400,"station_id":"ce4bhap2rcd13ifvqek0","pricing_plan_id":"cebpf4jnsgd1na2vs0mg"},{"bike_id":"388b2c9e-8968-4a3e-a8a4-55924819e862","system_id":"levelo_inurba_marseille","lat":43.28341,"lon":5.38111,"is_reserved":false,"is_disabled":false,"rental_uris":{"android":"levelo://app?vid=388b2c9e-8968-4a3e-a8a4-55924819e862","ios":"levelo://app?vid=388b2c9e-8968-4a3e-a8a4-55924819e862"},"vehicle_type_id":"4","last_reported":1742422155,"current_range_meters":14400,"station_id":"ce4bh412rcd13ifvqdr0","pricing_plan_id":"cebpf4jnsgd1na2vs0mg"},{"bike_id":"ac40401f-04dd-4231-b140-ae34f71b4d81","system_id":"levelo_inurba_marseille","lat":43.30537,"lon":5.38416,"is_reserved":false,"is_disabled":false,"rental_uris":{"android":"levelo://app?vid=ac40401f-04dd-4231-b140-ae34f71b4d81","ios":"levelo://app?vid=ac40401f-04dd-4231-b140-ae34f71b4d81"},"vehicle_type_id":"4","last_reported":1742422155,"current_range_meters":14400,"station_id":"ce4bgg92rcd13ifvqb30","pricing_plan_id":"cebpf4jnsgd1na2vs0mg"},{"bike_id":"238f5ef8-200a-4c91-9401-f937e3a5a9dd","system_id":"levelo_inurba_marseille","lat":43.29874,"lon":5.39735,"is_reserved":false,"is_disabled":false,"rental_uris":{"android":"levelo://app?vid=238f5ef8-200a-4c91-9401-f937e3a5a9dd","ios":"levelo://app?vid=238f5ef8-200a-4c91-9401-f937e3a5a9dd"},"vehicle_type_id":"4","last_reported":1742422155,"current_range_meters":14400,"station_id":"ce4bh0h2rcd13ifvqd50","pricing_plan_id":"cebpf4jnsgd1na2vs0mg"},{"bike_id":"b9e4bdd0-024c-4547-9a94-39d0c7923642","system_id":"levelo_inurba_marseille","lat":43.24169,"lon":5.36409,"is_reserved":false,"is_disabled":false,"rental_uris":{"android":"levelo://app?vid=b9e4bdd0-024c-4547-9a94-39d0c7923642","ios":"levelo://app?vid=b9e4bdd0-024c-4547-9a94-39d0c7923642"},"vehicle_type_id":"4","last_reported":1742422155,"current_range_meters":14400,"station_id":"cpo36qri1sfpv3e86is0","pricing_plan_id":"cebpf4jnsgd1na2vs0mg"},{"bike_id":"71cee084-4971-41dd-8931-6915b0a1225e","system_id":"levelo_inurba_marseille","lat":43.27816,"lon":5.40707,"is_reserved":false,"is_disabled":false,"rental_uris":{"android":"levelo://app?vid=71cee084-4971-41dd-8931-6915b0a1225e","ios":"levelo://app?vid=71cee084-4971-41dd-8931-6915b0a1225e"},"vehicle_type_id":"4","last_reported":1742422155,"current_range_meters":14400,"station_id":"ce4bhnh2rcd13ifvqgtg","pricing_plan_id":"cebpf4jnsgd1na2vs0mg"},{"bike_id":"c5bb5dca-1dc9-450e-9a3d-9fa737cf345d","system_id":"levelo_inurba_marseille","lat":43.24663,"lon":5.38892,"is_reserved":false,"is_disabled":false,"rental_uris":{"android":"levelo://app?vid=c5bb5dca-1dc9-450e-9a3d-9fa737cf345d","ios":"levelo://app?vid=c5bb5dca-1dc9-450e-9a3d-9fa737cf345d"},"vehicle_type_id":"4","last_reported":1742422155,"current_range_meters":14400,"station_id":"ce4bhg12rcd13ifvqf60","pricing_plan_id":"cebpf4jnsgd1na2vs0mg"},{"bike_id":"819f55d4-8283-4aac-9c87-6c7f386799f5","system_id":"levelo_inurba_marseille","lat":43.28468,"lon":5.35874,"is_reserved":false,"is_disabled":false,"rental_uris":{"android":"levelo://app?vid=819f55d4-8283-4aac-9c87-6c7f386799f5","ios":"levelo://app?vid=819f55d4-8283-4aac-9c87-6c7f386799f5"},"vehicle_type_id":"4","last_reported":1742422155,"current_range_meters":14400,"station_id":"ce4bhah2rcd13ifvqei0","pricing_plan_id":"cebpf4jnsgd1na2vs0mg"},{"bike_id":"2847e358-4d6e-4b79-99ec-b54cb51ee866","system_id":"levelo_inurba_marseille","lat":43.303,"lon":5.39213,"is_reserved":false,"is_disabled":false,"rental_uris":{"android":"levelo://app?vid=2847e358-4d6e-4b79-99ec-b54cb51ee866","ios":"levelo://app?vid=2847e358-4d6e-4b79-99ec-b54cb51ee866"},"vehicle_type_id":"4","last_reported":1742422155,"current_range_meters":14800,"station_id":"ce4bgkh2rcd13ifvqbk0","pricing_plan_id":"cebpf4jnsgd1na2vs0mg"},{"bike_id":"44b51cae-1f8d-4c3f-8cfa-49c7965edddc","system_id":"levelo_inurba_marseille","lat":43.28855,"lon":5.35842,"is_reserved":false,"is_disabled":false,"rental_uris":{"android":"levelo://app?vid=44b51cae-1f8d-4c3f-8cfa-49c7965edddc","ios":"levelo://app?vid=44b51cae-1f8d-4c3f-8cfa-49c7965edddc"},"vehicle_type_id":"4","last_reported":1742422155,"current_range_meters":14800,"station_id":"ce4bhb12rcd13ifvqem0","pricing_plan_id":"cebpf4jnsgd1na2vs0mg"},{"bike_id":"f0ecc41c-3e76-4973-9ac5-ce0caabd5642","system_id":"levelo_inurba_marseille","lat":43.29871,"lon":5.39735,"is_reserved":false,"is_disabled":false,"rental_uris":{"android":"levelo://app?vid=f0ecc41c-3e76-4973-9ac5-ce0caabd5642","ios":"levelo://app?vid=f0ecc41c-3e76-4973-9ac5-ce0caabd5642"},"vehicle_type_id":"4","last_reported":1742422155,"current_range_meters":14800,"station_id":"ce4bh0h2rcd13ifvqd50","pricing_plan_id":"cebpf4jnsgd1na2vs0mg"},{"bike_id":"89f67afe-9814-4dbc-961c-2a3a01fe3a0e","system_id":"levelo_inurba_marseille","lat":43.25692,"lon":5.41075,"is_reserved":false,"is_disabled":false,"rental_uris":{"android":"levelo://app?vid=89f67afe-9814-4dbc-961c-2a3a01fe3a0e","ios":"levelo://app?vid=89f67afe-9814-4dbc-961c-2a3a01fe3a0e"},"vehicle_type_id":"4","last_reported":1742422155,"current_range_meters":14800,"station_id":"ce4bhkp2rcd13ifvqgd0","pricing_plan_id":"cebpf4jnsgd1na2vs0mg"},{"bike_id":"13cc78a0-eee8-44bf-ba66-2bb5c4a0d700","system_id":"levelo_inurba_marseille","lat":43.31885,"lon":5.40727,"is_reserved":false,"is_disabled":false,"rental_uris":{"android":"levelo://app?vid=13cc78a0-eee8-44bf-ba66-2bb5c4a0d700","ios":"levelo://app?vid=13cc78a0-eee8-44bf-ba66-2bb5c4a0d700"},"vehicle_type_id":"4","last_reported":1742422155,"current_range_meters":14800,"station_id":"ce4bhq12rcd13ifvqhig","pricing_plan_id":"cebpf4jnsgd1na2vs0mg"},{"bike_id":"eaa90a4b-b35b-4e9d-bcb5-dc00cebc1f8d","system_id":"levelo_inurba_marseille","lat":43.32364,"lon":5.38877,"is_reserved":false,"is_disabled":false,"rental_uris":{"android":"levelo://app?vid=eaa90a4b-b35b-4e9d-bcb5-dc00cebc1f8d","ios":"levelo://app?vid=eaa90a4b-b35b-4e9d-bcb5-dc00cebc1f8d"},"vehicle_type_id":"4","last_reported":1742422155,"current_range_meters":14800,"station_id":"ce4bhqp2rcd13ifvqhog","pricing_plan_id":"cebpf4jnsgd1na2vs0mg"},{"bike_id":"f1db2f86-abc8-436a-ade8-82b72056feb9","system_id":"levelo_inurba_marseille","lat":43.29191,"lon":5.39326,"is_reserved":false,"is_disabled":false,"rental_uris":{"android":"levelo://app?vid=f1db2f86-abc8-436a-ade8-82b72056feb9","ios":"levelo://app?vid=f1db2f86-abc8-436a-ade8-82b72056feb9"},"vehicle_type_id":"4","last_reported":1742422155,"current_range_meters":14400,"station_id":"ce4bh192rcd13ifvqdd0","pricing_plan_id":"cebpf4jnsgd1na2vs0mg"},{"bike_id":"a4cf40fa-7ddf-4562-9903-f4061c1293c2","system_id":"levelo_inurba_marseille","lat":43.27565,"lon":5.3841,"is_reserved":false,"is_disabled":false,"rental_uris":{"android":"levelo://app?vid=a4cf40fa-7ddf-4562-9903-f4061c1293c2","ios":"levelo://app?vid=a4cf40fa-7ddf-4562-9903-f4061c1293c2"},"vehicle_type_id":"4","last_reported":1742422155,"current_range_meters":14400,"station_id":"ce4bhh92rcd13ifvqfi0","pricing_plan_id":"cebpf4jnsgd1na2vs0mg"},{"bike_id":"c7e065a6-13cc-4268-8199-03fb9500a572","system_id":"levelo_inurba_marseille","lat":43.30894,"lon":5.3961,"is_reserved":false,"is_disabled":false,"rental_uris":{"android":"levelo://app?vid=c7e065a6-13cc-4268-8199-03fb9500a572","ios":"levelo://app?vid=c7e065a6-13cc-4268-8199-03fb9500a572"},"vehicle_type_id":"4","last_reported":1742422155,"current_range_meters":14800,"station_id":"ce4bh012rcd13ifvqcv0","pricing_plan_id":"cebpf4jnsgd1na2vs0mg"},{"bike_id":"28a51cea-1197-494f-bfae-c22ff2f00ec8","system_id":"levelo_inurba_marseille","lat":43.28704,"lon":5.39985,"is_reserved":false,"is_disabled":false,"rental_uris":{"android":"levelo://app?vid=28a51cea-1197-494f-bfae-c22ff2f00ec8","ios":"levelo://app?vid=28a51cea-1197-494f-bfae-c22ff2f00ec8"},"vehicle_type_id":"4","last_reported":1742422155,"current_range_meters":14800,"station_id":"ce4bho92rcd13ifvqh3g","pricing_plan_id":"cebpf4jnsgd1na2vs0mg"},{"bike_id":"48d1ca75-c6a4-4880-91e2-d975a9f9859a","system_id":"levelo_inurba_marseille","lat":43.31912,"lon":5.40723,"is_reserved":false,"is_disabled":false,"rental_uris":{"android":"levelo://app?vid=48d1ca75-c6a4-4880-91e2-d975a9f9859a","ios":"levelo://app?vid=48d1ca75-c6a4-4880-91e2-d975a9f9859a"},"vehicle_type_id":"4","last_reported":1742422155,"current_range_meters":14800,"station_id":"ce4bhq12rcd13ifvqhig","pricing_plan_id":"cebpf4jnsgd1na2vs0mg"},