{"last_updated":1738901458,"ttl":60,"version":"2.2","data":{"bikes":[{"bike_id":"6af6c6c4-0a4e-4af0-a8c7-3cb84a76805d","system_id":"levelo_inurba_marseille","lat":43.3014,"lon":5.38792,"is_reserved":false,"is_disabled":false,"rental_uris":{"android":"levelo://app?vid=6af6c6c4-0a4e-4af0-a8c7-3cb84a76805d","ios":"levelo://app?vid=6af6c6c4-0a4e-4af0-a8c7-3cb84a76805d"},"vehicle_type_id":"4","last_reported":1738901458,"current_range_meters":38800,"station_id":"ce4bghh2rcd13ifvqb60","pricing_plan_id":"cebpf4jnsgd1na2vs0mg"},{"bike_id":"08ec1db3-50b8-49a9-be0f-8c26968d786b","system_id":"levelo_inurba_marseille","lat":43.2815,"lon":5.42643,"is_reserved":false,"is_disabled":false,"rental_uris":{"android":"levelo://app?vid=08ec1db3-50b8-49a9-be0f-8c26968d786b","ios":"levelo://app?vid=08ec1db3-50b8-49a9-be0f-8c26968d786b"},"vehicle_type_id":"4","last_reported":1738901458,"current_range_meters":9200,"station_id":"ce4bhnh2rcd13ifvqgug","pricing_plan_id":"cebpf4jnsgd1na2vs0mg"},{"bike_id":"c6549bd3-467b-49f7-9cf1-e8da79448765","system_id":"levelo_inurba_marseille","lat":43.31334,"lon":5.39699,"is_reserved":false,"is_disabled":false,"rental_uris":{"android":"levelo://app?vid=c6549bd3-467b-49f7-9cf1-e8da79448765","ios":"levelo://app?vid=c6549bd3-467b-49f7-9cf1-e8da79448765"},"vehicle_type_id":"4","last_reported":1738901458,"current_range_meters":32000,"station_id":"ce4bgvp2rcd13ifvqcu0","pricing_plan_id":"cebpf4jnsgd1na2vs0mg"},{"bike_id":"4907ab45-760c-42a6-ad96-123b99a4aafc","system_id":"levelo_inurba_marseille","lat":43.30457,"lon":5.38904,"is_reserved":false,"is_disabled":false,"rental_uris":{"android":"levelo://app?vid=4907ab45-760c-42a6-ad96-123b99a4aafc","ios":"levelo://app?vid=4907ab45-760c-42a6-ad96-123b99a4aafc"},"vehicle_type_id":"4","last_reported":1738901458,"current_range_meters":38800,"station_id":"ce4bgk12rcd13ifvqbi0","pricing_plan_id":"cebpf4jnsgd1na2vs0mg"},{"bike_id":"0467a076-a2ad-41b7-a012-e38470b2d7f6","system_id":"levelo_inurba_marseille","lat":43.24991,"lon":5.3888,"is_reserved":false,"is_disabled":false,"rental_uris":{"android":"levelo://app?vid=0467a076-a2ad-41b7-a012-e38470b2d7f6","ios":"levelo://app?vid=0467a076-a2ad-41b7-a012-e38470b2d7f6"},"vehicle_type_id":"4","last_reported":1738901458,"current_range_meters":8400,"station_id":"ce4bhgp2rcd13ifvqfd0","pricing_plan_id":"cebpf4jnsgd1na2vs0mg"},{"bike_id":"471afef8-d16e-4799-8bc0-7ec48f0e90a7","system_id":"levelo_inurba_marseille","lat":43.28681,"lon":5.38667,"is_reserved":false,"is_disabled":false,"rental_uris":{"android":"levelo://app?vid=471afef8-d16e-4799-8bc0-7ec48f0e90a7","ios":"levelo://app?vid=471afef8-d16e-4799-8bc0-7ec48f0e90a7"},"vehicle_type_id":"4","last_reported":1738901458,"current_range_meters":38400,"station_id":"ce4bh492rcd13ifvqdug","pricing_plan_id":"cebpf4jnsgd1na2vs0mg"},{"bike_id":"ab892e41-9cc7-4b06-9f7e-c61761202cb3","system_id":"levelo_inurba_marseille","lat":43.28361,"lon":5.38125,"is_reserved":false,"is_disabled":false,"rental_uris":{"android":"levelo://app?vid=ab892e41-9cc7-4b06-9f7e-c61761202cb3","ios":"levelo://app?vid=ab892e41-9cc7-4b06-9f7e-c61761202cb3"},"vehicle_type_id":"4","last_reported":1738901458,"current_range_meters":4000,"station_id":"ce4bh412rcd13ifvqdr0","pricing_plan_id":"cebpf4jnsgd1na2vs0mg"},{"bike_id":"6f1b8212-3f5a-4978-864e-5e174cc6fd25","system_id":"levelo_inurba_marseille","lat":43.29557,"lon":5.422788,"is_reserved":false,"is_disabled":false,"rental_uris":{"android":"levelo://app?vid=6f1b8212-3f5a-4978-864e-5e174cc6fd25","ios":"levelo://app?vid=6f1b8212-3f5a-4978-864e-5e174cc6fd25"},"vehicle_type_id":"4","last_reported":1738901458,"current_range_meters":38800,"station_id":"ce4bhph2rcd13ifvqhdg","pricing_plan_id":"cebpf4jnsgd1na2vs0mg"},{"bike_id":"0b370460-2bdc-4346-a1f4-7aeb9dd2a707","system_id":"levelo_inurba_marseille","lat":43.28632,"lon":5.39138,"is_reserved":false,"is_disabled":true,"rental_uris":{"android":"levelo://app?vid=0b370460-2bdc-4346-a1f4-7aeb9dd2a707","ios":"levelo://app?vid=0b370460-2bdc-4346-a1f4-7aeb9dd2a707"},"vehicle_type_id":"4","last_reported":1738901458,"current_range_meters":16400,"station_id":"","pricing_plan_id":"cebpf4jnsgd1na2vs0mg"},{"bike_id":"7fd47275-2594-47ff-96d0-51746e5bc128","system_id":"levelo_inurba_marseille","lat":43.306521,"lon":5.400761,"is_reserved":false,"is_disabled":true,"rental_uris":{"android":"levelo://app?vid=7fd47275-2594-47ff-96d0-51746e5bc128","ios":"levelo://app?vid=7fd47275-2594-47ff-96d0-51746e5bc128"},"vehicle_type_id":"4","last_reported":1738901458,"current_range_meters":19200,"station_id":"ce4bh112rcd13ifvqda0","pricing_plan_id":"cebpf4jnsgd1na2vs0mg"},{"bike_id":"9094078c-7c29-411d-8877-ca6848fb2f24","system_id":"levelo_inurba_marseille","lat":43.279074,"lon":5.380007,"is_reserved":false,"is_disabled":false,"rental_uris":{"android":"levelo://app?vid=9094078c-7c29-411d-8877-ca6848fb2f24","ios":"levelo://app?vid=9094078c-7c29-411d-8877-ca6848fb2f24"},"vehicle_type_id":"4","last_reported":1738901458,"current_range_meters":11600,"station_id":"ce4bhf92rcd13ifvqf50","pricing_plan_id":"cebpf4jnsgd1na2vs0mg"},{"bike_id":"2ecf08df-7fb7-486d-8c27-9832069c95ce","system_id":"levelo_inurba_marseille","lat":43.24072,"lon":5.37752,"is_reserved":false,"is_disabled":false,"rental_uris":{"android":"levelo://app?vid=2ecf08df-7fb7-486d-8c27-9832069c95ce","ios":"levelo://app?vid=2ecf08df-7fb7-486d-8c27-9832069c95ce"},"vehicle_type_id":"4","last_reported":1738901458,"current_range_meters":19600,"station_id":"ce4bhnp2rcd13ifvqgvg","pricing_plan_id":"cebpf4jnsgd1na2vs0mg"},{"bike_id":"9126cf2f-8df1-4c11-8c3c-c3c77edcbd83","system_id":"levelo_inurba_marseille","lat":43.28715,"lon":5.37416,"is_reserved":false,"is_disabled":false,"rental_uris":{"android":"levelo://app?vid=9126cf2f-8df1-4c11-8c3c-c3c77edcbd83","ios":"levelo://app?vid=9126cf2f-8df1-4c11-8c3c-c3c77edcbd83"},"vehicle_type_id":"4","last_reported":1738901458,"current_range_meters":39200,"station_id":"ce4bh3p2rcd13ifvqdq0","pricing_plan_id":"cebpf4jnsgd1na2vs0mg"},{"bike_id":"41748c4d-fb7e-4f03-a7ef-71bbf6c5209c","system_id":"levelo_inurba_marseille","lat":43.24811,"lon":5.37444,"is_reserved":false,"is_disabled":false,"rental_uris":{"android":"levelo://app?vid=41748c4d-fb7e-4f03-a7ef-71bbf6c5209c","ios":"levelo://app?vid=41748c4d-fb7e-4f03-a7ef-71bbf6c5209c"},"vehicle_type_id":"4","last_reported":1738901458,"current_range_meters":38800,"station_id":"ce4bhgh2rcd13ifvqfb0","pricing_plan_id":"cebpf4jnsgd1na2vs0mg"},{"bike_id":"d1a6efa9-c1b4-4e9d-982a-5e40253d1c7d","system_id":"levelo_inurba_marseille","lat":43.28443,"lon":5.39183,"is_reserved":false,"is_disabled":false,"rental_uris":{"android":"levelo://app?vid=d1a6efa9-c1b4-4e9d-982a-5e40253d1c7d","ios":"levelo://app?vid=d1a6efa9-c1b4-4e9d-982a-5e40253d1c7d"},"vehicle_type_id":"4","last_reported":1738901458,"current_range_meters":3200,"station_id":"ce4bhoh2rcd13ifvqh5g","pricing_plan_id":"cebpf4jnsgd1na2vs0mg"},{"bike_id":"7154d5c9-ff59-4592-8b06-77bf24ef3756","system_id":"levelo_inurba_marseille","lat":43.282704,"lon":5.350723,"is_reserved":false,"is_disabled":false,"rental_uris":{"android":"levelo://app?vid=7154d5c9-ff59-4592-8b06-77bf24ef3756","ios":"levelo://app?vid=7154d5c9-ff59-4592-8b06-77bf24ef3756"},"vehicle_type_id":"4","last_reported":1738901458,"current_range_meters":39200,"station_id":"ce4bhbp2rcd13ifvqerg","pricing_plan_id":"cebpf4jnsgd1na2vs0mg"},{"bike_id":"6f04d73e-532c-42e9-a3a3-3d4f63a566aa","system_id":"levelo_inurba_marseille","lat":43.28744,"lon":5.37422,"is_reserved":false,"is_disabled":false,"rental_uris":{"android":"levelo://app?vid=6f04d73e-532c-42e9-a3a3-3d4f63a566aa","ios":"levelo://app?vid=6f04d73e-532c-42e9-a3a3-3d4f63a566aa"},"vehicle_type_id":"4","last_reported":1738901458,"current_range_meters":38800,"station_id":"ce4bh3p2rcd13ifvqdq0","pricing_plan_id":"cebpf4jnsgd1na2vs0mg"},{"bike_id":"30355e55-407c-4ac4-82aa-bde2bff8b28f","system_id":"levelo_inurba_marseille","lat":43.28568,"lon":5.3947,"is_reserved":false,"is_disabled":false,"rental_uris":{"android":"levelo://app?vid=30355e55-407c-4ac4-82aa-bde2bff8b28f","ios":"levelo://app?vid=30355e55-407c-4ac4-82aa-bde2bff8b28f"},"vehicle_type_id":"4","last_reported":1738901458,"current_range_meters":35600,"station_id":"ce4bh292rcd13ifvqdg0","pricing_plan_id":"cebpf4jnsgd1na2vs0mg"},{"bike_id":"0521076d-89e5-4efb-a71f-28a944f7d235","system_id":"levelo_inurba_marseille","lat":43.28711,"lon":5.37379,"is_reserved":false,"is_disabled":false,"rental_uris":{"android":"levelo://app?vid=0521076d-89e5-4efb-a71f-28a944f7d235","ios":"levelo://app?vid=0521076d-89e5-4efb-a71f-28a944f7d235"},"vehicle_type_id":"4","last_reported":1738901458,"current_range_meters":38800,"station_id":"ce4bh3p2rcd13ifvqdq0","pricing_plan_id":"cebpf4jnsgd1na2vs0mg"},{"bike_id":"6bd15c5e-d6b2-43ab-8fc9-854cbe9e9385","system_id":"levelo_inurba_marseille","lat":43.2607,"lon":5.3938,"is_reserved":false,"is_disabled":false,"rental_uris":{"android":"levelo://app?vid=6bd15c5e-d6b2-43ab-8fc9-854cbe9e9385","ios":"levelo://app?vid=6bd15c5e-d6b2-43ab-8fc9-854cbe9e9385"},"vehicle_type_id":"4","last_reported":1738901458,"current_range_meters":38800,"station_id":"ce4bhh92rcd13ifvqfj0","pricing_plan_id":"cebpf4jnsgd1na2vs0mg"},{"bike_id":"af5cc240-0e1d-4647-9b71-eb1c24f51a5e","system_id":"levelo_inurba_marseille","lat":43.31752,"lon":5.3903,"is_reserved":false,"is_disabled":false,"rental_uris":{"android":"levelo://app?vid=af5cc240-0e1d-4647-9b71-eb1c24f51a5e","ios":"levelo://app?vid=af5cc240-0e1d-4647-9b71-eb1c24f51a5e"},"vehicle_type_id":"4","last_reported":1738901458,"current_range_meters":38800,"station_id":"ce4bhqp2rcd13ifvqhng","pricing_plan_id":"cebpf4jnsgd1na2vs0mg"},{"bike_id":"b6038bf6-a60e-4517-af65-a3f8a3c7d9bd","system_id":"levelo_inurba_marseille","lat":43.297921,"lon":5.370889,"is_reserved":false,"is_disabled":false,"rental_uris":{"android":"levelo://app?vid=b6038bf6-a60e-4517-af65-a3f8a3c7d9bd","ios":"levelo://app?vid=b6038bf6-a60e-4517-af65-a3f8a3c7d9bd"},"vehicle_type_id":"4","last_reported":1738901458,"current_range_meters":38400,"station_id":"ce4bgop2rcd13ifvqc1g","pricing_plan_id":"cebpf4jnsgd1na2vs0mg"},{"bike_id":"116aede0-e676-4dd4-b3ef-0f4a91f42001","system_id":"levelo_inurba_marseille","lat":43.262105,"lon":5.374403,"is_reserved":false,"is_disabled":false,"rental_uris":{"android":"levelo://app?vid=116aede0-e676-4dd4-b3ef-0f4a91f42001","ios":"levelo://app?vid=116aede0-e676-4dd4-b3ef-0f4a91f42001"},"vehicle_type_id":"4","last_reported":1738901458,"current_range_meters":36800,"station_id":"ce4bhgp2rcd13ifvqfc0","pricing_plan_id":"cebpf4jnsgd1na2vs0mg"},{"bike_id":"f1425641-2a02-4020-bcf5-dce8df33a898","system_id":"levelo_inurba_marseille","lat":43.26499,"lon":5.39554,"is_reserved":false,"is_disabled":false,"rental_uris":{"android":"levelo://app?vid=f1425641-2a02-4020-bcf5-dce8df33a898","ios":"levelo://app?vid=f1425641-2a02-4020-bcf5-dce8df33a898"},"vehicle_type_id":"4","last_reported":1738901458,"current_range_meters":35600,"station_id":"ce4bhi12rcd13ifvqfq0","pricing_plan_id":"cebpf4jnsgd1na2vs0mg"},{"bike_id":"aa874f21-4899-4c94-ac56-d6c355723cbb","system_id":"levelo_inurba_marseille","lat":43.23191,"lon":5.39983,"is_reserved":false,"is_disabled":false,"rental_uris":{"android":"levelo://app?vid=aa874f21-4899-4c94-ac56-d6c355723cbb","ios":"levelo://app?vid=aa874f21-4899-4c94-ac56-d6c355723cbb"},"vehicle_type_id":"4","last_reported":1738901458,"current_range_meters":35600,"station_id":"ce4bhn12rcd13ifvqgqg","pricing_plan_id":"cebpf4jnsgd1na2vs0mg"},{"bike_id":"19b11498-b7da-498a-a065-c091cc335a9f","system_id":"levelo_inurba_marseille","lat":43.23178,"lon":5.39996,"is_reserved":false,"is_disabled":false,"rental_uris":{"android":"levelo://app?vid=19b11498-b7da-498a-a065-c091cc335a9f","ios":"levelo://app?vid=19b11498-b7da-498a-a065-c091cc335a9f"},"vehicle_type_id":"4","last_reported":1738901458,"current_range_meters":32800,"station_id":"ce4bhn12rcd13ifvqgqg","pricing_plan_id":"cebpf4jnsgd1na2vs0mg"},{"bike_id":"70f45513-85d5-493e-8bf5-2bbd38c6951d","system_id":"levelo_inurba_marseille","lat":43.3025,"lon":5.40069,"is_reserved":false,"is_disabled":false,"rental_uris":{"android":"levelo://app?vid=70f45513-85d5-493e-8bf5-2bbd38c6951d","ios":"levelo://app?vid=70f45513-85d5-493e-8bf5-2bbd38c6951d"},"vehicle_type_id":"4","last_reported":1738901458,"current_range_meters":38400,"station_id":"ce4bgvh2rcd13ifvqcs0","pricing_plan_id":"cebpf4jnsgd1na2vs0mg"},{"bike_id":"292533cb-ddd3-4c4d-9a1b-dbf511130817","system_id":"levelo_inurba_marseille","lat":43.294437,"lon":5.397595,"is_reserved":false,"is_disabled":false,"rental_uris":{"android":"levelo://app?vid=292533cb-ddd3-4c4d-9a1b-dbf511130817","ios":"levelo://app?vid=292533cb-ddd3-4c4d-9a1b-dbf511130817"},"vehicle_type_id":"4","last_reported":1738901458,"current_range_meters":38000,"station_id":"ce4bh3h2rcd13ifvqdo0","pricing_plan_id":"cebpf4jnsgd1na2vs0mg"},{"bike_id":"18f1cef3-3663-430c-bbc1-84c95be2f643","system_id":"levelo_inurba_marseille","lat":43.2809,"lon":5.39663,"is_reserved":false,"is_disabled":false,"rental_uris":{"android":"levelo://app?vid=18f1cef3-3663-430c-bbc1-84c95be2f643","ios":"levelo://app?vid=18f1cef3-3663-430c-bbc1-84c95be2f643"},"vehicle_type_id":"4","last_reported":1738901458,"current_range_meters":37600,"station_id":"ce4bho12rcd13ifvqh2g","pricing_plan_id":"cebpf4jnsgd1na2vs0mg"},{"bike_id":"18d04195-88fe-4e90-b81a-4005039cb03c","system_id":"levelo_inurba_marseille","lat":43.30252,"lon":5.40072,"is_reserved":false,"is_disabled":false,"rental_uris":{"android":"levelo://app?vid=18d04195-88fe-4e90-b81a-4005039cb03c","ios":"levelo://app?vid=18d04195-88fe-4e90-b81a-4005039cb03c"},"vehicle_type_id":"4","last_reported":1738901458,"current_range_meters":39200,"station_id":"ce4bgvh2rcd13ifvqcs0","pricing_plan_id":"cebpf4jnsgd1na2vs0mg"},{"bike_id":"422d1ae9-3f23-4c23-952d-112dc4aaa449","system_id":"levelo_inurba_marseille","lat":43.29761,"lon":5.380511,"is_reserved":false,"is_disabled":false,"rental_uris":{"android":"levelo://app?vid=422d1ae9-3f23-4c23-952d-112dc4aaa449","ios":"levelo://app?vid=422d1ae9-3f23-4c23-952d-112dc4aaa449"},"vehicle_type_id":"4","last_reported":1738901458,"current_range_meters":10800,"station_id":"","pricing_plan_id":"cebpf4jnsgd1na2vs0mg"},{"bike_id":"81cfd60d-de85-4312-b571-39494165a11a","system_id":"levelo_inurba_marseille","lat":43.29879,"lon":5.39741,"is_reserved":false,"is_disabled":false,"rental_uris":{"android":"levelo://app?vid=81cfd60d-de85-4312-b571-39494165a11a","ios":"levelo://app?vid=81cfd60d-de85-4312-b571-39494165a11a"},"vehicle_type_id":"4","last_reported":1738901458,"current_range_meters":25600,"station_id":"ce4bh0h2rcd13ifvqd50","pricing_plan_id":"cebpf4jnsgd1na2vs0mg"},{"bike_id":"d327d221-a4ae-4ce7-8941-3960805fc399","system_id":"levelo_inurba_marseille","lat":43.33768,"lon":5.37481,"is_reserved":false,"is_disabled":true,"rental_uris":{"android":"levelo://app?vid=d327d221-a4ae-4ce7-8941-3960805fc399","ios":"levelo://app?vid=d327d221-a4ae-4ce7-8941-3960805fc399"},"vehicle_type_id":"4","last_reported":1738901458,"current_range_meters":32000,"station_id":"","pricing_plan_id":"cebpf4jnsgd1na2vs0mg"},{"bike_id":"f1067d17-a424-4230-ae9f-44f3b2dc5e74","system_id":"levelo_inurba_marseille","lat":43.24498,"lon":5.39554,"is_reserved":false,"is_disabled":false,"rental_uris":{"android":"levelo://app?vid=f1067d17-a424-4230-ae9f-44f3b2dc5e74","ios":"levelo://app?vid=f1067d17-a424-4230-ae9f-44f3b2dc5e74"},"vehicle_type_id":"4","last_reported":1738901458,"current_range_meters":4800,"station_id":"","pricing_plan_id":"cebpf4jnsgd1na2vs0mg"},{"bike_id":"098d220b-e449-43ea-8d6d-9fc78e0abad9","system_id":"levelo_inurba_marseille","lat":43.22926,"lon":5.35373,"is_reserved":false,"is_disabled":false,"rental_uris":{"android":"levelo://app?vid=098d220b-e449-43ea-8d6d-9fc78e0abad9","ios":"levelo://app?vid=098d220b-e449-43ea-8d6d-9fc78e0abad9"},"vehicle_type_id":"4","last_reported":1738901458,"current_range_meters":39200,"station_id":"cpo3532slgdg3j2ikp40","pricing_plan_id":"cebpf4jnsgd1na2vs0mg"},{"bike_id":"3de2a62f-ee8b-4633-8581-80f610f7d857","system_id":"levelo_inurba_marseille","lat":43.245469,"lon":5.395198,"is_reserved":false,"is_disabled":true,"rental_uris":{"android":"levelo://app?vid=3de2a62f-ee8b-4633-8581-80f610f7d857","ios":"levelo://app?vid=3de2a62f-ee8b-4633-8581-80f610f7d857"},"vehicle_type_id":"4","last_reported":1738901458,"current_range_meters":0,"station_id":"ce4bhlp2rcd13ifvqgjg","pricing_plan_id":"cebpf4jnsgd1na2vs0mg"},{"bike_id":"e7c5d9a5-561f-4bc1-bd0a-4d22a3da540b","system_id":"levelo_inurba_marseille","lat":43.288489,"lon":5.358604,"is_reserved":false,"is_disabled":false,"rental_uris":{"android":"levelo://app?vid=e7c5d9a5-561f-4bc1-bd0a-4d22a3da540b","ios":"levelo://app?vid=e7c5d9a5-561f-4bc1-bd0a-4d22a3da540b"},"vehicle_type_id":"4","last_reported":1738901458,"current_range_meters":16000,"station_id":"ce4bhb12rcd13ifvqem0","pricing_plan_id":"cebpf4jnsgd1na2vs0mg"},{"bike_id":"e72514e9-9fb0-4cf4-9627-2bdb46835a05","system_id":"levelo_inurba_marseille","lat":43.28721,"lon":5.36081,"is_reserved":false,"is_disabled":false,"rental_uris":{"android":"levelo://app?vid=e72514e9-9fb0-4cf4-9627-2bdb46835a05","ios":"levelo://app?vid=e72514e9-9fb0-4cf4-9627-2bdb46835a05"},"vehicle_type_id":"4","last_reported":1738901458,"current_range_meters":34000,"station_id":"cki0cbj6b192h4jlfktg","pricing_plan_id":"cebpf4jnsgd1na2vs0mg"},{"bike_id":"b99b6123-dd83-4325-bf60-81fb15f0f429","system_id":"levelo_inurba_marseille","lat":43.308849,"lon":5.396461,"is_reserved":false,"is_disabled":false,"rental_uris":{"android":"levelo://app?vid=b99b6123-dd83-4325-bf60-81fb15f0f429","ios":"levelo://app?vid=b99b6123-dd83-4325-bf60-81fb15f0f429"},"vehicle_type_id":"4","last_reported":1738901458,"current_range_meters":9600,"station_id":"ce4bh012rcd13ifvqcv0","pricing_plan_id":"cebpf4jnsgd1na2vs0mg"},{"bike_id":"8134c42b-15c7-43df-91b1-9cea8c89299b","system_id":"levelo_inurba_marseille","lat":43.25861,"lon":5.39914,"is_reserved":false,"is_disabled":true,"rental_uris":{"android":"levelo://app?vid=8134c42b-15c7-43df-91b1-9cea8c89299b","ios":"levelo://app?vid=8134c42b-15c7-43df-91b1-9cea8c89299b"},"vehicle_type_id":"4","last_reported":1738901458,"current_range_meters":30400,"station_id":"ce4bhl92rcd13ifvqghg","pricing_plan_id":"cebpf4jnsgd1na2vs0mg"},{"bike_id":"edaf17a3-9fb8-4281-8efa-d1063bb06377","system_id":"levelo_inurba_marseille","lat":43.27923,"lon":5.39589,"is_reserved":false,"is_disabled":false,"rental_uris":{"android":"levelo://app?vid=edaf17a3-9fb8-4281-8efa-d1063bb06377","ios":"levelo://app?vid=edaf17a3-9fb8-4281-8efa-d1063bb06377"},"vehicle_type_id":"4","last_reported":1738901458,"current_range_meters":38400,"station_id":"ce4bhf92rcd13ifvqf40","pricing_plan_id":"cebpf4jnsgd1na2vs0mg"},{"bike_id":"d7ead273-bf60-49f8-8869-552a00114485","system_id":"levelo_inurba_marseille","lat":43.30795,"lon":5.38171,"is_reserved":false,"is_disabled":true,"rental_uris":{"android":"levelo://app?vid=d7ead273-bf60-49f8-8869-552a00114485","ios":"levelo://app?vid=d7ead273-bf60-49f8-8869-552a00114485"},"vehicle_type_id":"4","last_reported":1738901458,"current_range_meters":38800,"station_id":"ce4bgt12rcd13ifvqce0","pricing_plan_id":"cebpf4jnsgd1na2vs0mg"},{"bike_id":"b53e2bcf-098d-4aae-965d-d001ff86db97","system_id":"levelo_inurba_marseille","lat":43.28994,"lon":5.35621,"is_reserved":false,"is_disabled":false,"rental_uris":{"android":"levelo://app?vid=b53e2bcf-098d-4aae-965d-d001ff86db97","ios":"levelo://app?vid=b53e2bcf-098d-4aae-965d-d001ff86db97"},"vehicle_type_id":"4","last_reported":1738901458,"current_range_meters":39200,"station_id":"ce4bhb92rcd13ifvqen0","pricing_plan_id":"cebpf4jnsgd1na2vs0mg"},{"bike_id":"d1a6678d-a3d2-4757-8150-b671f6e9633d","system_id":"levelo_inurba_marseille","lat":43.28455,"lon":5.35886,"is_reserved":false,"is_disabled":false,"rental_uris":{"android":"levelo://app?vid=d1a6678d-a3d2-4757-8150-b671f6e9633d","ios":"levelo://app?vid=d1a6678d-a3d2-4757-8150-b671f6e9633d"},"vehicle_type_id":"4","last_reported":1738901458,"current_range_meters":12000,"station_id":"ce4bhah2rcd13ifvqei0","pricing_plan_id":"cebpf4jnsgd1na2vs0mg"},{"bike_id":"a1763ec5-b507-463b-8099-35041a23a9e0","system_id":"levelo_inurba_marseille","lat":43.25118,"lon":5.40318,"is_reserved":false,"is_disabled":false,"rental_uris":{"android":"levelo://app?vid=a1763ec5-b507-463b-8099-35041a23a9e0","ios":"levelo://app?vid=a1763ec5-b507-463b-8099-35041a23a9e0"},"vehicle_type_id":"4","last_reported":1738901458,"current_range_meters":28000,"station_id":"ce4bhlh2rcd13ifvqgig","pricing_plan_id":"cebpf4jnsgd1na2vs0mg"},{"bike_id":"2b888412-97ec-4ec4-8fe1-e5d59fbb2054","system_id":"levelo_inurba_marseille","lat":43.28451,"lon":5.35884,"is_reserved":false,"is_disabled":false,"rental_uris":{"android":"levelo://app?vid=2b888412-97ec-4ec4-8fe1-e5d59fbb2054","ios":"levelo://app?vid=2b888412-97ec-4ec4-8fe1-e5d59fbb2054"},"vehicle_type_id":"4","last_reported":1738901458,"current_range_meters":4800,"station_id":"ce4bhah2rcd13ifvqei0","pricing_plan_id":"cebpf4jnsgd1na2vs0mg"},{"bike_id":"fc557e58-c35d-498c-ac1e-5988d93ab718","system_id":"levelo_inurba_marseille","lat":43.315338,"lon":5.380372,"is_reserved":false,"is_disabled":false,"rental_uris":{"android":"levelo://app?vid=fc557e58-c35d-498c-ac1e-5988d93ab718","ios":"levelo://app?vid=fc557e58-c35d-498c-ac1e-5988d93ab718"},"vehicle_type_id":"4","last_reported":1738901458,"current_range_meters":31200,"station_id":"ce4bhsp2rcd13ifvqi50","pricing_plan_id":"cebpf4jnsgd1na2vs0mg"},{"bike_id":"7843f238-6be5-493e-b798-ffbb4fe7e1bd","system_id":"levelo_inurba_marseille","lat":43.313263,"lon":5.396936,"is_reserved":false,"is_disabled":false,"rental_uris":{"android":"levelo://app?vid=7843f238-6be5-493e-b798-ffbb4fe7e1bd","ios":"levelo://app?vid=7843f238-6be5-493e-b798-ffbb4fe7e1bd"},"vehicle_type_id":"4","last_reported":1738901458,"current_range_meters":22400,"station_id":"ce4bgvp2rcd13ifvqcu0","pricing_plan_id":"cebpf4jnsgd1na2vs0mg"},{"bike_id":"3078e8ce-5d59-4082-8b1a-8d753b4f6935","system_id":"levelo_inurba_marseille","lat":43.23189,"lon":5.39962,"is_reserved":false,"is_disabled":false,"rental_uris":{"android":"levelo://app?vid=3078e8ce-5d59-4082-8b1a-8d753b4f6935","ios":"levelo://app?vid=3078e8ce-5d59-4082-8b1a-8d753b4f6935"},"vehicle_type_id":"4","last_reported":1738901458,"current_range_meters":38800,"station_id":"ce4bhn12rcd13ifvqgqg","pricing_plan_id":"cebpf4jnsgd1na2vs0mg"},{"bike_id":"b1e15155-8511-43e5-bd75-fed6364538ed","system_id":"levelo_inurba_marseille","lat":43.33005,"lon":5.39028,"is_reserved":false,"is_disabled":false,"rental_uris":{"android":"levelo://app?vid=b1e15155-8511-43e5-bd75-fed6364538ed","ios":"levelo://app?vid=b1e15155-8511-43e5-bd75-fed6364538ed"},"vehicle_type_id":"4","last_reported":1738901458,"current_range_meters":32400,"station_id":"ce4bhr92rcd13ifvqhrg","pricing_plan_id":"cebpf4jnsgd1na2vs0mg"},{"bike_id":"0001064a-2f52-4a2b-9d17-76bf24774b06","system_id":"levelo_inurba_marseille","lat":43.2784,"lon":5.39211,"is_reserved":false,"is_disabled":false,"rental_uris":{"android":"levelo://app?vid=0001064a-2f52-4a2b-9d17-76bf24774b06","ios":"levelo://app?vid=0001064a-2f52-4a2b-9d17-76bf24774b06"},"vehicle_type_id":"4","last_reported":1738901458,"current_range_meters":27200,"station_id":"ce4bhjp2rcd13ifvqga0","pricing_plan_id":"cebpf4jnsgd1na2vs0mg"},{"bike_id":"a8e76632-6d27-4a5d-bcf5-de064ffe9c8a","system_id":"levelo_inurba_marseille","lat":43.337544,"lon":5.374292,"is_reserved":false,"is_disabled":false,"rental_uris":{"android":"levelo://app?vid=a8e76632-6d27-4a5d-bcf5-de064ffe9c8a","ios":"levelo://app?vid=a8e76632-6d27-4a5d-bcf5-de064ffe9c8a"},"vehicle_type_id":"4","last_reported":1738901458,"current_range_meters":11200,"station_id":"","pricing_plan_id":"cebpf4jnsgd1na2vs0mg"},{"bike_id":"a5b10e83-1d30-4baf-a60e-85f23b595c91","system_id":"levelo_inurba_marseille","lat":43.32336,"lon":5.38907,"is_reserved":false,"is_disabled":false,"rental_uris":{"android":"levelo://app?vid=a5b10e83-1d30-4baf-a60e-85f23b595c91","ios":"levelo://app?vid=a5b10e83-1d30-4baf-a60e-85f23b595c91"},"vehicle_type_id":"4","last_reported":1738901458,"current_range_meters":30400,"station_id":"ce4bhqp2rcd13ifvqhog","pricing_plan_id":"cebpf4jnsgd1na2vs0mg"},{"bike_id":"a6f2f0f5-d28b-4dfa-9ebc-81f9a099a0e7","system_id":"levelo_inurba_marseille","lat":43.28496,"lon":5.3843,"is_reserved":false,"is_disabled":true,"rental_uris":{"android":"levelo://app?vid=a6f2f0f5-d28b-4dfa-9ebc-81f9a099a0e7","ios":"levelo://app?vid=a6f2f0f5-d28b-4dfa-9ebc-81f9a099a0e7"},"vehicle_type_id":"4","last_reported":1738901458,"current_range_meters":0,"station_id":"ce4bh512rcd13ifvqe3g","pricing_plan_id":"cebpf4jnsgd1na2vs0mg"},{"bike_id":"c61801e2-de78-4623-893f-04daf5d8570b","system_id":"levelo_inurba_marseille","lat":43.30423,"lon":5.39753,"is_reserved":false,"is_disabled":false,"rental_uris":{"android":"levelo://app?vid=c61801e2-de78-4623-893f-04daf5d8570b","ios":"levelo://app?vid=c61801e2-de78-4623-893f-04daf5d8570b"},"vehicle_type_id":"4","last_reported":1738901458,"current_range_meters":39200,"station_id":"ce4bh092rcd13ifvqd20","pricing_plan_id":"cebpf4jnsgd1na2vs0mg"},{"bike_id":"b8d80fa0-808f-4cb8-adb2-f1815086abc8","system_id":"levelo_inurba_marseille","lat":43.312722,"lon":5.40163,"is_reserved":false,"is_disabled":false,"rental_uris":{"android":"levelo://app?vid=b8d80fa0-808f-4cb8-adb2-f1815086abc8","ios":"levelo://app?vid=b8d80fa0-808f-4cb8-adb2-f1815086abc8"},"vehicle_type_id":"4","last_reported":1738901458,"current_range_meters":38000,"station_id":"ce4bh092rcd13ifvqd30","pricing_plan_id":"cebpf4jnsgd1na2vs0mg"},{"bike_id":"af2d3c24-937f-4373-b371-3ed706507057","system_id":"levelo_inurba_marseille","lat":43.3088,"lon":5.39635,"is_reserved":false,"is_disabled":false,"rental_uris":{"android":"levelo://app?vid=af2d3c24-937f-4373-b371-3ed706507057","ios":"levelo://app?vid=af2d3c24-937f-4373-b371-3ed706507057"},"vehicle_type_id":"4","last_reported":1738901458,"current_range_meters":27200,"station_id":"ce4bh012rcd13ifvqcv0","pricing_plan_id":"cebpf4jnsgd1na2vs0mg"},{"bike_id":"15d13832-3ae5-42e6-82d9-4929333906d9","system_id":"levelo_inurba_marseille","lat":43.33009,"lon":5.39055,"is_reserved":false,"is_disabled":false,"rental_uris":{"android":"levelo://app?vid=15d13832-3ae5-42e6-82d9-4929333906d9","ios":"levelo://app?vid=15d13832-3ae5-42e6-82d9-4929333906d9"},"vehicle_type_id":"4","last_reported":1738901458,"current_range_meters":37600,"station_id":"ce4bhr92rcd13ifvqhrg","pricing_plan_id":"cebpf4jnsgd1na2vs0mg"},{"bike_id":"89912e32-c5f0-448f-82d2-e236e4d6d653","system_id":"levelo_inurba_marseille","lat":43.27794,"lon":5.39876,"is_reserved":false,"is_disabled":false,"rental_uris":{"android":"levelo://app?vid=89912e32-c5f0-448f-82d2-e236e4d6d653","ios":"levelo://app?vid=89912e32-c5f0-448f-82d2-e236e4d6d653"},"vehicle_type_id":"4","last_reported":1738901458,"current_range_meters":6800,"station_id":"","pricing_plan_id":"cebpf4jnsgd1na2vs0mg"},{"bike_id":"6d2f3de3-74af-4680-a313-63b0427a0851","system_id":"levelo_inurba_marseille","lat":43.28708,"lon":5.3997,"is_reserved":false,"is_disabled":false,"rental_uris":{"android":"levelo://app?vid=6d2f3de3-74af-4680-a313-63b0427a0851","ios":"levelo://app?vid=6d2f3de3-74af-4680-a313-63b0427a0851"},"vehicle_type_id":"4","last_reported":1738901458,"current_range_meters":39200,"station_id":"ce4bho92rcd13ifvqh3g","pricing_plan_id":"cebpf4jnsgd1na2vs0mg"},{"bike_id":"354bf25a-655a-4e6e-b86d-1e7d9c8d23c4","system_id":"levelo_inurba_marseille","lat":43.24391,"lon":5.37053,"is_reserved":false,"is_disabled":false,"rental_uris":{"android":"levelo://app?vid=354bf25a-655a-4e6e-b86d-1e7d9c8d23c4","ios":"levelo://app?vid=354bf25a-655a-4e6e-b86d-1e7d9c8d23c4"},"vehicle_type_id":"4","last_reported":1738901458,"current_range_meters":38000,"station_id":"ce4bhhh2rcd13ifvqfk0","pricing_plan_id":"cebpf4jnsgd1na2vs0mg"},{"bike_id":"2bbba756-7595-40f2-a3da-f0b65d77e683","system_id":"levelo_inurba_marseille","lat":43.24668,"lon":5.38163,"is_reserved":false,"is_disabled":false,"rental_uris":{"android":"levelo://app?vid=2bbba756-7595-40f2-a3da-f0b65d77e683","ios":"levelo://app?vid=2bbba756-7595-40f2-a3da-f0b65d77e683"},"vehicle_type_id":"4","last_reported":1738901458,"current_range_meters":31200,"station_id":"ce4bhih2rcd13ifvqfr0","pricing_plan_id":"cebpf4jnsgd1na2vs0mg"},{"bike_id":"8b1e3ddc-e60b-449b-a071-b52065cec0be","system_id":"levelo_inurba_marseille","lat":43.32283,"lon":5.38278,"is_reserved":false,"is_disabled":false,"rental_uris":{"android":"levelo://app?vid=8b1e3ddc-e60b-449b-a071-b52065cec0be","ios":"levelo://app?vid=8b1e3ddc-e60b-449b-a071-b52065cec0be"},"vehicle_type_id":"4","last_reported":1738901458,"current_range_meters":39200,"station_id":"ce4bhr12rcd13ifvqhqg","pricing_plan_id":"cebpf4jnsgd1na2vs0mg"},{"bike_id":"624bc90d-c45f-482d-bd80-b3b532a9c3ad","system_id":"levelo_inurba_marseille","lat":43.29916,"lon":5.37473,"is_reserved":false,"is_disabled":false,"rental_uris":{"android":"levelo://app?vid=624bc90d-c45f-482d-bd80-b3b532a9c3ad","ios":"levelo://app?vid=624bc90d-c45f-482d-bd80-b3b532a9c3ad"},"vehicle_type_id":"4","last_reported":1738901458,"current_range_meters":30000,"station_id":"ce4bgjh2rcd13ifvqbg0","pricing_plan_id":"cebpf4jnsgd1na2vs0mg"},{"bike_id":"e2a043cb-7f4e-4514-ad08-3586114e1ffb","system_id":"levelo_inurba_marseille","lat":43.26809,"lon":5.40268,"is_reserved":false,"is_disabled":false,"rental_uris":{"android":"levelo://app?vid=e2a043cb-7f4e-4514-ad08-3586114e1ffb","ios":"levelo://app?vid=e2a043cb-7f4e-4514-ad08-3586114e1ffb"},"vehicle_type_id":"4","last_reported":1738901458,"current_range_meters":18800,"station_id":"ce501612rcd8frsf0b60","pricing_plan_id":"cebpf4jnsgd1na2vs0mg"},{"bike_id":"b91ecbae-2ee3-4ea4-8be8-ba8a9028d8ad","system_id":"levelo_inurba_marseille","lat":43.284571,"lon":5.358961,"is_reserved":false,"is_disabled":false,"rental_uris":{"android":"levelo://app?vid=b91ecbae-2ee3-4ea4-8be8-ba8a9028d8ad","ios":"levelo://app?vid=b91ecbae-2ee3-4ea4-8be8-ba8a9028d8ad"},"vehicle_type_id":"4","last_reported":1738901458,"current_range_meters":6800,"station_id":"ce4bhah2rcd13ifvqei0","pricing_plan_id":"cebpf4jnsgd1na2vs0mg"},{"bike_id":"72b0b14e-fe84-4655-af4f-a7b154c4ed28","system_id":"levelo_inurba_marseille","lat":43.32337,"lon":5.40621,"is_reserved":false,"is_disabled":false,"rental_uris":{"android":"levelo://app?vid=72b0b14e-fe84-4655-af4f-a7b154c4ed28","ios":"levelo://app?vid=72b0b14e-fe84-4655-af4f-a7b154c4ed28"},"vehicle_type_id":"4","last_reported":1738901458,"current_range_meters":16000,"station_id":"ce4bhq92rcd13ifvqhjg","pricing_plan_id":"cebpf4jnsgd1na2vs0mg"},{"bike_id":"b73937ba-05e4-41c7-8959-6f24613e2797","system_id":"levelo_inurba_marseille","lat":43.229353,"lon":5.353723,"is_reserved":false,"is_disabled":false,"rental_uris":{"android":"levelo://app?vid=b73937ba-05e4-41c7-8959-6f24613e2797","ios":"levelo://app?vid=b73937ba-05e4-41c7-8959-6f24613e2797"},"vehicle_type_id":"4","last_reported":1738901458,"current_range_meters":36000,"station_id":"cpo3532slgdg3j2ikp40","pricing_plan_id":"cebpf4jnsgd1na2vs0mg"},{"bike_id":"79ae6b56-9088-4046-9fc8-d9de23520a39","system_id":"levelo_inurba_marseille","lat":43.31484,"lon":5.37282,"is_reserved":false,"is_disabled":false,"rental_uris":{"android":"levelo://app?vid=79ae6b56-9088-4046-9fc8-d9de23520a39","ios":"levelo://app?vid=79ae6b56-9088-4046-9fc8-d9de23520a39"},"vehicle_type_id":"4","last_reported":1738901458,"current_range_meters":23200,"station_id":"ce4bgt12rcd13ifvqcd0","pricing_plan_id":"cebpf4jnsgd1na2vs0mg"},{"bike_id":"9dbc66af-ff64-41a8-a57c-5ef86f5cb77a","system_id":"levelo_inurba_marseille","lat":43.26809,"lon":5.4026,"is_reserved":false,"is_disabled":true,"rental_uris":{"android":"levelo://app?vid=9dbc66af-ff64-41a8-a57c-5ef86f5cb77a","ios":"levelo://app?vid=9dbc66af-ff64-41a8-a57c-5ef86f5cb77a"},"vehicle_type_id":"4","last_reported":1738901458,"current_range_meters":38800,"station_id":"ce501612rcd8frsf0b60","pricing_plan_id":"cebpf4jnsgd1na2vs0mg"},{"bike_id":"ab54e2d0-4c2c-486a-84c7-811ed9008ddc","system_id":"levelo_inurba_marseille","lat":43.278585,"lon":5.425438,"is_reserved":false,"is_disabled":true,"rental_uris":{"android":"levelo://app?vid=ab54e2d0-4c2c-486a-84c7-811ed9008ddc","ios":"levelo://app?vid=ab54e2d0-4c2c-486a-84c7-811ed9008ddc"},"vehicle_type_id":"4","last_reported":1738901458,"current_range_meters":1200,"station_id":"","pricing_plan_id":"cebpf4jnsgd1na2vs0mg"},{"bike_id":"f1e9399a-c62d-4210-bc5f-f431eced8b39","system_id":"levelo_inurba_marseille","lat":43.323619,"lon":5.367644,"is_reserved":false,"is_disabled":false,"rental_uris":{"android":"levelo://app?vid=f1e9399a-c62d-4210-bc5f-f431eced8b39","ios":"levelo://app?vid=f1e9399a-c62d-4210-bc5f-f431eced8b39"},"vehicle_type_id":"4","last_reported":1738901458,"current_range_meters":8400,"station_id":"ce4bhsh2rcd13ifvqi2g","pricing_plan_id":"cebpf4jnsgd1na2vs0mg"},{"bike_id":"fae5ed03-2be2-4e2f-ae1a-9dae265ccade","system_id":"levelo_inurba_marseille","lat":43.32375,"lon":5.38883,"is_reserved":false,"is_disabled":false,"rental_uris":{"android":"levelo://app?vid=fae5ed03-2be2-4e2f-ae1a-9dae265ccade","ios":"levelo://app?vid=fae5ed03-2be2-4e2f-ae1a-9dae265ccade"},"vehicle_type_id":"4","last_reported":1738901458,"current_range_meters":19600,"station_id":"ce4bhqp2rcd13ifvqhog","pricing_plan_id":"cebpf4jnsgd1na2vs0mg"},{"bike_id":"dfa7fb51-d12d-44df-86c4-a60081578943","system_id":"levelo_inurba_marseille","lat":43.30201,"lon":5.39455,"is_reserved":false,"is_disabled":false,"rental_uris":{"android":"levelo://app?vid=dfa7fb51-d12d-44df-86c4-a60081578943","ios":"levelo://app?vid=dfa7fb51-d12d-44df-86c4-a60081578943"},"vehicle_type_id":"4","last_reported":1738901458,"current_range_meters":30000,"station_id":"ce4bh0p2rcd13ifvqd70","pricing_plan_id":"cebpf4jnsgd1na2vs0mg"},{"bike_id":"e539e183-c0f1-49ba-8dd6-c6872560b272","system_id":"levelo_inurba_marseille","lat":43.33606,"lon":5.41026,"is_reserved":false,"is_disabled":false,"rental_uris":{"android":"levelo://app?vid=e539e183-c0f1-49ba-8dd6-c6872560b272","ios":"levelo://app?vid=e539e183-c0f1-49ba-8dd6-c6872560b272"},"vehicle_type_id":"4","last_reported":1738901458,"current_range_meters":39200,"station_id":"ce4bhqh2rcd13ifvqhmg","pricing_plan_id":"cebpf4jnsgd1na2vs0mg"},{"bike_id":"7c987a3c-e560-4ba4-88b2-cf547d7283d6","system_id":"levelo_inurba_marseille","lat":43.287062,"lon":5.399719,"is_reserved":false,"is_disabled":false,"rental_uris":{"android":"levelo://app?vid=7c987a3c-e560-4ba4-88b2-cf547d7283d6","ios":"levelo://app?vid=7c987a3c-e560-4ba4-88b2-cf547d7283d6"},"vehicle_type_id":"4","last_reported":1738901458,"current_range_meters":38800,"station_id":"ce4bho92rcd13ifvqh3g","pricing_plan_id":"cebpf4jnsgd1na2vs0mg"},{"bike_id":"58913607-3d23-4376-841b-881c1361d437","system_id":"levelo_inurba_marseille","lat":43.313288,"lon":5.396843,"is_reserved":false,"is_disabled":false,"rental_uris":{"android":"levelo://app?vid=58913607-3d23-4376-841b-881c1361d437","ios":"levelo://app?vid=58913607-3d23-4376-841b-881c1361d437"},"vehicle_type_id":"4","last_reported":1738901458,"current_range_meters":18000,"station_id":"ce4bgvp2rcd13ifvqcu0","pricing_plan_id":"cebpf4jnsgd1na2vs0mg"},{"bike_id":"363f89dc-7a31-4716-bf7c-5e8b960f961f","system_id":"levelo_inurba_marseille","lat":43.31088,"lon":5.42425,"is_reserved":false,"is_disabled":false,"rental_uris":{"android":"levelo://app?vid=363f89dc-7a31-4716-bf7c-5e8b960f961f","ios":"levelo://app?vid=363f89dc-7a31-4716-bf7c-5e8b960f961f"},"vehicle_type_id":"4","last_reported":1738901458,"current_range_meters":39200,"station_id":"ce4bhp92rcd13ifvqhag","pricing_plan_id":"cebpf4jnsgd1na2vs0mg"},{"bike_id":"830d7107-636e-4156-9051-ab563c81092e","system_id":"levelo_inurba_marseille","lat":43.27082,"lon":5.42268,"is_reserved":false,"is_disabled":false,"rental_uris":{"android":"levelo://app?vid=830d7107-636e-4156-9051-ab563c81092e","ios":"levelo://app?vid=830d7107-636e-4156-9051-ab563c81092e"},"vehicle_type_id":"4","last_reported":1738901458,"current_range_meters":38800,"station_id":"ce4bhk92rcd13ifvqgb0","pricing_plan_id":"cebpf4jnsgd1na2vs0mg"},{"bike_id":"e64fbf1c-2902-49e1-8aec-34168545bad4","system_id":"levelo_inurba_marseille","lat":43.30593,"lon":5.39353,"is_reserved":false,"is_disabled":false,"rental_uris":{"android":"levelo://app?vid=e64fbf1c-2902-49e1-8aec-34168545bad4","ios":"levelo://app?vid=e64fbf1c-2902-49e1-8aec-34168545bad4"},"vehicle_type_id":"4","last_reported":1738901458,"current_range_meters":23200,"station_id":"ce4bh0p2rcd13ifvqd80","pricing_plan_id":"cebpf4jnsgd1na2vs0mg"},{"bike_id":"b8829ab2-1487-4b8c-ae59-08c14afad745","system_id":"levelo_inurba_marseille","lat":43.323634,"lon":5.388871,"is_reserved":false,"is_disabled":false,"rental_uris":{"android":"levelo://app?vid=b8829ab2-1487-4b8c-ae59-08c14afad745","ios":"levelo://app?vid=b8829ab2-1487-4b8c-ae59-08c14afad745"},"vehicle_type_id":"4","last_reported":1738901458,"current_range_meters":21600,"station_id":"ce4bhqp2rcd13ifvqhog","pricing_plan_id":"cebpf4jnsgd1na2vs0mg"},{"bike_id":"3784dcf0-b4bb-4913-bc73-18b71169c3c8","system_id":"levelo_inurba_marseille","lat":43.311583,"lon":5.387186,"is_reserved":false,"is_disabled":false,"rental_uris":{"android":"levelo://app?vid=3784dcf0-b4bb-4913-bc73-18b71169c3c8","ios":"levelo://app?vid=3784dcf0-b4bb-4913-bc73-18b71169c3c8"},"vehicle_type_id":"4","last_reported":1738901458,"current_range_meters":39200,"station_id":"ce4bgv12rcd13ifvqcp0","pricing_plan_id":"cebpf4jnsgd1na2vs0mg"},{"bike_id":"1aafd4aa-ba2a-4c94-bc8a-0a2b42d0be90","system_id":"levelo_inurba_marseille","lat":43.27806,"lon":5.40715,"is_reserved":false,"is_disabled":false,"rental_uris":{"android":"levelo://app?vid=1aafd4aa-ba2a-4c94-bc8a-0a2b42d0be90","ios":"levelo://app?vid=1aafd4aa-ba2a-4c94-bc8a-0a2b42d0be90"},"vehicle_type_id":"4","last_reported":1738901458,"current_range_meters":9200,"station_id":"ce4bhnh2rcd13ifvqgtg","pricing_plan_id":"cebpf4jnsgd1na2vs0mg"},{"bike_id":"99edfd39-ea2c-4152-9a67-579e3aa4a733","system_id":"levelo_inurba_marseille","lat":43.23992,"lon":5.36637,"is_reserved":false,"is_disabled":false,"rental_uris":{"android":"levelo://app?vid=99edfd39-ea2c-4152-9a67-579e3aa4a733","ios":"levelo://app?vid=99edfd39-ea2c-4152-9a67-579e3aa4a733"},"vehicle_type_id":"4","last_reported":1738901458,"current_range_meters":38800,"station_id":"ce4bhi12rcd13ifvqfp0","pricing_plan_id":"cebpf4jnsgd1na2vs0mg"},{"bike_id":"7e0a60ce-56f2-46c7-a8ff-d1dbf7a0fbdd","system_id":"levelo_inurba_marseille","lat":43.28109,"lon":5.37858,"is_reserved":false,"is_disabled":false,"rental_uris":{"android":"levelo://app?vid=7e0a60ce-56f2-46c7-a8ff-d1dbf7a0fbdd","ios":"levelo://app?vid=7e0a60ce-56f2-46c7-a8ff-d1dbf7a0fbdd"},"vehicle_type_id":"4","last_reported":1738901458,"current_range_meters":32000,"station_id":"ce4bha12rcd13ifvqee0","pricing_plan_id":"cebpf4jnsgd1na2vs0mg"},{"bike_id":"c177e5ae-988b-457d-916b-169ad0276669","system_id":"levelo_inurba_marseille","lat":43.322849,"lon":5.382785,"is_reserved":false,"is_disabled":false,"rental_uris":{"android":"levelo://app?vid=c177e5ae-988b-457d-916b-169ad0276669","ios":"levelo://app?vid=c177e5ae-988b-457d-916b-169ad0276669"},"vehicle_type_id":"4","last_reported":1738901458,"current_range_meters":38800,"station_id":"ce4bhr12rcd13ifvqhqg","pricing_plan_id":"cebpf4jnsgd1na2vs0mg"},{"bike_id":"89ef4b0e-9935-40a8-b11a-d7c8da41f1e5","system_id":"levelo_inurba_marseille","lat":43.28729,"lon":5.36077,"is_reserved":false,"is_disabled":false,"rental_uris":{"android":"levelo://app?vid=89ef4b0e-9935-40a8-b11a-d7c8da41f1e5","ios":"levelo://app?vid=89ef4b0e-9935-40a8-b11a-d7c8da41f1e5"},"vehicle_type_id":"4","last_reported":1738901458,"current_range_meters":38800,"station_id":"cki0cbj6b192h4jlfktg","pricing_plan_id":"cebpf4jnsgd1na2vs0mg"},{"bike_id":"6b24478e-a214-4780-851e-b37e547eeccc","system_id":"levelo_inurba_marseille","lat":43.310709,"lon":5.383524,"is_reserved":false,"is_disabled":false,"rental_uris":{"android":"levelo://app?vid=6b24478e-a214-4780-851e-b37e547eeccc","ios":"levelo://app?vid=6b24478e-a214-4780-851e-b37e547eeccc"},"vehicle_type_id":"4","last_reported":1738901458,"current_range_meters":36400,"station_id":"ce4bgv92rcd13ifvqcr0","pricing_plan_id":"cebpf4jnsgd1na2vs0mg"},{"bike_id":"460a2c6a-4546-44dc-8ecc-8911c5910d4f","system_id":"levelo_inurba_marseille","lat":43.30412,"lon":5.41269,"is_reserved":false,"is_disabled":false,"rental_uris":{"android":"levelo://app?vid=460a2c6a-4546-44dc-8ecc-8911c5910d4f","ios":"levelo://app?vid=460a2c6a-4546-44dc-8ecc-8911c5910d4f"},"vehicle_type_id":"4","last_reported":1738901458,"current_range_meters":29600,"station_id":"ce4bhop2rcd13ifvqh8g","pricing_plan_id":"cebpf4jnsgd1na2vs0mg"},{"bike_id":"2f535ffb-9bc2-4dde-9b85-3de63a9865f2","system_id":"levelo_inurba_marseille","lat":43.27836,"lon":5.39215,"is_reserved":false,"is_disabled":true,"rental_uris":{"android":"levelo://app?vid=2f535ffb-9bc2-4dde-9b85-3de63a9865f2","ios":"levelo://app?vid=2f535ffb-9bc2-4dde-9b85-3de63a9865f2"},"vehicle_type_id":"4","last_reported":1738901458,"current_range_meters":38400,"station_id":"ce4bhjp2rcd13ifvqga0","pricing_plan_id":"cebpf4jnsgd1na2vs0mg"},{"bike_id":"c346e4c9-1ee3-4421-9c09-d77a597ffa19","system_id":"levelo_inurba_marseille","lat":43.26811,"lon":5.40266,"is_reserved":false,"is_disabled":false,"rental_uris":{"android":"levelo://app?vid=c346e4c9-1ee3-4421-9c09-d77a597ffa19","ios":"levelo://app?vid=c346e4c9-1ee3-4421-9c09-d77a597ffa19"},"vehicle_type_id":"4","last_reported":1738901458,"current_range_meters":38800,"station_id":"ce501612rcd8frsf0b60","pricing_plan_id":"cebpf4jnsgd1na2vs0mg"},{"bike_id":"3958c539-5ce4-4e3d-87f8-7bd36b77c479","system_id":"levelo_inurba_marseille","lat":43.280771,"lon":5.396579,"is_reserved":false,"is_disabled":false,"rental_uris":{"android":"levelo://app?vid=3958c539-5ce4-4e3d-87f8-7bd36b77c479","ios":"levelo://app?vid=3958c539-5ce4-4e3d-87f8-7bd36b77c479"},"vehicle_type_id":"4","last_reported":1738901458,"current_range_meters":30800,"station_id":"ce4bho12rcd13ifvqh2g","pricing_plan_id":"cebpf4jnsgd1na2vs0mg"},{"bike_id":"78904179-10fb-4f20-8673-0f80f1918d46","system_id":"levelo_inurba_marseille","lat":43.262273,"lon":5.404584,"is_reserved":false,"is_disabled":false,"rental_uris":{"android":"levelo://app?vid=78904179-10fb-4f20-8673-0f80f1918d46","ios":"levelo://app?vid=78904179-10fb-4f20-8673-0f80f1918d46"},"vehicle_type_id":"4","last_reported":1738901458,"current_range_meters":22000,"station_id":"ce4bhmh2rcd13ifvqgmg","pricing_plan_id":"cebpf4jnsgd1na2vs0mg"},{"bike_id":"f2a6e5d8-1009-48da-9b5a-8de9b36e0c59","system_id":"levelo_inurba_marseille","lat":43.308854,"lon":5.396489,"is_reserved":false,"is_disabled":false,"rental_uris":{"android":"levelo://app?vid=f2a6e5d8-1009-48da-9b5a-8de9b36e0c59","ios":"levelo://app?vid=f2a6e5d8-1009-48da-9b5a-8de9b36e0c59"},"vehicle_type_id":"4","last_reported":1738901458,"current_range_meters":31200,"station_id":"ce4bh012rcd13ifvqcv0","pricing_plan_id":"cebpf4jnsgd1na2vs0mg"},{"bike_id":"2faa540b-2f6c-47df-8a95-947fe3997d2b","system_id":"levelo_inurba_marseille","lat":43.30794,"lon":5.38166,"is_reserved":false,"is_disabled":false,"rental_uris":{"android":"levelo://app?vid=2faa540b-2f6c-47df-8a95-947fe3997d2b","ios":"levelo://app?vid=2faa540b-2f6c-47df-8a95-947fe3997d2b"},"vehicle_type_id":"4","last_reported":1738901458,"current_range_meters":7200,"station_id":"ce4bgt12rcd13ifvqce0","pricing_plan_id":"cebpf4jnsgd1na2vs0mg"},{"bike_id":"986d7831-fd5e-41e7-abee-56e4ba622ab1","system_id":"levelo_inurba_marseille","lat":43.241736,"lon":5.397336,"is_reserved":false,"is_disabled":false,"rental_uris":{"android":"levelo://app?vid=986d7831-fd5e-41e7-abee-56e4ba622ab1","ios":"levelo://app?vid=986d7831-fd5e-41e7-abee-56e4ba622ab1"},"vehicle_type_id":"4","last_reported":1738901458,"current_range_meters":38800,"station_id":"ce4bhn12rcd13ifvqgpg","pricing_plan_id":"cebpf4jnsgd1na2vs0mg"},{"bike_id":"ca794b48-fdc6-4162-b82c-a5ed2314fce3","system_id":"levelo_inurba_marseille","lat":43.282673,"lon":5.350804,"is_reserved":false,"is_disabled":false,"rental_uris":{"android":"levelo://app?vid=ca794b48-fdc6-4162-b82c-a5ed2314fce3","ios":"levelo://app?vid=ca794b48-fdc6-4162-b82c-a5ed2314fce3"},"vehicle_type_id":"4","last_reported":1738901458,"current_range_meters":38800,"station_id":"ce4bhbp2rcd13ifvqerg","pricing_plan_id":"cebpf4jnsgd1na2vs0mg"},{"bike_id":"7b96dd35-2794-4642-b120-8c59e5b666f3","system_id":"levelo_inurba_marseille","lat":43.29265,"lon":5.40885,"is_reserved":false,"is_disabled":false,"rental_uris":{"android":"levelo://app?vid=7b96dd35-2794-4642-b120-8c59e5b666f3","ios":"levelo://app?vid=7b96dd35-2794-4642-b120-8c59e5b666f3"},"vehicle_type_id":"4","last_reported":1738901458,"current_range_meters":19200,"station_id":"ce4bh192rcd13ifvqdc0","pricing_plan_id":"cebpf4jnsgd1na2vs0mg"},{"bike_id":"6ae9536b-b876-4434-afdc-d08881b5e652","system_id":"levelo_inurba_marseille","lat":43.28702,"lon":5.39998,"is_reserved":false,"is_disabled":false,"rental_uris":{"android":"levelo://app?vid=6ae9536b-b876-4434-afdc-d08881b5e652","ios":"levelo://app?vid=6ae9536b-b876-4434-afdc-d08881b5e652"},"vehicle_type_id":"4","last_reported":1738901458,"current_range_meters":18800,"station_id":"ce4bho92rcd13ifvqh3g","pricing_plan_id":"cebpf4jnsgd1na2vs0mg"},{"bike_id":"f67b7531-6c63-4f46-a9d4-4fdf588facb0","system_id":"levelo_inurba_marseille","lat":43.27885,"lon":5.40592,"is_reserved":false,"is_disabled":true,"rental_uris":{"android":"levelo://app?vid=f67b7531-6c63-4f46-a9d4-4fdf588facb0","ios":"levelo://app?vid=f67b7531-6c63-4f46-a9d4-4fdf588facb0"},"vehicle_type_id":"4","last_reported":1738901458,"current_range_meters":1200,"station_id":"","pricing_plan_id":"cebpf4jnsgd1na2vs0mg"},{"bike_id":"5b315d15-7d77-41e2-9277-a2e303e77c97","system_id":"levelo_inurba_marseille","lat":43.24799,"lon":5.37453,"is_reserved":false,"is_disabled":false,"rental_uris":{"android":"levelo://app?vid=5b315d15-7d77-41e2-9277-a2e303e77c97","ios":"levelo://app?vid=5b315d15-7d77-41e2-9277-a2e303e77c97"},"vehicle_type_id":"4","last_reported":1738901458,"current_range_meters":32400,"station_id":"ce4bhgh2rcd13ifvqfb0","pricing_plan_id":"cebpf4jnsgd1na2vs0mg"},{"bike_id":"ccc0d99a-4f06-4847-88ea-bfbf26a9a708","system_id":"levelo_inurba_marseille","lat":43.27376,"lon":5.36271,"is_reserved":false,"is_disabled":false,"rental_uris":{"android":"levelo://app?vid=ccc0d99a-4f06-4847-88ea-bfbf26a9a708","ios":"levelo://app?vid=ccc0d99a-4f06-4847-88ea-bfbf26a9a708"},"vehicle_type_id":"4","last_reported":1738901458,"current_range_meters":38800,"station_id":"ce4bhbh2rcd13ifvqeo0","pricing_plan_id":"cebpf4jnsgd1na2vs0mg"},{"bike_id":"14a0b7ad-3cf3-4b7e-a70e-d21d7b4a17ca","system_id":"levelo_inurba_marseille","lat":43.27997,"lon":5.40012,"is_reserved":false,"is_disabled":false,"rental_uris":{"android":"levelo://app?vid=14a0b7ad-3cf3-4b7e-a70e-d21d7b4a17ca","ios":"levelo://app?vid=14a0b7ad-3cf3-4b7e-a70e-d21d7b4a17ca"},"vehicle_type_id":"4","last_reported":1738901458,"current_range_meters":22800,"station_id":"ce4bho92rcd13ifvqh4g","pricing_plan_id":"cebpf4jnsgd1na2vs0mg"},{"bike_id":"d90800d2-0b28-4666-b04d-68e5f6c3e9ab","system_id":"levelo_inurba_marseille","lat":43.231921,"lon":5.399922,"is_reserved":false,"is_disabled":false,"rental_uris":{"android":"levelo://app?vid=d90800d2-0b28-4666-b04d-68e5f6c3e9ab","ios":"levelo://app?vid=d90800d2-0b28-4666-b04d-68e5f6c3e9ab"},"vehicle_type_id":"4","last_reported":1738901458,"current_range_meters":38000,"station_id":"ce4bhn12rcd13ifvqgqg","pricing_plan_id":"cebpf4jnsgd1na2vs0mg"},{"bike_id":"39afda70-1124-4507-b974-04c653198903","system_id":"levelo_inurba_marseille","lat":43.30637,"lon":5.40076,"is_reserved":false,"is_disabled":false,"rental_uris":{"android":"levelo://app?vid=39afda70-1124-4507-b974-04c653198903","ios":"levelo://app?vid=39afda70-1124-4507-b974-04c653198903"},"vehicle_type_id":"4","last_reported":1738901458,"current_range_meters":17600,"station_id":"ce4bh112rcd13ifvqda0","pricing_plan_id":"cebpf4jnsgd1na2vs0mg"},{"bike_id":"f3e42e0e-b7e4-42f9-9d92-a9c490f4f28d","system_id":"levelo_inurba_marseille","lat":43.308934,"lon":5.396522,"is_reserved":false,"is_disabled":false,"rental_uris":{"android":"levelo://app?vid=f3e42e0e-b7e4-42f9-9d92-a9c490f4f28d","ios":"levelo://app?vid=f3e42e0e-b7e4-42f9-9d92-a9c490f4f28d"},"vehicle_type_id":"4","last_reported":1738901458,"current_range_meters":20000,"station_id":"ce4bh012rcd13ifvqcv0","pricing_plan_id":"cebpf4jnsgd1na2vs0mg"},{"bike_id":"a4311de4-8968-499a-8320-d7407b1f253e","system_id":"levelo_inurba_marseille","lat":43.30201,"lon":5.39469,"is_reserved":false,"is_disabled":false,"rental_uris":{"android":"levelo://app?vid=a4311de4-8968-499a-8320-d7407b1f253e","ios":"levelo://app?vid=a4311de4-8968-499a-8320-d7407b1f253e"},"vehicle_type_id":"4","last_reported":1738901458,"current_range_meters":12000,"station_id":"ce4bh0p2rcd13ifvqd70","pricing_plan_id":"cebpf4jnsgd1na2vs0mg"},{"bike_id":"55c531ba-cb99-413a-81f9-84f3b3d5979e","system_id":"levelo_inurba_marseille","lat":43.22931,"lon":5.353794,"is_reserved":false,"is_disabled":false,"rental_uris":{"android":"levelo://app?vid=55c531ba-cb99-413a-81f9-84f3b3d5979e","ios":"levelo://app?vid=55c531ba-cb99-413a-81f9-84f3b3d5979e"},"vehicle_type_id":"4","last_reported":1738901458,"current_range_meters":26800,"station_id":"cpo3532slgdg3j2ikp40","pricing_plan_id":"cebpf4jnsgd1na2vs0mg"},{"bike_id":"2a241f65-655e-4bd9-94d9-88d62fd5790f","system_id":"levelo_inurba_marseille","lat":43.294492,"lon":5.397473,"is_reserved":false,"is_disabled":false,"rental_uris":{"android":"levelo://app?vid=2a241f65-655e-4bd9-94d9-88d62fd5790f","ios":"levelo://app?vid=2a241f65-655e-4bd9-94d9-88d62fd5790f"},"vehicle_type_id":"4","last_reported":1738901458,"current_range_meters":38800,"station_id":"ce4bh3h2rcd13ifvqdo0","pricing_plan_id":"cebpf4jnsgd1na2vs0mg"},{"bike_id":"4d6c931f-72da-462d-8d3e-100511fce5c7","system_id":"levelo_inurba_marseille","lat":43.31387,"lon":5.37184,"is_reserved":false,"is_disabled":false,"rental_uris":{"android":"levelo://app?vid=4d6c931f-72da-462d-8d3e-100511fce5c7","ios":"levelo://app?vid=4d6c931f-72da-462d-8d3e-100511fce5c7"},"vehicle_type_id":"4","last_reported":1738901458,"current_range_meters":8400,"station_id":"","pricing_plan_id":"cebpf4jnsgd1na2vs0mg"},{"bike_id":"2f50dd6b-42b7-4c8f-8db5-a6265e95d2c3","system_id":"levelo_inurba_marseille","lat":43.23965,"lon":5.36642,"is_reserved":false,"is_disabled":false,"rental_uris":{"android":"levelo://app?vid=2f50dd6b-42b7-4c8f-8db5-a6265e95d2c3","ios":"levelo://app?vid=2f50dd6b-42b7-4c8f-8db5-a6265e95d2c3"},"vehicle_type_id":"4","last_reported":1738901458,"current_range_meters":36000,"station_id":"ce4bhi12rcd13ifvqfp0","pricing_plan_id":"cebpf4jnsgd1na2vs0mg"},{"bike_id":"3b6fc1a1-1e64-4698-a113-588a2563418f","system_id":"levelo_inurba_marseille","lat":43.280324,"lon":5.369426,"is_reserved":false,"is_disabled":false,"rental_uris":{"android":"levelo://app?vid=3b6fc1a1-1e64-4698-a113-588a2563418f","ios":"levelo://app?vid=3b6fc1a1-1e64-4698-a113-588a2563418f"},"vehicle_type_id":"4","last_reported":1738901458,"current_range_meters":38800,"station_id":"ce4bha12rcd13ifvqef0","pricing_plan_id":"cebpf4jnsgd1na2vs0mg"},{"bike_id":"42b00d6b-70d0-4750-bdd2-377deb18497e","system_id":"levelo_inurba_marseille","lat":43.229286,"lon":5.353817,"is_reserved":false,"is_disabled":false,"rental_uris":{"android":"levelo://app?vid=42b00d6b-70d0-4750-bdd2-377deb18497e","ios":"levelo://app?vid=42b00d6b-70d0-4750-bdd2-377deb18497e"},"vehicle_type_id":"4","last_reported":1738901458,"current_range_meters":29600,"station_id":"cpo3532slgdg3j2ikp40","pricing_plan_id":"cebpf4jnsgd1na2vs0mg"},{"bike_id":"339a4f18-78ea-4e7f-a4c8-410d2cd87ef8","system_id":"levelo_inurba_marseille","lat":43.2769,"lon":5.38926,"is_reserved":false,"is_disabled":false,"rental_uris":{"android":"levelo://app?vid=339a4f18-78ea-4e7f-a4c8-410d2cd87ef8","ios":"levelo://app?vid=339a4f18-78ea-4e7f-a4c8-410d2cd87ef8"},"vehicle_type_id":"4","last_reported":1738901458,"current_range_meters":30400,"station_id":"ce4bhi12rcd13ifvqfo0","pricing_plan_id":"cebpf4jnsgd1na2vs0mg"},{"bike_id":"51330da2-8079-4b23-96d5-c24de9b6b5d9","system_id":"levelo_inurba_marseille","lat":43.27916,"lon":5.38015,"is_reserved":false,"is_disabled":false,"rental_uris":{"android":"levelo://app?vid=51330da2-8079-4b23-96d5-c24de9b6b5d9","ios":"levelo://app?vid=51330da2-8079-4b23-96d5-c24de9b6b5d9"},"vehicle_type_id":"4","last_reported":1738901458,"current_range_meters":38800,"station_id":"ce4bhf92rcd13ifvqf50","pricing_plan_id":"cebpf4jnsgd1na2vs0mg"},{"bike_id":"c130fff7-2faf-4f2e-82f9-62c219cfeda5","system_id":"levelo_inurba_marseille","lat":43.28174,"lon":5.42672,"is_reserved":false,"is_disabled":false,"rental_uris":{"android":"levelo://app?vid=c130fff7-2faf-4f2e-82f9-62c219cfeda5","ios":"levelo://app?vid=c130fff7-2faf-4f2e-82f9-62c219cfeda5"},"vehicle_type_id":"4","last_reported":1738901458,"current_range_meters":25600,"station_id":"ce4bhnh2rcd13ifvqgug","pricing_plan_id":"cebpf4jnsgd1na2vs0mg"},{"bike_id":"f1bbac45-5b32-4b97-b4ef-d7ee065546b1","system_id":"levelo_inurba_marseille","lat":43.260318,"lon":5.375472,"is_reserved":false,"is_disabled":false,"rental_uris":{"android":"levelo://app?vid=f1bbac45-5b32-4b97-b4ef-d7ee065546b1","ios":"levelo://app?vid=f1bbac45-5b32-4b97-b4ef-d7ee065546b1"},"vehicle_type_id":"4","last_reported":1738901458,"current_range_meters":38400,"station_id":"ce4bhgh2rcd13ifvqfa0","pricing_plan_id":"cebpf4jnsgd1na2vs0mg"},{"bike_id":"bfddda29-c6a5-427f-9426-0af31d6793a1","system_id":"levelo_inurba_marseille","lat":43.26483,"lon":5.39564,"is_reserved":false,"is_disabled":false,"rental_uris":{"android":"levelo://app?vid=bfddda29-c6a5-427f-9426-0af31d6793a1","ios":"levelo://app?vid=bfddda29-c6a5-427f-9426-0af31d6793a1"},"vehicle_type_id":"4","last_reported":1738901458,"current_range_meters":38800,"station_id":"ce4bhi12rcd13ifvqfq0","pricing_plan_id":"cebpf4jnsgd1na2vs0mg"},{"bike_id":"a36a308c-9075-4f72-b2c9-e05163d80524","system_id":"levelo_inurba_marseille","lat":43.24389,"lon":5.37049,"is_reserved":false,"is_disabled":false,"rental_uris":{"android":"levelo://app?vid=a36a308c-9075-4f72-b2c9-e05163d80524","ios":"levelo://app?vid=a36a308c-9075-4f72-b2c9-e05163d80524"},"vehicle_type_id":"4","last_reported":1738901458,"current_range_meters":38800,"station_id":"ce4bhhh2rcd13ifvqfk0","pricing_plan_id":"cebpf4jnsgd1na2vs0mg"},{"bike_id":"5eb997aa-ba06-470a-b7fd-cd40e9642b35","system_id":"levelo_inurba_marseille","lat":43.23191,"lon":5.39998,"is_reserved":false,"is_disabled":false,"rental_uris":{"android":"levelo://app?vid=5eb997aa-ba06-470a-b7fd-cd40e9642b35","ios":"levelo://app?vid=5eb997aa-ba06-470a-b7fd-cd40e9642b35"},"vehicle_type_id":"4","last_reported":1738901458,"current_range_meters":38800,"station_id":"ce4bhn12rcd13ifvqgqg","pricing_plan_id":"cebpf4jnsgd1na2vs0mg"},{"bike_id":"e97df748-9ecd-4642-9522-6e614425fe9f","system_id":"levelo_inurba_marseille","lat":43.29271,"lon":5.40903,"is_reserved":false,"is_disabled":false,"rental_uris":{"android":"levelo://app?vid=e97df748-9ecd-4642-9522-6e614425fe9f","ios":"levelo://app?vid=e97df748-9ecd-4642-9522-6e614425fe9f"},"vehicle_type_id":"4","last_reported":1738901458,"current_range_meters":22400,"station_id":"ce4bh192rcd13ifvqdc0","pricing_plan_id":"cebpf4jnsgd1na2vs0mg"},{"bike_id":"c6fc4b4a-5347-4905-8d96-67ea4d004656","system_id":"levelo_inurba_marseille","lat":43.2321,"lon":5.3553,"is_reserved":false,"is_disabled":false,"rental_uris":{"android":"levelo://app?vid=c6fc4b4a-5347-4905-8d96-67ea4d004656","ios":"levelo://app?vid=c6fc4b4a-5347-4905-8d96-67ea4d004656"},"vehicle_type_id":"4","last_reported":1738901458,"current_range_meters":12400,"station_id":"ce4bhu92rcd13ifvqi70","pricing_plan_id":"cebpf4jnsgd1na2vs0mg"},{"bike_id":"1da8b17b-ad28-4780-a711-431647c244ed","system_id":"levelo_inurba_marseille","lat":43.239587,"lon":5.366277,"is_reserved":false,"is_disabled":false,"rental_uris":{"android":"levelo://app?vid=1da8b17b-ad28-4780-a711-431647c244ed","ios":"levelo://app?vid=1da8b17b-ad28-4780-a711-431647c244ed"},"vehicle_type_id":"4","last_reported":1738901458,"current_range_meters":29600,"station_id":"ce4bhi12rcd13ifvqfp0","pricing_plan_id":"cebpf4jnsgd1na2vs0mg"},{"bike_id":"68854bc1-b7a0-4928-a0cf-9ed3864aa9b7","system_id":"levelo_inurba_marseille","lat":43.29246,"lon":5.40904,"is_reserved":false,"is_disabled":false,"rental_uris":{"android":"levelo://app?vid=68854bc1-b7a0-4928-a0cf-9ed3864aa9b7","ios":"levelo://app?vid=68854bc1-b7a0-4928-a0cf-9ed3864aa9b7"},"vehicle_type_id":"4","last_reported":1738901458,"current_range_meters":22400,"station_id":"ce4bh192rcd13ifvqdc0","pricing_plan_id":"cebpf4jnsgd1na2vs0mg"},{"bike_id":"54630ec0-92ce-4c84-ba54-45269fbd607e","system_id":"levelo_inurba_marseille","lat":43.30354,"lon":5.418646,"is_reserved":false,"is_disabled":false,"rental_uris":{"android":"levelo://app?vid=54630ec0-92ce-4c84-ba54-45269fbd607e","ios":"levelo://app?vid=54630ec0-92ce-4c84-ba54-45269fbd607e"},"vehicle_type_id":"4","last_reported":1738901458,"current_range_meters":38800,"station_id":"ce4bhop2rcd13ifvqh7g","pricing_plan_id":"cebpf4jnsgd1na2vs0mg"},{"bike_id":"a2273def-01c8-4ea0-8135-cc77a96cc8e9","system_id":"levelo_inurba_marseille","lat":43.27546,"lon":5.38447,"is_reserved":false,"is_disabled":false,"rental_uris":{"android":"levelo://app?vid=a2273def-01c8-4ea0-8135-cc77a96cc8e9","ios":"levelo://app?vid=a2273def-01c8-4ea0-8135-cc77a96cc8e9"},"vehicle_type_id":"4","last_reported":1738901458,"current_range_meters":33200,"station_id":"ce4bhh92rcd13ifvqfi0","pricing_plan_id":"cebpf4jnsgd1na2vs0mg"},{"bike_id":"f951176f-0b25-49e1-b6cb-8147ffeb7fe1","system_id":"levelo_inurba_marseille","lat":43.25123,"lon":5.40314,"is_reserved":false,"is_disabled":false,"rental_uris":{"android":"levelo://app?vid=f951176f-0b25-49e1-b6cb-8147ffeb7fe1","ios":"levelo://app?vid=f951176f-0b25-49e1-b6cb-8147ffeb7fe1"},"vehicle_type_id":"4","last_reported":1738901458,"current_range_meters":10000,"station_id":"ce4bhlh2rcd13ifvqgig","pricing_plan_id":"cebpf4jnsgd1na2vs0mg"},{"bike_id":"9f6c3130-9a23-4f9a-9652-a76a30728a40","system_id":"levelo_inurba_marseille","lat":43.27192,"lon":5.40983,"is_reserved":false,"is_disabled":false,"rental_uris":{"android":"levelo://app?vid=9f6c3130-9a23-4f9a-9652-a76a30728a40","ios":"levelo://app?vid=9f6c3130-9a23-4f9a-9652-a76a30728a40"},"vehicle_type_id":"4","last_reported":1738901458,"current_range_meters":38000,"station_id":"ce4bhl12rcd13ifvqgf0","pricing_plan_id":"cebpf4jnsgd1na2vs0mg"},{"bike_id":"dfc563d8-6bd1-4b8f-b5c4-7a9c45b79439","system_id":"levelo_inurba_marseille","lat":43.24651,"lon":5.38872,"is_reserved":false,"is_disabled":false,"rental_uris":{"android":"levelo://app?vid=dfc563d8-6bd1-4b8f-b5c4-7a9c45b79439","ios":"levelo://app?vid=dfc563d8-6bd1-4b8f-b5c4-7a9c45b79439"},"vehicle_type_id":"4","last_reported":1738901458,"current_range_meters":38800,"station_id":"ce4bhg12rcd13ifvqf60","pricing_plan_id":"cebpf4jnsgd1na2vs0mg"},{"bike_id":"c7dc24d3-8ec8-44dc-aec3-1705d3fca788","system_id":"levelo_inurba_marseille","lat":43.282681,"lon":5.350676,"is_reserved":false,"is_disabled":false,"rental_uris":{"android":"levelo://app?vid=c7dc24d3-8ec8-44dc-aec3-1705d3fca788","ios":"levelo://app?vid=c7dc24d3-8ec8-44dc-aec3-1705d3fca788"},"vehicle_type_id":"4","last_reported":1738901458,"current_range_meters":33200,"station_id":"ce4bhbp2rcd13ifvqerg","pricing_plan_id":"cebpf4jnsgd1na2vs0mg"},{"bike_id":"052b2d36-c907-44bb-894d-ed094bec64e6","system_id":"levelo_inurba_marseille","lat":43.317592,"lon":5.390208,"is_reserved":false,"is_disabled":false,"rental_uris":{"android":"levelo://app?vid=052b2d36-c907-44bb-894d-ed094bec64e6","ios":"levelo://app?vid=052b2d36-c907-44bb-894d-ed094bec64e6"},"vehicle_type_id":"4","last_reported":1738901458,"current_range_meters":38800,"station_id":"ce4bhqp2rcd13ifvqhng","pricing_plan_id":"cebpf4jnsgd1na2vs0mg"},{"bike_id":"dcce0463-4e5e-4438-8354-e0e1b070f9b1","system_id":"levelo_inurba_marseille","lat":43.308872,"lon":5.396521,"is_reserved":false,"is_disabled":false,"rental_uris":{"android":"levelo://app?vid=dcce0463-4e5e-4438-8354-e0e1b070f9b1","ios":"levelo://app?vid=dcce0463-4e5e-4438-8354-e0e1b070f9b1"},"vehicle_type_id":"4","last_reported":1738901458,"current_range_meters":14400,"station_id":"ce4bh012rcd13ifvqcv0","pricing_plan_id":"cebpf4jnsgd1na2vs0mg"},{"bike_id":"2b671ea3-0fd8-49ca-add6-64b6d7709dd0","system_id":"levelo_inurba_marseille","lat":43.313029,"lon":5.385473,"is_reserved":false,"is_disabled":false,"rental_uris":{"android":"levelo://app?vid=2b671ea3-0fd8-49ca-add6-64b6d7709dd0","ios":"levelo://app?vid=2b671ea3-0fd8-49ca-add6-64b6d7709dd0"},"vehicle_type_id":"4","last_reported":1738901458,"current_range_meters":6000,"station_id":"","pricing_plan_id":"cebpf4jnsgd1na2vs0mg"},{"bike_id":"7ff6fc17-ba92-4176-8cdb-03ec565f4a96","system_id":"levelo_inurba_marseille","lat":43.2721,"lon":5.39185,"is_reserved":false,"is_disabled":false,"rental_uris":{"android":"levelo://app?vid=7ff6fc17-ba92-4176-8cdb-03ec565f4a96","ios":"levelo://app?vid=7ff6fc17-ba92-4176-8cdb-03ec565f4a96"},"vehicle_type_id":"4","last_reported":1738901458,"current_range_meters":38400,"station_id":"ce4bhhp2rcd13ifvqfm0","pricing_plan_id":"cebpf4jnsgd1na2vs0mg"},{"bike_id":"f007c4c1-db59-4a07-8d7b-95ba9982ee49","system_id":"levelo_inurba_marseille","lat":43.33013,"lon":5.390544,"is_reserved":false,"is_disabled":false,"rental_uris":{"android":"levelo://app?vid=f007c4c1-db59-4a07-8d7b-95ba9982ee49","ios":"levelo://app?vid=f007c4c1-db59-4a07-8d7b-95ba9982ee49"},"vehicle_type_id":"4","last_reported":1738901458,"current_range_meters":37600,"station_id":"ce4bhr92rcd13ifvqhrg","pricing_plan_id":"cebpf4jnsgd1na2vs0mg"},{"bike_id":"333cd6a6-3a15-42fe-9b15-df431b499b2d","system_id":"levelo_inurba_marseille","lat":43.25816,"lon":5.39408,"is_reserved":false,"is_disabled":false,"rental_uris":{"android":"levelo://app?vid=333cd6a6-3a15-42fe-9b15-df431b499b2d","ios":"levelo://app?vid=333cd6a6-3a15-42fe-9b15-df431b499b2d"},"vehicle_type_id":"4","last_reported":1738901458,"current_range_meters":39200,"station_id":"ce4bhip2rcd13ifvqft0","pricing_plan_id":"cebpf4jnsgd1na2vs0mg"},{"bike_id":"48b06d0b-7a79-4c4a-9bef-3bde40720b51","system_id":"levelo_inurba_marseille","lat":43.330212,"lon":5.39028,"is_reserved":false,"is_disabled":false,"rental_uris":{"android":"levelo://app?vid=48b06d0b-7a79-4c4a-9bef-3bde40720b51","ios":"levelo://app?vid=48b06d0b-7a79-4c4a-9bef-3bde40720b51"},"vehicle_type_id":"4","last_reported":1738901458,"current_range_meters":38400,"station_id":"ce4bhr92rcd13ifvqhrg","pricing_plan_id":"cebpf4jnsgd1na2vs0mg"},{"bike_id":"38c47b95-ad7d-4d74-ab3c-fbd6a0ae4207","system_id":"levelo_inurba_marseille","lat":43.28413,"lon":5.37528,"is_reserved":false,"is_disabled":false,"rental_uris":{"android":"levelo://app?vid=38c47b95-ad7d-4d74-ab3c-fbd6a0ae4207","ios":"levelo://app?vid=38c47b95-ad7d-4d74-ab3c-fbd6a0ae4207"},"vehicle_type_id":"4","last_reported":1738901458,"current_range_meters":38000,"station_id":"ce4bh412rcd13ifvqds0","pricing_plan_id":"cebpf4jnsgd1na2vs0mg"},{"bike_id":"ae52fd3b-e173-4d1b-84ac-25ca67bb9a26","system_id":"levelo_inurba_marseille","lat":43.30785,"lon":5.3762,"is_reserved":false,"is_disabled":false,"rental_uris":{"android":"levelo://app?vid=ae52fd3b-e173-4d1b-84ac-25ca67bb9a26","ios":"levelo://app?vid=ae52fd3b-e173-4d1b-84ac-25ca67bb9a26"},"vehicle_type_id":"4","last_reported":1738901458,"current_range_meters":28400,"station_id":"ce4bgv92rcd13ifvqcq0","pricing_plan_id":"cebpf4jnsgd1na2vs0mg"},{"bike_id":"952b94e4-124c-4be2-82a0-af98695bf574","system_id":"levelo_inurba_marseille","lat":43.30432,"lon":5.3976,"is_reserved":false,"is_disabled":false,"rental_uris":{"android":"levelo://app?vid=952b94e4-124c-4be2-82a0-af98695bf574","ios":"levelo://app?vid=952b94e4-124c-4be2-82a0-af98695bf574"},"vehicle_type_id":"4","last_reported":1738901458,"current_range_meters":38400,"station_id":"ce4bh092rcd13ifvqd20","pricing_plan_id":"cebpf4jnsgd1na2vs0mg"},{"bike_id":"5feb2ab2-8f7e-44a2-a10b-8a1919268ea8","system_id":"levelo_inurba_marseille","lat":43.29898,"lon":5.3747,"is_reserved":false,"is_disabled":false,"rental_uris":{"android":"levelo://app?vid=5feb2ab2-8f7e-44a2-a10b-8a1919268ea8","ios":"levelo://app?vid=5feb2ab2-8f7e-44a2-a10b-8a1919268ea8"},"vehicle_type_id":"4","last_reported":1738901458,"current_range_meters":34000,"station_id":"ce4bgjh2rcd13ifvqbg0","pricing_plan_id":"cebpf4jnsgd1na2vs0mg"},{"bike_id":"da10d3b6-6e7d-4a1f-958a-0b25eceb1fc4","system_id":"levelo_inurba_marseille","lat":43.33023,"lon":5.3903,"is_reserved":false,"is_disabled":false,"rental_uris":{"android":"levelo://app?vid=da10d3b6-6e7d-4a1f-958a-0b25eceb1fc4","ios":"levelo://app?vid=da10d3b6-6e7d-4a1f-958a-0b25eceb1fc4"},"vehicle_type_id":"4","last_reported":1738901458,"current_range_meters":38800,"station_id":"ce4bhr92rcd13ifvqhrg","pricing_plan_id":"cebpf4jnsgd1na2vs0mg"},{"bike_id":"ff502147-c59e-4ff6-bd25-8b67dc6f8b4f","system_id":"levelo_inurba_marseille","lat":43.30774,"lon":5.37641,"is_reserved":false,"is_disabled":false,"rental_uris":{"android":"levelo://app?vid=ff502147-c59e-4ff6-bd25-8b67dc6f8b4f","ios":"levelo://app?vid=ff502147-c59e-4ff6-bd25-8b67dc6f8b4f"},"vehicle_type_id":"4","last_reported":1738901458,"current_range_meters":38800,"station_id":"ce4bgv92rcd13ifvqcq0","pricing_plan_id":"cebpf4jnsgd1na2vs0mg"},{"bike_id":"f469f697-c1ed-4a99-9743-608c62e37166","system_id":"levelo_inurba_marseille","lat":43.25098,"lon":5.39517,"is_reserved":false,"is_disabled":false,"rental_uris":{"android":"levelo://app?vid=f469f697-c1ed-4a99-9743-608c62e37166","ios":"levelo://app?vid=f469f697-c1ed-4a99-9743-608c62e37166"},"vehicle_type_id":"4","last_reported":1738901458,"current_range_meters":26800,"station_id":"ce4bhm12rcd13ifvqgkg","pricing_plan_id":"cebpf4jnsgd1na2vs0mg"},{"bike_id":"c26526d4-d8c1-4770-a6db-fd6cfa0533c7","system_id":"levelo_inurba_marseille","lat":43.27904,"lon":5.39584,"is_reserved":false,"is_disabled":false,"rental_uris":{"android":"levelo://app?vid=c26526d4-d8c1-4770-a6db-fd6cfa0533c7","ios":"levelo://app?vid=c26526d4-d8c1-4770-a6db-fd6cfa0533c7"},"vehicle_type_id":"4","last_reported":1738901458,"current_range_meters":11600,"station_id":"ce4bhf92rcd13ifvqf40","pricing_plan_id":"cebpf4jnsgd1na2vs0mg"},{"bike_id":"64716b89-9b18-4889-acda-7e26befdf283","system_id":"levelo_inurba_marseille","lat":43.30641,"lon":5.40074,"is_reserved":false,"is_disabled":false,"rental_uris":{"android":"levelo://app?vid=64716b89-9b18-4889-acda-7e26befdf283","ios":"levelo://app?vid=64716b89-9b18-4889-acda-7e26befdf283"},"vehicle_type_id":"4","last_reported":1738901458,"current_range_meters":24400,"station_id":"ce4bh112rcd13ifvqda0","pricing_plan_id":"cebpf4jnsgd1na2vs0mg"},{"bike_id":"dba29890-40ca-4b50-91c9-4f0773bf06b1","system_id":"levelo_inurba_marseille","lat":43.2588,"lon":5.39956,"is_reserved":false,"is_disabled":false,"rental_uris":{"android":"levelo://app?vid=dba29890-40ca-4b50-91c9-4f0773bf06b1","ios":"levelo://app?vid=dba29890-40ca-4b50-91c9-4f0773bf06b1"},"vehicle_type_id":"4","last_reported":1738901458,"current_range_meters":37600,"station_id":"ce4bhl92rcd13ifvqghg","pricing_plan_id":"cebpf4jnsgd1na2vs0mg"},{"bike_id":"087f0b3a-4aea-43b2-8ccc-2a9ed614bb2e","system_id":"levelo_inurba_marseille","lat":43.317291,"lon":5.423956,"is_reserved":false,"is_disabled":false,"rental_uris":{"android":"levelo://app?vid=087f0b3a-4aea-43b2-8ccc-2a9ed614bb2e","ios":"levelo://app?vid=087f0b3a-4aea-43b2-8ccc-2a9ed614bb2e"},"vehicle_type_id":"4","last_reported":1738901458,"current_range_meters":38800,"station_id":"ce4bhp92rcd13ifvqhbg","pricing_plan_id":"cebpf4jnsgd1na2vs0mg"},{"bike_id":"20925e3b-ee65-44f7-a826-cfa76a66c880","system_id":"levelo_inurba_marseille","lat":43.31193,"lon":5.38722,"is_reserved":false,"is_disabled":false,"rental_uris":{"android":"levelo://app?vid=20925e3b-ee65-44f7-a826-cfa76a66c880","ios":"levelo://app?vid=20925e3b-ee65-44f7-a826-cfa76a66c880"},"vehicle_type_id":"4","last_reported":1738901458,"current_range_meters":38800,"station_id":"ce4bgv12rcd13ifvqcp0","pricing_plan_id":"cebpf4jnsgd1na2vs0mg"},{"bike_id":"9c0ce03a-5b91-4a8b-a474-9dd4d17d8d50","system_id":"levelo_inurba_marseille","lat":43.265636,"lon":5.390136,"is_reserved":false,"is_disabled":true,"rental_uris":{"android":"levelo://app?vid=9c0ce03a-5b91-4a8b-a474-9dd4d17d8d50","ios":"levelo://app?vid=9c0ce03a-5b91-4a8b-a474-9dd4d17d8d50"},"vehicle_type_id":"4","last_reported":1738901458,"current_range_meters":19200,"station_id":"ce4bhe12rcd13ifvqf30","pricing_plan_id":"cebpf4jnsgd1na2vs0mg"},{"bike_id":"63bb07d6-4176-4f51-a9d7-3a44c3049736","system_id":"levelo_inurba_marseille","lat":43.25127,"lon":5.40337,"is_reserved":false,"is_disabled":false,"rental_uris":{"android":"levelo://app?vid=63bb07d6-4176-4f51-a9d7-3a44c3049736","ios":"levelo://app?vid=63bb07d6-4176-4f51-a9d7-3a44c3049736"},"vehicle_type_id":"4","last_reported":1738901458,"current_range_meters":38400,"station_id":"ce4bhlh2rcd13ifvqgig","pricing_plan_id":"cebpf4jnsgd1na2vs0mg"},{"bike_id":"d24de62b-f43d-4ee9-8636-eae3f9e1d596","system_id":"levelo_inurba_marseille","lat":43.27219,"lon":5.40985,"is_reserved":false,"is_disabled":false,"rental_uris":{"android":"levelo://app?vid=d24de62b-f43d-4ee9-8636-eae3f9e1d596","ios":"levelo://app?vid=d24de62b-f43d-4ee9-8636-eae3f9e1d596"},"vehicle_type_id":"4","last_reported":1738901458,"current_range_meters":34800,"station_id":"","pricing_plan_id":"cebpf4jnsgd1na2vs0mg"},{"bike_id":"11c65c3a-3ad6-430f-acbd-cc72bfca7b6c","system_id":"levelo_inurba_marseille","lat":43.32349,"lon":5.38889,"is_reserved":false,"is_disabled":false,"rental_uris":{"android":"levelo://app?vid=11c65c3a-3ad6-430f-acbd-cc72bfca7b6c","ios":"levelo://app?vid=11c65c3a-3ad6-430f-acbd-cc72bfca7b6c"},"vehicle_type_id":"4","last_reported":1738901458,"current_range_meters":11600,"station_id":"ce4bhqp2rcd13ifvqhog","pricing_plan_id":"cebpf4jnsgd1na2vs0mg"},{"bike_id":"b0b2e4a5-cf7b-4a0d-bb9f-3bd141029616","system_id":"levelo_inurba_marseille","lat":43.30887,"lon":5.37199,"is_reserved":false,"is_disabled":false,"rental_uris":{"android":"levelo://app?vid=b0b2e4a5-cf7b-4a0d-bb9f-3bd141029616","ios":"levelo://app?vid=b0b2e4a5-cf7b-4a0d-bb9f-3bd141029616"},"vehicle_type_id":"4","last_reported":1738901458,"current_range_meters":35600,"station_id":"ce4bguh2rcd13ifvqckg","pricing_plan_id":"cebpf4jnsgd1na2vs0mg"},{"bike_id":"6e68b5be-2a81-41c2-a350-1acd763551d1","system_id":"levelo_inurba_marseille","lat":43.30832,"lon":5.43567,"is_reserved":false,"is_disabled":false,"rental_uris":{"android":"levelo://app?vid=6e68b5be-2a81-41c2-a350-1acd763551d1","ios":"levelo://app?vid=6e68b5be-2a81-41c2-a350-1acd763551d1"},"vehicle_type_id":"4","last_reported":1738901458,"current_range_meters":38800,"station_id":"ce4bhph2rcd13ifvqheg","pricing_plan_id":"cebpf4jnsgd1na2vs0mg"},{"bike_id":"ff78e671-05ce-4676-aebd-441361c4cd13","system_id":"levelo_inurba_marseille","lat":43.330837,"lon":5.408254,"is_reserved":false,"is_disabled":false,"rental_uris":{"android":"levelo://app?vid=ff78e671-05ce-4676-aebd-441361c4cd13","ios":"levelo://app?vid=ff78e671-05ce-4676-aebd-441361c4cd13"},"vehicle_type_id":"4","last_reported":1738901458,"current_range_meters":20800,"station_id":"","pricing_plan_id":"cebpf4jnsgd1na2vs0mg"},{"bike_id":"6ab247fa-78fe-4db4-b76a-3e9b6824ff14","system_id":"levelo_inurba_marseille","lat":43.3137,"lon":5.3849,"is_reserved":false,"is_disabled":false,"rental_uris":{"android":"levelo://app?vid=6ab247fa-78fe-4db4-b76a-3e9b6824ff14","ios":"levelo://app?vid=6ab247fa-78fe-4db4-b76a-3e9b6824ff14"},"vehicle_type_id":"4","last_reported":1738901458,"current_range_meters":38800,"station_id":"ce4bgt92rcd13ifvqcf0","pricing_plan_id":"cebpf4jnsgd1na2vs0mg"},{"bike_id":"3779a6ad-c16e-4bc4-b087-4e63200e350a","system_id":"levelo_inurba_marseille","lat":43.311702,"lon":5.387084,"is_reserved":false,"is_disabled":false,"rental_uris":{"android":"levelo://app?vid=3779a6ad-c16e-4bc4-b087-4e63200e350a","ios":"levelo://app?vid=3779a6ad-c16e-4bc4-b087-4e63200e350a"},"vehicle_type_id":"4","last_reported":1738901458,"current_range_meters":14800,"station_id":"ce4bgv12rcd13ifvqcp0","pricing_plan_id":"cebpf4jnsgd1na2vs0mg"},{"bike_id":"775e7c57-7e2a-41a4-bb53-8e81069898dc","system_id":"levelo_inurba_marseille","lat":43.255795,"lon":5.382323,"is_reserved":false,"is_disabled":false,"rental_uris":{"android":"levelo://app?vid=775e7c57-7e2a-41a4-bb53-8e81069898dc","ios":"levelo://app?vid=775e7c57-7e2a-41a4-bb53-8e81069898dc"},"vehicle_type_id":"4","last_reported":1738901458,"current_range_meters":6000,"station_id":"ce4bhih2rcd13ifvqfs0","pricing_plan_id":"cebpf4jnsgd1na2vs0mg"},{"bike_id":"d15face0-5171-452d-9cda-500359f232a4","system_id":"levelo_inurba_marseille","lat":43.30425,"lon":5.39752,"is_reserved":false,"is_disabled":false,"rental_uris":{"android":"levelo://app?vid=d15face0-5171-452d-9cda-500359f232a4","ios":"levelo://app?vid=d15face0-5171-452d-9cda-500359f232a4"},"vehicle_type_id":"4","last_reported":1738901458,"current_range_meters":6800,"station_id":"ce4bh092rcd13ifvqd20","pricing_plan_id":"cebpf4jnsgd1na2vs0mg"},{"bike_id":"d550fd4d-ce46-4bcb-902c-81ccce0fecfd","system_id":"levelo_inurba_marseille","lat":43.26674,"lon":5.3827,"is_reserved":false,"is_disabled":false,"rental_uris":{"android":"levelo://app?vid=d550fd4d-ce46-4bcb-902c-81ccce0fecfd","ios":"levelo://app?vid=d550fd4d-ce46-4bcb-902c-81ccce0fecfd"},"vehicle_type_id":"4","last_reported":1738901458,"current_range_meters":37600,"station_id":"ce4bhg92rcd13ifvqf90","pricing_plan_id":"cebpf4jnsgd1na2vs0mg"},{"bike_id":"8e7425f4-635f-475e-ad34-ec174b6708f2","system_id":"levelo_inurba_marseille","lat":43.323408,"lon":5.406209,"is_reserved":false,"is_disabled":false,"rental_uris":{"android":"levelo://app?vid=8e7425f4-635f-475e-ad34-ec174b6708f2","ios":"levelo://app?vid=8e7425f4-635f-475e-ad34-ec174b6708f2"},"vehicle_type_id":"4","last_reported":1738901458,"current_range_meters":24000,"station_id":"ce4bhq92rcd13ifvqhjg","pricing_plan_id":"cebpf4jnsgd1na2vs0mg"},{"bike_id":"f8e1016a-0438-4d8c-9a4d-787693c9c165","system_id":"levelo_inurba_marseille","lat":43.288473,"lon":5.358534,"is_reserved":false,"is_disabled":false,"rental_uris":{"android":"levelo://app?vid=f8e1016a-0438-4d8c-9a4d-787693c9c165","ios":"levelo://app?vid=f8e1016a-0438-4d8c-9a4d-787693c9c165"},"vehicle_type_id":"4","last_reported":1738901458,"current_range_meters":29600,"station_id":"ce4bhb12rcd13ifvqem0","pricing_plan_id":"cebpf4jnsgd1na2vs0mg"},{"bike_id":"70680240-c0ce-4c00-ba26-bfa78895a67c","system_id":"levelo_inurba_marseille","lat":43.28609,"lon":5.37058,"is_reserved":false,"is_disabled":true,"rental_uris":{"android":"levelo://app?vid=70680240-c0ce-4c00-ba26-bfa78895a67c","ios":"levelo://app?vid=70680240-c0ce-4c00-ba26-bfa78895a67c"},"vehicle_type_id":"4","last_reported":1738901458,"current_range_meters":38400,"station_id":"ce4bht12rcd13ifvqi60","pricing_plan_id":"cebpf4jnsgd1na2vs0mg"},{"bike_id":"b5316ca8-d1c7-47a7-bb86-084028ef9e5d","system_id":"levelo_inurba_marseille","lat":43.29033,"lon":5.35919,"is_reserved":false,"is_disabled":false,"rental_uris":{"android":"levelo://app?vid=b5316ca8-d1c7-47a7-bb86-084028ef9e5d","ios":"levelo://app?vid=b5316ca8-d1c7-47a7-bb86-084028ef9e5d"},"vehicle_type_id":"4","last_reported":1738901458,"current_range_meters":38800,"station_id":"ce4bha92rcd13ifvqeg0","pricing_plan_id":"cebpf4jnsgd1na2vs0mg"},{"bike_id":"ef9b62b4-8d02-4e23-970e-3e7fcb88040b","system_id":"levelo_inurba_marseille","lat":43.26231,"lon":5.38823,"is_reserved":false,"is_disabled":false,"rental_uris":{"android":"levelo://app?vid=ef9b62b4-8d02-4e23-970e-3e7fcb88040b","ios":"levelo://app?vid=ef9b62b4-8d02-4e23-970e-3e7fcb88040b"},"vehicle_type_id":"4","last_reported":1738901458,"current_range_meters":12400,"station_id":"","pricing_plan_id":"cebpf4jnsgd1na2vs0mg"},{"bike_id":"e385d642-48aa-4e8d-9486-5f57838c0307","system_id":"levelo_inurba_marseille","lat":43.30368,"lon":5.41877,"is_reserved":false,"is_disabled":false,"rental_uris":{"android":"levelo://app?vid=e385d642-48aa-4e8d-9486-5f57838c0307","ios":"levelo://app?vid=e385d642-48aa-4e8d-9486-5f57838c0307"},"vehicle_type_id":"4","last_reported":1738901458,"current_range_meters":38000,"station_id":"ce4bhop2rcd13ifvqh7g","pricing_plan_id":"cebpf4jnsgd1na2vs0mg"},{"bike_id":"79a11ae0-6cda-4176-9dd3-b71924088580","system_id":"levelo_inurba_marseille","lat":43.27826,"lon":5.40737,"is_reserved":false,"is_disabled":false,"rental_uris":{"android":"levelo://app?vid=79a11ae0-6cda-4176-9dd3-b71924088580","ios":"levelo://app?vid=79a11ae0-6cda-4176-9dd3-b71924088580"},"vehicle_type_id":"4","last_reported":1738901458,"current_range_meters":38800,"station_id":"ce4bhnh2rcd13ifvqgtg","pricing_plan_id":"cebpf4jnsgd1na2vs0mg"},{"bike_id":"8dc0b4e5-9b7e-494d-a544-2c50f0f2f820","system_id":"levelo_inurba_marseille","lat":43.31877,"lon":5.40724,"is_reserved":false,"is_disabled":false,"rental_uris":{"android":"levelo://app?vid=8dc0b4e5-9b7e-494d-a544-2c50f0f2f820","ios":"levelo://app?vid=8dc0b4e5-9b7e-494d-a544-2c50f0f2f820"},"vehicle_type_id":"4","last_reported":1738901458,"current_range_meters":38800,"station_id":"ce4bhq12rcd13ifvqhig","pricing_plan_id":"cebpf4jnsgd1na2vs0mg"},{"bike_id":"e0c0d5bd-2c3b-46d9-9a6c-42bde9a7c747","system_id":"levelo_inurba_marseille","lat":43.28152,"lon":5.42638,"is_reserved":false,"is_disabled":false,"rental_uris":{"android":"levelo://app?vid=e0c0d5bd-2c3b-46d9-9a6c-42bde9a7c747","ios":"levelo://app?vid=e0c0d5bd-2c3b-46d9-9a6c-42bde9a7c747"},"vehicle_type_id":"4","last_reported":1738901458,"current_range_meters":9600,"station_id":"ce4bhnh2rcd13ifvqgug","pricing_plan_id":"cebpf4jnsgd1na2vs0mg"},{"bike_id":"898b7ad8-1361-4d2a-940d-2d317ef768db","system_id":"levelo_inurba_marseille","lat":43.30921,"lon":5.40145,"is_reserved":false,"is_disabled":false,"rental_uris":{"android":"levelo://app?vid=898b7ad8-1361-4d2a-940d-2d317ef768db","ios":"levelo://app?vid=898b7ad8-1361-4d2a-940d-2d317ef768db"},"vehicle_type_id":"4","last_reported":1738901458,"current_range_meters":12800,"station_id":"ce4bgvp2rcd13ifvqct0","pricing_plan_id":"cebpf4jnsgd1na2vs0mg"},{"bike_id":"9d73ece6-464c-4a09-aea1-82a41c868b9e","system_id":"levelo_inurba_marseille","lat":43.25109,"lon":5.40324,"is_reserved":false,"is_disabled":false,"rental_uris":{"android":"levelo://app?vid=9d73ece6-464c-4a09-aea1-82a41c868b9e","ios":"levelo://app?vid=9d73ece6-464c-4a09-aea1-82a41c868b9e"},"vehicle_type_id":"4","last_reported":1738901458,"current_range_meters":28000,"station_id":"ce4bhlh2rcd13ifvqgig","pricing_plan_id":"cebpf4jnsgd1na2vs0mg"},{"bike_id":"550d392b-7589-420f-bc4e-bf34dd38b83a","system_id":"levelo_inurba_marseille","lat":43.27953,"lon":5.41037,"is_reserved":false,"is_disabled":false,"rental_uris":{"android":"levelo://app?vid=550d392b-7589-420f-bc4e-bf34dd38b83a","ios":"levelo://app?vid=550d392b-7589-420f-bc4e-bf34dd38b83a"},"vehicle_type_id":"4","last_reported":1738901458,"current_range_meters":6800,"station_id":"ce4bhnp2rcd13ifvqh0g","pricing_plan_id":"cebpf4jnsgd1na2vs0mg"},{"bike_id":"61fa4b26-20c8-466a-9fd1-66899d5ff713","system_id":"levelo_inurba_marseille","lat":43.32339,"lon":5.40634,"is_reserved":false,"is_disabled":false,"rental_uris":{"android":"levelo://app?vid=61fa4b26-20c8-466a-9fd1-66899d5ff713","ios":"levelo://app?vid=61fa4b26-20c8-466a-9fd1-66899d5ff713"},"vehicle_type_id":"4","last_reported":1738901458,"current_range_meters":24800,"station_id":"ce4bhq92rcd13ifvqhjg","pricing_plan_id":"cebpf4jnsgd1na2vs0mg"},{"bike_id":"7bc2d4b6-7844-46be-a947-040b3c3e100d","system_id":"levelo_inurba_marseille","lat":43.27908,"lon":5.39582,"is_reserved":false,"is_disabled":false,"rental_uris":{"android":"levelo://app?vid=7bc2d4b6-7844-46be-a947-040b3c3e100d","ios":"levelo://app?vid=7bc2d4b6-7844-46be-a947-040b3c3e100d"},"vehicle_type_id":"4","last_reported":1738901458,"current_range_meters":37600,"station_id":"ce4bhf92rcd13ifvqf40","pricing_plan_id":"cebpf4jnsgd1na2vs0mg"},{"bike_id":"254048ed-538f-43db-8dbf-2f9d8ee68a52","system_id":"levelo_inurba_marseille","lat":43.272,"lon":5.40962,"is_reserved":false,"is_disabled":false,"rental_uris":{"android":"levelo://app?vid=254048ed-538f-43db-8dbf-2f9d8ee68a52","ios":"levelo://app?vid=254048ed-538f-43db-8dbf-2f9d8ee68a52"},"vehicle_type_id":"4","last_reported":1738901458,"current_range_meters":36000,"station_id":"ce4bhl12rcd13ifvqgf0","pricing_plan_id":"cebpf4jnsgd1na2vs0mg"},{"bike_id":"1e6bd623-b9e9-4650-9f6f-8b4d5252096e","system_id":"levelo_inurba_marseille","lat":43.30791,"lon":5.43525,"is_reserved":false,"is_disabled":false,"rental_uris":{"android":"levelo://app?vid=1e6bd623-b9e9-4650-9f6f-8b4d5252096e","ios":"levelo://app?vid=1e6bd623-b9e9-4650-9f6f-8b4d5252096e"},"vehicle_type_id":"4","last_reported":1738901458,"current_range_meters":38800,"station_id":"ce4bhph2rcd13ifvqheg","pricing_plan_id":"cebpf4jnsgd1na2vs0mg"},{"bike_id":"7a65236e-e55b-4305-a6c7-456e00675e76","system_id":"levelo_inurba_marseille","lat":43.27834,"lon":5.39208,"is_reserved":false,"is_disabled":false,"rental_uris":{"android":"levelo://app?vid=7a65236e-e55b-4305-a6c7-456e00675e76","ios":"levelo://app?vid=7a65236e-e55b-4305-a6c7-456e00675e76"},"vehicle_type_id":"4","last_reported":1738901458,"current_range_meters":38800,"station_id":"ce4bhjp2rcd13ifvqga0","pricing_plan_id":"cebpf4jnsgd1na2vs0mg"},{"bike_id":"f1e868e6-28ee-4f2b-b93f-93e7f49a24b4","system_id":"levelo_inurba_marseille","lat":43.29512,"lon":5.39393,"is_reserved":false,"is_disabled":false,"rental_uris":{"android":"levelo://app?vid=f1e868e6-28ee-4f2b-b93f-93e7f49a24b4","ios":"levelo://app?vid=f1e868e6-28ee-4f2b-b93f-93e7f49a24b4"},"vehicle_type_id":"4","last_reported":1738901458,"current_range_meters":23200,"station_id":"ce4bh292rcd13ifvqdf0","pricing_plan_id":"cebpf4jnsgd1na2vs0mg"},{"bike_id":"0d2768c4-ffd3-49e6-ae50-223632ef44ad","system_id":"levelo_inurba_marseille","lat":43.29696,"lon":5.37302,"is_reserved":false,"is_disabled":true,"rental_uris":{"android":"levelo://app?vid=0d2768c4-ffd3-49e6-ae50-223632ef44ad","ios":"levelo://app?vid=0d2768c4-ffd3-49e6-ae50-223632ef44ad"},"vehicle_type_id":"4","last_reported":1738901458,"current_range_meters":10800,"station_id":"ce4bho92rcd13ifvqh3g","pricing_plan_id":"cebpf4jnsgd1na2vs0mg"},{"bike_id":"db244f2b-d7b4-428a-96dc-e9dc179e078a","system_id":"levelo_inurba_marseille","lat":43.3136,"lon":5.38494,"is_reserved":false,"is_disabled":false,"rental_uris":{"android":"levelo://app?vid=db244f2b-d7b4-428a-96dc-e9dc179e078a","ios":"levelo://app?vid=db244f2b-d7b4-428a-96dc-e9dc179e078a"},"vehicle_type_id":"4","last_reported":1738901458,"current_range_meters":38000,"station_id":"ce4bgt92rcd13ifvqcf0","pricing_plan_id":"cebpf4jnsgd1na2vs0mg"},{"bike_id":"adea3fe0-0d5f-493f-bc7a-8db19cd779cc","system_id":"levelo_inurba_marseille","lat":43.26191,"lon":5.37904,"is_reserved":false,"is_disabled":false,"rental_uris":{"android":"levelo://app?vid=adea3fe0-0d5f-493f-bc7a-8db19cd779cc","ios":"levelo://app?vid=adea3fe0-0d5f-493f-bc7a-8db19cd779cc"},"vehicle_type_id":"4","last_reported":1738901458,"current_range_meters":38000,"station_id":"ce4bhjp2rcd13ifvqg90","pricing_plan_id":"cebpf4jnsgd1na2vs0mg"},{"bike_id":"51de6889-b180-4464-aff8-03e8a0c73f3a","system_id":"levelo_inurba_marseille","lat":43.30893,"lon":5.37179,"is_reserved":false,"is_disabled":false,"rental_uris":{"android":"levelo://app?vid=51de6889-b180-4464-aff8-03e8a0c73f3a","ios":"levelo://app?vid=51de6889-b180-4464-aff8-03e8a0c73f3a"},"vehicle_type_id":"4","last_reported":1738901458,"current_range_meters":39200,"station_id":"ce4bguh2rcd13ifvqckg","pricing_plan_id":"cebpf4jnsgd1na2vs0mg"},{"bike_id":"c6bcede6-aa04-430e-9bb4-767f52af1804","system_id":"levelo_inurba_marseille","lat":43.31378,"lon":5.38507,"is_reserved":false,"is_disabled":false,"rental_uris":{"android":"levelo://app?vid=c6bcede6-aa04-430e-9bb4-767f52af1804","ios":"levelo://app?vid=c6bcede6-aa04-430e-9bb4-767f52af1804"},"vehicle_type_id":"4","last_reported":1738901458,"current_range_meters":36800,"station_id":"ce4bgt92rcd13ifvqcf0","pricing_plan_id":"cebpf4jnsgd1na2vs0mg"},{"bike_id":"1e7a2219-8a62-4d64-ae7c-c3d6f0f90ba9","system_id":"levelo_inurba_marseille","lat":43.28435,"lon":5.39193,"is_reserved":false,"is_disabled":false,"rental_uris":{"android":"levelo://app?vid=1e7a2219-8a62-4d64-ae7c-c3d6f0f90ba9","ios":"levelo://app?vid=1e7a2219-8a62-4d64-ae7c-c3d6f0f90ba9"},"vehicle_type_id":"4","last_reported":1738901458,"current_range_meters":28400,"station_id":"ce4bhoh2rcd13ifvqh5g","pricing_plan_id":"cebpf4jnsgd1na2vs0mg"},{"bike_id":"c24a0944-9686-4c99-bfcb-6448fb0e1bb6","system_id":"levelo_inurba_marseille","lat":43.24062,"lon":5.37764,"is_reserved":false,"is_disabled":false,"rental_uris":{"android":"levelo://app?vid=c24a0944-9686-4c99-bfcb-6448fb0e1bb6","ios":"levelo://app?vid=c24a0944-9686-4c99-bfcb-6448fb0e1bb6"},"vehicle_type_id":"4","last_reported":1738901458,"current_range_meters":29600,"station_id":"ce4bhnp2rcd13ifvqgvg","pricing_plan_id":"cebpf4jnsgd1na2vs0mg"},{"bike_id":"ddabfc2f-5038-4225-9c45-0f70b1e37cba","system_id":"levelo_inurba_marseille","lat":43.317103,"lon":5.436959,"is_reserved":false,"is_disabled":false,"rental_uris":{"android":"levelo://app?vid=ddabfc2f-5038-4225-9c45-0f70b1e37cba","ios":"levelo://app?vid=ddabfc2f-5038-4225-9c45-0f70b1e37cba"},"vehicle_type_id":"4","last_reported":1738901458,"current_range_meters":38400,"station_id":"ce4bhp92rcd13ifvqhcg","pricing_plan_id":"cebpf4jnsgd1na2vs0mg"},{"bike_id":"c0f52518-3643-44b6-a509-18cd91f0cc86","system_id":"levelo_inurba_marseille","lat":43.298873,"lon":5.39733,"is_reserved":false,"is_disabled":false,"rental_uris":{"android":"levelo://app?vid=c0f52518-3643-44b6-a509-18cd91f0cc86","ios":"levelo://app?vid=c0f52518-3643-44b6-a509-18cd91f0cc86"},"vehicle_type_id":"4","last_reported":1738901458,"current_range_meters":9200,"station_id":"ce4bh0h2rcd13ifvqd50","pricing_plan_id":"cebpf4jnsgd1na2vs0mg"},{"bike_id":"a64a42b5-2022-40e2-b4b5-4c0a5bc2641c","system_id":"levelo_inurba_marseille","lat":43.27496,"lon":5.42451,"is_reserved":false,"is_disabled":false,"rental_uris":{"android":"levelo://app?vid=a64a42b5-2022-40e2-b4b5-4c0a5bc2641c","ios":"levelo://app?vid=a64a42b5-2022-40e2-b4b5-4c0a5bc2641c"},"vehicle_type_id":"4","last_reported":1738901458,"current_range_meters":3200,"station_id":"ce4bhn92rcd13ifvqgrg","pricing_plan_id":"cebpf4jnsgd1na2vs0mg"},{"bike_id":"3f938fb8-8354-44df-bb16-61e23a662415","system_id":"levelo_inurba_marseille","lat":43.28112,"lon":5.37843,"is_reserved":false,"is_disabled":false,"rental_uris":{"android":"levelo://app?vid=3f938fb8-8354-44df-bb16-61e23a662415","ios":"levelo://app?vid=3f938fb8-8354-44df-bb16-61e23a662415"},"vehicle_type_id":"4","last_reported":1738901458,"current_range_meters":19600,"station_id":"ce4bha12rcd13ifvqee0","pricing_plan_id":"cebpf4jnsgd1na2vs0mg"},{"bike_id":"f2df57fd-48fb-42b4-9b53-5e639c9b06ad","system_id":"levelo_inurba_marseille","lat":43.323579,"lon":5.388912,"is_reserved":false,"is_disabled":false,"rental_uris":{"android":"levelo://app?vid=f2df57fd-48fb-42b4-9b53-5e639c9b06ad","ios":"levelo://app?vid=f2df57fd-48fb-42b4-9b53-5e639c9b06ad"},"vehicle_type_id":"4","last_reported":1738901458,"current_range_meters":38800,"station_id":"ce4bhqp2rcd13ifvqhog","pricing_plan_id":"cebpf4jnsgd1na2vs0mg"},{"bike_id":"fa7dacf2-3c87-4fb3-bfe2-89403a2e75df","system_id":"levelo_inurba_marseille","lat":43.28438,"lon":5.39188,"is_reserved":false,"is_disabled":false,"rental_uris":{"android":"levelo://app?vid=fa7dacf2-3c87-4fb3-bfe2-89403a2e75df","ios":"levelo://app?vid=fa7dacf2-3c87-4fb3-bfe2-89403a2e75df"},"vehicle_type_id":"4","last_reported":1738901458,"current_range_meters":10800,"station_id":"ce4bhoh2rcd13ifvqh5g","pricing_plan_id":"cebpf4jnsgd1na2vs0mg"},{"bike_id":"8e791de0-6e91-4611-94c1-59007be40fa1","system_id":"levelo_inurba_marseille","lat":43.275621,"lon":5.384285,"is_reserved":false,"is_disabled":false,"rental_uris":{"android":"levelo://app?vid=8e791de0-6e91-4611-94c1-59007be40fa1","ios":"levelo://app?vid=8e791de0-6e91-4611-94c1-59007be40fa1"},"vehicle_type_id":"4","last_reported":1738901458,"current_range_meters":25200,"station_id":"ce4bhh92rcd13ifvqfi0","pricing_plan_id":"cebpf4jnsgd1na2vs0mg"},{"bike_id":"60f55e73-a880-4f24-b1cc-a214bb6f2753","system_id":"levelo_inurba_marseille","lat":43.25521,"lon":5.37661,"is_reserved":false,"is_disabled":false,"rental_uris":{"android":"levelo://app?vid=60f55e73-a880-4f24-b1cc-a214bb6f2753","ios":"levelo://app?vid=60f55e73-a880-4f24-b1cc-a214bb6f2753"},"vehicle_type_id":"4","last_reported":1738901458,"current_range_meters":36000,"station_id":"ce4bhh12rcd13ifvqff0","pricing_plan_id":"cebpf4jnsgd1na2vs0mg"},{"bike_id":"ca957970-bc7c-429b-80fd-e451c27e2ad9","system_id":"levelo_inurba_marseille","lat":43.33018,"lon":5.39035,"is_reserved":false,"is_disabled":false,"rental_uris":{"android":"levelo://app?vid=ca957970-bc7c-429b-80fd-e451c27e2ad9","ios":"levelo://app?vid=ca957970-bc7c-429b-80fd-e451c27e2ad9"},"vehicle_type_id":"4","last_reported":1738901458,"current_range_meters":39200,"station_id":"ce4bhr92rcd13ifvqhrg","pricing_plan_id":"cebpf4jnsgd1na2vs0mg"},{"bike_id":"59db9156-837c-4bef-bdf0-6cb05d00fb23","system_id":"levelo_inurba_marseille","lat":43.24165,"lon":5.3641,"is_reserved":false,"is_disabled":false,"rental_uris":{"android":"levelo://app?vid=59db9156-837c-4bef-bdf0-6cb05d00fb23","ios":"levelo://app?vid=59db9156-837c-4bef-bdf0-6cb05d00fb23"},"vehicle_type_id":"4","last_reported":1738901458,"current_range_meters":33200,"station_id":"cpo36qri1sfpv3e86is0","pricing_plan_id":"cebpf4jnsgd1na2vs0mg"},{"bike_id":"8a67da58-cf32-4163-a9c0-454a297e60c9","system_id":"levelo_inurba_marseille","lat":43.29556,"lon":5.42291,"is_reserved":false,"is_disabled":false,"rental_uris":{"android":"levelo://app?vid=8a67da58-cf32-4163-a9c0-454a297e60c9","ios":"levelo://app?vid=8a67da58-cf32-4163-a9c0-454a297e60c9"},"vehicle_type_id":"4","last_reported":1738901458,"current_range_meters":16800,"station_id":"ce4bhph2rcd13ifvqhdg","pricing_plan_id":"cebpf4jnsgd1na2vs0mg"},{"bike_id":"a82ded2b-1090-4b11-a00f-b79e72afb961","system_id":"levelo_inurba_marseille","lat":43.279465,"lon":5.410467,"is_reserved":false,"is_disabled":false,"rental_uris":{"android":"levelo://app?vid=a82ded2b-1090-4b11-a00f-b79e72afb961","ios":"levelo://app?vid=a82ded2b-1090-4b11-a00f-b79e72afb961"},"vehicle_type_id":"4","last_reported":1738901458,"current_range_meters":8800,"station_id":"ce4bhnp2rcd13ifvqh0g","pricing_plan_id":"cebpf4jnsgd1na2vs0mg"},{"bike_id":"19c91191-64ee-4803-94d7-14a4a66340df","system_id":"levelo_inurba_marseille","lat":43.317123,"lon":5.424029,"is_reserved":false,"is_disabled":true,"rental_uris":{"android":"levelo://app?vid=19c91191-64ee-4803-94d7-14a4a66340df","ios":"levelo://app?vid=19c91191-64ee-4803-94d7-14a4a66340df"},"vehicle_type_id":"4","last_reported":1738901458,"current_range_meters":0,"station_id":"ce4bhp92rcd13ifvqhbg","pricing_plan_id":"cebpf4jnsgd1na2vs0mg"},{"bike_id":"0a6a90a0-b9a1-4553-942b-9cc8f0c94f66","system_id":"levelo_inurba_marseille","lat":43.292531,"lon":5.409121,"is_reserved":false,"is_disabled":true,"rental_uris":{"android":"levelo://app?vid=0a6a90a0-b9a1-4553-942b-9cc8f0c94f66","ios":"levelo://app?vid=0a6a90a0-b9a1-4553-942b-9cc8f0c94f66"},"vehicle_type_id":"4","last_reported":1738901458,"current_range_meters":16400,"station_id":"ce4bh192rcd13ifvqdc0","pricing_plan_id":"cebpf4jnsgd1na2vs0mg"},{"bike_id":"8a726cf3-8e30-4d02-a6ed-05ce5072f6e5","system_id":"levelo_inurba_marseille","lat":43.26506,"lon":5.39537,"is_reserved":false,"is_disabled":false,"rental_uris":{"android":"levelo://app?vid=8a726cf3-8e30-4d02-a6ed-05ce5072f6e5","ios":"levelo://app?vid=8a726cf3-8e30-4d02-a6ed-05ce5072f6e5"},"vehicle_type_id":"4","last_reported":1738901458,"current_range_meters":38800,"station_id":"ce4bhi12rcd13ifvqfq0","pricing_plan_id":"cebpf4jnsgd1na2vs0mg"},{"bike_id":"fef1bd1d-2ad2-48f6-a1bb-d87aafe8c512","system_id":"levelo_inurba_marseille","lat":43.28926,"lon":5.36403,"is_reserved":false,"is_disabled":true,"rental_uris":{"android":"levelo://app?vid=fef1bd1d-2ad2-48f6-a1bb-d87aafe8c512","ios":"levelo://app?vid=fef1bd1d-2ad2-48f6-a1bb-d87aafe8c512"},"vehicle_type_id":"4","last_reported":1738901458,"current_range_meters":0,"station_id":"ce4bhc92rcd13ifvqetg","pricing_plan_id":"cebpf4jnsgd1na2vs0mg"},{"bike_id":"1df03635-8b6b-4117-9c9b-a2afa7bb927f","system_id":"levelo_inurba_marseille","lat":43.23182,"lon":5.39994,"is_reserved":false,"is_disabled":false,"rental_uris":{"android":"levelo://app?vid=1df03635-8b6b-4117-9c9b-a2afa7bb927f","ios":"levelo://app?vid=1df03635-8b6b-4117-9c9b-a2afa7bb927f"},"vehicle_type_id":"4","last_reported":1738901458,"current_range_meters":20800,"station_id":"ce4bhn12rcd13ifvqgqg","pricing_plan_id":"cebpf4jnsgd1na2vs0mg"},{"bike_id":"b6306b21-43ab-4439-b67f-29d0b5cdce20","system_id":"levelo_inurba_marseille","lat":43.29794,"lon":5.39341,"is_reserved":false,"is_disabled":false,"rental_uris":{"android":"levelo://app?vid=b6306b21-43ab-4439-b67f-29d0b5cdce20","ios":"levelo://app?vid=b6306b21-43ab-4439-b67f-29d0b5cdce20"},"vehicle_type_id":"4","last_reported":1738901458,"current_range_meters":38800,"station_id":"chh1huq6cuj3fo74tm60","pricing_plan_id":"cebpf4jnsgd1na2vs0mg"},{"bike_id":"63502e7d-71b3-44d6-b82d-6352b6e3809f","system_id":"levelo_inurba_marseille","lat":43.258289,"lon":5.394271,"is_reserved":false,"is_disabled":false,"rental_uris":{"android":"levelo://app?vid=63502e7d-71b3-44d6-b82d-6352b6e3809f","ios":"levelo://app?vid=63502e7d-71b3-44d6-b82d-6352b6e3809f"},"vehicle_type_id":"4","last_reported":1738901458,"current_range_meters":38400,"station_id":"ce4bhip2rcd13ifvqft0","pricing_plan_id":"cebpf4jnsgd1na2vs0mg"},{"bike_id":"aa20ddd3-fab3-4250-b35b-41c0ae9e33eb","system_id":"levelo_inurba_marseille","lat":43.2453,"lon":5.372946,"is_reserved":false,"is_disabled":false,"rental_uris":{"android":"levelo://app?vid=aa20ddd3-fab3-4250-b35b-41c0ae9e33eb","ios":"levelo://app?vid=aa20ddd3-fab3-4250-b35b-41c0ae9e33eb"},"vehicle_type_id":"4","last_reported":1738901458,"current_range_meters":14000,"station_id":"","pricing_plan_id":"cebpf4jnsgd1na2vs0mg"},{"bike_id":"d77db434-8b7a-4532-8701-fa3236c1cc15","system_id":"levelo_inurba_marseille","lat":43.314848,"lon":5.37307,"is_reserved":false,"is_disabled":false,"rental_uris":{"android":"levelo://app?vid=d77db434-8b7a-4532-8701-fa3236c1cc15","ios":"levelo://app?vid=d77db434-8b7a-4532-8701-fa3236c1cc15"},"vehicle_type_id":"4","last_reported":1738901458,"current_range_meters":38000,"station_id":"ce4bgt12rcd13ifvqcd0","pricing_plan_id":"cebpf4jnsgd1na2vs0mg"},{"bike_id":"9c7286d9-1fae-4bbf-80d6-fdda1aaf922f","system_id":"levelo_inurba_marseille","lat":43.315301,"lon":5.380348,"is_reserved":false,"is_disabled":false,"rental_uris":{"android":"levelo://app?vid=9c7286d9-1fae-4bbf-80d6-fdda1aaf922f","ios":"levelo://app?vid=9c7286d9-1fae-4bbf-80d6-fdda1aaf922f"},"vehicle_type_id":"4","last_reported":1738901458,"current_range_meters":38800,"station_id":"ce4bhsp2rcd13ifvqi50","pricing_plan_id":"cebpf4jnsgd1na2vs0mg"},{"bike_id":"744f4122-a65c-499d-80ba-7729a1ce92fe","system_id":"levelo_inurba_marseille","lat":43.28439,"lon":5.39181,"is_reserved":false,"is_disabled":true,"rental_uris":{"android":"levelo://app?vid=744f4122-a65c-499d-80ba-7729a1ce92fe","ios":"levelo://app?vid=744f4122-a65c-499d-80ba-7729a1ce92fe"},"vehicle_type_id":"4","last_reported":1738901458,"current_range_meters":38000,"station_id":"ce4bhoh2rcd13ifvqh5g","pricing_plan_id":"cebpf4jnsgd1na2vs0mg"},{"bike_id":"0e2ba579-8a6a-4848-b615-bb63d85e0b3c","system_id":"levelo_inurba_marseille","lat":43.27316,"lon":5.39114,"is_reserved":false,"is_disabled":true,"rental_uris":{"android":"levelo://app?vid=0e2ba579-8a6a-4848-b615-bb63d85e0b3c","ios":"levelo://app?vid=0e2ba579-8a6a-4848-b615-bb63d85e0b3c"},"vehicle_type_id":"4","last_reported":1738901458,"current_range_meters":38000,"station_id":"ce4bhgp2rcd13ifvqfe0","pricing_plan_id":"cebpf4jnsgd1na2vs0mg"},{"bike_id":"5d1dacf3-3fa1-40ba-8373-ce163dd2d283","system_id":"levelo_inurba_marseille","lat":43.26214,"lon":5.37952,"is_reserved":false,"is_disabled":false,"rental_uris":{"android":"levelo://app?vid=5d1dacf3-3fa1-40ba-8373-ce163dd2d283","ios":"levelo://app?vid=5d1dacf3-3fa1-40ba-8373-ce163dd2d283"},"vehicle_type_id":"4","last_reported":1738901458,"current_range_meters":38800,"station_id":"ce4bhjp2rcd13ifvqg90","pricing_plan_id":"cebpf4jnsgd1na2vs0mg"},{"bike_id":"0fe1a703-06d5-4463-92fe-eceebd590662","system_id":"levelo_inurba_marseille","lat":43.3013,"lon":5.39868,"is_reserved":false,"is_disabled":false,"rental_uris":{"android":"levelo://app?vid=0fe1a703-06d5-4463-92fe-eceebd590662","ios":"levelo://app?vid=0fe1a703-06d5-4463-92fe-eceebd590662"},"vehicle_type_id":"4","last_reported":1738901458,"current_range_meters":38000,"station_id":"ce4bh0h2rcd13ifvqd40","pricing_plan_id":"cebpf4jnsgd1na2vs0mg"},{"bike_id":"a586efd1-1909-47f8-ae1c-deddbc8bc85e","system_id":"levelo_inurba_marseille","lat":43.308833,"lon":5.39641,"is_reserved":false,"is_disabled":false,"rental_uris":{"android":"levelo://app?vid=a586efd1-1909-47f8-ae1c-deddbc8bc85e","ios":"levelo://app?vid=a586efd1-1909-47f8-ae1c-deddbc8bc85e"},"vehicle_type_id":"4","last_reported":1738901458,"current_range_meters":7200,"station_id":"ce4bh012rcd13ifvqcv0","pricing_plan_id":"cebpf4jnsgd1na2vs0mg"},{"bike_id":"eb192197-0219-4cdf-905a-c64bd68ab8be","system_id":"levelo_inurba_marseille","lat":43.284564,"lon":5.358919,"is_reserved":false,"is_disabled":false,"rental_uris":{"android":"levelo://app?vid=eb192197-0219-4cdf-905a-c64bd68ab8be","ios":"levelo://app?vid=eb192197-0219-4cdf-905a-c64bd68ab8be"},"vehicle_type_id":"4","last_reported":1738901458,"current_range_meters":38800,"station_id":"ce4bhah2rcd13ifvqei0","pricing_plan_id":"cebpf4jnsgd1na2vs0mg"},{"bike_id":"8b2375cd-7bac-4044-8d34-541a6bd9df3d","system_id":"levelo_inurba_marseille","lat":43.28667,"lon":5.36336,"is_reserved":false,"is_disabled":false,"rental_uris":{"android":"levelo://app?vid=8b2375cd-7bac-4044-8d34-541a6bd9df3d","ios":"levelo://app?vid=8b2375cd-7bac-4044-8d34-541a6bd9df3d"},"vehicle_type_id":"4","last_reported":1738901458,"current_range_meters":30400,"station_id":"ce4bhah2rcd13ifvqej0","pricing_plan_id":"cebpf4jnsgd1na2vs0mg"},{"bike_id":"26226eb4-bffe-4870-bfd9-66722275b374","system_id":"levelo_inurba_marseille","lat":43.284565,"lon":5.358949,"is_reserved":false,"is_disabled":false,"rental_uris":{"android":"levelo://app?vid=26226eb4-bffe-4870-bfd9-66722275b374","ios":"levelo://app?vid=26226eb4-bffe-4870-bfd9-66722275b374"},"vehicle_type_id":"4","last_reported":1738901458,"current_range_meters":38000,"station_id":"ce4bhah2rcd13ifvqei0","pricing_plan_id":"cebpf4jnsgd1na2vs0mg"},{"bike_id":"26017f9a-0c9b-4ba1-9c17-c94a66a42007","system_id":"levelo_inurba_marseille","lat":43.29342,"lon":5.4022,"is_reserved":false,"is_disabled":false,"rental_uris":{"android":"levelo://app?vid=26017f9a-0c9b-4ba1-9c17-c94a66a42007","ios":"levelo://app?vid=26017f9a-0c9b-4ba1-9c17-c94a66a42007"},"vehicle_type_id":"4","last_reported":1738901458,"current_range_meters":38800,"station_id":"ce4bh312rcd13ifvqdk0","pricing_plan_id":"cebpf4jnsgd1na2vs0mg"},{"bike_id":"09a9ac53-cd06-4438-9a55-77242cbf0611","system_id":"levelo_inurba_marseille","lat":43.24179,"lon":5.39714,"is_reserved":false,"is_disabled":false,"rental_uris":{"android":"levelo://app?vid=09a9ac53-cd06-4438-9a55-77242cbf0611","ios":"levelo://app?vid=09a9ac53-cd06-4438-9a55-77242cbf0611"},"vehicle_type_id":"4","last_reported":1738901458,"current_range_meters":6800,"station_id":"ce4bhn12rcd13ifvqgpg","pricing_plan_id":"cebpf4jnsgd1na2vs0mg"},{"bike_id":"528241cb-7275-47c1-85e9-ff7a37a61cca","system_id":"levelo_inurba_marseille","lat":43.30476,"lon":5.37905,"is_reserved":false,"is_disabled":false,"rental_uris":{"android":"levelo://app?vid=528241cb-7275-47c1-85e9-ff7a37a61cca","ios":"levelo://app?vid=528241cb-7275-47c1-85e9-ff7a37a61cca"},"vehicle_type_id":"4","last_reported":1738901458,"current_range_meters":33200,"station_id":"ce4bgup2rcd13ifvqcn0","pricing_plan_id":"cebpf4jnsgd1na2vs0mg"},